{"last_updated":1701004038,"ttl":30,"version":"2.2","data":{"bikes":[{"bike_id":"6a016b3a-b2d3-4f01-89cb-938c69fa36d8","system_id":"levelo_inurba_marseille","lat":43.31733,"lon":5.36808,"is_reserved":false,"is_disabled":false,"rental_uris":{"android":"levelo://app?vid=6a016b3a-b2d3-4f01-89cb-938c69fa36d8","ios":"levelo://app?vid=6a016b3a-b2d3-4f01-89cb-938c69fa36d8"},"vehicle_type_id":"4","last_reported":1701004038,"current_range_meters":28000,"station_id":"","pricing_plan_id":"free"},{"bike_id":"7804473a-f1d7-4d55-9fcc-84372a3d787c","system_id":"levelo_inurba_marseille","lat":43.306886,"lon":5.365626,"is_reserved":false,"is_disabled":false,"rental_uris":{"android":"levelo://app?vid=7804473a-f1d7-4d55-9fcc-84372a3d787c","ios":"levelo://app?vid=7804473a-f1d7-4d55-9fcc-84372a3d787c"},"vehicle_type_id":"4","last_reported":1701004038,"current_range_meters":30000,"station_id":"","pricing_plan_id":"free"},{"bike_id":"573a870a-b6c4-429d-8587-8103772b84bc","system_id":"levelo_inurba_marseille","lat":43.308197,"lon":5.376558,"is_reserved":false,"is_disabled":false,"rental_uris":{"android":"levelo://app?vid=573a870a-b6c4-429d-8587-8103772b84bc","ios":"levelo://app?vid=573a870a-b6c4-429d-8587-8103772b84bc"},"vehicle_type_id":"4","last_reported":1701004038,"current_range_meters":400,"station_id":"ce4bgv92rcd13ifvqcq0","pricing_plan_id":"free"},{"bike_id":"f427a2c3-6e4a-446b-ae2f-9be8aa7f4122","system_id":"levelo_inurba_marseille","lat":43.31719,"lon":5.376813,"is_reserved":false,"is_disabled":false,"rental_uris":{"android":"levelo://app?vid=f427a2c3-6e4a-446b-ae2f-9be8aa7f4122","ios":"levelo://app?vid=f427a2c3-6e4a-446b-ae2f-9be8aa7f4122"},"vehicle_type_id":"4","last_reported":1701004038,"current_range_meters":21200,"station_id":"ce4bgth2rcd13ifvqch0","pricing_plan_id":"free"},{"bike_id":"b898b018-f57d-4901-bab2-fdd15d391de9","system_id":"levelo_inurba_marseille","lat":43.317168,"lon":5.376883,"is_reserved":false,"is_disabled":false,"rental_uris":{"android":"levelo://app?vid=b898b018-f57d-4901-bab2-fdd15d391de9","ios":"levelo://app?vid=b898b018-f57d-4901-bab2-fdd15d391de9"},"vehicle_type_id":"4","last_reported":1701004038,"current_range_meters":23200,"station_id":"ce4bgth2rcd13ifvqch0","pricing_plan_id":"free"},{"bike_id":"4bdacffb-3018-4dde-b2fa-66b23f09e7ce","system_id":"levelo_inurba_marseille","lat":43.307945,"lon":5.376487,"is_reserved":false,"is_disabled":false,"rental_uris":{"android":"levelo://app?vid=4bdacffb-3018-4dde-b2fa-66b23f09e7ce","ios":"levelo://app?vid=4bdacffb-3018-4dde-b2fa-66b23f09e7ce"},"vehicle_type_id":"4","last_reported":1701004038,"current_range_meters":2000,"station_id":"ce4bgv92rcd13ifvqcq0","pricing_plan_id":"free"},{"bike_id":"4f728ce1-9717-48f0-ba5d-404851e2a938","system_id":"levelo_inurba_marseille","lat":43.307945,"lon":5.376487,"is_reserved":false,"is_disabled":false,"rental_uris":{"android":"levelo://app?vid=4f728ce1-9717-48f0-ba5d-404851e2a938","ios":"levelo://app?vid=4f728ce1-9717-48f0-ba5d-404851e2a938"},"vehicle_type_id":"4","last_reported":1701004038,"current_range_meters":12000,"station_id":"ce4bgv92rcd13ifvqcq0","pricing_plan_id":"free"},{"bike_id":"eab5a682-009e-493d-8cb8-5b080ea89d1d","system_id":"levelo_inurba_marseille","lat":43.307945,"lon":5.376487,"is_reserved":false,"is_disabled":false,"rental_uris":{"android":"levelo://app?vid=eab5a682-009e-493d-8cb8-5b080ea89d1d","ios":"levelo://app?vid=eab5a682-009e-493d-8cb8-5b080ea89d1d"},"vehicle_type_id":"4","last_reported":1701004038,"current_range_meters":30800,"station_id":"ce4bgv92rcd13ifvqcq0","pricing_plan_id":"free"},{"bike_id":"5917c11e-ced0-49a6-a855-9c9ef1327215","system_id":"levelo_inurba_marseille","lat":43.307945,"lon":5.376487,"is_reserved":false,"is_disabled":false,"rental_uris":{"android":"levelo://app?vid=5917c11e-ced0-49a6-a855-9c9ef1327215","ios":"levelo://app?vid=5917c11e-ced0-49a6-a855-9c9ef1327215"},"vehicle_type_id":"4","last_reported":1701004038,"current_range_meters":18800,"station_id":"ce4bgv92rcd13ifvqcq0","pricing_plan_id":"free"},{"bike_id":"0de1245e-2dfb-4b7c-a0ac-02f59047def3","system_id":"levelo_inurba_marseille","lat":43.303046,"lon":5.368981,"is_reserved":false,"is_disabled":false,"rental_uris":{"android":"levelo://app?vid=0de1245e-2dfb-4b7c-a0ac-02f59047def3","ios":"levelo://app?vid=0de1245e-2dfb-4b7c-a0ac-02f59047def3"},"vehicle_type_id":"4","last_reported":1701004038,"current_range_meters":27200,"station_id":"ce4bgqh2rcd13ifvqc5g","pricing_plan_id":"free"},{"bike_id":"93e6c989-b13a-47f3-8ffb-bac403d65c33","system_id":"levelo_inurba_marseille","lat":43.301939,"lon":5.366286,"is_reserved":false,"is_disabled":false,"rental_uris":{"android":"levelo://app?vid=93e6c989-b13a-47f3-8ffb-bac403d65c33","ios":"levelo://app?vid=93e6c989-b13a-47f3-8ffb-bac403d65c33"},"vehicle_type_id":"4","last_reported":1701004038,"current_range_meters":11600,"station_id":"ce4bgrh2rcd13ifvqc8g","pricing_plan_id":"free"},{"bike_id":"08adead0-1dd0-48a3-b10c-607b298612d7","system_id":"levelo_inurba_marseille","lat":43.301429,"lon":5.37413,"is_reserved":false,"is_disabled":false,"rental_uris":{"android":"levelo://app?vid=08adead0-1dd0-48a3-b10c-607b298612d7","ios":"levelo://app?vid=08adead0-1dd0-48a3-b10c-607b298612d7"},"vehicle_type_id":"4","last_reported":1701004038,"current_range_meters":28000,"station_id":"ce4bgs92rcd13ifvqcc0","pricing_plan_id":"free"},{"bike_id":"26061dc1-f3f3-435b-9aeb-5dcc2d311c36","system_id":"levelo_inurba_marseille","lat":43.301429,"lon":5.37413,"is_reserved":false,"is_disabled":false,"rental_uris":{"android":"levelo://app?vid=26061dc1-f3f3-435b-9aeb-5dcc2d311c36","ios":"levelo://app?vid=26061dc1-f3f3-435b-9aeb-5dcc2d311c36"},"vehicle_type_id":"4","last_reported":1701004038,"current_range_meters":24000,"station_id":"ce4bgs92rcd13ifvqcc0","pricing_plan_id":"free"},{"bike_id":"37b33645-89d7-4706-ad67-8561aeaa3082","system_id":"levelo_inurba_marseille","lat":43.31361,"lon":5.38501,"is_reserved":false,"is_disabled":false,"rental_uris":{"android":"levelo://app?vid=37b33645-89d7-4706-ad67-8561aeaa3082","ios":"levelo://app?vid=37b33645-89d7-4706-ad67-8561aeaa3082"},"vehicle_type_id":"4","last_reported":1701004038,"current_range_meters":0,"station_id":"ce4bgt92rcd13ifvqcf0","pricing_plan_id":"free"},{"bike_id":"e5a6bb0c-7e53-4ebe-ad04-b41ef730eefc","system_id":"levelo_inurba_marseille","lat":43.299724,"lon":5.371829,"is_reserved":false,"is_disabled":false,"rental_uris":{"android":"levelo://app?vid=e5a6bb0c-7e53-4ebe-ad04-b41ef730eefc","ios":"levelo://app?vid=e5a6bb0c-7e53-4ebe-ad04-b41ef730eefc"},"vehicle_type_id":"4","last_reported":1701004038,"current_range_meters":14400,"station_id":"ce4bgr92rcd13ifvqc7g","pricing_plan_id":"free"},{"bike_id":"940589ea-bc29-4175-9576-f538f32aa29e","system_id":"levelo_inurba_marseille","lat":43.299209,"lon":5.365547,"is_reserved":false,"is_disabled":false,"rental_uris":{"android":"levelo://app?vid=940589ea-bc29-4175-9576-f538f32aa29e","ios":"levelo://app?vid=940589ea-bc29-4175-9576-f538f32aa29e"},"vehicle_type_id":"4","last_reported":1701004038,"current_range_meters":18800,"station_id":"ce4bgm92rcd13ifvqbr0","pricing_plan_id":"free"},{"bike_id":"3c0f0e03-19e8-4b31-9bda-a925ec1d2126","system_id":"levelo_inurba_marseille","lat":43.298433,"lon":5.362774,"is_reserved":false,"is_disabled":false,"rental_uris":{"android":"levelo://app?vid=3c0f0e03-19e8-4b31-9bda-a925ec1d2126","ios":"levelo://app?vid=3c0f0e03-19e8-4b31-9bda-a925ec1d2126"},"vehicle_type_id":"4","last_reported":1701004038,"current_range_meters":800,"station_id":"ce4bgpp2rcd13ifvqc3g","pricing_plan_id":"free"},{"bike_id":"e7f47ecb-a43c-4a16-9ad6-cc6de4f6da1a","system_id":"levelo_inurba_marseille","lat":43.298433,"lon":5.362774,"is_reserved":false,"is_disabled":false,"rental_uris":{"android":"levelo://app?vid=e7f47ecb-a43c-4a16-9ad6-cc6de4f6da1a","ios":"levelo://app?vid=e7f47ecb-a43c-4a16-9ad6-cc6de4f6da1a"},"vehicle_type_id":"4","last_reported":1701004038,"current_range_meters":16400,"station_id":"ce4bgpp2rcd13ifvqc3g","pricing_plan_id":"free"},{"bike_id":"4084e26a-4a5b-4c30-a290-34faaca8cb02","system_id":"levelo_inurba_marseille","lat":43.298433,"lon":5.362774,"is_reserved":false,"is_disabled":false,"rental_uris":{"android":"levelo://app?vid=4084e26a-4a5b-4c30-a290-34faaca8cb02","ios":"levelo://app?vid=4084e26a-4a5b-4c30-a290-34faaca8cb02"},"vehicle_type_id":"4","last_reported":1701004038,"current_range_meters":30800,"station_id":"ce4bgpp2rcd13ifvqc3g","pricing_plan_id":"free"},{"bike_id":"828e663a-c34d-45d1-849c-ab680196da69","system_id":"levelo_inurba_marseille","lat":43.298433,"lon":5.362774,"is_reserved":false,"is_disabled":false,"rental_uris":{"android":"levelo://app?vid=828e663a-c34d-45d1-849c-ab680196da69","ios":"levelo://app?vid=828e663a-c34d-45d1-849c-ab680196da69"},"vehicle_type_id":"4","last_reported":1701004038,"current_range_meters":31600,"station_id":"ce4bgpp2rcd13ifvqc3g","pricing_plan_id":"free"},{"bike_id":"148d2f75-f777-4f2c-bae0-fa6e972ee9d8","system_id":"levelo_inurba_marseille","lat":43.298433,"lon":5.362774,"is_reserved":false,"is_disabled":false,"rental_uris":{"android":"levelo://app?vid=148d2f75-f777-4f2c-bae0-fa6e972ee9d8","ios":"levelo://app?vid=148d2f75-f777-4f2c-bae0-fa6e972ee9d8"},"vehicle_type_id":"4","last_reported":1701004038,"current_range_meters":26000,"station_id":"ce4bgpp2rcd13ifvqc3g","pricing_plan_id":"free"},{"bike_id":"a87de9e0-a2ef-4051-baa8-896bfef2b0e1","system_id":"levelo_inurba_marseille","lat":43.298433,"lon":5.362774,"is_reserved":false,"is_disabled":false,"rental_uris":{"android":"levelo://app?vid=a87de9e0-a2ef-4051-baa8-896bfef2b0e1","ios":"levelo://app?vid=a87de9e0-a2ef-4051-baa8-896bfef2b0e1"},"vehicle_type_id":"4","last_reported":1701004038,"current_range_meters":27600,"station_id":"ce4bgpp2rcd13ifvqc3g","pricing_plan_id":"free"},{"bike_id":"e9649d6a-b92d-4085-aee8-7169d991ab13","system_id":"levelo_inurba_marseille","lat":43.311727,"lon":5.38712,"is_reserved":false,"is_disabled":false,"rental_uris":{"android":"levelo://app?vid=e9649d6a-b92d-4085-aee8-7169d991ab13","ios":"levelo://app?vid=e9649d6a-b92d-4085-aee8-7169d991ab13"},"vehicle_type_id":"4","last_reported":1701004038,"current_range_meters":13600,"station_id":"ce4bgup2rcd13ifvqco0","pricing_plan_id":"free"},{"bike_id":"ca4f025d-847e-463d-9741-b0dc0612a007","system_id":"levelo_inurba_marseille","lat":43.299243,"lon":5.37481,"is_reserved":false,"is_disabled":false,"rental_uris":{"android":"levelo://app?vid=ca4f025d-847e-463d-9741-b0dc0612a007","ios":"levelo://app?vid=ca4f025d-847e-463d-9741-b0dc0612a007"},"vehicle_type_id":"4","last_reported":1701004038,"current_range_meters":28400,"station_id":"ce4bgjh2rcd13ifvqbg0","pricing_plan_id":"free"},{"bike_id":"09dc20f0-3e51-467e-9163-88a9d61888eb","system_id":"levelo_inurba_marseille","lat":43.299243,"lon":5.37481,"is_reserved":false,"is_disabled":false,"rental_uris":{"android":"levelo://app?vid=09dc20f0-3e51-467e-9163-88a9d61888eb","ios":"levelo://app?vid=09dc20f0-3e51-467e-9163-88a9d61888eb"},"vehicle_type_id":"4","last_reported":1701004038,"current_range_meters":26800,"station_id":"ce4bgjh2rcd13ifvqbg0","pricing_plan_id":"free"},{"bike_id":"ca663ccc-b5f4-4f4c-8f28-b379a053147d","system_id":"levelo_inurba_marseille","lat":43.29778,"lon":5.371017,"is_reserved":false,"is_disabled":false,"rental_uris":{"android":"levelo://app?vid=ca663ccc-b5f4-4f4c-8f28-b379a053147d","ios":"levelo://app?vid=ca663ccc-b5f4-4f4c-8f28-b379a053147d"},"vehicle_type_id":"4","last_reported":1701004038,"current_range_meters":0,"station_id":"ce4bgop2rcd13ifvqc1g","pricing_plan_id":"free"},{"bike_id":"7070f7a9-19c7-483e-85ff-6088c1583f3e","system_id":"levelo_inurba_marseille","lat":43.328371,"lon":5.366909,"is_reserved":false,"is_disabled":false,"rental_uris":{"android":"levelo://app?vid=7070f7a9-19c7-483e-85ff-6088c1583f3e","ios":"levelo://app?vid=7070f7a9-19c7-483e-85ff-6088c1583f3e"},"vehicle_type_id":"4","last_reported":1701004038,"current_range_meters":18400,"station_id":"ce4bhs92rcd13ifvqi0g","pricing_plan_id":"free"},{"bike_id":"0414c00f-0671-4836-8674-bcfab38c0719","system_id":"levelo_inurba_marseille","lat":43.297163,"lon":5.365866,"is_reserved":false,"is_disabled":false,"rental_uris":{"android":"levelo://app?vid=0414c00f-0671-4836-8674-bcfab38c0719","ios":"levelo://app?vid=0414c00f-0671-4836-8674-bcfab38c0719"},"vehicle_type_id":"4","last_reported":1701004038,"current_range_meters":30400,"station_id":"ce4bgn12rcd13ifvqbt0","pricing_plan_id":"free"},{"bike_id":"bd86b782-d866-4dce-a0f8-20f46a278ea4","system_id":"levelo_inurba_marseille","lat":43.297163,"lon":5.365866,"is_reserved":false,"is_disabled":false,"rental_uris":{"android":"levelo://app?vid=bd86b782-d866-4dce-a0f8-20f46a278ea4","ios":"levelo://app?vid=bd86b782-d866-4dce-a0f8-20f46a278ea4"},"vehicle_type_id":"4","last_reported":1701004038,"current_range_meters":27600,"station_id":"ce4bgn12rcd13ifvqbt0","pricing_plan_id":"free"},{"bike_id":"6be30d78-e035-4438-b68c-e43fe2273fdb","system_id":"levelo_inurba_marseille","lat":43.297163,"lon":5.365866,"is_reserved":false,"is_disabled":false,"rental_uris":{"android":"levelo://app?vid=6be30d78-e035-4438-b68c-e43fe2273fdb","ios":"levelo://app?vid=6be30d78-e035-4438-b68c-e43fe2273fdb"},"vehicle_type_id":"4","last_reported":1701004038,"current_range_meters":21200,"station_id":"ce4bgn12rcd13ifvqbt0","pricing_plan_id":"free"},{"bike_id":"afd58ae6-dbd1-405e-9e93-f62279a38c93","system_id":"levelo_inurba_marseille","lat":43.296131,"lon":5.370791,"is_reserved":false,"is_disabled":false,"rental_uris":{"android":"levelo://app?vid=afd58ae6-dbd1-405e-9e93-f62279a38c93","ios":"levelo://app?vid=afd58ae6-dbd1-405e-9e93-f62279a38c93"},"vehicle_type_id":"4","last_reported":1701004038,"current_range_meters":30000,"station_id":"ce4bgnh2rcd13ifvqc0g","pricing_plan_id":"free"},{"bike_id":"663d21e8-2e74-4084-92c9-81d38f995fd9","system_id":"levelo_inurba_marseille","lat":43.29573,"lon":5.367355,"is_reserved":false,"is_disabled":false,"rental_uris":{"android":"levelo://app?vid=663d21e8-2e74-4084-92c9-81d38f995fd9","ios":"levelo://app?vid=663d21e8-2e74-4084-92c9-81d38f995fd9"},"vehicle_type_id":"4","last_reported":1701004038,"current_range_meters":31600,"station_id":"ce4bgph2rcd13ifvqc2g","pricing_plan_id":"free"},{"bike_id":"e0ae1ded-102e-4538-9b67-dc8c5608e8d8","system_id":"levelo_inurba_marseille","lat":43.29573,"lon":5.367355,"is_reserved":false,"is_disabled":false,"rental_uris":{"android":"levelo://app?vid=e0ae1ded-102e-4538-9b67-dc8c5608e8d8","ios":"levelo://app?vid=e0ae1ded-102e-4538-9b67-dc8c5608e8d8"},"vehicle_type_id":"4","last_reported":1701004038,"current_range_meters":30000,"station_id":"ce4bgph2rcd13ifvqc2g","pricing_plan_id":"free"},{"bike_id":"e0955eb1-96b5-4fb4-8bb1-128bc1578e8e","system_id":"levelo_inurba_marseille","lat":43.31756,"lon":5.39014,"is_reserved":false,"is_disabled":false,"rental_uris":{"android":"levelo://app?vid=e0955eb1-96b5-4fb4-8bb1-128bc1578e8e","ios":"levelo://app?vid=e0955eb1-96b5-4fb4-8bb1-128bc1578e8e"},"vehicle_type_id":"4","last_reported":1701004038,"current_range_meters":4400,"station_id":"ce4bhqp2rcd13ifvqhng","pricing_plan_id":"free"},{"bike_id":"af87a30b-b2ee-487c-a806-192b44e00ca8","system_id":"levelo_inurba_marseille","lat":43.31756,"lon":5.39017,"is_reserved":false,"is_disabled":false,"rental_uris":{"android":"levelo://app?vid=af87a30b-b2ee-487c-a806-192b44e00ca8","ios":"levelo://app?vid=af87a30b-b2ee-487c-a806-192b44e00ca8"},"vehicle_type_id":"4","last_reported":1701004038,"current_range_meters":29200,"station_id":"ce4bhqp2rcd13ifvqhng","pricing_plan_id":"free"},{"bike_id":"248ccf32-6b80-4407-a28a-f614d336a6b5","system_id":"levelo_inurba_marseille","lat":43.295748,"lon":5.37522,"is_reserved":false,"is_disabled":false,"rental_uris":{"android":"levelo://app?vid=248ccf32-6b80-4407-a28a-f614d336a6b5","ios":"levelo://app?vid=248ccf32-6b80-4407-a28a-f614d336a6b5"},"vehicle_type_id":"4","last_reported":1701004038,"current_range_meters":0,"station_id":"ce4bgh92rcd13ifvqb50","pricing_plan_id":"free"},{"bike_id":"3d607fc1-2d96-4b66-b1f4-7060c4eba0d6","system_id":"levelo_inurba_marseille","lat":43.304278,"lon":5.388868,"is_reserved":false,"is_disabled":false,"rental_uris":{"android":"levelo://app?vid=3d607fc1-2d96-4b66-b1f4-7060c4eba0d6","ios":"levelo://app?vid=3d607fc1-2d96-4b66-b1f4-7060c4eba0d6"},"vehicle_type_id":"4","last_reported":1701004038,"current_range_meters":27200,"station_id":"ce4bgk12rcd13ifvqbi0","pricing_plan_id":"free"},{"bike_id":"3454beb3-e318-4fe4-8e45-faa85e4c5d96","system_id":"levelo_inurba_marseille","lat":43.29601,"lon":5.37716,"is_reserved":false,"is_disabled":false,"rental_uris":{"android":"levelo://app?vid=3454beb3-e318-4fe4-8e45-faa85e4c5d96","ios":"levelo://app?vid=3454beb3-e318-4fe4-8e45-faa85e4c5d96"},"vehicle_type_id":"4","last_reported":1701004038,"current_range_meters":17600,"station_id":"ce4bgi92rcd13ifvqb90","pricing_plan_id":"free"},{"bike_id":"6b621983-5e9e-42f7-990d-ad5a093820d2","system_id":"levelo_inurba_marseille","lat":43.293801,"lon":5.363066,"is_reserved":false,"is_disabled":false,"rental_uris":{"android":"levelo://app?vid=6b621983-5e9e-42f7-990d-ad5a093820d2","ios":"levelo://app?vid=6b621983-5e9e-42f7-990d-ad5a093820d2"},"vehicle_type_id":"4","last_reported":1701004038,"current_range_meters":0,"station_id":"","pricing_plan_id":"free"},{"bike_id":"b1e38288-48a4-44bc-b451-e444aa913e0e","system_id":"levelo_inurba_marseille","lat":43.29279,"lon":5.36844,"is_reserved":false,"is_disabled":false,"rental_uris":{"android":"levelo://app?vid=b1e38288-48a4-44bc-b451-e444aa913e0e","ios":"levelo://app?vid=b1e38288-48a4-44bc-b451-e444aa913e0e"},"vehicle_type_id":"4","last_reported":1701004038,"current_range_meters":30400,"station_id":"ce4bhbp2rcd13ifvqesg","pricing_plan_id":"free"},{"bike_id":"fb6a9146-aaa0-4285-a6b8-2822a729f2f8","system_id":"levelo_inurba_marseille","lat":43.293249,"lon":5.371578,"is_reserved":false,"is_disabled":false,"rental_uris":{"android":"levelo://app?vid=fb6a9146-aaa0-4285-a6b8-2822a729f2f8","ios":"levelo://app?vid=fb6a9146-aaa0-4285-a6b8-2822a729f2f8"},"vehicle_type_id":"4","last_reported":1701004038,"current_range_meters":27200,"station_id":"ce4bgh92rcd13ifvqb40","pricing_plan_id":"free"},{"bike_id":"224a1fb9-fc64-4758-a561-be8c9370353e","system_id":"levelo_inurba_marseille","lat":43.29226,"lon":5.36051,"is_reserved":false,"is_disabled":false,"rental_uris":{"android":"levelo://app?vid=224a1fb9-fc64-4758-a561-be8c9370353e","ios":"levelo://app?vid=224a1fb9-fc64-4758-a561-be8c9370353e"},"vehicle_type_id":"4","last_reported":1701004038,"current_range_meters":30400,"station_id":"ce4bhbh2rcd13ifvqeqg","pricing_plan_id":"free"},{"bike_id":"b9b25b84-bf27-4328-a0d8-1668eb5d0bd5","system_id":"levelo_inurba_marseille","lat":43.300852,"lon":5.390859,"is_reserved":false,"is_disabled":false,"rental_uris":{"android":"levelo://app?vid=b9b25b84-bf27-4328-a0d8-1668eb5d0bd5","ios":"levelo://app?vid=b9b25b84-bf27-4328-a0d8-1668eb5d0bd5"},"vehicle_type_id":"4","last_reported":1701004038,"current_range_meters":10000,"station_id":"ce4bh192rcd13ifvqdb0","pricing_plan_id":"free"},{"bike_id":"e100b2da-acd7-442a-996c-32ec66579328","system_id":"levelo_inurba_marseille","lat":43.292164,"lon":5.360421,"is_reserved":false,"is_disabled":false,"rental_uris":{"android":"levelo://app?vid=e100b2da-acd7-442a-996c-32ec66579328","ios":"levelo://app?vid=e100b2da-acd7-442a-996c-32ec66579328"},"vehicle_type_id":"4","last_reported":1701004038,"current_range_meters":30400,"station_id":"ce4bhbh2rcd13ifvqeqg","pricing_plan_id":"free"},{"bike_id":"23d7c725-d8b3-4dfa-81f4-f8d7df5b49e5","system_id":"levelo_inurba_marseille","lat":43.29195,"lon":5.3579,"is_reserved":false,"is_disabled":false,"rental_uris":{"android":"levelo://app?vid=23d7c725-d8b3-4dfa-81f4-f8d7df5b49e5","ios":"levelo://app?vid=23d7c725-d8b3-4dfa-81f4-f8d7df5b49e5"},"vehicle_type_id":"4","last_reported":1701004038,"current_range_meters":16800,"station_id":"ce4bhb12rcd13ifvqel0","pricing_plan_id":"free"},{"bike_id":"d004a540-b451-4f1f-a4b2-16e4213cc9bc","system_id":"levelo_inurba_marseille","lat":43.291872,"lon":5.35796,"is_reserved":false,"is_disabled":false,"rental_uris":{"android":"levelo://app?vid=d004a540-b451-4f1f-a4b2-16e4213cc9bc","ios":"levelo://app?vid=d004a540-b451-4f1f-a4b2-16e4213cc9bc"},"vehicle_type_id":"4","last_reported":1701004038,"current_range_meters":28400,"station_id":"ce4bhb12rcd13ifvqel0","pricing_plan_id":"free"},{"bike_id":"7f7c7ce5-c5ae-4c5d-883d-6d38d3294ae9","system_id":"levelo_inurba_marseille","lat":43.309038,"lon":5.396546,"is_reserved":false,"is_disabled":false,"rental_uris":{"android":"levelo://app?vid=7f7c7ce5-c5ae-4c5d-883d-6d38d3294ae9","ios":"levelo://app?vid=7f7c7ce5-c5ae-4c5d-883d-6d38d3294ae9"},"vehicle_type_id":"4","last_reported":1701004038,"current_range_meters":3600,"station_id":"ce4bh012rcd13ifvqcv0","pricing_plan_id":"free"},{"bike_id":"deb635c9-b8f7-4084-9182-3604efef9a9b","system_id":"levelo_inurba_marseille","lat":43.29529,"lon":5.385581,"is_reserved":false,"is_disabled":false,"rental_uris":{"android":"levelo://app?vid=deb635c9-b8f7-4084-9182-3604efef9a9b","ios":"levelo://app?vid=deb635c9-b8f7-4084-9182-3604efef9a9b"},"vehicle_type_id":"4","last_reported":1701004038,"current_range_meters":400,"station_id":"ce4bgih2rcd13ifvqba0","pricing_plan_id":"free"},{"bike_id":"f697fea6-7b42-4254-8360-49645d52baae","system_id":"levelo_inurba_marseille","lat":43.302008,"lon":5.394694,"is_reserved":false,"is_disabled":false,"rental_uris":{"android":"levelo://app?vid=f697fea6-7b42-4254-8360-49645d52baae","ios":"levelo://app?vid=f697fea6-7b42-4254-8360-49645d52baae"},"vehicle_type_id":"4","last_reported":1701004038,"current_range_meters":26000,"station_id":"ce4bh0p2rcd13ifvqd70","pricing_plan_id":"free"},{"bike_id":"91b5ebc4-657b-436a-993e-1968ad441230","system_id":"levelo_inurba_marseille","lat":43.290624,"lon":5.359245,"is_reserved":false,"is_disabled":false,"rental_uris":{"android":"levelo://app?vid=91b5ebc4-657b-436a-993e-1968ad441230","ios":"levelo://app?vid=91b5ebc4-657b-436a-993e-1968ad441230"},"vehicle_type_id":"4","last_reported":1701004038,"current_range_meters":13600,"station_id":"ce4bha92rcd13ifvqeg0","pricing_plan_id":"free"},{"bike_id":"d35ae0f3-1c09-466f-82c7-f0ddaf897400","system_id":"levelo_inurba_marseille","lat":43.290631,"lon":5.359244,"is_reserved":false,"is_disabled":false,"rental_uris":{"android":"levelo://app?vid=d35ae0f3-1c09-466f-82c7-f0ddaf897400","ios":"levelo://app?vid=d35ae0f3-1c09-466f-82c7-f0ddaf897400"},"vehicle_type_id":"4","last_reported":1701004038,"current_range_meters":14400,"station_id":"ce4bha92rcd13ifvqeg0","pricing_plan_id":"free"},{"bike_id":"ff6bb0ae-fb61-4ea1-b8c6-9b226b192918","system_id":"levelo_inurba_marseille","lat":43.289433,"lon":5.366333,"is_reserved":false,"is_disabled":false,"rental_uris":{"android":"levelo://app?vid=ff6bb0ae-fb61-4ea1-b8c6-9b226b192918","ios":"levelo://app?vid=ff6bb0ae-fb61-4ea1-b8c6-9b226b192918"},"vehicle_type_id":"4","last_reported":1701004038,"current_range_meters":0,"station_id":"ce4bhap2rcd13ifvqek0","pricing_plan_id":"free"},{"bike_id":"571e13c8-f6d0-4153-bf53-8b0c414573fa","system_id":"levelo_inurba_marseille","lat":43.290327,"lon":5.375711,"is_reserved":false,"is_disabled":false,"rental_uris":{"android":"levelo://app?vid=571e13c8-f6d0-4153-bf53-8b0c414573fa","ios":"levelo://app?vid=571e13c8-f6d0-4153-bf53-8b0c414573fa"},"vehicle_type_id":"4","last_reported":1701004038,"current_range_meters":22800,"station_id":"ce4bh692rcd13ifvqe90","pricing_plan_id":"free"},{"bike_id":"58ed9fde-dafe-4037-b2fc-333b17b4bb38","system_id":"levelo_inurba_marseille","lat":43.289184,"lon":5.366408,"is_reserved":false,"is_disabled":false,"rental_uris":{"android":"levelo://app?vid=58ed9fde-dafe-4037-b2fc-333b17b4bb38","ios":"levelo://app?vid=58ed9fde-dafe-4037-b2fc-333b17b4bb38"},"vehicle_type_id":"4","last_reported":1701004038,"current_range_meters":13200,"station_id":"ce4bhap2rcd13ifvqek0","pricing_plan_id":"free"},{"bike_id":"4b9d8d65-f275-49b5-93a1-fc7cc9276990","system_id":"levelo_inurba_marseille","lat":43.289184,"lon":5.366408,"is_reserved":false,"is_disabled":false,"rental_uris":{"android":"levelo://app?vid=4b9d8d65-f275-49b5-93a1-fc7cc9276990","ios":"levelo://app?vid=4b9d8d65-f275-49b5-93a1-fc7cc9276990"},"vehicle_type_id":"4","last_reported":1701004038,"current_range_meters":29200,"station_id":"ce4bhap2rcd13ifvqek0","pricing_plan_id":"free"},{"bike_id":"e525618c-80ff-4418-9198-5dd449580313","system_id":"levelo_inurba_marseille","lat":43.2894,"lon":5.36389,"is_reserved":false,"is_disabled":false,"rental_uris":{"android":"levelo://app?vid=e525618c-80ff-4418-9198-5dd449580313","ios":"levelo://app?vid=e525618c-80ff-4418-9198-5dd449580313"},"vehicle_type_id":"4","last_reported":1701004038,"current_range_meters":27200,"station_id":"ce4bhc92rcd13ifvqetg","pricing_plan_id":"free"},{"bike_id":"9dc10cab-270b-4096-99ff-06e9818d81d8","system_id":"levelo_inurba_marseille","lat":43.289468,"lon":5.363719,"is_reserved":false,"is_disabled":false,"rental_uris":{"android":"levelo://app?vid=9dc10cab-270b-4096-99ff-06e9818d81d8","ios":"levelo://app?vid=9dc10cab-270b-4096-99ff-06e9818d81d8"},"vehicle_type_id":"4","last_reported":1701004038,"current_range_meters":18400,"station_id":"ce4bhc92rcd13ifvqetg","pricing_plan_id":"free"},{"bike_id":"fc76c6d3-aab0-421b-a91b-8017bcc097f7","system_id":"levelo_inurba_marseille","lat":43.289317,"lon":5.363968,"is_reserved":false,"is_disabled":false,"rental_uris":{"android":"levelo://app?vid=fc76c6d3-aab0-421b-a91b-8017bcc097f7","ios":"levelo://app?vid=fc76c6d3-aab0-421b-a91b-8017bcc097f7"},"vehicle_type_id":"4","last_reported":1701004038,"current_range_meters":20800,"station_id":"ce4bhc92rcd13ifvqetg","pricing_plan_id":"free"},{"bike_id":"f86b4f5c-24a1-4aab-805b-c8b6a8e7e0b2","system_id":"levelo_inurba_marseille","lat":43.28932,"lon":5.36383,"is_reserved":false,"is_disabled":false,"rental_uris":{"android":"levelo://app?vid=f86b4f5c-24a1-4aab-805b-c8b6a8e7e0b2","ios":"levelo://app?vid=f86b4f5c-24a1-4aab-805b-c8b6a8e7e0b2"},"vehicle_type_id":"4","last_reported":1701004038,"current_range_meters":17600,"station_id":"ce4bhc92rcd13ifvqetg","pricing_plan_id":"free"},{"bike_id":"beab9963-a69b-4617-bac4-91ecf745a365","system_id":"levelo_inurba_marseille","lat":43.2893,"lon":5.36391,"is_reserved":false,"is_disabled":false,"rental_uris":{"android":"levelo://app?vid=beab9963-a69b-4617-bac4-91ecf745a365","ios":"levelo://app?vid=beab9963-a69b-4617-bac4-91ecf745a365"},"vehicle_type_id":"4","last_reported":1701004038,"current_range_meters":16000,"station_id":"ce4bhc92rcd13ifvqetg","pricing_plan_id":"free"},{"bike_id":"e219b51b-c5f3-4ff1-8efb-7f5ccbbb60d9","system_id":"levelo_inurba_marseille","lat":43.28927,"lon":5.36374,"is_reserved":false,"is_disabled":false,"rental_uris":{"android":"levelo://app?vid=e219b51b-c5f3-4ff1-8efb-7f5ccbbb60d9","ios":"levelo://app?vid=e219b51b-c5f3-4ff1-8efb-7f5ccbbb60d9"},"vehicle_type_id":"4","last_reported":1701004038,"current_range_meters":22000,"station_id":"ce4bhc92rcd13ifvqetg","pricing_plan_id":"free"},{"bike_id":"f4c932be-35f5-4fba-86fb-ff85a4d81080","system_id":"levelo_inurba_marseille","lat":43.28926,"lon":5.36382,"is_reserved":false,"is_disabled":false,"rental_uris":{"android":"levelo://app?vid=f4c932be-35f5-4fba-86fb-ff85a4d81080","ios":"levelo://app?vid=f4c932be-35f5-4fba-86fb-ff85a4d81080"},"vehicle_type_id":"4","last_reported":1701004038,"current_range_meters":15200,"station_id":"ce4bhc92rcd13ifvqetg","pricing_plan_id":"free"},{"bike_id":"3791a1aa-980f-4d16-bf51-7bd6b97f6aa0","system_id":"levelo_inurba_marseille","lat":43.290103,"lon":5.356114,"is_reserved":false,"is_disabled":false,"rental_uris":{"android":"levelo://app?vid=3791a1aa-980f-4d16-bf51-7bd6b97f6aa0","ios":"levelo://app?vid=3791a1aa-980f-4d16-bf51-7bd6b97f6aa0"},"vehicle_type_id":"4","last_reported":1701004038,"current_range_meters":27600,"station_id":"ce4bhb92rcd13ifvqen0","pricing_plan_id":"free"},{"bike_id":"4266c345-bc2c-48f0-9a59-75c6a9a927d1","system_id":"levelo_inurba_marseille","lat":43.290104,"lon":5.356111,"is_reserved":false,"is_disabled":false,"rental_uris":{"android":"levelo://app?vid=4266c345-bc2c-48f0-9a59-75c6a9a927d1","ios":"levelo://app?vid=4266c345-bc2c-48f0-9a59-75c6a9a927d1"},"vehicle_type_id":"4","last_reported":1701004038,"current_range_meters":21200,"station_id":"ce4bhb92rcd13ifvqen0","pricing_plan_id":"free"},{"bike_id":"8b1194fa-4277-4ff6-83b0-117082c58f3f","system_id":"levelo_inurba_marseille","lat":43.290104,"lon":5.356111,"is_reserved":false,"is_disabled":false,"rental_uris":{"android":"levelo://app?vid=8b1194fa-4277-4ff6-83b0-117082c58f3f","ios":"levelo://app?vid=8b1194fa-4277-4ff6-83b0-117082c58f3f"},"vehicle_type_id":"4","last_reported":1701004038,"current_range_meters":22400,"station_id":"ce4bhb92rcd13ifvqen0","pricing_plan_id":"free"},{"bike_id":"fdf2d3c6-61d6-4c79-940d-8608c23bcac8","system_id":"levelo_inurba_marseille","lat":43.290104,"lon":5.356111,"is_reserved":false,"is_disabled":false,"rental_uris":{"android":"levelo://app?vid=fdf2d3c6-61d6-4c79-940d-8608c23bcac8","ios":"levelo://app?vid=fdf2d3c6-61d6-4c79-940d-8608c23bcac8"},"vehicle_type_id":"4","last_reported":1701004038,"current_range_meters":31200,"station_id":"ce4bhb92rcd13ifvqen0","pricing_plan_id":"free"},{"bike_id":"d5b25af0-2b9e-4d00-9962-c3d08b5aca7a","system_id":"levelo_inurba_marseille","lat":43.290104,"lon":5.356111,"is_reserved":false,"is_disabled":false,"rental_uris":{"android":"levelo://app?vid=d5b25af0-2b9e-4d00-9962-c3d08b5aca7a","ios":"levelo://app?vid=d5b25af0-2b9e-4d00-9962-c3d08b5aca7a"},"vehicle_type_id":"4","last_reported":1701004038,"current_range_meters":15200,"station_id":"ce4bhb92rcd13ifvqen0","pricing_plan_id":"free"},{"bike_id":"66e9e321-fb5d-4833-9d20-b51fa8d31cbe","system_id":"levelo_inurba_marseille","lat":43.290104,"lon":5.356111,"is_reserved":false,"is_disabled":false,"rental_uris":{"android":"levelo://app?vid=66e9e321-fb5d-4833-9d20-b51fa8d31cbe","ios":"levelo://app?vid=66e9e321-fb5d-4833-9d20-b51fa8d31cbe"},"vehicle_type_id":"4","last_reported":1701004038,"current_range_meters":28800,"station_id":"ce4bhb92rcd13ifvqen0","pricing_plan_id":"free"},{"bike_id":"e1799a38-a1c7-4c57-9af8-157f009c52e1","system_id":"levelo_inurba_marseille","lat":43.295334,"lon":5.390399,"is_reserved":false,"is_disabled":false,"rental_uris":{"android":"levelo://app?vid=e1799a38-a1c7-4c57-9af8-157f009c52e1","ios":"levelo://app?vid=e1799a38-a1c7-4c57-9af8-157f009c52e1"},"vehicle_type_id":"4","last_reported":1701004038,"current_range_meters":29200,"station_id":"","pricing_plan_id":"free"},{"bike_id":"fdbbacaa-a99a-4a31-ba1a-f3cdb1aaf72f","system_id":"levelo_inurba_marseille","lat":43.28856,"lon":5.358371,"is_reserved":false,"is_disabled":false,"rental_uris":{"android":"levelo://app?vid=fdbbacaa-a99a-4a31-ba1a-f3cdb1aaf72f","ios":"levelo://app?vid=fdbbacaa-a99a-4a31-ba1a-f3cdb1aaf72f"},"vehicle_type_id":"4","last_reported":1701004038,"current_range_meters":28000,"station_id":"ce4bhb12rcd13ifvqem0","pricing_plan_id":"free"},{"bike_id":"3e7893b5-9b59-42d7-a998-7074e3002ca3","system_id":"levelo_inurba_marseille","lat":43.309275,"lon":5.40155,"is_reserved":false,"is_disabled":false,"rental_uris":{"android":"levelo://app?vid=3e7893b5-9b59-42d7-a998-7074e3002ca3","ios":"levelo://app?vid=3e7893b5-9b59-42d7-a998-7074e3002ca3"},"vehicle_type_id":"4","last_reported":1701004038,"current_range_meters":22400,"station_id":"ce4bgvp2rcd13ifvqct0","pricing_plan_id":"free"},{"bike_id":"7d0e5c0c-217c-46b4-9ce0-04aaa94bc4a6","system_id":"levelo_inurba_marseille","lat":43.30644,"lon":5.40083,"is_reserved":false,"is_disabled":false,"rental_uris":{"android":"levelo://app?vid=7d0e5c0c-217c-46b4-9ce0-04aaa94bc4a6","ios":"levelo://app?vid=7d0e5c0c-217c-46b4-9ce0-04aaa94bc4a6"},"vehicle_type_id":"4","last_reported":1701004038,"current_range_meters":20000,"station_id":"ce4bh112rcd13ifvqda0","pricing_plan_id":"free"},{"bike_id":"2df082de-fda2-48e3-9b86-79887de6dc4a","system_id":"levelo_inurba_marseille","lat":43.301117,"lon":5.398795,"is_reserved":false,"is_disabled":false,"rental_uris":{"android":"levelo://app?vid=2df082de-fda2-48e3-9b86-79887de6dc4a","ios":"levelo://app?vid=2df082de-fda2-48e3-9b86-79887de6dc4a"},"vehicle_type_id":"4","last_reported":1701004038,"current_range_meters":21200,"station_id":"ce4bh0h2rcd13ifvqd40","pricing_plan_id":"free"},{"bike_id":"e50e98c9-579e-4126-95a9-78b22f556f06","system_id":"levelo_inurba_marseille","lat":43.28727,"lon":5.36078,"is_reserved":false,"is_disabled":false,"rental_uris":{"android":"levelo://app?vid=e50e98c9-579e-4126-95a9-78b22f556f06","ios":"levelo://app?vid=e50e98c9-579e-4126-95a9-78b22f556f06"},"vehicle_type_id":"4","last_reported":1701004038,"current_range_meters":26800,"station_id":"cki0cbj6b192h4jlfktg","pricing_plan_id":"free"},{"bike_id":"6246b220-5039-4e7c-a311-f9bd63223a6c","system_id":"levelo_inurba_marseille","lat":43.286591,"lon":5.363346,"is_reserved":false,"is_disabled":false,"rental_uris":{"android":"levelo://app?vid=6246b220-5039-4e7c-a311-f9bd63223a6c","ios":"levelo://app?vid=6246b220-5039-4e7c-a311-f9bd63223a6c"},"vehicle_type_id":"4","last_reported":1701004038,"current_range_meters":800,"station_id":"ce4bhah2rcd13ifvqej0","pricing_plan_id":"free"},{"bike_id":"6d197a15-68b3-4175-ad3f-aadec7e420f0","system_id":"levelo_inurba_marseille","lat":43.298681,"lon":5.397225,"is_reserved":false,"is_disabled":false,"rental_uris":{"android":"levelo://app?vid=6d197a15-68b3-4175-ad3f-aadec7e420f0","ios":"levelo://app?vid=6d197a15-68b3-4175-ad3f-aadec7e420f0"},"vehicle_type_id":"4","last_reported":1701004038,"current_range_meters":20400,"station_id":"ce4bh0h2rcd13ifvqd50","pricing_plan_id":"free"},{"bike_id":"625d651f-6c89-4ee8-be32-c6c6daf2bccd","system_id":"levelo_inurba_marseille","lat":43.286961,"lon":5.373785,"is_reserved":false,"is_disabled":false,"rental_uris":{"android":"levelo://app?vid=625d651f-6c89-4ee8-be32-c6c6daf2bccd","ios":"levelo://app?vid=625d651f-6c89-4ee8-be32-c6c6daf2bccd"},"vehicle_type_id":"4","last_reported":1701004038,"current_range_meters":13200,"station_id":"ce4bh3p2rcd13ifvqdq0","pricing_plan_id":"free"},{"bike_id":"630bfb25-3e08-405e-8e86-7cca7add7f0c","system_id":"levelo_inurba_marseille","lat":43.295194,"lon":5.39397,"is_reserved":false,"is_disabled":false,"rental_uris":{"android":"levelo://app?vid=630bfb25-3e08-405e-8e86-7cca7add7f0c","ios":"levelo://app?vid=630bfb25-3e08-405e-8e86-7cca7add7f0c"},"vehicle_type_id":"4","last_reported":1701004038,"current_range_meters":24800,"station_id":"ce4bh292rcd13ifvqdf0","pricing_plan_id":"free"},{"bike_id":"03f52899-de89-4c91-b068-c191312430ee","system_id":"levelo_inurba_marseille","lat":43.286039,"lon":5.370679,"is_reserved":false,"is_disabled":false,"rental_uris":{"android":"levelo://app?vid=03f52899-de89-4c91-b068-c191312430ee","ios":"levelo://app?vid=03f52899-de89-4c91-b068-c191312430ee"},"vehicle_type_id":"4","last_reported":1701004038,"current_range_meters":29200,"station_id":"ce4bht12rcd13ifvqi60","pricing_plan_id":"free"},{"bike_id":"5b5f61b4-b77b-4311-9d47-e2336d8cfbd3","system_id":"levelo_inurba_marseille","lat":43.286039,"lon":5.370679,"is_reserved":false,"is_disabled":false,"rental_uris":{"android":"levelo://app?vid=5b5f61b4-b77b-4311-9d47-e2336d8cfbd3","ios":"levelo://app?vid=5b5f61b4-b77b-4311-9d47-e2336d8cfbd3"},"vehicle_type_id":"4","last_reported":1701004038,"current_range_meters":26800,"station_id":"ce4bht12rcd13ifvqi60","pricing_plan_id":"free"},{"bike_id":"d0cc9fe1-c65d-427d-b65a-80c2d15e8427","system_id":"levelo_inurba_marseille","lat":43.286039,"lon":5.370679,"is_reserved":false,"is_disabled":false,"rental_uris":{"android":"levelo://app?vid=d0cc9fe1-c65d-427d-b65a-80c2d15e8427","ios":"levelo://app?vid=d0cc9fe1-c65d-427d-b65a-80c2d15e8427"},"vehicle_type_id":"4","last_reported":1701004038,"current_range_meters":26000,"station_id":"ce4bht12rcd13ifvqi60","pricing_plan_id":"free"},{"bike_id":"d1f2c3bd-cc3b-4734-aace-d60730f6532f","system_id":"levelo_inurba_marseille","lat":43.287185,"lon":5.379373,"is_reserved":false,"is_disabled":false,"rental_uris":{"android":"levelo://app?vid=d1f2c3bd-cc3b-4734-aace-d60730f6532f","ios":"levelo://app?vid=d1f2c3bd-cc3b-4734-aace-d60730f6532f"},"vehicle_type_id":"4","last_reported":1701004038,"current_range_meters":23600,"station_id":"ce4bh9p2rcd13ifvqec0","pricing_plan_id":"free"},{"bike_id":"b92e7fed-e8fc-4db4-91e7-065b937ca199","system_id":"levelo_inurba_marseille","lat":43.31643,"lon":5.40432,"is_reserved":false,"is_disabled":false,"rental_uris":{"android":"levelo://app?vid=b92e7fed-e8fc-4db4-91e7-065b937ca199","ios":"levelo://app?vid=b92e7fed-e8fc-4db4-91e7-065b937ca199"},"vehicle_type_id":"4","last_reported":1701004038,"current_range_meters":0,"station_id":"ce4bh012rcd13ifvqd00","pricing_plan_id":"free"},{"bike_id":"da6936b2-5593-4679-bab3-db6b787ba7eb","system_id":"levelo_inurba_marseille","lat":43.31641,"lon":5.40438,"is_reserved":false,"is_disabled":false,"rental_uris":{"android":"levelo://app?vid=da6936b2-5593-4679-bab3-db6b787ba7eb","ios":"levelo://app?vid=da6936b2-5593-4679-bab3-db6b787ba7eb"},"vehicle_type_id":"4","last_reported":1701004038,"current_range_meters":8800,"station_id":"ce4bh012rcd13ifvqd00","pricing_plan_id":"free"},{"bike_id":"49a3a79f-e925-4ddc-bf8d-c9784d55b6d3","system_id":"levelo_inurba_marseille","lat":43.28452,"lon":5.35904,"is_reserved":false,"is_disabled":false,"rental_uris":{"android":"levelo://app?vid=49a3a79f-e925-4ddc-bf8d-c9784d55b6d3","ios":"levelo://app?vid=49a3a79f-e925-4ddc-bf8d-c9784d55b6d3"},"vehicle_type_id":"4","last_reported":1701004038,"current_range_meters":9200,"station_id":"ce4bhah2rcd13ifvqei0","pricing_plan_id":"free"},{"bike_id":"ca5dc3da-39b7-4135-b10c-c965bace5b06","system_id":"levelo_inurba_marseille","lat":43.283998,"lon":5.375062,"is_reserved":false,"is_disabled":false,"rental_uris":{"android":"levelo://app?vid=ca5dc3da-39b7-4135-b10c-c965bace5b06","ios":"levelo://app?vid=ca5dc3da-39b7-4135-b10c-c965bace5b06"},"vehicle_type_id":"4","last_reported":1701004038,"current_range_meters":20400,"station_id":"ce4bh412rcd13ifvqds0","pricing_plan_id":"free"},{"bike_id":"64bf72e6-6463-4d96-9ad3-b39dffc4f4c5","system_id":"levelo_inurba_marseille","lat":43.283998,"lon":5.375062,"is_reserved":false,"is_disabled":false,"rental_uris":{"android":"levelo://app?vid=64bf72e6-6463-4d96-9ad3-b39dffc4f4c5","ios":"levelo://app?vid=64bf72e6-6463-4d96-9ad3-b39dffc4f4c5"},"vehicle_type_id":"4","last_reported":1701004038,"current_range_meters":18400,"station_id":"ce4bh412rcd13ifvqds0","pricing_plan_id":"free"},{"bike_id":"3088027d-a82f-409a-94de-9f5ed993ee44","system_id":"levelo_inurba_marseille","lat":43.283998,"lon":5.375062,"is_reserved":false,"is_disabled":false,"rental_uris":{"android":"levelo://app?vid=3088027d-a82f-409a-94de-9f5ed993ee44","ios":"levelo://app?vid=3088027d-a82f-409a-94de-9f5ed993ee44"},"vehicle_type_id":"4","last_reported":1701004038,"current_range_meters":15200,"station_id":"ce4bh412rcd13ifvqds0","pricing_plan_id":"free"},{"bike_id":"d7291cda-b47c-4b21-ad1d-adea30d670c7","system_id":"levelo_inurba_marseille","lat":43.319179,"lon":5.407725,"is_reserved":false,"is_disabled":false,"rental_uris":{"android":"levelo://app?vid=d7291cda-b47c-4b21-ad1d-adea30d670c7","ios":"levelo://app?vid=d7291cda-b47c-4b21-ad1d-adea30d670c7"},"vehicle_type_id":"4","last_reported":1701004038,"current_range_meters":8800,"station_id":"ce4bhq12rcd13ifvqhig","pricing_plan_id":"free"},{"bike_id":"67f72b5d-1032-407e-9db1-8a24b0544c0c","system_id":"levelo_inurba_marseille","lat":43.297946,"lon":5.404063,"is_reserved":false,"is_disabled":false,"rental_uris":{"android":"levelo://app?vid=67f72b5d-1032-407e-9db1-8a24b0544c0c","ios":"levelo://app?vid=67f72b5d-1032-407e-9db1-8a24b0544c0c"},"vehicle_type_id":"4","last_reported":1701004038,"current_range_meters":23200,"station_id":"ce4bh112rcd13ifvqd90","pricing_plan_id":"free"},{"bike_id":"3caab24a-d0a9-46ce-a9a6-3cbe3c610d4c","system_id":"levelo_inurba_marseille","lat":43.284217,"lon":5.349697,"is_reserved":false,"is_disabled":false,"rental_uris":{"android":"levelo://app?vid=3caab24a-d0a9-46ce-a9a6-3cbe3c610d4c","ios":"levelo://app?vid=3caab24a-d0a9-46ce-a9a6-3cbe3c610d4c"},"vehicle_type_id":"4","last_reported":1701004038,"current_range_meters":28800,"station_id":"ce4bhbh2rcd13ifvqepg","pricing_plan_id":"free"},{"bike_id":"121d48b7-fd86-46bc-b467-87e635fee642","system_id":"levelo_inurba_marseille","lat":43.284217,"lon":5.349697,"is_reserved":false,"is_disabled":false,"rental_uris":{"android":"levelo://app?vid=121d48b7-fd86-46bc-b467-87e635fee642","ios":"levelo://app?vid=121d48b7-fd86-46bc-b467-87e635fee642"},"vehicle_type_id":"4","last_reported":1701004038,"current_range_meters":27200,"station_id":"ce4bhbh2rcd13ifvqepg","pricing_plan_id":"free"},{"bike_id":"e2284003-4e46-4e0a-93e7-73d05c3666d9","system_id":"levelo_inurba_marseille","lat":43.33508,"lon":5.397755,"is_reserved":false,"is_disabled":false,"rental_uris":{"android":"levelo://app?vid=e2284003-4e46-4e0a-93e7-73d05c3666d9","ios":"levelo://app?vid=e2284003-4e46-4e0a-93e7-73d05c3666d9"},"vehicle_type_id":"4","last_reported":1701004038,"current_range_meters":18800,"station_id":"","pricing_plan_id":"free"},{"bike_id":"55228a0a-83d6-4904-8198-8c7ede879902","system_id":"levelo_inurba_marseille","lat":43.282754,"lon":5.350519,"is_reserved":false,"is_disabled":false,"rental_uris":{"android":"levelo://app?vid=55228a0a-83d6-4904-8198-8c7ede879902","ios":"levelo://app?vid=55228a0a-83d6-4904-8198-8c7ede879902"},"vehicle_type_id":"4","last_reported":1701004038,"current_range_meters":13600,"station_id":"ce4bhbp2rcd13ifvqerg","pricing_plan_id":"free"},{"bike_id":"b39e6d52-dc7e-4597-b6ce-69748f96c90b","system_id":"levelo_inurba_marseille","lat":43.282754,"lon":5.350519,"is_reserved":false,"is_disabled":false,"rental_uris":{"android":"levelo://app?vid=b39e6d52-dc7e-4597-b6ce-69748f96c90b","ios":"levelo://app?vid=b39e6d52-dc7e-4597-b6ce-69748f96c90b"},"vehicle_type_id":"4","last_reported":1701004038,"current_range_meters":7200,"station_id":"ce4bhbp2rcd13ifvqerg","pricing_plan_id":"free"},{"bike_id":"b3e79824-25e8-4268-ad1b-3bbdd7a7e89d","system_id":"levelo_inurba_marseille","lat":43.283502,"lon":5.386471,"is_reserved":false,"is_disabled":false,"rental_uris":{"android":"levelo://app?vid=b3e79824-25e8-4268-ad1b-3bbdd7a7e89d","ios":"levelo://app?vid=b3e79824-25e8-4268-ad1b-3bbdd7a7e89d"},"vehicle_type_id":"4","last_reported":1701004038,"current_range_meters":24800,"station_id":"ce4bh492rcd13ifvqdvg","pricing_plan_id":"free"},{"bike_id":"031ab4b8-36d6-40ff-a5ae-2a15c9a37105","system_id":"levelo_inurba_marseille","lat":43.282754,"lon":5.350519,"is_reserved":false,"is_disabled":false,"rental_uris":{"android":"levelo://app?vid=031ab4b8-36d6-40ff-a5ae-2a15c9a37105","ios":"levelo://app?vid=031ab4b8-36d6-40ff-a5ae-2a15c9a37105"},"vehicle_type_id":"4","last_reported":1701004038,"current_range_meters":29200,"station_id":"ce4bhbp2rcd13ifvqerg","pricing_plan_id":"free"},{"bike_id":"35060aca-706a-4966-b066-3979bd33ff60","system_id":"levelo_inurba_marseille","lat":43.282754,"lon":5.350519,"is_reserved":false,"is_disabled":false,"rental_uris":{"android":"levelo://app?vid=35060aca-706a-4966-b066-3979bd33ff60","ios":"levelo://app?vid=35060aca-706a-4966-b066-3979bd33ff60"},"vehicle_type_id":"4","last_reported":1701004038,"current_range_meters":18000,"station_id":"ce4bhbp2rcd13ifvqerg","pricing_plan_id":"free"},{"bike_id":"9b074328-0df5-48d2-9ff8-82cb27d27c1c","system_id":"levelo_inurba_marseille","lat":43.282754,"lon":5.350519,"is_reserved":false,"is_disabled":false,"rental_uris":{"android":"levelo://app?vid=9b074328-0df5-48d2-9ff8-82cb27d27c1c","ios":"levelo://app?vid=9b074328-0df5-48d2-9ff8-82cb27d27c1c"},"vehicle_type_id":"4","last_reported":1701004038,"current_range_meters":15200,"station_id":"ce4bhbp2rcd13ifvqerg","pricing_plan_id":"free"},{"bike_id":"8d499c4e-1933-4a61-a104-a6e042414e29","system_id":"levelo_inurba_marseille","lat":43.282744,"lon":5.350533,"is_reserved":false,"is_disabled":false,"rental_uris":{"android":"levelo://app?vid=8d499c4e-1933-4a61-a104-a6e042414e29","ios":"levelo://app?vid=8d499c4e-1933-4a61-a104-a6e042414e29"},"vehicle_type_id":"4","last_reported":1701004038,"current_range_meters":27600,"station_id":"ce4bhbp2rcd13ifvqerg","pricing_plan_id":"free"},{"bike_id":"5a5f8a99-32a7-49fb-8eb1-dc45c3708491","system_id":"levelo_inurba_marseille","lat":43.283502,"lon":5.386471,"is_reserved":false,"is_disabled":false,"rental_uris":{"android":"levelo://app?vid=5a5f8a99-32a7-49fb-8eb1-dc45c3708491","ios":"levelo://app?vid=5a5f8a99-32a7-49fb-8eb1-dc45c3708491"},"vehicle_type_id":"4","last_reported":1701004038,"current_range_meters":30000,"station_id":"ce4bh492rcd13ifvqdvg","pricing_plan_id":"free"},{"bike_id":"09888acc-ad6c-4b7d-a289-f46f31b5f20a","system_id":"levelo_inurba_marseille","lat":43.282754,"lon":5.350519,"is_reserved":false,"is_disabled":false,"rental_uris":{"android":"levelo://app?vid=09888acc-ad6c-4b7d-a289-f46f31b5f20a","ios":"levelo://app?vid=09888acc-ad6c-4b7d-a289-f46f31b5f20a"},"vehicle_type_id":"4","last_reported":1701004038,"current_range_meters":25200,"station_id":"ce4bhbp2rcd13ifvqerg","pricing_plan_id":"free"},{"bike_id":"661f025d-47e8-415e-aa07-f17b0f70526a","system_id":"levelo_inurba_marseille","lat":43.28258,"lon":5.35073,"is_reserved":false,"is_disabled":false,"rental_uris":{"android":"levelo://app?vid=661f025d-47e8-415e-aa07-f17b0f70526a","ios":"levelo://app?vid=661f025d-47e8-415e-aa07-f17b0f70526a"},"vehicle_type_id":"4","last_reported":1701004038,"current_range_meters":13200,"station_id":"ce4bhbp2rcd13ifvqerg","pricing_plan_id":"free"},{"bike_id":"db9334a0-0093-411c-aac9-d2c04233863c","system_id":"levelo_inurba_marseille","lat":43.28039,"lon":5.369297,"is_reserved":false,"is_disabled":false,"rental_uris":{"android":"levelo://app?vid=db9334a0-0093-411c-aac9-d2c04233863c","ios":"levelo://app?vid=db9334a0-0093-411c-aac9-d2c04233863c"},"vehicle_type_id":"4","last_reported":1701004038,"current_range_meters":30000,"station_id":"ce4bha12rcd13ifvqef0","pricing_plan_id":"free"},{"bike_id":"5c0f6094-f8d0-44e8-b634-d103e935203c","system_id":"levelo_inurba_marseille","lat":43.282754,"lon":5.350519,"is_reserved":false,"is_disabled":false,"rental_uris":{"android":"levelo://app?vid=5c0f6094-f8d0-44e8-b634-d103e935203c","ios":"levelo://app?vid=5c0f6094-f8d0-44e8-b634-d103e935203c"},"vehicle_type_id":"4","last_reported":1701004038,"current_range_meters":28400,"station_id":"ce4bhbp2rcd13ifvqerg","pricing_plan_id":"free"},{"bike_id":"bcd500b3-23bc-4e91-bb16-1c1d37a048b8","system_id":"levelo_inurba_marseille","lat":43.28039,"lon":5.369297,"is_reserved":false,"is_disabled":false,"rental_uris":{"android":"levelo://app?vid=bcd500b3-23bc-4e91-bb16-1c1d37a048b8","ios":"levelo://app?vid=bcd500b3-23bc-4e91-bb16-1c1d37a048b8"},"vehicle_type_id":"4","last_reported":1701004038,"current_range_meters":18400,"station_id":"ce4bha12rcd13ifvqef0","pricing_plan_id":"free"},{"bike_id":"fde85038-b8d9-497f-b9e3-6232b9da3b33","system_id":"levelo_inurba_marseille","lat":43.290412,"lon":5.399633,"is_reserved":false,"is_disabled":false,"rental_uris":{"android":"levelo://app?vid=fde85038-b8d9-497f-b9e3-6232b9da3b33","ios":"levelo://app?vid=fde85038-b8d9-497f-b9e3-6232b9da3b33"},"vehicle_type_id":"4","last_reported":1701004038,"current_range_meters":27200,"station_id":"ce4bh392rcd13ifvqdm0","pricing_plan_id":"free"},{"bike_id":"2e749a8b-fd97-448b-95be-a41564161e7c","system_id":"levelo_inurba_marseille","lat":43.290412,"lon":5.399633,"is_reserved":false,"is_disabled":false,"rental_uris":{"android":"levelo://app?vid=2e749a8b-fd97-448b-95be-a41564161e7c","ios":"levelo://app?vid=2e749a8b-fd97-448b-95be-a41564161e7c"},"vehicle_type_id":"4","last_reported":1701004038,"current_range_meters":28000,"station_id":"ce4bh392rcd13ifvqdm0","pricing_plan_id":"free"},{"bike_id":"b01bdab9-2ebc-438d-a681-dd9558d788fa","system_id":"levelo_inurba_marseille","lat":43.281044,"lon":5.378308,"is_reserved":false,"is_disabled":false,"rental_uris":{"android":"levelo://app?vid=b01bdab9-2ebc-438d-a681-dd9558d788fa","ios":"levelo://app?vid=b01bdab9-2ebc-438d-a681-dd9558d788fa"},"vehicle_type_id":"4","last_reported":1701004038,"current_range_meters":7200,"station_id":"ce4bha12rcd13ifvqee0","pricing_plan_id":"free"},{"bike_id":"f0dee295-6c0b-45bf-bb79-79160bc29adc","system_id":"levelo_inurba_marseille","lat":43.281044,"lon":5.378308,"is_reserved":false,"is_disabled":false,"rental_uris":{"android":"levelo://app?vid=f0dee295-6c0b-45bf-bb79-79160bc29adc","ios":"levelo://app?vid=f0dee295-6c0b-45bf-bb79-79160bc29adc"},"vehicle_type_id":"4","last_reported":1701004038,"current_range_meters":12800,"station_id":"ce4bha12rcd13ifvqee0","pricing_plan_id":"free"},{"bike_id":"d4617995-dd64-440a-b1ae-9d7030066b21","system_id":"levelo_inurba_marseille","lat":43.282754,"lon":5.350519,"is_reserved":false,"is_disabled":false,"rental_uris":{"android":"levelo://app?vid=d4617995-dd64-440a-b1ae-9d7030066b21","ios":"levelo://app?vid=d4617995-dd64-440a-b1ae-9d7030066b21"},"vehicle_type_id":"4","last_reported":1701004038,"current_range_meters":16800,"station_id":"ce4bhbp2rcd13ifvqerg","pricing_plan_id":"free"},{"bike_id":"9e8234e2-451a-4723-99a9-5118ac55b373","system_id":"levelo_inurba_marseille","lat":43.281044,"lon":5.378308,"is_reserved":false,"is_disabled":false,"rental_uris":{"android":"levelo://app?vid=9e8234e2-451a-4723-99a9-5118ac55b373","ios":"levelo://app?vid=9e8234e2-451a-4723-99a9-5118ac55b373"},"vehicle_type_id":"4","last_reported":1701004038,"current_range_meters":27600,"station_id":"ce4bha12rcd13ifvqee0","pricing_plan_id":"free"},{"bike_id":"afede264-b03c-463d-99c6-004064f8cfc5","system_id":"levelo_inurba_marseille","lat":43.284462,"lon":5.392121,"is_reserved":false,"is_disabled":false,"rental_uris":{"android":"levelo://app?vid=afede264-b03c-463d-99c6-004064f8cfc5","ios":"levelo://app?vid=afede264-b03c-463d-99c6-004064f8cfc5"},"vehicle_type_id":"4","last_reported":1701004038,"current_range_meters":19600,"station_id":"ce4bhoh2rcd13ifvqh5g","pricing_plan_id":"free"},{"bike_id":"65d832e8-5252-4461-a690-dffdb43319d8","system_id":"levelo_inurba_marseille","lat":43.28573,"lon":5.394992,"is_reserved":false,"is_disabled":false,"rental_uris":{"android":"levelo://app?vid=65d832e8-5252-4461-a690-dffdb43319d8","ios":"levelo://app?vid=65d832e8-5252-4461-a690-dffdb43319d8"},"vehicle_type_id":"4","last_reported":1701004038,"current_range_meters":21600,"station_id":"ce4bh292rcd13ifvqdg0","pricing_plan_id":"free"},{"bike_id":"c4654d01-d648-476d-ba5b-6c35bd82be62","system_id":"levelo_inurba_marseille","lat":43.326605,"lon":5.409903,"is_reserved":false,"is_disabled":false,"rental_uris":{"android":"levelo://app?vid=c4654d01-d648-476d-ba5b-6c35bd82be62","ios":"levelo://app?vid=c4654d01-d648-476d-ba5b-6c35bd82be62"},"vehicle_type_id":"4","last_reported":1701004038,"current_range_meters":27200,"station_id":"ce4bhpp2rcd13ifvqhgg","pricing_plan_id":"free"},{"bike_id":"eb605792-d946-497e-b37e-cfe2f8246013","system_id":"levelo_inurba_marseille","lat":43.279087,"lon":5.380114,"is_reserved":false,"is_disabled":false,"rental_uris":{"android":"levelo://app?vid=eb605792-d946-497e-b37e-cfe2f8246013","ios":"levelo://app?vid=eb605792-d946-497e-b37e-cfe2f8246013"},"vehicle_type_id":"4","last_reported":1701004038,"current_range_meters":29600,"station_id":"ce4bhf92rcd13ifvqf50","pricing_plan_id":"free"},{"bike_id":"4db68ac9-b6b9-4c87-b371-b6a4db57b5ac","system_id":"levelo_inurba_marseille","lat":43.279087,"lon":5.380114,"is_reserved":false,"is_disabled":false,"rental_uris":{"android":"levelo://app?vid=4db68ac9-b6b9-4c87-b371-b6a4db57b5ac","ios":"levelo://app?vid=4db68ac9-b6b9-4c87-b371-b6a4db57b5ac"},"vehicle_type_id":"4","last_reported":1701004038,"current_range_meters":29200,"station_id":"ce4bhf92rcd13ifvqf50","pricing_plan_id":"free"},{"bike_id":"477cd6b7-d75d-4002-97a5-e825498e7490","system_id":"levelo_inurba_marseille","lat":43.279087,"lon":5.380114,"is_reserved":false,"is_disabled":false,"rental_uris":{"android":"levelo://app?vid=477cd6b7-d75d-4002-97a5-e825498e7490","ios":"levelo://app?vid=477cd6b7-d75d-4002-97a5-e825498e7490"},"vehicle_type_id":"4","last_reported":1701004038,"current_range_meters":24000,"station_id":"ce4bhf92rcd13ifvqf50","pricing_plan_id":"free"},{"bike_id":"472977f5-0e85-40b3-acb7-8b52ab5da17e","system_id":"levelo_inurba_marseille","lat":43.279087,"lon":5.380114,"is_reserved":false,"is_disabled":false,"rental_uris":{"android":"levelo://app?vid=472977f5-0e85-40b3-acb7-8b52ab5da17e","ios":"levelo://app?vid=472977f5-0e85-40b3-acb7-8b52ab5da17e"},"vehicle_type_id":"4","last_reported":1701004038,"current_range_meters":24800,"station_id":"ce4bhf92rcd13ifvqf50","pricing_plan_id":"free"},{"bike_id":"2532c679-1cc7-4268-a49d-9e7b00df2495","system_id":"levelo_inurba_marseille","lat":43.279087,"lon":5.380114,"is_reserved":false,"is_disabled":false,"rental_uris":{"android":"levelo://app?vid=2532c679-1cc7-4268-a49d-9e7b00df2495","ios":"levelo://app?vid=2532c679-1cc7-4268-a49d-9e7b00df2495"},"vehicle_type_id":"4","last_reported":1701004038,"current_range_meters":28400,"station_id":"ce4bhf92rcd13ifvqf50","pricing_plan_id":"free"},{"bike_id":"6526cad1-2f4b-4db1-8d6b-ce04bc407b31","system_id":"levelo_inurba_marseille","lat":43.34883,"lon":5.37501,"is_reserved":false,"is_disabled":false,"rental_uris":{"android":"levelo://app?vid=6526cad1-2f4b-4db1-8d6b-ce04bc407b31","ios":"levelo://app?vid=6526cad1-2f4b-4db1-8d6b-ce04bc407b31"},"vehicle_type_id":"4","last_reported":1701004038,"current_range_meters":0,"station_id":"","pricing_plan_id":"free"},{"bike_id":"ecc2a98d-651a-4e61-85c0-b786d8e4a5ce","system_id":"levelo_inurba_marseille","lat":43.29255,"lon":5.40909,"is_reserved":false,"is_disabled":false,"rental_uris":{"android":"levelo://app?vid=ecc2a98d-651a-4e61-85c0-b786d8e4a5ce","ios":"levelo://app?vid=ecc2a98d-651a-4e61-85c0-b786d8e4a5ce"},"vehicle_type_id":"4","last_reported":1701004038,"current_range_meters":0,"station_id":"ce4bh192rcd13ifvqdc0","pricing_plan_id":"free"},{"bike_id":"72ada52b-df59-4cf8-8731-337d1eed0205","system_id":"levelo_inurba_marseille","lat":43.2762,"lon":5.3611,"is_reserved":false,"is_disabled":false,"rental_uris":{"android":"levelo://app?vid=72ada52b-df59-4cf8-8731-337d1eed0205","ios":"levelo://app?vid=72ada52b-df59-4cf8-8731-337d1eed0205"},"vehicle_type_id":"4","last_reported":1701004038,"current_range_meters":10000,"station_id":"ce4bgj92rcd13ifvqbe0","pricing_plan_id":"free"},{"bike_id":"b5338767-b784-437a-8eca-a869323394dd","system_id":"levelo_inurba_marseille","lat":43.276196,"lon":5.361065,"is_reserved":false,"is_disabled":false,"rental_uris":{"android":"levelo://app?vid=b5338767-b784-437a-8eca-a869323394dd","ios":"levelo://app?vid=b5338767-b784-437a-8eca-a869323394dd"},"vehicle_type_id":"4","last_reported":1701004038,"current_range_meters":27200,"station_id":"","pricing_plan_id":"free"},{"bike_id":"c25ea147-e804-4786-9d25-91f61a8ed59a","system_id":"levelo_inurba_marseille","lat":43.293651,"lon":5.41268,"is_reserved":false,"is_disabled":false,"rental_uris":{"android":"levelo://app?vid=c25ea147-e804-4786-9d25-91f61a8ed59a","ios":"levelo://app?vid=c25ea147-e804-4786-9d25-91f61a8ed59a"},"vehicle_type_id":"4","last_reported":1701004038,"current_range_meters":0,"station_id":"","pricing_plan_id":"free"},{"bike_id":"5f0d2be1-4957-487b-b7e5-14543907a780","system_id":"levelo_inurba_marseille","lat":43.280784,"lon":5.396622,"is_reserved":false,"is_disabled":false,"rental_uris":{"android":"levelo://app?vid=5f0d2be1-4957-487b-b7e5-14543907a780","ios":"levelo://app?vid=5f0d2be1-4957-487b-b7e5-14543907a780"},"vehicle_type_id":"4","last_reported":1701004038,"current_range_meters":29200,"station_id":"ce4bho12rcd13ifvqh2g","pricing_plan_id":"free"},{"bike_id":"36c25c0c-8bc8-4e70-99a4-791be69bddf3","system_id":"levelo_inurba_marseille","lat":43.278399,"lon":5.392139,"is_reserved":false,"is_disabled":false,"rental_uris":{"android":"levelo://app?vid=36c25c0c-8bc8-4e70-99a4-791be69bddf3","ios":"levelo://app?vid=36c25c0c-8bc8-4e70-99a4-791be69bddf3"},"vehicle_type_id":"4","last_reported":1701004038,"current_range_meters":4000,"station_id":"ce4bhjp2rcd13ifvqga0","pricing_plan_id":"free"},{"bike_id":"43fb7a1e-dba9-44c0-8d29-c69ec2fed8ea","system_id":"levelo_inurba_marseille","lat":43.275625,"lon":5.384392,"is_reserved":false,"is_disabled":false,"rental_uris":{"android":"levelo://app?vid=43fb7a1e-dba9-44c0-8d29-c69ec2fed8ea","ios":"levelo://app?vid=43fb7a1e-dba9-44c0-8d29-c69ec2fed8ea"},"vehicle_type_id":"4","last_reported":1701004038,"current_range_meters":24000,"station_id":"ce4bhh92rcd13ifvqfi0","pricing_plan_id":"free"},{"bike_id":"5f3c0b65-41dc-485d-a906-5ed61ab3d3fe","system_id":"levelo_inurba_marseille","lat":43.275625,"lon":5.384392,"is_reserved":false,"is_disabled":false,"rental_uris":{"android":"levelo://app?vid=5f3c0b65-41dc-485d-a906-5ed61ab3d3fe","ios":"levelo://app?vid=5f3c0b65-41dc-485d-a906-5ed61ab3d3fe"},"vehicle_type_id":"4","last_reported":1701004038,"current_range_meters":27200,"station_id":"ce4bhh92rcd13ifvqfi0","pricing_plan_id":"free"},{"bike_id":"2c0b8f3d-3ed0-48d2-a6cd-2a4f685c32a9","system_id":"levelo_inurba_marseille","lat":43.273613,"lon":5.362705,"is_reserved":false,"is_disabled":false,"rental_uris":{"android":"levelo://app?vid=2c0b8f3d-3ed0-48d2-a6cd-2a4f685c32a9","ios":"levelo://app?vid=2c0b8f3d-3ed0-48d2-a6cd-2a4f685c32a9"},"vehicle_type_id":"4","last_reported":1701004038,"current_range_meters":28400,"station_id":"ce4bhbh2rcd13ifvqeo0","pricing_plan_id":"free"},{"bike_id":"839b812d-15a0-4aad-89f9-20f25f6eb297","system_id":"levelo_inurba_marseille","lat":43.273613,"lon":5.362705,"is_reserved":false,"is_disabled":false,"rental_uris":{"android":"levelo://app?vid=839b812d-15a0-4aad-89f9-20f25f6eb297","ios":"levelo://app?vid=839b812d-15a0-4aad-89f9-20f25f6eb297"},"vehicle_type_id":"4","last_reported":1701004038,"current_range_meters":8400,"station_id":"ce4bhbh2rcd13ifvqeo0","pricing_plan_id":"free"},{"bike_id":"06a01118-a64b-4598-b5b7-6c85bf932f82","system_id":"levelo_inurba_marseille","lat":43.273609,"lon":5.362708,"is_reserved":false,"is_disabled":false,"rental_uris":{"android":"levelo://app?vid=06a01118-a64b-4598-b5b7-6c85bf932f82","ios":"levelo://app?vid=06a01118-a64b-4598-b5b7-6c85bf932f82"},"vehicle_type_id":"4","last_reported":1701004038,"current_range_meters":10800,"station_id":"ce4bhbh2rcd13ifvqeo0","pricing_plan_id":"free"},{"bike_id":"1de1779f-b7d8-44eb-9f73-68cb06aaa9e3","system_id":"levelo_inurba_marseille","lat":43.273609,"lon":5.362708,"is_reserved":false,"is_disabled":false,"rental_uris":{"android":"levelo://app?vid=1de1779f-b7d8-44eb-9f73-68cb06aaa9e3","ios":"levelo://app?vid=1de1779f-b7d8-44eb-9f73-68cb06aaa9e3"},"vehicle_type_id":"4","last_reported":1701004038,"current_range_meters":12000,"station_id":"ce4bhbh2rcd13ifvqeo0","pricing_plan_id":"free"},{"bike_id":"371ec043-76f0-4fc3-813f-7320997bb6d2","system_id":"levelo_inurba_marseille","lat":43.33612,"lon":5.410321,"is_reserved":false,"is_disabled":false,"rental_uris":{"android":"levelo://app?vid=371ec043-76f0-4fc3-813f-7320997bb6d2","ios":"levelo://app?vid=371ec043-76f0-4fc3-813f-7320997bb6d2"},"vehicle_type_id":"4","last_reported":1701004038,"current_range_meters":26000,"station_id":"ce4bhqh2rcd13ifvqhmg","pricing_plan_id":"free"},{"bike_id":"79e4c134-72f3-4e82-9e01-ced1ef6a60d4","system_id":"levelo_inurba_marseille","lat":43.336134,"lon":5.410341,"is_reserved":false,"is_disabled":false,"rental_uris":{"android":"levelo://app?vid=79e4c134-72f3-4e82-9e01-ced1ef6a60d4","ios":"levelo://app?vid=79e4c134-72f3-4e82-9e01-ced1ef6a60d4"},"vehicle_type_id":"4","last_reported":1701004038,"current_range_meters":11600,"station_id":"ce4bhqh2rcd13ifvqhmg","pricing_plan_id":"free"},{"bike_id":"35e6a62f-52a2-481d-8c01-e2ef3a718a77","system_id":"levelo_inurba_marseille","lat":43.279952,"lon":5.400085,"is_reserved":false,"is_disabled":false,"rental_uris":{"android":"levelo://app?vid=35e6a62f-52a2-481d-8c01-e2ef3a718a77","ios":"levelo://app?vid=35e6a62f-52a2-481d-8c01-e2ef3a718a77"},"vehicle_type_id":"4","last_reported":1701004038,"current_range_meters":14400,"station_id":"ce4bho92rcd13ifvqh4g","pricing_plan_id":"free"},{"bike_id":"a7597ae9-0700-4f4b-bbdc-ac8390b2194d","system_id":"levelo_inurba_marseille","lat":43.279952,"lon":5.400085,"is_reserved":false,"is_disabled":false,"rental_uris":{"android":"levelo://app?vid=a7597ae9-0700-4f4b-bbdc-ac8390b2194d","ios":"levelo://app?vid=a7597ae9-0700-4f4b-bbdc-ac8390b2194d"},"vehicle_type_id":"4","last_reported":1701004038,"current_range_meters":4400,"station_id":"ce4bho92rcd13ifvqh4g","pricing_plan_id":"free"},{"bike_id":"b17013e8-0b4c-43b6-a4bd-3e9acc0427b5","system_id":"levelo_inurba_marseille","lat":43.279952,"lon":5.400085,"is_reserved":false,"is_disabled":false,"rental_uris":{"android":"levelo://app?vid=b17013e8-0b4c-43b6-a4bd-3e9acc0427b5","ios":"levelo://app?vid=b17013e8-0b4c-43b6-a4bd-3e9acc0427b5"},"vehicle_type_id":"4","last_reported":1701004038,"current_range_meters":8000,"station_id":"ce4bho92rcd13ifvqh4g","pricing_plan_id":"free"},{"bike_id":"2bac63be-2248-4f83-9913-6fa6e719b914","system_id":"levelo_inurba_marseille","lat":43.31082,"lon":5.42427,"is_reserved":false,"is_disabled":false,"rental_uris":{"android":"levelo://app?vid=2bac63be-2248-4f83-9913-6fa6e719b914","ios":"levelo://app?vid=2bac63be-2248-4f83-9913-6fa6e719b914"},"vehicle_type_id":"4","last_reported":1701004038,"current_range_meters":12800,"station_id":"ce4bhp92rcd13ifvqhag","pricing_plan_id":"free"},{"bike_id":"8eb5bdb0-5c9b-4999-93c3-a1a499ccf536","system_id":"levelo_inurba_marseille","lat":43.310785,"lon":5.424305,"is_reserved":false,"is_disabled":false,"rental_uris":{"android":"levelo://app?vid=8eb5bdb0-5c9b-4999-93c3-a1a499ccf536","ios":"levelo://app?vid=8eb5bdb0-5c9b-4999-93c3-a1a499ccf536"},"vehicle_type_id":"4","last_reported":1701004038,"current_range_meters":31200,"station_id":"ce4bhp92rcd13ifvqhag","pricing_plan_id":"free"},{"bike_id":"c91caa24-ccd9-44a0-a7dc-ef3dd0691d85","system_id":"levelo_inurba_marseille","lat":43.27413,"lon":5.38949,"is_reserved":false,"is_disabled":false,"rental_uris":{"android":"levelo://app?vid=c91caa24-ccd9-44a0-a7dc-ef3dd0691d85","ios":"levelo://app?vid=c91caa24-ccd9-44a0-a7dc-ef3dd0691d85"},"vehicle_type_id":"4","last_reported":1701004038,"current_range_meters":16000,"station_id":"","pricing_plan_id":"free"},{"bike_id":"261a646e-e07e-440a-b3be-9a758b108372","system_id":"levelo_inurba_marseille","lat":43.273129,"lon":5.390725,"is_reserved":false,"is_disabled":false,"rental_uris":{"android":"levelo://app?vid=261a646e-e07e-440a-b3be-9a758b108372","ios":"levelo://app?vid=261a646e-e07e-440a-b3be-9a758b108372"},"vehicle_type_id":"4","last_reported":1701004038,"current_range_meters":12800,"station_id":"ce4bhgp2rcd13ifvqfe0","pricing_plan_id":"free"},{"bike_id":"4a840da3-fdbc-4633-9cc0-12e811d835c6","system_id":"levelo_inurba_marseille","lat":43.304096,"lon":5.425385,"is_reserved":false,"is_disabled":false,"rental_uris":{"android":"levelo://app?vid=4a840da3-fdbc-4633-9cc0-12e811d835c6","ios":"levelo://app?vid=4a840da3-fdbc-4633-9cc0-12e811d835c6"},"vehicle_type_id":"4","last_reported":1701004038,"current_range_meters":20400,"station_id":"ce4bhoh2rcd13ifvqh6g","pricing_plan_id":"free"},{"bike_id":"ce9f8bef-be75-42a4-a53c-1be64df297ab","system_id":"levelo_inurba_marseille","lat":43.30412,"lon":5.42549,"is_reserved":false,"is_disabled":false,"rental_uris":{"android":"levelo://app?vid=ce9f8bef-be75-42a4-a53c-1be64df297ab","ios":"levelo://app?vid=ce9f8bef-be75-42a4-a53c-1be64df297ab"},"vehicle_type_id":"4","last_reported":1701004038,"current_range_meters":12400,"station_id":"ce4bhoh2rcd13ifvqh6g","pricing_plan_id":"free"},{"bike_id":"70360c44-7f15-4d73-a1b4-78f1f432b724","system_id":"levelo_inurba_marseille","lat":43.295523,"lon":5.422926,"is_reserved":false,"is_disabled":false,"rental_uris":{"android":"levelo://app?vid=70360c44-7f15-4d73-a1b4-78f1f432b724","ios":"levelo://app?vid=70360c44-7f15-4d73-a1b4-78f1f432b724"},"vehicle_type_id":"4","last_reported":1701004038,"current_range_meters":30800,"station_id":"ce4bhph2rcd13ifvqhdg","pricing_plan_id":"free"},{"bike_id":"9f33e7be-ccf0-4fd5-b04d-f51287063869","system_id":"levelo_inurba_marseille","lat":43.295511,"lon":5.422926,"is_reserved":false,"is_disabled":false,"rental_uris":{"android":"levelo://app?vid=9f33e7be-ccf0-4fd5-b04d-f51287063869","ios":"levelo://app?vid=9f33e7be-ccf0-4fd5-b04d-f51287063869"},"vehicle_type_id":"4","last_reported":1701004038,"current_range_meters":29200,"station_id":"ce4bhph2rcd13ifvqhdg","pricing_plan_id":"free"},{"bike_id":"b6126e6c-9df5-45ce-ae2d-2e34b84f60f6","system_id":"levelo_inurba_marseille","lat":43.272118,"lon":5.391758,"is_reserved":false,"is_disabled":false,"rental_uris":{"android":"levelo://app?vid=b6126e6c-9df5-45ce-ae2d-2e34b84f60f6","ios":"levelo://app?vid=b6126e6c-9df5-45ce-ae2d-2e34b84f60f6"},"vehicle_type_id":"4","last_reported":1701004038,"current_range_meters":4000,"station_id":"ce4bhhp2rcd13ifvqfm0","pricing_plan_id":"free"},{"bike_id":"dfbe7ccb-60b5-4ede-8244-bb94470c5d84","system_id":"levelo_inurba_marseille","lat":43.27221,"lon":5.39239,"is_reserved":false,"is_disabled":false,"rental_uris":{"android":"levelo://app?vid=dfbe7ccb-60b5-4ede-8244-bb94470c5d84","ios":"levelo://app?vid=dfbe7ccb-60b5-4ede-8244-bb94470c5d84"},"vehicle_type_id":"4","last_reported":1701004038,"current_range_meters":30000,"station_id":"","pricing_plan_id":"free"},{"bike_id":"d53f32a6-814f-4f07-94f0-385ab9644adc","system_id":"levelo_inurba_marseille","lat":43.272201,"lon":5.392366,"is_reserved":false,"is_disabled":false,"rental_uris":{"android":"levelo://app?vid=d53f32a6-814f-4f07-94f0-385ab9644adc","ios":"levelo://app?vid=d53f32a6-814f-4f07-94f0-385ab9644adc"},"vehicle_type_id":"4","last_reported":1701004038,"current_range_meters":22000,"station_id":"","pricing_plan_id":"free"},{"bike_id":"167f6f18-5cda-477a-a2a5-10eee234efca","system_id":"levelo_inurba_marseille","lat":43.26954,"lon":5.38633,"is_reserved":false,"is_disabled":false,"rental_uris":{"android":"levelo://app?vid=167f6f18-5cda-477a-a2a5-10eee234efca","ios":"levelo://app?vid=167f6f18-5cda-477a-a2a5-10eee234efca"},"vehicle_type_id":"4","last_reported":1701004038,"current_range_meters":10400,"station_id":"ce4bhh92rcd13ifvqfh0","pricing_plan_id":"free"},{"bike_id":"375cfa92-7dff-4acf-9287-e68750c9e6b7","system_id":"levelo_inurba_marseille","lat":43.279465,"lon":5.410561,"is_reserved":false,"is_disabled":false,"rental_uris":{"android":"levelo://app?vid=375cfa92-7dff-4acf-9287-e68750c9e6b7","ios":"levelo://app?vid=375cfa92-7dff-4acf-9287-e68750c9e6b7"},"vehicle_type_id":"4","last_reported":1701004038,"current_range_meters":2400,"station_id":"ce4bhnp2rcd13ifvqh0g","pricing_plan_id":"free"},{"bike_id":"26d14a1a-c2cf-45e3-b7e1-ebb25b082a52","system_id":"levelo_inurba_marseille","lat":43.26681,"lon":5.382694,"is_reserved":false,"is_disabled":false,"rental_uris":{"android":"levelo://app?vid=26d14a1a-c2cf-45e3-b7e1-ebb25b082a52","ios":"levelo://app?vid=26d14a1a-c2cf-45e3-b7e1-ebb25b082a52"},"vehicle_type_id":"4","last_reported":1701004038,"current_range_meters":1600,"station_id":"ce4bhg92rcd13ifvqf90","pricing_plan_id":"free"},{"bike_id":"4b334ecc-acc6-4860-b855-1b88df87641c","system_id":"levelo_inurba_marseille","lat":43.26682,"lon":5.38272,"is_reserved":false,"is_disabled":false,"rental_uris":{"android":"levelo://app?vid=4b334ecc-acc6-4860-b855-1b88df87641c","ios":"levelo://app?vid=4b334ecc-acc6-4860-b855-1b88df87641c"},"vehicle_type_id":"4","last_reported":1701004038,"current_range_meters":25200,"station_id":"ce4bhg92rcd13ifvqf90","pricing_plan_id":"free"},{"bike_id":"58eb8a06-6d28-4ec6-a188-66edf966b964","system_id":"levelo_inurba_marseille","lat":43.26681,"lon":5.382694,"is_reserved":false,"is_disabled":false,"rental_uris":{"android":"levelo://app?vid=58eb8a06-6d28-4ec6-a188-66edf966b964","ios":"levelo://app?vid=58eb8a06-6d28-4ec6-a188-66edf966b964"},"vehicle_type_id":"4","last_reported":1701004038,"current_range_meters":30800,"station_id":"ce4bhg92rcd13ifvqf90","pricing_plan_id":"free"},{"bike_id":"0d7dd0fe-70fa-4075-8d3d-0c05a3070ec9","system_id":"levelo_inurba_marseille","lat":43.26681,"lon":5.382694,"is_reserved":false,"is_disabled":false,"rental_uris":{"android":"levelo://app?vid=0d7dd0fe-70fa-4075-8d3d-0c05a3070ec9","ios":"levelo://app?vid=0d7dd0fe-70fa-4075-8d3d-0c05a3070ec9"},"vehicle_type_id":"4","last_reported":1701004038,"current_range_meters":27600,"station_id":"ce4bhg92rcd13ifvqf90","pricing_plan_id":"free"},{"bike_id":"f23d8119-b478-4639-98c5-6883279f9f84","system_id":"levelo_inurba_marseille","lat":43.32592,"lon":5.43067,"is_reserved":false,"is_disabled":false,"rental_uris":{"android":"levelo://app?vid=f23d8119-b478-4639-98c5-6883279f9f84","ios":"levelo://app?vid=f23d8119-b478-4639-98c5-6883279f9f84"},"vehicle_type_id":"4","last_reported":1701004038,"current_range_meters":22800,"station_id":"","pricing_plan_id":"free"},{"bike_id":"ed30d6a1-b23a-49e5-9c83-5546be72a734","system_id":"levelo_inurba_marseille","lat":43.3259,"lon":5.43075,"is_reserved":false,"is_disabled":false,"rental_uris":{"android":"levelo://app?vid=ed30d6a1-b23a-49e5-9c83-5546be72a734","ios":"levelo://app?vid=ed30d6a1-b23a-49e5-9c83-5546be72a734"},"vehicle_type_id":"4","last_reported":1701004038,"current_range_meters":17600,"station_id":"","pricing_plan_id":"free"},{"bike_id":"d67469ee-5362-4610-a163-fe05ae3cf4f7","system_id":"levelo_inurba_marseille","lat":43.32604,"lon":5.430817,"is_reserved":false,"is_disabled":false,"rental_uris":{"android":"levelo://app?vid=d67469ee-5362-4610-a163-fe05ae3cf4f7","ios":"levelo://app?vid=d67469ee-5362-4610-a163-fe05ae3cf4f7"},"vehicle_type_id":"4","last_reported":1701004038,"current_range_meters":6000,"station_id":"","pricing_plan_id":"free"},{"bike_id":"2ce81b26-2847-48e0-8768-f3be7864a8f7","system_id":"levelo_inurba_marseille","lat":43.27995,"lon":5.416541,"is_reserved":false,"is_disabled":false,"rental_uris":{"android":"levelo://app?vid=2ce81b26-2847-48e0-8768-f3be7864a8f7","ios":"levelo://app?vid=2ce81b26-2847-48e0-8768-f3be7864a8f7"},"vehicle_type_id":"4","last_reported":1701004038,"current_range_meters":26400,"station_id":"ce4bho12rcd13ifvqh1g","pricing_plan_id":"free"},{"bike_id":"05d11fc6-bfad-4336-bbb0-16504370a872","system_id":"levelo_inurba_marseille","lat":43.27987,"lon":5.41656,"is_reserved":false,"is_disabled":false,"rental_uris":{"android":"levelo://app?vid=05d11fc6-bfad-4336-bbb0-16504370a872","ios":"levelo://app?vid=05d11fc6-bfad-4336-bbb0-16504370a872"},"vehicle_type_id":"4","last_reported":1701004038,"current_range_meters":26800,"station_id":"ce4bho12rcd13ifvqh1g","pricing_plan_id":"free"},{"bike_id":"490a5fc7-55b8-4f21-8b81-bbdb58303296","system_id":"levelo_inurba_marseille","lat":43.265714,"lon":5.372891,"is_reserved":false,"is_disabled":false,"rental_uris":{"android":"levelo://app?vid=490a5fc7-55b8-4f21-8b81-bbdb58303296","ios":"levelo://app?vid=490a5fc7-55b8-4f21-8b81-bbdb58303296"},"vehicle_type_id":"4","last_reported":1701004038,"current_range_meters":26000,"station_id":"ce4bhg12rcd13ifvqf70","pricing_plan_id":"free"},{"bike_id":"2b5f0b27-ae58-4e9e-bd76-c585f78e8a73","system_id":"levelo_inurba_marseille","lat":43.26386,"lon":5.37454,"is_reserved":false,"is_disabled":false,"rental_uris":{"android":"levelo://app?vid=2b5f0b27-ae58-4e9e-bd76-c585f78e8a73","ios":"levelo://app?vid=2b5f0b27-ae58-4e9e-bd76-c585f78e8a73"},"vehicle_type_id":"4","last_reported":1701004038,"current_range_meters":6800,"station_id":"","pricing_plan_id":"free"},{"bike_id":"ec593df7-85d2-4a7c-a892-75fec147bf75","system_id":"levelo_inurba_marseille","lat":43.317104,"lon":5.436818,"is_reserved":false,"is_disabled":false,"rental_uris":{"android":"levelo://app?vid=ec593df7-85d2-4a7c-a892-75fec147bf75","ios":"levelo://app?vid=ec593df7-85d2-4a7c-a892-75fec147bf75"},"vehicle_type_id":"4","last_reported":1701004038,"current_range_meters":31200,"station_id":"ce4bhp92rcd13ifvqhcg","pricing_plan_id":"free"},{"bike_id":"34e9d94a-a716-4b0c-93f4-cd00b136e1d7","system_id":"levelo_inurba_marseille","lat":43.317104,"lon":5.436818,"is_reserved":false,"is_disabled":false,"rental_uris":{"android":"levelo://app?vid=34e9d94a-a716-4b0c-93f4-cd00b136e1d7","ios":"levelo://app?vid=34e9d94a-a716-4b0c-93f4-cd00b136e1d7"},"vehicle_type_id":"4","last_reported":1701004038,"current_range_meters":0,"station_id":"ce4bhp92rcd13ifvqhcg","pricing_plan_id":"free"},{"bike_id":"a7941f0c-fa90-47b1-92c1-a8f844a118cb","system_id":"levelo_inurba_marseille","lat":43.317104,"lon":5.436818,"is_reserved":false,"is_disabled":false,"rental_uris":{"android":"levelo://app?vid=a7941f0c-fa90-47b1-92c1-a8f844a118cb","ios":"levelo://app?vid=a7941f0c-fa90-47b1-92c1-a8f844a118cb"},"vehicle_type_id":"4","last_reported":1701004038,"current_range_meters":22800,"station_id":"ce4bhp92rcd13ifvqhcg","pricing_plan_id":"free"},{"bike_id":"dbf62bfb-d43b-46dc-b301-0e9e00d707fe","system_id":"levelo_inurba_marseille","lat":43.261765,"lon":5.37902,"is_reserved":false,"is_disabled":false,"rental_uris":{"android":"levelo://app?vid=dbf62bfb-d43b-46dc-b301-0e9e00d707fe","ios":"levelo://app?vid=dbf62bfb-d43b-46dc-b301-0e9e00d707fe"},"vehicle_type_id":"4","last_reported":1701004038,"current_range_meters":24000,"station_id":"ce4bhjp2rcd13ifvqg90","pricing_plan_id":"free"},{"bike_id":"7c5a83ac-336c-4b91-a5ea-82b3c6d6127d","system_id":"levelo_inurba_marseille","lat":43.298768,"lon":5.43643,"is_reserved":false,"is_disabled":false,"rental_uris":{"android":"levelo://app?vid=7c5a83ac-336c-4b91-a5ea-82b3c6d6127d","ios":"levelo://app?vid=7c5a83ac-336c-4b91-a5ea-82b3c6d6127d"},"vehicle_type_id":"4","last_reported":1701004038,"current_range_meters":31600,"station_id":"ce4bhpp2rcd13ifvqhfg","pricing_plan_id":"free"},{"bike_id":"f4f2e1d5-dafa-412d-9b3a-3611814786ce","system_id":"levelo_inurba_marseille","lat":43.298768,"lon":5.43643,"is_reserved":false,"is_disabled":false,"rental_uris":{"android":"levelo://app?vid=f4f2e1d5-dafa-412d-9b3a-3611814786ce","ios":"levelo://app?vid=f4f2e1d5-dafa-412d-9b3a-3611814786ce"},"vehicle_type_id":"4","last_reported":1701004038,"current_range_meters":31600,"station_id":"ce4bhpp2rcd13ifvqhfg","pricing_plan_id":"free"},{"bike_id":"8af0d2ed-93d1-485d-9803-40c71e52d0d9","system_id":"levelo_inurba_marseille","lat":43.298768,"lon":5.43643,"is_reserved":false,"is_disabled":false,"rental_uris":{"android":"levelo://app?vid=8af0d2ed-93d1-485d-9803-40c71e52d0d9","ios":"levelo://app?vid=8af0d2ed-93d1-485d-9803-40c71e52d0d9"},"vehicle_type_id":"4","last_reported":1701004038,"current_range_meters":31200,"station_id":"ce4bhpp2rcd13ifvqhfg","pricing_plan_id":"free"},{"bike_id":"842dcf66-28c7-40dc-af0b-7a3c6c857991","system_id":"levelo_inurba_marseille","lat":43.28154,"lon":5.42636,"is_reserved":false,"is_disabled":false,"rental_uris":{"android":"levelo://app?vid=842dcf66-28c7-40dc-af0b-7a3c6c857991","ios":"levelo://app?vid=842dcf66-28c7-40dc-af0b-7a3c6c857991"},"vehicle_type_id":"4","last_reported":1701004038,"current_range_meters":25600,"station_id":"ce4bhnh2rcd13ifvqgug","pricing_plan_id":"free"},{"bike_id":"5a5a735b-9a1b-4462-8e6e-7f11c6291782","system_id":"levelo_inurba_marseille","lat":43.281591,"lon":5.426421,"is_reserved":false,"is_disabled":false,"rental_uris":{"android":"levelo://app?vid=5a5a735b-9a1b-4462-8e6e-7f11c6291782","ios":"levelo://app?vid=5a5a735b-9a1b-4462-8e6e-7f11c6291782"},"vehicle_type_id":"4","last_reported":1701004038,"current_range_meters":18800,"station_id":"ce4bhnh2rcd13ifvqgug","pricing_plan_id":"free"},{"bike_id":"c87cdef8-d70c-463e-88fd-987162c81837","system_id":"levelo_inurba_marseille","lat":43.281543,"lon":5.426463,"is_reserved":false,"is_disabled":false,"rental_uris":{"android":"levelo://app?vid=c87cdef8-d70c-463e-88fd-987162c81837","ios":"levelo://app?vid=c87cdef8-d70c-463e-88fd-987162c81837"},"vehicle_type_id":"4","last_reported":1701004038,"current_range_meters":15600,"station_id":"ce4bhnh2rcd13ifvqgug","pricing_plan_id":"free"},{"bike_id":"2628fb3a-9b3a-4836-8cca-8b1625de82d4","system_id":"levelo_inurba_marseille","lat":43.2815,"lon":5.42643,"is_reserved":false,"is_disabled":false,"rental_uris":{"android":"levelo://app?vid=2628fb3a-9b3a-4836-8cca-8b1625de82d4","ios":"levelo://app?vid=2628fb3a-9b3a-4836-8cca-8b1625de82d4"},"vehicle_type_id":"4","last_reported":1701004038,"current_range_meters":12000,"station_id":"ce4bhnh2rcd13ifvqgug","pricing_plan_id":"free"},{"bike_id":"80475dea-66c3-40b9-92d9-ad53964e836b","system_id":"levelo_inurba_marseille","lat":43.2607,"lon":5.393983,"is_reserved":false,"is_disabled":false,"rental_uris":{"android":"levelo://app?vid=80475dea-66c3-40b9-92d9-ad53964e836b","ios":"levelo://app?vid=80475dea-66c3-40b9-92d9-ad53964e836b"},"vehicle_type_id":"4","last_reported":1701004038,"current_range_meters":30000,"station_id":"ce4bhh92rcd13ifvqfj0","pricing_plan_id":"free"},{"bike_id":"503bbd35-5565-42f7-9e59-5026d025b01e","system_id":"levelo_inurba_marseille","lat":43.274901,"lon":5.424514,"is_reserved":false,"is_disabled":false,"rental_uris":{"android":"levelo://app?vid=503bbd35-5565-42f7-9e59-5026d025b01e","ios":"levelo://app?vid=503bbd35-5565-42f7-9e59-5026d025b01e"},"vehicle_type_id":"4","last_reported":1701004038,"current_range_meters":26800,"station_id":"ce4bhn92rcd13ifvqgrg","pricing_plan_id":"free"},{"bike_id":"9ae83bda-b0aa-4bb6-8db1-9e8551b5d543","system_id":"levelo_inurba_marseille","lat":43.260865,"lon":5.397615,"is_reserved":false,"is_disabled":false,"rental_uris":{"android":"levelo://app?vid=9ae83bda-b0aa-4bb6-8db1-9e8551b5d543","ios":"levelo://app?vid=9ae83bda-b0aa-4bb6-8db1-9e8551b5d543"},"vehicle_type_id":"4","last_reported":1701004038,"current_range_meters":28800,"station_id":"ce4bhi12rcd13ifvqfq0","pricing_plan_id":"free"},{"bike_id":"c85f7616-3a9e-47a4-ae16-28a03e51ab4f","system_id":"levelo_inurba_marseille","lat":43.28929,"lon":5.438754,"is_reserved":false,"is_disabled":false,"rental_uris":{"android":"levelo://app?vid=c85f7616-3a9e-47a4-ae16-28a03e51ab4f","ios":"levelo://app?vid=c85f7616-3a9e-47a4-ae16-28a03e51ab4f"},"vehicle_type_id":"4","last_reported":1701004038,"current_range_meters":9200,"station_id":"","pricing_plan_id":"free"},{"bike_id":"2815230e-bf9b-400c-be93-737a58174572","system_id":"levelo_inurba_marseille","lat":43.258315,"lon":5.394257,"is_reserved":false,"is_disabled":false,"rental_uris":{"android":"levelo://app?vid=2815230e-bf9b-400c-be93-737a58174572","ios":"levelo://app?vid=2815230e-bf9b-400c-be93-737a58174572"},"vehicle_type_id":"4","last_reported":1701004038,"current_range_meters":26800,"station_id":"ce4bhip2rcd13ifvqft0","pricing_plan_id":"free"},{"bike_id":"53ae05c5-1664-4ddb-ae58-547f63e25710","system_id":"levelo_inurba_marseille","lat":43.25826,"lon":5.3943,"is_reserved":false,"is_disabled":false,"rental_uris":{"android":"levelo://app?vid=53ae05c5-1664-4ddb-ae58-547f63e25710","ios":"levelo://app?vid=53ae05c5-1664-4ddb-ae58-547f63e25710"},"vehicle_type_id":"4","last_reported":1701004038,"current_range_meters":26400,"station_id":"ce4bhip2rcd13ifvqft0","pricing_plan_id":"free"},{"bike_id":"fa94e1b3-924d-484c-aa3a-070aacbdbbfd","system_id":"levelo_inurba_marseille","lat":43.27066,"lon":5.42272,"is_reserved":false,"is_disabled":false,"rental_uris":{"android":"levelo://app?vid=fa94e1b3-924d-484c-aa3a-070aacbdbbfd","ios":"levelo://app?vid=fa94e1b3-924d-484c-aa3a-070aacbdbbfd"},"vehicle_type_id":"4","last_reported":1701004038,"current_range_meters":29200,"station_id":"ce4bhk92rcd13ifvqgb0","pricing_plan_id":"free"},{"bike_id":"e06a8c78-4d48-491c-8072-84514714cbe8","system_id":"levelo_inurba_marseille","lat":43.270721,"lon":5.422764,"is_reserved":false,"is_disabled":false,"rental_uris":{"android":"levelo://app?vid=e06a8c78-4d48-491c-8072-84514714cbe8","ios":"levelo://app?vid=e06a8c78-4d48-491c-8072-84514714cbe8"},"vehicle_type_id":"4","last_reported":1701004038,"current_range_meters":30800,"station_id":"ce4bhk92rcd13ifvqgb0","pricing_plan_id":"free"},{"bike_id":"3764d48b-8e61-4222-bf2f-e0a7f6536aa8","system_id":"levelo_inurba_marseille","lat":43.27064,"lon":5.42274,"is_reserved":false,"is_disabled":false,"rental_uris":{"android":"levelo://app?vid=3764d48b-8e61-4222-bf2f-e0a7f6536aa8","ios":"levelo://app?vid=3764d48b-8e61-4222-bf2f-e0a7f6536aa8"},"vehicle_type_id":"4","last_reported":1701004038,"current_range_meters":30000,"station_id":"ce4bhk92rcd13ifvqgb0","pricing_plan_id":"free"},{"bike_id":"c683c13a-a9fe-443b-a860-642c2b85e5b7","system_id":"levelo_inurba_marseille","lat":43.27069,"lon":5.42282,"is_reserved":false,"is_disabled":false,"rental_uris":{"android":"levelo://app?vid=c683c13a-a9fe-443b-a860-642c2b85e5b7","ios":"levelo://app?vid=c683c13a-a9fe-443b-a860-642c2b85e5b7"},"vehicle_type_id":"4","last_reported":1701004038,"current_range_meters":10400,"station_id":"ce4bhk92rcd13ifvqgb0","pricing_plan_id":"free"},{"bike_id":"e9b6a1d5-c740-405d-a6f8-282eec5a3660","system_id":"levelo_inurba_marseille","lat":43.25729,"lon":5.41106,"is_reserved":false,"is_disabled":false,"rental_uris":{"android":"levelo://app?vid=e9b6a1d5-c740-405d-a6f8-282eec5a3660","ios":"levelo://app?vid=e9b6a1d5-c740-405d-a6f8-282eec5a3660"},"vehicle_type_id":"4","last_reported":1701004038,"current_range_meters":16400,"station_id":"ce4bhkp2rcd13ifvqgd0","pricing_plan_id":"free"},{"bike_id":"21b63db2-6cf9-4dd2-a468-5103178c805c","system_id":"levelo_inurba_marseille","lat":43.257079,"lon":5.411051,"is_reserved":false,"is_disabled":false,"rental_uris":{"android":"levelo://app?vid=21b63db2-6cf9-4dd2-a468-5103178c805c","ios":"levelo://app?vid=21b63db2-6cf9-4dd2-a468-5103178c805c"},"vehicle_type_id":"4","last_reported":1701004038,"current_range_meters":23200,"station_id":"ce4bhkp2rcd13ifvqgd0","pricing_plan_id":"free"},{"bike_id":"fc870209-5aff-4dd1-ae31-9b5847a2d23c","system_id":"levelo_inurba_marseille","lat":43.257079,"lon":5.411051,"is_reserved":false,"is_disabled":false,"rental_uris":{"android":"levelo://app?vid=fc870209-5aff-4dd1-ae31-9b5847a2d23c","ios":"levelo://app?vid=fc870209-5aff-4dd1-ae31-9b5847a2d23c"},"vehicle_type_id":"4","last_reported":1701004038,"current_range_meters":19200,"station_id":"ce4bhkp2rcd13ifvqgd0","pricing_plan_id":"free"},{"bike_id":"543aa29a-345d-44be-9327-080150278834","system_id":"levelo_inurba_marseille","lat":43.257079,"lon":5.411051,"is_reserved":false,"is_disabled":false,"rental_uris":{"android":"levelo://app?vid=543aa29a-345d-44be-9327-080150278834","ios":"levelo://app?vid=543aa29a-345d-44be-9327-080150278834"},"vehicle_type_id":"4","last_reported":1701004038,"current_range_meters":29200,"station_id":"ce4bhkp2rcd13ifvqgd0","pricing_plan_id":"free"},{"bike_id":"544a8121-6b34-43e7-9cf4-f2488b325f73","system_id":"levelo_inurba_marseille","lat":43.250023,"lon":5.38919,"is_reserved":false,"is_disabled":false,"rental_uris":{"android":"levelo://app?vid=544a8121-6b34-43e7-9cf4-f2488b325f73","ios":"levelo://app?vid=544a8121-6b34-43e7-9cf4-f2488b325f73"},"vehicle_type_id":"4","last_reported":1701004038,"current_range_meters":31600,"station_id":"ce4bhgp2rcd13ifvqfd0","pricing_plan_id":"free"},{"bike_id":"988d80d8-82d1-4beb-a095-a01e5589d1d2","system_id":"levelo_inurba_marseille","lat":43.250009,"lon":5.389195,"is_reserved":false,"is_disabled":false,"rental_uris":{"android":"levelo://app?vid=988d80d8-82d1-4beb-a095-a01e5589d1d2","ios":"levelo://app?vid=988d80d8-82d1-4beb-a095-a01e5589d1d2"},"vehicle_type_id":"4","last_reported":1701004038,"current_range_meters":2400,"station_id":"ce4bhgp2rcd13ifvqfd0","pricing_plan_id":"free"},{"bike_id":"7d41ea23-fb52-4020-a572-442b53fcffe5","system_id":"levelo_inurba_marseille","lat":43.250009,"lon":5.389195,"is_reserved":false,"is_disabled":false,"rental_uris":{"android":"levelo://app?vid=7d41ea23-fb52-4020-a572-442b53fcffe5","ios":"levelo://app?vid=7d41ea23-fb52-4020-a572-442b53fcffe5"},"vehicle_type_id":"4","last_reported":1701004038,"current_range_meters":16000,"station_id":"ce4bhgp2rcd13ifvqfd0","pricing_plan_id":"free"},{"bike_id":"a5ec340a-bbad-4124-86f9-d9c0c4d21e8e","system_id":"levelo_inurba_marseille","lat":43.250023,"lon":5.38919,"is_reserved":false,"is_disabled":false,"rental_uris":{"android":"levelo://app?vid=a5ec340a-bbad-4124-86f9-d9c0c4d21e8e","ios":"levelo://app?vid=a5ec340a-bbad-4124-86f9-d9c0c4d21e8e"},"vehicle_type_id":"4","last_reported":1701004038,"current_range_meters":29600,"station_id":"ce4bhgp2rcd13ifvqfd0","pricing_plan_id":"free"},{"bike_id":"1de0ea47-a39c-414b-84f4-4dd6a0af624b","system_id":"levelo_inurba_marseille","lat":43.250009,"lon":5.389195,"is_reserved":false,"is_disabled":false,"rental_uris":{"android":"levelo://app?vid=1de0ea47-a39c-414b-84f4-4dd6a0af624b","ios":"levelo://app?vid=1de0ea47-a39c-414b-84f4-4dd6a0af624b"},"vehicle_type_id":"4","last_reported":1701004038,"current_range_meters":20400,"station_id":"ce4bhgp2rcd13ifvqfd0","pricing_plan_id":"free"},{"bike_id":"cbc94cea-5fe0-48cd-a8f4-986ca47e8190","system_id":"levelo_inurba_marseille","lat":43.250023,"lon":5.38919,"is_reserved":false,"is_disabled":false,"rental_uris":{"android":"levelo://app?vid=cbc94cea-5fe0-48cd-a8f4-986ca47e8190","ios":"levelo://app?vid=cbc94cea-5fe0-48cd-a8f4-986ca47e8190"},"vehicle_type_id":"4","last_reported":1701004038,"current_range_meters":24000,"station_id":"ce4bhgp2rcd13ifvqfd0","pricing_plan_id":"free"},{"bike_id":"4606ad6c-fa8b-4ebc-addb-ea92d3650051","system_id":"levelo_inurba_marseille","lat":43.250023,"lon":5.38919,"is_reserved":false,"is_disabled":false,"rental_uris":{"android":"levelo://app?vid=4606ad6c-fa8b-4ebc-addb-ea92d3650051","ios":"levelo://app?vid=4606ad6c-fa8b-4ebc-addb-ea92d3650051"},"vehicle_type_id":"4","last_reported":1701004038,"current_range_meters":30000,"station_id":"ce4bhgp2rcd13ifvqfd0","pricing_plan_id":"free"},{"bike_id":"4e007859-0a82-4a6c-99aa-529a3c6f25a1","system_id":"levelo_inurba_marseille","lat":43.2479,"lon":5.374457,"is_reserved":false,"is_disabled":false,"rental_uris":{"android":"levelo://app?vid=4e007859-0a82-4a6c-99aa-529a3c6f25a1","ios":"levelo://app?vid=4e007859-0a82-4a6c-99aa-529a3c6f25a1"},"vehicle_type_id":"4","last_reported":1701004038,"current_range_meters":20400,"station_id":"ce4bhgh2rcd13ifvqfb0","pricing_plan_id":"free"},{"bike_id":"21e75d00-8156-4063-a5a2-0428cfc125a8","system_id":"levelo_inurba_marseille","lat":43.24809,"lon":5.374605,"is_reserved":false,"is_disabled":false,"rental_uris":{"android":"levelo://app?vid=21e75d00-8156-4063-a5a2-0428cfc125a8","ios":"levelo://app?vid=21e75d00-8156-4063-a5a2-0428cfc125a8"},"vehicle_type_id":"4","last_reported":1701004038,"current_range_meters":2800,"station_id":"ce4bhgh2rcd13ifvqfb0","pricing_plan_id":"free"},{"bike_id":"18de87a8-07c3-40f1-ba76-089d3d48dd12","system_id":"levelo_inurba_marseille","lat":43.2479,"lon":5.374457,"is_reserved":false,"is_disabled":false,"rental_uris":{"android":"levelo://app?vid=18de87a8-07c3-40f1-ba76-089d3d48dd12","ios":"levelo://app?vid=18de87a8-07c3-40f1-ba76-089d3d48dd12"},"vehicle_type_id":"4","last_reported":1701004038,"current_range_meters":24400,"station_id":"ce4bhgh2rcd13ifvqfb0","pricing_plan_id":"free"},{"bike_id":"50b19268-faef-4615-9fa1-4a1666cb2ac3","system_id":"levelo_inurba_marseille","lat":43.2479,"lon":5.374457,"is_reserved":false,"is_disabled":false,"rental_uris":{"android":"levelo://app?vid=50b19268-faef-4615-9fa1-4a1666cb2ac3","ios":"levelo://app?vid=50b19268-faef-4615-9fa1-4a1666cb2ac3"},"vehicle_type_id":"4","last_reported":1701004038,"current_range_meters":21600,"station_id":"ce4bhgh2rcd13ifvqfb0","pricing_plan_id":"free"},{"bike_id":"1f0c50d3-0be5-4fcd-b12e-29cf21c31d91","system_id":"levelo_inurba_marseille","lat":43.2479,"lon":5.374457,"is_reserved":false,"is_disabled":false,"rental_uris":{"android":"levelo://app?vid=1f0c50d3-0be5-4fcd-b12e-29cf21c31d91","ios":"levelo://app?vid=1f0c50d3-0be5-4fcd-b12e-29cf21c31d91"},"vehicle_type_id":"4","last_reported":1701004038,"current_range_meters":13200,"station_id":"ce4bhgh2rcd13ifvqfb0","pricing_plan_id":"free"},{"bike_id":"79293a83-8f26-4301-86a3-34bd0134af39","system_id":"levelo_inurba_marseille","lat":43.2479,"lon":5.374457,"is_reserved":false,"is_disabled":false,"rental_uris":{"android":"levelo://app?vid=79293a83-8f26-4301-86a3-34bd0134af39","ios":"levelo://app?vid=79293a83-8f26-4301-86a3-34bd0134af39"},"vehicle_type_id":"4","last_reported":1701004038,"current_range_meters":2000,"station_id":"ce4bhgh2rcd13ifvqfb0","pricing_plan_id":"free"},{"bike_id":"4fdc300a-c00e-41e3-8087-ffecf97cf603","system_id":"levelo_inurba_marseille","lat":43.2479,"lon":5.374457,"is_reserved":false,"is_disabled":false,"rental_uris":{"android":"levelo://app?vid=4fdc300a-c00e-41e3-8087-ffecf97cf603","ios":"levelo://app?vid=4fdc300a-c00e-41e3-8087-ffecf97cf603"},"vehicle_type_id":"4","last_reported":1701004038,"current_range_meters":22800,"station_id":"ce4bhgh2rcd13ifvqfb0","pricing_plan_id":"free"},{"bike_id":"c98b5d95-31ff-44d5-888b-053d002d6be5","system_id":"levelo_inurba_marseille","lat":43.2479,"lon":5.374457,"is_reserved":false,"is_disabled":false,"rental_uris":{"android":"levelo://app?vid=c98b5d95-31ff-44d5-888b-053d002d6be5","ios":"levelo://app?vid=c98b5d95-31ff-44d5-888b-053d002d6be5"},"vehicle_type_id":"4","last_reported":1701004038,"current_range_meters":20000,"station_id":"ce4bhgh2rcd13ifvqfb0","pricing_plan_id":"free"},{"bike_id":"ac2c315d-3423-430c-92e4-e7913ecf2ac8","system_id":"levelo_inurba_marseille","lat":43.2479,"lon":5.374457,"is_reserved":false,"is_disabled":false,"rental_uris":{"android":"levelo://app?vid=ac2c315d-3423-430c-92e4-e7913ecf2ac8","ios":"levelo://app?vid=ac2c315d-3423-430c-92e4-e7913ecf2ac8"},"vehicle_type_id":"4","last_reported":1701004038,"current_range_meters":27600,"station_id":"ce4bhgh2rcd13ifvqfb0","pricing_plan_id":"free"},{"bike_id":"976642f9-07a6-42c1-98ea-3112272ce277","system_id":"levelo_inurba_marseille","lat":43.2479,"lon":5.374457,"is_reserved":false,"is_disabled":false,"rental_uris":{"android":"levelo://app?vid=976642f9-07a6-42c1-98ea-3112272ce277","ios":"levelo://app?vid=976642f9-07a6-42c1-98ea-3112272ce277"},"vehicle_type_id":"4","last_reported":1701004038,"current_range_meters":22000,"station_id":"ce4bhgh2rcd13ifvqfb0","pricing_plan_id":"free"},{"bike_id":"66739f60-8921-490b-8824-d05cf89b1172","system_id":"levelo_inurba_marseille","lat":43.250897,"lon":5.395161,"is_reserved":false,"is_disabled":false,"rental_uris":{"android":"levelo://app?vid=66739f60-8921-490b-8824-d05cf89b1172","ios":"levelo://app?vid=66739f60-8921-490b-8824-d05cf89b1172"},"vehicle_type_id":"4","last_reported":1701004038,"current_range_meters":24400,"station_id":"ce4bhm12rcd13ifvqgkg","pricing_plan_id":"free"},{"bike_id":"0b33059b-60a5-45ba-aff1-2c44d2b4d8e4","system_id":"levelo_inurba_marseille","lat":43.2466,"lon":5.38166,"is_reserved":false,"is_disabled":false,"rental_uris":{"android":"levelo://app?vid=0b33059b-60a5-45ba-aff1-2c44d2b4d8e4","ios":"levelo://app?vid=0b33059b-60a5-45ba-aff1-2c44d2b4d8e4"},"vehicle_type_id":"4","last_reported":1701004038,"current_range_meters":19600,"station_id":"ce4bhih2rcd13ifvqfr0","pricing_plan_id":"free"},{"bike_id":"88618d71-0084-402d-9b6d-b450e92f1896","system_id":"levelo_inurba_marseille","lat":43.24693,"lon":5.382096,"is_reserved":false,"is_disabled":false,"rental_uris":{"android":"levelo://app?vid=88618d71-0084-402d-9b6d-b450e92f1896","ios":"levelo://app?vid=88618d71-0084-402d-9b6d-b450e92f1896"},"vehicle_type_id":"4","last_reported":1701004038,"current_range_meters":16800,"station_id":"ce4bhih2rcd13ifvqfr0","pricing_plan_id":"free"},{"bike_id":"e34be4fb-8f42-4643-b902-82d205c40c5f","system_id":"levelo_inurba_marseille","lat":43.24657,"lon":5.38162,"is_reserved":false,"is_disabled":false,"rental_uris":{"android":"levelo://app?vid=e34be4fb-8f42-4643-b902-82d205c40c5f","ios":"levelo://app?vid=e34be4fb-8f42-4643-b902-82d205c40c5f"},"vehicle_type_id":"4","last_reported":1701004038,"current_range_meters":28000,"station_id":"ce4bhih2rcd13ifvqfr0","pricing_plan_id":"free"},{"bike_id":"960f77d6-320f-4e6a-8385-35be6c6e856c","system_id":"levelo_inurba_marseille","lat":43.25102,"lon":5.403214,"is_reserved":false,"is_disabled":false,"rental_uris":{"android":"levelo://app?vid=960f77d6-320f-4e6a-8385-35be6c6e856c","ios":"levelo://app?vid=960f77d6-320f-4e6a-8385-35be6c6e856c"},"vehicle_type_id":"4","last_reported":1701004038,"current_range_meters":24000,"station_id":"ce4bhlh2rcd13ifvqgig","pricing_plan_id":"free"},{"bike_id":"59d6ced8-2905-4cc9-acd8-ab1d40c62cae","system_id":"levelo_inurba_marseille","lat":43.25102,"lon":5.403214,"is_reserved":false,"is_disabled":false,"rental_uris":{"android":"levelo://app?vid=59d6ced8-2905-4cc9-acd8-ab1d40c62cae","ios":"levelo://app?vid=59d6ced8-2905-4cc9-acd8-ab1d40c62cae"},"vehicle_type_id":"4","last_reported":1701004038,"current_range_meters":25600,"station_id":"ce4bhlh2rcd13ifvqgig","pricing_plan_id":"free"},{"bike_id":"10a769c5-22b1-498a-b78b-7c81bbaf2a30","system_id":"levelo_inurba_marseille","lat":43.25102,"lon":5.403214,"is_reserved":false,"is_disabled":false,"rental_uris":{"android":"levelo://app?vid=10a769c5-22b1-498a-b78b-7c81bbaf2a30","ios":"levelo://app?vid=10a769c5-22b1-498a-b78b-7c81bbaf2a30"},"vehicle_type_id":"4","last_reported":1701004038,"current_range_meters":31600,"station_id":"ce4bhlh2rcd13ifvqgig","pricing_plan_id":"free"},{"bike_id":"b40ad310-f53c-4dc7-8ab1-a567eeaf4da6","system_id":"levelo_inurba_marseille","lat":43.25102,"lon":5.403214,"is_reserved":false,"is_disabled":false,"rental_uris":{"android":"levelo://app?vid=b40ad310-f53c-4dc7-8ab1-a567eeaf4da6","ios":"levelo://app?vid=b40ad310-f53c-4dc7-8ab1-a567eeaf4da6"},"vehicle_type_id":"4","last_reported":1701004038,"current_range_meters":19200,"station_id":"ce4bhlh2rcd13ifvqgig","pricing_plan_id":"free"},{"bike_id":"835bcf94-62ca-41b5-84de-3fef0d179645","system_id":"levelo_inurba_marseille","lat":43.25102,"lon":5.403214,"is_reserved":false,"is_disabled":false,"rental_uris":{"android":"levelo://app?vid=835bcf94-62ca-41b5-84de-3fef0d179645","ios":"levelo://app?vid=835bcf94-62ca-41b5-84de-3fef0d179645"},"vehicle_type_id":"4","last_reported":1701004038,"current_range_meters":17200,"station_id":"ce4bhlh2rcd13ifvqgig","pricing_plan_id":"free"},{"bike_id":"fa25da3e-0157-47a0-a624-509e486ae2a3","system_id":"levelo_inurba_marseille","lat":43.25102,"lon":5.403214,"is_reserved":false,"is_disabled":false,"rental_uris":{"android":"levelo://app?vid=fa25da3e-0157-47a0-a624-509e486ae2a3","ios":"levelo://app?vid=fa25da3e-0157-47a0-a624-509e486ae2a3"},"vehicle_type_id":"4","last_reported":1701004038,"current_range_meters":31600,"station_id":"ce4bhlh2rcd13ifvqgig","pricing_plan_id":"free"},{"bike_id":"83c2812c-a581-4bca-ba24-34c72c32d0ae","system_id":"levelo_inurba_marseille","lat":43.25102,"lon":5.403214,"is_reserved":false,"is_disabled":false,"rental_uris":{"android":"levelo://app?vid=83c2812c-a581-4bca-ba24-34c72c32d0ae","ios":"levelo://app?vid=83c2812c-a581-4bca-ba24-34c72c32d0ae"},"vehicle_type_id":"4","last_reported":1701004038,"current_range_meters":8400,"station_id":"ce4bhlh2rcd13ifvqgig","pricing_plan_id":"free"},{"bike_id":"0d3011d8-48d0-4a4b-b97f-830efd201431","system_id":"levelo_inurba_marseille","lat":43.246461,"lon":5.389014,"is_reserved":false,"is_disabled":false,"rental_uris":{"android":"levelo://app?vid=0d3011d8-48d0-4a4b-b97f-830efd201431","ios":"levelo://app?vid=0d3011d8-48d0-4a4b-b97f-830efd201431"},"vehicle_type_id":"4","last_reported":1701004038,"current_range_meters":27600,"station_id":"ce4bhg12rcd13ifvqf60","pricing_plan_id":"free"},{"bike_id":"340073ff-1161-4fbe-b9ec-2571c4486fa6","system_id":"levelo_inurba_marseille","lat":43.243884,"lon":5.370736,"is_reserved":false,"is_disabled":false,"rental_uris":{"android":"levelo://app?vid=340073ff-1161-4fbe-b9ec-2571c4486fa6","ios":"levelo://app?vid=340073ff-1161-4fbe-b9ec-2571c4486fa6"},"vehicle_type_id":"4","last_reported":1701004038,"current_range_meters":20400,"station_id":"ce4bhhh2rcd13ifvqfk0","pricing_plan_id":"free"},{"bike_id":"38c76def-ee82-49c8-bf90-86840848f33b","system_id":"levelo_inurba_marseille","lat":43.245581,"lon":5.395069,"is_reserved":false,"is_disabled":false,"rental_uris":{"android":"levelo://app?vid=38c76def-ee82-49c8-bf90-86840848f33b","ios":"levelo://app?vid=38c76def-ee82-49c8-bf90-86840848f33b"},"vehicle_type_id":"4","last_reported":1701004038,"current_range_meters":31200,"station_id":"ce4bhlp2rcd13ifvqgjg","pricing_plan_id":"free"},{"bike_id":"b2b78c4d-c117-4fb5-aa22-80f2f54e66ff","system_id":"levelo_inurba_marseille","lat":43.245581,"lon":5.395069,"is_reserved":false,"is_disabled":false,"rental_uris":{"android":"levelo://app?vid=b2b78c4d-c117-4fb5-aa22-80f2f54e66ff","ios":"levelo://app?vid=b2b78c4d-c117-4fb5-aa22-80f2f54e66ff"},"vehicle_type_id":"4","last_reported":1701004038,"current_range_meters":26400,"station_id":"ce4bhlp2rcd13ifvqgjg","pricing_plan_id":"free"},{"bike_id":"d45f3848-5dca-40f4-8d32-5b4c70048e5b","system_id":"levelo_inurba_marseille","lat":43.24074,"lon":5.37761,"is_reserved":false,"is_disabled":false,"rental_uris":{"android":"levelo://app?vid=d45f3848-5dca-40f4-8d32-5b4c70048e5b","ios":"levelo://app?vid=d45f3848-5dca-40f4-8d32-5b4c70048e5b"},"vehicle_type_id":"4","last_reported":1701004038,"current_range_meters":23600,"station_id":"ce4bhnp2rcd13ifvqgvg","pricing_plan_id":"free"},{"bike_id":"62103120-ac8d-4d1c-8798-512467f7de14","system_id":"levelo_inurba_marseille","lat":43.239588,"lon":5.366238,"is_reserved":false,"is_disabled":false,"rental_uris":{"android":"levelo://app?vid=62103120-ac8d-4d1c-8798-512467f7de14","ios":"levelo://app?vid=62103120-ac8d-4d1c-8798-512467f7de14"},"vehicle_type_id":"4","last_reported":1701004038,"current_range_meters":2800,"station_id":"ce4bhi12rcd13ifvqfp0","pricing_plan_id":"free"},{"bike_id":"217786b1-4dab-4962-9623-7465eb354fbd","system_id":"levelo_inurba_marseille","lat":43.239588,"lon":5.366238,"is_reserved":false,"is_disabled":false,"rental_uris":{"android":"levelo://app?vid=217786b1-4dab-4962-9623-7465eb354fbd","ios":"levelo://app?vid=217786b1-4dab-4962-9623-7465eb354fbd"},"vehicle_type_id":"4","last_reported":1701004038,"current_range_meters":15200,"station_id":"ce4bhi12rcd13ifvqfp0","pricing_plan_id":"free"},{"bike_id":"b4254b14-317d-47ed-a3af-381c067a81da","system_id":"levelo_inurba_marseille","lat":43.239588,"lon":5.366238,"is_reserved":false,"is_disabled":false,"rental_uris":{"android":"levelo://app?vid=b4254b14-317d-47ed-a3af-381c067a81da","ios":"levelo://app?vid=b4254b14-317d-47ed-a3af-381c067a81da"},"vehicle_type_id":"4","last_reported":1701004038,"current_range_meters":21200,"station_id":"ce4bhi12rcd13ifvqfp0","pricing_plan_id":"free"},{"bike_id":"d225a136-86b8-4823-b88f-87d47300dec8","system_id":"levelo_inurba_marseille","lat":43.239588,"lon":5.366238,"is_reserved":false,"is_disabled":false,"rental_uris":{"android":"levelo://app?vid=d225a136-86b8-4823-b88f-87d47300dec8","ios":"levelo://app?vid=d225a136-86b8-4823-b88f-87d47300dec8"},"vehicle_type_id":"4","last_reported":1701004038,"current_range_meters":24400,"station_id":"ce4bhi12rcd13ifvqfp0","pricing_plan_id":"free"},{"bike_id":"ce43ffe3-3698-43a2-97f2-b393f2b20a3c","system_id":"levelo_inurba_marseille","lat":43.241806,"lon":5.39714,"is_reserved":false,"is_disabled":false,"rental_uris":{"android":"levelo://app?vid=ce43ffe3-3698-43a2-97f2-b393f2b20a3c","ios":"levelo://app?vid=ce43ffe3-3698-43a2-97f2-b393f2b20a3c"},"vehicle_type_id":"4","last_reported":1701004038,"current_range_meters":30400,"station_id":"ce4bhn12rcd13ifvqgpg","pricing_plan_id":"free"},{"bike_id":"04f45584-c1fb-49e6-8e70-9397903c1fc8","system_id":"levelo_inurba_marseille","lat":43.231923,"lon":5.355545,"is_reserved":false,"is_disabled":false,"rental_uris":{"android":"levelo://app?vid=04f45584-c1fb-49e6-8e70-9397903c1fc8","ios":"levelo://app?vid=04f45584-c1fb-49e6-8e70-9397903c1fc8"},"vehicle_type_id":"4","last_reported":1701004038,"current_range_meters":11200,"station_id":"ce4bhu92rcd13ifvqi70","pricing_plan_id":"free"},{"bike_id":"1c2c15cc-76c3-43ba-8014-80c82593eadd","system_id":"levelo_inurba_marseille","lat":43.231923,"lon":5.355545,"is_reserved":false,"is_disabled":false,"rental_uris":{"android":"levelo://app?vid=1c2c15cc-76c3-43ba-8014-80c82593eadd","ios":"levelo://app?vid=1c2c15cc-76c3-43ba-8014-80c82593eadd"},