{"last_updated":1728825288,"ttl":60,"version":"2.2","data":{"bikes":[{"bike_id":"8a36bb65-dd05-437f-adaf-66c35c91f8ff","system_id":"levelo_inurba_marseille","lat":43.24172,"lon":5.36399,"is_reserved":false,"is_disabled":false,"rental_uris":{"android":"levelo://app?vid=8a36bb65-dd05-437f-adaf-66c35c91f8ff","ios":"levelo://app?vid=8a36bb65-dd05-437f-adaf-66c35c91f8ff"},"vehicle_type_id":"4","last_reported":1728825288,"current_range_meters":35600,"station_id":"cpo36qri1sfpv3e86is0","pricing_plan_id":"cebpf4jnsgd1na2vs0mg"},{"bike_id":"d885d96e-d926-4227-9eec-639d1069044e","system_id":"levelo_inurba_marseille","lat":43.23203,"lon":5.35552,"is_reserved":false,"is_disabled":false,"rental_uris":{"android":"levelo://app?vid=d885d96e-d926-4227-9eec-639d1069044e","ios":"levelo://app?vid=d885d96e-d926-4227-9eec-639d1069044e"},"vehicle_type_id":"4","last_reported":1728825288,"current_range_meters":9600,"station_id":"ce4bhu92rcd13ifvqi70","pricing_plan_id":"cebpf4jnsgd1na2vs0mg"},{"bike_id":"a37653c0-3ba6-43c7-9576-3a5f125e8553","system_id":"levelo_inurba_marseille","lat":43.23957,"lon":5.36621,"is_reserved":false,"is_disabled":false,"rental_uris":{"android":"levelo://app?vid=a37653c0-3ba6-43c7-9576-3a5f125e8553","ios":"levelo://app?vid=a37653c0-3ba6-43c7-9576-3a5f125e8553"},"vehicle_type_id":"4","last_reported":1728825288,"current_range_meters":22000,"station_id":"ce4bhi12rcd13ifvqfp0","pricing_plan_id":"cebpf4jnsgd1na2vs0mg"},{"bike_id":"480c36bc-dd66-41df-b09a-76735c76211b","system_id":"levelo_inurba_marseille","lat":43.27995,"lon":5.41656,"is_reserved":false,"is_disabled":false,"rental_uris":{"android":"levelo://app?vid=480c36bc-dd66-41df-b09a-76735c76211b","ios":"levelo://app?vid=480c36bc-dd66-41df-b09a-76735c76211b"},"vehicle_type_id":"4","last_reported":1728825288,"current_range_meters":36000,"station_id":"ce4bho12rcd13ifvqh1g","pricing_plan_id":"cebpf4jnsgd1na2vs0mg"},{"bike_id":"41b4be40-3534-430a-aa76-0d9a1d7bcff2","system_id":"levelo_inurba_marseille","lat":43.2842,"lon":5.34984,"is_reserved":false,"is_disabled":false,"rental_uris":{"android":"levelo://app?vid=41b4be40-3534-430a-aa76-0d9a1d7bcff2","ios":"levelo://app?vid=41b4be40-3534-430a-aa76-0d9a1d7bcff2"},"vehicle_type_id":"4","last_reported":1728825288,"current_range_meters":19600,"station_id":"ce4bhbh2rcd13ifvqepg","pricing_plan_id":"cebpf4jnsgd1na2vs0mg"},{"bike_id":"62d22623-b7a2-4422-859a-ca8f6edb3198","system_id":"levelo_inurba_marseille","lat":43.29847,"lon":5.36277,"is_reserved":false,"is_disabled":false,"rental_uris":{"android":"levelo://app?vid=62d22623-b7a2-4422-859a-ca8f6edb3198","ios":"levelo://app?vid=62d22623-b7a2-4422-859a-ca8f6edb3198"},"vehicle_type_id":"4","last_reported":1728825288,"current_range_meters":25600,"station_id":"ce4bgpp2rcd13ifvqc3g","pricing_plan_id":"cebpf4jnsgd1na2vs0mg"},{"bike_id":"745b76dd-6a8d-418c-b690-2b7f494df1fe","system_id":"levelo_inurba_marseille","lat":43.30548,"lon":5.36549,"is_reserved":false,"is_disabled":false,"rental_uris":{"android":"levelo://app?vid=745b76dd-6a8d-418c-b690-2b7f494df1fe","ios":"levelo://app?vid=745b76dd-6a8d-418c-b690-2b7f494df1fe"},"vehicle_type_id":"4","last_reported":1728825288,"current_range_meters":36800,"station_id":"ce4bgs12rcd13ifvqcag","pricing_plan_id":"cebpf4jnsgd1na2vs0mg"},{"bike_id":"61432fa4-e69a-43e1-a752-60da459a1e2e","system_id":"levelo_inurba_marseille","lat":43.33733,"lon":5.39186,"is_reserved":false,"is_disabled":false,"rental_uris":{"android":"levelo://app?vid=61432fa4-e69a-43e1-a752-60da459a1e2e","ios":"levelo://app?vid=61432fa4-e69a-43e1-a752-60da459a1e2e"},"vehicle_type_id":"4","last_reported":1728825288,"current_range_meters":32000,"station_id":"ce4bhr92rcd13ifvqhsg","pricing_plan_id":"cebpf4jnsgd1na2vs0mg"},{"bike_id":"7a23c081-4420-401f-acc2-1fd7f36d80ec","system_id":"levelo_inurba_marseille","lat":43.31713,"lon":5.43708,"is_reserved":false,"is_disabled":false,"rental_uris":{"android":"levelo://app?vid=7a23c081-4420-401f-acc2-1fd7f36d80ec","ios":"levelo://app?vid=7a23c081-4420-401f-acc2-1fd7f36d80ec"},"vehicle_type_id":"4","last_reported":1728825288,"current_range_meters":2800,"station_id":"ce4bhp92rcd13ifvqhcg","pricing_plan_id":"cebpf4jnsgd1na2vs0mg"},{"bike_id":"000399af-4a50-4a76-90f1-5f8452943850","system_id":"levelo_inurba_marseille","lat":43.265961,"lon":5.373085,"is_reserved":false,"is_disabled":false,"rental_uris":{"android":"levelo://app?vid=000399af-4a50-4a76-90f1-5f8452943850","ios":"levelo://app?vid=000399af-4a50-4a76-90f1-5f8452943850"},"vehicle_type_id":"4","last_reported":1728825288,"current_range_meters":39200,"station_id":"ce4bhg12rcd13ifvqf70","pricing_plan_id":"cebpf4jnsgd1na2vs0mg"},{"bike_id":"1459997f-b102-4b03-ad36-5a925141abec","system_id":"levelo_inurba_marseille","lat":43.26937,"lon":5.4024,"is_reserved":false,"is_disabled":false,"rental_uris":{"android":"levelo://app?vid=1459997f-b102-4b03-ad36-5a925141abec","ios":"levelo://app?vid=1459997f-b102-4b03-ad36-5a925141abec"},"vehicle_type_id":"4","last_reported":1728825288,"current_range_meters":38000,"station_id":"cjm6bp8fraef2m0cb0m0","pricing_plan_id":"cebpf4jnsgd1na2vs0mg"},{"bike_id":"dc44f191-9a97-47a6-babd-c4a405208352","system_id":"levelo_inurba_marseille","lat":43.28413,"lon":5.35,"is_reserved":false,"is_disabled":false,"rental_uris":{"android":"levelo://app?vid=dc44f191-9a97-47a6-babd-c4a405208352","ios":"levelo://app?vid=dc44f191-9a97-47a6-babd-c4a405208352"},"vehicle_type_id":"4","last_reported":1728825288,"current_range_meters":28800,"station_id":"ce4bhbh2rcd13ifvqepg","pricing_plan_id":"cebpf4jnsgd1na2vs0mg"},{"bike_id":"c5c33660-077d-4f97-b2f0-40691ac09116","system_id":"levelo_inurba_marseille","lat":43.2439,"lon":5.37064,"is_reserved":false,"is_disabled":false,"rental_uris":{"android":"levelo://app?vid=c5c33660-077d-4f97-b2f0-40691ac09116","ios":"levelo://app?vid=c5c33660-077d-4f97-b2f0-40691ac09116"},"vehicle_type_id":"4","last_reported":1728825288,"current_range_meters":33600,"station_id":"ce4bhhh2rcd13ifvqfk0","pricing_plan_id":"cebpf4jnsgd1na2vs0mg"},{"bike_id":"931d1f9c-4cb2-40a2-a856-914a1c55fcf3","system_id":"levelo_inurba_marseille","lat":43.2457,"lon":5.41661,"is_reserved":false,"is_disabled":false,"rental_uris":{"android":"levelo://app?vid=931d1f9c-4cb2-40a2-a856-914a1c55fcf3","ios":"levelo://app?vid=931d1f9c-4cb2-40a2-a856-914a1c55fcf3"},"vehicle_type_id":"4","last_reported":1728825288,"current_range_meters":6800,"station_id":"","pricing_plan_id":"cebpf4jnsgd1na2vs0mg"},{"bike_id":"b8d3e178-77e6-4b2b-b8de-85af06fa4430","system_id":"levelo_inurba_marseille","lat":43.23064,"lon":5.35494,"is_reserved":false,"is_disabled":false,"rental_uris":{"android":"levelo://app?vid=b8d3e178-77e6-4b2b-b8de-85af06fa4430","ios":"levelo://app?vid=b8d3e178-77e6-4b2b-b8de-85af06fa4430"},"vehicle_type_id":"4","last_reported":1728825288,"current_range_meters":38800,"station_id":"cpo3342slgdg3j2ifvpg","pricing_plan_id":"cebpf4jnsgd1na2vs0mg"},{"bike_id":"75efc51b-6166-4fdc-80d2-eb74770eab95","system_id":"levelo_inurba_marseille","lat":43.27072,"lon":5.42281,"is_reserved":false,"is_disabled":false,"rental_uris":{"android":"levelo://app?vid=75efc51b-6166-4fdc-80d2-eb74770eab95","ios":"levelo://app?vid=75efc51b-6166-4fdc-80d2-eb74770eab95"},"vehicle_type_id":"4","last_reported":1728825288,"current_range_meters":28000,"station_id":"ce4bhk92rcd13ifvqgb0","pricing_plan_id":"cebpf4jnsgd1na2vs0mg"},{"bike_id":"2f497378-f33c-41a1-b3e1-b0ed73ef1be9","system_id":"levelo_inurba_marseille","lat":43.22935,"lon":5.35374,"is_reserved":false,"is_disabled":false,"rental_uris":{"android":"levelo://app?vid=2f497378-f33c-41a1-b3e1-b0ed73ef1be9","ios":"levelo://app?vid=2f497378-f33c-41a1-b3e1-b0ed73ef1be9"},"vehicle_type_id":"4","last_reported":1728825288,"current_range_meters":30400,"station_id":"cpo3532slgdg3j2ikp40","pricing_plan_id":"cebpf4jnsgd1na2vs0mg"},{"bike_id":"dee41c9d-caa5-4b3f-857d-6226540d0c76","system_id":"levelo_inurba_marseille","lat":43.29049,"lon":5.35883,"is_reserved":false,"is_disabled":false,"rental_uris":{"android":"levelo://app?vid=dee41c9d-caa5-4b3f-857d-6226540d0c76","ios":"levelo://app?vid=dee41c9d-caa5-4b3f-857d-6226540d0c76"},"vehicle_type_id":"4","last_reported":1728825288,"current_range_meters":39200,"station_id":"ce4bha92rcd13ifvqeg0","pricing_plan_id":"cebpf4jnsgd1na2vs0mg"},{"bike_id":"6905c5d3-8624-4dea-b3a0-3fea8278ff35","system_id":"levelo_inurba_marseille","lat":43.29552,"lon":5.422773,"is_reserved":false,"is_disabled":false,"rental_uris":{"android":"levelo://app?vid=6905c5d3-8624-4dea-b3a0-3fea8278ff35","ios":"levelo://app?vid=6905c5d3-8624-4dea-b3a0-3fea8278ff35"},"vehicle_type_id":"4","last_reported":1728825288,"current_range_meters":9200,"station_id":"ce4bhph2rcd13ifvqhdg","pricing_plan_id":"cebpf4jnsgd1na2vs0mg"},{"bike_id":"7194cc39-1bad-4560-90c3-410ecdd2ab3c","system_id":"levelo_inurba_marseille","lat":43.292001,"lon":5.358031,"is_reserved":false,"is_disabled":false,"rental_uris":{"android":"levelo://app?vid=7194cc39-1bad-4560-90c3-410ecdd2ab3c","ios":"levelo://app?vid=7194cc39-1bad-4560-90c3-410ecdd2ab3c"},"vehicle_type_id":"4","last_reported":1728825288,"current_range_meters":30400,"station_id":"ce4bhb12rcd13ifvqel0","pricing_plan_id":"cebpf4jnsgd1na2vs0mg"},{"bike_id":"969b9186-2612-444e-a257-f787582b9d16","system_id":"levelo_inurba_marseille","lat":43.24391,"lon":5.37066,"is_reserved":false,"is_disabled":false,"rental_uris":{"android":"levelo://app?vid=969b9186-2612-444e-a257-f787582b9d16","ios":"levelo://app?vid=969b9186-2612-444e-a257-f787582b9d16"},"vehicle_type_id":"4","last_reported":1728825288,"current_range_meters":27600,"station_id":"ce4bhhh2rcd13ifvqfk0","pricing_plan_id":"cebpf4jnsgd1na2vs0mg"},{"bike_id":"6b2daff3-9851-4dff-9081-e0ec010599e4","system_id":"levelo_inurba_marseille","lat":43.314515,"lon":5.37384,"is_reserved":false,"is_disabled":false,"rental_uris":{"android":"levelo://app?vid=6b2daff3-9851-4dff-9081-e0ec010599e4","ios":"levelo://app?vid=6b2daff3-9851-4dff-9081-e0ec010599e4"},"vehicle_type_id":"4","last_reported":1728825288,"current_range_meters":32400,"station_id":"","pricing_plan_id":"cebpf4jnsgd1na2vs0mg"},{"bike_id":"914ddad8-71fa-47e5-b15e-9fec58054a4d","system_id":"levelo_inurba_marseille","lat":43.29842,"lon":5.36263,"is_reserved":false,"is_disabled":false,"rental_uris":{"android":"levelo://app?vid=914ddad8-71fa-47e5-b15e-9fec58054a4d","ios":"levelo://app?vid=914ddad8-71fa-47e5-b15e-9fec58054a4d"},"vehicle_type_id":"4","last_reported":1728825288,"current_range_meters":39200,"station_id":"ce4bgpp2rcd13ifvqc3g","pricing_plan_id":"cebpf4jnsgd1na2vs0mg"},{"bike_id":"f8fd929e-ef12-4998-8e1d-12522bd05de2","system_id":"levelo_inurba_marseille","lat":43.33027,"lon":5.39044,"is_reserved":false,"is_disabled":false,"rental_uris":{"android":"levelo://app?vid=f8fd929e-ef12-4998-8e1d-12522bd05de2","ios":"levelo://app?vid=f8fd929e-ef12-4998-8e1d-12522bd05de2"},"vehicle_type_id":"4","last_reported":1728825288,"current_range_meters":38800,"station_id":"ce4bhr92rcd13ifvqhrg","pricing_plan_id":"cebpf4jnsgd1na2vs0mg"},{"bike_id":"02ce7391-a945-4a10-9c54-c841b5ef35ec","system_id":"levelo_inurba_marseille","lat":43.29221,"lon":5.36043,"is_reserved":false,"is_disabled":false,"rental_uris":{"android":"levelo://app?vid=02ce7391-a945-4a10-9c54-c841b5ef35ec","ios":"levelo://app?vid=02ce7391-a945-4a10-9c54-c841b5ef35ec"},"vehicle_type_id":"4","last_reported":1728825288,"current_range_meters":28400,"station_id":"ce4bhbh2rcd13ifvqeqg","pricing_plan_id":"cebpf4jnsgd1na2vs0mg"},{"bike_id":"fa08456f-0316-46ca-b497-6c7d63a7f841","system_id":"levelo_inurba_marseille","lat":43.23189,"lon":5.3554,"is_reserved":false,"is_disabled":false,"rental_uris":{"android":"levelo://app?vid=fa08456f-0316-46ca-b497-6c7d63a7f841","ios":"levelo://app?vid=fa08456f-0316-46ca-b497-6c7d63a7f841"},"vehicle_type_id":"4","last_reported":1728825288,"current_range_meters":35200,"station_id":"ce4bhu92rcd13ifvqi70","pricing_plan_id":"cebpf4jnsgd1na2vs0mg"},{"bike_id":"7704d24e-3600-4f55-a59d-fc5c470d4b73","system_id":"levelo_inurba_marseille","lat":43.28724,"lon":5.36089,"is_reserved":false,"is_disabled":false,"rental_uris":{"android":"levelo://app?vid=7704d24e-3600-4f55-a59d-fc5c470d4b73","ios":"levelo://app?vid=7704d24e-3600-4f55-a59d-fc5c470d4b73"},"vehicle_type_id":"4","last_reported":1728825288,"current_range_meters":36000,"station_id":"cki0cbj6b192h4jlfktg","pricing_plan_id":"cebpf4jnsgd1na2vs0mg"},{"bike_id":"86851483-6460-4f2a-8d92-b3b47e5c55aa","system_id":"levelo_inurba_marseille","lat":43.23962,"lon":5.36639,"is_reserved":false,"is_disabled":false,"rental_uris":{"android":"levelo://app?vid=86851483-6460-4f2a-8d92-b3b47e5c55aa","ios":"levelo://app?vid=86851483-6460-4f2a-8d92-b3b47e5c55aa"},"vehicle_type_id":"4","last_reported":1728825288,"current_range_meters":39200,"station_id":"ce4bhi12rcd13ifvqfp0","pricing_plan_id":"cebpf4jnsgd1na2vs0mg"},{"bike_id":"900d410e-a263-4441-80a1-af67345a66d2","system_id":"levelo_inurba_marseille","lat":43.24391,"lon":5.37062,"is_reserved":false,"is_disabled":false,"rental_uris":{"android":"levelo://app?vid=900d410e-a263-4441-80a1-af67345a66d2","ios":"levelo://app?vid=900d410e-a263-4441-80a1-af67345a66d2"},"vehicle_type_id":"4","last_reported":1728825288,"current_range_meters":11200,"station_id":"ce4bhhh2rcd13ifvqfk0","pricing_plan_id":"cebpf4jnsgd1na2vs0mg"},{"bike_id":"7bfca5b2-1ddd-4e5d-b9fc-19e6379d40a0","system_id":"levelo_inurba_marseille","lat":43.28054,"lon":5.40987,"is_reserved":false,"is_disabled":false,"rental_uris":{"android":"levelo://app?vid=7bfca5b2-1ddd-4e5d-b9fc-19e6379d40a0","ios":"levelo://app?vid=7bfca5b2-1ddd-4e5d-b9fc-19e6379d40a0"},"vehicle_type_id":"4","last_reported":1728825288,"current_range_meters":30400,"station_id":"","pricing_plan_id":"cebpf4jnsgd1na2vs0mg"},{"bike_id":"68d8e8fe-6cc7-42cb-90c5-d07371482b2c","system_id":"levelo_inurba_marseille","lat":43.28263,"lon":5.35066,"is_reserved":false,"is_disabled":false,"rental_uris":{"android":"levelo://app?vid=68d8e8fe-6cc7-42cb-90c5-d07371482b2c","ios":"levelo://app?vid=68d8e8fe-6cc7-42cb-90c5-d07371482b2c"},"vehicle_type_id":"4","last_reported":1728825288,"current_range_meters":29600,"station_id":"ce4bhbp2rcd13ifvqerg","pricing_plan_id":"cebpf4jnsgd1na2vs0mg"},{"bike_id":"a9a9a4b5-5c49-474f-8f41-09f9027f45b4","system_id":"levelo_inurba_marseille","lat":43.22935,"lon":5.35376,"is_reserved":false,"is_disabled":false,"rental_uris":{"android":"levelo://app?vid=a9a9a4b5-5c49-474f-8f41-09f9027f45b4","ios":"levelo://app?vid=a9a9a4b5-5c49-474f-8f41-09f9027f45b4"},"vehicle_type_id":"4","last_reported":1728825288,"current_range_meters":17200,"station_id":"cpo3532slgdg3j2ikp40","pricing_plan_id":"cebpf4jnsgd1na2vs0mg"},{"bike_id":"01cc860c-462f-45e5-bc5b-f722035aedca","system_id":"levelo_inurba_marseille","lat":43.290238,"lon":5.386504,"is_reserved":false,"is_disabled":false,"rental_uris":{"android":"levelo://app?vid=01cc860c-462f-45e5-bc5b-f722035aedca","ios":"levelo://app?vid=01cc860c-462f-45e5-bc5b-f722035aedca"},"vehicle_type_id":"4","last_reported":1728825288,"current_range_meters":28800,"station_id":"ce4bh4p2rcd13ifvqe0g","pricing_plan_id":"cebpf4jnsgd1na2vs0mg"},{"bike_id":"3e4f306a-0193-49a5-ae54-ea2787574907","system_id":"levelo_inurba_marseille","lat":43.24399,"lon":5.37063,"is_reserved":false,"is_disabled":false,"rental_uris":{"android":"levelo://app?vid=3e4f306a-0193-49a5-ae54-ea2787574907","ios":"levelo://app?vid=3e4f306a-0193-49a5-ae54-ea2787574907"},"vehicle_type_id":"4","last_reported":1728825288,"current_range_meters":36000,"station_id":"ce4bhhh2rcd13ifvqfk0","pricing_plan_id":"cebpf4jnsgd1na2vs0mg"},{"bike_id":"15c9ec7f-d6f1-4977-b1bb-d59ba7e51931","system_id":"levelo_inurba_marseille","lat":43.26049,"lon":5.3938,"is_reserved":false,"is_disabled":false,"rental_uris":{"android":"levelo://app?vid=15c9ec7f-d6f1-4977-b1bb-d59ba7e51931","ios":"levelo://app?vid=15c9ec7f-d6f1-4977-b1bb-d59ba7e51931"},"vehicle_type_id":"4","last_reported":1728825288,"current_range_meters":38800,"station_id":"ce4bhh92rcd13ifvqfj0","pricing_plan_id":"cebpf4jnsgd1na2vs0mg"},{"bike_id":"a2cc4af4-c475-4c55-b025-fb35bb1c3dce","system_id":"levelo_inurba_marseille","lat":43.28417,"lon":5.34985,"is_reserved":false,"is_disabled":false,"rental_uris":{"android":"levelo://app?vid=a2cc4af4-c475-4c55-b025-fb35bb1c3dce","ios":"levelo://app?vid=a2cc4af4-c475-4c55-b025-fb35bb1c3dce"},"vehicle_type_id":"4","last_reported":1728825288,"current_range_meters":10800,"station_id":"ce4bhbh2rcd13ifvqepg","pricing_plan_id":"cebpf4jnsgd1na2vs0mg"},{"bike_id":"99c49ab5-e0f8-4316-b25d-a08466a70f4c","system_id":"levelo_inurba_marseille","lat":43.2842,"lon":5.34988,"is_reserved":false,"is_disabled":false,"rental_uris":{"android":"levelo://app?vid=99c49ab5-e0f8-4316-b25d-a08466a70f4c","ios":"levelo://app?vid=99c49ab5-e0f8-4316-b25d-a08466a70f4c"},"vehicle_type_id":"4","last_reported":1728825288,"current_range_meters":39200,"station_id":"ce4bhbh2rcd13ifvqepg","pricing_plan_id":"cebpf4jnsgd1na2vs0mg"},{"bike_id":"7d4f48b2-d661-4e97-a925-aa9cd2c46aef","system_id":"levelo_inurba_marseille","lat":43.29005,"lon":5.3561,"is_reserved":false,"is_disabled":false,"rental_uris":{"android":"levelo://app?vid=7d4f48b2-d661-4e97-a925-aa9cd2c46aef","ios":"levelo://app?vid=7d4f48b2-d661-4e97-a925-aa9cd2c46aef"},"vehicle_type_id":"4","last_reported":1728825288,"current_range_meters":25600,"station_id":"ce4bhb92rcd13ifvqen0","pricing_plan_id":"cebpf4jnsgd1na2vs0mg"},{"bike_id":"0c40993a-50a6-47ff-8efc-744051d6b397","system_id":"levelo_inurba_marseille","lat":43.24996,"lon":5.38932,"is_reserved":false,"is_disabled":false,"rental_uris":{"android":"levelo://app?vid=0c40993a-50a6-47ff-8efc-744051d6b397","ios":"levelo://app?vid=0c40993a-50a6-47ff-8efc-744051d6b397"},"vehicle_type_id":"4","last_reported":1728825288,"current_range_meters":14000,"station_id":"ce4bhgp2rcd13ifvqfd0","pricing_plan_id":"cebpf4jnsgd1na2vs0mg"},{"bike_id":"1753f48a-8747-44eb-a06b-e15086f6a212","system_id":"levelo_inurba_marseille","lat":43.258362,"lon":5.376141,"is_reserved":false,"is_disabled":false,"rental_uris":{"android":"levelo://app?vid=1753f48a-8747-44eb-a06b-e15086f6a212","ios":"levelo://app?vid=1753f48a-8747-44eb-a06b-e15086f6a212"},"vehicle_type_id":"4","last_reported":1728825288,"current_range_meters":32400,"station_id":"","pricing_plan_id":"cebpf4jnsgd1na2vs0mg"},{"bike_id":"69559209-958b-4112-9e65-651ab1f984cc","system_id":"levelo_inurba_marseille","lat":43.27141,"lon":5.42184,"is_reserved":false,"is_disabled":false,"rental_uris":{"android":"levelo://app?vid=69559209-958b-4112-9e65-651ab1f984cc","ios":"levelo://app?vid=69559209-958b-4112-9e65-651ab1f984cc"},"vehicle_type_id":"4","last_reported":1728825288,"current_range_meters":30400,"station_id":"ce4bhk92rcd13ifvqgb0","pricing_plan_id":"cebpf4jnsgd1na2vs0mg"},{"bike_id":"fce64ce7-88b3-471b-aac0-f30f3e66d244","system_id":"levelo_inurba_marseille","lat":43.25087,"lon":5.39512,"is_reserved":false,"is_disabled":false,"rental_uris":{"android":"levelo://app?vid=fce64ce7-88b3-471b-aac0-f30f3e66d244","ios":"levelo://app?vid=fce64ce7-88b3-471b-aac0-f30f3e66d244"},"vehicle_type_id":"4","last_reported":1728825288,"current_range_meters":30800,"station_id":"ce4bhm12rcd13ifvqgkg","pricing_plan_id":"cebpf4jnsgd1na2vs0mg"},{"bike_id":"641676b7-6e8f-4699-8e5b-db70501c6b86","system_id":"levelo_inurba_marseille","lat":43.28617,"lon":5.351,"is_reserved":false,"is_disabled":false,"rental_uris":{"android":"levelo://app?vid=641676b7-6e8f-4699-8e5b-db70501c6b86","ios":"levelo://app?vid=641676b7-6e8f-4699-8e5b-db70501c6b86"},"vehicle_type_id":"4","last_reported":1728825288,"current_range_meters":38800,"station_id":"ce4bhch2rcd13ifvqeug","pricing_plan_id":"cebpf4jnsgd1na2vs0mg"},{"bike_id":"3545951b-894d-4495-afdf-84cb7b3b25b3","system_id":"levelo_inurba_marseille","lat":43.23196,"lon":5.35553,"is_reserved":false,"is_disabled":false,"rental_uris":{"android":"levelo://app?vid=3545951b-894d-4495-afdf-84cb7b3b25b3","ios":"levelo://app?vid=3545951b-894d-4495-afdf-84cb7b3b25b3"},"vehicle_type_id":"4","last_reported":1728825288,"current_range_meters":38800,"station_id":"ce4bhu92rcd13ifvqi70","pricing_plan_id":"cebpf4jnsgd1na2vs0mg"},{"bike_id":"47c321bc-ed54-4bef-9dc8-b318eb953fa2","system_id":"levelo_inurba_marseille","lat":43.25499,"lon":5.37652,"is_reserved":false,"is_disabled":false,"rental_uris":{"android":"levelo://app?vid=47c321bc-ed54-4bef-9dc8-b318eb953fa2","ios":"levelo://app?vid=47c321bc-ed54-4bef-9dc8-b318eb953fa2"},"vehicle_type_id":"4","last_reported":1728825288,"current_range_meters":27200,"station_id":"ce4bhh12rcd13ifvqff0","pricing_plan_id":"cebpf4jnsgd1na2vs0mg"},{"bike_id":"19767c7e-4ed0-457f-bcde-dbef8a4b6308","system_id":"levelo_inurba_marseille","lat":43.24386,"lon":5.3706,"is_reserved":false,"is_disabled":false,"rental_uris":{"android":"levelo://app?vid=19767c7e-4ed0-457f-bcde-dbef8a4b6308","ios":"levelo://app?vid=19767c7e-4ed0-457f-bcde-dbef8a4b6308"},"vehicle_type_id":"4","last_reported":1728825288,"current_range_meters":32800,"station_id":"ce4bhhh2rcd13ifvqfk0","pricing_plan_id":"cebpf4jnsgd1na2vs0mg"},{"bike_id":"ddd8071c-e197-43f6-b7d5-51b8315e08bd","system_id":"levelo_inurba_marseille","lat":43.23194,"lon":5.35563,"is_reserved":false,"is_disabled":false,"rental_uris":{"android":"levelo://app?vid=ddd8071c-e197-43f6-b7d5-51b8315e08bd","ios":"levelo://app?vid=ddd8071c-e197-43f6-b7d5-51b8315e08bd"},"vehicle_type_id":"4","last_reported":1728825288,"current_range_meters":14000,"station_id":"ce4bhu92rcd13ifvqi70","pricing_plan_id":"cebpf4jnsgd1na2vs0mg"},{"bike_id":"8624dd88-f13c-4075-b76d-e8417618b333","system_id":"levelo_inurba_marseille","lat":43.29229,"lon":5.36107,"is_reserved":false,"is_disabled":false,"rental_uris":{"android":"levelo://app?vid=8624dd88-f13c-4075-b76d-e8417618b333","ios":"levelo://app?vid=8624dd88-f13c-4075-b76d-e8417618b333"},"vehicle_type_id":"4","last_reported":1728825288,"current_range_meters":34000,"station_id":"ce4bhbh2rcd13ifvqeqg","pricing_plan_id":"cebpf4jnsgd1na2vs0mg"},{"bike_id":"25ed2710-8c35-44e6-81fd-8fc7cf6b54a8","system_id":"levelo_inurba_marseille","lat":43.274948,"lon":5.424466,"is_reserved":false,"is_disabled":false,"rental_uris":{"android":"levelo://app?vid=25ed2710-8c35-44e6-81fd-8fc7cf6b54a8","ios":"levelo://app?vid=25ed2710-8c35-44e6-81fd-8fc7cf6b54a8"},"vehicle_type_id":"4","last_reported":1728825288,"current_range_meters":20800,"station_id":"ce4bhn92rcd13ifvqgrg","pricing_plan_id":"cebpf4jnsgd1na2vs0mg"},{"bike_id":"0e2e2c76-7003-4cdf-a316-28e502692d95","system_id":"levelo_inurba_marseille","lat":43.29844,"lon":5.36261,"is_reserved":false,"is_disabled":false,"rental_uris":{"android":"levelo://app?vid=0e2e2c76-7003-4cdf-a316-28e502692d95","ios":"levelo://app?vid=0e2e2c76-7003-4cdf-a316-28e502692d95"},"vehicle_type_id":"4","last_reported":1728825288,"current_range_meters":39200,"station_id":"ce4bgpp2rcd13ifvqc3g","pricing_plan_id":"cebpf4jnsgd1na2vs0mg"},{"bike_id":"3568bb6a-ff56-4932-b065-3f63a3c1d59e","system_id":"levelo_inurba_marseille","lat":43.26807,"lon":5.40263,"is_reserved":false,"is_disabled":false,"rental_uris":{"android":"levelo://app?vid=3568bb6a-ff56-4932-b065-3f63a3c1d59e","ios":"levelo://app?vid=3568bb6a-ff56-4932-b065-3f63a3c1d59e"},"vehicle_type_id":"4","last_reported":1728825288,"current_range_meters":37600,"station_id":"ce501612rcd8frsf0b60","pricing_plan_id":"cebpf4jnsgd1na2vs0mg"},{"bike_id":"2fb129e9-8d3d-41bf-a76f-3fcdf4c548b5","system_id":"levelo_inurba_marseille","lat":43.295724,"lon":5.399899,"is_reserved":false,"is_disabled":false,"rental_uris":{"android":"levelo://app?vid=2fb129e9-8d3d-41bf-a76f-3fcdf4c548b5","ios":"levelo://app?vid=2fb129e9-8d3d-41bf-a76f-3fcdf4c548b5"},"vehicle_type_id":"4","last_reported":1728825288,"current_range_meters":24000,"station_id":"ce4bh312rcd13ifvqdj0","pricing_plan_id":"cebpf4jnsgd1na2vs0mg"},{"bike_id":"41d9e61a-42d4-4324-b02f-9fca96ad5ea5","system_id":"levelo_inurba_marseille","lat":43.29977,"lon":5.37175,"is_reserved":false,"is_disabled":false,"rental_uris":{"android":"levelo://app?vid=41d9e61a-42d4-4324-b02f-9fca96ad5ea5","ios":"levelo://app?vid=41d9e61a-42d4-4324-b02f-9fca96ad5ea5"},"vehicle_type_id":"4","last_reported":1728825288,"current_range_meters":16400,"station_id":"ce4bgr92rcd13ifvqc7g","pricing_plan_id":"cebpf4jnsgd1na2vs0mg"},{"bike_id":"9d326c55-a4bd-4b0e-8a3c-5259e770521e","system_id":"levelo_inurba_marseille","lat":43.29074,"lon":5.37148,"is_reserved":false,"is_disabled":false,"rental_uris":{"android":"levelo://app?vid=9d326c55-a4bd-4b0e-8a3c-5259e770521e","ios":"levelo://app?vid=9d326c55-a4bd-4b0e-8a3c-5259e770521e"},"vehicle_type_id":"4","last_reported":1728825288,"current_range_meters":13600,"station_id":"ce4bh5p2rcd13ifvqe4g","pricing_plan_id":"cebpf4jnsgd1na2vs0mg"},{"bike_id":"e0934505-f2bb-41a6-8753-7c9ddac1c19f","system_id":"levelo_inurba_marseille","lat":43.25003,"lon":5.38926,"is_reserved":false,"is_disabled":false,"rental_uris":{"android":"levelo://app?vid=e0934505-f2bb-41a6-8753-7c9ddac1c19f","ios":"levelo://app?vid=e0934505-f2bb-41a6-8753-7c9ddac1c19f"},"vehicle_type_id":"4","last_reported":1728825288,"current_range_meters":20400,"station_id":"ce4bhgp2rcd13ifvqfd0","pricing_plan_id":"cebpf4jnsgd1na2vs0mg"},{"bike_id":"109d18b6-bfcf-4cff-85dc-bd512ce6fb2f","system_id":"levelo_inurba_marseille","lat":43.23192,"lon":5.35553,"is_reserved":false,"is_disabled":false,"rental_uris":{"android":"levelo://app?vid=109d18b6-bfcf-4cff-85dc-bd512ce6fb2f","ios":"levelo://app?vid=109d18b6-bfcf-4cff-85dc-bd512ce6fb2f"},"vehicle_type_id":"4","last_reported":1728825288,"current_range_meters":8000,"station_id":"ce4bhu92rcd13ifvqi70","pricing_plan_id":"cebpf4jnsgd1na2vs0mg"},{"bike_id":"5ff3d339-72da-4776-b2cf-e167c0812418","system_id":"levelo_inurba_marseille","lat":43.23193,"lon":5.39977,"is_reserved":false,"is_disabled":false,"rental_uris":{"android":"levelo://app?vid=5ff3d339-72da-4776-b2cf-e167c0812418","ios":"levelo://app?vid=5ff3d339-72da-4776-b2cf-e167c0812418"},"vehicle_type_id":"4","last_reported":1728825288,"current_range_meters":12000,"station_id":"ce4bhn12rcd13ifvqgqg","pricing_plan_id":"cebpf4jnsgd1na2vs0mg"},{"bike_id":"e3cd8953-9e5a-44ad-a5cd-debf49a539ae","system_id":"levelo_inurba_marseille","lat":43.21255,"lon":5.35445,"is_reserved":false,"is_disabled":false,"rental_uris":{"android":"levelo://app?vid=e3cd8953-9e5a-44ad-a5cd-debf49a539ae","ios":"levelo://app?vid=e3cd8953-9e5a-44ad-a5cd-debf49a539ae"},"vehicle_type_id":"4","last_reported":1728825288,"current_range_meters":20400,"station_id":"","pricing_plan_id":"cebpf4jnsgd1na2vs0mg"},{"bike_id":"726ea84d-d6f3-4f63-8d10-efa74cba9883","system_id":"levelo_inurba_marseille","lat":43.24386,"lon":5.37059,"is_reserved":false,"is_disabled":false,"rental_uris":{"android":"levelo://app?vid=726ea84d-d6f3-4f63-8d10-efa74cba9883","ios":"levelo://app?vid=726ea84d-d6f3-4f63-8d10-efa74cba9883"},"vehicle_type_id":"4","last_reported":1728825288,"current_range_meters":30000,"station_id":"ce4bhhh2rcd13ifvqfk0","pricing_plan_id":"cebpf4jnsgd1na2vs0mg"},{"bike_id":"91a3dcf2-b779-4390-8bcf-8ccea0588ef1","system_id":"levelo_inurba_marseille","lat":43.29433,"lon":5.39765,"is_reserved":false,"is_disabled":false,"rental_uris":{"android":"levelo://app?vid=91a3dcf2-b779-4390-8bcf-8ccea0588ef1","ios":"levelo://app?vid=91a3dcf2-b779-4390-8bcf-8ccea0588ef1"},"vehicle_type_id":"4","last_reported":1728825288,"current_range_meters":3600,"station_id":"ce4bh3h2rcd13ifvqdo0","pricing_plan_id":"cebpf4jnsgd1na2vs0mg"},{"bike_id":"744d7d46-a030-452d-827a-600610e2a098","system_id":"levelo_inurba_marseille","lat":43.23188,"lon":5.39999,"is_reserved":false,"is_disabled":false,"rental_uris":{"android":"levelo://app?vid=744d7d46-a030-452d-827a-600610e2a098","ios":"levelo://app?vid=744d7d46-a030-452d-827a-600610e2a098"},"vehicle_type_id":"4","last_reported":1728825288,"current_range_meters":33600,"station_id":"ce4bhn12rcd13ifvqgqg","pricing_plan_id":"cebpf4jnsgd1na2vs0mg"},{"bike_id":"e6a8aec1-d448-48fb-b2d3-480453e7edf3","system_id":"levelo_inurba_marseille","lat":43.31706,"lon":5.39823,"is_reserved":false,"is_disabled":false,"rental_uris":{"android":"levelo://app?vid=e6a8aec1-d448-48fb-b2d3-480453e7edf3","ios":"levelo://app?vid=e6a8aec1-d448-48fb-b2d3-480453e7edf3"},"vehicle_type_id":"4","last_reported":1728825288,"current_range_meters":4400,"station_id":"","pricing_plan_id":"cebpf4jnsgd1na2vs0mg"},{"bike_id":"d3a11268-074e-4838-a682-d4251e169260","system_id":"levelo_inurba_marseille","lat":43.24808,"lon":5.37454,"is_reserved":false,"is_disabled":false,"rental_uris":{"android":"levelo://app?vid=d3a11268-074e-4838-a682-d4251e169260","ios":"levelo://app?vid=d3a11268-074e-4838-a682-d4251e169260"},"vehicle_type_id":"4","last_reported":1728825288,"current_range_meters":7200,"station_id":"ce4bhgh2rcd13ifvqfb0","pricing_plan_id":"cebpf4jnsgd1na2vs0mg"},{"bike_id":"b5323191-ac85-41a7-9de1-238668924669","system_id":"levelo_inurba_marseille","lat":43.28265,"lon":5.35064,"is_reserved":false,"is_disabled":false,"rental_uris":{"android":"levelo://app?vid=b5323191-ac85-41a7-9de1-238668924669","ios":"levelo://app?vid=b5323191-ac85-41a7-9de1-238668924669"},"vehicle_type_id":"4","last_reported":1728825288,"current_range_meters":38800,"station_id":"ce4bhbp2rcd13ifvqerg","pricing_plan_id":"cebpf4jnsgd1na2vs0mg"},{"bike_id":"b94b7e3e-2bad-4ed6-8ff2-274287e00654","system_id":"levelo_inurba_marseille","lat":43.28265,"lon":5.35067,"is_reserved":false,"is_disabled":false,"rental_uris":{"android":"levelo://app?vid=b94b7e3e-2bad-4ed6-8ff2-274287e00654","ios":"levelo://app?vid=b94b7e3e-2bad-4ed6-8ff2-274287e00654"},"vehicle_type_id":"4","last_reported":1728825288,"current_range_meters":38800,"station_id":"ce4bhbp2rcd13ifvqerg","pricing_plan_id":"cebpf4jnsgd1na2vs0mg"},{"bike_id":"d786daa7-6195-4ad4-9d67-6b3a9d97ab5c","system_id":"levelo_inurba_marseille","lat":43.2439,"lon":5.3705,"is_reserved":false,"is_disabled":false,"rental_uris":{"android":"levelo://app?vid=d786daa7-6195-4ad4-9d67-6b3a9d97ab5c","ios":"levelo://app?vid=d786daa7-6195-4ad4-9d67-6b3a9d97ab5c"},"vehicle_type_id":"4","last_reported":1728825288,"current_range_meters":6400,"station_id":"ce4bhhh2rcd13ifvqfk0","pricing_plan_id":"cebpf4jnsgd1na2vs0mg"},{"bike_id":"3b75fe99-810f-40ef-9f84-d5b1cf667dc9","system_id":"levelo_inurba_marseille","lat":43.23152,"lon":5.43714,"is_reserved":false,"is_disabled":false,"rental_uris":{"android":"levelo://app?vid=3b75fe99-810f-40ef-9f84-d5b1cf667dc9","ios":"levelo://app?vid=3b75fe99-810f-40ef-9f84-d5b1cf667dc9"},"vehicle_type_id":"4","last_reported":1728825288,"current_range_meters":24800,"station_id":"ce4bhmp2rcd13ifvqgog","pricing_plan_id":"cebpf4jnsgd1na2vs0mg"},{"bike_id":"6cb5b02c-2401-484a-8b7d-b4d2106d6b08","system_id":"levelo_inurba_marseille","lat":43.23194,"lon":5.35557,"is_reserved":false,"is_disabled":false,"rental_uris":{"android":"levelo://app?vid=6cb5b02c-2401-484a-8b7d-b4d2106d6b08","ios":"levelo://app?vid=6cb5b02c-2401-484a-8b7d-b4d2106d6b08"},"vehicle_type_id":"4","last_reported":1728825288,"current_range_meters":26000,"station_id":"ce4bhu92rcd13ifvqi70","pricing_plan_id":"cebpf4jnsgd1na2vs0mg"},{"bike_id":"0ab49455-f256-4d7d-ba8c-2e498c9d87c0","system_id":"levelo_inurba_marseille","lat":43.29923,"lon":5.37472,"is_reserved":false,"is_disabled":false,"rental_uris":{"android":"levelo://app?vid=0ab49455-f256-4d7d-ba8c-2e498c9d87c0","ios":"levelo://app?vid=0ab49455-f256-4d7d-ba8c-2e498c9d87c0"},"vehicle_type_id":"4","last_reported":1728825288,"current_range_meters":2000,"station_id":"ce4bgjh2rcd13ifvqbg0","pricing_plan_id":"cebpf4jnsgd1na2vs0mg"},{"bike_id":"aee981a5-c2b8-4719-88df-661a4526874a","system_id":"levelo_inurba_marseille","lat":43.26944,"lon":5.40259,"is_reserved":false,"is_disabled":false,"rental_uris":{"android":"levelo://app?vid=aee981a5-c2b8-4719-88df-661a4526874a","ios":"levelo://app?vid=aee981a5-c2b8-4719-88df-661a4526874a"},"vehicle_type_id":"4","last_reported":1728825288,"current_range_meters":24000,"station_id":"cjm6bp8fraef2m0cb0m0","pricing_plan_id":"cebpf4jnsgd1na2vs0mg"},{"bike_id":"d34e3713-8be1-4995-8125-c96ec064ddd0","system_id":"levelo_inurba_marseille","lat":43.2396,"lon":5.36623,"is_reserved":false,"is_disabled":false,"rental_uris":{"android":"levelo://app?vid=d34e3713-8be1-4995-8125-c96ec064ddd0","ios":"levelo://app?vid=d34e3713-8be1-4995-8125-c96ec064ddd0"},"vehicle_type_id":"4","last_reported":1728825288,"current_range_meters":38800,"station_id":"ce4bhi12rcd13ifvqfp0","pricing_plan_id":"cebpf4jnsgd1na2vs0mg"},{"bike_id":"c21f7968-6c8c-4dee-95af-9a2456205b49","system_id":"levelo_inurba_marseille","lat":43.22933,"lon":5.35378,"is_reserved":false,"is_disabled":false,"rental_uris":{"android":"levelo://app?vid=c21f7968-6c8c-4dee-95af-9a2456205b49","ios":"levelo://app?vid=c21f7968-6c8c-4dee-95af-9a2456205b49"},"vehicle_type_id":"4","last_reported":1728825288,"current_range_meters":38800,"station_id":"cpo3532slgdg3j2ikp40","pricing_plan_id":"cebpf4jnsgd1na2vs0mg"},{"bike_id":"921eb451-a108-4fbf-a5fa-bf0205374997","system_id":"levelo_inurba_marseille","lat":43.26058,"lon":5.39399,"is_reserved":false,"is_disabled":false,"rental_uris":{"android":"levelo://app?vid=921eb451-a108-4fbf-a5fa-bf0205374997","ios":"levelo://app?vid=921eb451-a108-4fbf-a5fa-bf0205374997"},"vehicle_type_id":"4","last_reported":1728825288,"current_range_meters":33600,"station_id":"ce4bhh92rcd13ifvqfj0","pricing_plan_id":"cebpf4jnsgd1na2vs0mg"},{"bike_id":"d871b66e-9600-44b5-a5ad-988b0acfb4c2","system_id":"levelo_inurba_marseille","lat":43.30328,"lon":5.40425,"is_reserved":false,"is_disabled":false,"rental_uris":{"android":"levelo://app?vid=d871b66e-9600-44b5-a5ad-988b0acfb4c2","ios":"levelo://app?vid=d871b66e-9600-44b5-a5ad-988b0acfb4c2"},"vehicle_type_id":"4","last_reported":1728825288,"current_range_meters":38000,"station_id":"ce4bh012rcd13ifvqd10","pricing_plan_id":"cebpf4jnsgd1na2vs0mg"},{"bike_id":"950d7a36-ed02-4f52-bff1-79e0313d42e6","system_id":"levelo_inurba_marseille","lat":43.26191,"lon":5.374509,"is_reserved":false,"is_disabled":false,"rental_uris":{"android":"levelo://app?vid=950d7a36-ed02-4f52-bff1-79e0313d42e6","ios":"levelo://app?vid=950d7a36-ed02-4f52-bff1-79e0313d42e6"},"vehicle_type_id":"4","last_reported":1728825288,"current_range_meters":32400,"station_id":"ce4bhgp2rcd13ifvqfc0","pricing_plan_id":"cebpf4jnsgd1na2vs0mg"},{"bike_id":"686da6fc-5410-44cd-bb15-4fc4c4699dc6","system_id":"levelo_inurba_marseille","lat":43.29555,"lon":5.42287,"is_reserved":false,"is_disabled":false,"rental_uris":{"android":"levelo://app?vid=686da6fc-5410-44cd-bb15-4fc4c4699dc6","ios":"levelo://app?vid=686da6fc-5410-44cd-bb15-4fc4c4699dc6"},"vehicle_type_id":"4","last_reported":1728825288,"current_range_meters":36400,"station_id":"ce4bhph2rcd13ifvqhdg","pricing_plan_id":"cebpf4jnsgd1na2vs0mg"},{"bike_id":"d0511c0c-0d1c-41f0-902b-b87a7872ec9e","system_id":"levelo_inurba_marseille","lat":43.28153,"lon":5.42638,"is_reserved":false,"is_disabled":false,"rental_uris":{"android":"levelo://app?vid=d0511c0c-0d1c-41f0-902b-b87a7872ec9e","ios":"levelo://app?vid=d0511c0c-0d1c-41f0-902b-b87a7872ec9e"},"vehicle_type_id":"4","last_reported":1728825288,"current_range_meters":36400,"station_id":"ce4bhnh2rcd13ifvqgug","pricing_plan_id":"cebpf4jnsgd1na2vs0mg"},{"bike_id":"48769031-7946-4e43-8393-323a5a76faf6","system_id":"levelo_inurba_marseille","lat":43.25867,"lon":5.39899,"is_reserved":false,"is_disabled":false,"rental_uris":{"android":"levelo://app?vid=48769031-7946-4e43-8393-323a5a76faf6","ios":"levelo://app?vid=48769031-7946-4e43-8393-323a5a76faf6"},"vehicle_type_id":"4","last_reported":1728825288,"current_range_meters":32000,"station_id":"ce4bhl92rcd13ifvqghg","pricing_plan_id":"cebpf4jnsgd1na2vs0mg"},{"bike_id":"9d671549-67ad-4eb0-ace0-50f59d8a0c79","system_id":"levelo_inurba_marseille","lat":43.31109,"lon":5.38064,"is_reserved":false,"is_disabled":false,"rental_uris":{"android":"levelo://app?vid=9d671549-67ad-4eb0-ace0-50f59d8a0c79","ios":"levelo://app?vid=9d671549-67ad-4eb0-ace0-50f59d8a0c79"},"vehicle_type_id":"4","last_reported":1728825288,"current_range_meters":24400,"station_id":"ce4bgt92rcd13ifvqcf0","pricing_plan_id":"cebpf4jnsgd1na2vs0mg"},{"bike_id":"019140ae-e316-4d6f-a884-a5f5edd517e4","system_id":"levelo_inurba_marseille","lat":43.292225,"lon":5.360459,"is_reserved":false,"is_disabled":false,"rental_uris":{"android":"levelo://app?vid=019140ae-e316-4d6f-a884-a5f5edd517e4","ios":"levelo://app?vid=019140ae-e316-4d6f-a884-a5f5edd517e4"},"vehicle_type_id":"4","last_reported":1728825288,"current_range_meters":29600,"station_id":"ce4bhbh2rcd13ifvqeqg","pricing_plan_id":"cebpf4jnsgd1na2vs0mg"},{"bike_id":"25e59862-8a09-482d-b3a5-7138deb4afc5","system_id":"levelo_inurba_marseille","lat":43.2306,"lon":5.35491,"is_reserved":false,"is_disabled":false,"rental_uris":{"android":"levelo://app?vid=25e59862-8a09-482d-b3a5-7138deb4afc5","ios":"levelo://app?vid=25e59862-8a09-482d-b3a5-7138deb4afc5"},"vehicle_type_id":"4","last_reported":1728825288,"current_range_meters":5600,"station_id":"cpo3342slgdg3j2ifvpg","pricing_plan_id":"cebpf4jnsgd1na2vs0mg"},{"bike_id":"11f3ba84-f0a8-4aaa-8ae2-a4cd79be7de4","system_id":"levelo_inurba_marseille","lat":43.25726,"lon":5.41107,"is_reserved":false,"is_disabled":false,"rental_uris":{"android":"levelo://app?vid=11f3ba84-f0a8-4aaa-8ae2-a4cd79be7de4","ios":"levelo://app?vid=11f3ba84-f0a8-4aaa-8ae2-a4cd79be7de4"},"vehicle_type_id":"4","last_reported":1728825288,"current_range_meters":20000,"station_id":"ce4bhkp2rcd13ifvqgd0","pricing_plan_id":"cebpf4jnsgd1na2vs0mg"},{"bike_id":"4f5333fa-3838-4e8f-a035-eeb1d47f3ae0","system_id":"levelo_inurba_marseille","lat":43.23058,"lon":5.35491,"is_reserved":false,"is_disabled":false,"rental_uris":{"android":"levelo://app?vid=4f5333fa-3838-4e8f-a035-eeb1d47f3ae0","ios":"levelo://app?vid=4f5333fa-3838-4e8f-a035-eeb1d47f3ae0"},"vehicle_type_id":"4","last_reported":1728825288,"current_range_meters":18800,"station_id":"cpo3342slgdg3j2ifvpg","pricing_plan_id":"cebpf4jnsgd1na2vs0mg"},{"bike_id":"b933402b-d1ca-49a8-bbf7-fb19281d941c","system_id":"levelo_inurba_marseille","lat":43.23192,"lon":5.35547,"is_reserved":false,"is_disabled":false,"rental_uris":{"android":"levelo://app?vid=b933402b-d1ca-49a8-bbf7-fb19281d941c","ios":"levelo://app?vid=b933402b-d1ca-49a8-bbf7-fb19281d941c"},"vehicle_type_id":"4","last_reported":1728825288,"current_range_meters":15200,"station_id":"ce4bhu92rcd13ifvqi70","pricing_plan_id":"cebpf4jnsgd1na2vs0mg"},{"bike_id":"0c1ecff5-69ed-46a2-bcca-316b26b87952","system_id":"levelo_inurba_marseille","lat":43.25581,"lon":5.3824,"is_reserved":false,"is_disabled":false,"rental_uris":{"android":"levelo://app?vid=0c1ecff5-69ed-46a2-bcca-316b26b87952","ios":"levelo://app?vid=0c1ecff5-69ed-46a2-bcca-316b26b87952"},"vehicle_type_id":"4","last_reported":1728825288,"current_range_meters":30400,"station_id":"ce4bhih2rcd13ifvqfs0","pricing_plan_id":"cebpf4jnsgd1na2vs0mg"},{"bike_id":"0d87b2be-576b-4eb4-8f26-dbd7b9dd1336","system_id":"levelo_inurba_marseille","lat":43.23063,"lon":5.3549,"is_reserved":false,"is_disabled":false,"rental_uris":{"android":"levelo://app?vid=0d87b2be-576b-4eb4-8f26-dbd7b9dd1336","ios":"levelo://app?vid=0d87b2be-576b-4eb4-8f26-dbd7b9dd1336"},"vehicle_type_id":"4","last_reported":1728825288,"current_range_meters":22400,"station_id":"cpo3342slgdg3j2ifvpg","pricing_plan_id":"cebpf4jnsgd1na2vs0mg"},{"bike_id":"ee0a6421-f59d-4a37-a1be-c79ca0fd6854","system_id":"levelo_inurba_marseille","lat":43.28036,"lon":5.36949,"is_reserved":false,"is_disabled":false,"rental_uris":{"android":"levelo://app?vid=ee0a6421-f59d-4a37-a1be-c79ca0fd6854","ios":"levelo://app?vid=ee0a6421-f59d-4a37-a1be-c79ca0fd6854"},"vehicle_type_id":"4","last_reported":1728825288,"current_range_meters":24400,"station_id":"ce4bha12rcd13ifvqef0","pricing_plan_id":"cebpf4jnsgd1na2vs0mg"},{"bike_id":"be6b961d-74a3-4447-abbb-6c91aa4c486b","system_id":"levelo_inurba_marseille","lat":43.29101,"lon":5.38123,"is_reserved":false,"is_disabled":false,"rental_uris":{"android":"levelo://app?vid=be6b961d-74a3-4447-abbb-6c91aa4c486b","ios":"levelo://app?vid=be6b961d-74a3-4447-abbb-6c91aa4c486b"},"vehicle_type_id":"4","last_reported":1728825288,"current_range_meters":37600,"station_id":"ce4bh512rcd13ifvqe2g","pricing_plan_id":"cebpf4jnsgd1na2vs0mg"},{"bike_id":"38e4dc3a-242d-4272-869e-6077688f2313","system_id":"levelo_inurba_marseille","lat":43.280345,"lon":5.36943,"is_reserved":false,"is_disabled":false,"rental_uris":{"android":"levelo://app?vid=38e4dc3a-242d-4272-869e-6077688f2313","ios":"levelo://app?vid=38e4dc3a-242d-4272-869e-6077688f2313"},"vehicle_type_id":"4","last_reported":1728825288,"current_range_meters":13600,"station_id":"ce4bha12rcd13ifvqef0","pricing_plan_id":"cebpf4jnsgd1na2vs0mg"},{"bike_id":"9d0e307c-cca0-4b29-be05-f1dd1610130d","system_id":"levelo_inurba_marseille","lat":43.24395,"lon":5.37057,"is_reserved":false,"is_disabled":false,"rental_uris":{"android":"levelo://app?vid=9d0e307c-cca0-4b29-be05-f1dd1610130d","ios":"levelo://app?vid=9d0e307c-cca0-4b29-be05-f1dd1610130d"},"vehicle_type_id":"4","last_reported":1728825288,"current_range_meters":5600,"station_id":"ce4bhhh2rcd13ifvqfk0","pricing_plan_id":"cebpf4jnsgd1na2vs0mg"},{"bike_id":"a80b3ec3-8ad2-484d-9326-63d5d725e170","system_id":"levelo_inurba_marseille","lat":43.29559,"lon":5.42283,"is_reserved":false,"is_disabled":false,"rental_uris":{"android":"levelo://app?vid=a80b3ec3-8ad2-484d-9326-63d5d725e170","ios":"levelo://app?vid=a80b3ec3-8ad2-484d-9326-63d5d725e170"},"vehicle_type_id":"4","last_reported":1728825288,"current_range_meters":28400,"station_id":"ce4bhph2rcd13ifvqhdg","pricing_plan_id":"cebpf4jnsgd1na2vs0mg"},{"bike_id":"ad384203-41b2-41a3-bdd9-e89e71f4a9b5","system_id":"levelo_inurba_marseille","lat":43.24387,"lon":5.37053,"is_reserved":false,"is_disabled":false,"rental_uris":{"android":"levelo://app?vid=ad384203-41b2-41a3-bdd9-e89e71f4a9b5","ios":"levelo://app?vid=ad384203-41b2-41a3-bdd9-e89e71f4a9b5"},"vehicle_type_id":"4","last_reported":1728825288,"current_range_meters":16800,"station_id":"ce4bhhh2rcd13ifvqfk0","pricing_plan_id":"cebpf4jnsgd1na2vs0mg"},{"bike_id":"b4971d6c-9cfe-4bb0-aeda-5cdeacd0c89e","system_id":"levelo_inurba_marseille","lat":43.24387,"lon":5.37062,"is_reserved":false,"is_disabled":false,"rental_uris":{"android":"levelo://app?vid=b4971d6c-9cfe-4bb0-aeda-5cdeacd0c89e","ios":"levelo://app?vid=b4971d6c-9cfe-4bb0-aeda-5cdeacd0c89e"},"vehicle_type_id":"4","last_reported":1728825288,"current_range_meters":18000,"station_id":"ce4bhhh2rcd13ifvqfk0","pricing_plan_id":"cebpf4jnsgd1na2vs0mg"},{"bike_id":"5933a1dd-cd8a-480c-9db9-fdda56027a94","system_id":"levelo_inurba_marseille","lat":43.258625,"lon":5.398933,"is_reserved":false,"is_disabled":false,"rental_uris":{"android":"levelo://app?vid=5933a1dd-cd8a-480c-9db9-fdda56027a94","ios":"levelo://app?vid=5933a1dd-cd8a-480c-9db9-fdda56027a94"},"vehicle_type_id":"4","last_reported":1728825288,"current_range_meters":20000,"station_id":"ce4bhl92rcd13ifvqghg","pricing_plan_id":"cebpf4jnsgd1na2vs0mg"},{"bike_id":"b5452b0f-d05f-4acc-aca0-4ef9ab05c917","system_id":"levelo_inurba_marseille","lat":43.22933,"lon":5.35377,"is_reserved":false,"is_disabled":false,"rental_uris":{"android":"levelo://app?vid=b5452b0f-d05f-4acc-aca0-4ef9ab05c917","ios":"levelo://app?vid=b5452b0f-d05f-4acc-aca0-4ef9ab05c917"},"vehicle_type_id":"4","last_reported":1728825288,"current_range_meters":38800,"station_id":"cpo3532slgdg3j2ikp40","pricing_plan_id":"cebpf4jnsgd1na2vs0mg"},{"bike_id":"4ae3ded3-da05-4adc-b5d4-7f0463b9e7b2","system_id":"levelo_inurba_marseille","lat":43.2905,"lon":5.35894,"is_reserved":false,"is_disabled":false,"rental_uris":{"android":"levelo://app?vid=4ae3ded3-da05-4adc-b5d4-7f0463b9e7b2","ios":"levelo://app?vid=4ae3ded3-da05-4adc-b5d4-7f0463b9e7b2"},"vehicle_type_id":"4","last_reported":1728825288,"current_range_meters":38800,"station_id":"ce4bha92rcd13ifvqeg0","pricing_plan_id":"cebpf4jnsgd1na2vs0mg"},{"bike_id":"b7398819-ce9b-459f-830a-e50067b6bd60","system_id":"levelo_inurba_marseille","lat":43.27908,"lon":5.38003,"is_reserved":false,"is_disabled":false,"rental_uris":{"android":"levelo://app?vid=b7398819-ce9b-459f-830a-e50067b6bd60","ios":"levelo://app?vid=b7398819-ce9b-459f-830a-e50067b6bd60"},"vehicle_type_id":"4","last_reported":1728825288,"current_range_meters":38000,"station_id":"ce4bhf92rcd13ifvqf50","pricing_plan_id":"cebpf4jnsgd1na2vs0mg"},{"bike_id":"b07d947f-da80-474c-85d5-8ab68230fd90","system_id":"levelo_inurba_marseille","lat":43.33728,"lon":5.39194,"is_reserved":false,"is_disabled":false,"rental_uris":{"android":"levelo://app?vid=b07d947f-da80-474c-85d5-8ab68230fd90","ios":"levelo://app?vid=b07d947f-da80-474c-85d5-8ab68230fd90"},"vehicle_type_id":"4","last_reported":1728825288,"current_range_meters":17200,"station_id":"ce4bhr92rcd13ifvqhsg","pricing_plan_id":"cebpf4jnsgd1na2vs0mg"},{"bike_id":"3f8d769c-90a0-4e03-b892-6af03641d235","system_id":"levelo_inurba_marseille","lat":43.29871,"lon":5.39723,"is_reserved":false,"is_disabled":false,"rental_uris":{"android":"levelo://app?vid=3f8d769c-90a0-4e03-b892-6af03641d235","ios":"levelo://app?vid=3f8d769c-90a0-4e03-b892-6af03641d235"},"vehicle_type_id":"4","last_reported":1728825288,"current_range_meters":3600,"station_id":"ce4bh0h2rcd13ifvqd50","pricing_plan_id":"cebpf4jnsgd1na2vs0mg"},{"bike_id":"aa6deb7b-22c9-4f29-805c-3b8cbcdf21d9","system_id":"levelo_inurba_marseille","lat":43.26439,"lon":5.37892,"is_reserved":false,"is_disabled":false,"rental_uris":{"android":"levelo://app?vid=aa6deb7b-22c9-4f29-805c-3b8cbcdf21d9","ios":"levelo://app?vid=aa6deb7b-22c9-4f29-805c-3b8cbcdf21d9"},"vehicle_type_id":"4","last_reported":1728825288,"current_range_meters":36800,"station_id":"","pricing_plan_id":"cebpf4jnsgd1na2vs0mg"},{"bike_id":"562f9f05-b692-42c8-a8ae-9ad0b4efeb05","system_id":"levelo_inurba_marseille","lat":43.2417,"lon":5.36399,"is_reserved":false,"is_disabled":false,"rental_uris":{"android":"levelo://app?vid=562f9f05-b692-42c8-a8ae-9ad0b4efeb05","ios":"levelo://app?vid=562f9f05-b692-42c8-a8ae-9ad0b4efeb05"},"vehicle_type_id":"4","last_reported":1728825288,"current_range_meters":34800,"station_id":"cpo36qri1sfpv3e86is0","pricing_plan_id":"cebpf4jnsgd1na2vs0mg"},{"bike_id":"17289d87-c34f-4ba9-ac47-6067514ef77e","system_id":"levelo_inurba_marseille","lat":43.26058,"lon":5.39396,"is_reserved":false,"is_disabled":false,"rental_uris":{"android":"levelo://app?vid=17289d87-c34f-4ba9-ac47-6067514ef77e","ios":"levelo://app?vid=17289d87-c34f-4ba9-ac47-6067514ef77e"},"vehicle_type_id":"4","last_reported":1728825288,"current_range_meters":38400,"station_id":"ce4bhh92rcd13ifvqfj0","pricing_plan_id":"cebpf4jnsgd1na2vs0mg"},{"bike_id":"e1f9486c-3843-42a6-aacd-4c828c67520a","system_id":"levelo_inurba_marseille","lat":43.23052,"lon":5.35494,"is_reserved":false,"is_disabled":false,"rental_uris":{"android":"levelo://app?vid=e1f9486c-3843-42a6-aacd-4c828c67520a","ios":"levelo://app?vid=e1f9486c-3843-42a6-aacd-4c828c67520a"},"vehicle_type_id":"4","last_reported":1728825288,"current_range_meters":30400,"station_id":"cpo3342slgdg3j2ifvpg","pricing_plan_id":"cebpf4jnsgd1na2vs0mg"},{"bike_id":"0ed02b61-0f38-4602-830b-cbdfd1c7723f","system_id":"levelo_inurba_marseille","lat":43.292193,"lon":5.360549,"is_reserved":false,"is_disabled":false,"rental_uris":{"android":"levelo://app?vid=0ed02b61-0f38-4602-830b-cbdfd1c7723f","ios":"levelo://app?vid=0ed02b61-0f38-4602-830b-cbdfd1c7723f"},"vehicle_type_id":"4","last_reported":1728825288,"current_range_meters":31200,"station_id":"ce4bhbh2rcd13ifvqeqg","pricing_plan_id":"cebpf4jnsgd1na2vs0mg"},{"bike_id":"17f0a58b-fa96-470d-a1b0-89c2a0c2bfbe","system_id":"levelo_inurba_marseille","lat":43.23193,"lon":5.35556,"is_reserved":false,"is_disabled":false,"rental_uris":{"android":"levelo://app?vid=17f0a58b-fa96-470d-a1b0-89c2a0c2bfbe","ios":"levelo://app?vid=17f0a58b-fa96-470d-a1b0-89c2a0c2bfbe"},"vehicle_type_id":"4","last_reported":1728825288,"current_range_meters":16800,"station_id":"ce4bhu92rcd13ifvqi70","pricing_plan_id":"cebpf4jnsgd1na2vs0mg"},{"bike_id":"b6ad8809-573e-4460-b445-c289d4e32a1b","system_id":"levelo_inurba_marseille","lat":43.28943,"lon":5.39616,"is_reserved":false,"is_disabled":false,"rental_uris":{"android":"levelo://app?vid=b6ad8809-573e-4460-b445-c289d4e32a1b","ios":"levelo://app?vid=b6ad8809-573e-4460-b445-c289d4e32a1b"},"vehicle_type_id":"4","last_reported":1728825288,"current_range_meters":0,"station_id":"ce4bh3h2rcd13ifvqdn0","pricing_plan_id":"cebpf4jnsgd1na2vs0mg"},{"bike_id":"b25409bc-df4d-476a-893e-c6a5838692b2","system_id":"levelo_inurba_marseille","lat":43.23194,"lon":5.35556,"is_reserved":false,"is_disabled":false,"rental_uris":{"android":"levelo://app?vid=b25409bc-df4d-476a-893e-c6a5838692b2","ios":"levelo://app?vid=b25409bc-df4d-476a-893e-c6a5838692b2"},"vehicle_type_id":"4","last_reported":1728825288,"current_range_meters":39200,"station_id":"ce4bhu92rcd13ifvqi70","pricing_plan_id":"cebpf4jnsgd1na2vs0mg"},{"bike_id":"0c988b74-1146-4916-ae24-07fd58d50211","system_id":"levelo_inurba_marseille","lat":43.270594,"lon":5.40256,"is_reserved":false,"is_disabled":false,"rental_uris":{"android":"levelo://app?vid=0c988b74-1146-4916-ae24-07fd58d50211","ios":"levelo://app?vid=0c988b74-1146-4916-ae24-07fd58d50211"},"vehicle_type_id":"4","last_reported":1728825288,"current_range_meters":35600,"station_id":"ce4bhk92rcd13ifvqgc0","pricing_plan_id":"cebpf4jnsgd1na2vs0mg"},{"bike_id":"c0ba6486-f212-4dcc-9e9d-0bcd4174be5f","system_id":"levelo_inurba_marseille","lat":43.25939,"lon":5.409,"is_reserved":false,"is_disabled":false,"rental_uris":{"android":"levelo://app?vid=c0ba6486-f212-4dcc-9e9d-0bcd4174be5f","ios":"levelo://app?vid=c0ba6486-f212-4dcc-9e9d-0bcd4174be5f"},"vehicle_type_id":"4","last_reported":1728825288,"current_range_meters":20000,"station_id":"ce4bhm92rcd13ifvqglg","pricing_plan_id":"cebpf4jnsgd1na2vs0mg"},{"bike_id":"8fb2b431-bcb9-46ba-80fb-e26e84592fc5","system_id":"levelo_inurba_marseille","lat":43.23196,"lon":5.35555,"is_reserved":false,"is_disabled":false,"rental_uris":{"android":"levelo://app?vid=8fb2b431-bcb9-46ba-80fb-e26e84592fc5","ios":"levelo://app?vid=8fb2b431-bcb9-46ba-80fb-e26e84592fc5"},"vehicle_type_id":"4","last_reported":1728825288,"current_range_meters":27200,"station_id":"ce4bhu92rcd13ifvqi70","pricing_plan_id":"cebpf4jnsgd1na2vs0mg"},{"bike_id":"0201f3d5-7f11-44f9-b98f-64f18258c683","system_id":"levelo_inurba_marseille","lat":43.27375,"lon":5.36255,"is_reserved":false,"is_disabled":false,"rental_uris":{"android":"levelo://app?vid=0201f3d5-7f11-44f9-b98f-64f18258c683","ios":"levelo://app?vid=0201f3d5-7f11-44f9-b98f-64f18258c683"},"vehicle_type_id":"4","last_reported":1728825288,"current_range_meters":28400,"station_id":"ce4bhbh2rcd13ifvqeo0","pricing_plan_id":"cebpf4jnsgd1na2vs0mg"},{"bike_id":"d91652fd-777a-4184-847c-bc24388491a7","system_id":"levelo_inurba_marseille","lat":43.29226,"lon":5.3607,"is_reserved":false,"is_disabled":false,"rental_uris":{"android":"levelo://app?vid=d91652fd-777a-4184-847c-bc24388491a7","ios":"levelo://app?vid=d91652fd-777a-4184-847c-bc24388491a7"},"vehicle_type_id":"4","last_reported":1728825288,"current_range_meters":18800,"station_id":"ce4bhbh2rcd13ifvqeqg","pricing_plan_id":"cebpf4jnsgd1na2vs0mg"},{"bike_id":"e2f25126-29b7-4581-a4fe-9e458716fb1d","system_id":"levelo_inurba_marseille","lat":43.23964,"lon":5.36634,"is_reserved":false,"is_disabled":false,"rental_uris":{"android":"levelo://app?vid=e2f25126-29b7-4581-a4fe-9e458716fb1d","ios":"levelo://app?vid=e2f25126-29b7-4581-a4fe-9e458716fb1d"},"vehicle_type_id":"4","last_reported":1728825288,"current_range_meters":24000,"station_id":"ce4bhi12rcd13ifvqfp0","pricing_plan_id":"cebpf4jnsgd1na2vs0mg"},{"bike_id":"a7b550fd-46dc-4bbe-b12b-880e877b9d14","system_id":"levelo_inurba_marseille","lat":43.30889,"lon":5.37192,"is_reserved":false,"is_disabled":false,"rental_uris":{"android":"levelo://app?vid=a7b550fd-46dc-4bbe-b12b-880e877b9d14","ios":"levelo://app?vid=a7b550fd-46dc-4bbe-b12b-880e877b9d14"},"vehicle_type_id":"4","last_reported":1728825288,"current_range_meters":26000,"station_id":"ce4bguh2rcd13ifvqckg","pricing_plan_id":"cebpf4jnsgd1na2vs0mg"},{"bike_id":"6746abcb-d28b-4802-b21a-150ec671a4ca","system_id":"levelo_inurba_marseille","lat":43.23194,"lon":5.35552,"is_reserved":false,"is_disabled":false,"rental_uris":{"android":"levelo://app?vid=6746abcb-d28b-4802-b21a-150ec671a4ca","ios":"levelo://app?vid=6746abcb-d28b-4802-b21a-150ec671a4ca"},"vehicle_type_id":"4","last_reported":1728825288,"current_range_meters":22400,"station_id":"ce4bhu92rcd13ifvqi70","pricing_plan_id":"cebpf4jnsgd1na2vs0mg"},{"bike_id":"4f466708-3660-4795-8eb4-eb6bf0e09ff8","system_id":"levelo_inurba_marseille","lat":43.27305,"lon":5.39058,"is_reserved":false,"is_disabled":false,"rental_uris":{"android":"levelo://app?vid=4f466708-3660-4795-8eb4-eb6bf0e09ff8","ios":"levelo://app?vid=4f466708-3660-4795-8eb4-eb6bf0e09ff8"},"vehicle_type_id":"4","last_reported":1728825288,"current_range_meters":38800,"station_id":"ce4bhgp2rcd13ifvqfe0","pricing_plan_id":"cebpf4jnsgd1na2vs0mg"},{"bike_id":"094b29e5-79f8-4fb1-afe4-cbfbbb1b9cd4","system_id":"levelo_inurba_marseille","lat":43.23191,"lon":5.39981,"is_reserved":false,"is_disabled":false,"rental_uris":{"android":"levelo://app?vid=094b29e5-79f8-4fb1-afe4-cbfbbb1b9cd4","ios":"levelo://app?vid=094b29e5-79f8-4fb1-afe4-cbfbbb1b9cd4"},"vehicle_type_id":"4","last_reported":1728825288,"current_range_meters":38800,"station_id":"ce4bhn12rcd13ifvqgqg","pricing_plan_id":"cebpf4jnsgd1na2vs0mg"},{"bike_id":"2ab423a0-58a0-4125-b3de-29c6611f5114","system_id":"levelo_inurba_marseille","lat":43.24403,"lon":5.40086,"is_reserved":false,"is_disabled":false,"rental_uris":{"android":"levelo://app?vid=2ab423a0-58a0-4125-b3de-29c6611f5114","ios":"levelo://app?vid=2ab423a0-58a0-4125-b3de-29c6611f5114"},"vehicle_type_id":"4","last_reported":1728825288,"current_range_meters":30000,"station_id":"ce4bhm12rcd13ifvqgkg","pricing_plan_id":"cebpf4jnsgd1na2vs0mg"},{"bike_id":"1f806745-cf2d-40ad-8e04-dc4773b289bc","system_id":"levelo_inurba_marseille","lat":43.2905,"lon":5.359,"is_reserved":false,"is_disabled":false,"rental_uris":{"android":"levelo://app?vid=1f806745-cf2d-40ad-8e04-dc4773b289bc","ios":"levelo://app?vid=1f806745-cf2d-40ad-8e04-dc4773b289bc"},"vehicle_type_id":"4","last_reported":1728825288,"current_range_meters":26000,"station_id":"ce4bha92rcd13ifvqeg0","pricing_plan_id":"cebpf4jnsgd1na2vs0mg"},{"bike_id":"5d0b2349-b815-49ca-a368-d0f94f9daa51","system_id":"levelo_inurba_marseille","lat":43.24393,"lon":5.37066,"is_reserved":false,"is_disabled":false,"rental_uris":{"android":"levelo://app?vid=5d0b2349-b815-49ca-a368-d0f94f9daa51","ios":"levelo://app?vid=5d0b2349-b815-49ca-a368-d0f94f9daa51"},"vehicle_type_id":"4","last_reported":1728825288,"current_range_meters":28400,"station_id":"ce4bhhh2rcd13ifvqfk0","pricing_plan_id":"cebpf4jnsgd1na2vs0mg"},{"bike_id":"d8114500-1907-496e-bedb-c5ed18c6cb26","system_id":"levelo_inurba_marseille","lat":43.27209,"lon":5.39174,"is_reserved":false,"is_disabled":false,"rental_uris":{"android":"levelo://app?vid=d8114500-1907-496e-bedb-c5ed18c6cb26","ios":"levelo://app?vid=d8114500-1907-496e-bedb-c5ed18c6cb26"},"vehicle_type_id":"4","last_reported":1728825288,"current_range_meters":32400,"station_id":"ce4bhhp2rcd13ifvqfm0","pricing_plan_id":"cebpf4jnsgd1na2vs0mg"},{"bike_id":"8df76210-c1cb-4a21-b1a3-10b5629722e8","system_id":"levelo_inurba_marseille","lat":43.231921,"lon":5.400001,"is_reserved":false,"is_disabled":false,"rental_uris":{"android":"levelo://app?vid=8df76210-c1cb-4a21-b1a3-10b5629722e8","ios":"levelo://app?vid=8df76210-c1cb-4a21-b1a3-10b5629722e8"},"vehicle_type_id":"4","last_reported":1728825288,"current_range_meters":38800,"station_id":"ce4bhn12rcd13ifvqgqg","pricing_plan_id":"cebpf4jnsgd1na2vs0mg"},{"bike_id":"a9d8d00f-2b10-40cd-af9b-04b4ae45f2bc","system_id":"levelo_inurba_marseille","lat":43.24386,"lon":5.37054,"is_reserved":false,"is_disabled":false,"rental_uris":{"android":"levelo://app?vid=a9d8d00f-2b10-40cd-af9b-04b4ae45f2bc","ios":"levelo://app?vid=a9d8d00f-2b10-40cd-af9b-04b4ae45f2bc"},"vehicle_type_id":"4","last_reported":1728825288,"current_range_meters":23200,"station_id":"ce4bhhh2rcd13ifvqfk0","pricing_plan_id":"cebpf4jnsgd1na2vs0mg"},{"bike_id":"aa787854-30b8-40c4-81e2-c37e761eaeef","system_id":"levelo_inurba_marseille","lat":43.28417,"lon":5.34983,"is_reserved":false,"is_disabled":false,"rental_uris":{"android":"levelo://app?vid=aa787854-30b8-40c4-81e2-c37e761eaeef","ios":"levelo://app?vid=aa787854-30b8-40c4-81e2-c37e761eaeef"},"vehicle_type_id":"4","last_reported":1728825288,"current_range_meters":27600,"station_id":"ce4bhbh2rcd13ifvqepg","pricing_plan_id":"cebpf4jnsgd1na2vs0mg"},{"bike_id":"643eb1ac-0cbd-44f3-a42c-b2fa72d6d6d5","system_id":"levelo_inurba_marseille","lat":43.248047,"lon":5.374598,"is_reserved":false,"is_disabled":false,"rental_uris":{"android":"levelo://app?vid=643eb1ac-0cbd-44f3-a42c-b2fa72d6d6d5","ios":"levelo://app?vid=643eb1ac-0cbd-44f3-a42c-b2fa72d6d6d5"},"vehicle_type_id":"4","last_reported":1728825288,"current_range_meters":22800,"station_id":"ce4bhgh2rcd13ifvqfb0","pricing_plan_id":"cebpf4jnsgd1na2vs0mg"},{"bike_id":"e53d9dac-6d16-4334-ad56-d0d38fcf4eb7","system_id":"levelo_inurba_marseille","lat":43.27965,"lon":5.41807,"is_reserved":false,"is_disabled":false,"rental_uris":{"android":"levelo://app?vid=e53d9dac-6d16-4334-ad56-d0d38fcf4eb7","ios":"levelo://app?vid=e53d9dac-6d16-4334-ad56-d0d38fcf4eb7"},"vehicle_type_id":"4","last_reported":1728825288,"current_range_meters":24400,"station_id":"","pricing_plan_id":"cebpf4jnsgd1na2vs0mg"},{"bike_id":"c611aef4-6d5d-40aa-878f-a8ebd960836b","system_id":"levelo_inurba_marseille","lat":43.23962,"lon":5.36634,"is_reserved":false,"is_disabled":false,"rental_uris":{"android":"levelo://app?vid=c611aef4-6d5d-40aa-878f-a8ebd960836b","ios":"levelo://app?vid=c611aef4-6d5d-40aa-878f-a8ebd960836b"},"vehicle_type_id":"4","last_reported":1728825288,"current_range_meters":38800,"station_id":"ce4bhi12rcd13ifvqfp0","pricing_plan_id":"cebpf4jnsgd1na2vs0mg"},{"bike_id":"aa94dfd2-1ed1-43df-a438-34e39f771f63","system_id":"levelo_inurba_marseille","lat":43.24393,"lon":5.3707,"is_reserved":false,"is_disabled":false,"rental_uris":{"android":"levelo://app?vid=aa94dfd2-1ed1-43df-a438-34e39f771f63","ios":"levelo://app?vid=aa94dfd2-1ed1-43df-a438-34e39f771f63"},"vehicle_type_id":"4","last_reported":1728825288,"current_range_meters":18800,"station_id":"ce4bhhh2rcd13ifvqfk0","pricing_plan_id":"cebpf4jnsgd1na2vs0mg"},{"bike_id":"7e91c8f0-49f0-44f5-a188-03adf933e1ec","system_id":"levelo_inurba_marseille","lat":43.30308,"lon":5.36885,"is_reserved":false,"is_disabled":false,"rental_uris":{"android":"levelo://app?vid=7e91c8f0-49f0-44f5-a188-03adf933e1ec","ios":"levelo://app?vid=7e91c8f0-49f0-44f5-a188-03adf933e1ec"},"vehicle_type_id":"4","last_reported":1728825288,"current_range_meters":5600,"station_id":"ce4bgqh2rcd13ifvqc5g","pricing_plan_id":"cebpf4jnsgd1na2vs0mg"},{"bike_id":"fc2ec0cd-06b4-42da-a16f-7bf7b56b12fb","system_id":"levelo_inurba_marseille","lat":43.29846,"lon":5.36281,"is_reserved":false,"is_disabled":false,"rental_uris":{"android":"levelo://app?vid=fc2ec0cd-06b4-42da-a16f-7bf7b56b12fb","ios":"levelo://app?vid=fc2ec0cd-06b4-42da-a16f-7bf7b56b12fb"},"vehicle_type_id":"4","last_reported":1728825288,"current_range_meters":40000,"station_id":"ce4bgpp2rcd13ifvqc3g","pricing_plan_id":"cebpf4jnsgd1na2vs0mg"},{"bike_id":"c167cdf7-5aed-449a-bdd2-8f515812e27f","system_id":"levelo_inurba_marseille","lat":43.29032,"lon":5.37567,"is_reserved":false,"is_disabled":false,"rental_uris":{"android":"levelo://app?vid=c167cdf7-5aed-449a-bdd2-8f515812e27f","ios":"levelo://app?vid=c167cdf7-5aed-449a-bdd2-8f515812e27f"},"vehicle_type_id":"4","last_reported":1728825288,"current_range_meters":35200,"station_id":"ce4bh692rcd13ifvqe90","pricing_plan_id":"cebpf4jnsgd1na2vs0mg"},{"bike_id":"cdde71fa-933f-47ef-8a23-39142a076aea","system_id":"levelo_inurba_marseille","lat":43.29557,"lon":5.42284,"is_reserved":false,"is_disabled":false,"rental_uris":{"android":"levelo://app?vid=cdde71fa-933f-47ef-8a23-39142a076aea","ios":"levelo://app?vid=cdde71fa-933f-47ef-8a23-39142a076aea"},"vehicle_type_id":"4","last_reported":1728825288,"current_range_meters":38800,"station_id":"ce4bhph2rcd13ifvqhdg","pricing_plan_id":"cebpf4jnsgd1na2vs0mg"},{"bike_id":"f84e4825-1eed-4b2d-bd84-8bd1632fd777","system_id":"levelo_inurba_marseille","lat":43.29626,"lon":5.37723,"is_reserved":false,"is_disabled":false,"rental_uris":{"android":"levelo://app?vid=f84e4825-1eed-4b2d-bd84-8bd1632fd777","ios":"levelo://app?vid=f84e4825-1eed-4b2d-bd84-8bd1632fd777"},"vehicle_type_id":"4","last_reported":1728825288,"current_range_meters":20400,"station_id":"ce4bgi92rcd13ifvqb90","pricing_plan_id":"cebpf4jnsgd1na2vs0mg"},{"bike_id":"d04c3a25-9e86-42a0-833a-b06bd4f0b4bd","system_id":"levelo_inurba_marseille","lat":43.24174,"lon":5.36388,"is_reserved":false,"is_disabled":false,"rental_uris":{"android":"levelo://app?vid=d04c3a25-9e86-42a0-833a-b06bd4f0b4bd","ios":"levelo://app?vid=d04c3a25-9e86-42a0-833a-b06bd4f0b4bd"},"vehicle_type_id":"4","last_reported":1728825288,"current_range_meters":17600,"station_id":"cpo36qri1sfpv3e86is0","pricing_plan_id":"cebpf4jnsgd1na2vs0mg"},{"bike_id":"49316722-f5ca-469e-b328-cdeaebfb0c7f","system_id":"levelo_inurba_marseille","lat":43.23963,"lon":5.36627,"is_reserved":false,"is_disabled":false,"rental_uris":{"android":"levelo://app?vid=49316722-f5ca-469e-b328-cdeaebfb0c7f","ios":"levelo://app?vid=49316722-f5ca-469e-b328-cdeaebfb0c7f"},"vehicle_type_id":"4","last_reported":1728825288,"current_range_meters":38800,"station_id":"ce4bhi12rcd13ifvqfp0","pricing_plan_id":"cebpf4jnsgd1na2vs0mg"},{"bike_id":"45064078-1434-419f-a7e7-0b4f182bace4","system_id":"levelo_inurba_marseille","lat":43.27994,"lon":5.4,"is_reserved":false,"is_disabled":false,"rental_uris":{"android":"levelo://app?vid=45064078-1434-419f-a7e7-0b4f182bace4","ios":"levelo://app?vid=45064078-1434-419f-a7e7-0b4f182bace4"},"vehicle_type_id":"4","last_reported":1728825288,"current_range_meters":37600,"station_id":"ce4bho92rcd13ifvqh4g","pricing_plan_id":"cebpf4jnsgd1na2vs0mg"},{"bike_id":"96d2c9a4-9402-4bde-9375-4e11e68c1dad","system_id":"levelo_inurba_marseille","lat":43.29193,"lon":5.35803,"is_reserved":false,"is_disabled":false,"rental_uris":{"android":"levelo://app?vid=96d2c9a4-9402-4bde-9375-4e11e68c1dad","ios":"levelo://app?vid=96d2c9a4-9402-4bde-9375-4e11e68c1dad"},"vehicle_type_id":"4","last_reported":1728825288,"current_range_meters":38000,"station_id":"ce4bhb12rcd13ifvqel0","pricing_plan_id":"cebpf4jnsgd1na2vs0mg"},{"bike_id":"fad384e0-9600-496c-a332-d502afd63fc6","system_id":"levelo_inurba_marseille","lat":43.30143,"lon":5.37406,"is_reserved":false,"is_disabled":false,"rental_uris":{"android":"levelo://app?vid=fad384e0-9600-496c-a332-d502afd63fc6","ios":"levelo://app?vid=fad384e0-9600-496c-a332-d502afd63fc6"},"vehicle_type_id":"4","last_reported":1728825288,"current_range_meters":17200,"station_id":"ce4bgs92rcd13ifvqcc0","pricing_plan_id":"cebpf4jnsgd1na2vs0mg"},{"bike_id":"7b20509d-3e68-45a9-908c-1764325c91a4","system_id":"levelo_inurba_marseille","lat":43.23195,"lon":5.3555,"is_reserved":false,"is_disabled":false,"rental_uris":{"android":"levelo://app?vid=7b20509d-3e68-45a9-908c-1764325c91a4","ios":"levelo://app?vid=7b20509d-3e68-45a9-908c-1764325c91a4"},"vehicle_type_id":"4","last_reported":1728825288,"current_range_meters":4800,"station_id":"ce4bhu92rcd13ifvqi70","pricing_plan_id":"cebpf4jnsgd1na2vs0mg"},{"bike_id":"aad69708-28ac-43e6-945e-619f5a7c6bfd","system_id":"levelo_inurba_marseille","lat":43.33781,"lon":5.37443,"is_reserved":false,"is_disabled":false,"rental_uris":{"android":"levelo://app?vid=aad69708-28ac-43e6-945e-619f5a7c6bfd","ios":"levelo://app?vid=aad69708-28ac-43e6-945e-619f5a7c6bfd"},"vehicle_type_id":"4","last_reported":1728825288,"current_range_meters":33200,"station_id":"","pricing_plan_id":"cebpf4jnsgd1na2vs0mg"},{"bike_id":"42aacc2e-9faa-4a25-ac0f-a3e7a6f35da5","system_id":"levelo_inurba_marseille","lat":43.28262,"lon":5.35062,"is_reserved":false,"is_disabled":false,"rental_uris":{"android":"levelo://app?vid=42aacc2e-9faa-4a25-ac0f-a3e7a6f35da5","ios":"levelo://app?vid=42aacc2e-9faa-4a25-ac0f-a3e7a6f35da5"},"vehicle_type_id":"4","last_reported":1728825288,"current_range_meters":30000,"station_id":"ce4bhbp2rcd13ifvqerg","pricing_plan_id":"cebpf4jnsgd1na2vs0mg"},{"bike_id":"4cc9181f-7d50-4cbe-b30e-72c8d10943dd","system_id":"levelo_inurba_marseille","lat":43.27215,"lon":5.39179,"is_reserved":false,"is_disabled":false,"rental_uris":{"android":"levelo://app?vid=4cc9181f-7d50-4cbe-b30e-72c8d10943dd","ios":"levelo://app?vid=4cc9181f-7d50-4cbe-b30e-72c8d10943dd"},"vehicle_type_id":"4","last_reported":1728825288,"current_range_meters":18000,"station_id":"ce4bhhp2rcd13ifvqfm0","pricing_plan_id":"cebpf4jnsgd1na2vs0mg"},{"bike_id":"71cf7286-1207-48ea-9905-84e8b1d59926","system_id":"levelo_inurba_marseille","lat":43.23155,"lon":5.43702,"is_reserved":false,"is_disabled":false,"rental_uris":{"android":"levelo://app?vid=71cf7286-1207-48ea-9905-84e8b1d59926","ios":"levelo://app?vid=71cf7286-1207-48ea-9905-84e8b1d59926"},"vehicle_type_id":"4","last_reported":1728825288,"current_range_meters":31200,"station_id":"ce4bhmp2rcd13ifvqgog","pricing_plan_id":"cebpf4jnsgd1na2vs0mg"},{"bike_id":"95c40967-8398-408d-8cf0-ff7d47c3ad40","system_id":"levelo_inurba_marseille","lat":43.290694,"lon":5.371566,"is_reserved":false,"is_disabled":false,"rental_uris":{"android":"levelo://app?vid=95c40967-8398-408d-8cf0-ff7d47c3ad40","ios":"levelo://app?vid=95c40967-8398-408d-8cf0-ff7d47c3ad40"},"vehicle_type_id":"4","last_reported":1728825288,"current_range_meters":28800,"station_id":"ce4bh5p2rcd13ifvqe4g","pricing_plan_id":"cebpf4jnsgd1na2vs0mg"},{"bike_id":"4effdc6c-81af-4018-8a5c-fd14e884ef39","system_id":"levelo_inurba_marseille","lat":43.23181,"lon":5.3999,"is_reserved":false,"is_disabled":false,"rental_uris":{"android":"levelo://app?vid=4effdc6c-81af-4018-8a5c-fd14e884ef39","ios":"levelo://app?vid=4effdc6c-81af-4018-8a5c-fd14e884ef39"},"vehicle_type_id":"4","last_reported":1728825288,"current_range_meters":14000,"station_id":"ce4bhn12rcd13ifvqgqg","pricing_plan_id":"cebpf4jnsgd1na2vs0mg"},{"bike_id":"08dcee72-42fb-4bea-b663-b225d8d1b4c5","system_id":"levelo_inurba_marseille","lat":43.27832,"lon":5.39195,"is_reserved":false,"is_disabled":false,"rental_uris":{"android":"levelo://app?vid=08dcee72-42fb-4bea-b663-b225d8d1b4c5","ios":"levelo://app?vid=08dcee72-42fb-4bea-b663-b225d8d1b4c5"},"vehicle_type_id":"4","last_reported":1728825288,"current_range_meters":38800,"station_id":"ce4bhjp2rcd13ifvqga0","pricing_plan_id":"cebpf4jnsgd1na2vs0mg"},{"bike_id":"9b63e08c-92a9-474f-94c2-a5402b510f01","system_id":"levelo_inurba_marseille","lat":43.23199,"lon":5.35555,"is_reserved":false,"is_disabled":false,"rental_uris":{"android":"levelo://app?vid=9b63e08c-92a9-474f-94c2-a5402b510f01","ios":"levelo://app?vid=9b63e08c-92a9-474f-94c2-a5402b510f01"},"vehicle_type_id":"4","last_reported":1728825288,"current_range_meters":2800,"station_id":"ce4bhu92rcd13ifvqi70","pricing_plan_id":"cebpf4jnsgd1na2vs0mg"},{"bike_id":"8509fa5d-c6d9-4cb2-b4b1-4f2065b2666e","system_id":"levelo_inurba_marseille","lat":43.28344,"lon":5.41016,"is_reserved":false,"is_disabled":false,"rental_uris":{"android":"levelo://app?vid=8509fa5d-c6d9-4cb2-b4b1-4f2065b2666e","ios":"levelo://app?vid=8509fa5d-c6d9-4cb2-b4b1-4f2065b2666e"},"vehicle_type_id":"4","last_reported":1728825288,"current_range_meters":3200,"station_id":"","pricing_plan_id":"cebpf4jnsgd1na2vs0mg"},{"bike_id":"34494029-cbf2-4261-b604-0cf7b00bcda9","system_id":"levelo_inurba_marseille","lat":43.29437,"lon":5.39755,"is_reserved":false,"is_disabled":false,"rental_uris":{"android":"levelo://app?vid=34494029-cbf2-4261-b604-0cf7b00bcda9","ios":"levelo://app?vid=34494029-cbf2-4261-b604-0cf7b00bcda9"},"vehicle_type_id":"4","last_reported":1728825288,"current_range_meters":22000,"station_id":"ce4bh3h2rcd13ifvqdo0","pricing_plan_id":"cebpf4jnsgd1na2vs0mg"},{"bike_id":"f9deceb6-28a5-4114-9300-91a207614eec","system_id":"levelo_inurba_marseille","lat":43.24662,"lon":5.38152,"is_reserved":false,"is_disabled":false,"rental_uris":{"android":"levelo://app?vid=f9deceb6-28a5-4114-9300-91a207614eec","ios":"levelo://app?vid=f9deceb6-28a5-4114-9300-91a207614eec"},"vehicle_type_id":"4","last_reported":1728825288,"current_range_meters":18800,"station_id":"ce4bhih2rcd13ifvqfr0","pricing_plan_id":"cebpf4jnsgd1na2vs0mg"},{"bike_id":"df4355c8-f6a4-424f-b7e6-34059e05bb79","system_id":"levelo_inurba_marseille","lat":43.24541,"lon":5.39528,"is_reserved":false,"is_disabled":false,"rental_uris":{"android":"levelo://app?vid=df4355c8-f6a4-424f-b7e6-34059e05bb79","ios":"levelo://app?vid=df4355c8-f6a4-424f-b7e6-34059e05bb79"},"vehicle_type_id":"4","last_reported":1728825288,"current_range_meters":33200,"station_id":"ce4bhlp2rcd13ifvqgjg","pricing_plan_id":"cebpf4jnsgd1na2vs0mg"},{"bike_id":"4750cba1-e9ca-4d06-b07b-8a7b755eaccc","system_id":"levelo_inurba_marseille","lat":43.28153,"lon":5.42634,"is_reserved":false,"is_disabled":false,"rental_uris":{"android":"levelo://app?vid=4750cba1-e9ca-4d06-b07b-8a7b755eaccc","ios":"levelo://app?vid=4750cba1-e9ca-4d06-b07b-8a7b755eaccc"},"vehicle_type_id":"4","last_reported":1728825288,"current_range_meters":22800,"station_id":"ce4bhnh2rcd13ifvqgug","pricing_plan_id":"cebpf4jnsgd1na2vs0mg"},{"bike_id":"27311a75-ebb6-43d6-9fb5-f3ba72a10e0e","system_id":"levelo_inurba_marseille","lat":43.299,"lon":5.43657,"is_reserved":false,"is_disabled":false,"rental_uris":{"android":"levelo://app?vid=27311a75-ebb6-43d6-9fb5-f3ba72a10e0e","ios":"levelo://app?vid=27311a75-ebb6-43d6-9fb5-f3ba72a10e0e"},"vehicle_type_id":"4","last_reported":1728825288,"current_range_meters":17200,"station_id":"ce4bhpp2rcd13ifvqhfg","pricing_plan_id":"cebpf4jnsgd1na2vs0mg"},{"bike_id":"26a262f4-3ef3-45b6-8100-ef5666414f94","system_id":"levelo_inurba_marseille","lat":43.29004,"lon":5.35615,"is_reserved":false,"is_disabled":false,"rental_uris":{"android":"levelo://app?vid=26a262f4-3ef3-45b6-8100-ef5666414f94","ios":"levelo://app?vid=26a262f4-3ef3-45b6-8100-ef5666414f94"},"vehicle_type_id":"4","last_reported":1728825288,"current_range_meters":16000,"station_id":"ce4bhb92rcd13ifvqen0","pricing_plan_id":"cebpf4jnsgd1na2vs0mg"},{"bike_id":"4e28be52-5ccc-4188-b6d4-f6fd8ee4c8c3","system_id":"levelo_inurba_marseille","lat":43.22935,"lon":5.35375,"is_reserved":false,"is_disabled":false,"rental_uris":{"android":"levelo://app?vid=4e28be52-5ccc-4188-b6d4-f6fd8ee4c8c3","ios":"levelo://app?vid=4e28be52-5ccc-4188-b6d4-f6fd8ee4c8c3"},"vehicle_type_id":"4","last_reported":1728825288,"current_range_meters":22400,"station_id":"cpo3532slgdg3j2ikp40","pricing_plan_id":"cebpf4jnsgd1na2vs0mg"},{"bike_id":"be362dab-09bb-4610-a83d-44e44280a165","system_id":"levelo_inurba_marseille","lat":43.23061,"lon":5.35489,"is_reserved":false,"is_disabled":false,"rental_uris":{"android":"levelo://app?vid=be362dab-09bb-4610-a83d-44e44280a165","ios":"levelo://app?vid=be362dab-09bb-4610-a83d-44e44280a165"},"vehicle_type_id":"4","last_reported":1728825288,"current_range_meters":7200,"station_id":"cpo3342slgdg3j2ifvpg","pricing_plan_id":"cebpf4jnsgd1na2vs0mg"},{"bike_id":"5d51f65f-71e1-4b97-aa45-1ca692f005db","system_id":"levelo_inurba_marseille","lat":43.29031,"lon":5.38648,"is_reserved":false,"is_disabled":false,"rental_uris":{"android":"levelo://app?vid=5d51f65f-71e1-4b97-aa45-1ca692f005db","ios":"levelo://app?vid=5d51f65f-71e1-4b97-aa45-1ca692f005db"},"vehicle_type_id":"4","last_reported":1728825288,"current_range_meters":25200,"station_id":"ce4bh4p2rcd13ifvqe0g","pricing_plan_id":"cebpf4jnsgd1na2vs0mg"},{"bike_id":"c125659c-958d-46e0-903b-368579960dd5","system_id":"levelo_inurba_marseille","lat":43.24389,"lon":5.37052,"is_reserved":false,"is_disabled":false,"rental_uris":{"android":"levelo://app?vid=c125659c-958d-46e0-903b-368579960dd5","ios":"levelo://app?vid=c125659c-958d-46e0-903b-368579960dd5"},"vehicle_type_id":"4","last_reported":1728825288,"current_range_meters":27600,"station_id":"ce4bhhh2rcd13ifvqfk0","pricing_plan_id":"cebpf4jnsgd1na2vs0mg"},{"bike_id":"0a7f4f8b-83db-4348-be70-5e0a5f67a62f","system_id":"levelo_inurba_marseille","lat":43.28268,"lon":5.35057,"is_reserved":false,"is_disabled":false,"rental_uris":{"android":"levelo://app?vid=0a7f4f8b-83db-4348-be70-5e0a5f67a62f","ios":"levelo://app?vid=0a7f4f8b-83db-4348-be70-5e0a5f67a62f"},"vehicle_type_id":"4","last_reported":1728825288,"current_range_meters":38400,"station_id":"ce4bhbp2rcd13ifvqerg","pricing_plan_id":"cebpf4jnsgd1na2vs0mg"},{"bike_id":"51397a06-4aa6-4537-8b53-47367b527c2d","system_id":"levelo_inurba_marseille","lat":43.27816,"lon":5.40716,"is_reserved":false,"is_disabled":false,"rental_uris":{"android":"levelo://app?vid=51397a06-4aa6-4537-8b53-47367b527c2d","ios":"levelo://app?vid=51397a06-4aa6-4537-8b53-47367b527c2d"},"vehicle_type_id":"4","last_reported":1728825288,"current_range_meters":37600,"station_id":"ce4bhnh2rcd13ifvqgtg","pricing_plan_id":"cebpf4jnsgd1na2vs0mg"},{"bike_id":"3caf68e8-3d29-4273-afe3-ba07e63f6407","system_id":"levelo_inurba_marseille","lat":43.23054,"lon":5.35495,"is_reserved":false,"is_disabled":false,"rental_uris":{"android":"levelo://app?vid=3caf68e8-3d29-4273-afe3-ba07e63f6407","ios":"levelo://app?vid=3caf68e8-3d29-4273-afe3-ba07e63f6407"},"vehicle_type_id":"4","last_reported":1728825288,"current_range_meters":6800,"station_id":"cpo3342slgdg3j2ifvpg","pricing_plan_id":"cebpf4jnsgd1na2vs0mg"},{"bike_id":"719d54af-429c-4973-980b-d8c9de2ba6f1","system_id":"levelo_inurba_marseille","lat":43.30469,"lon":5.36703,"is_reserved":false,"is_disabled":false,"rental_uris":{"android":"levelo://app?vid=719d54af-429c-4973-980b-d8c9de2ba6f1","ios":"levelo://app?vid=719d54af-429c-4973-980b-d8c9de2ba6f1"},"vehicle_type_id":"4","last_reported":1728825288,"current_range_meters":29600,"station_id":"ce4bgrh2rcd13ifvqc8g","pricing_plan_id":"cebpf4jnsgd1na2vs0mg"},{"bike_id":"ef8e19dc-87f0-4136-9a5c-d46116f09ddf","system_id":"levelo_inurba_marseille","lat":43.26193,"lon":5.37456,"is_reserved":false,"is_disabled":false,"rental_uris":{"android":"levelo://app?vid=ef8e19dc-87f0-4136-9a5c-d46116f09ddf","ios":"levelo://app?vid=ef8e19dc-87f0-4136-9a5c-d46116f09ddf"},"vehicle_type_id":"4","last_reported":1728825288,"current_range_meters":7200,"station_id":"ce4bhgp2rcd13ifvqfc0","pricing_plan_id":"cebpf4jnsgd1na2vs0mg"},{"bike_id":"c5a187db-e278-4e0a-b184-28c59c5e6a1a","system_id":"levelo_inurba_marseille","lat":43.32535,"lon":5.4145,"is_reserved":false,"is_disabled":false,"rental_uris":{"android":"levelo://app?vid=c5a187db-e278-4e0a-b184-28c59c5e6a1a","ios":"levelo://app?vid=c5a187db-e278-4e0a-b184-28c59c5e6a1a"},"vehicle_type_id":"4","last_reported":1728825288,"current_range_meters":36800,"station_id":"ce4bhq12rcd13ifvqhhg","pricing_plan_id":"cebpf4jnsgd1na2vs0mg"},{"bike_id":"cba59919-95e6-42ff-83c9-6bcf45674d60","system_id":"levelo_inurba_marseille","lat":43.32288,"lon":5.38267,"is_reserved":false,"is_disabled":false,"rental_uris":{"android":"levelo://app?vid=cba59919-95e6-42ff-83c9-6bcf45674d60","ios":"levelo://app?vid=cba59919-95e6-42ff-83c9-6bcf45674d60"},"vehicle_type_id":"4","last_reported":1728825288,"current_range_meters":38800,"station_id":"ce4bhr12rcd13ifvqhqg","pricing_plan_id":"cebpf4jnsgd1na2vs0mg"},{"bike_id":"1b9c7dd5-f2fe-4ebb-beae-9c0d90183d98","system_id":"levelo_inurba_marseille","lat":43.25491,"lon":5.37652,"is_reserved":false,"is_disabled":false,"rental_uris":{"android":"levelo://app?vid=1b9c7dd5-f2fe-4ebb-beae-9c0d90183d98","ios":"levelo://app?vid=1b9c7dd5-f2fe-4ebb-beae-9c0d90183d98"},"vehicle_type_id":"4","last_reported":1728825288,"current_range_meters":3200,"station_id":"ce4bhh12rcd13ifvqff0","pricing_plan_id":"cebpf4jnsgd1na2vs0mg"},{"bike_id":"610bfb8b-3e91-4e90-b1f9-7f3d953e2cb4","system_id":"levelo_inurba_marseille","lat":43.24396,"lon":5.37067,"is_reserved":false,"is_disabled":false,"rental_uris":{"android":"levelo://app?vid=610bfb8b-3e91-4e90-b1f9-7f3d953e2cb4","ios":"levelo://app?vid=610bfb8b-3e91-4e90-b1f9-7f3d953e2cb4"},"vehicle_type_id":"4","last_reported":1728825288,"current_range_meters":22000,"station_id":"ce4bhhh2rcd13ifvqfk0","pricing_plan_id":"cebpf4jnsgd1na2vs0mg"},{"bike_id":"42006aa6-7aec-4704-bb84-014f53bba7f6","system_id":"levelo_inurba_marseille","lat":43.33026,"lon":5.39038,"is_reserved":false,"is_disabled":false,"rental_uris":{"android":"levelo://app?vid=42006aa6-7aec-4704-bb84-014f53bba7f6","ios":"levelo://app?vid=42006aa6-7aec-4704-bb84-014f53bba7f6"},"vehicle_type_id":"4","last_reported":1728825288,"current_range_meters":29600,"station_id":"ce4bhr92rcd13ifvqhrg","pricing_plan_id":"cebpf4jnsgd1na2vs0mg"},{"bike_id":"e4977089-dd05-4da7-bfbd-e0eb7bd8b8f8","system_id":"levelo_inurba_marseille","lat":43.29688,"lon":5.37293,"is_reserved":false,"is_disabled":false,"rental_uris":{"android":"levelo://app?vid=e4977089-dd05-4da7-bfbd-e0eb7bd8b8f8","ios":"levelo://app?vid=e4977089-dd05-4da7-bfbd-e0eb7bd8b8f8"},"vehicle_type_id":"4","last_reported":1728825288,"current_range_meters":6400,"station_id":"ce4bgk12rcd13ifvqbj0","pricing_plan_id":"cebpf4jnsgd1na2vs0mg"},{"bike_id":"b0685f0b-a65d-412f-9834-673d98a45357","system_id":"levelo_inurba_marseille","lat":43.23195,"lon":5.35544,"is_reserved":false,"is_disabled":false,"rental_uris":{"android":"levelo://app?vid=b0685f0b-a65d-412f-9834-673d98a45357","ios":"levelo://app?vid=b0685f0b-a65d-412f-9834-673d98a45357"},"vehicle_type_id":"4","last_reported":1728825288,"current_range_meters":16000,"station_id":"ce4bhu92rcd13ifvqi70","pricing_plan_id":"cebpf4jnsgd1na2vs0mg"},{"bike_id":"12a11862-e724-4c75-93b1-8d1ac5d4d67e","system_id":"levelo_inurba_marseille","lat":43.23961,"lon":5.36625,"is_reserved":false,"is_disabled":false,"rental_uris":{"android":"levelo://app?vid=12a11862-e724-4c75-93b1-8d1ac5d4d67e","ios":"levelo://app?vid=12a11862-e724-4c75-93b1-8d1ac5d4d67e"},"vehicle_type_id":"4","last_reported":1728825288,"current_range_meters":38000,"station_id":"ce4bhi12rcd13ifvqfp0","pricing_plan_id":"cebpf4jnsgd1na2vs0mg"},{"bike_id":"f18e0f77-308e-4ba2-8674-f40e1c9df587","system_id":"levelo_inurba_marseille","lat":43.2816,"lon":5.42641,"is_reserved":false,"is_disabled":false,"rental_uris":{"android":"levelo://app?vid=f18e0f77-308e-4ba2-8674-f40e1c9df587","ios":"levelo://app?vid=f18e0f77-308e-4ba2-8674-f40e1c9df587"},"vehicle_type_id":"4","last_reported":1728825288,"current_range_meters":17600,"station_id":"ce4bhnh2rcd13ifvqgug","pricing_plan_id":"cebpf4jnsgd1na2vs0mg"},{"bike_id":"243fec94-e0d7-490b-b3a6-d7e0a61eacab","system_id":"levelo_inurba_marseille","lat":43.33609,"lon":5.41025,"is_reserved":false,"is_disabled":false,"rental_uris":{"android":"levelo://app?vid=243fec94-e0d7-490b-b3a6-d7e0a61eacab","ios":"levelo://app?vid=243fec94-e0d7-490b-b3a6-d7e0a61eacab"},"vehicle_type_id":"4","last_reported":1728825288,"current_range_meters":6400,"station_id":"ce4bhqh2rcd13ifvqhmg","pricing_plan_id":"cebpf4jnsgd1na2vs0mg"},{"bike_id":"37faf882-339d-4723-b43e-7fbb2b9b920f","system_id":"levelo_inurba_marseille","lat":43.24388,"lon":5.37068,"is_reserved":false,"is_disabled":false,"rental_uris":{"android":"levelo://app?vid=37faf882-339d-4723-b43e-7fbb2b9b920f","ios":"levelo://app?vid=37faf882-339d-4723-b43e-7fbb2b9b920f"},"vehicle_type_id":"4","last_reported":1728825288,"current_range_meters":24400,"station_id":"ce4bhhh2rcd13ifvqfk0","pricing_plan_id":"cebpf4jnsgd1na2vs0mg"},{"bike_id":"099d3b80-1f23-4f46-ba66-ae8aba144658","system_id":"levelo_inurba_marseille","lat":43.2901,"lon":5.35613,"is_reserved":false,"is_disabled":false,"rental_uris":{"android":"levelo://app?vid=099d3b80-1f23-4f46-ba66-ae8aba144658","ios":"levelo://app?vid=099d3b80-1f23-4f46-ba66-ae8aba144658"},"vehicle_type_id":"4","last_reported":1728825288,"current_range_meters":7200,"station_id":"ce4bhb92rcd13ifvqen0","pricing_plan_id":"cebpf4jnsgd1na2vs0mg"},{"bike_id":"8eb5e8c7-5ba5-4d04-9248-917b20970616","system_id":"levelo_inurba_marseille","lat":43.241687,"lon":5.36401,"is_reserved":false,"is_disabled":false,"rental_uris":{"android":"levelo://app?vid=8eb5e8c7-5ba5-4d04-9248-917b20970616","ios":"levelo://app?vid=8eb5e8c7-5ba5-4d04-9248-917b20970616"},"vehicle_type_id":"4","last_reported":1728825288,"current_range_meters":33600,"station_id":"cpo36qri1sfpv3e86is0","pricing_plan_id":"cebpf4jnsgd1na2vs0mg"},{"bike_id":"7054d3fe-1636-41b1-af8a-ce12a779ebeb","system_id":"levelo_inurba_marseille","lat":43.23069,"lon":5.35489,"is_reserved":false,"is_disabled":false,"rental_uris":{"android":"levelo://app?vid=7054d3fe-1636-41b1-af8a-ce12a779ebeb","ios":"levelo://app?vid=7054d3fe-1636-41b1-af8a-ce12a779ebeb"},"vehicle_type_id":"4","last_reported":1728825288,"current_range_meters":20000,"station_id":"cpo3342slgdg3j2ifvpg","pricing_plan_id":"cebpf4jnsgd1na2vs0mg"},{"bike_id":"1f681610-96b4-4468-9fc5-43fb3b22f9e8","system_id":"levelo_inurba_marseille","lat":43.29195,"lon":5.35785,"is_reserved":false,"is_disabled":false,"rental_uris":{"android":"levelo://app?vid=1f681610-96b4-4468-9fc5-43fb3b22f9e8","ios":"levelo://app?vid=1f681610-96b4-4468-9fc5-43fb3b22f9e8"},"vehicle_type_id":"4","last_reported":1728825288,"current_range_meters":11200,"station_id":"ce4bhb12rcd13ifvqel0","pricing_plan_id":"cebpf4jnsgd1na2vs0mg"},{"bike_id":"adf7f252-dbc1-459a-8043-ad1f1eca0157","system_id":"levelo_inurba_marseille","lat":43.33731,"lon":5.39182,"is_reserved":false,"is_disabled":false,"rental_uris":{"android":"levelo://app?vid=adf7f252-dbc1-459a-8043-ad1f1eca0157","ios":"levelo://app?vid=adf7f252-dbc1-459a-8043-ad1f1eca0157"},"vehicle_type_id":"4","last_reported":1728825288,"current_range_meters":34000,"station_id":"ce4bhr92rcd13ifvqhsg","pricing_plan_id":"cebpf4jnsgd1na2vs0mg"},{"bike_id":"0b4afb29-37be-41d6-88fa-21e23bce8b94","system_id":"levelo_inurba_marseille","lat":43.24173,"lon":5.36396,"is_reserved":false,"is_disabled":false,"rental_uris":{"android":"levelo://app?vid=0b4afb29-37be-41d6-88fa-21e23bce8b94","ios":"levelo://app?vid=0b4afb29-37be-41d6-88fa-21e23bce8b94"},"vehicle_type_id":"4","last_reported":1728825288,"current_range_meters":11200,"station_id":"cpo36qri1sfpv3e86is0","pricing_plan_id":"cebpf4jnsgd1na2vs0mg"},{"bike_id":"7368293e-5deb-41c7-9a13-c579bb677748","system_id":"levelo_inurba_marseille","lat":43.28258,"lon":5.35059,"is_reserved":false,"is_disabled":false,"rental_uris":{"android":"levelo://app?vid=7368293e-5deb-41c7-9a13-c579bb677748","ios":"levelo://app?vid=7368293e-5deb-41c7-9a13-c579bb677748"},"vehicle_type_id":"4","last_reported":1728825288,"current_range_meters":30000,"station_id":"ce4bhbp2rcd13ifvqerg","pricing_plan_id":"cebpf4jnsgd1na2vs0mg"},{"bike_id":"d74ec44b-9cea-4248-a2e4-6a3f2f9cc937","system_id":"levelo_inurba_marseille","lat":43.28424,"lon":5.3498,"is_reserved":false,"is_disabled":false,"rental_uris":{"android":"levelo://app?vid=d74ec44b-9cea-4248-a2e4-6a3f2f9cc937","ios":"levelo://app?vid=d74ec44b-9cea-4248-a2e4-6a3f2f9cc937"},"vehicle_type_id":"4","last_reported":1728825288,"current_range_meters":26000,"station_id":"ce4bhbh2rcd13ifvqepg","pricing_plan_id":"cebpf4jnsgd1na2vs0mg"},{"bike_id":"99886974-c16e-4165-adc7-36c11125f9cb","system_id":"levelo_inurba_marseille","lat":43.30356,"lon":5.41875,"is_reserved":false,"is_disabled":false,"rental_uris":{"android":"levelo://app?vid=99886974-c16e-4165-adc7-36c11125f9cb","ios":"levelo://app?vid=99886974-c16e-4165-adc7-36c11125f9cb"},"vehicle_type_id":"4","last_reported":1728825288,"current_range_meters":20400,"station_id":"ce4bhop2rcd13ifvqh7g","pricing_plan_id":"cebpf4jnsgd1na2vs0mg"},{"bike_id":"75a9ec36-d628-425b-8f28-3dfba3d5b08e","system_id":"levelo_inurba_marseille","lat":43.3145,"lon":5.37216,"is_reserved":false,"is_disabled":false,"rental_uris":{"android":"levelo://app?vid=75a9ec36-d628-425b-8f28-3dfba3d5b08e","ios":"levelo://app?vid=75a9ec36-d628-425b-8f28-3dfba3d5b08e"},"vehicle_type_id":"4","last_reported":1728825288,"current_range_meters":38800,"station_id":"","pricing_plan_id":"cebpf4jnsgd1na2vs0mg"},{"bike_id":"6ec9041b-8bc3-41d8-91a1-fd6e81a958a5","system_id":"levelo_inurba_marseille","lat":43.31998,"lon":5.38155,"is_reserved":false,"is_disabled":false,"rental_uris":{"android":"levelo://app?vid=6ec9041b-8bc3-41d8-91a1-fd6e81a958a5","ios":"levelo://app?vid=6ec9041b-8bc3-41d8-91a1-fd6e81a958a5"},"vehicle_type_id":"4","last_reported":1728825288,"current_range_meters":14400,"station_id":"ce4bhr12rcd13ifvqhpg","pricing_plan_id":"cebpf4jnsgd1na2vs0mg"},{"bike_id":"40f4a0a9-e4f3-46a2-a2da-83ab9f6b18da","system_id":"levelo_inurba_marseille","lat":43.30356,"lon":5.41888,"is_reserved":false,"is_disabled":false,"rental_uris":{"android":"levelo://app?vid=40f4a0a9-e4f3-46a2-a2da-83ab9f6b18da","ios":"levelo://app?vid=40f4a0a9-e4f3-46a2-a2da-83ab9f6b18da"},"vehicle_type_id":"4","last_reported":1728825288,"current_range_meters":27200,"station_id":"ce4bhop2rcd13ifvqh7g","pricing_plan_id":"cebpf4jnsgd1na2vs0mg"},{"bike_id":"41520f05-bd70-454b-a932-c57bf7b2f4ec","system_id":"levelo_inurba_marseille","lat":43.26679,"lon":5.38269,"is_reserved":false,"is_disabled":false,"rental_uris":{"android":"levelo://app?vid=41520f05-bd70-454b-a932-c57bf7b2f4ec","ios":"levelo://app?vid=41520f05-bd70-454b-a932-c57bf7b2f4ec"},"vehicle_type_id":"4","last_reported":1728825288,"current_range_meters":6800,"station_id":"ce4bhg92rcd13ifvqf90","pricing_plan_id":"cebpf4jnsgd1na2vs0mg"},{"bike_id":"aea12651-8f8a-417f-829e-03e14e3fb14a","system_id":"levelo_inurba_marseille","lat":43.29715,"lon":5.37686,"is_reserved":false,"is_disabled":false,"rental_uris":{"android":"levelo://app?vid=aea12651-8f8a-417f-829e-03e14e3fb14a","ios":"levelo://app?vid=aea12651-8f8a-417f-829e-03e14e3fb14a"},"vehicle_type_id":"4","last_reported":1728825288,"current_range_meters":39200,"station_id":"ce4bgkh2rcd13ifvqbl0","pricing_plan_id":"cebpf4jnsgd1na2vs0mg"},{"bike_id":"2f19d9b2-60a0-45bf-bf48-04c9ce231242","system_id":"levelo_inurba_marseille","lat":43.25583,"lon":5.38239,"is_reserved":false,"is_disabled":false,"rental_uris":{"android":"levelo://app?vid=2f19d9b2-60a0-45bf-bf48-04c9ce231242","ios":"levelo://app?vid=2f19d9b2-60a0-45bf-bf48-04c9ce231242"},"vehicle_type_id":"4","last_reported":1728825288,"current_range_meters":8000,"station_id":"ce4bhih2rcd13ifvqfs0","pricing_plan_id":"cebpf4jnsgd1na2vs0mg"},{"bike_id":"6f95d3c9-52a2-4bd4-b353-bbc959f92c00","system_id":"levelo_inurba_marseille","lat":43.31708,"lon":5.43708,"is_reserved":false,"is_disabled":false,"rental_uris":{"android":"levelo://app?vid=6f95d3c9-52a2-4bd4-b353-bbc959f92c00","ios":"levelo://app?vid=6f95d3c9-52a2-4bd4-b353-bbc959f92c00"},"vehicle_type_id":"4","last_reported":1728825288,"current_range_meters":6000,"station_id":"ce4bhp92rcd13ifvqhcg","pricing_plan_id":"cebpf4jnsgd1na2vs0mg"},{"bike_id":"dd12a81b-df1d-4332-b478-6d95ccb259ca","system_id":"levelo_inurba_marseille","lat":43.23068,"lon":5.35489,"is_reserved":false,"is_disabled":false,"rental_uris":{"android":"levelo://app?vid=dd12a81b-df1d-4332-b478-6d95ccb259ca","ios":"levelo://app?vid=dd12a81b-df1d-4332-b478-6d95ccb259ca"},"vehicle_type_id":"4","last_reported":1728825288,"current_range_meters":35600,"station_id":"cpo3342slgdg3j2ifvpg","pricing_plan_id":"cebpf4jnsgd1na2vs0mg"},{"bike_id":"f61c8e36-93bf-45e4-8945-7f8f238cd12d","system_id":"levelo_inurba_marseille","lat":43.30121,"lon":5.39851,"is_reserved":false,"is_disabled":false,"rental_uris":{"android":"levelo://app?vid=f61c8e36-93bf-45e4-8945-7f8f238cd12d","ios":"levelo://app?vid=f61c8e36-93bf-45e4-8945-7f8f238cd12d"},"vehicle_type_id":"4","last_reported":1728825288,"current_range_meters":37600,"station_id":"ce4bh0h2rcd13ifvqd40","pricing_plan_id":"cebpf4jnsgd1na2vs0mg"},{"bike_id":"904466af-25d0-423c-9edb-fb7fc8114abe","system_id":"levelo_inurba_marseille","lat":43.23199,"lon":5.35554,"is_reserved":false,"is_disabled":false,"rental_uris":{"android":"levelo://app?vid=904466af-25d0-423c-9edb-fb7fc8114abe","ios":"levelo://app?vid=904466af-25d0-423c-9edb-fb7fc8114abe"},"vehicle_type_id":"4","last_reported":1728825288,"current_range_meters":10800,"station_id":"ce4bhu92rcd13ifvqi70","pricing_plan_id":"cebpf4jnsgd1na2vs0mg"},{"bike_id":"7b44e1ad-e3d4-449d-a4f2-c264fde8bb79","system_id":"levelo_inurba_marseille","lat":43.24813,"lon":5.37458,"is_reserved":false,"is_disabled":false,"rental_uris":{"android":"levelo://app?vid=7b44e1ad-e3d4-449d-a4f2-c264fde8bb79","ios":"levelo://app?vid=7b44e1ad-e3d4-449d-a4f2-c264fde8bb79"},"vehicle_type_id":"4","last_reported":1728825288,"current_range_meters":22000,"station_id":"ce4bhgh2rcd13ifvqfb0","pricing_plan_id":"cebpf4jnsgd1na2vs0mg"},{"bike_id":"1dd1695f-b19f-4de0-981e-c3cf53797626","system_id":"levelo_inurba_marseille","lat":43.29197,"lon":5.35811,"is_reserved":false,"is_disabled":false,"rental_uris":{"android":"levelo://app?vid=1dd1695f-b19f-4de0-981e-c3cf53797626","ios":"levelo://app?vid=1dd1695f-b19f-4de0-981e-c3cf53797626"},"vehicle_type_id":"4","last_reported":1728825288,"current_range_meters":4000,"station_id":"ce4bhb12rcd13ifvqel0","pricing_plan_id":"cebpf4jnsgd1na2vs0mg"},{"bike_id":"c3196472-dfd3-492a-b752-fa951f0b426d","system_id":"levelo_inurba_marseille","lat":43.24547,"lon":5.39529,"is_reserved":false,"is_disabled":false,"rental_uris":{"android":"levelo://app?vid=c3196472-dfd3-492a-b752-fa951f0b426d","ios":"levelo://app?vid=c3196472-dfd3-492a-b752-fa951f0b426d"},"vehicle_type_id":"4","last_reported":1728825288,"current_range_meters":17600,"station_id":"ce4bhlp2rcd13ifvqgjg","pricing_plan_id":"cebpf4jnsgd1na2vs0mg"},{"bike_id":"6edb36ce-7c3d-4b17-9793-1b9c6638f364","system_id":"levelo_inurba_marseille","lat":43.297119,"lon":5.365949,"is_reserved":false,"is_disabled":false,"rental_uris":{"android":"levelo://app?vid=6edb36ce-7c3d-4b17-9793-1b9c6638f364","ios":"levelo://app?vid=6edb36ce-7c3d-4b17-9793-1b9c6638f364"},"vehicle_type_id":"4","last_reported":1728825288,"current_range_meters":19200,"station_id":"ce4bgn12rcd13ifvqbt0","pricing_plan_id":"cebpf4jnsgd1na2vs0mg"},{"bike_id":"600a6ea5-5c70-4f25-9b57-c621b8210681","system_id":"levelo_inurba_marseille","lat":43.32657,"lon":5.40982,"is_reserved":false,"is_disabled":false,"rental_uris":{"android":"levelo://app?vid=600a6ea5-5c70-4f25-9b57-c621b8210681","ios":"levelo://app?vid=600a6ea5-5c70-4f25-9b57-c621b8210681"},"vehicle_type_id":"4","last_reported":1728825288,"current_range_meters":28000,"station_id":"ce4bhpp2rcd13ifvqhgg","pricing_plan_id":"cebpf4jnsgd1na2vs0mg"},{"bike_id":"8775238e-5d41-4474-9a9d-40eb1c4ce9df","system_id":"levelo_inurba_marseille","lat":43.28616,"lon":5.35103,"is_reserved":false,"is_disabled":false,"rental_uris":{"android":"levelo://app?vid=8775238e-5d41-4474-9a9d-40eb1c4ce9df","ios":"levelo://app?vid=8775238e-5d41-4474-9a9d-40eb1c4ce9df"},"vehicle_type_id":"4","last_reported":1728825288,"current_range_meters":10000,"station_id":"ce4bhch2rcd13ifvqeug","pricing_plan_id":"cebpf4jnsgd1na2vs0mg"},{"bike_id":"6624b9d8-1734-4c69-b27b-12ce48cf311f","system_id":"levelo_inurba_marseille","lat":43.23194,"lon":5.35556,"is_reserved":false,"is_disabled":false,"rental_uris":{"android":"levelo://app?vid=6624b9d8-1734-4c69-b27b-12ce48cf311f","ios":"levelo://app?vid=6624b9d8-1734-4c69-b27b-12ce48cf311f"},"vehicle_type_id":"4","last_reported":1728825288,"current_range_meters":12800,"station_id":"ce4bhu92rcd13ifvqi70","pricing_plan_id":"cebpf4jnsgd1na2vs0mg"},{"bike_id":"3b4137ad-e7e2-4e79-8b78-5e9bb6a8cd33","system_id":"levelo_inurba_marseille","lat":43.303207,"lon":5.368824,"is_reserved":false,"is_disabled":false,"rental_uris":{"android":"levelo://app?vid=3b4137ad-e7e2-4e79-8b78-5e9bb6a8cd33","ios":"levelo://app?vid=3b4137ad-e7e2-4e79-8b78-5e9bb6a8cd33"},"vehicle_type_id":"4","last_reported":1728825288,"current_range_meters":9200,"station_id":"ce4bgqh2rcd13ifvqc5g","pricing_plan_id":"cebpf4jnsgd1na2vs0mg"},{"bike_id":"a2fc6420-e6e2-4d43-8ba7-53dda70baa83","system_id":"levelo_inurba_marseille","lat":43.22927,"lon":5.35374,"is_reserved":false,"is_disabled":false,"rental_uris":{"android":"levelo://app?vid=a2fc6420-e6e2-4d43-8ba7-53dda70baa83","ios":"levelo://app?vid=a2fc6420-e6e2-4d43-8ba7-53dda70baa83"},"vehicle_type_id":"4","last_reported":1728825288,"current_range_meters":25200,"station_id":"cpo3532slgdg3j2ikp40","pricing_plan_id":"cebpf4jnsgd1na2vs0mg"},{"bike_id":"ec459838-8836-4c06-b999-7605dedea091","system_id":"levelo_inurba_marseille","lat":43.23197,"lon":5.35547,"is_reserved":false,"is_disabled":false,"rental_uris":{"android":"levelo://app?vid=ec459838-8836-4c06-b999-7605dedea091","ios":"levelo://app?vid=ec459838-8836-4c06-b999-7605dedea091"},"vehicle_type_id":"4","last_reported":1728825288,"current_range_meters":25200,"station_id":"ce4bhu92rcd13ifvqi70","pricing_plan_id":"cebpf4jnsgd1na2vs0mg"},{"bike_id":"fe4241cf-7145-46e7-b4f2-8a6d046d65d1","system_id":"levelo_inurba_marseille","lat":43.27639,"lon":5.3885,"is_reserved":false,"is_disabled":false,"rental_uris":{"android":"levelo://app?vid=fe4241cf-7145-46e7-b4f2-8a6d046d65d1","ios":"levelo://app?vid=fe4241cf-7145-46e7-b4f2-8a6d046d65d1"},"vehicle_type_id":"4","last_reported":1728825288,"current_range_meters":2800,"station_id":"ce4bhi12rcd13ifvqfo0","pricing_plan_id":"cebpf4jnsgd1na2vs0mg"},{"bike_id":"93ab220b-5fd2-4771-8768-d1d30cc73d39","system_id":"levelo_inurba_marseille","lat":43.29213,"lon":5.36047,"is_reserved":false,"is_disabled":false,"rental_uris":{"android":"levelo://app?vid=93ab220b-5fd2-4771-8768-d1d30cc73d39","ios":"levelo://app?vid=93ab220b-5fd2-4771-8768-d1d30cc73d39"},"vehicle_type_id":"4","last_reported":1728825288,"current_range_meters":38800,"station_id":"ce4bhbh2rcd13ifvqeqg","pricing_plan_id":"cebpf4jnsgd1na2vs0mg"},{"bike_id":"a0690487-65a6-4c60-bdae-b04f7554cb23","system_id":"levelo_inurba_marseille","lat":43.29555,"lon":5.42292,"is_reserved":false,"is_disabled":false,"rental_uris":{"android":"levelo://app?vid=a0690487-65a6-4c60-bdae-b04f7554cb23","ios":"levelo://app?vid=a0690487-65a6-4c60-bdae-b04f7554cb23"},"vehicle_type_id":"4","last_reported":1728825288,"current_range_meters":24000,"station_id":"ce4bhph2rcd13ifvqhdg","pricing_plan_id":"cebpf4jnsgd1na2vs0mg"},{"bike_id":"8c4d3548-4a09-44d4-a812-b4d0d22b81c4","system_id":"levelo_inurba_marseille","lat":43.29007,"lon":5.35605,"is_reserved":false,"is_disabled":false,"rental_uris":{"android":"levelo://app?vid=8c4d3548-4a09-44d4-a812-b4d0d22b81c4","ios":"levelo://app?vid=8c4d3548-4a09-44d4-a812-b4d0d22b81c4"},"vehicle_type_id":"4","last_reported":1728825288,"current_range_meters":25200,"station_id":"ce4bhb92rcd13ifvqen0","pricing_plan_id":"cebpf4jnsgd1na2vs0mg"},{"bike_id":"ebb32091-920d-4c48-8e45-919b5c958bf7","system_id":"levelo_inurba_marseille","lat":43.290167,"lon":5.381261,"is_reserved":false,"is_disabled":false,"rental_uris":{"android":"levelo://app?vid=ebb32091-920d-4c48-8e45-919b5c958bf7","ios":"levelo://app?vid=ebb32091-920d-4c48-8e45-919b5c958bf7"},"vehicle_type_id":"4","last_reported":1728825288,"current_range_meters":32800,"station_id":"ce4bh4p2rcd13ifvqe1g","pricing_plan_id":"cebpf4jnsgd1na2vs0mg"},{"bike_id":"d9e6f1a8-cc3d-4b01-ac6d-7ee33908e252","system_id":"levelo_inurba_marseille","lat":43.26195,"lon":5.37449,"is_reserved":false,"is_disabled":false,"rental_uris":{"android":"levelo://app?vid=d9e6f1a8-cc3d-4b01-ac6d-7ee33908e252","ios":"levelo://app?vid=d9e6f1a8-cc3d-4b01-ac6d-7ee33908e252"},"vehicle_type_id":"4","last_reported":1728825288,"current_range_meters":23200,"station_id":"ce4bhgp2rcd13ifvqfc0","pricing_plan_id":"cebpf4jnsgd1na2vs0mg"},{"bike_id":"3c25dded-f8d5-4193-a336-9fad641c4aac","system_id":"levelo_inurba_marseille","lat":43.33752,"lon":5.3748,"is_reserved":false,"is_disabled":false,"rental_uris":{"android":"levelo://app?vid=3c25dded-f8d5-4193-a336-9fad641c4aac","ios":"levelo://app?vid=3c25dded-f8d5-4193-a336-9fad641c4aac"},"vehicle_type_id":"4","last_reported":1728825288,"current_range_meters":30000,"station_id":"","pricing_plan_id":"cebpf4jnsgd1na2vs0mg"},{"bike_id":"8af4a7ac-b41b-4c7f-b58a-51ddb0757adf","system_id":"levelo_inurba_marseille","lat":43.22931,"lon":5.35375,"is_reserved":false,"is_disabled":false,"rental_uris":{"android":"levelo://app?vid=8af4a7ac-b41b-4c7f-b58a-51ddb0757adf","ios":"levelo://app?vid=8af4a7ac-b41b-4c7f-b58a-51ddb0757adf"},"vehicle_type_id":"4","last_reported":1728825288,"current_range_meters":7200,"station_id":"cpo3532slgdg3j2ikp40","pricing_plan_id":"cebpf4jnsgd1na2vs0mg"},{"bike_id":"d376e732-619b-4958-b822-328a86218e89","system_id":"levelo_inurba_marseille","lat":43.2439,"lon":5.37061,"is_reserved":false,"is_disabled":false,"rental_uris":{"android":"levelo://app?vid=d376e732-619b-4958-b822-328a86218e89","ios":"levelo://app?vid=d376e732-619b-4958-b822-328a86218e89"},"vehicle_type_id":"4","last_reported":1728825288,"current_range_meters":17600,"station_id":"ce4bhhh2rcd13ifvqfk0","pricing_plan_id":"cebpf4jnsgd1na2vs0mg"},{"bike_id":"5e6975f4-5ffa-46cd-a443-b910c046cc70","system_id":"levelo_inurba_marseille","lat":43.292,"lon":5.35811,"is_reserved":false,"is_disabled":false,"rental_uris":{"android":"levelo://app?vid=5e6975f4-5ffa-46cd-a443-b910c046cc70","ios":"levelo://app?vid=5e6975f4-5ffa-46cd-a443-b910c046cc70"},"vehicle_type_id":"4","last_reported":1728825288,"current_range_meters":21600,"station_id":"ce4bhb12rcd13ifvqel0","pricing_plan_id":"cebpf4jnsgd1na2vs0mg"},{"bike_id":"7975faaf-f260-41c7-87cd-147b9a3b3ebf","system_id":"levelo_inurba_marseille","lat":43.23057,"lon":5.35494,"is_reserved":false,"is_disabled":false,"rental_uris":{"android":"levelo://app?vid=7975faaf-f260-41c7-87cd-147b9a3b3ebf","ios":"levelo://app?vid=7975faaf-f260-41c7-87cd-147b9a3b3ebf"},"vehicle_type_id":"4","last_reported":1728825288,"current_range_meters":29600,"station_id":"cpo3342slgdg3j2ifvpg","pricing_plan_id":"cebpf4jnsgd1na2vs0mg"},{"bike_id":"cc450442-09b5-48c3-8d85-f842dcc424ec","system_id":"levelo_inurba_marseille","lat":43.28421,"lon":5.34986,"is_reserved":false,"is_disabled":false,"rental_uris":{"android":"levelo://app?vid=cc450442-09b5-48c3-8d85-f842dcc424ec","ios":"levelo://app?vid=cc450442-09b5-48c3-8d85-f842dcc424ec"},"vehicle_type_id":"4","last_reported":1728825288,"current_range_meters":19600,"station_id":"ce4bhbh2rcd13ifvqepg","pricing_plan_id":"cebpf4jnsgd1na2vs0mg"},{"bike_id":"208e043b-f932-4a94-a56c-83231da92c43","system_id":"levelo_inurba_marseille","lat":43.23196,"lon":5.35557,"is_reserved":false,"is_disabled":false,"rental_uris":{"android":"levelo://app?vid=208e043b-f932-4a94-a56c-83231da92c43","ios":"levelo://app?vid=208e043b-f932-4a94-a56c-83231da92c43"},"vehicle_type_id":"4","last_reported":1728825288,"current_range_meters":17200,"station_id":"ce4bhu92rcd13ifvqi70","pricing_plan_id":"cebpf4jnsgd1na2vs0mg"},{"bike_id":"3bd372b6-285b-45db-8544-5232a786669a","system_id":"levelo_inurba_marseille","lat":43.24674,"lon":5.38156,"is_reserved":false,"is_disabled":false,"rental_uris":{"android":"levelo://app?vid=3bd372b6-285b-45db-8544-5232a786669a","ios":"levelo://app?vid=3bd372b6-285b-45db-8544-5232a786669a"},"vehicle_type_id":"4","last_reported":1728825288,"current_range_meters":10000,"station_id":"ce4bhih2rcd13ifvqfr0","pricing_plan_id":"cebpf4jnsgd1na2vs0mg"},{"bike_id":"deb62c9e-acb4-4b40-8262-f4faae509174","system_id":"levelo_inurba_marseille","lat":43.24386,"lon":5.37062,"is_reserved":false,"is_disabled":false,"rental_uris":{"android":"levelo://app?vid=deb62c9e-acb4-4b40-8262-f4faae509174","ios":"levelo://app?vid=deb62c9e-acb4-4b40-8262-f4faae509174"},"vehicle_type_id":"4","last_reported":1728825288,"current_range_meters":28000,"station_id":"ce4bhhh2rcd13ifvqfk0","pricing_plan_id":"cebpf4jnsgd1na2vs0mg"},{"bike_id":"4f9862a8-920b-4d93-871a-2e24d841d630","system_id":"levelo_inurba_marseille","lat":43.28268,"lon":5.35067,"is_reserved":false,"is_disabled":false,"rental_uris":{"android":"levelo://app?vid=4f9862a8-920b-4d93-871a-2e24d841d630","ios":"levelo://app?vid=4f9862a8-920b-4d93-871a-2e24d841d630"},"vehicle_type_id":"4","last_reported":1728825288,"current_range_meters":38800,"station_id":"ce4bhbp2rcd13ifvqerg","pricing_plan_id":"cebpf4jnsgd1na2vs0mg"},