{"last_updated":1777148825,"ttl":60,"version":"2.2","data":{"bikes":[{"bike_id":"c35ef435-7351-4292-8bd0-8be9078d3a7d","system_id":"levelo_inurba_marseille","lat":43.30969,"lon":5.39051,"is_reserved":false,"is_disabled":true,"rental_uris":{"android":"levelo://app?vid=c35ef435-7351-4292-8bd0-8be9078d3a7d","ios":"levelo://app?vid=c35ef435-7351-4292-8bd0-8be9078d3a7d"},"vehicle_type_id":"4","last_reported":1777148826,"current_range_meters":2800,"station_id":"ce4bgup2rcd13ifvqco0","pricing_plan_id":"cebpf4jnsgd1na2vs0mg"},{"bike_id":"168b5534-ff13-4dc9-af35-5eae8b61ed60","system_id":"levelo_inurba_marseille","lat":43.22558,"lon":5.41627,"is_reserved":false,"is_disabled":false,"rental_uris":{"android":"levelo://app?vid=168b5534-ff13-4dc9-af35-5eae8b61ed60","ios":"levelo://app?vid=168b5534-ff13-4dc9-af35-5eae8b61ed60"},"vehicle_type_id":"4","last_reported":1777148826,"current_range_meters":2800,"station_id":"st_d2o4gvlbi1j2169b742g","pricing_plan_id":"cebpf4jnsgd1na2vs0mg"},{"bike_id":"b38d89b8-c3c9-4fae-b6f2-09980d89f2e9","system_id":"levelo_inurba_marseille","lat":43.28494,"lon":5.48384,"is_reserved":false,"is_disabled":false,"rental_uris":{"android":"levelo://app?vid=b38d89b8-c3c9-4fae-b6f2-09980d89f2e9","ios":"levelo://app?vid=b38d89b8-c3c9-4fae-b6f2-09980d89f2e9"},"vehicle_type_id":"4","last_reported":1777148826,"current_range_meters":2800,"station_id":"","pricing_plan_id":"cebpf4jnsgd1na2vs0mg"},{"bike_id":"fd8a414b-621a-4c76-a0a3-de292eb8df78","system_id":"levelo_inurba_marseille","lat":43.29074,"lon":5.37159,"is_reserved":false,"is_disabled":false,"rental_uris":{"android":"levelo://app?vid=fd8a414b-621a-4c76-a0a3-de292eb8df78","ios":"levelo://app?vid=fd8a414b-621a-4c76-a0a3-de292eb8df78"},"vehicle_type_id":"4","last_reported":1777148826,"current_range_meters":2800,"station_id":"ce4bh5p2rcd13ifvqe4g","pricing_plan_id":"cebpf4jnsgd1na2vs0mg"},{"bike_id":"616ae45d-d641-4a69-8d81-2261107b5285","system_id":"levelo_inurba_marseille","lat":43.23959,"lon":5.36624,"is_reserved":false,"is_disabled":false,"rental_uris":{"android":"levelo://app?vid=616ae45d-d641-4a69-8d81-2261107b5285","ios":"levelo://app?vid=616ae45d-d641-4a69-8d81-2261107b5285"},"vehicle_type_id":"4","last_reported":1777148826,"current_range_meters":2800,"station_id":"ce4bhi12rcd13ifvqfp0","pricing_plan_id":"cebpf4jnsgd1na2vs0mg"},{"bike_id":"676f4845-6b49-4773-b82f-ef4c6a0d7c2d","system_id":"levelo_inurba_marseille","lat":43.26096,"lon":5.37521,"is_reserved":false,"is_disabled":false,"rental_uris":{"android":"levelo://app?vid=676f4845-6b49-4773-b82f-ef4c6a0d7c2d","ios":"levelo://app?vid=676f4845-6b49-4773-b82f-ef4c6a0d7c2d"},"vehicle_type_id":"4","last_reported":1777148826,"current_range_meters":2800,"station_id":"","pricing_plan_id":"cebpf4jnsgd1na2vs0mg"},{"bike_id":"b88c6add-84fa-43a9-927b-2490e6b5da2a","system_id":"levelo_inurba_marseille","lat":43.2953,"lon":5.39403,"is_reserved":false,"is_disabled":false,"rental_uris":{"android":"levelo://app?vid=b88c6add-84fa-43a9-927b-2490e6b5da2a","ios":"levelo://app?vid=b88c6add-84fa-43a9-927b-2490e6b5da2a"},"vehicle_type_id":"4","last_reported":1777148826,"current_range_meters":2800,"station_id":"ce4bh292rcd13ifvqdf0","pricing_plan_id":"cebpf4jnsgd1na2vs0mg"},{"bike_id":"5f8cdfbc-37c6-486e-8a09-9620e14e43ce","system_id":"levelo_inurba_marseille","lat":43.23904,"lon":5.37461,"is_reserved":false,"is_disabled":true,"rental_uris":{"android":"levelo://app?vid=5f8cdfbc-37c6-486e-8a09-9620e14e43ce","ios":"levelo://app?vid=5f8cdfbc-37c6-486e-8a09-9620e14e43ce"},"vehicle_type_id":"4","last_reported":1777148826,"current_range_meters":2800,"station_id":"st_d6sm7csbq4hs73f8fpjg","pricing_plan_id":"cebpf4jnsgd1na2vs0mg"},{"bike_id":"35f763f0-2040-4017-9c4b-1f9f4cbf81cc","system_id":"levelo_inurba_marseille","lat":43.297052,"lon":5.366106,"is_reserved":false,"is_disabled":true,"rental_uris":{"android":"levelo://app?vid=35f763f0-2040-4017-9c4b-1f9f4cbf81cc","ios":"levelo://app?vid=35f763f0-2040-4017-9c4b-1f9f4cbf81cc"},"vehicle_type_id":"4","last_reported":1777148826,"current_range_meters":3200,"station_id":"ce4bgn12rcd13ifvqbt0","pricing_plan_id":"cebpf4jnsgd1na2vs0mg"},{"bike_id":"05fc231b-c398-4e00-a1ad-8667138b69ec","system_id":"levelo_inurba_marseille","lat":43.29494,"lon":5.43319,"is_reserved":false,"is_disabled":false,"rental_uris":{"android":"levelo://app?vid=05fc231b-c398-4e00-a1ad-8667138b69ec","ios":"levelo://app?vid=05fc231b-c398-4e00-a1ad-8667138b69ec"},"vehicle_type_id":"4","last_reported":1777148826,"current_range_meters":3200,"station_id":"st_d3j5ugp08ojc73fj9d10","pricing_plan_id":"cebpf4jnsgd1na2vs0mg"},{"bike_id":"2819c843-5932-40f6-8bae-f669751e2d4f","system_id":"levelo_inurba_marseille","lat":43.24812,"lon":5.37457,"is_reserved":false,"is_disabled":false,"rental_uris":{"android":"levelo://app?vid=2819c843-5932-40f6-8bae-f669751e2d4f","ios":"levelo://app?vid=2819c843-5932-40f6-8bae-f669751e2d4f"},"vehicle_type_id":"4","last_reported":1777148826,"current_range_meters":3200,"station_id":"ce4bhgh2rcd13ifvqfb0","pricing_plan_id":"cebpf4jnsgd1na2vs0mg"},{"bike_id":"7ab9e9d2-55c6-492f-8e60-126c7a6965ab","system_id":"levelo_inurba_marseille","lat":43.27959,"lon":5.37031,"is_reserved":false,"is_disabled":false,"rental_uris":{"android":"levelo://app?vid=7ab9e9d2-55c6-492f-8e60-126c7a6965ab","ios":"levelo://app?vid=7ab9e9d2-55c6-492f-8e60-126c7a6965ab"},"vehicle_type_id":"4","last_reported":1777148826,"current_range_meters":3200,"station_id":"","pricing_plan_id":"cebpf4jnsgd1na2vs0mg"},{"bike_id":"30ae163a-44ad-49ad-bf51-c1f54df5559c","system_id":"levelo_inurba_marseille","lat":43.28866,"lon":5.42505,"is_reserved":false,"is_disabled":false,"rental_uris":{"android":"levelo://app?vid=30ae163a-44ad-49ad-bf51-c1f54df5559c","ios":"levelo://app?vid=30ae163a-44ad-49ad-bf51-c1f54df5559c"},"vehicle_type_id":"4","last_reported":1777148826,"current_range_meters":3200,"station_id":"st_d3b462108ojc7389ooeg","pricing_plan_id":"cebpf4jnsgd1na2vs0mg"},{"bike_id":"38ee7da5-65e7-4997-97cb-9531b47e81d6","system_id":"levelo_inurba_marseille","lat":43.26543,"lon":5.39039,"is_reserved":false,"is_disabled":false,"rental_uris":{"android":"levelo://app?vid=38ee7da5-65e7-4997-97cb-9531b47e81d6","ios":"levelo://app?vid=38ee7da5-65e7-4997-97cb-9531b47e81d6"},"vehicle_type_id":"4","last_reported":1777148826,"current_range_meters":3200,"station_id":"ce4bhe12rcd13ifvqf30","pricing_plan_id":"cebpf4jnsgd1na2vs0mg"},{"bike_id":"5df62d6d-7c19-4e63-a2c0-9e41f814a51a","system_id":"levelo_inurba_marseille","lat":43.28665,"lon":5.36357,"is_reserved":false,"is_disabled":false,"rental_uris":{"android":"levelo://app?vid=5df62d6d-7c19-4e63-a2c0-9e41f814a51a","ios":"levelo://app?vid=5df62d6d-7c19-4e63-a2c0-9e41f814a51a"},"vehicle_type_id":"4","last_reported":1777148826,"current_range_meters":3200,"station_id":"ce4bhah2rcd13ifvqej0","pricing_plan_id":"cebpf4jnsgd1na2vs0mg"},{"bike_id":"01cc38eb-420b-4f54-b5bf-e23efb2a175c","system_id":"levelo_inurba_marseille","lat":43.29499,"lon":5.43381,"is_reserved":false,"is_disabled":false,"rental_uris":{"android":"levelo://app?vid=01cc38eb-420b-4f54-b5bf-e23efb2a175c","ios":"levelo://app?vid=01cc38eb-420b-4f54-b5bf-e23efb2a175c"},"vehicle_type_id":"4","last_reported":1777148826,"current_range_meters":3200,"station_id":"","pricing_plan_id":"cebpf4jnsgd1na2vs0mg"},{"bike_id":"4af5f932-71ad-4954-ac3b-fecb2a352994","system_id":"levelo_inurba_marseille","lat":43.32374,"lon":5.36712,"is_reserved":false,"is_disabled":false,"rental_uris":{"android":"levelo://app?vid=4af5f932-71ad-4954-ac3b-fecb2a352994","ios":"levelo://app?vid=4af5f932-71ad-4954-ac3b-fecb2a352994"},"vehicle_type_id":"4","last_reported":1777148826,"current_range_meters":3600,"station_id":"","pricing_plan_id":"cebpf4jnsgd1na2vs0mg"},{"bike_id":"2dc12f69-7af1-4c96-a98f-ec8941f18184","system_id":"levelo_inurba_marseille","lat":43.24817,"lon":5.37445,"is_reserved":false,"is_disabled":false,"rental_uris":{"android":"levelo://app?vid=2dc12f69-7af1-4c96-a98f-ec8941f18184","ios":"levelo://app?vid=2dc12f69-7af1-4c96-a98f-ec8941f18184"},"vehicle_type_id":"4","last_reported":1777148826,"current_range_meters":3600,"station_id":"ce4bhgh2rcd13ifvqfb0","pricing_plan_id":"cebpf4jnsgd1na2vs0mg"},{"bike_id":"1370c3f0-6074-43de-a93b-f7f87c829b3b","system_id":"levelo_inurba_marseille","lat":43.2912,"lon":5.39985,"is_reserved":false,"is_disabled":false,"rental_uris":{"android":"levelo://app?vid=1370c3f0-6074-43de-a93b-f7f87c829b3b","ios":"levelo://app?vid=1370c3f0-6074-43de-a93b-f7f87c829b3b"},"vehicle_type_id":"4","last_reported":1777148826,"current_range_meters":3600,"station_id":"","pricing_plan_id":"cebpf4jnsgd1na2vs0mg"},{"bike_id":"0e17a7c5-83b0-410b-aede-cf7863dd9254","system_id":"levelo_inurba_marseille","lat":43.25564,"lon":5.38246,"is_reserved":false,"is_disabled":false,"rental_uris":{"android":"levelo://app?vid=0e17a7c5-83b0-410b-aede-cf7863dd9254","ios":"levelo://app?vid=0e17a7c5-83b0-410b-aede-cf7863dd9254"},"vehicle_type_id":"4","last_reported":1777148826,"current_range_meters":4000,"station_id":"ce4bhih2rcd13ifvqfs0","pricing_plan_id":"cebpf4jnsgd1na2vs0mg"},{"bike_id":"38cefda9-7cce-4e87-b758-bb391bf5fcee","system_id":"levelo_inurba_marseille","lat":43.2482,"lon":5.37456,"is_reserved":false,"is_disabled":false,"rental_uris":{"android":"levelo://app?vid=38cefda9-7cce-4e87-b758-bb391bf5fcee","ios":"levelo://app?vid=38cefda9-7cce-4e87-b758-bb391bf5fcee"},"vehicle_type_id":"4","last_reported":1777148826,"current_range_meters":4000,"station_id":"ce4bhgh2rcd13ifvqfb0","pricing_plan_id":"cebpf4jnsgd1na2vs0mg"},{"bike_id":"0fb20b22-105a-49c6-b3c4-7ef833992223","system_id":"levelo_inurba_marseille","lat":43.31694,"lon":5.40466,"is_reserved":false,"is_disabled":false,"rental_uris":{"android":"levelo://app?vid=0fb20b22-105a-49c6-b3c4-7ef833992223","ios":"levelo://app?vid=0fb20b22-105a-49c6-b3c4-7ef833992223"},"vehicle_type_id":"4","last_reported":1777148826,"current_range_meters":4000,"station_id":"ce4bh012rcd13ifvqd00","pricing_plan_id":"cebpf4jnsgd1na2vs0mg"},{"bike_id":"09dca68d-a96e-4c7c-8c93-084a9274aaf6","system_id":"levelo_inurba_marseille","lat":43.22526,"lon":5.34827,"is_reserved":false,"is_disabled":false,"rental_uris":{"android":"levelo://app?vid=09dca68d-a96e-4c7c-8c93-084a9274aaf6","ios":"levelo://app?vid=09dca68d-a96e-4c7c-8c93-084a9274aaf6"},"vehicle_type_id":"4","last_reported":1777148826,"current_range_meters":4000,"station_id":"st_cvj5dfep6f1abm77gieg","pricing_plan_id":"cebpf4jnsgd1na2vs0mg"},{"bike_id":"4d5b4915-5fc0-4782-a3a4-e445cc2cf470","system_id":"levelo_inurba_marseille","lat":43.29871,"lon":5.42101,"is_reserved":false,"is_disabled":false,"rental_uris":{"android":"levelo://app?vid=4d5b4915-5fc0-4782-a3a4-e445cc2cf470","ios":"levelo://app?vid=4d5b4915-5fc0-4782-a3a4-e445cc2cf470"},"vehicle_type_id":"4","last_reported":1777148826,"current_range_meters":4000,"station_id":"st_d6tc004otcvc738tfe70","pricing_plan_id":"cebpf4jnsgd1na2vs0mg"},{"bike_id":"261b4d20-3fce-4a9a-b1df-f7d9447249df","system_id":"levelo_inurba_marseille","lat":43.28486,"lon":5.48393,"is_reserved":false,"is_disabled":false,"rental_uris":{"android":"levelo://app?vid=261b4d20-3fce-4a9a-b1df-f7d9447249df","ios":"levelo://app?vid=261b4d20-3fce-4a9a-b1df-f7d9447249df"},"vehicle_type_id":"4","last_reported":1777148826,"current_range_meters":4000,"station_id":"st_d3svhcjqgbts73a3dn0g","pricing_plan_id":"cebpf4jnsgd1na2vs0mg"},{"bike_id":"2f646429-b607-4db8-9a41-60e90cf99397","system_id":"levelo_inurba_marseille","lat":43.28596,"lon":5.38327,"is_reserved":false,"is_disabled":false,"rental_uris":{"android":"levelo://app?vid=2f646429-b607-4db8-9a41-60e90cf99397","ios":"levelo://app?vid=2f646429-b607-4db8-9a41-60e90cf99397"},"vehicle_type_id":"4","last_reported":1777148826,"current_range_meters":4000,"station_id":"","pricing_plan_id":"cebpf4jnsgd1na2vs0mg"},{"bike_id":"c7ac0306-6afc-4781-8692-f962ddfe1a23","system_id":"levelo_inurba_marseille","lat":43.32361,"lon":5.3673,"is_reserved":false,"is_disabled":false,"rental_uris":{"android":"levelo://app?vid=c7ac0306-6afc-4781-8692-f962ddfe1a23","ios":"levelo://app?vid=c7ac0306-6afc-4781-8692-f962ddfe1a23"},"vehicle_type_id":"4","last_reported":1777148826,"current_range_meters":4000,"station_id":"ce4bhsh2rcd13ifvqi2g","pricing_plan_id":"cebpf4jnsgd1na2vs0mg"},{"bike_id":"e0b2eaa7-8916-4723-a416-cd7c59fb6f32","system_id":"levelo_inurba_marseille","lat":43.29342,"lon":5.3744,"is_reserved":false,"is_disabled":false,"rental_uris":{"android":"levelo://app?vid=e0b2eaa7-8916-4723-a416-cd7c59fb6f32","ios":"levelo://app?vid=e0b2eaa7-8916-4723-a416-cd7c59fb6f32"},"vehicle_type_id":"4","last_reported":1777148826,"current_range_meters":4000,"station_id":"ce4bgi12rcd13ifvqb70","pricing_plan_id":"cebpf4jnsgd1na2vs0mg"},{"bike_id":"f8b71621-9ee0-4284-b9b2-be8fa047ba8a","system_id":"levelo_inurba_marseille","lat":43.30149,"lon":5.43086,"is_reserved":false,"is_disabled":false,"rental_uris":{"android":"levelo://app?vid=f8b71621-9ee0-4284-b9b2-be8fa047ba8a","ios":"levelo://app?vid=f8b71621-9ee0-4284-b9b2-be8fa047ba8a"},"vehicle_type_id":"4","last_reported":1777148826,"current_range_meters":4000,"station_id":"st_d3js3co5814s73ftftug","pricing_plan_id":"cebpf4jnsgd1na2vs0mg"},{"bike_id":"284bb20f-7bbf-450c-9c94-2dc57069e2bf","system_id":"levelo_inurba_marseille","lat":43.27082,"lon":5.42278,"is_reserved":false,"is_disabled":false,"rental_uris":{"android":"levelo://app?vid=284bb20f-7bbf-450c-9c94-2dc57069e2bf","ios":"levelo://app?vid=284bb20f-7bbf-450c-9c94-2dc57069e2bf"},"vehicle_type_id":"4","last_reported":1777148826,"current_range_meters":4000,"station_id":"ce4bhk92rcd13ifvqgb0","pricing_plan_id":"cebpf4jnsgd1na2vs0mg"},{"bike_id":"12edd984-bbbb-446c-a968-e621b8da9151","system_id":"levelo_inurba_marseille","lat":43.30093,"lon":5.3907,"is_reserved":false,"is_disabled":false,"rental_uris":{"android":"levelo://app?vid=12edd984-bbbb-446c-a968-e621b8da9151","ios":"levelo://app?vid=12edd984-bbbb-446c-a968-e621b8da9151"},"vehicle_type_id":"4","last_reported":1777148826,"current_range_meters":4000,"station_id":"ce4bh192rcd13ifvqdb0","pricing_plan_id":"cebpf4jnsgd1na2vs0mg"},{"bike_id":"e243155c-2775-42d9-9d4e-ad6e7e6fab95","system_id":"levelo_inurba_marseille","lat":43.23907,"lon":5.3746,"is_reserved":false,"is_disabled":false,"rental_uris":{"android":"levelo://app?vid=e243155c-2775-42d9-9d4e-ad6e7e6fab95","ios":"levelo://app?vid=e243155c-2775-42d9-9d4e-ad6e7e6fab95"},"vehicle_type_id":"4","last_reported":1777148826,"current_range_meters":4000,"station_id":"","pricing_plan_id":"cebpf4jnsgd1na2vs0mg"},{"bike_id":"071eb1fd-1dcf-4e3a-a611-a7bf2415e8af","system_id":"levelo_inurba_marseille","lat":43.2603,"lon":5.37542,"is_reserved":false,"is_disabled":false,"rental_uris":{"android":"levelo://app?vid=071eb1fd-1dcf-4e3a-a611-a7bf2415e8af","ios":"levelo://app?vid=071eb1fd-1dcf-4e3a-a611-a7bf2415e8af"},"vehicle_type_id":"4","last_reported":1777148826,"current_range_meters":4400,"station_id":"ce4bhgh2rcd13ifvqfa0","pricing_plan_id":"cebpf4jnsgd1na2vs0mg"},{"bike_id":"1d368fe1-0c8f-4a40-864c-b54082c58fa1","system_id":"levelo_inurba_marseille","lat":43.33565,"lon":5.37399,"is_reserved":false,"is_disabled":false,"rental_uris":{"android":"levelo://app?vid=1d368fe1-0c8f-4a40-864c-b54082c58fa1","ios":"levelo://app?vid=1d368fe1-0c8f-4a40-864c-b54082c58fa1"},"vehicle_type_id":"4","last_reported":1777148826,"current_range_meters":4400,"station_id":"","pricing_plan_id":"cebpf4jnsgd1na2vs0mg"},{"bike_id":"229e4557-384d-4a68-9d9c-a426b264692f","system_id":"levelo_inurba_marseille","lat":43.26022,"lon":5.37545,"is_reserved":false,"is_disabled":false,"rental_uris":{"android":"levelo://app?vid=229e4557-384d-4a68-9d9c-a426b264692f","ios":"levelo://app?vid=229e4557-384d-4a68-9d9c-a426b264692f"},"vehicle_type_id":"4","last_reported":1777148826,"current_range_meters":4400,"station_id":"ce4bhgh2rcd13ifvqfa0","pricing_plan_id":"cebpf4jnsgd1na2vs0mg"},{"bike_id":"a3dee876-3af2-46d4-9131-1dd0997e500a","system_id":"levelo_inurba_marseille","lat":43.24397,"lon":5.37065,"is_reserved":false,"is_disabled":true,"rental_uris":{"android":"levelo://app?vid=a3dee876-3af2-46d4-9131-1dd0997e500a","ios":"levelo://app?vid=a3dee876-3af2-46d4-9131-1dd0997e500a"},"vehicle_type_id":"4","last_reported":1777148826,"current_range_meters":4400,"station_id":"ce4bhhh2rcd13ifvqfk0","pricing_plan_id":"cebpf4jnsgd1na2vs0mg"},{"bike_id":"154ee52d-6390-4e50-a4b7-48651d4386b6","system_id":"levelo_inurba_marseille","lat":43.28165,"lon":5.42619,"is_reserved":false,"is_disabled":false,"rental_uris":{"android":"levelo://app?vid=154ee52d-6390-4e50-a4b7-48651d4386b6","ios":"levelo://app?vid=154ee52d-6390-4e50-a4b7-48651d4386b6"},"vehicle_type_id":"4","last_reported":1777148826,"current_range_meters":4400,"station_id":"ce4bhnh2rcd13ifvqgug","pricing_plan_id":"cebpf4jnsgd1na2vs0mg"},{"bike_id":"00ec9811-c491-4632-b144-7c61702dd074","system_id":"levelo_inurba_marseille","lat":43.30305,"lon":5.39212,"is_reserved":false,"is_disabled":false,"rental_uris":{"android":"levelo://app?vid=00ec9811-c491-4632-b144-7c61702dd074","ios":"levelo://app?vid=00ec9811-c491-4632-b144-7c61702dd074"},"vehicle_type_id":"4","last_reported":1777148826,"current_range_meters":4400,"station_id":"ce4bgkh2rcd13ifvqbk0","pricing_plan_id":"cebpf4jnsgd1na2vs0mg"},{"bike_id":"ec10a095-8a93-4fa7-bd3d-720c0011c795","system_id":"levelo_inurba_marseille","lat":43.29537,"lon":5.37517,"is_reserved":false,"is_disabled":false,"rental_uris":{"android":"levelo://app?vid=ec10a095-8a93-4fa7-bd3d-720c0011c795","ios":"levelo://app?vid=ec10a095-8a93-4fa7-bd3d-720c0011c795"},"vehicle_type_id":"4","last_reported":1777148826,"current_range_meters":4400,"station_id":"ce4bgkp2rcd13ifvqbmg","pricing_plan_id":"cebpf4jnsgd1na2vs0mg"},{"bike_id":"75525d3f-e50a-493e-ad5c-35eb3b83e487","system_id":"levelo_inurba_marseille","lat":43.31987,"lon":5.38163,"is_reserved":false,"is_disabled":false,"rental_uris":{"android":"levelo://app?vid=75525d3f-e50a-493e-ad5c-35eb3b83e487","ios":"levelo://app?vid=75525d3f-e50a-493e-ad5c-35eb3b83e487"},"vehicle_type_id":"4","last_reported":1777148826,"current_range_meters":4400,"station_id":"ce4bhr12rcd13ifvqhpg","pricing_plan_id":"cebpf4jnsgd1na2vs0mg"},{"bike_id":"931d703e-4043-4cf3-8b49-a4394f33276a","system_id":"levelo_inurba_marseille","lat":43.27815,"lon":5.40724,"is_reserved":false,"is_disabled":false,"rental_uris":{"android":"levelo://app?vid=931d703e-4043-4cf3-8b49-a4394f33276a","ios":"levelo://app?vid=931d703e-4043-4cf3-8b49-a4394f33276a"},"vehicle_type_id":"4","last_reported":1777148826,"current_range_meters":4400,"station_id":"ce4bhnh2rcd13ifvqgtg","pricing_plan_id":"cebpf4jnsgd1na2vs0mg"},{"bike_id":"a224602e-c9c7-4af9-8390-370a7500450f","system_id":"levelo_inurba_marseille","lat":43.29038,"lon":5.37553,"is_reserved":false,"is_disabled":false,"rental_uris":{"android":"levelo://app?vid=a224602e-c9c7-4af9-8390-370a7500450f","ios":"levelo://app?vid=a224602e-c9c7-4af9-8390-370a7500450f"},"vehicle_type_id":"4","last_reported":1777148826,"current_range_meters":4800,"station_id":"ce4bh692rcd13ifvqe90","pricing_plan_id":"cebpf4jnsgd1na2vs0mg"},{"bike_id":"55788b23-7e60-4b90-b5f4-22af1f647f4b","system_id":"levelo_inurba_marseille","lat":43.29006,"lon":5.35606,"is_reserved":false,"is_disabled":false,"rental_uris":{"android":"levelo://app?vid=55788b23-7e60-4b90-b5f4-22af1f647f4b","ios":"levelo://app?vid=55788b23-7e60-4b90-b5f4-22af1f647f4b"},"vehicle_type_id":"4","last_reported":1777148826,"current_range_meters":4800,"station_id":"ce4bhb92rcd13ifvqen0","pricing_plan_id":"cebpf4jnsgd1na2vs0mg"},{"bike_id":"8c8d3a1e-3e2c-407c-b8ad-af868cc54226","system_id":"levelo_inurba_marseille","lat":43.294882,"lon":5.393907,"is_reserved":false,"is_disabled":false,"rental_uris":{"android":"levelo://app?vid=8c8d3a1e-3e2c-407c-b8ad-af868cc54226","ios":"levelo://app?vid=8c8d3a1e-3e2c-407c-b8ad-af868cc54226"},"vehicle_type_id":"4","last_reported":1777148826,"current_range_meters":4800,"station_id":"","pricing_plan_id":"cebpf4jnsgd1na2vs0mg"},{"bike_id":"f645e30b-5616-45b3-a17d-faf4a49d971d","system_id":"levelo_inurba_marseille","lat":43.31,"lon":5.37533,"is_reserved":false,"is_disabled":false,"rental_uris":{"android":"levelo://app?vid=f645e30b-5616-45b3-a17d-faf4a49d971d","ios":"levelo://app?vid=f645e30b-5616-45b3-a17d-faf4a49d971d"},"vehicle_type_id":"4","last_reported":1777148826,"current_range_meters":4800,"station_id":"","pricing_plan_id":"cebpf4jnsgd1na2vs0mg"},{"bike_id":"45ad0d0e-efdd-4c05-bbcd-19b309dc3892","system_id":"levelo_inurba_marseille","lat":43.28003,"lon":5.41648,"is_reserved":false,"is_disabled":false,"rental_uris":{"android":"levelo://app?vid=45ad0d0e-efdd-4c05-bbcd-19b309dc3892","ios":"levelo://app?vid=45ad0d0e-efdd-4c05-bbcd-19b309dc3892"},"vehicle_type_id":"4","last_reported":1777148826,"current_range_meters":4800,"station_id":"ce4bho12rcd13ifvqh1g","pricing_plan_id":"cebpf4jnsgd1na2vs0mg"},{"bike_id":"d7ee6db2-16a9-437d-93fc-cb51c349f278","system_id":"levelo_inurba_marseille","lat":43.25119,"lon":5.4032,"is_reserved":false,"is_disabled":false,"rental_uris":{"android":"levelo://app?vid=d7ee6db2-16a9-437d-93fc-cb51c349f278","ios":"levelo://app?vid=d7ee6db2-16a9-437d-93fc-cb51c349f278"},"vehicle_type_id":"4","last_reported":1777148826,"current_range_meters":4800,"station_id":"ce4bhlh2rcd13ifvqgig","pricing_plan_id":"cebpf4jnsgd1na2vs0mg"},{"bike_id":"75471a09-e4ee-4438-b4e9-ebcc3c66f359","system_id":"levelo_inurba_marseille","lat":43.21197,"lon":5.35061,"is_reserved":false,"is_disabled":false,"rental_uris":{"android":"levelo://app?vid=75471a09-e4ee-4438-b4e9-ebcc3c66f359","ios":"levelo://app?vid=75471a09-e4ee-4438-b4e9-ebcc3c66f359"},"vehicle_type_id":"4","last_reported":1777148826,"current_range_meters":4800,"station_id":"st_cvj6sg6p6f1abm77japg","pricing_plan_id":"cebpf4jnsgd1na2vs0mg"},{"bike_id":"f69d0c77-9d90-4202-a86c-fd071adc24a9","system_id":"levelo_inurba_marseille","lat":43.24659,"lon":5.38158,"is_reserved":false,"is_disabled":false,"rental_uris":{"android":"levelo://app?vid=f69d0c77-9d90-4202-a86c-fd071adc24a9","ios":"levelo://app?vid=f69d0c77-9d90-4202-a86c-fd071adc24a9"},"vehicle_type_id":"4","last_reported":1777148826,"current_range_meters":4800,"station_id":"ce4bhih2rcd13ifvqfr0","pricing_plan_id":"cebpf4jnsgd1na2vs0mg"},{"bike_id":"021c3599-d960-4255-bf18-8b3b47549997","system_id":"levelo_inurba_marseille","lat":43.30193,"lon":5.43075,"is_reserved":false,"is_disabled":false,"rental_uris":{"android":"levelo://app?vid=021c3599-d960-4255-bf18-8b3b47549997","ios":"levelo://app?vid=021c3599-d960-4255-bf18-8b3b47549997"},"vehicle_type_id":"4","last_reported":1777148826,"current_range_meters":4800,"station_id":"","pricing_plan_id":"cebpf4jnsgd1na2vs0mg"},{"bike_id":"128521d5-883e-4bf6-af47-0bc59aee3e65","system_id":"levelo_inurba_marseille","lat":43.25335,"lon":5.42184,"is_reserved":false,"is_disabled":false,"rental_uris":{"android":"levelo://app?vid=128521d5-883e-4bf6-af47-0bc59aee3e65","ios":"levelo://app?vid=128521d5-883e-4bf6-af47-0bc59aee3e65"},"vehicle_type_id":"4","last_reported":1777148826,"current_range_meters":4800,"station_id":"st_d2m65c5bi1j21697t3ng","pricing_plan_id":"cebpf4jnsgd1na2vs0mg"},{"bike_id":"62a20b6e-e98d-4cc9-b298-e865d7184b00","system_id":"levelo_inurba_marseille","lat":43.25509,"lon":5.3764,"is_reserved":false,"is_disabled":false,"rental_uris":{"android":"levelo://app?vid=62a20b6e-e98d-4cc9-b298-e865d7184b00","ios":"levelo://app?vid=62a20b6e-e98d-4cc9-b298-e865d7184b00"},"vehicle_type_id":"4","last_reported":1777148826,"current_range_meters":4800,"station_id":"ce4bhh12rcd13ifvqff0","pricing_plan_id":"cebpf4jnsgd1na2vs0mg"},{"bike_id":"f13cbeb5-e880-445e-bdac-edb536f92a53","system_id":"levelo_inurba_marseille","lat":43.284119,"lon":5.375065,"is_reserved":false,"is_disabled":false,"rental_uris":{"android":"levelo://app?vid=f13cbeb5-e880-445e-bdac-edb536f92a53","ios":"levelo://app?vid=f13cbeb5-e880-445e-bdac-edb536f92a53"},"vehicle_type_id":"4","last_reported":1777148826,"current_range_meters":4800,"station_id":"ce4bh412rcd13ifvqds0","pricing_plan_id":"cebpf4jnsgd1na2vs0mg"},{"bike_id":"4f81052a-376c-4dec-a1c7-95196629e642","system_id":"levelo_inurba_marseille","lat":43.30946,"lon":5.39028,"is_reserved":false,"is_disabled":false,"rental_uris":{"android":"levelo://app?vid=4f81052a-376c-4dec-a1c7-95196629e642","ios":"levelo://app?vid=4f81052a-376c-4dec-a1c7-95196629e642"},"vehicle_type_id":"4","last_reported":1777148826,"current_range_meters":4800,"station_id":"ce4bgup2rcd13ifvqco0","pricing_plan_id":"cebpf4jnsgd1na2vs0mg"},{"bike_id":"6b498e23-233c-44e7-bdf2-4e8481886ee3","system_id":"levelo_inurba_marseille","lat":43.25511,"lon":5.37649,"is_reserved":false,"is_disabled":false,"rental_uris":{"android":"levelo://app?vid=6b498e23-233c-44e7-bdf2-4e8481886ee3","ios":"levelo://app?vid=6b498e23-233c-44e7-bdf2-4e8481886ee3"},"vehicle_type_id":"4","last_reported":1777148826,"current_range_meters":4800,"station_id":"ce4bhh12rcd13ifvqff0","pricing_plan_id":"cebpf4jnsgd1na2vs0mg"},{"bike_id":"9e736a24-151b-4861-9d3c-68515cd11e0f","system_id":"levelo_inurba_marseille","lat":43.32087,"lon":5.36776,"is_reserved":false,"is_disabled":false,"rental_uris":{"android":"levelo://app?vid=9e736a24-151b-4861-9d3c-68515cd11e0f","ios":"levelo://app?vid=9e736a24-151b-4861-9d3c-68515cd11e0f"},"vehicle_type_id":"4","last_reported":1777148826,"current_range_meters":4800,"station_id":"ce4bhrh2rcd13ifvqhug","pricing_plan_id":"cebpf4jnsgd1na2vs0mg"},{"bike_id":"10e3c355-43b1-42ea-bf9c-d9bafe71e9b1","system_id":"levelo_inurba_marseille","lat":43.24395,"lon":5.37064,"is_reserved":false,"is_disabled":false,"rental_uris":{"android":"levelo://app?vid=10e3c355-43b1-42ea-bf9c-d9bafe71e9b1","ios":"levelo://app?vid=10e3c355-43b1-42ea-bf9c-d9bafe71e9b1"},"vehicle_type_id":"4","last_reported":1777148826,"current_range_meters":4800,"station_id":"ce4bhhh2rcd13ifvqfk0","pricing_plan_id":"cebpf4jnsgd1na2vs0mg"},{"bike_id":"5091d3df-140a-4a96-ba1e-f44ab742c57b","system_id":"levelo_inurba_marseille","lat":43.23188,"lon":5.40005,"is_reserved":false,"is_disabled":true,"rental_uris":{"android":"levelo://app?vid=5091d3df-140a-4a96-ba1e-f44ab742c57b","ios":"levelo://app?vid=5091d3df-140a-4a96-ba1e-f44ab742c57b"},"vehicle_type_id":"4","last_reported":1777148826,"current_range_meters":4800,"station_id":"ce4bhn12rcd13ifvqgqg","pricing_plan_id":"cebpf4jnsgd1na2vs0mg"},{"bike_id":"36083d0d-36eb-4ce6-bb81-4eee378f0183","system_id":"levelo_inurba_marseille","lat":43.30224,"lon":5.39441,"is_reserved":false,"is_disabled":false,"rental_uris":{"android":"levelo://app?vid=36083d0d-36eb-4ce6-bb81-4eee378f0183","ios":"levelo://app?vid=36083d0d-36eb-4ce6-bb81-4eee378f0183"},"vehicle_type_id":"4","last_reported":1777148826,"current_range_meters":4800,"station_id":"ce4bh0p2rcd13ifvqd70","pricing_plan_id":"cebpf4jnsgd1na2vs0mg"},{"bike_id":"a1a720bc-128e-4d7a-9002-af9474f8522c","system_id":"levelo_inurba_marseille","lat":43.30332,"lon":5.40421,"is_reserved":false,"is_disabled":false,"rental_uris":{"android":"levelo://app?vid=a1a720bc-128e-4d7a-9002-af9474f8522c","ios":"levelo://app?vid=a1a720bc-128e-4d7a-9002-af9474f8522c"},"vehicle_type_id":"4","last_reported":1777148826,"current_range_meters":4800,"station_id":"ce4bh012rcd13ifvqd10","pricing_plan_id":"cebpf4jnsgd1na2vs0mg"},{"bike_id":"408ef33a-f995-4732-9be5-641e135ce6e4","system_id":"levelo_inurba_marseille","lat":43.30594,"lon":5.39351,"is_reserved":false,"is_disabled":false,"rental_uris":{"android":"levelo://app?vid=408ef33a-f995-4732-9be5-641e135ce6e4","ios":"levelo://app?vid=408ef33a-f995-4732-9be5-641e135ce6e4"},"vehicle_type_id":"4","last_reported":1777148826,"current_range_meters":4800,"station_id":"ce4bh0p2rcd13ifvqd80","pricing_plan_id":"cebpf4jnsgd1na2vs0mg"},{"bike_id":"0ce641a1-ca62-4f05-b894-4a72f77b98f2","system_id":"levelo_inurba_marseille","lat":43.3236,"lon":5.36727,"is_reserved":false,"is_disabled":false,"rental_uris":{"android":"levelo://app?vid=0ce641a1-ca62-4f05-b894-4a72f77b98f2","ios":"levelo://app?vid=0ce641a1-ca62-4f05-b894-4a72f77b98f2"},"vehicle_type_id":"4","last_reported":1777148826,"current_range_meters":5600,"station_id":"ce4bhsh2rcd13ifvqi2g","pricing_plan_id":"cebpf4jnsgd1na2vs0mg"},{"bike_id":"54dd0309-49d2-49f6-bbb2-520a1e5622f4","system_id":"levelo_inurba_marseille","lat":43.2417,"lon":5.36394,"is_reserved":false,"is_disabled":false,"rental_uris":{"android":"levelo://app?vid=54dd0309-49d2-49f6-bbb2-520a1e5622f4","ios":"levelo://app?vid=54dd0309-49d2-49f6-bbb2-520a1e5622f4"},"vehicle_type_id":"4","last_reported":1777148826,"current_range_meters":5600,"station_id":"cpo36qri1sfpv3e86is0","pricing_plan_id":"cebpf4jnsgd1na2vs0mg"},{"bike_id":"d70320f1-5e83-436f-822f-c8457a777236","system_id":"levelo_inurba_marseille","lat":43.2622,"lon":5.40459,"is_reserved":false,"is_disabled":false,"rental_uris":{"android":"levelo://app?vid=d70320f1-5e83-436f-822f-c8457a777236","ios":"levelo://app?vid=d70320f1-5e83-436f-822f-c8457a777236"},"vehicle_type_id":"4","last_reported":1777148826,"current_range_meters":5600,"station_id":"ce4bhmh2rcd13ifvqgmg","pricing_plan_id":"cebpf4jnsgd1na2vs0mg"},{"bike_id":"797253f7-9e44-4f79-a87c-300c0f9b90fb","system_id":"levelo_inurba_marseille","lat":43.29994,"lon":5.38486,"is_reserved":false,"is_disabled":false,"rental_uris":{"android":"levelo://app?vid=797253f7-9e44-4f79-a87c-300c0f9b90fb","ios":"levelo://app?vid=797253f7-9e44-4f79-a87c-300c0f9b90fb"},"vehicle_type_id":"4","last_reported":1777148826,"current_range_meters":5600,"station_id":"ce4bgj92rcd13ifvqbd0","pricing_plan_id":"cebpf4jnsgd1na2vs0mg"},{"bike_id":"6fc400a6-f028-4b49-86c7-01a37f0c4d06","system_id":"levelo_inurba_marseille","lat":43.29616,"lon":5.37721,"is_reserved":false,"is_disabled":false,"rental_uris":{"android":"levelo://app?vid=6fc400a6-f028-4b49-86c7-01a37f0c4d06","ios":"levelo://app?vid=6fc400a6-f028-4b49-86c7-01a37f0c4d06"},"vehicle_type_id":"4","last_reported":1777148826,"current_range_meters":5600,"station_id":"ce4bgi92rcd13ifvqb90","pricing_plan_id":"cebpf4jnsgd1na2vs0mg"},{"bike_id":"e5708470-62e9-4d64-a45f-a0cac4d1b2a0","system_id":"levelo_inurba_marseille","lat":43.262094,"lon":5.374404,"is_reserved":false,"is_disabled":true,"rental_uris":{"android":"levelo://app?vid=e5708470-62e9-4d64-a45f-a0cac4d1b2a0","ios":"levelo://app?vid=e5708470-62e9-4d64-a45f-a0cac4d1b2a0"},"vehicle_type_id":"4","last_reported":1777148826,"current_range_meters":5600,"station_id":"ce4bhgp2rcd13ifvqfc0","pricing_plan_id":"cebpf4jnsgd1na2vs0mg"},{"bike_id":"a600341a-e596-4c26-93fe-33df0b817a2a","system_id":"levelo_inurba_marseille","lat":43.282074,"lon":5.390973,"is_reserved":false,"is_disabled":false,"rental_uris":{"android":"levelo://app?vid=a600341a-e596-4c26-93fe-33df0b817a2a","ios":"levelo://app?vid=a600341a-e596-4c26-93fe-33df0b817a2a"},"vehicle_type_id":"4","last_reported":1777148826,"current_range_meters":5600,"station_id":"ce4bhn92rcd13ifvqgsg","pricing_plan_id":"cebpf4jnsgd1na2vs0mg"},{"bike_id":"c6e7d3cb-7e19-483f-a191-0c88543be223","system_id":"levelo_inurba_marseille","lat":43.30079,"lon":5.39106,"is_reserved":false,"is_disabled":false,"rental_uris":{"android":"levelo://app?vid=c6e7d3cb-7e19-483f-a191-0c88543be223","ios":"levelo://app?vid=c6e7d3cb-7e19-483f-a191-0c88543be223"},"vehicle_type_id":"4","last_reported":1777148826,"current_range_meters":5600,"station_id":"ce4bh192rcd13ifvqdb0","pricing_plan_id":"cebpf4jnsgd1na2vs0mg"},{"bike_id":"318b0f19-64fa-4af9-92a2-6b5d9e2e4a7b","system_id":"levelo_inurba_marseille","lat":43.21189,"lon":5.3508,"is_reserved":false,"is_disabled":false,"rental_uris":{"android":"levelo://app?vid=318b0f19-64fa-4af9-92a2-6b5d9e2e4a7b","ios":"levelo://app?vid=318b0f19-64fa-4af9-92a2-6b5d9e2e4a7b"},"vehicle_type_id":"4","last_reported":1777148826,"current_range_meters":5600,"station_id":"st_cvj6sg6p6f1abm77japg","pricing_plan_id":"cebpf4jnsgd1na2vs0mg"},{"bike_id":"e5922d4f-603e-45d0-a9bc-40f6119c5fe5","system_id":"levelo_inurba_marseille","lat":43.25348,"lon":5.38473,"is_reserved":false,"is_disabled":false,"rental_uris":{"android":"levelo://app?vid=e5922d4f-603e-45d0-a9bc-40f6119c5fe5","ios":"levelo://app?vid=e5922d4f-603e-45d0-a9bc-40f6119c5fe5"},"vehicle_type_id":"4","last_reported":1777148826,"current_range_meters":5600,"station_id":"","pricing_plan_id":"cebpf4jnsgd1na2vs0mg"},{"bike_id":"452a27a7-4742-4a75-a90f-adbec51bbe80","system_id":"levelo_inurba_marseille","lat":43.30892,"lon":5.3965,"is_reserved":false,"is_disabled":false,"rental_uris":{"android":"levelo://app?vid=452a27a7-4742-4a75-a90f-adbec51bbe80","ios":"levelo://app?vid=452a27a7-4742-4a75-a90f-adbec51bbe80"},"vehicle_type_id":"4","last_reported":1777148826,"current_range_meters":5600,"station_id":"ce4bh012rcd13ifvqcv0","pricing_plan_id":"cebpf4jnsgd1na2vs0mg"},{"bike_id":"d54ba243-3fa7-4f57-81a5-dd9699270ba4","system_id":"levelo_inurba_marseille","lat":43.27491,"lon":5.4245,"is_reserved":false,"is_disabled":false,"rental_uris":{"android":"levelo://app?vid=d54ba243-3fa7-4f57-81a5-dd9699270ba4","ios":"levelo://app?vid=d54ba243-3fa7-4f57-81a5-dd9699270ba4"},"vehicle_type_id":"4","last_reported":1777148826,"current_range_meters":5600,"station_id":"ce4bhn92rcd13ifvqgrg","pricing_plan_id":"cebpf4jnsgd1na2vs0mg"},{"bike_id":"5e5d4e4b-0a64-4c38-b136-030f74f3d6a8","system_id":"levelo_inurba_marseille","lat":43.29533,"lon":5.38538,"is_reserved":false,"is_disabled":false,"rental_uris":{"android":"levelo://app?vid=5e5d4e4b-0a64-4c38-b136-030f74f3d6a8","ios":"levelo://app?vid=5e5d4e4b-0a64-4c38-b136-030f74f3d6a8"},"vehicle_type_id":"4","last_reported":1777148826,"current_range_meters":6000,"station_id":"ce4bgih2rcd13ifvqba0","pricing_plan_id":"cebpf4jnsgd1na2vs0mg"},{"bike_id":"c0126e79-e455-4033-aa6f-9cd2537e8b04","system_id":"levelo_inurba_marseille","lat":43.28681,"lon":5.46715,"is_reserved":false,"is_disabled":false,"rental_uris":{"android":"levelo://app?vid=c0126e79-e455-4033-aa6f-9cd2537e8b04","ios":"levelo://app?vid=c0126e79-e455-4033-aa6f-9cd2537e8b04"},"vehicle_type_id":"4","last_reported":1777148826,"current_range_meters":6000,"station_id":"st_d6tc3vkotcvc738tfjhg","pricing_plan_id":"cebpf4jnsgd1na2vs0mg"},{"bike_id":"8d087c60-78e6-40f1-847c-41984b3a6f63","system_id":"levelo_inurba_marseille","lat":43.24823,"lon":5.37449,"is_reserved":false,"is_disabled":false,"rental_uris":{"android":"levelo://app?vid=8d087c60-78e6-40f1-847c-41984b3a6f63","ios":"levelo://app?vid=8d087c60-78e6-40f1-847c-41984b3a6f63"},"vehicle_type_id":"4","last_reported":1777148826,"current_range_meters":6000,"station_id":"ce4bhgh2rcd13ifvqfb0","pricing_plan_id":"cebpf4jnsgd1na2vs0mg"},{"bike_id":"7637a6bd-34a7-4846-ab67-ca6e5caab5ab","system_id":"levelo_inurba_marseille","lat":43.29005,"lon":5.38134,"is_reserved":false,"is_disabled":false,"rental_uris":{"android":"levelo://app?vid=7637a6bd-34a7-4846-ab67-ca6e5caab5ab","ios":"levelo://app?vid=7637a6bd-34a7-4846-ab67-ca6e5caab5ab"},"vehicle_type_id":"4","last_reported":1777148826,"current_range_meters":6000,"station_id":"ce4bh4p2rcd13ifvqe1g","pricing_plan_id":"cebpf4jnsgd1na2vs0mg"},{"bike_id":"9bcb5bad-dbb2-431c-9005-5d79941461cd","system_id":"levelo_inurba_marseille","lat":43.24417,"lon":5.37056,"is_reserved":false,"is_disabled":false,"rental_uris":{"android":"levelo://app?vid=9bcb5bad-dbb2-431c-9005-5d79941461cd","ios":"levelo://app?vid=9bcb5bad-dbb2-431c-9005-5d79941461cd"},"vehicle_type_id":"4","last_reported":1777148826,"current_range_meters":6000,"station_id":"ce4bhhh2rcd13ifvqfk0","pricing_plan_id":"cebpf4jnsgd1na2vs0mg"},{"bike_id":"47cdfd85-c850-4193-aaa5-b5a23a2b2f3d","system_id":"levelo_inurba_marseille","lat":43.31096,"lon":5.37235,"is_reserved":false,"is_disabled":false,"rental_uris":{"android":"levelo://app?vid=47cdfd85-c850-4193-aaa5-b5a23a2b2f3d","ios":"levelo://app?vid=47cdfd85-c850-4193-aaa5-b5a23a2b2f3d"},"vehicle_type_id":"4","last_reported":1777148826,"current_range_meters":6000,"station_id":"st_d4kl2rp97mjs73e7tdfg","pricing_plan_id":"cebpf4jnsgd1na2vs0mg"},{"bike_id":"3c21f0ef-7f78-49a9-8bbf-12a3b7f18f2e","system_id":"levelo_inurba_marseille","lat":43.27489,"lon":5.42458,"is_reserved":false,"is_disabled":false,"rental_uris":{"android":"levelo://app?vid=3c21f0ef-7f78-49a9-8bbf-12a3b7f18f2e","ios":"levelo://app?vid=3c21f0ef-7f78-49a9-8bbf-12a3b7f18f2e"},"vehicle_type_id":"4","last_reported":1777148826,"current_range_meters":6000,"station_id":"ce4bhn92rcd13ifvqgrg","pricing_plan_id":"cebpf4jnsgd1na2vs0mg"},{"bike_id":"ec381707-e3cf-458c-ab27-d0aaa4d21a63","system_id":"levelo_inurba_marseille","lat":43.29547,"lon":5.3749,"is_reserved":false,"is_disabled":false,"rental_uris":{"android":"levelo://app?vid=ec381707-e3cf-458c-ab27-d0aaa4d21a63","ios":"levelo://app?vid=ec381707-e3cf-458c-ab27-d0aaa4d21a63"},"vehicle_type_id":"4","last_reported":1777148826,"current_range_meters":6000,"station_id":"ce4bgkp2rcd13ifvqbmg","pricing_plan_id":"cebpf4jnsgd1na2vs0mg"},{"bike_id":"8bb46b33-a5fc-4d6e-b210-c3fa60de6a89","system_id":"levelo_inurba_marseille","lat":43.25512,"lon":5.3762,"is_reserved":false,"is_disabled":false,"rental_uris":{"android":"levelo://app?vid=8bb46b33-a5fc-4d6e-b210-c3fa60de6a89","ios":"levelo://app?vid=8bb46b33-a5fc-4d6e-b210-c3fa60de6a89"},"vehicle_type_id":"4","last_reported":1777148826,"current_range_meters":6000,"station_id":"ce4bhh12rcd13ifvqff0","pricing_plan_id":"cebpf4jnsgd1na2vs0mg"},{"bike_id":"724d0869-017c-4e7e-9911-705be0df09b1","system_id":"levelo_inurba_marseille","lat":43.24575,"lon":5.4182,"is_reserved":false,"is_disabled":false,"rental_uris":{"android":"levelo://app?vid=724d0869-017c-4e7e-9911-705be0df09b1","ios":"levelo://app?vid=724d0869-017c-4e7e-9911-705be0df09b1"},"vehicle_type_id":"4","last_reported":1777148826,"current_range_meters":6000,"station_id":"","pricing_plan_id":"cebpf4jnsgd1na2vs0mg"},{"bike_id":"5764bbec-ad28-443f-ba05-86ed46bc41bf","system_id":"levelo_inurba_marseille","lat":43.24818,"lon":5.37459,"is_reserved":false,"is_disabled":false,"rental_uris":{"android":"levelo://app?vid=5764bbec-ad28-443f-ba05-86ed46bc41bf","ios":"levelo://app?vid=5764bbec-ad28-443f-ba05-86ed46bc41bf"},"vehicle_type_id":"4","last_reported":1777148826,"current_range_meters":6000,"station_id":"ce4bhgh2rcd13ifvqfb0","pricing_plan_id":"cebpf4jnsgd1na2vs0mg"},{"bike_id":"e02090b0-9a50-4a44-aa37-180e1036d0dc","system_id":"levelo_inurba_marseille","lat":43.28938,"lon":5.36637,"is_reserved":false,"is_disabled":false,"rental_uris":{"android":"levelo://app?vid=e02090b0-9a50-4a44-aa37-180e1036d0dc","ios":"levelo://app?vid=e02090b0-9a50-4a44-aa37-180e1036d0dc"},"vehicle_type_id":"4","last_reported":1777148826,"current_range_meters":6000,"station_id":"ce4bhap2rcd13ifvqek0","pricing_plan_id":"cebpf4jnsgd1na2vs0mg"},{"bike_id":"36d7d4c9-1b24-4865-83e5-4587b97ae3f2","system_id":"levelo_inurba_marseille","lat":43.30101,"lon":5.39084,"is_reserved":false,"is_disabled":false,"rental_uris":{"android":"levelo://app?vid=36d7d4c9-1b24-4865-83e5-4587b97ae3f2","ios":"levelo://app?vid=36d7d4c9-1b24-4865-83e5-4587b97ae3f2"},"vehicle_type_id":"4","last_reported":1777148826,"current_range_meters":6000,"station_id":"ce4bh192rcd13ifvqdb0","pricing_plan_id":"cebpf4jnsgd1na2vs0mg"},{"bike_id":"8af7cc4d-787c-4a52-85ef-58bed94c7550","system_id":"levelo_inurba_marseille","lat":43.26226,"lon":5.40456,"is_reserved":false,"is_disabled":false,"rental_uris":{"android":"levelo://app?vid=8af7cc4d-787c-4a52-85ef-58bed94c7550","ios":"levelo://app?vid=8af7cc4d-787c-4a52-85ef-58bed94c7550"},"vehicle_type_id":"4","last_reported":1777148826,"current_range_meters":6000,"station_id":"ce4bhmh2rcd13ifvqgmg","pricing_plan_id":"cebpf4jnsgd1na2vs0mg"},{"bike_id":"a993d15c-b636-4c83-a182-a1a2dbac7f09","system_id":"levelo_inurba_marseille","lat":43.28417,"lon":5.34986,"is_reserved":false,"is_disabled":false,"rental_uris":{"android":"levelo://app?vid=a993d15c-b636-4c83-a182-a1a2dbac7f09","ios":"levelo://app?vid=a993d15c-b636-4c83-a182-a1a2dbac7f09"},"vehicle_type_id":"4","last_reported":1777148826,"current_range_meters":6000,"station_id":"ce4bhbh2rcd13ifvqepg","pricing_plan_id":"cebpf4jnsgd1na2vs0mg"},{"bike_id":"56365307-f337-4264-b14d-be5d1ec17d1e","system_id":"levelo_inurba_marseille","lat":43.28911,"lon":5.38415,"is_reserved":false,"is_disabled":false,"rental_uris":{"android":"levelo://app?vid=56365307-f337-4264-b14d-be5d1ec17d1e","ios":"levelo://app?vid=56365307-f337-4264-b14d-be5d1ec17d1e"},"vehicle_type_id":"4","last_reported":1777148826,"current_range_meters":6000,"station_id":"","pricing_plan_id":"cebpf4jnsgd1na2vs0mg"},{"bike_id":"c639e9dd-379a-46f8-b469-b2b3bc25eac4","system_id":"levelo_inurba_marseille","lat":43.29002,"lon":5.35606,"is_reserved":false,"is_disabled":true,"rental_uris":{"android":"levelo://app?vid=c639e9dd-379a-46f8-b469-b2b3bc25eac4","ios":"levelo://app?vid=c639e9dd-379a-46f8-b469-b2b3bc25eac4"},"vehicle_type_id":"4","last_reported":1777148826,"current_range_meters":6400,"station_id":"ce4bhb92rcd13ifvqen0","pricing_plan_id":"cebpf4jnsgd1na2vs0mg"},{"bike_id":"4bbbb14a-8fcc-43d3-a29a-3f8be7e2f321","system_id":"levelo_inurba_marseille","lat":43.29345,"lon":5.37204,"is_reserved":false,"is_disabled":false,"rental_uris":{"android":"levelo://app?vid=4bbbb14a-8fcc-43d3-a29a-3f8be7e2f321","ios":"levelo://app?vid=4bbbb14a-8fcc-43d3-a29a-3f8be7e2f321"},"vehicle_type_id":"4","last_reported":1777148826,"current_range_meters":6400,"station_id":"ce4bgh92rcd13ifvqb40","pricing_plan_id":"cebpf4jnsgd1na2vs0mg"},{"bike_id":"a18a394f-a610-42d7-b58a-6d9e4023733d","system_id":"levelo_inurba_marseille","lat":43.30623,"lon":5.3935,"is_reserved":false,"is_disabled":false,"rental_uris":{"android":"levelo://app?vid=a18a394f-a610-42d7-b58a-6d9e4023733d","ios":"levelo://app?vid=a18a394f-a610-42d7-b58a-6d9e4023733d"},"vehicle_type_id":"4","last_reported":1777148826,"current_range_meters":6400,"station_id":"ce4bh0p2rcd13ifvqd80","pricing_plan_id":"cebpf4jnsgd1na2vs0mg"},{"bike_id":"90610949-5042-40f1-8252-076aeddd7d81","system_id":"levelo_inurba_marseille","lat":43.31906,"lon":5.36815,"is_reserved":false,"is_disabled":false,"rental_uris":{"android":"levelo://app?vid=90610949-5042-40f1-8252-076aeddd7d81","ios":"levelo://app?vid=90610949-5042-40f1-8252-076aeddd7d81"},"vehicle_type_id":"4","last_reported":1777148826,"current_range_meters":6400,"station_id":"st_d6o2h0d0559c73evc1b0","pricing_plan_id":"cebpf4jnsgd1na2vs0mg"},{"bike_id":"196cf3f1-21a5-47dc-ba7c-3de76966c3f7","system_id":"levelo_inurba_marseille","lat":43.31274,"lon":5.40169,"is_reserved":false,"is_disabled":false,"rental_uris":{"android":"levelo://app?vid=196cf3f1-21a5-47dc-ba7c-3de76966c3f7","ios":"levelo://app?vid=196cf3f1-21a5-47dc-ba7c-3de76966c3f7"},"vehicle_type_id":"4","last_reported":1777148826,"current_range_meters":6400,"station_id":"ce4bh092rcd13ifvqd30","pricing_plan_id":"cebpf4jnsgd1na2vs0mg"},{"bike_id":"085eefc3-42b6-4e5f-8fa3-5e096f60ac23","system_id":"levelo_inurba_marseille","lat":43.21752,"lon":5.34592,"is_reserved":false,"is_disabled":true,"rental_uris":{"android":"levelo://app?vid=085eefc3-42b6-4e5f-8fa3-5e096f60ac23","ios":"levelo://app?vid=085eefc3-42b6-4e5f-8fa3-5e096f60ac23"},"vehicle_type_id":"4","last_reported":1777148826,"current_range_meters":6400,"station_id":"st_cvj6r9ubvosntc0bgbag","pricing_plan_id":"cebpf4jnsgd1na2vs0mg"},{"bike_id":"36fe2575-22d8-45fc-b110-398032622606","system_id":"levelo_inurba_marseille","lat":43.28477,"lon":5.38462,"is_reserved":false,"is_disabled":true,"rental_uris":{"android":"levelo://app?vid=36fe2575-22d8-45fc-b110-398032622606","ios":"levelo://app?vid=36fe2575-22d8-45fc-b110-398032622606"},"vehicle_type_id":"4","last_reported":1777148826,"current_range_meters":6400,"station_id":"ce4bh512rcd13ifvqe3g","pricing_plan_id":"cebpf4jnsgd1na2vs0mg"},{"bike_id":"f45c6cef-0c24-46b7-81bc-53822d8483bd","system_id":"levelo_inurba_marseille","lat":43.31359,"lon":5.38503,"is_reserved":false,"is_disabled":false,"rental_uris":{"android":"levelo://app?vid=f45c6cef-0c24-46b7-81bc-53822d8483bd","ios":"levelo://app?vid=f45c6cef-0c24-46b7-81bc-53822d8483bd"},"vehicle_type_id":"4","last_reported":1777148826,"current_range_meters":6400,"station_id":"ce4bgt92rcd13ifvqcf0","pricing_plan_id":"cebpf4jnsgd1na2vs0mg"},{"bike_id":"b7808ecd-7c49-495a-ae8b-eadddd23df3d","system_id":"levelo_inurba_marseille","lat":43.29066,"lon":5.37155,"is_reserved":false,"is_disabled":false,"rental_uris":{"android":"levelo://app?vid=b7808ecd-7c49-495a-ae8b-eadddd23df3d","ios":"levelo://app?vid=b7808ecd-7c49-495a-ae8b-eadddd23df3d"},"vehicle_type_id":"4","last_reported":1777148826,"current_range_meters":6400,"station_id":"ce4bh5p2rcd13ifvqe4g","pricing_plan_id":"cebpf4jnsgd1na2vs0mg"},{"bike_id":"c0c5f549-d55a-40a7-bb49-6eb0b1139cc6","system_id":"levelo_inurba_marseille","lat":43.31296,"lon":5.3714,"is_reserved":false,"is_disabled":false,"rental_uris":{"android":"levelo://app?vid=c0c5f549-d55a-40a7-bb49-6eb0b1139cc6","ios":"levelo://app?vid=c0c5f549-d55a-40a7-bb49-6eb0b1139cc6"},"vehicle_type_id":"4","last_reported":1777148826,"current_range_meters":6400,"station_id":"","pricing_plan_id":"cebpf4jnsgd1na2vs0mg"},{"bike_id":"ab6f758a-3eca-407e-a136-980b0d3ef21b","system_id":"levelo_inurba_marseille","lat":43.29854,"lon":5.39732,"is_reserved":false,"is_disabled":false,"rental_uris":{"android":"levelo://app?vid=ab6f758a-3eca-407e-a136-980b0d3ef21b","ios":"levelo://app?vid=ab6f758a-3eca-407e-a136-980b0d3ef21b"},"vehicle_type_id":"4","last_reported":1777148826,"current_range_meters":6400,"station_id":"ce4bh0h2rcd13ifvqd50","pricing_plan_id":"cebpf4jnsgd1na2vs0mg"},{"bike_id":"4a7b1e50-be85-43f1-bb74-21775d2f463f","system_id":"levelo_inurba_marseille","lat":43.29376,"lon":5.37843,"is_reserved":false,"is_disabled":false,"rental_uris":{"android":"levelo://app?vid=4a7b1e50-be85-43f1-bb74-21775d2f463f","ios":"levelo://app?vid=4a7b1e50-be85-43f1-bb74-21775d2f463f"},"vehicle_type_id":"4","last_reported":1777148826,"current_range_meters":6400,"station_id":"ce4bgjh2rcd13ifvqbf0","pricing_plan_id":"cebpf4jnsgd1na2vs0mg"},{"bike_id":"5661231f-5f65-4dc5-8231-3d524a0fb376","system_id":"levelo_inurba_marseille","lat":43.29598,"lon":5.38099,"is_reserved":false,"is_disabled":false,"rental_uris":{"android":"levelo://app?vid=5661231f-5f65-4dc5-8231-3d524a0fb376","ios":"levelo://app?vid=5661231f-5f65-4dc5-8231-3d524a0fb376"},"vehicle_type_id":"4","last_reported":1777148826,"current_range_meters":6400,"station_id":"ce4bgl12rcd13ifvqbo0","pricing_plan_id":"cebpf4jnsgd1na2vs0mg"},{"bike_id":"0cf012ac-849e-415e-9223-4bd83b144eae","system_id":"levelo_inurba_marseille","lat":43.330255,"lon":5.3896,"is_reserved":false,"is_disabled":false,"rental_uris":{"android":"levelo://app?vid=0cf012ac-849e-415e-9223-4bd83b144eae","ios":"levelo://app?vid=0cf012ac-849e-415e-9223-4bd83b144eae"},"vehicle_type_id":"4","last_reported":1777148826,"current_range_meters":6400,"station_id":"ce4bhr92rcd13ifvqhrg","pricing_plan_id":"cebpf4jnsgd1na2vs0mg"},{"bike_id":"c8c7da86-e29d-470e-9c64-9077f51a5fc3","system_id":"levelo_inurba_marseille","lat":43.29535,"lon":5.38536,"is_reserved":false,"is_disabled":false,"rental_uris":{"android":"levelo://app?vid=c8c7da86-e29d-470e-9c64-9077f51a5fc3","ios":"levelo://app?vid=c8c7da86-e29d-470e-9c64-9077f51a5fc3"},"vehicle_type_id":"4","last_reported":1777148826,"current_range_meters":6400,"station_id":"ce4bgih2rcd13ifvqba0","pricing_plan_id":"cebpf4jnsgd1na2vs0mg"},{"bike_id":"f2504c9e-7cd4-4ddd-94fe-6d4788f9b1ac","system_id":"levelo_inurba_marseille","lat":43.26198,"lon":5.37444,"is_reserved":false,"is_disabled":false,"rental_uris":{"android":"levelo://app?vid=f2504c9e-7cd4-4ddd-94fe-6d4788f9b1ac","ios":"levelo://app?vid=f2504c9e-7cd4-4ddd-94fe-6d4788f9b1ac"},"vehicle_type_id":"4","last_reported":1777148826,"current_range_meters":6400,"station_id":"ce4bhgp2rcd13ifvqfc0","pricing_plan_id":"cebpf4jnsgd1na2vs0mg"},{"bike_id":"8d715502-1f4d-495a-aba7-e255ad4122f8","system_id":"levelo_inurba_marseille","lat":43.23959,"lon":5.36624,"is_reserved":false,"is_disabled":false,"rental_uris":{"android":"levelo://app?vid=8d715502-1f4d-495a-aba7-e255ad4122f8","ios":"levelo://app?vid=8d715502-1f4d-495a-aba7-e255ad4122f8"},"vehicle_type_id":"4","last_reported":1777148826,"current_range_meters":6800,"station_id":"ce4bhi12rcd13ifvqfp0","pricing_plan_id":"cebpf4jnsgd1na2vs0mg"},{"bike_id":"a8f6a395-f3d0-4eae-9bed-61bd91606632","system_id":"levelo_inurba_marseille","lat":43.30955,"lon":5.39053,"is_reserved":false,"is_disabled":false,"rental_uris":{"android":"levelo://app?vid=a8f6a395-f3d0-4eae-9bed-61bd91606632","ios":"levelo://app?vid=a8f6a395-f3d0-4eae-9bed-61bd91606632"},"vehicle_type_id":"4","last_reported":1777148826,"current_range_meters":6800,"station_id":"ce4bgup2rcd13ifvqco0","pricing_plan_id":"cebpf4jnsgd1na2vs0mg"},{"bike_id":"548e4a82-32b2-49d2-a8d0-a6b1676f8a48","system_id":"levelo_inurba_marseille","lat":43.32463,"lon":5.36575,"is_reserved":false,"is_disabled":false,"rental_uris":{"android":"levelo://app?vid=548e4a82-32b2-49d2-a8d0-a6b1676f8a48","ios":"levelo://app?vid=548e4a82-32b2-49d2-a8d0-a6b1676f8a48"},"vehicle_type_id":"4","last_reported":1777148826,"current_range_meters":6800,"station_id":"ce4bhs12rcd13ifvqhvg","pricing_plan_id":"cebpf4jnsgd1na2vs0mg"},{"bike_id":"475140f4-b583-4984-8b03-5ba0e4640098","system_id":"levelo_inurba_marseille","lat":43.29528,"lon":5.3853,"is_reserved":false,"is_disabled":false,"rental_uris":{"android":"levelo://app?vid=475140f4-b583-4984-8b03-5ba0e4640098","ios":"levelo://app?vid=475140f4-b583-4984-8b03-5ba0e4640098"},"vehicle_type_id":"4","last_reported":1777148826,"current_range_meters":6800,"station_id":"ce4bgih2rcd13ifvqba0","pricing_plan_id":"cebpf4jnsgd1na2vs0mg"},{"bike_id":"40d69b45-a292-4d7d-b8e6-837b8b5a9d0c","system_id":"levelo_inurba_marseille","lat":43.28477,"lon":5.48391,"is_reserved":false,"is_disabled":false,"rental_uris":{"android":"levelo://app?vid=40d69b45-a292-4d7d-b8e6-837b8b5a9d0c","ios":"levelo://app?vid=40d69b45-a292-4d7d-b8e6-837b8b5a9d0c"},"vehicle_type_id":"4","last_reported":1777148826,"current_range_meters":6800,"station_id":"","pricing_plan_id":"cebpf4jnsgd1na2vs0mg"},{"bike_id":"8e370a67-a4b6-478e-beae-4d7e04bb1fa9","system_id":"levelo_inurba_marseille","lat":43.30176,"lon":5.37426,"is_reserved":false,"is_disabled":false,"rental_uris":{"android":"levelo://app?vid=8e370a67-a4b6-478e-beae-4d7e04bb1fa9","ios":"levelo://app?vid=8e370a67-a4b6-478e-beae-4d7e04bb1fa9"},"vehicle_type_id":"4","last_reported":1777148826,"current_range_meters":6800,"station_id":"ce4bgs92rcd13ifvqcc0","pricing_plan_id":"cebpf4jnsgd1na2vs0mg"},{"bike_id":"41e4fd2e-7fdb-45e6-9779-3a33c2dd479c","system_id":"levelo_inurba_marseille","lat":43.29271,"lon":5.3841,"is_reserved":false,"is_disabled":false,"rental_uris":{"android":"levelo://app?vid=41e4fd2e-7fdb-45e6-9779-3a33c2dd479c","ios":"levelo://app?vid=41e4fd2e-7fdb-45e6-9779-3a33c2dd479c"},"vehicle_type_id":"4","last_reported":1777148826,"current_range_meters":6800,"station_id":"ce4bh692rcd13ifvqea0","pricing_plan_id":"cebpf4jnsgd1na2vs0mg"},{"bike_id":"00cadce8-7903-4092-8b5c-5695ce27b5b2","system_id":"levelo_inurba_marseille","lat":43.29534,"lon":5.38553,"is_reserved":false,"is_disabled":true,"rental_uris":{"android":"levelo://app?vid=00cadce8-7903-4092-8b5c-5695ce27b5b2","ios":"levelo://app?vid=00cadce8-7903-4092-8b5c-5695ce27b5b2"},"vehicle_type_id":"4","last_reported":1777148826,"current_range_meters":6800,"station_id":"ce4bgih2rcd13ifvqba0","pricing_plan_id":"cebpf4jnsgd1na2vs0mg"},{"bike_id":"85e28e2a-2421-4551-a813-382122811cec","system_id":"levelo_inurba_marseille","lat":43.31905,"lon":5.36823,"is_reserved":false,"is_disabled":false,"rental_uris":{"android":"levelo://app?vid=85e28e2a-2421-4551-a813-382122811cec","ios":"levelo://app?vid=85e28e2a-2421-4551-a813-382122811cec"},"vehicle_type_id":"4","last_reported":1777148826,"current_range_meters":6800,"station_id":"st_d6o2h0d0559c73evc1b0","pricing_plan_id":"cebpf4jnsgd1na2vs0mg"},{"bike_id":"541dbded-315f-4ca8-ac49-47fcb4294bb7","system_id":"levelo_inurba_marseille","lat":43.33533,"lon":5.37466,"is_reserved":false,"is_disabled":false,"rental_uris":{"android":"levelo://app?vid=541dbded-315f-4ca8-ac49-47fcb4294bb7","ios":"levelo://app?vid=541dbded-315f-4ca8-ac49-47fcb4294bb7"},"vehicle_type_id":"4","last_reported":1777148826,"current_range_meters":6800,"station_id":"st_d46tts09ee8s73dlu43g","pricing_plan_id":"cebpf4jnsgd1na2vs0mg"},{"bike_id":"28dc652e-391e-4daa-a243-946582e83158","system_id":"levelo_inurba_marseille","lat":43.31692,"lon":5.40468,"is_reserved":false,"is_disabled":false,"rental_uris":{"android":"levelo://app?vid=28dc652e-391e-4daa-a243-946582e83158","ios":"levelo://app?vid=28dc652e-391e-4daa-a243-946582e83158"},"vehicle_type_id":"4","last_reported":1777148826,"current_range_meters":6800,"station_id":"ce4bh012rcd13ifvqd00","pricing_plan_id":"cebpf4jnsgd1na2vs0mg"},{"bike_id":"0852722a-7690-41d8-85ee-3e7c6221932f","system_id":"levelo_inurba_marseille","lat":43.24547,"lon":5.39518,"is_reserved":false,"is_disabled":false,"rental_uris":{"android":"levelo://app?vid=0852722a-7690-41d8-85ee-3e7c6221932f","ios":"levelo://app?vid=0852722a-7690-41d8-85ee-3e7c6221932f"},"vehicle_type_id":"4","last_reported":1777148826,"current_range_meters":6800,"station_id":"ce4bhlp2rcd13ifvqgjg","pricing_plan_id":"cebpf4jnsgd1na2vs0mg"},{"bike_id":"e788e3a9-1850-4ebb-8da4-36ab5e529605","system_id":"levelo_inurba_marseille","lat":43.2766,"lon":5.38378,"is_reserved":false,"is_disabled":false,"rental_uris":{"android":"levelo://app?vid=e788e3a9-1850-4ebb-8da4-36ab5e529605","ios":"levelo://app?vid=e788e3a9-1850-4ebb-8da4-36ab5e529605"},"vehicle_type_id":"4","last_reported":1777148826,"current_range_meters":6800,"station_id":"","pricing_plan_id":"cebpf4jnsgd1na2vs0mg"},{"bike_id":"ba282c49-26ae-4ed5-9307-6b4583e108d9","system_id":"levelo_inurba_marseille","lat":43.30945,"lon":5.39029,"is_reserved":false,"is_disabled":false,"rental_uris":{"android":"levelo://app?vid=ba282c49-26ae-4ed5-9307-6b4583e108d9","ios":"levelo://app?vid=ba282c49-26ae-4ed5-9307-6b4583e108d9"},"vehicle_type_id":"4","last_reported":1777148826,"current_range_meters":6800,"station_id":"ce4bgup2rcd13ifvqco0","pricing_plan_id":"cebpf4jnsgd1na2vs0mg"},{"bike_id":"82e25989-de1b-4ab7-b98d-d48f74552355","system_id":"levelo_inurba_marseille","lat":43.31116,"lon":5.37762,"is_reserved":false,"is_disabled":false,"rental_uris":{"android":"levelo://app?vid=82e25989-de1b-4ab7-b98d-d48f74552355","ios":"levelo://app?vid=82e25989-de1b-4ab7-b98d-d48f74552355"},"vehicle_type_id":"4","last_reported":1777148826,"current_range_meters":6800,"station_id":"ce4bgt92rcd13ifvqcg0","pricing_plan_id":"cebpf4jnsgd1na2vs0mg"},{"bike_id":"e150a8cf-4efe-40af-9467-f24e18330374","system_id":"levelo_inurba_marseille","lat":43.25503,"lon":5.37637,"is_reserved":false,"is_disabled":false,"rental_uris":{"android":"levelo://app?vid=e150a8cf-4efe-40af-9467-f24e18330374","ios":"levelo://app?vid=e150a8cf-4efe-40af-9467-f24e18330374"},"vehicle_type_id":"4","last_reported":1777148826,"current_range_meters":6800,"station_id":"ce4bhh12rcd13ifvqff0","pricing_plan_id":"cebpf4jnsgd1na2vs0mg"},{"bike_id":"4e09535f-a46c-4fd9-8c4a-595683209474","system_id":"levelo_inurba_marseille","lat":43.23965,"lon":5.36621,"is_reserved":false,"is_disabled":false,"rental_uris":{"android":"levelo://app?vid=4e09535f-a46c-4fd9-8c4a-595683209474","ios":"levelo://app?vid=4e09535f-a46c-4fd9-8c4a-595683209474"},"vehicle_type_id":"4","last_reported":1777148826,"current_range_meters":7200,"station_id":"ce4bhi12rcd13ifvqfp0","pricing_plan_id":"cebpf4jnsgd1na2vs0mg"},{"bike_id":"d2e84e8f-0efb-4da1-b29f-eabc6893fefa","system_id":"levelo_inurba_marseille","lat":43.29272,"lon":5.38427,"is_reserved":false,"is_disabled":false,"rental_uris":{"android":"levelo://app?vid=d2e84e8f-0efb-4da1-b29f-eabc6893fefa","ios":"levelo://app?vid=d2e84e8f-0efb-4da1-b29f-eabc6893fefa"},"vehicle_type_id":"4","last_reported":1777148826,"current_range_meters":7200,"station_id":"ce4bh692rcd13ifvqea0","pricing_plan_id":"cebpf4jnsgd1na2vs0mg"},{"bike_id":"27cd71a7-0940-4415-a67f-21597fbf1cd9","system_id":"levelo_inurba_marseille","lat":43.34898,"lon":5.37389,"is_reserved":false,"is_disabled":false,"rental_uris":{"android":"levelo://app?vid=27cd71a7-0940-4415-a67f-21597fbf1cd9","ios":"levelo://app?vid=27cd71a7-0940-4415-a67f-21597fbf1cd9"},"vehicle_type_id":"4","last_reported":1777148826,"current_range_meters":7200,"station_id":"","pricing_plan_id":"cebpf4jnsgd1na2vs0mg"},{"bike_id":"cd5ae753-0ce4-45ab-886c-3f79fabdb3b1","system_id":"levelo_inurba_marseille","lat":43.24828,"lon":5.37455,"is_reserved":false,"is_disabled":false,"rental_uris":{"android":"levelo://app?vid=cd5ae753-0ce4-45ab-886c-3f79fabdb3b1","ios":"levelo://app?vid=cd5ae753-0ce4-45ab-886c-3f79fabdb3b1"},"vehicle_type_id":"4","last_reported":1777148826,"current_range_meters":7200,"station_id":"ce4bhgh2rcd13ifvqfb0","pricing_plan_id":"cebpf4jnsgd1na2vs0mg"},{"bike_id":"044ce3d4-5f89-49a7-a22e-6dad240318c7","system_id":"levelo_inurba_marseille","lat":43.3128,"lon":5.40169,"is_reserved":false,"is_disabled":false,"rental_uris":{"android":"levelo://app?vid=044ce3d4-5f89-49a7-a22e-6dad240318c7","ios":"levelo://app?vid=044ce3d4-5f89-49a7-a22e-6dad240318c7"},"vehicle_type_id":"4","last_reported":1777148826,"current_range_meters":7200,"station_id":"ce4bh092rcd13ifvqd30","pricing_plan_id":"cebpf4jnsgd1na2vs0mg"},{"bike_id":"648aedc8-083f-4dbd-ad8f-6cfaff96c6b4","system_id":"levelo_inurba_marseille","lat":43.29912,"lon":5.38144,"is_reserved":false,"is_disabled":false,"rental_uris":{"android":"levelo://app?vid=648aedc8-083f-4dbd-ad8f-6cfaff96c6b4","ios":"levelo://app?vid=648aedc8-083f-4dbd-ad8f-6cfaff96c6b4"},"vehicle_type_id":"4","last_reported":1777148826,"current_range_meters":7200,"station_id":"ce4bgj12rcd13ifvqbc0","pricing_plan_id":"cebpf4jnsgd1na2vs0mg"},{"bike_id":"e5bab3d4-51df-40f4-acb7-898a38cfd436","system_id":"levelo_inurba_marseille","lat":43.21196,"lon":5.35071,"is_reserved":false,"is_disabled":false,"rental_uris":{"android":"levelo://app?vid=e5bab3d4-51df-40f4-acb7-898a38cfd436","ios":"levelo://app?vid=e5bab3d4-51df-40f4-acb7-898a38cfd436"},"vehicle_type_id":"4","last_reported":1777148826,"current_range_meters":7200,"station_id":"st_cvj6sg6p6f1abm77japg","pricing_plan_id":"cebpf4jnsgd1na2vs0mg"},{"bike_id":"17fe3f56-b486-40dd-ac6a-710ede14c97d","system_id":"levelo_inurba_marseille","lat":43.314869,"lon":5.373029,"is_reserved":false,"is_disabled":false,"rental_uris":{"android":"levelo://app?vid=17fe3f56-b486-40dd-ac6a-710ede14c97d","ios":"levelo://app?vid=17fe3f56-b486-40dd-ac6a-710ede14c97d"},"vehicle_type_id":"4","last_reported":1777148826,"current_range_meters":7200,"station_id":"","pricing_plan_id":"cebpf4jnsgd1na2vs0mg"},{"bike_id":"a4b333a0-7fa7-42c6-a7d4-7b2b56a0efa1","system_id":"levelo_inurba_marseille","lat":43.29042,"lon":5.38607,"is_reserved":false,"is_disabled":false,"rental_uris":{"android":"levelo://app?vid=a4b333a0-7fa7-42c6-a7d4-7b2b56a0efa1","ios":"levelo://app?vid=a4b333a0-7fa7-42c6-a7d4-7b2b56a0efa1"},"vehicle_type_id":"4","last_reported":1777148826,"current_range_meters":7200,"station_id":"ce4bh4p2rcd13ifvqe0g","pricing_plan_id":"cebpf4jnsgd1na2vs0mg"},{"bike_id":"d1d5c7cf-8e64-4123-ad8a-ccd792fc4d10","system_id":"levelo_inurba_marseille","lat":43.29329,"lon":5.3988,"is_reserved":false,"is_disabled":false,"rental_uris":{"android":"levelo://app?vid=d1d5c7cf-8e64-4123-ad8a-ccd792fc4d10","ios":"levelo://app?vid=d1d5c7cf-8e64-4123-ad8a-ccd792fc4d10"},"vehicle_type_id":"4","last_reported":1777148826,"current_range_meters":7200,"station_id":"","pricing_plan_id":"cebpf4jnsgd1na2vs0mg"},{"bike_id":"7f14f307-ed9b-4bde-a995-2c9126a5e681","system_id":"levelo_inurba_marseille","lat":43.30485,"lon":5.37889,"is_reserved":false,"is_disabled":true,"rental_uris":{"android":"levelo://app?vid=7f14f307-ed9b-4bde-a995-2c9126a5e681","ios":"levelo://app?vid=7f14f307-ed9b-4bde-a995-2c9126a5e681"},"vehicle_type_id":"4","last_reported":1777148826,"current_range_meters":7200,"station_id":"ce4bgup2rcd13ifvqcn0","pricing_plan_id":"cebpf4jnsgd1na2vs0mg"},{"bike_id":"a9f687fa-3787-4871-811a-526256f79453","system_id":"levelo_inurba_marseille","lat":43.24382,"lon":5.37072,"is_reserved":false,"is_disabled":false,"rental_uris":{"android":"levelo://app?vid=a9f687fa-3787-4871-811a-526256f79453","ios":"levelo://app?vid=a9f687fa-3787-4871-811a-526256f79453"},"vehicle_type_id":"4","last_reported":1777148826,"current_range_meters":7200,"station_id":"ce4bhhh2rcd13ifvqfk0","pricing_plan_id":"cebpf4jnsgd1na2vs0mg"},{"bike_id":"3cc37908-32a6-4dbb-bca1-e1b546196cc1","system_id":"levelo_inurba_marseille","lat":43.29282,"lon":5.38451,"is_reserved":false,"is_disabled":false,"rental_uris":{"android":"levelo://app?vid=3cc37908-32a6-4dbb-bca1-e1b546196cc1","ios":"levelo://app?vid=3cc37908-32a6-4dbb-bca1-e1b546196cc1"},"vehicle_type_id":"4","last_reported":1777148826,"current_range_meters":7200,"station_id":"ce4bh692rcd13ifvqea0","pricing_plan_id":"cebpf4jnsgd1na2vs0mg"},{"bike_id":"583c6758-4ba4-4e92-8817-050735aeafe7","system_id":"levelo_inurba_marseille","lat":43.30894,"lon":5.39614,"is_reserved":false,"is_disabled":false,"rental_uris":{"android":"levelo://app?vid=583c6758-4ba4-4e92-8817-050735aeafe7","ios":"levelo://app?vid=583c6758-4ba4-4e92-8817-050735aeafe7"},"vehicle_type_id":"4","last_reported":1777148826,"current_range_meters":7200,"station_id":"ce4bh012rcd13ifvqcv0","pricing_plan_id":"cebpf4jnsgd1na2vs0mg"},{"bike_id":"73b29586-6035-4b17-8f89-10c778399a16","system_id":"levelo_inurba_marseille","lat":43.31984,"lon":5.38159,"is_reserved":false,"is_disabled":false,"rental_uris":{"android":"levelo://app?vid=73b29586-6035-4b17-8f89-10c778399a16","ios":"levelo://app?vid=73b29586-6035-4b17-8f89-10c778399a16"},"vehicle_type_id":"4","last_reported":1777148826,"current_range_meters":7200,"station_id":"ce4bhr12rcd13ifvqhpg","pricing_plan_id":"cebpf4jnsgd1na2vs0mg"},{"bike_id":"8d1cc07a-c87d-4a7b-8797-cd61ba104d31","system_id":"levelo_inurba_marseille","lat":43.29555,"lon":5.39027,"is_reserved":false,"is_disabled":true,"rental_uris":{"android":"levelo://app?vid=8d1cc07a-c87d-4a7b-8797-cd61ba104d31","ios":"levelo://app?vid=8d1cc07a-c87d-4a7b-8797-cd61ba104d31"},"vehicle_type_id":"4","last_reported":1777148826,"current_range_meters":7200,"station_id":"ce4bh3p2rcd13ifvqdp0","pricing_plan_id":"cebpf4jnsgd1na2vs0mg"},{"bike_id":"3deb095f-0346-4d9f-aae1-8d59d80b3d6e","system_id":"levelo_inurba_marseille","lat":43.24397,"lon":5.37082,"is_reserved":false,"is_disabled":false,"rental_uris":{"android":"levelo://app?vid=3deb095f-0346-4d9f-aae1-8d59d80b3d6e","ios":"levelo://app?vid=3deb095f-0346-4d9f-aae1-8d59d80b3d6e"},"vehicle_type_id":"4","last_reported":1777148826,"current_range_meters":7200,"station_id":"ce4bhhh2rcd13ifvqfk0","pricing_plan_id":"cebpf4jnsgd1na2vs0mg"},{"bike_id":"bbf9f4ef-b96b-46d2-8c84-49a4701e003c","system_id":"levelo_inurba_marseille","lat":43.32042,"lon":5.41591,"is_reserved":false,"is_disabled":false,"rental_uris":{"android":"levelo://app?vid=bbf9f4ef-b96b-46d2-8c84-49a4701e003c","ios":"levelo://app?vid=bbf9f4ef-b96b-46d2-8c84-49a4701e003c"},"vehicle_type_id":"4","last_reported":1777148826,"current_range_meters":7200,"station_id":"ce4bhq92rcd13ifvqhkg","pricing_plan_id":"cebpf4jnsgd1na2vs0mg"},{"bike_id":"90fac789-06e9-4c33-94b9-e82543e03c21","system_id":"levelo_inurba_marseille","lat":43.2257,"lon":5.41623,"is_reserved":false,"is_disabled":true,"rental_uris":{"android":"levelo://app?vid=90fac789-06e9-4c33-94b9-e82543e03c21","ios":"levelo://app?vid=90fac789-06e9-4c33-94b9-e82543e03c21"},"vehicle_type_id":"4","last_reported":1777148826,"current_range_meters":7200,"station_id":"st_d2o4gvlbi1j2169b742g","pricing_plan_id":"cebpf4jnsgd1na2vs0mg"},{"bike_id":"55ab88c6-7693-4f53-b061-009fb06e1411","system_id":"levelo_inurba_marseille","lat":43.29527,"lon":5.38534,"is_reserved":false,"is_disabled":false,"rental_uris":{"android":"levelo://app?vid=55ab88c6-7693-4f53-b061-009fb06e1411","ios":"levelo://app?vid=55ab88c6-7693-4f53-b061-009fb06e1411"},"vehicle_type_id":"4","last_reported":1777148826,"current_range_meters":7200,"station_id":"ce4bgih2rcd13ifvqba0","pricing_plan_id":"cebpf4jnsgd1na2vs0mg"},{"bike_id":"a8efdf94-3910-4fe8-9ec0-bdf906b9c60c","system_id":"levelo_inurba_marseille","lat":43.30951,"lon":5.39033,"is_reserved":false,"is_disabled":false,"rental_uris":{"android":"levelo://app?vid=a8efdf94-3910-4fe8-9ec0-bdf906b9c60c","ios":"levelo://app?vid=a8efdf94-3910-4fe8-9ec0-bdf906b9c60c"},"vehicle_type_id":"4","last_reported":1777148826,"current_range_meters":7200,"station_id":"ce4bgup2rcd13ifvqco0","pricing_plan_id":"cebpf4jnsgd1na2vs0mg"},{"bike_id":"413e4623-e4a6-44c0-8fe0-f06c3e224af8","system_id":"levelo_inurba_marseille","lat":43.31895,"lon":5.36814,"is_reserved":false,"is_disabled":false,"rental_uris":{"android":"levelo://app?vid=413e4623-e4a6-44c0-8fe0-f06c3e224af8","ios":"levelo://app?vid=413e4623-e4a6-44c0-8fe0-f06c3e224af8"},"vehicle_type_id":"4","last_reported":1777148826,"current_range_meters":8000,"station_id":"st_d6o2h0d0559c73evc1b0","pricing_plan_id":"cebpf4jnsgd1na2vs0mg"},{"bike_id":"0cd2fd7c-6402-466e-aa1b-fa186d7a7ed3","system_id":"levelo_inurba_marseille","lat":43.33194,"lon":5.37792,"is_reserved":false,"is_disabled":false,"rental_uris":{"android":"levelo://app?vid=0cd2fd7c-6402-466e-aa1b-fa186d7a7ed3","ios":"levelo://app?vid=0cd2fd7c-6402-466e-aa1b-fa186d7a7ed3"},"vehicle_type_id":"4","last_reported":1777148826,"current_range_meters":8000,"station_id":"","pricing_plan_id":"cebpf4jnsgd1na2vs0mg"},{"bike_id":"7ac59c81-01df-4b8e-9807-86f926b0041a","system_id":"levelo_inurba_marseille","lat":43.28098,"lon":5.39117,"is_reserved":false,"is_disabled":false,"rental_uris":{"android":"levelo://app?vid=7ac59c81-01df-4b8e-9807-86f926b0041a","ios":"levelo://app?vid=7ac59c81-01df-4b8e-9807-86f926b0041a"},"vehicle_type_id":"4","last_reported":1777148826,"current_range_meters":8000,"station_id":"","pricing_plan_id":"cebpf4jnsgd1na2vs0mg"},{"bike_id":"a03ce919-3949-4c06-bbb8-c0f13ba943b2","system_id":"levelo_inurba_marseille","lat":43.25521,"lon":5.37661,"is_reserved":false,"is_disabled":true,"rental_uris":{"android":"levelo://app?vid=a03ce919-3949-4c06-bbb8-c0f13ba943b2","ios":"levelo://app?vid=a03ce919-3949-4c06-bbb8-c0f13ba943b2"},"vehicle_type_id":"4","last_reported":1777148826,"current_range_meters":8000,"station_id":"ce4bhh12rcd13ifvqff0","pricing_plan_id":"cebpf4jnsgd1na2vs0mg"},{"bike_id":"ace34436-51fe-4536-a1f6-cfa009f56977","system_id":"levelo_inurba_marseille","lat":43.33534,"lon":5.37458,"is_reserved":false,"is_disabled":false,"rental_uris":{"android":"levelo://app?vid=ace34436-51fe-4536-a1f6-cfa009f56977","ios":"levelo://app?vid=ace34436-51fe-4536-a1f6-cfa009f56977"},"vehicle_type_id":"4","last_reported":1777148826,"current_range_meters":8000,"station_id":"st_d46tts09ee8s73dlu43g","pricing_plan_id":"cebpf4jnsgd1na2vs0mg"},{"bike_id":"5825174c-c54d-48a7-9e86-0435e1df6c1c","system_id":"levelo_inurba_marseille","lat":43.29191,"lon":5.39316,"is_reserved":false,"is_disabled":false,"rental_uris":{"android":"levelo://app?vid=5825174c-c54d-48a7-9e86-0435e1df6c1c","ios":"levelo://app?vid=5825174c-c54d-48a7-9e86-0435e1df6c1c"},"vehicle_type_id":"4","last_reported":1777148826,"current_range_meters":8000,"station_id":"ce4bh192rcd13ifvqdd0","pricing_plan_id":"cebpf4jnsgd1na2vs0mg"},{"bike_id":"6f2161ad-85c2-45c5-9051-0ac17d6a417c","system_id":"levelo_inurba_marseille","lat":43.29963,"lon":5.38499,"is_reserved":false,"is_disabled":false,"rental_uris":{"android":"levelo://app?vid=6f2161ad-85c2-45c5-9051-0ac17d6a417c","ios":"levelo://app?vid=6f2161ad-85c2-45c5-9051-0ac17d6a417c"},"vehicle_type_id":"4","last_reported":1777148826,"current_range_meters":8000,"station_id":"ce4bgj92rcd13ifvqbd0","pricing_plan_id":"cebpf4jnsgd1na2vs0mg"},{"bike_id":"70c7e508-dee8-4c48-84ef-dd92c8416275","system_id":"levelo_inurba_marseille","lat":43.2416,"lon":5.364,"is_reserved":false,"is_disabled":false,"rental_uris":{"android":"levelo://app?vid=70c7e508-dee8-4c48-84ef-dd92c8416275","ios":"levelo://app?vid=70c7e508-dee8-4c48-84ef-dd92c8416275"},"vehicle_type_id":"4","last_reported":1777148826,"current_range_meters":8000,"station_id":"cpo36qri1sfpv3e86is0","pricing_plan_id":"cebpf4jnsgd1na2vs0mg"},{"bike_id":"0752925b-4cf9-48f5-b1c9-bd312a7f6169","system_id":"levelo_inurba_marseille","lat":43.29973,"lon":5.38502,"is_reserved":false,"is_disabled":false,"rental_uris":{"android":"levelo://app?vid=0752925b-4cf9-48f5-b1c9-bd312a7f6169","ios":"levelo://app?vid=0752925b-4cf9-48f5-b1c9-bd312a7f6169"},"vehicle_type_id":"4","last_reported":1777148826,"current_range_meters":8000,"station_id":"ce4bgj92rcd13ifvqbd0","pricing_plan_id":"cebpf4jnsgd1na2vs0mg"},{"bike_id":"81df374b-78e5-4afd-9272-8119b942b935","system_id":"levelo_inurba_marseille","lat":43.24163,"lon":5.36397,"is_reserved":false,"is_disabled":false,"rental_uris":{"android":"levelo://app?vid=81df374b-78e5-4afd-9272-8119b942b935","ios":"levelo://app?vid=81df374b-78e5-4afd-9272-8119b942b935"},"vehicle_type_id":"4","last_reported":1777148826,"current_range_meters":8000,"station_id":"cpo36qri1sfpv3e86is0","pricing_plan_id":"cebpf4jnsgd1na2vs0mg"},{"bike_id":"06558e5b-846f-4e20-b375-c8972d75dc5a","system_id":"levelo_inurba_marseille","lat":43.27347,"lon":5.43114,"is_reserved":false,"is_disabled":false,"rental_uris":{"android":"levelo://app?vid=06558e5b-846f-4e20-b375-c8972d75dc5a","ios":"levelo://app?vid=06558e5b-846f-4e20-b375-c8972d75dc5a"},"vehicle_type_id":"4","last_reported":1777148826,"current_range_meters":8000,"station_id":"","pricing_plan_id":"cebpf4jnsgd1na2vs0mg"},{"bike_id":"fea5a28c-0167-4a62-9062-e629ed9b3e8f","system_id":"levelo_inurba_marseille","lat":43.28482,"lon":5.48389,"is_reserved":false,"is_disabled":false,"rental_uris":{"android":"levelo://app?vid=fea5a28c-0167-4a62-9062-e629ed9b3e8f","ios":"levelo://app?vid=fea5a28c-0167-4a62-9062-e629ed9b3e8f"},"vehicle_type_id":"4","last_reported":1777148826,"current_range_meters":8000,"station_id":"st_d3svhcjqgbts73a3dn0g","pricing_plan_id":"cebpf4jnsgd1na2vs0mg"},{"bike_id":"be51f0c0-8bc8-4fc3-85f0-5a19b85035de","system_id":"levelo_inurba_marseille","lat":43.31879,"lon":5.40739,"is_reserved":false,"is_disabled":false,"rental_uris":{"android":"levelo://app?vid=be51f0c0-8bc8-4fc3-85f0-5a19b85035de","ios":"levelo://app?vid=be51f0c0-8bc8-4fc3-85f0-5a19b85035de"},"vehicle_type_id":"4","last_reported":1777148826,"current_range_meters":8000,"station_id":"ce4bhq12rcd13ifvqhig","pricing_plan_id":"cebpf4jnsgd1na2vs0mg"},{"bike_id":"dc08dae7-d63e-4327-aa85-c9d769e0f168","system_id":"levelo_inurba_marseille","lat":43.2928,"lon":5.38441,"is_reserved":false,"is_disabled":false,"rental_uris":{"android":"levelo://app?vid=dc08dae7-d63e-4327-aa85-c9d769e0f168","ios":"levelo://app?vid=dc08dae7-d63e-4327-aa85-c9d769e0f168"},"vehicle_type_id":"4","last_reported":1777148826,"current_range_meters":8000,"station_id":"ce4bh692rcd13ifvqea0","pricing_plan_id":"cebpf4jnsgd1na2vs0mg"},{"bike_id":"648bc781-8e68-4ccd-aedc-987a153e904f","system_id":"levelo_inurba_marseille","lat":43.29265,"lon":5.38457,"is_reserved":false,"is_disabled":false,"rental_uris":{"android":"levelo://app?vid=648bc781-8e68-4ccd-aedc-987a153e904f","ios":"levelo://app?vid=648bc781-8e68-4ccd-aedc-987a153e904f"},"vehicle_type_id":"4","last_reported":1777148826,"current_range_meters":8000,"station_id":"ce4bh692rcd13ifvqea0","pricing_plan_id":"cebpf4jnsgd1na2vs0mg"},{"bike_id":"6cd96c3a-8422-42b3-b17f-39740468fd90","system_id":"levelo_inurba_marseille","lat":43.292206,"lon":5.400991,"is_reserved":false,"is_disabled":false,"rental_uris":{"android":"levelo://app?vid=6cd96c3a-8422-42b3-b17f-39740468fd90","ios":"levelo://app?vid=6cd96c3a-8422-42b3-b17f-39740468fd90"},"vehicle_type_id":"4","last_reported":1777148826,"current_range_meters":8000,"station_id":"ce4bgvh2rcd13ifvqcs0","pricing_plan_id":"cebpf4jnsgd1na2vs0mg"},{"bike_id":"2b011dfd-b31a-42cc-be3f-96f7ba6133ca","system_id":"levelo_inurba_marseille","lat":43.30943,"lon":5.39016,"is_reserved":false,"is_disabled":false,"rental_uris":{"android":"levelo://app?vid=2b011dfd-b31a-42cc-be3f-96f7ba6133ca","ios":"levelo://app?vid=2b011dfd-b31a-42cc-be3f-96f7ba6133ca"},"vehicle_type_id":"4","last_reported":1777148826,"current_range_meters":8000,"station_id":"ce4bgup2rcd13ifvqco0","pricing_plan_id":"cebpf4jnsgd1na2vs0mg"},{"bike_id":"f9abfc14-4984-4633-bfe0-edc7f68db5b6","system_id":"levelo_inurba_marseille","lat":43.29306,"lon":5.37441,"is_reserved":false,"is_disabled":false,"rental_uris":{"android":"levelo://app?vid=f9abfc14-4984-4633-bfe0-edc7f68db5b6","ios":"levelo://app?vid=f9abfc14-4984-4633-bfe0-edc7f68db5b6"},"vehicle_type_id":"4","last_reported":1777148826,"current_range_meters":8000,"station_id":"ce4bgi12rcd13ifvqb70","pricing_plan_id":"cebpf4jnsgd1na2vs0mg"},{"bike_id":"7624c497-d4ee-4eb2-94cb-4c71718db41a","system_id":"levelo_inurba_marseille","lat":43.31689,"lon":5.40493,"is_reserved":false,"is_disabled":false,"rental_uris":{"android":"levelo://app?vid=7624c497-d4ee-4eb2-94cb-4c71718db41a","ios":"levelo://app?vid=7624c497-d4ee-4eb2-94cb-4c71718db41a"},"vehicle_type_id":"4","last_reported":1777148826,"current_range_meters":8000,"station_id":"ce4bh012rcd13ifvqd00","pricing_plan_id":"cebpf4jnsgd1na2vs0mg"},{"bike_id":"3ba1478b-abeb-4ad1-83b7-36b5bf0ef775","system_id":"levelo_inurba_marseille","lat":43.29541,"lon":5.38532,"is_reserved":false,"is_disabled":false,"rental_uris":{"android":"levelo://app?vid=3ba1478b-abeb-4ad1-83b7-36b5bf0ef775","ios":"levelo://app?vid=3ba1478b-abeb-4ad1-83b7-36b5bf0ef775"},"vehicle_type_id":"4","last_reported":1777148826,"current_range_meters":8000,"station_id":"ce4bgih2rcd13ifvqba0","pricing_plan_id":"cebpf4jnsgd1na2vs0mg"},{"bike_id":"4504a775-1946-4aac-92b5-5d484d4b09a6","system_id":"levelo_inurba_marseille","lat":43.29549,"lon":5.39012,"is_reserved":false,"is_disabled":false,"rental_uris":{"android":"levelo://app?vid=4504a775-1946-4aac-92b5-5d484d4b09a6","ios":"levelo://app?vid=4504a775-1946-4aac-92b5-5d484d4b09a6"},"vehicle_type_id":"4","last_reported":1777148826,"current_range_meters":8000,"station_id":"ce4bh3p2rcd13ifvqdp0","pricing_plan_id":"cebpf4jnsgd1na2vs0mg"},{"bike_id":"f59c1d5f-cb00-4b2b-85d7-e7937af76e14","system_id":"levelo_inurba_marseille","lat":43.29528,"lon":5.38587,"is_reserved":false,"is_disabled":false,"rental_uris":{"android":"levelo://app?vid=f59c1d5f-cb00-4b2b-85d7-e7937af76e14","ios":"levelo://app?vid=f59c1d5f-cb00-4b2b-85d7-e7937af76e14"},"vehicle_type_id":"4","last_reported":1777148826,"current_range_meters":8000,"station_id":"ce4bgih2rcd13ifvqba0","pricing_plan_id":"cebpf4jnsgd1na2vs0mg"},{"bike_id":"6306de27-ef77-48db-9221-6034e3bf7024","system_id":"levelo_inurba_marseille","lat":43.25594,"lon":5.3822,"is_reserved":false,"is_disabled":false,"rental_uris":{"android":"levelo://app?vid=6306de27-ef77-48db-9221-6034e3bf7024","ios":"levelo://app?vid=6306de27-ef77-48db-9221-6034e3bf7024"},"vehicle_type_id":"4","last_reported":1777148826,"current_range_meters":8000,"station_id":"ce4bhih2rcd13ifvqfs0","pricing_plan_id":"cebpf4jnsgd1na2vs0mg"},{"bike_id":"a79049c7-75e8-40b4-a03c-1481e3f3d7f8","system_id":"levelo_inurba_marseille","lat":43.31993,"lon":5.38156,"is_reserved":false,"is_disabled":false,"rental_uris":{"android":"levelo://app?vid=a79049c7-75e8-40b4-a03c-1481e3f3d7f8","ios":"levelo://app?vid=a79049c7-75e8-40b4-a03c-1481e3f3d7f8"},"vehicle_type_id":"4","last_reported":1777148826,"current_range_meters":8000,"station_id":"ce4bhr12rcd13ifvqhpg","pricing_plan_id":"cebpf4jnsgd1na2vs0mg"},{"bike_id":"1a53a67e-9022-4580-83c0-fc3f72c9ef8d","system_id":"levelo_inurba_marseille","lat":43.2956,"lon":5.38142,"is_reserved":false,"is_disabled":false,"rental_uris":{"android":"levelo://app?vid=1a53a67e-9022-4580-83c0-fc3f72c9ef8d","ios":"levelo://app?vid=1a53a67e-9022-4580-83c0-fc3f72c9ef8d"},"vehicle_type_id":"4","last_reported":1777148826,"current_range_meters":8000,"station_id":"","pricing_plan_id":"cebpf4jnsgd1na2vs0mg"},{"bike_id":"b1c8a738-c60b-4edd-8890-2d432126341c","system_id":"levelo_inurba_marseille","lat":43.31886,"lon":5.40731,"is_reserved":false,"is_disabled":false,"rental_uris":{"android":"levelo://app?vid=b1c8a738-c60b-4edd-8890-2d432126341c","ios":"levelo://app?vid=b1c8a738-c60b-4edd-8890-2d432126341c"},"vehicle_type_id":"4","last_reported":1777148826,"current_range_meters":8000,"station_id":"ce4bhq12rcd13ifvqhig","pricing_plan_id":"cebpf4jnsgd1na2vs0mg"},{"bike_id":"84c8a771-33c9-421f-a5d6-bf9791123e26","system_id":"levelo_inurba_marseille","lat":43.31996,"lon":5.38154,"is_reserved":false,"is_disabled":false,"rental_uris":{"android":"levelo://app?vid=84c8a771-33c9-421f-a5d6-bf9791123e26","ios":"levelo://app?vid=84c8a771-33c9-421f-a5d6-bf9791123e26"},"vehicle_type_id":"4","last_reported":1777148826,"current_range_meters":8400,"station_id":"ce4bhr12rcd13ifvqhpg","pricing_plan_id":"cebpf4jnsgd1na2vs0mg"},{"bike_id":"bfa7c1d6-71d5-4139-8708-a911840c9801","system_id":"levelo_inurba_marseille","lat":43.28496,"lon":5.3854,"is_reserved":false,"is_disabled":true,"rental_uris":{"android":"levelo://app?vid=bfa7c1d6-71d5-4139-8708-a911840c9801","ios":"levelo://app?vid=bfa7c1d6-71d5-4139-8708-a911840c9801"},"vehicle_type_id":"4","last_reported":1777148826,"current_range_meters":8400,"station_id":"ce4bh8p2rcd13ifvqeb0","pricing_plan_id":"cebpf4jnsgd1na2vs0mg"},{"bike_id":"9a7c39d8-ef30-4694-b180-b6fe0a089530","system_id":"levelo_inurba_marseille","lat":43.30134,"lon":5.43105,"is_reserved":false,"is_disabled":false,"rental_uris":{"android":"levelo://app?vid=9a7c39d8-ef30-4694-b180-b6fe0a089530","ios":"levelo://app?vid=9a7c39d8-ef30-4694-b180-b6fe0a089530"},"vehicle_type_id":"4","last_reported":1777148826,"current_range_meters":8400,"station_id":"st_d3js3co5814s73ftftug","pricing_plan_id":"cebpf4jnsgd1na2vs0mg"},{"bike_id":"cdd270f0-5f2f-4bbf-9ea6-e320df8433a0","system_id":"levelo_inurba_marseille","lat":43.29878,"lon":5.38904,"is_reserved":false,"is_disabled":false,"rental_uris":{"android":"levelo://app?vid=cdd270f0-5f2f-4bbf-9ea6-e320df8433a0","ios":"levelo://app?vid=cdd270f0-5f2f-4bbf-9ea6-e320df8433a0"},"vehicle_type_id":"4","last_reported":1777148826,"current_range_meters":8400,"station_id":"ce4bh392rcd13ifvqdl0","pricing_plan_id":"cebpf4jnsgd1na2vs0mg"},{"bike_id":"e7760414-c99e-4edb-8d77-254918982c51","system_id":"levelo_inurba_marseille","lat":43.280813,"lon":5.396654,"is_reserved":false,"is_disabled":false,"rental_uris":{"android":"levelo://app?vid=e7760414-c99e-4edb-8d77-254918982c51","ios":"levelo://app?vid=e7760414-c99e-4edb-8d77-254918982c51"},"vehicle_type_id":"4","last_reported":1777148826,"current_range_meters":8400,"station_id":"ce4bho12rcd13ifvqh2g","pricing_plan_id":"cebpf4jnsgd1na2vs0mg"},{"bike_id":"3fa7592e-8952-48af-b1a9-040caea31ee9","system_id":"levelo_inurba_marseille","lat":43.29529,"lon":5.38559,"is_reserved":false,"is_disabled":false,"rental_uris":{"android":"levelo://app?vid=3fa7592e-8952-48af-b1a9-040caea31ee9","ios":"levelo://app?vid=3fa7592e-8952-48af-b1a9-040caea31ee9"},"vehicle_type_id":"4","last_reported":1777148826,"current_range_meters":8400,"station_id":"ce4bgih2rcd13ifvqba0","pricing_plan_id":"cebpf4jnsgd1na2vs0mg"},{"bike_id":"5687bcf3-d7dc-457c-91e4-c37491638fcd","system_id":"levelo_inurba_marseille","lat":43.24179,"lon":5.36406,"is_reserved":false,"is_disabled":false,"rental_uris":{"android":"levelo://app?vid=5687bcf3-d7dc-457c-91e4-c37491638fcd","ios":"levelo://app?vid=5687bcf3-d7dc-457c-91e4-c37491638fcd"},"vehicle_type_id":"4","last_reported":1777148826,"current_range_meters":8400,"station_id":"cpo36qri1sfpv3e86is0","pricing_plan_id":"cebpf4jnsgd1na2vs0mg"},{"bike_id":"bf79c585-92c4-4180-bf4d-de82ff559306","system_id":"levelo_inurba_marseille","lat":43.30579,"lon":5.39366,"is_reserved":false,"is_disabled":false,"rental_uris":{"android":"levelo://app?vid=bf79c585-92c4-4180-bf4d-de82ff559306","ios":"levelo://app?vid=bf79c585-92c4-4180-bf4d-de82ff559306"},"vehicle_type_id":"4","last_reported":1777148826,"current_range_meters":8400,"station_id":"ce4bh0p2rcd13ifvqd80","pricing_plan_id":"cebpf4jnsgd1na2vs0mg"},{"bike_id":"70578acc-b935-4f77-be23-bcde1db99b26","system_id":"levelo_inurba_marseille","lat":43.29794,"lon":5.38155,"is_reserved":false,"is_disabled":false,"rental_uris":{"android":"levelo://app?vid=70578acc-b935-4f77-be23-bcde1db99b26","ios":"levelo://app?vid=70578acc-b935-4f77-be23-bcde1db99b26"},"vehicle_type_id":"4","last_reported":1777148826,"current_range_meters":8400,"station_id":"ce4bgip2rcd13ifvqbb0","pricing_plan_id":"cebpf4jnsgd1na2vs0mg"},{"bike_id":"62bde582-a935-433c-991e-650c3253ecca","system_id":"levelo_inurba_marseille","lat":43.29262,"lon":5.38437,"is_reserved":false,"is_disabled":false,"rental_uris":{"android":"levelo://app?vid=62bde582-a935-433c-991e-650c3253ecca","ios":"levelo://app?vid=62bde582-a935-433c-991e-650c3253ecca"},"vehicle_type_id":"4","last_reported":1777148826,"current_range_meters":8400,"station_id":"ce4bh692rcd13ifvqea0","pricing_plan_id":"cebpf4jnsgd1na2vs0mg"},{"bike_id":"9a179763-1687-4b2b-8886-1b18924799ad","system_id":"levelo_inurba_marseille","lat":43.25878,"lon":5.39887,"is_reserved":false,"is_disabled":false,"rental_uris":{"android":"levelo://app?vid=9a179763-1687-4b2b-8886-1b18924799ad","ios":"levelo://app?vid=9a179763-1687-4b2b-8886-1b18924799ad"},"vehicle_type_id":"4","last_reported":1777148826,"current_range_meters":8400,"station_id":"ce4bhl92rcd13ifvqghg","pricing_plan_id":"cebpf4jnsgd1na2vs0mg"},{"bike_id":"43df043b-1577-46da-b387-d2a85f0af5d9","system_id":"levelo_inurba_marseille","lat":43.28937,"lon":5.36657,"is_reserved":false,"is_disabled":false,"rental_uris":{"android":"levelo://app?vid=43df043b-1577-46da-b387-d2a85f0af5d9","ios":"levelo://app?vid=43df043b-1577-46da-b387-d2a85f0af5d9"},"vehicle_type_id":"4","last_reported":1777148826,"current_range_meters":8400,"station_id":"ce4bhap2rcd13ifvqek0","pricing_plan_id":"cebpf4jnsgd1na2vs0mg"},{"bike_id":"dcf61b0f-3f1b-4f12-9059-2249355f49f7","system_id":"levelo_inurba_marseille","lat":43.30245,"lon":5.40049,"is_reserved":false,"is_disabled":false,"rental_uris":{"android":"levelo://app?vid=dcf61b0f-3f1b-4f12-9059-2249355f49f7","ios":"levelo://app?vid=dcf61b0f-3f1b-4f12-9059-2249355f49f7"},"vehicle_type_id":"4","last_reported":1777148826,"current_range_meters":8400,"station_id":"ce4bgvh2rcd13ifvqcs0","pricing_plan_id":"cebpf4jnsgd1na2vs0mg"},{"bike_id":"9cee4e90-2861-42ab-8f88-f2f3c8ba8048","system_id":"levelo_inurba_marseille","lat":43.31527,"lon":5.38044,"is_reserved":false,"is_disabled":false,"rental_uris":{"android":"levelo://app?vid=9cee4e90-2861-42ab-8f88-f2f3c8ba8048","ios":"levelo://app?vid=9cee4e90-2861-42ab-8f88-f2f3c8ba8048"},"vehicle_type_id":"4","last_reported":1777148826,"current_range_meters":8400,"station_id":"ce4bhsp2rcd13ifvqi50","pricing_plan_id":"cebpf4jnsgd1na2vs0mg"},{"bike_id":"2ac72f42-4414-46dd-8ec4-bd5b970d98e0","system_id":"levelo_inurba_marseille","lat":43.30947,"lon":5.39029,"is_reserved":false,"is_disabled":false,"rental_uris":{"android":"levelo://app?vid=2ac72f42-4414-46dd-8ec4-bd5b970d98e0","ios":"levelo://app?vid=2ac72f42-4414-46dd-8ec4-bd5b970d98e0"},"vehicle_type_id":"4","last_reported":1777148826,"current_range_meters":8400,"station_id":"ce4bgup2rcd13ifvqco0","pricing_plan_id":"cebpf4jnsgd1na2vs0mg"},{"bike_id":"9a379160-5370-465d-860e-01e07373ee69","system_id":"levelo_inurba_marseille","lat":43.29539,"lon":5.38541,"is_reserved":false,"is_disabled":false,"rental_uris":{"android":"levelo://app?vid=9a379160-5370-465d-860e-01e07373ee69","ios":"levelo://app?vid=9a379160-5370-465d-860e-01e07373ee69"},"vehicle_type_id":"4","last_reported":1777148826,"current_range_meters":8400,"station_id":"ce4bgih2rcd13ifvqba0","pricing_plan_id":"cebpf4jnsgd1na2vs0mg"},{"bike_id":"2add60f7-084e-4d80-986e-19eb092840e9","system_id":"levelo_inurba_marseille","lat":43.30936,"lon":5.39048,"is_reserved":false,"is_disabled":false,"rental_uris":{"android":"levelo://app?vid=2add60f7-084e-4d80-986e-19eb092840e9","ios":"levelo://app?vid=2add60f7-084e-4d80-986e-19eb092840e9"},"vehicle_type_id":"4","last_reported":1777148826,"current_range_meters":8400,"station_id":"ce4bgup2rcd13ifvqco0","pricing_plan_id":"cebpf4jnsgd1na2vs0mg"},{"bike_id":"2524bfe0-0be6-4026-a2a4-1135765d04bd","system_id":"levelo_inurba_marseille","lat":43.29712,"lon":5.36611,"is_reserved":false,"is_disabled":false,"rental_uris":{"android":"levelo://app?vid=2524bfe0-0be6-4026-a2a4-1135765d04bd","ios":"levelo://app?vid=2524bfe0-0be6-4026-a2a4-1135765d04bd"},"vehicle_type_id":"4","last_reported":1777148826,"current_range_meters":8400,"station_id":"ce4bgn12rcd13ifvqbt0","pricing_plan_id":"cebpf4jnsgd1na2vs0mg"},{"bike_id":"d635b6a9-26d7-4024-944b-3b30f7178297","system_id":"levelo_inurba_marseille","lat":43.24044,"lon":5.36246,"is_reserved":false,"is_disabled":false,"rental_uris":{"android":"levelo://app?vid=d635b6a9-26d7-4024-944b-3b30f7178297","ios":"levelo://app?vid=d635b6a9-26d7-4024-944b-3b30f7178297"},"vehicle_type_id":"4","last_reported":1777148826,"current_range_meters":8400,"station_id":"","pricing_plan_id":"cebpf4jnsgd1na2vs0mg"},{"bike_id":"e79bde01-2f2e-4687-9114-2908a926683e","system_id":"levelo_inurba_marseille","lat":43.33585,"lon":5.37412,"is_reserved":false,"is_disabled":false,"rental_uris":{"android":"levelo://app?vid=e79bde01-2f2e-4687-9114-2908a926683e","ios":"levelo://app?vid=e79bde01-2f2e-4687-9114-2908a926683e"},"vehicle_type_id":"4","last_reported":1777148826,"current_range_meters":8400,"station_id":"st_d46tts09ee8s73dlu43g","pricing_plan_id":"cebpf4jnsgd1na2vs0mg"},{"bike_id":"09b781c5-07ce-4225-9496-87b04af98e8a","system_id":"levelo_inurba_marseille","lat":43.31897,"lon":5.36807,"is_reserved":false,"is_disabled":false,"rental_uris":{"android":"levelo://app?vid=09b781c5-07ce-4225-9496-87b04af98e8a","ios":"levelo://app?vid=09b781c5-07ce-4225-9496-87b04af98e8a"},"vehicle_type_id":"4","last_reported":1777148826,"current_range_meters":8400,"station_id":"st_d6o2h0d0559c73evc1b0","pricing_plan_id":"cebpf4jnsgd1na2vs0mg"},{"bike_id":"0fb5bdad-cf89-4b49-8199-c24f462ae13f","system_id":"levelo_inurba_marseille","lat":43.2987,"lon":5.38907,"is_reserved":false,"is_disabled":false,"rental_uris":{"android":"levelo://app?vid=0fb5bdad-cf89-4b49-8199-c24f462ae13f","ios":"levelo://app?vid=0fb5bdad-cf89-4b49-8199-c24f462ae13f"},"vehicle_type_id":"4","last_reported":1777148826,"current_range_meters":8400,"station_id":"ce4bh392rcd13ifvqdl0","pricing_plan_id":"cebpf4jnsgd1na2vs0mg"},{"bike_id":"05a33fd5-e436-4ad0-a907-865e546c41d5","system_id":"levelo_inurba_marseille","lat":43.22554,"lon":5.41613,"is_reserved":false,"is_disabled":true,"rental_uris":{"android":"levelo://app?vid=05a33fd5-e436-4ad0-a907-865e546c41d5","ios":"levelo://app?vid=05a33fd5-e436-4ad0-a907-865e546c41d5"},"vehicle_type_id":"4","last_reported":1777148826,"current_range_meters":8400,"station_id":"","pricing_plan_id":"cebpf4jnsgd1na2vs0mg"},{"bike_id":"467db93d-eefd-4485-8612-a63fb0c68f24","system_id":"levelo_inurba_marseille","lat":43.24563,"lon":5.39531,"is_reserved":false,"is_disabled":false,"rental_uris":{"android":"levelo://app?vid=467db93d-eefd-4485-8612-a63fb0c68f24","ios":"levelo://app?vid=467db93d-eefd-4485-8612-a63fb0c68f24"},"vehicle_type_id":"4","last_reported":1777148826,"current_range_meters":8400,"station_id":"ce4bhlp2rcd13ifvqgjg","pricing_plan_id":"cebpf4jnsgd1na2vs0mg"},{"bike_id":"c2cf8898-e563-4eca-8255-6d7086f1310e","system_id":"levelo_inurba_marseille","lat":43.2971,"lon":5.36615,"is_reserved":false,"is_disabled":false,"rental_uris":{"android":"levelo://app?vid=c2cf8898-e563-4eca-8255-6d7086f1310e","ios":"levelo://app?vid=c2cf8898-e563-4eca-8255-6d7086f1310e"},"vehicle_type_id":"4","last_reported":1777148826,"current_range_meters":8400,"station_id":"ce4bgn12rcd13ifvqbt0","pricing_plan_id":"cebpf4jnsgd1na2vs0mg"},{"bike_id":"91b2cdff-505e-4907-8f35-d1cdbdf6a06b","system_id":"levelo_inurba_marseille","lat":43.28613,"lon":5.35103,"is_reserved":false,"is_disabled":false,"rental_uris":{"android":"levelo://app?vid=91b2cdff-505e-4907-8f35-d1cdbdf6a06b","ios":"levelo://app?vid=91b2cdff-505e-4907-8f35-d1cdbdf6a06b"},"vehicle_type_id":"4","last_reported":1777148826,"current_range_meters":8400,"station_id":"ce4bhch2rcd13ifvqeug","pricing_plan_id":"cebpf4jnsgd1na2vs0mg"},{"bike_id":"f33c6c9d-346a-4c73-9b31-f3ca6fe92254","system_id":"levelo_inurba_marseille","lat":43.29612,"lon":5.37689,"is_reserved":false,"is_disabled":true,"rental_uris":{"android":"levelo://app?vid=f33c6c9d-346a-4c73-9b31-f3ca6fe92254","ios":"levelo://app?vid=f33c6c9d-346a-4c73-9b31-f3ca6fe92254"},"vehicle_type_id":"4","last_reported":1777148826,"current_range_meters":8400,"station_id":"ce4bgi92rcd13ifvqb90","pricing_plan_id":"cebpf4jnsgd1na2vs0mg"},{"bike_id":"867e4efb-03e8-466f-a027-d873140a375d","system_id":"levelo_inurba_marseille","lat":43.24801,"lon":5.37468,"is_reserved":false,"is_disabled":false,"rental_uris":{"android":"levelo://app?vid=867e4efb-03e8-466f-a027-d873140a375d","ios":"levelo://app?vid=867e4efb-03e8-466f-a027-d873140a375d"},"vehicle_type_id":"4","last_reported":1777148826,"current_range_meters":8400,"station_id":"ce4bhgh2rcd13ifvqfb0","pricing_plan_id":"cebpf4jnsgd1na2vs0mg"},{"bike_id":"ddca4cb9-ef88-4111-a581-55934563cbb8","system_id":"levelo_inurba_marseille","lat":43.27072,"lon":5.42275,"is_reserved":false,"is_disabled":false,"rental_uris":{"android":"levelo://app?vid=ddca4cb9-ef88-4111-a581-55934563cbb8","ios":"levelo://app?vid=ddca4cb9-ef88-4111-a581-55934563cbb8"},"vehicle_type_id":"4","last_reported":1777148826,"current_range_meters":8800,"station_id":"ce4bhk92rcd13ifvqgb0","pricing_plan_id":"cebpf4jnsgd1na2vs0mg"},{"bike_id":"f3121592-9e16-4c43-87b9-7b7a53cd3086","system_id":"levelo_inurba_marseille","lat":43.29235,"lon":5.38423,"is_reserved":false,"is_disabled":false,"rental_uris":{"android":"levelo://app?vid=f3121592-9e16-4c43-87b9-7b7a53cd3086","ios":"levelo://app?vid=f3121592-9e16-4c43-87b9-7b7a53cd3086"},"vehicle_type_id":"4","last_reported":1777148826,"current_range_meters":8800,"station_id":"ce4bh692rcd13ifvqea0","pricing_plan_id":"cebpf4jnsgd1na2vs0mg"},{"bike_id":"f54ccc15-12bb-43a9-bcae-01eb62b17984","system_id":"levelo_inurba_marseille","lat":43.24804,"lon":5.37458,"is_reserved":false,"is_disabled":false,"rental_uris":{"android":"levelo://app?vid=f54ccc15-12bb-43a9-bcae-01eb62b17984","ios":"levelo://app?vid=f54ccc15-12bb-43a9-bcae-01eb62b17984"},"vehicle_type_id":"4","last_reported":1777148826,"current_range_meters":8800,"station_id":"ce4bhgh2rcd13ifvqfb0","pricing_plan_id":"cebpf4jnsgd1na2vs0mg"},{"bike_id":"e6e0181d-d51b-42d7-93b1-7e8f4d00629c","system_id":"levelo_inurba_marseille","lat":43.29828,"lon":5.42026,"is_reserved":false,"is_disabled":true,"rental_uris":{"android":"levelo://app?vid=e6e0181d-d51b-42d7-93b1-7e8f4d00629c","ios":"levelo://app?vid=e6e0181d-d51b-42d7-93b1-7e8f4d00629c"},"vehicle_type_id":"4","last_reported":1777148826,"current_range_meters":8800,"station_id":"","pricing_plan_id":"cebpf4jnsgd1na2vs0mg"},{"bike_id":"02f0be79-9e0f-48bd-9a41-58224f97d284","system_id":"levelo_inurba_marseille","lat":43.30936,"lon":5.40135,"is_reserved":false,"is_disabled":false,"rental_uris":{"android":"levelo://app?vid=02f0be79-9e0f-48bd-9a41-58224f97d284","ios":"levelo://app?vid=02f0be79-9e0f-48bd-9a41-58224f97d284"},"vehicle_type_id":"4","last_reported":1777148826,"current_range_meters":8800,"station_id":"ce4bgvp2rcd13ifvqct0","pricing_plan_id":"cebpf4jnsgd1na2vs0mg"},{"bike_id":"5df1bb7d-008c-431a-a946-48729d74cd88","system_id":"levelo_inurba_marseille","lat":43.28841,"lon":5.35886,"is_reserved":false,"is_disabled":false,"rental_uris":{"android":"levelo://app?vid=5df1bb7d-008c-431a-a946-48729d74cd88","ios":"levelo://app?vid=5df1bb7d-008c-431a-a946-48729d74cd88"},"vehicle_type_id":"4","last_reported":1777148826,"current_range_meters":8800,"station_id":"ce4bhb12rcd13ifvqem0","pricing_plan_id":"cebpf4jnsgd1na2vs0mg"},{"bike_id":"d0d29561-5aac-4540-9fd8-4ef61a6610e0","system_id":"levelo_inurba_marseille","lat":43.29211,"lon":5.36056,"is_reserved":false,"is_disabled":true,"rental_uris":{"android":"levelo://app?vid=d0d29561-5aac-4540-9fd8-4ef61a6610e0","ios":"levelo://app?vid=d0d29561-5aac-4540-9fd8-4ef61a6610e0"},"vehicle_type_id":"4","last_reported":1777148826,"current_range_meters":8800,"station_id":"ce4bhbh2rcd13ifvqeqg","pricing_plan_id":"cebpf4jnsgd1na2vs0mg"},{"bike_id":"45cd9781-7f1f-41b5-bb2f-c8bfe3433986","system_id":"levelo_inurba_marseille","lat":43.29543,"lon":5.38514,"is_reserved":false,"is_disabled":false,"rental_uris":{"android":"levelo://app?vid=45cd9781-7f1f-41b5-bb2f-c8bfe3433986","ios":"levelo://app?vid=45cd9781-7f1f-41b5-bb2f-c8bfe3433986"},"vehicle_type_id":"4","last_reported":1777148826,"current_range_meters":8800,"station_id":"ce4bgih2rcd13ifvqba0","pricing_plan_id":"cebpf4jnsgd1na2vs0mg"},{"bike_id":"fda983b3-301e-40f3-bb07-e5c67ab620e4","system_id":"levelo_inurba_marseille","lat":43.25081,"lon":5.40463,"is_reserved":false,"is_disabled":false,"rental_uris":{"android":"levelo://app?vid=fda983b3-301e-40f3-bb07-e5c67ab620e4","ios":"levelo://app?vid=fda983b3-301e-40f3-bb07-e5c67ab620e4"},"vehicle_type_id":"4","last_reported":1777148826,"current_range_meters":8800,"station_id":"","pricing_plan_id":"cebpf4jnsgd1na2vs0mg"},{"bike_id":"488bf401-74f7-4dcc-8384-b9d2ae512400","system_id":"levelo_inurba_marseille","lat":43.279643,"lon":5.387395,"is_reserved":false,"is_disabled":false,"rental_uris":{"android":"levelo://app?vid=488bf401-74f7-4dcc-8384-b9d2ae512400","ios":"levelo://app?vid=488bf401-74f7-4dcc-8384-b9d2ae512400"},"vehicle_type_id":"4","last_reported":1777148826,"current_range_meters":8800,"station_id":"ce4bhg12rcd13ifvqf80","pricing_plan_id":"cebpf4jnsgd1na2vs0mg"},{"bike_id":"4781501a-e27c-45fb-a127-aab59089b700","system_id":"levelo_inurba_marseille","lat":43.2954,"lon":5.38532,"is_reserved":false,"is_disabled":false,"rental_uris":{"android":"levelo://app?vid=4781501a-e27c-45fb-a127-aab59089b700","ios":"levelo://app?vid=4781501a-e27c-45fb-a127-aab59089b700"},"vehicle_type_id":"4","last_reported":1777148826,"current_range_meters":8800,"station_id":"ce4bgih2rcd13ifvqba0","pricing_plan_id":"cebpf4jnsgd1na2vs0mg"},{"bike_id":"833d7be3-421b-4c5f-bc44-1a51dc01aed7","system_id":"levelo_inurba_marseille","lat":43.29698,"lon":5.37251,"is_reserved":false,"is_disabled":true,"rental_uris":{"android":"levelo://app?vid=833d7be3-421b-4c5f-bc44-1a51dc01aed7","ios":"levelo://app?vid=833d7be3-421b-4c5f-bc44-1a51dc01aed7"},"vehicle_type_id":"4","last_reported":1777148826,"current_range_meters":8800,"station_id":"ce4bgk12rcd13ifvqbj0","pricing_plan_id":"cebpf4jnsgd1na2vs0mg"},{"bike_id":"4640f13f-54c4-4538-a735-4dbfb8b97125","system_id":"levelo_inurba_marseille","lat":43.31227,"lon":5.36849,"is_reserved":false,"is_disabled":false,"rental_uris":{"android":"levelo://app?vid=4640f13f-54c4-4538-a735-4dbfb8b97125","ios":"levelo://app?vid=4640f13f-54c4-4538-a735-4dbfb8b97125"},"vehicle_type_id":"4","last_reported":1777148826,"current_range_meters":8800,"station_id":"ce4bgl92rcd13ifvqbq0","pricing_plan_id":"cebpf4jnsgd1na2vs0mg"},{"bike_id":"eb5e2c76-35f3-4d25-b80b-4c84d4f1d0c2","system_id":"levelo_inurba_marseille","lat":43.29827,"lon":5.44039,"is_reserved":false,"is_disabled":false,"rental_uris":{"android":"levelo://app?vid=eb5e2c76-35f3-4d25-b80b-4c84d4f1d0c2","ios":"levelo://app?vid=eb5e2c76-35f3-4d25-b80b-4c84d4f1d0c2"},"vehicle_type_id":"4","last_reported":1777148826,"current_range_meters":8800,"station_id":"st_d3jp68qikq2c7381ktn0","pricing_plan_id":"cebpf4jnsgd1na2vs0mg"},{"bike_id":"c59be3d3-cf96-4d7a-8c29-fb9caa097bc9","system_id":"levelo_inurba_marseille","lat":43.30943,"lon":5.39033,"is_reserved":false,"is_disabled":false,"rental_uris":{"android":"levelo://app?vid=c59be3d3-cf96-4d7a-8c29-fb9caa097bc9","ios":"levelo://app?vid=c59be3d3-cf96-4d7a-8c29-fb9caa097bc9"},"vehicle_type_id":"4","last_reported":1777148826,"current_range_meters":8800,"station_id":"ce4bgup2rcd13ifvqco0","pricing_plan_id":"cebpf4jnsgd1na2vs0mg"},{"bike_id":"5916fb17-eefe-40ca-a862-4c2ab3df0a2d","system_id":"levelo_inurba_marseille","lat":43.29271,"lon":5.38447,"is_reserved":false,"is_disabled":false,"rental_uris":{"android":"levelo://app?vid=5916fb17-eefe-40ca-a862-4c2ab3df0a2d","ios":"levelo://app?vid=5916fb17-eefe-40ca-a862-4c2ab3df0a2d"},"vehicle_type_id":"4","last_reported":1777148826,"current_range_meters":8800,"station_id":"ce4bh692rcd13ifvqea0","pricing_plan_id":"cebpf4jnsgd1na2vs0mg"},{"bike_id":"566d96b8-5e9f-424c-a211-21ad768be894","system_id":"levelo_inurba_marseille","lat":43.28534,"lon":5.441,"is_reserved":false,"is_disabled":false,"rental_uris":{"android":"levelo://app?vid=566d96b8-5e9f-424c-a211-21ad768be894","ios":"levelo://app?vid=566d96b8-5e9f-424c-a211-21ad768be894"},"vehicle_type_id":"4","last_reported":1777148826,"current_range_meters":9200,"station_id":"st_d3j3df2ikq2c7380ej80","pricing_plan_id":"cebpf4jnsgd1na2vs0mg"},{"bike_id":"5fdff1d7-b2d7-4e39-ad7f-00ed09411d1d","system_id":"levelo_inurba_marseille","lat":43.285,"lon":5.48375,"is_reserved":false,"is_disabled":false,"rental_uris":{"android":"levelo://app?vid=5fdff1d7-b2d7-4e39-ad7f-00ed09411d1d","ios":"levelo://app?vid=5fdff1d7-b2d7-4e39-ad7f-00ed09411d1d"},"vehicle_type_id":"4","last_reported":1777148826,"current_range_meters":9200,"station_id":"st_d3svhcjqgbts73a3dn0g","pricing_plan_id":"cebpf4jnsgd1na2vs0mg"},{"bike_id":"9ed79d15-8163-4691-940c-f05eced27ce3","system_id":"levelo_inurba_marseille","lat":43.29568,"lon":5.39971,"is_reserved":false,"is_disabled":false,"rental_uris":{"android":"levelo://app?vid=9ed79d15-8163-4691-940c-f05eced27ce3","ios":"levelo://app?vid=9ed79d15-8163-4691-940c-f05eced27ce3"},"vehicle_type_id":"4","last_reported":1777148826,"current_range_meters":9200,"station_id":"ce4bh312rcd13ifvqdj0","pricing_plan_id":"cebpf4jnsgd1na2vs0mg"},{"bike_id":"757fdfcb-45d7-4c45-8e18-f9ab346e8260","system_id":"levelo_inurba_marseille","lat":43.2464,"lon":5.39804,"is_reserved":false,"is_disabled":false,"rental_uris":{"android":"levelo://app?vid=757fdfcb-45d7-4c45-8e18-f9ab346e8260","ios":"levelo://app?vid=757fdfcb-45d7-4c45-8e18-f9ab346e8260"},"vehicle_type_id":"4","last_reported":1777148826,"current_range_meters":9200,"station_id":"","pricing_plan_id":"cebpf4jnsgd1na2vs0mg"},{"bike_id":"4ec5a661-8125-4084-83da-8f0593c06d4f","system_id":"levelo_inurba_marseille","lat":43.22933,"lon":5.35372,"is_reserved":false,"is_disabled":false,"rental_uris":{"android":"levelo://app?vid=4ec5a661-8125-4084-83da-8f0593c06d4f","ios":"levelo://app?vid=4ec5a661-8125-4084-83da-8f0593c06d4f"},"vehicle_type_id":"4","last_reported":1777148826,"current_range_meters":9200,"station_id":"cpo3532slgdg3j2ikp40","pricing_plan_id":"cebpf4jnsgd1na2vs0mg"},{"bike_id":"d84dad1f-3355-427c-a81e-a3f872caa973","system_id":"levelo_inurba_marseille","lat":43.28693,"lon":5.46676,"is_reserved":false,"is_disabled":false,"rental_uris":{"android":"levelo://app?vid=d84dad1f-3355-427c-a81e-a3f872caa973","ios":"levelo://app?vid=d84dad1f-3355-427c-a81e-a3f872caa973"},"vehicle_type_id":"4","last_reported":1777148826,"current_range_meters":9200,"station_id":"st_d6tc3vkotcvc738tfjhg","pricing_plan_id":"cebpf4jnsgd1na2vs0mg"},{"bike_id":"f1986b7d-1c9a-4323-bf87-5e9576d20808","system_id":"levelo_inurba_marseille","lat":43.30952,"lon":5.39025,"is_reserved":false,"is_disabled":false,"rental_uris":{"android":"levelo://app?vid=f1986b7d-1c9a-4323-bf87-5e9576d20808","ios":"levelo://app?vid=f1986b7d-1c9a-4323-bf87-5e9576d20808"},"vehicle_type_id":"4","last_reported":1777148826,"current_range_meters":9200,"station_id":"ce4bgup2rcd13ifvqco0","pricing_plan_id":"cebpf4jnsgd1na2vs0mg"},{"bike_id":"26d26955-b302-4311-88a8-057f7b19117a","system_id":"levelo_inurba_marseille","lat":43.29652,"lon":5.36063,"is_reserved":false,"is_disabled":false,"rental_uris":{"android":"levelo://app?vid=26d26955-b302-4311-88a8-057f7b19117a","ios":"levelo://app?vid=26d26955-b302-4311-88a8-057f7b19117a"},"vehicle_type_id":"4","last_reported":1777148826,"current_range_meters":9200,"station_id":"","pricing_plan_id":"cebpf4jnsgd1na2vs0mg"},