{"last_updated":1778998300,"ttl":60,"version":"2.2","data":{"bikes":[{"bike_id":"ff5af636-5e8f-4fe0-a7d9-70a25d86e069","system_id":"levelo_inurba_marseille","lat":43.2119,"lon":5.35032,"is_reserved":false,"is_disabled":false,"rental_uris":{"android":"levelo://app?vid=ff5af636-5e8f-4fe0-a7d9-70a25d86e069","ios":"levelo://app?vid=ff5af636-5e8f-4fe0-a7d9-70a25d86e069"},"vehicle_type_id":"4","last_reported":1778998301,"current_range_meters":2800,"station_id":"st_cvj6sg6p6f1abm77japg","pricing_plan_id":"cebpf4jnsgd1na2vs0mg"},{"bike_id":"23ecd78c-cd67-4d96-a473-8acd3218fef4","system_id":"levelo_inurba_marseille","lat":43.29195,"lon":5.35798,"is_reserved":false,"is_disabled":true,"rental_uris":{"android":"levelo://app?vid=23ecd78c-cd67-4d96-a473-8acd3218fef4","ios":"levelo://app?vid=23ecd78c-cd67-4d96-a473-8acd3218fef4"},"vehicle_type_id":"4","last_reported":1778998301,"current_range_meters":2800,"station_id":"ce4bhb12rcd13ifvqel0","pricing_plan_id":"cebpf4jnsgd1na2vs0mg"},{"bike_id":"0d2553ed-3cf3-4977-960a-330b52cc5f53","system_id":"levelo_inurba_marseille","lat":43.25196,"lon":5.38192,"is_reserved":false,"is_disabled":false,"rental_uris":{"android":"levelo://app?vid=0d2553ed-3cf3-4977-960a-330b52cc5f53","ios":"levelo://app?vid=0d2553ed-3cf3-4977-960a-330b52cc5f53"},"vehicle_type_id":"4","last_reported":1778998301,"current_range_meters":2800,"station_id":"","pricing_plan_id":"cebpf4jnsgd1na2vs0mg"},{"bike_id":"8e9e3a50-d8b1-4ff9-876a-6fdf349604d8","system_id":"levelo_inurba_marseille","lat":43.24804,"lon":5.37456,"is_reserved":false,"is_disabled":false,"rental_uris":{"android":"levelo://app?vid=8e9e3a50-d8b1-4ff9-876a-6fdf349604d8","ios":"levelo://app?vid=8e9e3a50-d8b1-4ff9-876a-6fdf349604d8"},"vehicle_type_id":"4","last_reported":1778998301,"current_range_meters":2800,"station_id":"ce4bhgh2rcd13ifvqfb0","pricing_plan_id":"cebpf4jnsgd1na2vs0mg"},{"bike_id":"0b136150-dacf-42c6-8e78-6635d1e50072","system_id":"levelo_inurba_marseille","lat":43.309352,"lon":5.401415,"is_reserved":false,"is_disabled":false,"rental_uris":{"android":"levelo://app?vid=0b136150-dacf-42c6-8e78-6635d1e50072","ios":"levelo://app?vid=0b136150-dacf-42c6-8e78-6635d1e50072"},"vehicle_type_id":"4","last_reported":1778998301,"current_range_meters":2800,"station_id":"","pricing_plan_id":"cebpf4jnsgd1na2vs0mg"},{"bike_id":"dea70116-e014-4092-9d52-0a57f118b7a6","system_id":"levelo_inurba_marseille","lat":43.24812,"lon":5.37475,"is_reserved":false,"is_disabled":false,"rental_uris":{"android":"levelo://app?vid=dea70116-e014-4092-9d52-0a57f118b7a6","ios":"levelo://app?vid=dea70116-e014-4092-9d52-0a57f118b7a6"},"vehicle_type_id":"4","last_reported":1778998301,"current_range_meters":2800,"station_id":"ce4bhgh2rcd13ifvqfb0","pricing_plan_id":"cebpf4jnsgd1na2vs0mg"},{"bike_id":"b99255d8-2cb4-4c40-80a8-f34ddf79c7aa","system_id":"levelo_inurba_marseille","lat":43.33536,"lon":5.37451,"is_reserved":false,"is_disabled":false,"rental_uris":{"android":"levelo://app?vid=b99255d8-2cb4-4c40-80a8-f34ddf79c7aa","ios":"levelo://app?vid=b99255d8-2cb4-4c40-80a8-f34ddf79c7aa"},"vehicle_type_id":"4","last_reported":1778998301,"current_range_meters":2800,"station_id":"st_d46tts09ee8s73dlu43g","pricing_plan_id":"cebpf4jnsgd1na2vs0mg"},{"bike_id":"12ac99ca-e92c-43c8-b5e0-391e3a0812d9","system_id":"levelo_inurba_marseille","lat":43.30929,"lon":5.40146,"is_reserved":false,"is_disabled":false,"rental_uris":{"android":"levelo://app?vid=12ac99ca-e92c-43c8-b5e0-391e3a0812d9","ios":"levelo://app?vid=12ac99ca-e92c-43c8-b5e0-391e3a0812d9"},"vehicle_type_id":"4","last_reported":1778998301,"current_range_meters":2800,"station_id":"ce4bgvp2rcd13ifvqct0","pricing_plan_id":"cebpf4jnsgd1na2vs0mg"},{"bike_id":"46f0e03e-168f-4cea-861f-f09741dc5437","system_id":"levelo_inurba_marseille","lat":43.25569,"lon":5.38225,"is_reserved":false,"is_disabled":false,"rental_uris":{"android":"levelo://app?vid=46f0e03e-168f-4cea-861f-f09741dc5437","ios":"levelo://app?vid=46f0e03e-168f-4cea-861f-f09741dc5437"},"vehicle_type_id":"4","last_reported":1778998301,"current_range_meters":3200,"station_id":"ce4bhih2rcd13ifvqfs0","pricing_plan_id":"cebpf4jnsgd1na2vs0mg"},{"bike_id":"bfb785d9-997f-42c9-aa94-998d781d83ff","system_id":"levelo_inurba_marseille","lat":43.29883,"lon":5.3973,"is_reserved":false,"is_disabled":false,"rental_uris":{"android":"levelo://app?vid=bfb785d9-997f-42c9-aa94-998d781d83ff","ios":"levelo://app?vid=bfb785d9-997f-42c9-aa94-998d781d83ff"},"vehicle_type_id":"4","last_reported":1778998301,"current_range_meters":3200,"station_id":"ce4bh0h2rcd13ifvqd50","pricing_plan_id":"cebpf4jnsgd1na2vs0mg"},{"bike_id":"310313f9-4c8b-458d-834b-81e71f22dc3f","system_id":"levelo_inurba_marseille","lat":43.27916,"lon":5.3961,"is_reserved":false,"is_disabled":true,"rental_uris":{"android":"levelo://app?vid=310313f9-4c8b-458d-834b-81e71f22dc3f","ios":"levelo://app?vid=310313f9-4c8b-458d-834b-81e71f22dc3f"},"vehicle_type_id":"4","last_reported":1778998301,"current_range_meters":3200,"station_id":"ce4bhf92rcd13ifvqf40","pricing_plan_id":"cebpf4jnsgd1na2vs0mg"},{"bike_id":"1f2ef142-0059-4ee6-9c3b-bbdf112f236b","system_id":"levelo_inurba_marseille","lat":43.30553,"lon":5.36699,"is_reserved":false,"is_disabled":false,"rental_uris":{"android":"levelo://app?vid=1f2ef142-0059-4ee6-9c3b-bbdf112f236b","ios":"levelo://app?vid=1f2ef142-0059-4ee6-9c3b-bbdf112f236b"},"vehicle_type_id":"4","last_reported":1778998301,"current_range_meters":3200,"station_id":"ce4bgrp2rcd13ifvqc9g","pricing_plan_id":"cebpf4jnsgd1na2vs0mg"},{"bike_id":"df59be64-5cdb-4f85-abbc-ab731e671da0","system_id":"levelo_inurba_marseille","lat":43.24163,"lon":5.36395,"is_reserved":false,"is_disabled":false,"rental_uris":{"android":"levelo://app?vid=df59be64-5cdb-4f85-abbc-ab731e671da0","ios":"levelo://app?vid=df59be64-5cdb-4f85-abbc-ab731e671da0"},"vehicle_type_id":"4","last_reported":1778998301,"current_range_meters":3200,"station_id":"cpo36qri1sfpv3e86is0","pricing_plan_id":"cebpf4jnsgd1na2vs0mg"},{"bike_id":"d2e42a41-fc7d-45df-9280-7b05133b67f4","system_id":"levelo_inurba_marseille","lat":43.29479,"lon":5.38657,"is_reserved":false,"is_disabled":false,"rental_uris":{"android":"levelo://app?vid=d2e42a41-fc7d-45df-9280-7b05133b67f4","ios":"levelo://app?vid=d2e42a41-fc7d-45df-9280-7b05133b67f4"},"vehicle_type_id":"4","last_reported":1778998301,"current_range_meters":3200,"station_id":"","pricing_plan_id":"cebpf4jnsgd1na2vs0mg"},{"bike_id":"365f7250-889f-4669-9289-e243621208ba","system_id":"levelo_inurba_marseille","lat":43.30886,"lon":5.37182,"is_reserved":false,"is_disabled":false,"rental_uris":{"android":"levelo://app?vid=365f7250-889f-4669-9289-e243621208ba","ios":"levelo://app?vid=365f7250-889f-4669-9289-e243621208ba"},"vehicle_type_id":"4","last_reported":1778998301,"current_range_meters":3200,"station_id":"ce4bguh2rcd13ifvqckg","pricing_plan_id":"cebpf4jnsgd1na2vs0mg"},{"bike_id":"f7543221-24ce-49d7-9e9a-813368b633f9","system_id":"levelo_inurba_marseille","lat":43.24667,"lon":5.38155,"is_reserved":false,"is_disabled":false,"rental_uris":{"android":"levelo://app?vid=f7543221-24ce-49d7-9e9a-813368b633f9","ios":"levelo://app?vid=f7543221-24ce-49d7-9e9a-813368b633f9"},"vehicle_type_id":"4","last_reported":1778998301,"current_range_meters":3200,"station_id":"ce4bhih2rcd13ifvqfr0","pricing_plan_id":"cebpf4jnsgd1na2vs0mg"},{"bike_id":"255a8db9-6ac5-445d-8da2-584280160595","system_id":"levelo_inurba_marseille","lat":43.29965,"lon":5.36728,"is_reserved":false,"is_disabled":false,"rental_uris":{"android":"levelo://app?vid=255a8db9-6ac5-445d-8da2-584280160595","ios":"levelo://app?vid=255a8db9-6ac5-445d-8da2-584280160595"},"vehicle_type_id":"4","last_reported":1778998301,"current_range_meters":3200,"station_id":"","pricing_plan_id":"cebpf4jnsgd1na2vs0mg"},{"bike_id":"764a08be-0c63-4bb9-934a-a55d4cd5c818","system_id":"levelo_inurba_marseille","lat":43.23896,"lon":5.37459,"is_reserved":false,"is_disabled":false,"rental_uris":{"android":"levelo://app?vid=764a08be-0c63-4bb9-934a-a55d4cd5c818","ios":"levelo://app?vid=764a08be-0c63-4bb9-934a-a55d4cd5c818"},"vehicle_type_id":"4","last_reported":1778998301,"current_range_meters":3200,"station_id":"st_d6sm7csbq4hs73f8fpjg","pricing_plan_id":"cebpf4jnsgd1na2vs0mg"},{"bike_id":"11cfcfb7-7cef-4ca3-94fd-d649299b0219","system_id":"levelo_inurba_marseille","lat":43.31722,"lon":5.42406,"is_reserved":false,"is_disabled":false,"rental_uris":{"android":"levelo://app?vid=11cfcfb7-7cef-4ca3-94fd-d649299b0219","ios":"levelo://app?vid=11cfcfb7-7cef-4ca3-94fd-d649299b0219"},"vehicle_type_id":"4","last_reported":1778998301,"current_range_meters":3200,"station_id":"ce4bhp92rcd13ifvqhbg","pricing_plan_id":"cebpf4jnsgd1na2vs0mg"},{"bike_id":"56c6db0d-4f68-4b73-9376-f00e3c106942","system_id":"levelo_inurba_marseille","lat":43.24412,"lon":5.40287,"is_reserved":false,"is_disabled":false,"rental_uris":{"android":"levelo://app?vid=56c6db0d-4f68-4b73-9376-f00e3c106942","ios":"levelo://app?vid=56c6db0d-4f68-4b73-9376-f00e3c106942"},"vehicle_type_id":"4","last_reported":1778998301,"current_range_meters":3200,"station_id":"","pricing_plan_id":"cebpf4jnsgd1na2vs0mg"},{"bike_id":"dbf94776-63a1-426f-85ae-41abd5903310","system_id":"levelo_inurba_marseille","lat":43.3095,"lon":5.37615,"is_reserved":false,"is_disabled":false,"rental_uris":{"android":"levelo://app?vid=dbf94776-63a1-426f-85ae-41abd5903310","ios":"levelo://app?vid=dbf94776-63a1-426f-85ae-41abd5903310"},"vehicle_type_id":"4","last_reported":1778998301,"current_range_meters":3600,"station_id":"","pricing_plan_id":"cebpf4jnsgd1na2vs0mg"},{"bike_id":"2c4e2c80-7a7f-49e7-8a11-230c3e37ee87","system_id":"levelo_inurba_marseille","lat":43.2256,"lon":5.41625,"is_reserved":false,"is_disabled":false,"rental_uris":{"android":"levelo://app?vid=2c4e2c80-7a7f-49e7-8a11-230c3e37ee87","ios":"levelo://app?vid=2c4e2c80-7a7f-49e7-8a11-230c3e37ee87"},"vehicle_type_id":"4","last_reported":1778998301,"current_range_meters":3600,"station_id":"st_d2o4gvlbi1j2169b742g","pricing_plan_id":"cebpf4jnsgd1na2vs0mg"},{"bike_id":"74f12a6d-7a94-4ce3-8725-e3fbbe23ae70","system_id":"levelo_inurba_marseille","lat":43.33548,"lon":5.37461,"is_reserved":false,"is_disabled":false,"rental_uris":{"android":"levelo://app?vid=74f12a6d-7a94-4ce3-8725-e3fbbe23ae70","ios":"levelo://app?vid=74f12a6d-7a94-4ce3-8725-e3fbbe23ae70"},"vehicle_type_id":"4","last_reported":1778998301,"current_range_meters":3600,"station_id":"st_d46tts09ee8s73dlu43g","pricing_plan_id":"cebpf4jnsgd1na2vs0mg"},{"bike_id":"9d9da9b1-62c5-4232-8888-7d36c96bb153","system_id":"levelo_inurba_marseille","lat":43.27477,"lon":5.41579,"is_reserved":false,"is_disabled":false,"rental_uris":{"android":"levelo://app?vid=9d9da9b1-62c5-4232-8888-7d36c96bb153","ios":"levelo://app?vid=9d9da9b1-62c5-4232-8888-7d36c96bb153"},"vehicle_type_id":"4","last_reported":1778998301,"current_range_meters":3600,"station_id":"st_d6im8g6chgec73a5pndg","pricing_plan_id":"cebpf4jnsgd1na2vs0mg"},{"bike_id":"015aad6e-f7c0-4598-9ad7-38c4d3fee62c","system_id":"levelo_inurba_marseille","lat":43.28616,"lon":5.35097,"is_reserved":false,"is_disabled":false,"rental_uris":{"android":"levelo://app?vid=015aad6e-f7c0-4598-9ad7-38c4d3fee62c","ios":"levelo://app?vid=015aad6e-f7c0-4598-9ad7-38c4d3fee62c"},"vehicle_type_id":"4","last_reported":1778998301,"current_range_meters":3600,"station_id":"ce4bhch2rcd13ifvqeug","pricing_plan_id":"cebpf4jnsgd1na2vs0mg"},{"bike_id":"917dca8c-98b4-4d04-bd52-783b896365fc","system_id":"levelo_inurba_marseille","lat":43.29619,"lon":5.38109,"is_reserved":false,"is_disabled":false,"rental_uris":{"android":"levelo://app?vid=917dca8c-98b4-4d04-bd52-783b896365fc","ios":"levelo://app?vid=917dca8c-98b4-4d04-bd52-783b896365fc"},"vehicle_type_id":"4","last_reported":1778998301,"current_range_meters":3600,"station_id":"ce4bgl12rcd13ifvqbo0","pricing_plan_id":"cebpf4jnsgd1na2vs0mg"},{"bike_id":"b645593d-f67c-4f1b-b9f9-f8e1b08f24ee","system_id":"levelo_inurba_marseille","lat":43.25064,"lon":5.41367,"is_reserved":false,"is_disabled":false,"rental_uris":{"android":"levelo://app?vid=b645593d-f67c-4f1b-b9f9-f8e1b08f24ee","ios":"levelo://app?vid=b645593d-f67c-4f1b-b9f9-f8e1b08f24ee"},"vehicle_type_id":"4","last_reported":1778998301,"current_range_meters":3600,"station_id":"","pricing_plan_id":"cebpf4jnsgd1na2vs0mg"},{"bike_id":"594cb93a-5d1d-4e33-94d4-76143e0bd10b","system_id":"levelo_inurba_marseille","lat":43.21206,"lon":5.35085,"is_reserved":false,"is_disabled":false,"rental_uris":{"android":"levelo://app?vid=594cb93a-5d1d-4e33-94d4-76143e0bd10b","ios":"levelo://app?vid=594cb93a-5d1d-4e33-94d4-76143e0bd10b"},"vehicle_type_id":"4","last_reported":1778998301,"current_range_meters":3600,"station_id":"st_cvj6sg6p6f1abm77japg","pricing_plan_id":"cebpf4jnsgd1na2vs0mg"},{"bike_id":"e2349ae1-4569-4195-83e7-fc39a89a0821","system_id":"levelo_inurba_marseille","lat":43.24811,"lon":5.3745,"is_reserved":false,"is_disabled":false,"rental_uris":{"android":"levelo://app?vid=e2349ae1-4569-4195-83e7-fc39a89a0821","ios":"levelo://app?vid=e2349ae1-4569-4195-83e7-fc39a89a0821"},"vehicle_type_id":"4","last_reported":1778998301,"current_range_meters":3600,"station_id":"ce4bhgh2rcd13ifvqfb0","pricing_plan_id":"cebpf4jnsgd1na2vs0mg"},{"bike_id":"dbd63309-4f5a-4b64-a21b-5900f4f2f69f","system_id":"levelo_inurba_marseille","lat":43.24807,"lon":5.37455,"is_reserved":false,"is_disabled":false,"rental_uris":{"android":"levelo://app?vid=dbd63309-4f5a-4b64-a21b-5900f4f2f69f","ios":"levelo://app?vid=dbd63309-4f5a-4b64-a21b-5900f4f2f69f"},"vehicle_type_id":"4","last_reported":1778998301,"current_range_meters":3600,"station_id":"ce4bhgh2rcd13ifvqfb0","pricing_plan_id":"cebpf4jnsgd1na2vs0mg"},{"bike_id":"b78a5007-a3f9-4d4f-b4e5-799aa180d7f8","system_id":"levelo_inurba_marseille","lat":43.32047,"lon":5.41575,"is_reserved":false,"is_disabled":true,"rental_uris":{"android":"levelo://app?vid=b78a5007-a3f9-4d4f-b4e5-799aa180d7f8","ios":"levelo://app?vid=b78a5007-a3f9-4d4f-b4e5-799aa180d7f8"},"vehicle_type_id":"4","last_reported":1778998301,"current_range_meters":3600,"station_id":"ce4bhq92rcd13ifvqhkg","pricing_plan_id":"cebpf4jnsgd1na2vs0mg"},{"bike_id":"873bcac0-4ab0-4d7f-8c13-8702e2e90e7a","system_id":"levelo_inurba_marseille","lat":43.24678,"lon":5.38165,"is_reserved":false,"is_disabled":false,"rental_uris":{"android":"levelo://app?vid=873bcac0-4ab0-4d7f-8c13-8702e2e90e7a","ios":"levelo://app?vid=873bcac0-4ab0-4d7f-8c13-8702e2e90e7a"},"vehicle_type_id":"4","last_reported":1778998301,"current_range_meters":3600,"station_id":"ce4bhih2rcd13ifvqfr0","pricing_plan_id":"cebpf4jnsgd1na2vs0mg"},{"bike_id":"8c6e71ab-d6f2-4401-b36d-da7a375e2edf","system_id":"levelo_inurba_marseille","lat":43.24569,"lon":5.39508,"is_reserved":false,"is_disabled":false,"rental_uris":{"android":"levelo://app?vid=8c6e71ab-d6f2-4401-b36d-da7a375e2edf","ios":"levelo://app?vid=8c6e71ab-d6f2-4401-b36d-da7a375e2edf"},"vehicle_type_id":"4","last_reported":1778998301,"current_range_meters":3600,"station_id":"ce4bhlp2rcd13ifvqgjg","pricing_plan_id":"cebpf4jnsgd1na2vs0mg"},{"bike_id":"7fd7c1bb-0ed2-4eb7-959c-daab2eec52f3","system_id":"levelo_inurba_marseille","lat":43.24562,"lon":5.39542,"is_reserved":false,"is_disabled":false,"rental_uris":{"android":"levelo://app?vid=7fd7c1bb-0ed2-4eb7-959c-daab2eec52f3","ios":"levelo://app?vid=7fd7c1bb-0ed2-4eb7-959c-daab2eec52f3"},"vehicle_type_id":"4","last_reported":1778998301,"current_range_meters":4000,"station_id":"ce4bhlp2rcd13ifvqgjg","pricing_plan_id":"cebpf4jnsgd1na2vs0mg"},{"bike_id":"3e7c9db3-7780-4c32-83eb-5d17b151f1e1","system_id":"levelo_inurba_marseille","lat":43.24944,"lon":5.40492,"is_reserved":false,"is_disabled":false,"rental_uris":{"android":"levelo://app?vid=3e7c9db3-7780-4c32-83eb-5d17b151f1e1","ios":"levelo://app?vid=3e7c9db3-7780-4c32-83eb-5d17b151f1e1"},"vehicle_type_id":"4","last_reported":1778998301,"current_range_meters":4000,"station_id":"st_d2ngiaodas8pm72gd1h0","pricing_plan_id":"cebpf4jnsgd1na2vs0mg"},{"bike_id":"9328df09-7c77-4ef9-a326-cd1cda9dd29d","system_id":"levelo_inurba_marseille","lat":43.30765,"lon":5.38513,"is_reserved":false,"is_disabled":false,"rental_uris":{"android":"levelo://app?vid=9328df09-7c77-4ef9-a326-cd1cda9dd29d","ios":"levelo://app?vid=9328df09-7c77-4ef9-a326-cd1cda9dd29d"},"vehicle_type_id":"4","last_reported":1778998301,"current_range_meters":4000,"station_id":"","pricing_plan_id":"cebpf4jnsgd1na2vs0mg"},{"bike_id":"a56a8a0c-3ab9-465a-bdae-f5897ec1f98a","system_id":"levelo_inurba_marseille","lat":43.2416,"lon":5.36393,"is_reserved":false,"is_disabled":false,"rental_uris":{"android":"levelo://app?vid=a56a8a0c-3ab9-465a-bdae-f5897ec1f98a","ios":"levelo://app?vid=a56a8a0c-3ab9-465a-bdae-f5897ec1f98a"},"vehicle_type_id":"4","last_reported":1778998301,"current_range_meters":4000,"station_id":"cpo36qri1sfpv3e86is0","pricing_plan_id":"cebpf4jnsgd1na2vs0mg"},{"bike_id":"00eb4fac-9883-4dd4-83a1-9850a1e40280","system_id":"levelo_inurba_marseille","lat":43.2861,"lon":5.39865,"is_reserved":false,"is_disabled":false,"rental_uris":{"android":"levelo://app?vid=00eb4fac-9883-4dd4-83a1-9850a1e40280","ios":"levelo://app?vid=00eb4fac-9883-4dd4-83a1-9850a1e40280"},"vehicle_type_id":"4","last_reported":1778998301,"current_range_meters":4000,"station_id":"st_d4a7ka997mjs738ck50g","pricing_plan_id":"cebpf4jnsgd1na2vs0mg"},{"bike_id":"b9fc383d-7675-4ac1-96a8-b14863e064c9","system_id":"levelo_inurba_marseille","lat":43.31286,"lon":5.37266,"is_reserved":false,"is_disabled":false,"rental_uris":{"android":"levelo://app?vid=b9fc383d-7675-4ac1-96a8-b14863e064c9","ios":"levelo://app?vid=b9fc383d-7675-4ac1-96a8-b14863e064c9"},"vehicle_type_id":"4","last_reported":1778998301,"current_range_meters":4000,"station_id":"","pricing_plan_id":"cebpf4jnsgd1na2vs0mg"},{"bike_id":"b1b1c9ad-0e11-41a8-95b1-ee1803460284","system_id":"levelo_inurba_marseille","lat":43.33544,"lon":5.37462,"is_reserved":false,"is_disabled":false,"rental_uris":{"android":"levelo://app?vid=b1b1c9ad-0e11-41a8-95b1-ee1803460284","ios":"levelo://app?vid=b1b1c9ad-0e11-41a8-95b1-ee1803460284"},"vehicle_type_id":"4","last_reported":1778998301,"current_range_meters":4000,"station_id":"st_d46tts09ee8s73dlu43g","pricing_plan_id":"cebpf4jnsgd1na2vs0mg"},{"bike_id":"f03f09cf-2305-449e-992b-93c426b8b11e","system_id":"levelo_inurba_marseille","lat":43.26062,"lon":5.3942,"is_reserved":false,"is_disabled":false,"rental_uris":{"android":"levelo://app?vid=f03f09cf-2305-449e-992b-93c426b8b11e","ios":"levelo://app?vid=f03f09cf-2305-449e-992b-93c426b8b11e"},"vehicle_type_id":"4","last_reported":1778998301,"current_range_meters":4000,"station_id":"ce4bhh92rcd13ifvqfj0","pricing_plan_id":"cebpf4jnsgd1na2vs0mg"},{"bike_id":"5b61ad3d-c4b3-4bf0-9170-da55ed29dbbb","system_id":"levelo_inurba_marseille","lat":43.3077,"lon":5.39347,"is_reserved":false,"is_disabled":false,"rental_uris":{"android":"levelo://app?vid=5b61ad3d-c4b3-4bf0-9170-da55ed29dbbb","ios":"levelo://app?vid=5b61ad3d-c4b3-4bf0-9170-da55ed29dbbb"},"vehicle_type_id":"4","last_reported":1778998301,"current_range_meters":4000,"station_id":"","pricing_plan_id":"cebpf4jnsgd1na2vs0mg"},{"bike_id":"dc437964-578c-4f7a-be1e-9a5b7abec9f5","system_id":"levelo_inurba_marseille","lat":43.24527,"lon":5.37601,"is_reserved":false,"is_disabled":false,"rental_uris":{"android":"levelo://app?vid=dc437964-578c-4f7a-be1e-9a5b7abec9f5","ios":"levelo://app?vid=dc437964-578c-4f7a-be1e-9a5b7abec9f5"},"vehicle_type_id":"4","last_reported":1778998301,"current_range_meters":4000,"station_id":"","pricing_plan_id":"cebpf4jnsgd1na2vs0mg"},{"bike_id":"3bc3e170-b70d-464e-a0fc-26e24f8aea12","system_id":"levelo_inurba_marseille","lat":43.23962,"lon":5.36635,"is_reserved":false,"is_disabled":false,"rental_uris":{"android":"levelo://app?vid=3bc3e170-b70d-464e-a0fc-26e24f8aea12","ios":"levelo://app?vid=3bc3e170-b70d-464e-a0fc-26e24f8aea12"},"vehicle_type_id":"4","last_reported":1778998301,"current_range_meters":4000,"station_id":"ce4bhi12rcd13ifvqfp0","pricing_plan_id":"cebpf4jnsgd1na2vs0mg"},{"bike_id":"a51e7fc9-b769-4d65-87a6-1b4b56d1d534","system_id":"levelo_inurba_marseille","lat":43.30645,"lon":5.40038,"is_reserved":false,"is_disabled":false,"rental_uris":{"android":"levelo://app?vid=a51e7fc9-b769-4d65-87a6-1b4b56d1d534","ios":"levelo://app?vid=a51e7fc9-b769-4d65-87a6-1b4b56d1d534"},"vehicle_type_id":"4","last_reported":1778998301,"current_range_meters":4000,"station_id":"","pricing_plan_id":"cebpf4jnsgd1na2vs0mg"},{"bike_id":"668be714-b1b0-4a0f-9463-f5a0dd695346","system_id":"levelo_inurba_marseille","lat":43.27971,"lon":5.36345,"is_reserved":false,"is_disabled":false,"rental_uris":{"android":"levelo://app?vid=668be714-b1b0-4a0f-9463-f5a0dd695346","ios":"levelo://app?vid=668be714-b1b0-4a0f-9463-f5a0dd695346"},"vehicle_type_id":"4","last_reported":1778998301,"current_range_meters":4000,"station_id":"","pricing_plan_id":"cebpf4jnsgd1na2vs0mg"},{"bike_id":"10537d83-7308-4519-8bf3-ad7abb836cf5","system_id":"levelo_inurba_marseille","lat":43.29231,"lon":5.3607,"is_reserved":false,"is_disabled":false,"rental_uris":{"android":"levelo://app?vid=10537d83-7308-4519-8bf3-ad7abb836cf5","ios":"levelo://app?vid=10537d83-7308-4519-8bf3-ad7abb836cf5"},"vehicle_type_id":"4","last_reported":1778998301,"current_range_meters":4400,"station_id":"ce4bhbh2rcd13ifvqeqg","pricing_plan_id":"cebpf4jnsgd1na2vs0mg"},{"bike_id":"2a3ac7f8-64fc-4afa-850e-4502c0fce337","system_id":"levelo_inurba_marseille","lat":43.22559,"lon":5.41618,"is_reserved":false,"is_disabled":false,"rental_uris":{"android":"levelo://app?vid=2a3ac7f8-64fc-4afa-850e-4502c0fce337","ios":"levelo://app?vid=2a3ac7f8-64fc-4afa-850e-4502c0fce337"},"vehicle_type_id":"4","last_reported":1778998301,"current_range_meters":4400,"station_id":"st_d2o4gvlbi1j2169b742g","pricing_plan_id":"cebpf4jnsgd1na2vs0mg"},{"bike_id":"b3d3f46d-8b61-4048-a49d-46db42a99359","system_id":"levelo_inurba_marseille","lat":43.24804,"lon":5.37453,"is_reserved":false,"is_disabled":false,"rental_uris":{"android":"levelo://app?vid=b3d3f46d-8b61-4048-a49d-46db42a99359","ios":"levelo://app?vid=b3d3f46d-8b61-4048-a49d-46db42a99359"},"vehicle_type_id":"4","last_reported":1778998301,"current_range_meters":4400,"station_id":"ce4bhgh2rcd13ifvqfb0","pricing_plan_id":"cebpf4jnsgd1na2vs0mg"},{"bike_id":"810ef53a-5aff-49f3-99db-34213da1b1cf","system_id":"levelo_inurba_marseille","lat":43.28705,"lon":5.46684,"is_reserved":false,"is_disabled":false,"rental_uris":{"android":"levelo://app?vid=810ef53a-5aff-49f3-99db-34213da1b1cf","ios":"levelo://app?vid=810ef53a-5aff-49f3-99db-34213da1b1cf"},"vehicle_type_id":"4","last_reported":1778998301,"current_range_meters":4400,"station_id":"st_d6tc3vkotcvc738tfjhg","pricing_plan_id":"cebpf4jnsgd1na2vs0mg"},{"bike_id":"3dda6b21-11db-400a-9eb0-9fb453841912","system_id":"levelo_inurba_marseille","lat":43.28703,"lon":5.37402,"is_reserved":false,"is_disabled":false,"rental_uris":{"android":"levelo://app?vid=3dda6b21-11db-400a-9eb0-9fb453841912","ios":"levelo://app?vid=3dda6b21-11db-400a-9eb0-9fb453841912"},"vehicle_type_id":"4","last_reported":1778998301,"current_range_meters":4400,"station_id":"ce4bh3p2rcd13ifvqdq0","pricing_plan_id":"cebpf4jnsgd1na2vs0mg"},{"bike_id":"ec218d25-e51c-4ca9-a8c9-80136c734899","system_id":"levelo_inurba_marseille","lat":43.243923,"lon":5.370703,"is_reserved":false,"is_disabled":false,"rental_uris":{"android":"levelo://app?vid=ec218d25-e51c-4ca9-a8c9-80136c734899","ios":"levelo://app?vid=ec218d25-e51c-4ca9-a8c9-80136c734899"},"vehicle_type_id":"4","last_reported":1778998301,"current_range_meters":4400,"station_id":"ce4bhhh2rcd13ifvqfk0","pricing_plan_id":"cebpf4jnsgd1na2vs0mg"},{"bike_id":"489a1706-c3ea-4b0e-8e98-c2ee70717ba8","system_id":"levelo_inurba_marseille","lat":43.22549,"lon":5.41616,"is_reserved":false,"is_disabled":false,"rental_uris":{"android":"levelo://app?vid=489a1706-c3ea-4b0e-8e98-c2ee70717ba8","ios":"levelo://app?vid=489a1706-c3ea-4b0e-8e98-c2ee70717ba8"},"vehicle_type_id":"4","last_reported":1778998301,"current_range_meters":4400,"station_id":"st_d2o4gvlbi1j2169b742g","pricing_plan_id":"cebpf4jnsgd1na2vs0mg"},{"bike_id":"00480880-79e5-4a67-b696-233f0844d881","system_id":"levelo_inurba_marseille","lat":43.29973,"lon":5.37125,"is_reserved":false,"is_disabled":true,"rental_uris":{"android":"levelo://app?vid=00480880-79e5-4a67-b696-233f0844d881","ios":"levelo://app?vid=00480880-79e5-4a67-b696-233f0844d881"},"vehicle_type_id":"4","last_reported":1778998301,"current_range_meters":4400,"station_id":"ce4bgr92rcd13ifvqc7g","pricing_plan_id":"cebpf4jnsgd1na2vs0mg"},{"bike_id":"616353f1-4754-4f57-9465-e46d49d24354","system_id":"levelo_inurba_marseille","lat":43.33624,"lon":5.36281,"is_reserved":false,"is_disabled":false,"rental_uris":{"android":"levelo://app?vid=616353f1-4754-4f57-9465-e46d49d24354","ios":"levelo://app?vid=616353f1-4754-4f57-9465-e46d49d24354"},"vehicle_type_id":"4","last_reported":1778998301,"current_range_meters":4800,"station_id":"","pricing_plan_id":"cebpf4jnsgd1na2vs0mg"},{"bike_id":"31810c35-18ad-4ea3-9c10-af8cc483949c","system_id":"levelo_inurba_marseille","lat":43.25582,"lon":5.38249,"is_reserved":false,"is_disabled":false,"rental_uris":{"android":"levelo://app?vid=31810c35-18ad-4ea3-9c10-af8cc483949c","ios":"levelo://app?vid=31810c35-18ad-4ea3-9c10-af8cc483949c"},"vehicle_type_id":"4","last_reported":1778998301,"current_range_meters":4800,"station_id":"ce4bhih2rcd13ifvqfs0","pricing_plan_id":"cebpf4jnsgd1na2vs0mg"},{"bike_id":"d0eb94b0-28af-40c3-a486-723a13189636","system_id":"levelo_inurba_marseille","lat":43.30292,"lon":5.39199,"is_reserved":false,"is_disabled":false,"rental_uris":{"android":"levelo://app?vid=d0eb94b0-28af-40c3-a486-723a13189636","ios":"levelo://app?vid=d0eb94b0-28af-40c3-a486-723a13189636"},"vehicle_type_id":"4","last_reported":1778998301,"current_range_meters":4800,"station_id":"ce4bgkh2rcd13ifvqbk0","pricing_plan_id":"cebpf4jnsgd1na2vs0mg"},{"bike_id":"654c1863-cd9c-43ef-bfd4-ea2dd2f77909","system_id":"levelo_inurba_marseille","lat":43.29019,"lon":5.35898,"is_reserved":false,"is_disabled":false,"rental_uris":{"android":"levelo://app?vid=654c1863-cd9c-43ef-bfd4-ea2dd2f77909","ios":"levelo://app?vid=654c1863-cd9c-43ef-bfd4-ea2dd2f77909"},"vehicle_type_id":"4","last_reported":1778998301,"current_range_meters":4800,"station_id":"","pricing_plan_id":"cebpf4jnsgd1na2vs0mg"},{"bike_id":"75d3cbf6-709a-4d1b-b483-541d31ea9cf0","system_id":"levelo_inurba_marseille","lat":43.26566,"lon":5.37289,"is_reserved":false,"is_disabled":false,"rental_uris":{"android":"levelo://app?vid=75d3cbf6-709a-4d1b-b483-541d31ea9cf0","ios":"levelo://app?vid=75d3cbf6-709a-4d1b-b483-541d31ea9cf0"},"vehicle_type_id":"4","last_reported":1778998301,"current_range_meters":4800,"station_id":"ce4bhg12rcd13ifvqf70","pricing_plan_id":"cebpf4jnsgd1na2vs0mg"},{"bike_id":"a5adbeb2-42bf-4e9a-87e5-6476aa69d35a","system_id":"levelo_inurba_marseille","lat":43.27963,"lon":5.3875,"is_reserved":false,"is_disabled":false,"rental_uris":{"android":"levelo://app?vid=a5adbeb2-42bf-4e9a-87e5-6476aa69d35a","ios":"levelo://app?vid=a5adbeb2-42bf-4e9a-87e5-6476aa69d35a"},"vehicle_type_id":"4","last_reported":1778998301,"current_range_meters":4800,"station_id":"ce4bhg12rcd13ifvqf80","pricing_plan_id":"cebpf4jnsgd1na2vs0mg"},{"bike_id":"ab832e8a-0e8c-4177-9058-0e53a8b5b694","system_id":"levelo_inurba_marseille","lat":43.24474,"lon":5.4255,"is_reserved":false,"is_disabled":false,"rental_uris":{"android":"levelo://app?vid=ab832e8a-0e8c-4177-9058-0e53a8b5b694","ios":"levelo://app?vid=ab832e8a-0e8c-4177-9058-0e53a8b5b694"},"vehicle_type_id":"4","last_reported":1778998301,"current_range_meters":4800,"station_id":"st_d4a3vfp97mjs738cd8kg","pricing_plan_id":"cebpf4jnsgd1na2vs0mg"},{"bike_id":"476ec896-6aed-448d-84e8-cbea548b3e3b","system_id":"levelo_inurba_marseille","lat":43.24463,"lon":5.42532,"is_reserved":false,"is_disabled":false,"rental_uris":{"android":"levelo://app?vid=476ec896-6aed-448d-84e8-cbea548b3e3b","ios":"levelo://app?vid=476ec896-6aed-448d-84e8-cbea548b3e3b"},"vehicle_type_id":"4","last_reported":1778998301,"current_range_meters":4800,"station_id":"st_d4a3vfp97mjs738cd8kg","pricing_plan_id":"cebpf4jnsgd1na2vs0mg"},{"bike_id":"b5700011-a486-4e56-b8fb-207aaf85d4db","system_id":"levelo_inurba_marseille","lat":43.31898,"lon":5.36807,"is_reserved":false,"is_disabled":false,"rental_uris":{"android":"levelo://app?vid=b5700011-a486-4e56-b8fb-207aaf85d4db","ios":"levelo://app?vid=b5700011-a486-4e56-b8fb-207aaf85d4db"},"vehicle_type_id":"4","last_reported":1778998301,"current_range_meters":4800,"station_id":"st_d6o2h0d0559c73evc1b0","pricing_plan_id":"cebpf4jnsgd1na2vs0mg"},{"bike_id":"35c51e6b-b495-450f-a363-4ed911fbea0c","system_id":"levelo_inurba_marseille","lat":43.30887,"lon":5.39657,"is_reserved":false,"is_disabled":false,"rental_uris":{"android":"levelo://app?vid=35c51e6b-b495-450f-a363-4ed911fbea0c","ios":"levelo://app?vid=35c51e6b-b495-450f-a363-4ed911fbea0c"},"vehicle_type_id":"4","last_reported":1778998301,"current_range_meters":4800,"station_id":"ce4bh012rcd13ifvqcv0","pricing_plan_id":"cebpf4jnsgd1na2vs0mg"},{"bike_id":"ee15264c-c5fd-4c69-a06f-329fd6fb9d0d","system_id":"levelo_inurba_marseille","lat":43.30104,"lon":5.43124,"is_reserved":false,"is_disabled":false,"rental_uris":{"android":"levelo://app?vid=ee15264c-c5fd-4c69-a06f-329fd6fb9d0d","ios":"levelo://app?vid=ee15264c-c5fd-4c69-a06f-329fd6fb9d0d"},"vehicle_type_id":"4","last_reported":1778998301,"current_range_meters":4800,"station_id":"st_d3js3co5814s73ftftug","pricing_plan_id":"cebpf4jnsgd1na2vs0mg"},{"bike_id":"8cfea2e1-2479-463f-afb4-0afd347f5869","system_id":"levelo_inurba_marseille","lat":43.31243,"lon":5.36844,"is_reserved":false,"is_disabled":false,"rental_uris":{"android":"levelo://app?vid=8cfea2e1-2479-463f-afb4-0afd347f5869","ios":"levelo://app?vid=8cfea2e1-2479-463f-afb4-0afd347f5869"},"vehicle_type_id":"4","last_reported":1778998301,"current_range_meters":4800,"station_id":"ce4bgl92rcd13ifvqbq0","pricing_plan_id":"cebpf4jnsgd1na2vs0mg"},{"bike_id":"c091a819-21d8-46ac-8161-23f60b78cf02","system_id":"levelo_inurba_marseille","lat":43.27606,"lon":5.36102,"is_reserved":false,"is_disabled":true,"rental_uris":{"android":"levelo://app?vid=c091a819-21d8-46ac-8161-23f60b78cf02","ios":"levelo://app?vid=c091a819-21d8-46ac-8161-23f60b78cf02"},"vehicle_type_id":"4","last_reported":1778998301,"current_range_meters":5600,"station_id":"ce4bgj92rcd13ifvqbe0","pricing_plan_id":"cebpf4jnsgd1na2vs0mg"},{"bike_id":"3b79074f-fa9f-4819-bd52-5c069f60880f","system_id":"levelo_inurba_marseille","lat":43.29229,"lon":5.36058,"is_reserved":false,"is_disabled":false,"rental_uris":{"android":"levelo://app?vid=3b79074f-fa9f-4819-bd52-5c069f60880f","ios":"levelo://app?vid=3b79074f-fa9f-4819-bd52-5c069f60880f"},"vehicle_type_id":"4","last_reported":1778998301,"current_range_meters":5600,"station_id":"ce4bhbh2rcd13ifvqeqg","pricing_plan_id":"cebpf4jnsgd1na2vs0mg"},{"bike_id":"378770a7-1a4e-4a1d-b694-214d3bfb3be7","system_id":"levelo_inurba_marseille","lat":43.2842,"lon":5.37502,"is_reserved":false,"is_disabled":false,"rental_uris":{"android":"levelo://app?vid=378770a7-1a4e-4a1d-b694-214d3bfb3be7","ios":"levelo://app?vid=378770a7-1a4e-4a1d-b694-214d3bfb3be7"},"vehicle_type_id":"4","last_reported":1778998301,"current_range_meters":5600,"station_id":"ce4bh412rcd13ifvqds0","pricing_plan_id":"cebpf4jnsgd1na2vs0mg"},{"bike_id":"1124e8ed-181a-445d-9220-36e963831e6c","system_id":"levelo_inurba_marseille","lat":43.23892,"lon":5.37465,"is_reserved":false,"is_disabled":true,"rental_uris":{"android":"levelo://app?vid=1124e8ed-181a-445d-9220-36e963831e6c","ios":"levelo://app?vid=1124e8ed-181a-445d-9220-36e963831e6c"},"vehicle_type_id":"4","last_reported":1778998301,"current_range_meters":5600,"station_id":"st_d6sm7csbq4hs73f8fpjg","pricing_plan_id":"cebpf4jnsgd1na2vs0mg"},{"bike_id":"79f1a2e3-a0b4-477e-a86b-1762c094e108","system_id":"levelo_inurba_marseille","lat":43.28662,"lon":5.38648,"is_reserved":false,"is_disabled":false,"rental_uris":{"android":"levelo://app?vid=79f1a2e3-a0b4-477e-a86b-1762c094e108","ios":"levelo://app?vid=79f1a2e3-a0b4-477e-a86b-1762c094e108"},"vehicle_type_id":"4","last_reported":1778998301,"current_range_meters":5600,"station_id":"ce4bh492rcd13ifvqdug","pricing_plan_id":"cebpf4jnsgd1na2vs0mg"},{"bike_id":"4ee69d41-30d6-469e-829a-74d2ce79aff4","system_id":"levelo_inurba_marseille","lat":43.33541,"lon":5.37469,"is_reserved":false,"is_disabled":false,"rental_uris":{"android":"levelo://app?vid=4ee69d41-30d6-469e-829a-74d2ce79aff4","ios":"levelo://app?vid=4ee69d41-30d6-469e-829a-74d2ce79aff4"},"vehicle_type_id":"4","last_reported":1778998301,"current_range_meters":5600,"station_id":"st_d46tts09ee8s73dlu43g","pricing_plan_id":"cebpf4jnsgd1na2vs0mg"},{"bike_id":"c83b10ba-3d1b-4a9d-91eb-88d3d34af951","system_id":"levelo_inurba_marseille","lat":43.23784,"lon":5.36634,"is_reserved":false,"is_disabled":false,"rental_uris":{"android":"levelo://app?vid=c83b10ba-3d1b-4a9d-91eb-88d3d34af951","ios":"levelo://app?vid=c83b10ba-3d1b-4a9d-91eb-88d3d34af951"},"vehicle_type_id":"4","last_reported":1778998301,"current_range_meters":5600,"station_id":"st_d3nk18o9ro0c73en2l3g","pricing_plan_id":"cebpf4jnsgd1na2vs0mg"},{"bike_id":"edd5c786-8d24-46bc-bdcd-f0f00a11c1c1","system_id":"levelo_inurba_marseille","lat":43.25512,"lon":5.37656,"is_reserved":false,"is_disabled":true,"rental_uris":{"android":"levelo://app?vid=edd5c786-8d24-46bc-bdcd-f0f00a11c1c1","ios":"levelo://app?vid=edd5c786-8d24-46bc-bdcd-f0f00a11c1c1"},"vehicle_type_id":"4","last_reported":1778998301,"current_range_meters":5600,"station_id":"ce4bhh12rcd13ifvqff0","pricing_plan_id":"cebpf4jnsgd1na2vs0mg"},{"bike_id":"4a139587-4dd8-47fc-9a14-cc9e233d8ec9","system_id":"levelo_inurba_marseille","lat":43.32288,"lon":5.38279,"is_reserved":false,"is_disabled":false,"rental_uris":{"android":"levelo://app?vid=4a139587-4dd8-47fc-9a14-cc9e233d8ec9","ios":"levelo://app?vid=4a139587-4dd8-47fc-9a14-cc9e233d8ec9"},"vehicle_type_id":"4","last_reported":1778998301,"current_range_meters":5600,"station_id":"ce4bhr12rcd13ifvqhqg","pricing_plan_id":"cebpf4jnsgd1na2vs0mg"},{"bike_id":"58b60337-d0f4-4765-9058-bc8a4222ac73","system_id":"levelo_inurba_marseille","lat":43.29845,"lon":5.36288,"is_reserved":false,"is_disabled":false,"rental_uris":{"android":"levelo://app?vid=58b60337-d0f4-4765-9058-bc8a4222ac73","ios":"levelo://app?vid=58b60337-d0f4-4765-9058-bc8a4222ac73"},"vehicle_type_id":"4","last_reported":1778998301,"current_range_meters":5600,"station_id":"ce4bgpp2rcd13ifvqc3g","pricing_plan_id":"cebpf4jnsgd1na2vs0mg"},{"bike_id":"97a62986-9365-4ea0-b0c6-9da7bdc97eda","system_id":"levelo_inurba_marseille","lat":43.24151,"lon":5.36402,"is_reserved":false,"is_disabled":false,"rental_uris":{"android":"levelo://app?vid=97a62986-9365-4ea0-b0c6-9da7bdc97eda","ios":"levelo://app?vid=97a62986-9365-4ea0-b0c6-9da7bdc97eda"},"vehicle_type_id":"4","last_reported":1778998301,"current_range_meters":5600,"station_id":"cpo36qri1sfpv3e86is0","pricing_plan_id":"cebpf4jnsgd1na2vs0mg"},{"bike_id":"f17ecffc-b29b-4f2a-981a-de96a5c99a58","system_id":"levelo_inurba_marseille","lat":43.23184,"lon":5.39984,"is_reserved":false,"is_disabled":false,"rental_uris":{"android":"levelo://app?vid=f17ecffc-b29b-4f2a-981a-de96a5c99a58","ios":"levelo://app?vid=f17ecffc-b29b-4f2a-981a-de96a5c99a58"},"vehicle_type_id":"4","last_reported":1778998301,"current_range_meters":5600,"station_id":"ce4bhn12rcd13ifvqgqg","pricing_plan_id":"cebpf4jnsgd1na2vs0mg"},{"bike_id":"b2af2403-c493-41d2-b620-9c3b596d8182","system_id":"levelo_inurba_marseille","lat":43.24387,"lon":5.37034,"is_reserved":false,"is_disabled":false,"rental_uris":{"android":"levelo://app?vid=b2af2403-c493-41d2-b620-9c3b596d8182","ios":"levelo://app?vid=b2af2403-c493-41d2-b620-9c3b596d8182"},"vehicle_type_id":"4","last_reported":1778998301,"current_range_meters":5600,"station_id":"ce4bhhh2rcd13ifvqfk0","pricing_plan_id":"cebpf4jnsgd1na2vs0mg"},{"bike_id":"df3b4c65-b594-43d2-9619-bf34b1560986","system_id":"levelo_inurba_marseille","lat":43.33541,"lon":5.37459,"is_reserved":false,"is_disabled":false,"rental_uris":{"android":"levelo://app?vid=df3b4c65-b594-43d2-9619-bf34b1560986","ios":"levelo://app?vid=df3b4c65-b594-43d2-9619-bf34b1560986"},"vehicle_type_id":"4","last_reported":1778998301,"current_range_meters":6000,"station_id":"st_d46tts09ee8s73dlu43g","pricing_plan_id":"cebpf4jnsgd1na2vs0mg"},{"bike_id":"ef20a65f-19f4-4491-8360-61efaea0f2fe","system_id":"levelo_inurba_marseille","lat":43.27661,"lon":5.41388,"is_reserved":false,"is_disabled":false,"rental_uris":{"android":"levelo://app?vid=ef20a65f-19f4-4491-8360-61efaea0f2fe","ios":"levelo://app?vid=ef20a65f-19f4-4491-8360-61efaea0f2fe"},"vehicle_type_id":"4","last_reported":1778998301,"current_range_meters":6000,"station_id":"","pricing_plan_id":"cebpf4jnsgd1na2vs0mg"},{"bike_id":"ed4acfe3-c7d2-44e0-92e3-9e43103cc976","system_id":"levelo_inurba_marseille","lat":43.28611,"lon":5.3511,"is_reserved":false,"is_disabled":false,"rental_uris":{"android":"levelo://app?vid=ed4acfe3-c7d2-44e0-92e3-9e43103cc976","ios":"levelo://app?vid=ed4acfe3-c7d2-44e0-92e3-9e43103cc976"},"vehicle_type_id":"4","last_reported":1778998301,"current_range_meters":6000,"station_id":"ce4bhch2rcd13ifvqeug","pricing_plan_id":"cebpf4jnsgd1na2vs0mg"},{"bike_id":"7c9517e3-38cb-4a87-948b-926583eebece","system_id":"levelo_inurba_marseille","lat":43.21193,"lon":5.35076,"is_reserved":false,"is_disabled":false,"rental_uris":{"android":"levelo://app?vid=7c9517e3-38cb-4a87-948b-926583eebece","ios":"levelo://app?vid=7c9517e3-38cb-4a87-948b-926583eebece"},"vehicle_type_id":"4","last_reported":1778998301,"current_range_meters":6000,"station_id":"st_cvj6sg6p6f1abm77japg","pricing_plan_id":"cebpf4jnsgd1na2vs0mg"},{"bike_id":"5f6c563f-df74-41ea-8a50-bc306e92ccbb","system_id":"levelo_inurba_marseille","lat":43.24665,"lon":5.38161,"is_reserved":false,"is_disabled":false,"rental_uris":{"android":"levelo://app?vid=5f6c563f-df74-41ea-8a50-bc306e92ccbb","ios":"levelo://app?vid=5f6c563f-df74-41ea-8a50-bc306e92ccbb"},"vehicle_type_id":"4","last_reported":1778998301,"current_range_meters":6000,"station_id":"ce4bhih2rcd13ifvqfr0","pricing_plan_id":"cebpf4jnsgd1na2vs0mg"},{"bike_id":"2bdacfe0-a2ed-4386-b888-adc7f1278d7f","system_id":"levelo_inurba_marseille","lat":43.27673,"lon":5.38885,"is_reserved":false,"is_disabled":false,"rental_uris":{"android":"levelo://app?vid=2bdacfe0-a2ed-4386-b888-adc7f1278d7f","ios":"levelo://app?vid=2bdacfe0-a2ed-4386-b888-adc7f1278d7f"},"vehicle_type_id":"4","last_reported":1778998301,"current_range_meters":6000,"station_id":"ce4bhi12rcd13ifvqfo0","pricing_plan_id":"cebpf4jnsgd1na2vs0mg"},{"bike_id":"838dedee-4cbd-4997-9d32-b652b1084416","system_id":"levelo_inurba_marseille","lat":43.28598,"lon":5.35087,"is_reserved":false,"is_disabled":false,"rental_uris":{"android":"levelo://app?vid=838dedee-4cbd-4997-9d32-b652b1084416","ios":"levelo://app?vid=838dedee-4cbd-4997-9d32-b652b1084416"},"vehicle_type_id":"4","last_reported":1778998301,"current_range_meters":6000,"station_id":"ce4bhch2rcd13ifvqeug","pricing_plan_id":"cebpf4jnsgd1na2vs0mg"},{"bike_id":"4c947eb6-7e6b-4ce4-b597-1f97ef6b4449","system_id":"levelo_inurba_marseille","lat":43.26863,"lon":5.38639,"is_reserved":false,"is_disabled":false,"rental_uris":{"android":"levelo://app?vid=4c947eb6-7e6b-4ce4-b597-1f97ef6b4449","ios":"levelo://app?vid=4c947eb6-7e6b-4ce4-b597-1f97ef6b4449"},"vehicle_type_id":"4","last_reported":1778998301,"current_range_meters":6000,"station_id":"","pricing_plan_id":"cebpf4jnsgd1na2vs0mg"},{"bike_id":"1f255333-0dee-46a8-8f6a-ce22f3ff59bd","system_id":"levelo_inurba_marseille","lat":43.22532,"lon":5.34833,"is_reserved":false,"is_disabled":true,"rental_uris":{"android":"levelo://app?vid=1f255333-0dee-46a8-8f6a-ce22f3ff59bd","ios":"levelo://app?vid=1f255333-0dee-46a8-8f6a-ce22f3ff59bd"},"vehicle_type_id":"4","last_reported":1778998301,"current_range_meters":6000,"station_id":"st_cvj5dfep6f1abm77gieg","pricing_plan_id":"cebpf4jnsgd1na2vs0mg"},{"bike_id":"1be47044-a515-4b7f-9fb0-44745bcacda2","system_id":"levelo_inurba_marseille","lat":43.22551,"lon":5.41623,"is_reserved":false,"is_disabled":false,"rental_uris":{"android":"levelo://app?vid=1be47044-a515-4b7f-9fb0-44745bcacda2","ios":"levelo://app?vid=1be47044-a515-4b7f-9fb0-44745bcacda2"},"vehicle_type_id":"4","last_reported":1778998301,"current_range_meters":6000,"station_id":"st_d2o4gvlbi1j2169b742g","pricing_plan_id":"cebpf4jnsgd1na2vs0mg"},{"bike_id":"0947af6c-8824-468d-a879-edc374c8222c","system_id":"levelo_inurba_marseille","lat":43.23176,"lon":5.3999,"is_reserved":false,"is_disabled":false,"rental_uris":{"android":"levelo://app?vid=0947af6c-8824-468d-a879-edc374c8222c","ios":"levelo://app?vid=0947af6c-8824-468d-a879-edc374c8222c"},"vehicle_type_id":"4","last_reported":1778998301,"current_range_meters":6000,"station_id":"ce4bhn12rcd13ifvqgqg","pricing_plan_id":"cebpf4jnsgd1na2vs0mg"},{"bike_id":"dace259d-e3eb-491e-95dc-863daa176674","system_id":"levelo_inurba_marseille","lat":43.24161,"lon":5.36393,"is_reserved":false,"is_disabled":false,"rental_uris":{"android":"levelo://app?vid=dace259d-e3eb-491e-95dc-863daa176674","ios":"levelo://app?vid=dace259d-e3eb-491e-95dc-863daa176674"},"vehicle_type_id":"4","last_reported":1778998301,"current_range_meters":6000,"station_id":"cpo36qri1sfpv3e86is0","pricing_plan_id":"cebpf4jnsgd1na2vs0mg"},{"bike_id":"1147f670-8889-4ea6-87ca-d11373ba45b7","system_id":"levelo_inurba_marseille","lat":43.24471,"lon":5.42539,"is_reserved":false,"is_disabled":false,"rental_uris":{"android":"levelo://app?vid=1147f670-8889-4ea6-87ca-d11373ba45b7","ios":"levelo://app?vid=1147f670-8889-4ea6-87ca-d11373ba45b7"},"vehicle_type_id":"4","last_reported":1778998301,"current_range_meters":6000,"station_id":"st_d4a3vfp97mjs738cd8kg","pricing_plan_id":"cebpf4jnsgd1na2vs0mg"},{"bike_id":"2f3352f6-4e3e-43dc-a44d-5c0c2456237e","system_id":"levelo_inurba_marseille","lat":43.30901,"lon":5.37185,"is_reserved":false,"is_disabled":false,"rental_uris":{"android":"levelo://app?vid=2f3352f6-4e3e-43dc-a44d-5c0c2456237e","ios":"levelo://app?vid=2f3352f6-4e3e-43dc-a44d-5c0c2456237e"},"vehicle_type_id":"4","last_reported":1778998301,"current_range_meters":6000,"station_id":"ce4bguh2rcd13ifvqckg","pricing_plan_id":"cebpf4jnsgd1na2vs0mg"},{"bike_id":"a6383f58-7c79-4be5-8c45-9d303fbd7acc","system_id":"levelo_inurba_marseille","lat":43.29023,"lon":5.37583,"is_reserved":false,"is_disabled":false,"rental_uris":{"android":"levelo://app?vid=a6383f58-7c79-4be5-8c45-9d303fbd7acc","ios":"levelo://app?vid=a6383f58-7c79-4be5-8c45-9d303fbd7acc"},"vehicle_type_id":"4","last_reported":1778998301,"current_range_meters":6000,"station_id":"ce4bh692rcd13ifvqe90","pricing_plan_id":"cebpf4jnsgd1na2vs0mg"},{"bike_id":"ed8b9caf-da29-4c6c-b8b8-2bb3a2494930","system_id":"levelo_inurba_marseille","lat":43.22558,"lon":5.41631,"is_reserved":false,"is_disabled":false,"rental_uris":{"android":"levelo://app?vid=ed8b9caf-da29-4c6c-b8b8-2bb3a2494930","ios":"levelo://app?vid=ed8b9caf-da29-4c6c-b8b8-2bb3a2494930"},"vehicle_type_id":"4","last_reported":1778998301,"current_range_meters":6400,"station_id":"st_d2o4gvlbi1j2169b742g","pricing_plan_id":"cebpf4jnsgd1na2vs0mg"},{"bike_id":"31377f31-2715-44bc-b730-1af1ece20a20","system_id":"levelo_inurba_marseille","lat":43.25087,"lon":5.39514,"is_reserved":false,"is_disabled":false,"rental_uris":{"android":"levelo://app?vid=31377f31-2715-44bc-b730-1af1ece20a20","ios":"levelo://app?vid=31377f31-2715-44bc-b730-1af1ece20a20"},"vehicle_type_id":"4","last_reported":1778998301,"current_range_meters":6400,"station_id":"ce4bhm12rcd13ifvqgkg","pricing_plan_id":"cebpf4jnsgd1na2vs0mg"},{"bike_id":"9c9a1a74-3f10-44f1-99ca-6350204cb216","system_id":"levelo_inurba_marseille","lat":43.23147,"lon":5.43696,"is_reserved":false,"is_disabled":false,"rental_uris":{"android":"levelo://app?vid=9c9a1a74-3f10-44f1-99ca-6350204cb216","ios":"levelo://app?vid=9c9a1a74-3f10-44f1-99ca-6350204cb216"},"vehicle_type_id":"4","last_reported":1778998301,"current_range_meters":6400,"station_id":"ce4bhmp2rcd13ifvqgog","pricing_plan_id":"cebpf4jnsgd1na2vs0mg"},{"bike_id":"6df69150-110b-47c4-8e82-0763162bf6e1","system_id":"levelo_inurba_marseille","lat":43.2835,"lon":5.38619,"is_reserved":false,"is_disabled":false,"rental_uris":{"android":"levelo://app?vid=6df69150-110b-47c4-8e82-0763162bf6e1","ios":"levelo://app?vid=6df69150-110b-47c4-8e82-0763162bf6e1"},"vehicle_type_id":"4","last_reported":1778998301,"current_range_meters":6400,"station_id":"ce4bh492rcd13ifvqdvg","pricing_plan_id":"cebpf4jnsgd1na2vs0mg"},{"bike_id":"5bd709cf-a859-4d99-8c17-5c3611eb97a4","system_id":"levelo_inurba_marseille","lat":43.28417,"lon":5.34985,"is_reserved":false,"is_disabled":false,"rental_uris":{"android":"levelo://app?vid=5bd709cf-a859-4d99-8c17-5c3611eb97a4","ios":"levelo://app?vid=5bd709cf-a859-4d99-8c17-5c3611eb97a4"},"vehicle_type_id":"4","last_reported":1778998301,"current_range_meters":6400,"station_id":"ce4bhbh2rcd13ifvqepg","pricing_plan_id":"cebpf4jnsgd1na2vs0mg"},{"bike_id":"a1ab8acd-1c84-48bf-8978-ba485dde4889","system_id":"levelo_inurba_marseille","lat":43.26204,"lon":5.37429,"is_reserved":false,"is_disabled":false,"rental_uris":{"android":"levelo://app?vid=a1ab8acd-1c84-48bf-8978-ba485dde4889","ios":"levelo://app?vid=a1ab8acd-1c84-48bf-8978-ba485dde4889"},"vehicle_type_id":"4","last_reported":1778998301,"current_range_meters":6400,"station_id":"ce4bhgp2rcd13ifvqfc0","pricing_plan_id":"cebpf4jnsgd1na2vs0mg"},{"bike_id":"a9c4cf58-eff3-46f4-8aa3-83491b171b4a","system_id":"levelo_inurba_marseille","lat":43.2737,"lon":5.36261,"is_reserved":false,"is_disabled":false,"rental_uris":{"android":"levelo://app?vid=a9c4cf58-eff3-46f4-8aa3-83491b171b4a","ios":"levelo://app?vid=a9c4cf58-eff3-46f4-8aa3-83491b171b4a"},"vehicle_type_id":"4","last_reported":1778998301,"current_range_meters":6400,"station_id":"ce4bhbh2rcd13ifvqeo0","pricing_plan_id":"cebpf4jnsgd1na2vs0mg"},{"bike_id":"dba68f5b-73cd-4db8-b1a3-9c3f5397f948","system_id":"levelo_inurba_marseille","lat":43.2466,"lon":5.38145,"is_reserved":false,"is_disabled":false,"rental_uris":{"android":"levelo://app?vid=dba68f5b-73cd-4db8-b1a3-9c3f5397f948","ios":"levelo://app?vid=dba68f5b-73cd-4db8-b1a3-9c3f5397f948"},"vehicle_type_id":"4","last_reported":1778998301,"current_range_meters":6400,"station_id":"ce4bhih2rcd13ifvqfr0","pricing_plan_id":"cebpf4jnsgd1na2vs0mg"},{"bike_id":"1dd7d753-327a-4a0e-96a8-c35b8f67f696","system_id":"levelo_inurba_marseille","lat":43.23968,"lon":5.36617,"is_reserved":false,"is_disabled":false,"rental_uris":{"android":"levelo://app?vid=1dd7d753-327a-4a0e-96a8-c35b8f67f696","ios":"levelo://app?vid=1dd7d753-327a-4a0e-96a8-c35b8f67f696"},"vehicle_type_id":"4","last_reported":1778998301,"current_range_meters":6800,"station_id":"ce4bhi12rcd13ifvqfp0","pricing_plan_id":"cebpf4jnsgd1na2vs0mg"},{"bike_id":"59ebfeaf-288c-4113-86b3-96065d458976","system_id":"levelo_inurba_marseille","lat":43.33154,"lon":5.37687,"is_reserved":false,"is_disabled":false,"rental_uris":{"android":"levelo://app?vid=59ebfeaf-288c-4113-86b3-96065d458976","ios":"levelo://app?vid=59ebfeaf-288c-4113-86b3-96065d458976"},"vehicle_type_id":"4","last_reported":1778998301,"current_range_meters":6800,"station_id":"st_d46cu089ee8s73dldbu0","pricing_plan_id":"cebpf4jnsgd1na2vs0mg"},{"bike_id":"046b7506-82fe-4d87-823a-3d7d55ff0981","system_id":"levelo_inurba_marseille","lat":43.28839,"lon":5.35851,"is_reserved":false,"is_disabled":false,"rental_uris":{"android":"levelo://app?vid=046b7506-82fe-4d87-823a-3d7d55ff0981","ios":"levelo://app?vid=046b7506-82fe-4d87-823a-3d7d55ff0981"},"vehicle_type_id":"4","last_reported":1778998301,"current_range_meters":6800,"station_id":"ce4bhb12rcd13ifvqem0","pricing_plan_id":"cebpf4jnsgd1na2vs0mg"},{"bike_id":"37ca5b86-b3d0-4bc0-80e9-3ce47d4dd8d3","system_id":"levelo_inurba_marseille","lat":43.23896,"lon":5.37461,"is_reserved":false,"is_disabled":false,"rental_uris":{"android":"levelo://app?vid=37ca5b86-b3d0-4bc0-80e9-3ce47d4dd8d3","ios":"levelo://app?vid=37ca5b86-b3d0-4bc0-80e9-3ce47d4dd8d3"},"vehicle_type_id":"4","last_reported":1778998301,"current_range_meters":6800,"station_id":"st_d6sm7csbq4hs73f8fpjg","pricing_plan_id":"cebpf4jnsgd1na2vs0mg"},{"bike_id":"39f5e5e3-bdaa-431e-ab82-46a06c8cb2ae","system_id":"levelo_inurba_marseille","lat":43.24462,"lon":5.42533,"is_reserved":false,"is_disabled":false,"rental_uris":{"android":"levelo://app?vid=39f5e5e3-bdaa-431e-ab82-46a06c8cb2ae","ios":"levelo://app?vid=39f5e5e3-bdaa-431e-ab82-46a06c8cb2ae"},"vehicle_type_id":"4","last_reported":1778998301,"current_range_meters":6800,"station_id":"st_d4a3vfp97mjs738cd8kg","pricing_plan_id":"cebpf4jnsgd1na2vs0mg"},{"bike_id":"d62fe7cd-382b-455b-9bf9-8a21527437bd","system_id":"levelo_inurba_marseille","lat":43.24414,"lon":5.37428,"is_reserved":false,"is_disabled":false,"rental_uris":{"android":"levelo://app?vid=d62fe7cd-382b-455b-9bf9-8a21527437bd","ios":"levelo://app?vid=d62fe7cd-382b-455b-9bf9-8a21527437bd"},"vehicle_type_id":"4","last_reported":1778998301,"current_range_meters":6800,"station_id":"","pricing_plan_id":"cebpf4jnsgd1na2vs0mg"},{"bike_id":"6fb8b582-f080-48da-9be6-00e2becb821b","system_id":"levelo_inurba_marseille","lat":43.30928,"lon":5.40144,"is_reserved":false,"is_disabled":false,"rental_uris":{"android":"levelo://app?vid=6fb8b582-f080-48da-9be6-00e2becb821b","ios":"levelo://app?vid=6fb8b582-f080-48da-9be6-00e2becb821b"},"vehicle_type_id":"4","last_reported":1778998301,"current_range_meters":6800,"station_id":"ce4bgvp2rcd13ifvqct0","pricing_plan_id":"cebpf4jnsgd1na2vs0mg"},{"bike_id":"ee51b083-ba62-43a1-8a0a-7eff9e26d1d2","system_id":"levelo_inurba_marseille","lat":43.24658,"lon":5.38153,"is_reserved":false,"is_disabled":false,"rental_uris":{"android":"levelo://app?vid=ee51b083-ba62-43a1-8a0a-7eff9e26d1d2","ios":"levelo://app?vid=ee51b083-ba62-43a1-8a0a-7eff9e26d1d2"},"vehicle_type_id":"4","last_reported":1778998301,"current_range_meters":6800,"station_id":"ce4bhih2rcd13ifvqfr0","pricing_plan_id":"cebpf4jnsgd1na2vs0mg"},{"bike_id":"41ed03a9-ce21-4903-a810-ca307a88c332","system_id":"levelo_inurba_marseille","lat":43.26222,"lon":5.40447,"is_reserved":false,"is_disabled":false,"rental_uris":{"android":"levelo://app?vid=41ed03a9-ce21-4903-a810-ca307a88c332","ios":"levelo://app?vid=41ed03a9-ce21-4903-a810-ca307a88c332"},"vehicle_type_id":"4","last_reported":1778998301,"current_range_meters":6800,"station_id":"ce4bhmh2rcd13ifvqgmg","pricing_plan_id":"cebpf4jnsgd1na2vs0mg"},{"bike_id":"c050486d-5df0-4fcf-9653-c603140d3eb9","system_id":"levelo_inurba_marseille","lat":43.249952,"lon":5.389289,"is_reserved":false,"is_disabled":false,"rental_uris":{"android":"levelo://app?vid=c050486d-5df0-4fcf-9653-c603140d3eb9","ios":"levelo://app?vid=c050486d-5df0-4fcf-9653-c603140d3eb9"},"vehicle_type_id":"4","last_reported":1778998301,"current_range_meters":6800,"station_id":"ce4bhgp2rcd13ifvqfd0","pricing_plan_id":"cebpf4jnsgd1na2vs0mg"},{"bike_id":"ad1f6fd4-c9ff-4829-9d36-b7cf41ff39ba","system_id":"levelo_inurba_marseille","lat":43.27957,"lon":5.38676,"is_reserved":false,"is_disabled":true,"rental_uris":{"android":"levelo://app?vid=ad1f6fd4-c9ff-4829-9d36-b7cf41ff39ba","ios":"levelo://app?vid=ad1f6fd4-c9ff-4829-9d36-b7cf41ff39ba"},"vehicle_type_id":"4","last_reported":1778998301,"current_range_meters":6800,"station_id":"","pricing_plan_id":"cebpf4jnsgd1na2vs0mg"},{"bike_id":"5b61b788-9dfc-460f-a11b-f0d416d99f1e","system_id":"levelo_inurba_marseille","lat":43.28724,"lon":5.3793,"is_reserved":false,"is_disabled":false,"rental_uris":{"android":"levelo://app?vid=5b61b788-9dfc-460f-a11b-f0d416d99f1e","ios":"levelo://app?vid=5b61b788-9dfc-460f-a11b-f0d416d99f1e"},"vehicle_type_id":"4","last_reported":1778998301,"current_range_meters":6800,"station_id":"ce4bh9p2rcd13ifvqec0","pricing_plan_id":"cebpf4jnsgd1na2vs0mg"},{"bike_id":"d31b52c9-1df3-42e9-8196-d29dd13f7b1c","system_id":"levelo_inurba_marseille","lat":43.29963,"lon":5.41316,"is_reserved":false,"is_disabled":false,"rental_uris":{"android":"levelo://app?vid=d31b52c9-1df3-42e9-8196-d29dd13f7b1c","ios":"levelo://app?vid=d31b52c9-1df3-42e9-8196-d29dd13f7b1c"},"vehicle_type_id":"4","last_reported":1778998301,"current_range_meters":6800,"station_id":"ce4bhp12rcd13ifvqh9g","pricing_plan_id":"cebpf4jnsgd1na2vs0mg"},{"bike_id":"264be224-53e3-492e-a159-efc4fcfb6de9","system_id":"levelo_inurba_marseille","lat":43.28615,"lon":5.351,"is_reserved":false,"is_disabled":false,"rental_uris":{"android":"levelo://app?vid=264be224-53e3-492e-a159-efc4fcfb6de9","ios":"levelo://app?vid=264be224-53e3-492e-a159-efc4fcfb6de9"},"vehicle_type_id":"4","last_reported":1778998301,"current_range_meters":6800,"station_id":"ce4bhch2rcd13ifvqeug","pricing_plan_id":"cebpf4jnsgd1na2vs0mg"},{"bike_id":"d3f8cb08-f3cd-416b-953a-eae8db0a255e","system_id":"levelo_inurba_marseille","lat":43.268,"lon":5.40826,"is_reserved":false,"is_disabled":false,"rental_uris":{"android":"levelo://app?vid=d3f8cb08-f3cd-416b-953a-eae8db0a255e","ios":"levelo://app?vid=d3f8cb08-f3cd-416b-953a-eae8db0a255e"},"vehicle_type_id":"4","last_reported":1778998301,"current_range_meters":6800,"station_id":"","pricing_plan_id":"cebpf4jnsgd1na2vs0mg"},{"bike_id":"bd23f2fa-8f30-487e-98d7-3125ee47779b","system_id":"levelo_inurba_marseille","lat":43.275212,"lon":5.434401,"is_reserved":false,"is_disabled":false,"rental_uris":{"android":"levelo://app?vid=bd23f2fa-8f30-487e-98d7-3125ee47779b","ios":"levelo://app?vid=bd23f2fa-8f30-487e-98d7-3125ee47779b"},"vehicle_type_id":"4","last_reported":1778998301,"current_range_meters":6800,"station_id":"","pricing_plan_id":"cebpf4jnsgd1na2vs0mg"},{"bike_id":"6b5f5f89-ab34-448a-b2c7-ae8a3e9a30f4","system_id":"levelo_inurba_marseille","lat":43.31894,"lon":5.40748,"is_reserved":false,"is_disabled":true,"rental_uris":{"android":"levelo://app?vid=6b5f5f89-ab34-448a-b2c7-ae8a3e9a30f4","ios":"levelo://app?vid=6b5f5f89-ab34-448a-b2c7-ae8a3e9a30f4"},"vehicle_type_id":"4","last_reported":1778998301,"current_range_meters":6800,"station_id":"ce4bhq12rcd13ifvqhig","pricing_plan_id":"cebpf4jnsgd1na2vs0mg"},{"bike_id":"c66e49a7-8e9a-4b1b-a1f9-8e7e886dbf72","system_id":"levelo_inurba_marseille","lat":43.32547,"lon":5.41433,"is_reserved":false,"is_disabled":false,"rental_uris":{"android":"levelo://app?vid=c66e49a7-8e9a-4b1b-a1f9-8e7e886dbf72","ios":"levelo://app?vid=c66e49a7-8e9a-4b1b-a1f9-8e7e886dbf72"},"vehicle_type_id":"4","last_reported":1778998301,"current_range_meters":7200,"station_id":"ce4bhq12rcd13ifvqhhg","pricing_plan_id":"cebpf4jnsgd1na2vs0mg"},{"bike_id":"8837b884-d799-4a91-aa20-2eea6f1ef20d","system_id":"levelo_inurba_marseille","lat":43.29679,"lon":5.37819,"is_reserved":false,"is_disabled":false,"rental_uris":{"android":"levelo://app?vid=8837b884-d799-4a91-aa20-2eea6f1ef20d","ios":"levelo://app?vid=8837b884-d799-4a91-aa20-2eea6f1ef20d"},"vehicle_type_id":"4","last_reported":1778998301,"current_range_meters":7200,"station_id":"","pricing_plan_id":"cebpf4jnsgd1na2vs0mg"},{"bike_id":"032fbbce-f9a4-4bef-952a-0977318b2380","system_id":"levelo_inurba_marseille","lat":43.24801,"lon":5.37451,"is_reserved":false,"is_disabled":false,"rental_uris":{"android":"levelo://app?vid=032fbbce-f9a4-4bef-952a-0977318b2380","ios":"levelo://app?vid=032fbbce-f9a4-4bef-952a-0977318b2380"},"vehicle_type_id":"4","last_reported":1778998301,"current_range_meters":7200,"station_id":"ce4bhgh2rcd13ifvqfb0","pricing_plan_id":"cebpf4jnsgd1na2vs0mg"},{"bike_id":"4e5bd537-c85f-4cfa-a272-100a01edb9bf","system_id":"levelo_inurba_marseille","lat":43.31736,"lon":5.40468,"is_reserved":false,"is_disabled":false,"rental_uris":{"android":"levelo://app?vid=4e5bd537-c85f-4cfa-a272-100a01edb9bf","ios":"levelo://app?vid=4e5bd537-c85f-4cfa-a272-100a01edb9bf"},"vehicle_type_id":"4","last_reported":1778998301,"current_range_meters":7200,"station_id":"","pricing_plan_id":"cebpf4jnsgd1na2vs0mg"},{"bike_id":"a9ce68f0-3f91-4233-9644-cc6f01d3be74","system_id":"levelo_inurba_marseille","lat":43.28492,"lon":5.38539,"is_reserved":false,"is_disabled":false,"rental_uris":{"android":"levelo://app?vid=a9ce68f0-3f91-4233-9644-cc6f01d3be74","ios":"levelo://app?vid=a9ce68f0-3f91-4233-9644-cc6f01d3be74"},"vehicle_type_id":"4","last_reported":1778998301,"current_range_meters":7200,"station_id":"ce4bh8p2rcd13ifvqeb0","pricing_plan_id":"cebpf4jnsgd1na2vs0mg"},{"bike_id":"11ea57c0-65f7-4628-b9e0-c567ecf6d704","system_id":"levelo_inurba_marseille","lat":43.27966,"lon":5.41045,"is_reserved":false,"is_disabled":false,"rental_uris":{"android":"levelo://app?vid=11ea57c0-65f7-4628-b9e0-c567ecf6d704","ios":"levelo://app?vid=11ea57c0-65f7-4628-b9e0-c567ecf6d704"},"vehicle_type_id":"4","last_reported":1778998301,"current_range_meters":7200,"station_id":"ce4bhnp2rcd13ifvqh0g","pricing_plan_id":"cebpf4jnsgd1na2vs0mg"},{"bike_id":"a773650a-7c22-432a-a05a-af2b3f7af6fb","system_id":"levelo_inurba_marseille","lat":43.2957,"lon":5.37498,"is_reserved":false,"is_disabled":true,"rental_uris":{"android":"levelo://app?vid=a773650a-7c22-432a-a05a-af2b3f7af6fb","ios":"levelo://app?vid=a773650a-7c22-432a-a05a-af2b3f7af6fb"},"vehicle_type_id":"4","last_reported":1778998301,"current_range_meters":7200,"station_id":"ce4bgh92rcd13ifvqb50","pricing_plan_id":"cebpf4jnsgd1na2vs0mg"},{"bike_id":"10644868-b904-4276-baa9-ed96c85e24ad","system_id":"levelo_inurba_marseille","lat":43.28433,"lon":5.35004,"is_reserved":false,"is_disabled":false,"rental_uris":{"android":"levelo://app?vid=10644868-b904-4276-baa9-ed96c85e24ad","ios":"levelo://app?vid=10644868-b904-4276-baa9-ed96c85e24ad"},"vehicle_type_id":"4","last_reported":1778998301,"current_range_meters":7200,"station_id":"ce4bhbh2rcd13ifvqepg","pricing_plan_id":"cebpf4jnsgd1na2vs0mg"},{"bike_id":"898ea1b1-38c7-4a45-9b94-20d8ecc43cb6","system_id":"levelo_inurba_marseille","lat":43.24816,"lon":5.37456,"is_reserved":false,"is_disabled":false,"rental_uris":{"android":"levelo://app?vid=898ea1b1-38c7-4a45-9b94-20d8ecc43cb6","ios":"levelo://app?vid=898ea1b1-38c7-4a45-9b94-20d8ecc43cb6"},"vehicle_type_id":"4","last_reported":1778998301,"current_range_meters":7200,"station_id":"ce4bhgh2rcd13ifvqfb0","pricing_plan_id":"cebpf4jnsgd1na2vs0mg"},{"bike_id":"36075a64-328b-403a-8396-8508015276de","system_id":"levelo_inurba_marseille","lat":43.29885,"lon":5.39739,"is_reserved":false,"is_disabled":false,"rental_uris":{"android":"levelo://app?vid=36075a64-328b-403a-8396-8508015276de","ios":"levelo://app?vid=36075a64-328b-403a-8396-8508015276de"},"vehicle_type_id":"4","last_reported":1778998301,"current_range_meters":7200,"station_id":"ce4bh0h2rcd13ifvqd50","pricing_plan_id":"cebpf4jnsgd1na2vs0mg"},{"bike_id":"5fbd7512-65e8-4428-a425-fd8c0ba54671","system_id":"levelo_inurba_marseille","lat":43.24172,"lon":5.36406,"is_reserved":false,"is_disabled":false,"rental_uris":{"android":"levelo://app?vid=5fbd7512-65e8-4428-a425-fd8c0ba54671","ios":"levelo://app?vid=5fbd7512-65e8-4428-a425-fd8c0ba54671"},"vehicle_type_id":"4","last_reported":1778998301,"current_range_meters":7200,"station_id":"cpo36qri1sfpv3e86is0","pricing_plan_id":"cebpf4jnsgd1na2vs0mg"},{"bike_id":"7f434064-546e-443e-b3f4-b15927004e0b","system_id":"levelo_inurba_marseille","lat":43.29166,"lon":5.37148,"is_reserved":false,"is_disabled":false,"rental_uris":{"android":"levelo://app?vid=7f434064-546e-443e-b3f4-b15927004e0b","ios":"levelo://app?vid=7f434064-546e-443e-b3f4-b15927004e0b"},"vehicle_type_id":"4","last_reported":1778998301,"current_range_meters":7200,"station_id":"ce4bha92rcd13ifvqeh0","pricing_plan_id":"cebpf4jnsgd1na2vs0mg"},{"bike_id":"cde832f5-61c9-4423-ac99-7113bd3c4dd5","system_id":"levelo_inurba_marseille","lat":43.25506,"lon":5.37669,"is_reserved":false,"is_disabled":false,"rental_uris":{"android":"levelo://app?vid=cde832f5-61c9-4423-ac99-7113bd3c4dd5","ios":"levelo://app?vid=cde832f5-61c9-4423-ac99-7113bd3c4dd5"},"vehicle_type_id":"4","last_reported":1778998301,"current_range_meters":7200,"station_id":"ce4bhh12rcd13ifvqff0","pricing_plan_id":"cebpf4jnsgd1na2vs0mg"},{"bike_id":"0d50daf1-0ebe-4070-a3f4-50a2aaf9e668","system_id":"levelo_inurba_marseille","lat":43.2455,"lon":5.39519,"is_reserved":false,"is_disabled":true,"rental_uris":{"android":"levelo://app?vid=0d50daf1-0ebe-4070-a3f4-50a2aaf9e668","ios":"levelo://app?vid=0d50daf1-0ebe-4070-a3f4-50a2aaf9e668"},"vehicle_type_id":"4","last_reported":1778998301,"current_range_meters":7200,"station_id":"ce4bhlp2rcd13ifvqgjg","pricing_plan_id":"cebpf4jnsgd1na2vs0mg"},{"bike_id":"7a6e6639-8a8e-4c6b-aabc-68eeb59d5fff","system_id":"levelo_inurba_marseille","lat":43.29711,"lon":5.36619,"is_reserved":false,"is_disabled":false,"rental_uris":{"android":"levelo://app?vid=7a6e6639-8a8e-4c6b-aabc-68eeb59d5fff","ios":"levelo://app?vid=7a6e6639-8a8e-4c6b-aabc-68eeb59d5fff"},"vehicle_type_id":"4","last_reported":1778998301,"current_range_meters":7200,"station_id":"ce4bgn12rcd13ifvqbt0","pricing_plan_id":"cebpf4jnsgd1na2vs0mg"},{"bike_id":"a8222677-82b2-4472-800a-515258994e8a","system_id":"levelo_inurba_marseille","lat":43.23958,"lon":5.36626,"is_reserved":false,"is_disabled":false,"rental_uris":{"android":"levelo://app?vid=a8222677-82b2-4472-800a-515258994e8a","ios":"levelo://app?vid=a8222677-82b2-4472-800a-515258994e8a"},"vehicle_type_id":"4","last_reported":1778998301,"current_range_meters":7200,"station_id":"ce4bhi12rcd13ifvqfp0","pricing_plan_id":"cebpf4jnsgd1na2vs0mg"},{"bike_id":"8b549c26-d65f-49c0-b467-be924a7be9a3","system_id":"levelo_inurba_marseille","lat":43.29264,"lon":5.40928,"is_reserved":false,"is_disabled":true,"rental_uris":{"android":"levelo://app?vid=8b549c26-d65f-49c0-b467-be924a7be9a3","ios":"levelo://app?vid=8b549c26-d65f-49c0-b467-be924a7be9a3"},"vehicle_type_id":"4","last_reported":1778998301,"current_range_meters":7200,"station_id":"ce4bh192rcd13ifvqdc0","pricing_plan_id":"cebpf4jnsgd1na2vs0mg"},{"bike_id":"23c89db2-3379-4954-bc52-79e3a03adb59","system_id":"levelo_inurba_marseille","lat":43.27368,"lon":5.36256,"is_reserved":false,"is_disabled":false,"rental_uris":{"android":"levelo://app?vid=23c89db2-3379-4954-bc52-79e3a03adb59","ios":"levelo://app?vid=23c89db2-3379-4954-bc52-79e3a03adb59"},"vehicle_type_id":"4","last_reported":1778998301,"current_range_meters":7200,"station_id":"ce4bhbh2rcd13ifvqeo0","pricing_plan_id":"cebpf4jnsgd1na2vs0mg"},{"bike_id":"60e91d52-408f-41b9-86d8-fcefe5d5a260","system_id":"levelo_inurba_marseille","lat":43.28699,"lon":5.46681,"is_reserved":false,"is_disabled":false,"rental_uris":{"android":"levelo://app?vid=60e91d52-408f-41b9-86d8-fcefe5d5a260","ios":"levelo://app?vid=60e91d52-408f-41b9-86d8-fcefe5d5a260"},"vehicle_type_id":"4","last_reported":1778998301,"current_range_meters":7200,"station_id":"st_d6tc3vkotcvc738tfjhg","pricing_plan_id":"cebpf4jnsgd1na2vs0mg"},{"bike_id":"4205fef4-5bd1-439a-b6c6-88b1921fd314","system_id":"levelo_inurba_marseille","lat":43.22577,"lon":5.41629,"is_reserved":false,"is_disabled":false,"rental_uris":{"android":"levelo://app?vid=4205fef4-5bd1-439a-b6c6-88b1921fd314","ios":"levelo://app?vid=4205fef4-5bd1-439a-b6c6-88b1921fd314"},"vehicle_type_id":"4","last_reported":1778998301,"current_range_meters":8000,"station_id":"st_d2o4gvlbi1j2169b742g","pricing_plan_id":"cebpf4jnsgd1na2vs0mg"},{"bike_id":"d2b2c17a-ea55-4d09-b1b4-c2cd5226f326","system_id":"levelo_inurba_marseille","lat":43.27374,"lon":5.36263,"is_reserved":false,"is_disabled":false,"rental_uris":{"android":"levelo://app?vid=d2b2c17a-ea55-4d09-b1b4-c2cd5226f326","ios":"levelo://app?vid=d2b2c17a-ea55-4d09-b1b4-c2cd5226f326"},"vehicle_type_id":"4","last_reported":1778998301,"current_range_meters":8000,"station_id":"ce4bhbh2rcd13ifvqeo0","pricing_plan_id":"cebpf4jnsgd1na2vs0mg"},{"bike_id":"878f684a-78a4-4666-ad24-d4a8ba44638b","system_id":"levelo_inurba_marseille","lat":43.26496,"lon":5.39536,"is_reserved":false,"is_disabled":false,"rental_uris":{"android":"levelo://app?vid=878f684a-78a4-4666-ad24-d4a8ba44638b","ios":"levelo://app?vid=878f684a-78a4-4666-ad24-d4a8ba44638b"},"vehicle_type_id":"4","last_reported":1778998301,"current_range_meters":8000,"station_id":"ce4bhi12rcd13ifvqfq0","pricing_plan_id":"cebpf4jnsgd1na2vs0mg"},{"bike_id":"73b1154b-5b41-475e-9e09-73a9a766d8c0","system_id":"levelo_inurba_marseille","lat":43.29863,"lon":5.38913,"is_reserved":false,"is_disabled":false,"rental_uris":{"android":"levelo://app?vid=73b1154b-5b41-475e-9e09-73a9a766d8c0","ios":"levelo://app?vid=73b1154b-5b41-475e-9e09-73a9a766d8c0"},"vehicle_type_id":"4","last_reported":1778998301,"current_range_meters":8000,"station_id":"ce4bh392rcd13ifvqdl0","pricing_plan_id":"cebpf4jnsgd1na2vs0mg"},{"bike_id":"6309bb83-16de-49b5-b945-ff87fed43bc6","system_id":"levelo_inurba_marseille","lat":43.21196,"lon":5.35084,"is_reserved":false,"is_disabled":false,"rental_uris":{"android":"levelo://app?vid=6309bb83-16de-49b5-b945-ff87fed43bc6","ios":"levelo://app?vid=6309bb83-16de-49b5-b945-ff87fed43bc6"},"vehicle_type_id":"4","last_reported":1778998301,"current_range_meters":8000,"station_id":"st_cvj6sg6p6f1abm77japg","pricing_plan_id":"cebpf4jnsgd1na2vs0mg"},{"bike_id":"e6bbcb34-20bf-4ce5-b5b7-6243a17e2e8d","system_id":"levelo_inurba_marseille","lat":43.21181,"lon":5.35081,"is_reserved":false,"is_disabled":false,"rental_uris":{"android":"levelo://app?vid=e6bbcb34-20bf-4ce5-b5b7-6243a17e2e8d","ios":"levelo://app?vid=e6bbcb34-20bf-4ce5-b5b7-6243a17e2e8d"},"vehicle_type_id":"4","last_reported":1778998301,"current_range_meters":8000,"station_id":"st_cvj6sg6p6f1abm77japg","pricing_plan_id":"cebpf4jnsgd1na2vs0mg"},{"bike_id":"df4f184e-16c8-4c32-b6b5-5ed8d07fffef","system_id":"levelo_inurba_marseille","lat":43.29314,"lon":5.40323,"is_reserved":false,"is_disabled":false,"rental_uris":{"android":"levelo://app?vid=df4f184e-16c8-4c32-b6b5-5ed8d07fffef","ios":"levelo://app?vid=df4f184e-16c8-4c32-b6b5-5ed8d07fffef"},"vehicle_type_id":"4","last_reported":1778998301,"current_range_meters":8000,"station_id":"","pricing_plan_id":"cebpf4jnsgd1na2vs0mg"},{"bike_id":"a72a8680-05df-46ea-a8d1-7be23dcf6f78","system_id":"levelo_inurba_marseille","lat":43.2494,"lon":5.3892,"is_reserved":false,"is_disabled":false,"rental_uris":{"android":"levelo://app?vid=a72a8680-05df-46ea-a8d1-7be23dcf6f78","ios":"levelo://app?vid=a72a8680-05df-46ea-a8d1-7be23dcf6f78"},"vehicle_type_id":"4","last_reported":1778998301,"current_range_meters":8000,"station_id":"","pricing_plan_id":"cebpf4jnsgd1na2vs0mg"},{"bike_id":"f1489f24-eb0d-4f47-a199-01b2b7e3cea5","system_id":"levelo_inurba_marseille","lat":43.30356,"lon":5.42459,"is_reserved":false,"is_disabled":false,"rental_uris":{"android":"levelo://app?vid=f1489f24-eb0d-4f47-a199-01b2b7e3cea5","ios":"levelo://app?vid=f1489f24-eb0d-4f47-a199-01b2b7e3cea5"},"vehicle_type_id":"4","last_reported":1778998301,"current_range_meters":8000,"station_id":"ce4bhoh2rcd13ifvqh6g","pricing_plan_id":"cebpf4jnsgd1na2vs0mg"},{"bike_id":"ae8622c3-2a1f-4fdf-a659-933c6d80c9e4","system_id":"levelo_inurba_marseille","lat":43.29746,"lon":5.42772,"is_reserved":false,"is_disabled":false,"rental_uris":{"android":"levelo://app?vid=ae8622c3-2a1f-4fdf-a659-933c6d80c9e4","ios":"levelo://app?vid=ae8622c3-2a1f-4fdf-a659-933c6d80c9e4"},"vehicle_type_id":"4","last_reported":1778998301,"current_range_meters":8000,"station_id":"st_d3md5207bmas73dh9klg","pricing_plan_id":"cebpf4jnsgd1na2vs0mg"},{"bike_id":"fee6bec9-dcab-4869-9bdf-9c06bf9e3df4","system_id":"levelo_inurba_marseille","lat":43.25812,"lon":5.39425,"is_reserved":false,"is_disabled":false,"rental_uris":{"android":"levelo://app?vid=fee6bec9-dcab-4869-9bdf-9c06bf9e3df4","ios":"levelo://app?vid=fee6bec9-dcab-4869-9bdf-9c06bf9e3df4"},"vehicle_type_id":"4","last_reported":1778998301,"current_range_meters":8000,"station_id":"ce4bhip2rcd13ifvqft0","pricing_plan_id":"cebpf4jnsgd1na2vs0mg"},{"bike_id":"18947c84-5235-4bd5-9ce6-23fdc3005741","system_id":"levelo_inurba_marseille","lat":43.28409,"lon":5.37515,"is_reserved":false,"is_disabled":false,"rental_uris":{"android":"levelo://app?vid=18947c84-5235-4bd5-9ce6-23fdc3005741","ios":"levelo://app?vid=18947c84-5235-4bd5-9ce6-23fdc3005741"},"vehicle_type_id":"4","last_reported":1778998301,"current_range_meters":8000,"station_id":"ce4bh412rcd13ifvqds0","pricing_plan_id":"cebpf4jnsgd1na2vs0mg"},{"bike_id":"1aebc2f9-0b8f-4aef-b8a6-8f194d72f694","system_id":"levelo_inurba_marseille","lat":43.2786,"lon":5.3869,"is_reserved":false,"is_disabled":false,"rental_uris":{"android":"levelo://app?vid=1aebc2f9-0b8f-4aef-b8a6-8f194d72f694","ios":"levelo://app?vid=1aebc2f9-0b8f-4aef-b8a6-8f194d72f694"},"vehicle_type_id":"4","last_reported":1778998301,"current_range_meters":8000,"station_id":"","pricing_plan_id":"cebpf4jnsgd1na2vs0mg"},{"bike_id":"b23ea0d7-6111-436e-b31d-88cf9deb47e0","system_id":"levelo_inurba_marseille","lat":43.24402,"lon":5.37038,"is_reserved":false,"is_disabled":false,"rental_uris":{"android":"levelo://app?vid=b23ea0d7-6111-436e-b31d-88cf9deb47e0","ios":"levelo://app?vid=b23ea0d7-6111-436e-b31d-88cf9deb47e0"},"vehicle_type_id":"4","last_reported":1778998301,"current_range_meters":8000,"station_id":"ce4bhhh2rcd13ifvqfk0","pricing_plan_id":"cebpf4jnsgd1na2vs0mg"},{"bike_id":"7459919c-7f08-455e-a31c-3cdf295400d3","system_id":"levelo_inurba_marseille","lat":43.28635,"lon":5.35094,"is_reserved":false,"is_disabled":false,"rental_uris":{"android":"levelo://app?vid=7459919c-7f08-455e-a31c-3cdf295400d3","ios":"levelo://app?vid=7459919c-7f08-455e-a31c-3cdf295400d3"},"vehicle_type_id":"4","last_reported":1778998301,"current_range_meters":8000,"station_id":"ce4bhch2rcd13ifvqeug","pricing_plan_id":"cebpf4jnsgd1na2vs0mg"},{"bike_id":"03d3e6af-cb75-4642-9336-e0efc57dd397","system_id":"levelo_inurba_marseille","lat":43.24808,"lon":5.3746,"is_reserved":false,"is_disabled":false,"rental_uris":{"android":"levelo://app?vid=03d3e6af-cb75-4642-9336-e0efc57dd397","ios":"levelo://app?vid=03d3e6af-cb75-4642-9336-e0efc57dd397"},"vehicle_type_id":"4","last_reported":1778998301,"current_range_meters":8000,"station_id":"ce4bhgh2rcd13ifvqfb0","pricing_plan_id":"cebpf4jnsgd1na2vs0mg"},{"bike_id":"6c1823c0-8df3-46a7-941e-d2079e6cfbe0","system_id":"levelo_inurba_marseille","lat":43.28623,"lon":5.35098,"is_reserved":false,"is_disabled":false,"rental_uris":{"android":"levelo://app?vid=6c1823c0-8df3-46a7-941e-d2079e6cfbe0","ios":"levelo://app?vid=6c1823c0-8df3-46a7-941e-d2079e6cfbe0"},"vehicle_type_id":"4","last_reported":1778998301,"current_range_meters":8000,"station_id":"ce4bhch2rcd13ifvqeug","pricing_plan_id":"cebpf4jnsgd1na2vs0mg"},{"bike_id":"bbc4e2bb-f7e6-4845-9c25-f29325713eba","system_id":"levelo_inurba_marseille","lat":43.27376,"lon":5.3625,"is_reserved":false,"is_disabled":false,"rental_uris":{"android":"levelo://app?vid=bbc4e2bb-f7e6-4845-9c25-f29325713eba","ios":"levelo://app?vid=bbc4e2bb-f7e6-4845-9c25-f29325713eba"},"vehicle_type_id":"4","last_reported":1778998301,"current_range_meters":8400,"station_id":"ce4bhbh2rcd13ifvqeo0","pricing_plan_id":"cebpf4jnsgd1na2vs0mg"},{"bike_id":"8df23d62-7feb-4f4f-86f7-15eadbf3edc5","system_id":"levelo_inurba_marseille","lat":43.24392,"lon":5.37069,"is_reserved":false,"is_disabled":false,"rental_uris":{"android":"levelo://app?vid=8df23d62-7feb-4f4f-86f7-15eadbf3edc5","ios":"levelo://app?vid=8df23d62-7feb-4f4f-86f7-15eadbf3edc5"},"vehicle_type_id":"4","last_reported":1778998301,"current_range_meters":8400,"station_id":"ce4bhhh2rcd13ifvqfk0","pricing_plan_id":"cebpf4jnsgd1na2vs0mg"},{"bike_id":"fb2b447a-0030-4ddc-8822-f704c5a47e0f","system_id":"levelo_inurba_marseille","lat":43.30324,"lon":5.40434,"is_reserved":false,"is_disabled":false,"rental_uris":{"android":"levelo://app?vid=fb2b447a-0030-4ddc-8822-f704c5a47e0f","ios":"levelo://app?vid=fb2b447a-0030-4ddc-8822-f704c5a47e0f"},"vehicle_type_id":"4","last_reported":1778998301,"current_range_meters":8400,"station_id":"ce4bh012rcd13ifvqd10","pricing_plan_id":"cebpf4jnsgd1na2vs0mg"},{"bike_id":"e6adddb4-cf5a-45f0-9c7a-79e04b64ad00","system_id":"levelo_inurba_marseille","lat":43.23183,"lon":5.39983,"is_reserved":false,"is_disabled":false,"rental_uris":{"android":"levelo://app?vid=e6adddb4-cf5a-45f0-9c7a-79e04b64ad00","ios":"levelo://app?vid=e6adddb4-cf5a-45f0-9c7a-79e04b64ad00"},"vehicle_type_id":"4","last_reported":1778998301,"current_range_meters":8400,"station_id":"ce4bhn12rcd13ifvqgqg","pricing_plan_id":"cebpf4jnsgd1na2vs0mg"},{"bike_id":"f198c8b9-5132-4270-b906-36c21a615d5a","system_id":"levelo_inurba_marseille","lat":43.29522,"lon":5.39045,"is_reserved":false,"is_disabled":false,"rental_uris":{"android":"levelo://app?vid=f198c8b9-5132-4270-b906-36c21a615d5a","ios":"levelo://app?vid=f198c8b9-5132-4270-b906-36c21a615d5a"},"vehicle_type_id":"4","last_reported":1778998301,"current_range_meters":8400,"station_id":"ce4bh3p2rcd13ifvqdp0","pricing_plan_id":"cebpf4jnsgd1na2vs0mg"},{"bike_id":"1569d417-2c8c-46b9-b389-8c80f587bd9b","system_id":"levelo_inurba_marseille","lat":43.29433,"lon":5.37593,"is_reserved":false,"is_disabled":false,"rental_uris":{"android":"levelo://app?vid=1569d417-2c8c-46b9-b389-8c80f587bd9b","ios":"levelo://app?vid=1569d417-2c8c-46b9-b389-8c80f587bd9b"},"vehicle_type_id":"4","last_reported":1778998301,"current_range_meters":8400,"station_id":"","pricing_plan_id":"cebpf4jnsgd1na2vs0mg"},{"bike_id":"90cdffea-1c50-4ffd-8284-48fc41d50102","system_id":"levelo_inurba_marseille","lat":43.28884,"lon":5.42537,"is_reserved":false,"is_disabled":false,"rental_uris":{"android":"levelo://app?vid=90cdffea-1c50-4ffd-8284-48fc41d50102","ios":"levelo://app?vid=90cdffea-1c50-4ffd-8284-48fc41d50102"},"vehicle_type_id":"4","last_reported":1778998301,"current_range_meters":8400,"station_id":"st_d3b462108ojc7389ooeg","pricing_plan_id":"cebpf4jnsgd1na2vs0mg"},{"bike_id":"f996d1a5-8826-40b7-94d9-0b28d82e7c45","system_id":"levelo_inurba_marseille","lat":43.2119,"lon":5.35072,"is_reserved":false,"is_disabled":false,"rental_uris":{"android":"levelo://app?vid=f996d1a5-8826-40b7-94d9-0b28d82e7c45","ios":"levelo://app?vid=f996d1a5-8826-40b7-94d9-0b28d82e7c45"},"vehicle_type_id":"4","last_reported":1778998301,"current_range_meters":8400,"station_id":"st_cvj6sg6p6f1abm77japg","pricing_plan_id":"cebpf4jnsgd1na2vs0mg"},{"bike_id":"c2d9d8a7-d510-42d7-aeb7-b6e3b2a508fa","system_id":"levelo_inurba_marseille","lat":43.24642,"lon":5.38886,"is_reserved":false,"is_disabled":false,"rental_uris":{"android":"levelo://app?vid=c2d9d8a7-d510-42d7-aeb7-b6e3b2a508fa","ios":"levelo://app?vid=c2d9d8a7-d510-42d7-aeb7-b6e3b2a508fa"},"vehicle_type_id":"4","last_reported":1778998301,"current_range_meters":8400,"station_id":"ce4bhg12rcd13ifvqf60","pricing_plan_id":"cebpf4jnsgd1na2vs0mg"},{"bike_id":"d7ee4d21-e079-4dcd-88c2-d5121789a4b2","system_id":"levelo_inurba_marseille","lat":43.2433,"lon":5.38452,"is_reserved":false,"is_disabled":false,"rental_uris":{"android":"levelo://app?vid=d7ee4d21-e079-4dcd-88c2-d5121789a4b2","ios":"levelo://app?vid=d7ee4d21-e079-4dcd-88c2-d5121789a4b2"},"vehicle_type_id":"4","last_reported":1778998301,"current_range_meters":8400,"station_id":"","pricing_plan_id":"cebpf4jnsgd1na2vs0mg"},{"bike_id":"288a4726-1258-46ec-a70f-c345081256cd","system_id":"levelo_inurba_marseille","lat":43.24164,"lon":5.3642,"is_reserved":false,"is_disabled":false,"rental_uris":{"android":"levelo://app?vid=288a4726-1258-46ec-a70f-c345081256cd","ios":"levelo://app?vid=288a4726-1258-46ec-a70f-c345081256cd"},"vehicle_type_id":"4","last_reported":1778998301,"current_range_meters":8400,"station_id":"cpo36qri1sfpv3e86is0","pricing_plan_id":"cebpf4jnsgd1na2vs0mg"},{"bike_id":"33a8c2e2-02c3-42f2-9f5e-df7fdca1e263","system_id":"levelo_inurba_marseille","lat":43.28601,"lon":5.36392,"is_reserved":false,"is_disabled":false,"rental_uris":{"android":"levelo://app?vid=33a8c2e2-02c3-42f2-9f5e-df7fdca1e263","ios":"levelo://app?vid=33a8c2e2-02c3-42f2-9f5e-df7fdca1e263"},"vehicle_type_id":"4","last_reported":1778998301,"current_range_meters":8400,"station_id":"","pricing_plan_id":"cebpf4jnsgd1na2vs0mg"},{"bike_id":"c2b6143b-d098-4b2c-8058-799b831dba6b","system_id":"levelo_inurba_marseille","lat":43.24801,"lon":5.3745,"is_reserved":false,"is_disabled":false,"rental_uris":{"android":"levelo://app?vid=c2b6143b-d098-4b2c-8058-799b831dba6b","ios":"levelo://app?vid=c2b6143b-d098-4b2c-8058-799b831dba6b"},"vehicle_type_id":"4","last_reported":1778998301,"current_range_meters":8400,"station_id":"ce4bhgh2rcd13ifvqfb0","pricing_plan_id":"cebpf4jnsgd1na2vs0mg"},{"bike_id":"2e5f930c-c71d-4906-af65-f03e519c5bb9","system_id":"levelo_inurba_marseille","lat":43.24626,"lon":5.37973,"is_reserved":false,"is_disabled":false,"rental_uris":{"android":"levelo://app?vid=2e5f930c-c71d-4906-af65-f03e519c5bb9","ios":"levelo://app?vid=2e5f930c-c71d-4906-af65-f03e519c5bb9"},"vehicle_type_id":"4","last_reported":1778998301,"current_range_meters":8400,"station_id":"","pricing_plan_id":"cebpf4jnsgd1na2vs0mg"},{"bike_id":"125d731f-ad72-4d6c-962c-f3f5ee5e75c0","system_id":"levelo_inurba_marseille","lat":43.28401,"lon":5.37501,"is_reserved":false,"is_disabled":false,"rental_uris":{"android":"levelo://app?vid=125d731f-ad72-4d6c-962c-f3f5ee5e75c0","ios":"levelo://app?vid=125d731f-ad72-4d6c-962c-f3f5ee5e75c0"},"vehicle_type_id":"4","last_reported":1778998301,"current_range_meters":8400,"station_id":"ce4bh412rcd13ifvqds0","pricing_plan_id":"cebpf4jnsgd1na2vs0mg"},{"bike_id":"7a15ea09-432f-4f4d-9270-9a33533441ba","system_id":"levelo_inurba_marseille","lat":43.29972,"lon":5.37176,"is_reserved":false,"is_disabled":false,"rental_uris":{"android":"levelo://app?vid=7a15ea09-432f-4f4d-9270-9a33533441ba","ios":"levelo://app?vid=7a15ea09-432f-4f4d-9270-9a33533441ba"},"vehicle_type_id":"4","last_reported":1778998301,"current_range_meters":8400,"station_id":"ce4bgr92rcd13ifvqc7g","pricing_plan_id":"cebpf4jnsgd1na2vs0mg"},{"bike_id":"e4a68cfa-90bf-4d02-8a71-80228ddf9cac","system_id":"levelo_inurba_marseille","lat":43.32118,"lon":5.36785,"is_reserved":false,"is_disabled":false,"rental_uris":{"android":"levelo://app?vid=e4a68cfa-90bf-4d02-8a71-80228ddf9cac","ios":"levelo://app?vid=e4a68cfa-90bf-4d02-8a71-80228ddf9cac"},"vehicle_type_id":"4","last_reported":1778998301,"current_range_meters":8400,"station_id":"ce4bhrh2rcd13ifvqhug","pricing_plan_id":"cebpf4jnsgd1na2vs0mg"},{"bike_id":"b82c18d9-c5aa-4bb0-9404-19d838a33380","system_id":"levelo_inurba_marseille","lat":43.26364,"lon":5.41072,"is_reserved":false,"is_disabled":false,"rental_uris":{"android":"levelo://app?vid=b82c18d9-c5aa-4bb0-9404-19d838a33380","ios":"levelo://app?vid=b82c18d9-c5aa-4bb0-9404-19d838a33380"},"vehicle_type_id":"4","last_reported":1778998301,"current_range_meters":8400,"station_id":"st_d4e5ca6na9uc73bfl5fg","pricing_plan_id":"cebpf4jnsgd1na2vs0mg"},{"bike_id":"98b29b95-e9a4-4760-a23d-24855b7ec05d","system_id":"levelo_inurba_marseille","lat":43.33141,"lon":5.37711,"is_reserved":false,"is_disabled":false,"rental_uris":{"android":"levelo://app?vid=98b29b95-e9a4-4760-a23d-24855b7ec05d","ios":"levelo://app?vid=98b29b95-e9a4-4760-a23d-24855b7ec05d"},"vehicle_type_id":"4","last_reported":1778998301,"current_range_meters":8400,"station_id":"st_d46cu089ee8s73dldbu0","pricing_plan_id":"cebpf4jnsgd1na2vs0mg"},{"bike_id":"440e9013-607c-4f4d-b713-9f880e611cce","system_id":"levelo_inurba_marseille","lat":43.30888,"lon":5.37189,"is_reserved":false,"is_disabled":false,"rental_uris":{"android":"levelo://app?vid=440e9013-607c-4f4d-b713-9f880e611cce","ios":"levelo://app?vid=440e9013-607c-4f4d-b713-9f880e611cce"},"vehicle_type_id":"4","last_reported":1778998301,"current_range_meters":8400,"station_id":"ce4bguh2rcd13ifvqckg","pricing_plan_id":"cebpf4jnsgd1na2vs0mg"},{"bike_id":"e161ba30-d581-44ab-b81c-5f59de5d89c7","system_id":"levelo_inurba_marseille","lat":43.23889,"lon":5.37483,"is_reserved":false,"is_disabled":true,"rental_uris":{"android":"levelo://app?vid=e161ba30-d581-44ab-b81c-5f59de5d89c7","ios":"levelo://app?vid=e161ba30-d581-44ab-b81c-5f59de5d89c7"},"vehicle_type_id":"4","last_reported":1778998301,"current_range_meters":8400,"station_id":"st_d6sm7csbq4hs73f8fpjg","pricing_plan_id":"cebpf4jnsgd1na2vs0mg"},{"bike_id":"7e819ae7-df7e-4297-b3ea-562b578e4346","system_id":"levelo_inurba_marseille","lat":43.23961,"lon":5.36626,"is_reserved":false,"is_disabled":false,"rental_uris":{"android":"levelo://app?vid=7e819ae7-df7e-4297-b3ea-562b578e4346","ios":"levelo://app?vid=7e819ae7-df7e-4297-b3ea-562b578e4346"},"vehicle_type_id":"4","last_reported":1778998301,"current_range_meters":8400,"station_id":"ce4bhi12rcd13ifvqfp0","pricing_plan_id":"cebpf4jnsgd1na2vs0mg"},{"bike_id":"f66c1f35-c8c5-4631-922e-044e3147355b","system_id":"levelo_inurba_marseille","lat":43.32105,"lon":5.3677,"is_reserved":false,"is_disabled":false,"rental_uris":{"android":"levelo://app?vid=f66c1f35-c8c5-4631-922e-044e3147355b","ios":"levelo://app?vid=f66c1f35-c8c5-4631-922e-044e3147355b"},"vehicle_type_id":"4","last_reported":1778998301,"current_range_meters":8400,"station_id":"ce4bhrh2rcd13ifvqhug","pricing_plan_id":"cebpf4jnsgd1na2vs0mg"},{"bike_id":"e8c9cc4e-c37c-4a51-ab3c-15c0f69976d2","system_id":"levelo_inurba_marseille","lat":43.31238,"lon":5.37801,"is_reserved":false,"is_disabled":false,"rental_uris":{"android":"levelo://app?vid=e8c9cc4e-c37c-4a51-ab3c-15c0f69976d2","ios":"levelo://app?vid=e8c9cc4e-c37c-4a51-ab3c-15c0f69976d2"},"vehicle_type_id":"4","last_reported":1778998301,"current_range_meters":8400,"station_id":"","pricing_plan_id":"cebpf4jnsgd1na2vs0mg"},{"bike_id":"4b27839d-9a04-406f-9540-246382bf47cf","system_id":"levelo_inurba_marseille","lat":43.26575,"lon":5.39612,"is_reserved":false,"is_disabled":false,"rental_uris":{"android":"levelo://app?vid=4b27839d-9a04-406f-9540-246382bf47cf","ios":"levelo://app?vid=4b27839d-9a04-406f-9540-246382bf47cf"},"vehicle_type_id":"4","last_reported":1778998301,"current_range_meters":8800,"station_id":"","pricing_plan_id":"cebpf4jnsgd1na2vs0mg"},{"bike_id":"87452c8b-9fc3-4b35-934d-b2240781b251","system_id":"levelo_inurba_marseille","lat":43.26798,"lon":5.39421,"is_reserved":false,"is_disabled":false,"rental_uris":{"android":"levelo://app?vid=87452c8b-9fc3-4b35-934d-b2240781b251","ios":"levelo://app?vid=87452c8b-9fc3-4b35-934d-b2240781b251"},"vehicle_type_id":"4","last_reported":1778998301,"current_range_meters":8800,"station_id":"ce4bhh12rcd13ifvqfg0","pricing_plan_id":"cebpf4jnsgd1na2vs0mg"},{"bike_id":"afff82b4-b246-459c-90a3-f27175078fba","system_id":"levelo_inurba_marseille","lat":43.28569,"lon":5.39479,"is_reserved":false,"is_disabled":false,"rental_uris":{"android":"levelo://app?vid=afff82b4-b246-459c-90a3-f27175078fba","ios":"levelo://app?vid=afff82b4-b246-459c-90a3-f27175078fba"},"vehicle_type_id":"4","last_reported":1778998301,"current_range_meters":8800,"station_id":"ce4bh292rcd13ifvqdg0","pricing_plan_id":"cebpf4jnsgd1na2vs0mg"},{"bike_id":"d6e6e32a-ba56-415f-9ef6-78535eab1df5","system_id":"levelo_inurba_marseille","lat":43.292801,"lon":5.401149,"is_reserved":false,"is_disabled":true,"rental_uris":{"android":"levelo://app?vid=d6e6e32a-ba56-415f-9ef6-78535eab1df5","ios":"levelo://app?vid=d6e6e32a-ba56-415f-9ef6-78535eab1df5"},"vehicle_type_id":"4","last_reported":1778998301,"current_range_meters":8800,"station_id":"ce4bh312rcd13ifvqdk0","pricing_plan_id":"cebpf4jnsgd1na2vs0mg"},{"bike_id":"63b65ed7-d395-4338-bbd7-30f630532122","system_id":"levelo_inurba_marseille","lat":43.25118,"lon":5.40317,"is_reserved":false,"is_disabled":false,"rental_uris":{"android":"levelo://app?vid=63b65ed7-d395-4338-bbd7-30f630532122","ios":"levelo://app?vid=63b65ed7-d395-4338-bbd7-30f630532122"},"vehicle_type_id":"4","last_reported":1778998301,"current_range_meters":8800,"station_id":"ce4bhlh2rcd13ifvqgig","pricing_plan_id":"cebpf4jnsgd1na2vs0mg"},{"bike_id":"fb1c4a53-47b2-4ef6-8d79-7aa6dcd487e9","system_id":"levelo_inurba_marseille","lat":43.28714,"lon":5.46694,"is_reserved":false,"is_disabled":false,"rental_uris":{"android":"levelo://app?vid=fb1c4a53-47b2-4ef6-8d79-7aa6dcd487e9","ios":"levelo://app?vid=fb1c4a53-47b2-4ef6-8d79-7aa6dcd487e9"},"vehicle_type_id":"4","last_reported":1778998301,"current_range_meters":8800,"station_id":"st_d6tc3vkotcvc738tfjhg","pricing_plan_id":"cebpf4jnsgd1na2vs0mg"},{"bike_id":"abc99932-c216-422a-aab0-a9df05a5d1ea","system_id":"levelo_inurba_marseille","lat":43.30955,"lon":5.39092,"is_reserved":false,"is_disabled":true,"rental_uris":{"android":"levelo://app?vid=abc99932-c216-422a-aab0-a9df05a5d1ea","ios":"levelo://app?vid=abc99932-c216-422a-aab0-a9df05a5d1ea"},"vehicle_type_id":"4","last_reported":1778998301,"current_range_meters":8800,"station_id":"ce4bgup2rcd13ifvqco0","pricing_plan_id":"cebpf4jnsgd1na2vs0mg"},{"bike_id":"4d31ed6e-13e0-4959-aa6c-cce6ffc3f7ff","system_id":"levelo_inurba_marseille","lat":43.27491,"lon":5.41629,"is_reserved":false,"is_disabled":false,"rental_uris":{"android":"levelo://app?vid=4d31ed6e-13e0-4959-aa6c-cce6ffc3f7ff","ios":"levelo://app?vid=4d31ed6e-13e0-4959-aa6c-cce6ffc3f7ff"},"vehicle_type_id":"4","last_reported":1778998301,"current_range_meters":8800,"station_id":"st_d6im8g6chgec73a5pndg","pricing_plan_id":"cebpf4jnsgd1na2vs0mg"},{"bike_id":"5e975752-7963-4fa2-95f5-49bad7ef850e","system_id":"levelo_inurba_marseille","lat":43.24377,"lon":5.37058,"is_reserved":false,"is_disabled":false,"rental_uris":{"android":"levelo://app?vid=5e975752-7963-4fa2-95f5-49bad7ef850e","ios":"levelo://app?vid=5e975752-7963-4fa2-95f5-49bad7ef850e"},"vehicle_type_id":"4","last_reported":1778998301,"current_range_meters":8800,"station_id":"ce4bhhh2rcd13ifvqfk0","pricing_plan_id":"cebpf4jnsgd1na2vs0mg"},{"bike_id":"05538a87-8ae7-43a8-a523-ae2a66a335d0","system_id":"levelo_inurba_marseille","lat":43.31074,"lon":5.37157,"is_reserved":false,"is_disabled":false,"rental_uris":{"android":"levelo://app?vid=05538a87-8ae7-43a8-a523-ae2a66a335d0","ios":"levelo://app?vid=05538a87-8ae7-43a8-a523-ae2a66a335d0"},"vehicle_type_id":"4","last_reported":1778998301,"current_range_meters":8800,"station_id":"st_d4kl2rp97mjs73e7tdfg","pricing_plan_id":"cebpf4jnsgd1na2vs0mg"},{"bike_id":"fdf637e0-86f8-4268-a3cb-03a21f9f5d79","system_id":"levelo_inurba_marseille","lat":43.26622,"lon":5.38179,"is_reserved":false,"is_disabled":false,"rental_uris":{"android":"levelo://app?vid=fdf637e0-86f8-4268-a3cb-03a21f9f5d79","ios":"levelo://app?vid=fdf637e0-86f8-4268-a3cb-03a21f9f5d79"},"vehicle_type_id":"4","last_reported":1778998301,"current_range_meters":8800,"station_id":"","pricing_plan_id":"cebpf4jnsgd1na2vs0mg"},{"bike_id":"b2f7955a-0c1e-4f8a-a6ce-8e1fa1dfbae6","system_id":"levelo_inurba_marseille","lat":43.31485,"lon":5.37298,"is_reserved":false,"is_disabled":false,"rental_uris":{"android":"levelo://app?vid=b2f7955a-0c1e-4f8a-a6ce-8e1fa1dfbae6","ios":"levelo://app?vid=b2f7955a-0c1e-4f8a-a6ce-8e1fa1dfbae6"},"vehicle_type_id":"4","last_reported":1778998301,"current_range_meters":8800,"station_id":"ce4bgt12rcd13ifvqcd0","pricing_plan_id":"cebpf4jnsgd1na2vs0mg"},{"bike_id":"e16d5c40-3fc2-4f2d-ad3f-22d90cefeb5e","system_id":"levelo_inurba_marseille","lat":43.2417,"lon":5.3972,"is_reserved":false,"is_disabled":false,"rental_uris":{"android":"levelo://app?vid=e16d5c40-3fc2-4f2d-ad3f-22d90cefeb5e","ios":"levelo://app?vid=e16d5c40-3fc2-4f2d-ad3f-22d90cefeb5e"},"vehicle_type_id":"4","last_reported":1778998301,"current_range_meters":8800,"station_id":"ce4bhn12rcd13ifvqgpg","pricing_plan_id":"cebpf4jnsgd1na2vs0mg"},{"bike_id":"62b3362a-4297-4f99-b131-a33886f7d376","system_id":"levelo_inurba_marseille","lat":43.29244,"lon":5.35981,"is_reserved":false,"is_disabled":true,"rental_uris":{"android":"levelo://app?vid=62b3362a-4297-4f99-b131-a33886f7d376","ios":"levelo://app?vid=62b3362a-4297-4f99-b131-a33886f7d376"},"vehicle_type_id":"4","last_reported":1778998301,"current_range_meters":8800,"station_id":"ce4bhbh2rcd13ifvqeqg","pricing_plan_id":"cebpf4jnsgd1na2vs0mg"},{"bike_id":"28e7b218-2654-4c69-9e1c-dbf108e8821a","system_id":"levelo_inurba_marseille","lat":43.31477,"lon":5.37257,"is_reserved":false,"is_disabled":false,"rental_uris":{"android":"levelo://app?vid=28e7b218-2654-4c69-9e1c-dbf108e8821a","ios":"levelo://app?vid=28e7b218-2654-4c69-9e1c-dbf108e8821a"},"vehicle_type_id":"4","last_reported":1778998301,"current_range_meters":8800,"station_id":"ce4bgt12rcd13ifvqcd0","pricing_plan_id":"cebpf4jnsgd1na2vs0mg"},{"bike_id":"31c59437-d086-4d0c-bac2-66bde08159a0","system_id":"levelo_inurba_marseille","lat":43.2839,"lon":5.37494,"is_reserved":false,"is_disabled":false,"rental_uris":{"android":"levelo://app?vid=31c59437-d086-4d0c-bac2-66bde08159a0","ios":"levelo://app?vid=31c59437-d086-4d0c-bac2-66bde08159a0"},"vehicle_type_id":"4","last_reported":1778998301,"current_range_meters":8800,"station_id":"ce4bh412rcd13ifvqds0","pricing_plan_id":"cebpf4jnsgd1na2vs0mg"},{"bike_id":"2fc6c379-dba2-44e4-9fe8-a0c4727e7010","system_id":"levelo_inurba_marseille","lat":43.28453,"lon":5.35895,"is_reserved":false,"is_disabled":false,"rental_uris":{"android":"levelo://app?vid=2fc6c379-dba2-44e4-9fe8-a0c4727e7010","ios":"levelo://app?vid=2fc6c379-dba2-44e4-9fe8-a0c4727e7010"},"vehicle_type_id":"4","last_reported":1778998301,"current_range_meters":8800,"station_id":"ce4bhah2rcd13ifvqei0","pricing_plan_id":"cebpf4jnsgd1na2vs0mg"},{"bike_id":"5a1ad386-9399-4179-ba29-10e44c534fbe","system_id":"levelo_inurba_marseille","lat":43.22553,"lon":5.41623,"is_reserved":false,"is_disabled":false,"rental_uris":{"android":"levelo://app?vid=5a1ad386-9399-4179-ba29-10e44c534fbe","ios":"levelo://app?vid=5a1ad386-9399-4179-ba29-10e44c534fbe"},"vehicle_type_id":"4","last_reported":1778998301,"current_range_meters":8800,"station_id":"st_d2o4gvlbi1j2169b742g","pricing_plan_id":"cebpf4jnsgd1na2vs0mg"},{"bike_id":"de98d0a2-3848-4e54-a5f3-7b9932505760","system_id":"levelo_inurba_marseille","lat":43.28673,"lon":5.38694,"is_reserved":false,"is_disabled":false,"rental_uris":{"android":"levelo://app?vid=de98d0a2-3848-4e54-a5f3-7b9932505760","ios":"levelo://app?vid=de98d0a2-3848-4e54-a5f3-7b9932505760"},"vehicle_type_id":"4","last_reported":1778998301,"current_range_meters":8800,"station_id":"ce4bh492rcd13ifvqdug","pricing_plan_id":"cebpf4jnsgd1na2vs0mg"},{"bike_id":"6043e87c-43af-4bb6-a467-45887edbd8bb","system_id":"levelo_inurba_marseille","lat":43.2466,"lon":5.38142,"is_reserved":false,"is_disabled":false,"rental_uris":{"android":"levelo://app?vid=6043e87c-43af-4bb6-a467-45887edbd8bb","ios":"levelo://app?vid=6043e87c-43af-4bb6-a467-45887edbd8bb"},"vehicle_type_id":"4","last_reported":1778998301,"current_range_meters":8800,"station_id":"ce4bhih2rcd13ifvqfr0","pricing_plan_id":"cebpf4jnsgd1na2vs0mg"},{"bike_id":"acfc96b6-b31d-4513-885d-4c2c21f2c38e","system_id":"levelo_inurba_marseille","lat":43.28102,"lon":5.37851,"is_reserved":false,"is_disabled":false,"rental_uris":{"android":"levelo://app?vid=acfc96b6-b31d-4513-885d-4c2c21f2c38e","ios":"levelo://app?vid=acfc96b6-b31d-4513-885d-4c2c21f2c38e"},"vehicle_type_id":"4","last_reported":1778998301,"current_range_meters":8800,"station_id":"ce4bha12rcd13ifvqee0","pricing_plan_id":"cebpf4jnsgd1na2vs0mg"},{"bike_id":"5acabed0-b649-4da6-9ec7-fe227d824618","system_id":"levelo_inurba_marseille","lat":43.25864,"lon":5.39898,"is_reserved":false,"is_disabled":false,"rental_uris":{"android":"levelo://app?vid=5acabed0-b649-4da6-9ec7-fe227d824618","ios":"levelo://app?vid=5acabed0-b649-4da6-9ec7-fe227d824618"},"vehicle_type_id":"4","last_reported":1778998301,"current_range_meters":8800,"station_id":"ce4bhl92rcd13ifvqghg","pricing_plan_id":"cebpf4jnsgd1na2vs0mg"},{"bike_id":"68fcd666-2bd6-4178-b790-a8e4ae545292","system_id":"levelo_inurba_marseille","lat":43.23956,"lon":5.36631,"is_reserved":false,"is_disabled":false,"rental_uris":{"android":"levelo://app?vid=68fcd666-2bd6-4178-b790-a8e4ae545292","ios":"levelo://app?vid=68fcd666-2bd6-4178-b790-a8e4ae545292"},"vehicle_type_id":"4","last_reported":1778998301,"current_range_meters":9200,"station_id":"ce4bhi12rcd13ifvqfp0","pricing_plan_id":"cebpf4jnsgd1na2vs0mg"},{"bike_id":"fb111f7b-b356-43a1-adea-9de7c624eee1","system_id":"levelo_inurba_marseille","lat":43.24659,"lon":5.38151,"is_reserved":false,"is_disabled":false,"rental_uris":{"android":"levelo://app?vid=fb111f7b-b356-43a1-adea-9de7c624eee1","ios":"levelo://app?vid=fb111f7b-b356-43a1-adea-9de7c624eee1"},"vehicle_type_id":"4","last_reported":1778998301,"current_range_meters":9200,"station_id":"ce4bhih2rcd13ifvqfr0","pricing_plan_id":"cebpf4jnsgd1na2vs0mg"},{"bike_id":"e18be694-5d76-40ca-8d90-a42137ec1788","system_id":"levelo_inurba_marseille","lat":43.28621,"lon":5.35105,"is_reserved":false,"is_disabled":false,"rental_uris":{"android":"levelo://app?vid=e18be694-5d76-40ca-8d90-a42137ec1788","ios":"levelo://app?vid=e18be694-5d76-40ca-8d90-a42137ec1788"},"vehicle_type_id":"4","last_reported":1778998301,"current_range_meters":9200,"station_id":"ce4bhch2rcd13ifvqeug","pricing_plan_id":"cebpf4jnsgd1na2vs0mg"},{"bike_id":"daa8acdc-33d0-45b4-b768-4eae1fc6c4dc","system_id":"levelo_inurba_marseille","lat":43.27076,"lon":5.38293,"is_reserved":false,"is_disabled":false,"rental_uris":{"android":"levelo://app?vid=daa8acdc-33d0-45b4-b768-4eae1fc6c4dc","ios":"levelo://app?vid=daa8acdc-33d0-45b4-b768-4eae1fc6c4dc"},"vehicle_type_id":"4","last_reported":1778998301,"current_range_meters":9200,"station_id":"st_d3n2fo6cfp8s73cte1j0","pricing_plan_id":"cebpf4jnsgd1na2vs0mg"},{"bike_id":"d257b167-ca2a-4810-a9e7-05efe0fc7d78","system_id":"levelo_inurba_marseille","lat":43.24401,"lon":5.37047,"is_reserved":false,"is_disabled":false,"rental_uris":{"android":"levelo://app?vid=d257b167-ca2a-4810-a9e7-05efe0fc7d78","ios":"levelo://app?vid=d257b167-ca2a-4810-a9e7-05efe0fc7d78"},"vehicle_type_id":"4","last_reported":1778998301,"current_range_meters":9200,"station_id":"ce4bhhh2rcd13ifvqfk0","pricing_plan_id":"cebpf4jnsgd1na2vs0mg"},{"bike_id":"3f9245e8-dda2-4c87-92ec-d0d25f0dd702","system_id":"levelo_inurba_marseille","lat":43.31893,"lon":5.3679,"is_reserved":false,"is_disabled":false,"rental_uris":{"android":"levelo://app?vid=3f9245e8-dda2-4c87-92ec-d0d25f0dd702","ios":"levelo://app?vid=3f9245e8-dda2-4c87-92ec-d0d25f0dd702"},"vehicle_type_id":"4","last_reported":1778998301,"current_range_meters":9200,"station_id":"st_d6o2h0d0559c73evc1b0","pricing_plan_id":"cebpf4jnsgd1na2vs0mg"},{"bike_id":"5d0911d9-b7af-4bae-aa66-4f1c5b149b2c","system_id":"levelo_inurba_marseille","lat":43.29791,"lon":5.39349,"is_reserved":false,"is_disabled":false,"rental_uris":{"android":"levelo://app?vid=5d0911d9-b7af-4bae-aa66-4f1c5b149b2c","ios":"levelo://app?vid=5d0911d9-b7af-4bae-aa66-4f1c5b149b2c"},"vehicle_type_id":"4","last_reported":1778998301,"current_range_meters":9200,"station_id":"chh1huq6cuj3fo74tm60","pricing_plan_id":"cebpf4jnsgd1na2vs0mg"},{"bike_id":"faee37e4-92c2-4ba8-8eb0-6758fa6b3abe","system_id":"levelo_inurba_marseille","lat":43.2118,"lon":5.35091,"is_reserved":false,"is_disabled":false,"rental_uris":{"android":"levelo://app?vid=faee37e4-92c2-4ba8-8eb0-6758fa6b3abe","ios":"levelo://app?vid=faee37e4-92c2-4ba8-8eb0-6758fa6b3abe"},"vehicle_type_id":"4","last_reported":1778998301,"current_range_meters":9200,"station_id":"st_cvj6sg6p6f1abm77japg","pricing_plan_id":"cebpf4jnsgd1na2vs0mg"},{"bike_id":"b1c0bf60-a104-4451-8f7f-abdc4cfbf66d","system_id":"levelo_inurba_marseille","lat":43.28913,"lon":5.39598,"is_reserved":false,"is_disabled":false,"rental_uris":{"android":"levelo://app?vid=b1c0bf60-a104-4451-8f7f-abdc4cfbf66d","ios":"levelo://app?vid=b1c0bf60-a104-4451-8f7f-abdc4cfbf66d"},"vehicle_type_id":"4","last_reported":1778998301,"current_range_meters":9200,"station_id":"ce4bh3h2rcd13ifvqdn0","pricing_plan_id":"cebpf4jnsgd1na2vs0mg"},{"bike_id":"9deaa135-4098-42b8-a0c3-2ae7d7c4d16b","system_id":"levelo_inurba_marseille","lat":43.29968,"lon":5.36753,"is_reserved":false,"is_disabled":false,"rental_uris":{"android":"levelo://app?vid=9deaa135-4098-42b8-a0c3-2ae7d7c4d16b","ios":"levelo://app?vid=9deaa135-4098-42b8-a0c3-2ae7d7c4d16b"},"vehicle_type_id":"4","last_reported":1778998301,"current_range_meters":9200,"station_id":"","pricing_plan_id":"cebpf4jnsgd1na2vs0mg"},{"bike_id":"4ac70d57-8436-4bc6-861c-89488ea9d9e3","system_id":"levelo_inurba_marseille","lat":43.262,"lon":5.3747,"is_reserved":false,"is_disabled":false,"rental_uris":{"android":"levelo://app?vid=4ac70d57-8436-4bc6-861c-89488ea9d9e3","ios":"levelo://app?vid=4ac70d57-8436-4bc6-861c-89488ea9d9e3"},"vehicle_type_id":"4","last_reported":1778998301,"current_range_meters":9200,"station_id":"ce4bhgp2rcd13ifvqfc0","pricing_plan_id":"cebpf4jnsgd1na2vs0mg"},{"bike_id":"bf705423-c82a-4022-a44f-eb9cb206ca2e","system_id":"levelo_inurba_marseille","lat":43.25817,"lon":5.39433,"is_reserved":false,"is_disabled":false,"rental_uris":{"android":"levelo://app?vid=bf705423-c82a-4022-a44f-eb9cb206ca2e","ios":"levelo://app?vid=bf705423-c82a-4022-a44f-eb9cb206ca2e"},"vehicle_type_id":"4","last_reported":1778998301,"current_range_meters":9200,"station_id":"ce4bhip2rcd13ifvqft0","pricing_plan_id":"cebpf4jnsgd1na2vs0mg"},{"bike_id":"f70a14e6-18ba-464f-9238-f7379fc601b8","system_id":"levelo_inurba_marseille","lat":43.30295,"lon":5.36915,"is_reserved":false,"is_disabled":false,"rental_uris":{"android":"levelo://app?vid=f70a14e6-18ba-464f-9238-f7379fc601b8","ios":"levelo://app?vid=f70a14e6-18ba-464f-9238-f7379fc601b8"},"vehicle_type_id":"4","last_reported":1778998301,"current_range_meters":9200,"station_id":"ce4bgqh2rcd13ifvqc5g","pricing_plan_id":"cebpf4jnsgd1na2vs0mg"},{"bike_id":"b156f0c5-9825-471d-a64b-9c3c1334e2e1","system_id":"levelo_inurba_marseille","lat":43.27429,"lon":5.394,"is_reserved":false,"is_disabled":false,"rental_uris":{"android":"levelo://app?vid=b156f0c5-9825-471d-a64b-9c3c1334e2e1","ios":"levelo://app?vid=b156f0c5-9825-471d-a64b-9c3c1334e2e1"},"vehicle_type_id":"4","last_reported":1778998301,"current_range_meters":9200,"station_id":"ce4bhdp2rcd13ifvqf20","pricing_plan_id":"cebpf4jnsgd1na2vs0mg"},{"bike_id":"dd008968-180f-45a1-a918-bd8760593c16","system_id":"levelo_inurba_marseille","lat":43.29186,"lon":5.35803,"is_reserved":false,"is_disabled":false,"rental_uris":{"android":"levelo://app?vid=dd008968-180f-45a1-a918-bd8760593c16","ios":"levelo://app?vid=dd008968-180f-45a1-a918-bd8760593c16"},"vehicle_type_id":"4","last_reported":1778998301,"current_range_meters":9200,"station_id":"ce4bhb12rcd13ifvqel0","pricing_plan_id":"cebpf4jnsgd1na2vs0mg"},{"bike_id":"010100e5-5e1b-4322-b68a-6837b7af9352","system_id":"levelo_inurba_marseille","lat":43.25329,"lon":5.41351,"is_reserved":false,"is_disabled":false,"rental_uris":{"android":"levelo://app?vid=010100e5-5e1b-4322-b68a-6837b7af9352","ios":"levelo://app?vid=010100e5-5e1b-4322-b68a-6837b7af9352"},"vehicle_type_id":"4","last_reported":1778998301,"current_range_meters":9200,"station_id":"","pricing_plan_id":"cebpf4jnsgd1na2vs0mg"},{"bike_id":"6c9da77d-1b01-4c86-8922-f3e76a447e4d","system_id":"levelo_inurba_marseille","lat":43.2396,"lon":5.36619,"is_reserved":false,"is_disabled":false,"rental_uris":{"android":"levelo://app?vid=6c9da77d-1b01-4c86-8922-f3e76a447e4d","ios":"levelo://app?vid=6c9da77d-1b01-4c86-8922-f3e76a447e4d"},"vehicle_type_id":"4","last_reported":1778998301,"current_range_meters":9200,"station_id":"ce4bhi12rcd13ifvqfp0","pricing_plan_id":"cebpf4jnsgd1na2vs0mg"},{"bike_id":"018964d7-3586-4845-8635-3a0e76181faf","system_id":"levelo_inurba_marseille","lat":43.33238,"lon":5.4059,"is_reserved":false,"is_disabled":false,"rental_uris":{"android":"levelo://app?vid=018964d7-3586-4845-8635-3a0e76181faf","ios":"levelo://app?vid=018964d7-3586-4845-8635-3a0e76181faf"},"vehicle_type_id":"4","last_reported":1778998301,"current_range_meters":9200,"station_id":"","pricing_plan_id":"cebpf4jnsgd1na2vs0mg"},{"bike_id":"6277fb5f-25a0-43c5-af2d-05c12b8fcaab","system_id":"levelo_inurba_marseille","lat":43.28431,"lon":5.34979,"is_reserved":false,"is_disabled":false,"rental_uris":{"android":"levelo://app?vid=6277fb5f-25a0-43c5-af2d-05c12b8fcaab","ios":"levelo://app?vid=6277fb5f-25a0-43c5-af2d-05c12b8fcaab"},"vehicle_type_id":"4","last_reported":1778998301,"current_range_meters":9200,"station_id":"ce4bhbh2rcd13ifvqepg","pricing_plan_id":"cebpf4jnsgd1na2vs0mg"},