{"last_updated":1761678507,"ttl":60,"version":"2.2","data":{"bikes":[{"bike_id":"dbc0e999-85bd-4a1d-a4d4-696c0adb85db","system_id":"levelo_inurba_marseille","lat":43.29865,"lon":5.36273,"is_reserved":false,"is_disabled":true,"rental_uris":{"android":"levelo://app?vid=dbc0e999-85bd-4a1d-a4d4-696c0adb85db","ios":"levelo://app?vid=dbc0e999-85bd-4a1d-a4d4-696c0adb85db"},"vehicle_type_id":"4","last_reported":1761678507,"current_range_meters":2800,"station_id":"ce4bgpp2rcd13ifvqc3g","pricing_plan_id":"cebpf4jnsgd1na2vs0mg"},{"bike_id":"54fcbf79-3592-4256-b750-5dc14b152ee4","system_id":"levelo_inurba_marseille","lat":43.32034,"lon":5.41537,"is_reserved":false,"is_disabled":false,"rental_uris":{"android":"levelo://app?vid=54fcbf79-3592-4256-b750-5dc14b152ee4","ios":"levelo://app?vid=54fcbf79-3592-4256-b750-5dc14b152ee4"},"vehicle_type_id":"4","last_reported":1761678507,"current_range_meters":2800,"station_id":"ce4bhq92rcd13ifvqhkg","pricing_plan_id":"cebpf4jnsgd1na2vs0mg"},{"bike_id":"e7c51890-36a7-4c64-b6cd-994a28e61372","system_id":"levelo_inurba_marseille","lat":43.2861,"lon":5.37064,"is_reserved":false,"is_disabled":false,"rental_uris":{"android":"levelo://app?vid=e7c51890-36a7-4c64-b6cd-994a28e61372","ios":"levelo://app?vid=e7c51890-36a7-4c64-b6cd-994a28e61372"},"vehicle_type_id":"4","last_reported":1761678507,"current_range_meters":2800,"station_id":"ce4bht12rcd13ifvqi60","pricing_plan_id":"cebpf4jnsgd1na2vs0mg"},{"bike_id":"a4c3c36f-6948-46fd-8869-ee704788b76d","system_id":"levelo_inurba_marseille","lat":43.290314,"lon":5.399688,"is_reserved":false,"is_disabled":false,"rental_uris":{"android":"levelo://app?vid=a4c3c36f-6948-46fd-8869-ee704788b76d","ios":"levelo://app?vid=a4c3c36f-6948-46fd-8869-ee704788b76d"},"vehicle_type_id":"4","last_reported":1761678507,"current_range_meters":3200,"station_id":"ce4bh392rcd13ifvqdm0","pricing_plan_id":"cebpf4jnsgd1na2vs0mg"},{"bike_id":"fe301956-02b1-4f8d-bcc9-9ddf23fcbdf3","system_id":"levelo_inurba_marseille","lat":43.29252,"lon":5.38428,"is_reserved":false,"is_disabled":false,"rental_uris":{"android":"levelo://app?vid=fe301956-02b1-4f8d-bcc9-9ddf23fcbdf3","ios":"levelo://app?vid=fe301956-02b1-4f8d-bcc9-9ddf23fcbdf3"},"vehicle_type_id":"4","last_reported":1761678507,"current_range_meters":3200,"station_id":"ce4bh692rcd13ifvqea0","pricing_plan_id":"cebpf4jnsgd1na2vs0mg"},{"bike_id":"cf144f0a-b181-4218-98f7-ad561026082b","system_id":"levelo_inurba_marseille","lat":43.29529,"lon":5.38547,"is_reserved":false,"is_disabled":false,"rental_uris":{"android":"levelo://app?vid=cf144f0a-b181-4218-98f7-ad561026082b","ios":"levelo://app?vid=cf144f0a-b181-4218-98f7-ad561026082b"},"vehicle_type_id":"4","last_reported":1761678507,"current_range_meters":3200,"station_id":"ce4bgih2rcd13ifvqba0","pricing_plan_id":"cebpf4jnsgd1na2vs0mg"},{"bike_id":"24cfc94f-0888-40f4-99bf-d458024628a3","system_id":"levelo_inurba_marseille","lat":43.304352,"lon":5.389,"is_reserved":false,"is_disabled":false,"rental_uris":{"android":"levelo://app?vid=24cfc94f-0888-40f4-99bf-d458024628a3","ios":"levelo://app?vid=24cfc94f-0888-40f4-99bf-d458024628a3"},"vehicle_type_id":"4","last_reported":1761678507,"current_range_meters":3200,"station_id":"","pricing_plan_id":"cebpf4jnsgd1na2vs0mg"},{"bike_id":"d0771583-dde9-4926-b574-1e81e8deb462","system_id":"levelo_inurba_marseille","lat":43.30115,"lon":5.43122,"is_reserved":false,"is_disabled":false,"rental_uris":{"android":"levelo://app?vid=d0771583-dde9-4926-b574-1e81e8deb462","ios":"levelo://app?vid=d0771583-dde9-4926-b574-1e81e8deb462"},"vehicle_type_id":"4","last_reported":1761678507,"current_range_meters":3200,"station_id":"st_d3js3co5814s73ftftug","pricing_plan_id":"cebpf4jnsgd1na2vs0mg"},{"bike_id":"f27ff263-9f71-4aaf-877f-50a73cba7a9b","system_id":"levelo_inurba_marseille","lat":43.3022,"lon":5.36618,"is_reserved":false,"is_disabled":true,"rental_uris":{"android":"levelo://app?vid=f27ff263-9f71-4aaf-877f-50a73cba7a9b","ios":"levelo://app?vid=f27ff263-9f71-4aaf-877f-50a73cba7a9b"},"vehicle_type_id":"4","last_reported":1761678507,"current_range_meters":3200,"station_id":"ce4bgrh2rcd13ifvqc8g","pricing_plan_id":"cebpf4jnsgd1na2vs0mg"},{"bike_id":"64b75b4a-3497-4861-8cc2-90dd62cd9f5e","system_id":"levelo_inurba_marseille","lat":43.29313,"lon":5.43461,"is_reserved":false,"is_disabled":false,"rental_uris":{"android":"levelo://app?vid=64b75b4a-3497-4861-8cc2-90dd62cd9f5e","ios":"levelo://app?vid=64b75b4a-3497-4861-8cc2-90dd62cd9f5e"},"vehicle_type_id":"4","last_reported":1761678507,"current_range_meters":3200,"station_id":"","pricing_plan_id":"cebpf4jnsgd1na2vs0mg"},{"bike_id":"12e0ab3c-4684-4b4b-872c-1b7c47bc3967","system_id":"levelo_inurba_marseille","lat":43.29034,"lon":5.38636,"is_reserved":false,"is_disabled":false,"rental_uris":{"android":"levelo://app?vid=12e0ab3c-4684-4b4b-872c-1b7c47bc3967","ios":"levelo://app?vid=12e0ab3c-4684-4b4b-872c-1b7c47bc3967"},"vehicle_type_id":"4","last_reported":1761678507,"current_range_meters":3200,"station_id":"ce4bh4p2rcd13ifvqe0g","pricing_plan_id":"cebpf4jnsgd1na2vs0mg"},{"bike_id":"99aa0d8a-8d1a-404d-9913-845056ffe0db","system_id":"levelo_inurba_marseille","lat":43.28104,"lon":5.37835,"is_reserved":false,"is_disabled":false,"rental_uris":{"android":"levelo://app?vid=99aa0d8a-8d1a-404d-9913-845056ffe0db","ios":"levelo://app?vid=99aa0d8a-8d1a-404d-9913-845056ffe0db"},"vehicle_type_id":"4","last_reported":1761678507,"current_range_meters":3600,"station_id":"ce4bha12rcd13ifvqee0","pricing_plan_id":"cebpf4jnsgd1na2vs0mg"},{"bike_id":"c8337a2d-a3fa-48ba-9011-5aef55d77d2e","system_id":"levelo_inurba_marseille","lat":43.33605,"lon":5.41032,"is_reserved":false,"is_disabled":false,"rental_uris":{"android":"levelo://app?vid=c8337a2d-a3fa-48ba-9011-5aef55d77d2e","ios":"levelo://app?vid=c8337a2d-a3fa-48ba-9011-5aef55d77d2e"},"vehicle_type_id":"4","last_reported":1761678507,"current_range_meters":3600,"station_id":"ce4bhqh2rcd13ifvqhmg","pricing_plan_id":"cebpf4jnsgd1na2vs0mg"},{"bike_id":"0173fcc7-da76-4707-a1f9-596ea300bc05","system_id":"levelo_inurba_marseille","lat":43.292508,"lon":5.408975,"is_reserved":false,"is_disabled":false,"rental_uris":{"android":"levelo://app?vid=0173fcc7-da76-4707-a1f9-596ea300bc05","ios":"levelo://app?vid=0173fcc7-da76-4707-a1f9-596ea300bc05"},"vehicle_type_id":"4","last_reported":1761678507,"current_range_meters":3600,"station_id":"ce4bh192rcd13ifvqdc0","pricing_plan_id":"cebpf4jnsgd1na2vs0mg"},{"bike_id":"1abfb55b-23b5-441f-abd9-97b458863c6c","system_id":"levelo_inurba_marseille","lat":43.296009,"lon":5.38091,"is_reserved":false,"is_disabled":false,"rental_uris":{"android":"levelo://app?vid=1abfb55b-23b5-441f-abd9-97b458863c6c","ios":"levelo://app?vid=1abfb55b-23b5-441f-abd9-97b458863c6c"},"vehicle_type_id":"4","last_reported":1761678507,"current_range_meters":3600,"station_id":"ce4bgl12rcd13ifvqbo0","pricing_plan_id":"cebpf4jnsgd1na2vs0mg"},{"bike_id":"3ea13603-c9ad-4550-9948-b83f47812af6","system_id":"levelo_inurba_marseille","lat":43.29079,"lon":5.36611,"is_reserved":false,"is_disabled":false,"rental_uris":{"android":"levelo://app?vid=3ea13603-c9ad-4550-9948-b83f47812af6","ios":"levelo://app?vid=3ea13603-c9ad-4550-9948-b83f47812af6"},"vehicle_type_id":"4","last_reported":1761678507,"current_range_meters":3600,"station_id":"","pricing_plan_id":"cebpf4jnsgd1na2vs0mg"},{"bike_id":"f3d487ec-e8af-410f-9125-31e627c86c51","system_id":"levelo_inurba_marseille","lat":43.30324,"lon":5.40427,"is_reserved":false,"is_disabled":false,"rental_uris":{"android":"levelo://app?vid=f3d487ec-e8af-410f-9125-31e627c86c51","ios":"levelo://app?vid=f3d487ec-e8af-410f-9125-31e627c86c51"},"vehicle_type_id":"4","last_reported":1761678507,"current_range_meters":3600,"station_id":"ce4bh012rcd13ifvqd10","pricing_plan_id":"cebpf4jnsgd1na2vs0mg"},{"bike_id":"de5cece4-6186-4ccb-b70e-a25e8bd3fc86","system_id":"levelo_inurba_marseille","lat":43.337444,"lon":5.374475,"is_reserved":false,"is_disabled":false,"rental_uris":{"android":"levelo://app?vid=de5cece4-6186-4ccb-b70e-a25e8bd3fc86","ios":"levelo://app?vid=de5cece4-6186-4ccb-b70e-a25e8bd3fc86"},"vehicle_type_id":"4","last_reported":1761678507,"current_range_meters":3600,"station_id":"","pricing_plan_id":"cebpf4jnsgd1na2vs0mg"},{"bike_id":"8a964a75-524d-41a0-aa75-038600584fff","system_id":"levelo_inurba_marseille","lat":43.296234,"lon":5.377049,"is_reserved":false,"is_disabled":false,"rental_uris":{"android":"levelo://app?vid=8a964a75-524d-41a0-aa75-038600584fff","ios":"levelo://app?vid=8a964a75-524d-41a0-aa75-038600584fff"},"vehicle_type_id":"4","last_reported":1761678507,"current_range_meters":4000,"station_id":"ce4bgi92rcd13ifvqb90","pricing_plan_id":"cebpf4jnsgd1na2vs0mg"},{"bike_id":"98aa57a9-d40e-415b-9c5f-f161976147b8","system_id":"levelo_inurba_marseille","lat":43.30126,"lon":5.39861,"is_reserved":false,"is_disabled":false,"rental_uris":{"android":"levelo://app?vid=98aa57a9-d40e-415b-9c5f-f161976147b8","ios":"levelo://app?vid=98aa57a9-d40e-415b-9c5f-f161976147b8"},"vehicle_type_id":"4","last_reported":1761678507,"current_range_meters":4000,"station_id":"ce4bh0h2rcd13ifvqd40","pricing_plan_id":"cebpf4jnsgd1na2vs0mg"},{"bike_id":"109f7267-5808-4335-b1e2-ea2bb7227567","system_id":"levelo_inurba_marseille","lat":43.30424,"lon":5.38886,"is_reserved":false,"is_disabled":false,"rental_uris":{"android":"levelo://app?vid=109f7267-5808-4335-b1e2-ea2bb7227567","ios":"levelo://app?vid=109f7267-5808-4335-b1e2-ea2bb7227567"},"vehicle_type_id":"4","last_reported":1761678507,"current_range_meters":4400,"station_id":"ce4bgk12rcd13ifvqbi0","pricing_plan_id":"cebpf4jnsgd1na2vs0mg"},{"bike_id":"7d89e26d-5e16-4ff1-81e6-24751ef93144","system_id":"levelo_inurba_marseille","lat":43.29878,"lon":5.3891,"is_reserved":false,"is_disabled":false,"rental_uris":{"android":"levelo://app?vid=7d89e26d-5e16-4ff1-81e6-24751ef93144","ios":"levelo://app?vid=7d89e26d-5e16-4ff1-81e6-24751ef93144"},"vehicle_type_id":"4","last_reported":1761678507,"current_range_meters":4400,"station_id":"ce4bh392rcd13ifvqdl0","pricing_plan_id":"cebpf4jnsgd1na2vs0mg"},{"bike_id":"e4ccce50-4824-4895-aa8c-033835526f23","system_id":"levelo_inurba_marseille","lat":43.31877,"lon":5.39984,"is_reserved":false,"is_disabled":false,"rental_uris":{"android":"levelo://app?vid=e4ccce50-4824-4895-aa8c-033835526f23","ios":"levelo://app?vid=e4ccce50-4824-4895-aa8c-033835526f23"},"vehicle_type_id":"4","last_reported":1761678507,"current_range_meters":4400,"station_id":"","pricing_plan_id":"cebpf4jnsgd1na2vs0mg"},{"bike_id":"096c1bf4-7c05-41df-885e-873c5199c9a2","system_id":"levelo_inurba_marseille","lat":43.29195,"lon":5.35809,"is_reserved":false,"is_disabled":false,"rental_uris":{"android":"levelo://app?vid=096c1bf4-7c05-41df-885e-873c5199c9a2","ios":"levelo://app?vid=096c1bf4-7c05-41df-885e-873c5199c9a2"},"vehicle_type_id":"4","last_reported":1761678507,"current_range_meters":4800,"station_id":"ce4bhb12rcd13ifvqel0","pricing_plan_id":"cebpf4jnsgd1na2vs0mg"},{"bike_id":"bc5ba124-b3e1-4657-b995-1069d5a28c49","system_id":"levelo_inurba_marseille","lat":43.30213,"lon":5.394769,"is_reserved":false,"is_disabled":false,"rental_uris":{"android":"levelo://app?vid=bc5ba124-b3e1-4657-b995-1069d5a28c49","ios":"levelo://app?vid=bc5ba124-b3e1-4657-b995-1069d5a28c49"},"vehicle_type_id":"4","last_reported":1761678507,"current_range_meters":4800,"station_id":"ce4bh0p2rcd13ifvqd70","pricing_plan_id":"cebpf4jnsgd1na2vs0mg"},{"bike_id":"db89d7d3-195a-4681-861b-514f5dfab54b","system_id":"levelo_inurba_marseille","lat":43.287109,"lon":5.373883,"is_reserved":false,"is_disabled":false,"rental_uris":{"android":"levelo://app?vid=db89d7d3-195a-4681-861b-514f5dfab54b","ios":"levelo://app?vid=db89d7d3-195a-4681-861b-514f5dfab54b"},"vehicle_type_id":"4","last_reported":1761678507,"current_range_meters":4800,"station_id":"ce4bh3p2rcd13ifvqdq0","pricing_plan_id":"cebpf4jnsgd1na2vs0mg"},{"bike_id":"c1728c84-71cf-4a63-a1d0-ef30d2bfb996","system_id":"levelo_inurba_marseille","lat":43.29612,"lon":5.3808,"is_reserved":false,"is_disabled":false,"rental_uris":{"android":"levelo://app?vid=c1728c84-71cf-4a63-a1d0-ef30d2bfb996","ios":"levelo://app?vid=c1728c84-71cf-4a63-a1d0-ef30d2bfb996"},"vehicle_type_id":"4","last_reported":1761678507,"current_range_meters":4800,"station_id":"ce4bgl12rcd13ifvqbo0","pricing_plan_id":"cebpf4jnsgd1na2vs0mg"},{"bike_id":"ff47bb6a-259f-4abd-b272-7462ca9a56ef","system_id":"levelo_inurba_marseille","lat":43.28099,"lon":5.37838,"is_reserved":false,"is_disabled":false,"rental_uris":{"android":"levelo://app?vid=ff47bb6a-259f-4abd-b272-7462ca9a56ef","ios":"levelo://app?vid=ff47bb6a-259f-4abd-b272-7462ca9a56ef"},"vehicle_type_id":"4","last_reported":1761678507,"current_range_meters":4800,"station_id":"ce4bha12rcd13ifvqee0","pricing_plan_id":"cebpf4jnsgd1na2vs0mg"},{"bike_id":"a8e0f791-edf0-45ac-a080-13dfc7bd1e28","system_id":"levelo_inurba_marseille","lat":43.290554,"lon":5.386153,"is_reserved":false,"is_disabled":false,"rental_uris":{"android":"levelo://app?vid=a8e0f791-edf0-45ac-a080-13dfc7bd1e28","ios":"levelo://app?vid=a8e0f791-edf0-45ac-a080-13dfc7bd1e28"},"vehicle_type_id":"4","last_reported":1761678507,"current_range_meters":4800,"station_id":"ce4bh4p2rcd13ifvqe0g","pricing_plan_id":"cebpf4jnsgd1na2vs0mg"},{"bike_id":"ca0c176a-d364-4879-bd75-924202258b5d","system_id":"levelo_inurba_marseille","lat":43.26954,"lon":5.38624,"is_reserved":false,"is_disabled":false,"rental_uris":{"android":"levelo://app?vid=ca0c176a-d364-4879-bd75-924202258b5d","ios":"levelo://app?vid=ca0c176a-d364-4879-bd75-924202258b5d"},"vehicle_type_id":"4","last_reported":1761678507,"current_range_meters":4800,"station_id":"ce4bhh92rcd13ifvqfh0","pricing_plan_id":"cebpf4jnsgd1na2vs0mg"},{"bike_id":"b5471cc1-04c0-497a-8f17-79c7dbd341af","system_id":"levelo_inurba_marseille","lat":43.29262,"lon":5.40911,"is_reserved":false,"is_disabled":false,"rental_uris":{"android":"levelo://app?vid=b5471cc1-04c0-497a-8f17-79c7dbd341af","ios":"levelo://app?vid=b5471cc1-04c0-497a-8f17-79c7dbd341af"},"vehicle_type_id":"4","last_reported":1761678507,"current_range_meters":4800,"station_id":"ce4bh192rcd13ifvqdc0","pricing_plan_id":"cebpf4jnsgd1na2vs0mg"},{"bike_id":"7866ce9b-2fae-4ce5-a047-dac20499ef2d","system_id":"levelo_inurba_marseille","lat":43.31335,"lon":5.39739,"is_reserved":false,"is_disabled":false,"rental_uris":{"android":"levelo://app?vid=7866ce9b-2fae-4ce5-a047-dac20499ef2d","ios":"levelo://app?vid=7866ce9b-2fae-4ce5-a047-dac20499ef2d"},"vehicle_type_id":"4","last_reported":1761678507,"current_range_meters":4800,"station_id":"ce4bgvp2rcd13ifvqcu0","pricing_plan_id":"cebpf4jnsgd1na2vs0mg"},{"bike_id":"78000d95-c8c2-4614-be8b-4ad1593c9e48","system_id":"levelo_inurba_marseille","lat":43.31748,"lon":5.39017,"is_reserved":false,"is_disabled":false,"rental_uris":{"android":"levelo://app?vid=78000d95-c8c2-4614-be8b-4ad1593c9e48","ios":"levelo://app?vid=78000d95-c8c2-4614-be8b-4ad1593c9e48"},"vehicle_type_id":"4","last_reported":1761678507,"current_range_meters":4800,"station_id":"ce4bhqp2rcd13ifvqhng","pricing_plan_id":"cebpf4jnsgd1na2vs0mg"},{"bike_id":"3f7c552a-2a9b-4bf8-95bd-507570380f71","system_id":"levelo_inurba_marseille","lat":43.28696,"lon":5.37937,"is_reserved":false,"is_disabled":false,"rental_uris":{"android":"levelo://app?vid=3f7c552a-2a9b-4bf8-95bd-507570380f71","ios":"levelo://app?vid=3f7c552a-2a9b-4bf8-95bd-507570380f71"},"vehicle_type_id":"4","last_reported":1761678507,"current_range_meters":5600,"station_id":"","pricing_plan_id":"cebpf4jnsgd1na2vs0mg"},{"bike_id":"c48dc094-4c25-4b99-9aa9-ff1b8c1db8dc","system_id":"levelo_inurba_marseille","lat":43.225322,"lon":5.348327,"is_reserved":false,"is_disabled":false,"rental_uris":{"android":"levelo://app?vid=c48dc094-4c25-4b99-9aa9-ff1b8c1db8dc","ios":"levelo://app?vid=c48dc094-4c25-4b99-9aa9-ff1b8c1db8dc"},"vehicle_type_id":"4","last_reported":1761678507,"current_range_meters":5600,"station_id":"","pricing_plan_id":"cebpf4jnsgd1na2vs0mg"},{"bike_id":"0cb73de8-c257-4bf0-86a7-e0346fa54734","system_id":"levelo_inurba_marseille","lat":43.31174,"lon":5.37734,"is_reserved":false,"is_disabled":false,"rental_uris":{"android":"levelo://app?vid=0cb73de8-c257-4bf0-86a7-e0346fa54734","ios":"levelo://app?vid=0cb73de8-c257-4bf0-86a7-e0346fa54734"},"vehicle_type_id":"4","last_reported":1761678507,"current_range_meters":5600,"station_id":"","pricing_plan_id":"cebpf4jnsgd1na2vs0mg"},{"bike_id":"87e79121-afb3-4533-9ff8-e639873b93f4","system_id":"levelo_inurba_marseille","lat":43.29871,"lon":5.39728,"is_reserved":false,"is_disabled":false,"rental_uris":{"android":"levelo://app?vid=87e79121-afb3-4533-9ff8-e639873b93f4","ios":"levelo://app?vid=87e79121-afb3-4533-9ff8-e639873b93f4"},"vehicle_type_id":"4","last_reported":1761678507,"current_range_meters":5600,"station_id":"ce4bh0h2rcd13ifvqd50","pricing_plan_id":"cebpf4jnsgd1na2vs0mg"},{"bike_id":"968fc14c-d913-428d-a8ea-9c3f6cdc87c3","system_id":"levelo_inurba_marseille","lat":43.313289,"lon":5.396889,"is_reserved":false,"is_disabled":false,"rental_uris":{"android":"levelo://app?vid=968fc14c-d913-428d-a8ea-9c3f6cdc87c3","ios":"levelo://app?vid=968fc14c-d913-428d-a8ea-9c3f6cdc87c3"},"vehicle_type_id":"4","last_reported":1761678507,"current_range_meters":5600,"station_id":"ce4bgvp2rcd13ifvqcu0","pricing_plan_id":"cebpf4jnsgd1na2vs0mg"},{"bike_id":"2c09e33b-95e1-46e8-946c-069abd0b71c1","system_id":"levelo_inurba_marseille","lat":43.28647,"lon":5.38658,"is_reserved":false,"is_disabled":false,"rental_uris":{"android":"levelo://app?vid=2c09e33b-95e1-46e8-946c-069abd0b71c1","ios":"levelo://app?vid=2c09e33b-95e1-46e8-946c-069abd0b71c1"},"vehicle_type_id":"4","last_reported":1761678507,"current_range_meters":6000,"station_id":"ce4bh492rcd13ifvqdug","pricing_plan_id":"cebpf4jnsgd1na2vs0mg"},{"bike_id":"aba6b563-5093-4f2c-abdc-45b501f05388","system_id":"levelo_inurba_marseille","lat":43.27088,"lon":5.38276,"is_reserved":false,"is_disabled":true,"rental_uris":{"android":"levelo://app?vid=aba6b563-5093-4f2c-abdc-45b501f05388","ios":"levelo://app?vid=aba6b563-5093-4f2c-abdc-45b501f05388"},"vehicle_type_id":"4","last_reported":1761678507,"current_range_meters":6000,"station_id":"st_d3n2fo6cfp8s73cte1j0","pricing_plan_id":"cebpf4jnsgd1na2vs0mg"},{"bike_id":"8acb5cc7-99fe-4243-b151-8cca93051610","system_id":"levelo_inurba_marseille","lat":43.28572,"lon":5.39501,"is_reserved":false,"is_disabled":false,"rental_uris":{"android":"levelo://app?vid=8acb5cc7-99fe-4243-b151-8cca93051610","ios":"levelo://app?vid=8acb5cc7-99fe-4243-b151-8cca93051610"},"vehicle_type_id":"4","last_reported":1761678507,"current_range_meters":6000,"station_id":"ce4bh292rcd13ifvqdg0","pricing_plan_id":"cebpf4jnsgd1na2vs0mg"},{"bike_id":"ce83f49d-15a4-45ce-bcbe-b3f4a555f5c9","system_id":"levelo_inurba_marseille","lat":43.30447,"lon":5.38899,"is_reserved":false,"is_disabled":false,"rental_uris":{"android":"levelo://app?vid=ce83f49d-15a4-45ce-bcbe-b3f4a555f5c9","ios":"levelo://app?vid=ce83f49d-15a4-45ce-bcbe-b3f4a555f5c9"},"vehicle_type_id":"4","last_reported":1761678507,"current_range_meters":6000,"station_id":"ce4bgk12rcd13ifvqbi0","pricing_plan_id":"cebpf4jnsgd1na2vs0mg"},{"bike_id":"d31b9fb1-06d8-48cc-99e6-4d83700d93cc","system_id":"levelo_inurba_marseille","lat":43.29897,"lon":5.43688,"is_reserved":false,"is_disabled":false,"rental_uris":{"android":"levelo://app?vid=d31b9fb1-06d8-48cc-99e6-4d83700d93cc","ios":"levelo://app?vid=d31b9fb1-06d8-48cc-99e6-4d83700d93cc"},"vehicle_type_id":"4","last_reported":1761678507,"current_range_meters":6000,"station_id":"ce4bhpp2rcd13ifvqhfg","pricing_plan_id":"cebpf4jnsgd1na2vs0mg"},{"bike_id":"53e8a7b3-8d90-49b0-a347-b6c9d39d23ea","system_id":"levelo_inurba_marseille","lat":43.28403,"lon":5.37513,"is_reserved":false,"is_disabled":false,"rental_uris":{"android":"levelo://app?vid=53e8a7b3-8d90-49b0-a347-b6c9d39d23ea","ios":"levelo://app?vid=53e8a7b3-8d90-49b0-a347-b6c9d39d23ea"},"vehicle_type_id":"4","last_reported":1761678507,"current_range_meters":6400,"station_id":"ce4bh412rcd13ifvqds0","pricing_plan_id":"cebpf4jnsgd1na2vs0mg"},{"bike_id":"407b13b5-9bab-4143-8f61-54ea53bb559f","system_id":"levelo_inurba_marseille","lat":43.30434,"lon":5.39743,"is_reserved":false,"is_disabled":false,"rental_uris":{"android":"levelo://app?vid=407b13b5-9bab-4143-8f61-54ea53bb559f","ios":"levelo://app?vid=407b13b5-9bab-4143-8f61-54ea53bb559f"},"vehicle_type_id":"4","last_reported":1761678507,"current_range_meters":6400,"station_id":"ce4bh092rcd13ifvqd20","pricing_plan_id":"cebpf4jnsgd1na2vs0mg"},{"bike_id":"1658feda-bd17-4ba3-b055-fda290c11fec","system_id":"levelo_inurba_marseille","lat":43.30245,"lon":5.40061,"is_reserved":false,"is_disabled":false,"rental_uris":{"android":"levelo://app?vid=1658feda-bd17-4ba3-b055-fda290c11fec","ios":"levelo://app?vid=1658feda-bd17-4ba3-b055-fda290c11fec"},"vehicle_type_id":"4","last_reported":1761678507,"current_range_meters":6400,"station_id":"ce4bgvh2rcd13ifvqcs0","pricing_plan_id":"cebpf4jnsgd1na2vs0mg"},{"bike_id":"1a48d584-f5b9-418d-823b-d5b1a37d9c30","system_id":"levelo_inurba_marseille","lat":43.29036,"lon":5.38639,"is_reserved":false,"is_disabled":false,"rental_uris":{"android":"levelo://app?vid=1a48d584-f5b9-418d-823b-d5b1a37d9c30","ios":"levelo://app?vid=1a48d584-f5b9-418d-823b-d5b1a37d9c30"},"vehicle_type_id":"4","last_reported":1761678507,"current_range_meters":6400,"station_id":"ce4bh4p2rcd13ifvqe0g","pricing_plan_id":"cebpf4jnsgd1na2vs0mg"},{"bike_id":"9dfe7b3b-a07b-4b4b-b593-31acd83c990f","system_id":"levelo_inurba_marseille","lat":43.29419,"lon":5.37411,"is_reserved":false,"is_disabled":false,"rental_uris":{"android":"levelo://app?vid=9dfe7b3b-a07b-4b4b-b593-31acd83c990f","ios":"levelo://app?vid=9dfe7b3b-a07b-4b4b-b593-31acd83c990f"},"vehicle_type_id":"4","last_reported":1761678507,"current_range_meters":6400,"station_id":"","pricing_plan_id":"cebpf4jnsgd1na2vs0mg"},{"bike_id":"141b1183-68cb-4dc4-b5e5-083c6cf38095","system_id":"levelo_inurba_marseille","lat":43.30083,"lon":5.39068,"is_reserved":false,"is_disabled":false,"rental_uris":{"android":"levelo://app?vid=141b1183-68cb-4dc4-b5e5-083c6cf38095","ios":"levelo://app?vid=141b1183-68cb-4dc4-b5e5-083c6cf38095"},"vehicle_type_id":"4","last_reported":1761678507,"current_range_meters":6400,"station_id":"ce4bh192rcd13ifvqdb0","pricing_plan_id":"cebpf4jnsgd1na2vs0mg"},{"bike_id":"9d687930-b256-4084-ad8d-02f43414878b","system_id":"levelo_inurba_marseille","lat":43.28848,"lon":5.39296,"is_reserved":false,"is_disabled":false,"rental_uris":{"android":"levelo://app?vid=9d687930-b256-4084-ad8d-02f43414878b","ios":"levelo://app?vid=9d687930-b256-4084-ad8d-02f43414878b"},"vehicle_type_id":"4","last_reported":1761678507,"current_range_meters":6800,"station_id":"ce4bh2p2rcd13ifvqdi0","pricing_plan_id":"cebpf4jnsgd1na2vs0mg"},{"bike_id":"9eaad2d7-676f-4c42-aca8-b13b6a977d52","system_id":"levelo_inurba_marseille","lat":43.30701,"lon":5.40095,"is_reserved":false,"is_disabled":false,"rental_uris":{"android":"levelo://app?vid=9eaad2d7-676f-4c42-aca8-b13b6a977d52","ios":"levelo://app?vid=9eaad2d7-676f-4c42-aca8-b13b6a977d52"},"vehicle_type_id":"4","last_reported":1761678507,"current_range_meters":6800,"station_id":"ce4bh112rcd13ifvqda0","pricing_plan_id":"cebpf4jnsgd1na2vs0mg"},{"bike_id":"c5aad584-a2e8-4fb5-a21d-4ac2d2737573","system_id":"levelo_inurba_marseille","lat":43.30308,"lon":5.39206,"is_reserved":false,"is_disabled":false,"rental_uris":{"android":"levelo://app?vid=c5aad584-a2e8-4fb5-a21d-4ac2d2737573","ios":"levelo://app?vid=c5aad584-a2e8-4fb5-a21d-4ac2d2737573"},"vehicle_type_id":"4","last_reported":1761678507,"current_range_meters":6800,"station_id":"ce4bgkh2rcd13ifvqbk0","pricing_plan_id":"cebpf4jnsgd1na2vs0mg"},{"bike_id":"a712ca6d-ae26-4941-af87-4bb0310101a1","system_id":"levelo_inurba_marseille","lat":43.30209,"lon":5.39463,"is_reserved":false,"is_disabled":false,"rental_uris":{"android":"levelo://app?vid=a712ca6d-ae26-4941-af87-4bb0310101a1","ios":"levelo://app?vid=a712ca6d-ae26-4941-af87-4bb0310101a1"},"vehicle_type_id":"4","last_reported":1761678507,"current_range_meters":6800,"station_id":"ce4bh0p2rcd13ifvqd70","pricing_plan_id":"cebpf4jnsgd1na2vs0mg"},{"bike_id":"18619ea4-1d14-4ba8-9170-8189de5d4da4","system_id":"levelo_inurba_marseille","lat":43.29225,"lon":5.37714,"is_reserved":false,"is_disabled":false,"rental_uris":{"android":"levelo://app?vid=18619ea4-1d14-4ba8-9170-8189de5d4da4","ios":"levelo://app?vid=18619ea4-1d14-4ba8-9170-8189de5d4da4"},"vehicle_type_id":"4","last_reported":1761678507,"current_range_meters":6800,"station_id":"","pricing_plan_id":"cebpf4jnsgd1na2vs0mg"},{"bike_id":"66b6e8bc-c430-4d9a-8cce-3b25c01e7005","system_id":"levelo_inurba_marseille","lat":43.24638,"lon":5.43136,"is_reserved":false,"is_disabled":false,"rental_uris":{"android":"levelo://app?vid=66b6e8bc-c430-4d9a-8cce-3b25c01e7005","ios":"levelo://app?vid=66b6e8bc-c430-4d9a-8cce-3b25c01e7005"},"vehicle_type_id":"4","last_reported":1761678507,"current_range_meters":6800,"station_id":"st_d2m6c4gdas8pm72e190g","pricing_plan_id":"cebpf4jnsgd1na2vs0mg"},{"bike_id":"019f8763-46c9-4175-b065-52bcdf738b89","system_id":"levelo_inurba_marseille","lat":43.28924,"lon":5.364,"is_reserved":false,"is_disabled":false,"rental_uris":{"android":"levelo://app?vid=019f8763-46c9-4175-b065-52bcdf738b89","ios":"levelo://app?vid=019f8763-46c9-4175-b065-52bcdf738b89"},"vehicle_type_id":"4","last_reported":1761678507,"current_range_meters":6800,"station_id":"ce4bhc92rcd13ifvqetg","pricing_plan_id":"cebpf4jnsgd1na2vs0mg"},{"bike_id":"5b904545-dda1-47bb-8235-616e32cd5008","system_id":"levelo_inurba_marseille","lat":43.29299,"lon":5.37435,"is_reserved":false,"is_disabled":false,"rental_uris":{"android":"levelo://app?vid=5b904545-dda1-47bb-8235-616e32cd5008","ios":"levelo://app?vid=5b904545-dda1-47bb-8235-616e32cd5008"},"vehicle_type_id":"4","last_reported":1761678507,"current_range_meters":7200,"station_id":"ce4bgi12rcd13ifvqb70","pricing_plan_id":"cebpf4jnsgd1na2vs0mg"},{"bike_id":"27453300-f89c-466f-b814-533b6914b32d","system_id":"levelo_inurba_marseille","lat":43.29964,"lon":5.38492,"is_reserved":false,"is_disabled":false,"rental_uris":{"android":"levelo://app?vid=27453300-f89c-466f-b814-533b6914b32d","ios":"levelo://app?vid=27453300-f89c-466f-b814-533b6914b32d"},"vehicle_type_id":"4","last_reported":1761678507,"current_range_meters":7200,"station_id":"ce4bgj92rcd13ifvqbd0","pricing_plan_id":"cebpf4jnsgd1na2vs0mg"},{"bike_id":"b093de27-8485-469c-a3f5-e2b5f3cf2a71","system_id":"levelo_inurba_marseille","lat":43.25869,"lon":5.39893,"is_reserved":false,"is_disabled":false,"rental_uris":{"android":"levelo://app?vid=b093de27-8485-469c-a3f5-e2b5f3cf2a71","ios":"levelo://app?vid=b093de27-8485-469c-a3f5-e2b5f3cf2a71"},"vehicle_type_id":"4","last_reported":1761678507,"current_range_meters":7200,"station_id":"ce4bhl92rcd13ifvqghg","pricing_plan_id":"cebpf4jnsgd1na2vs0mg"},{"bike_id":"9275e5cb-1003-4991-8cd3-c71cc7428000","system_id":"levelo_inurba_marseille","lat":43.29533,"lon":5.39032,"is_reserved":false,"is_disabled":false,"rental_uris":{"android":"levelo://app?vid=9275e5cb-1003-4991-8cd3-c71cc7428000","ios":"levelo://app?vid=9275e5cb-1003-4991-8cd3-c71cc7428000"},"vehicle_type_id":"4","last_reported":1761678507,"current_range_meters":7200,"station_id":"ce4bh3p2rcd13ifvqdp0","pricing_plan_id":"cebpf4jnsgd1na2vs0mg"},{"bike_id":"db882984-a3d5-4812-a9b1-c6b3e8a0406e","system_id":"levelo_inurba_marseille","lat":43.30376,"lon":5.42489,"is_reserved":false,"is_disabled":false,"rental_uris":{"android":"levelo://app?vid=db882984-a3d5-4812-a9b1-c6b3e8a0406e","ios":"levelo://app?vid=db882984-a3d5-4812-a9b1-c6b3e8a0406e"},"vehicle_type_id":"4","last_reported":1761678507,"current_range_meters":7200,"station_id":"ce4bhoh2rcd13ifvqh6g","pricing_plan_id":"cebpf4jnsgd1na2vs0mg"},{"bike_id":"b714f16e-ca94-4625-9426-f179ecab8b23","system_id":"levelo_inurba_marseille","lat":43.295319,"lon":5.390395,"is_reserved":false,"is_disabled":false,"rental_uris":{"android":"levelo://app?vid=b714f16e-ca94-4625-9426-f179ecab8b23","ios":"levelo://app?vid=b714f16e-ca94-4625-9426-f179ecab8b23"},"vehicle_type_id":"4","last_reported":1761678507,"current_range_meters":7200,"station_id":"","pricing_plan_id":"cebpf4jnsgd1na2vs0mg"},{"bike_id":"13e2c97f-09dd-4126-9b7a-0eb2e83aba46","system_id":"levelo_inurba_marseille","lat":43.28927,"lon":5.36385,"is_reserved":false,"is_disabled":false,"rental_uris":{"android":"levelo://app?vid=13e2c97f-09dd-4126-9b7a-0eb2e83aba46","ios":"levelo://app?vid=13e2c97f-09dd-4126-9b7a-0eb2e83aba46"},"vehicle_type_id":"4","last_reported":1761678507,"current_range_meters":7200,"station_id":"ce4bhc92rcd13ifvqetg","pricing_plan_id":"cebpf4jnsgd1na2vs0mg"},{"bike_id":"c1c432ef-0795-4162-af23-9ed48b27dd51","system_id":"levelo_inurba_marseille","lat":43.298614,"lon":5.363882,"is_reserved":false,"is_disabled":false,"rental_uris":{"android":"levelo://app?vid=c1c432ef-0795-4162-af23-9ed48b27dd51","ios":"levelo://app?vid=c1c432ef-0795-4162-af23-9ed48b27dd51"},"vehicle_type_id":"4","last_reported":1761678507,"current_range_meters":8000,"station_id":"ce4bgpp2rcd13ifvqc3g","pricing_plan_id":"cebpf4jnsgd1na2vs0mg"},{"bike_id":"fd09dbe7-0bec-431b-9705-875a0c7a7829","system_id":"levelo_inurba_marseille","lat":43.2306,"lon":5.35482,"is_reserved":false,"is_disabled":true,"rental_uris":{"android":"levelo://app?vid=fd09dbe7-0bec-431b-9705-875a0c7a7829","ios":"levelo://app?vid=fd09dbe7-0bec-431b-9705-875a0c7a7829"},"vehicle_type_id":"4","last_reported":1761678507,"current_range_meters":8000,"station_id":"cpo3342slgdg3j2ifvpg","pricing_plan_id":"cebpf4jnsgd1na2vs0mg"},{"bike_id":"609a9047-57e2-4b1e-851d-8b6ef3587f94","system_id":"levelo_inurba_marseille","lat":43.28609,"lon":5.37068,"is_reserved":false,"is_disabled":false,"rental_uris":{"android":"levelo://app?vid=609a9047-57e2-4b1e-851d-8b6ef3587f94","ios":"levelo://app?vid=609a9047-57e2-4b1e-851d-8b6ef3587f94"},"vehicle_type_id":"4","last_reported":1761678507,"current_range_meters":8000,"station_id":"ce4bht12rcd13ifvqi60","pricing_plan_id":"cebpf4jnsgd1na2vs0mg"},{"bike_id":"e19b3a98-7b50-4ca7-a55d-20d5047255d4","system_id":"levelo_inurba_marseille","lat":43.27671,"lon":5.38866,"is_reserved":false,"is_disabled":false,"rental_uris":{"android":"levelo://app?vid=e19b3a98-7b50-4ca7-a55d-20d5047255d4","ios":"levelo://app?vid=e19b3a98-7b50-4ca7-a55d-20d5047255d4"},"vehicle_type_id":"4","last_reported":1761678507,"current_range_meters":8000,"station_id":"ce4bhi12rcd13ifvqfo0","pricing_plan_id":"cebpf4jnsgd1na2vs0mg"},{"bike_id":"0da36f85-c9c3-4754-921b-9ff4fd26bd67","system_id":"levelo_inurba_marseille","lat":43.30317,"lon":5.39204,"is_reserved":false,"is_disabled":false,"rental_uris":{"android":"levelo://app?vid=0da36f85-c9c3-4754-921b-9ff4fd26bd67","ios":"levelo://app?vid=0da36f85-c9c3-4754-921b-9ff4fd26bd67"},"vehicle_type_id":"4","last_reported":1761678507,"current_range_meters":8000,"station_id":"ce4bgkh2rcd13ifvqbk0","pricing_plan_id":"cebpf4jnsgd1na2vs0mg"},{"bike_id":"eea3c3c3-734f-4fd3-8061-ed84cfe47b38","system_id":"levelo_inurba_marseille","lat":43.32577,"lon":5.39154,"is_reserved":false,"is_disabled":false,"rental_uris":{"android":"levelo://app?vid=eea3c3c3-734f-4fd3-8061-ed84cfe47b38","ios":"levelo://app?vid=eea3c3c3-734f-4fd3-8061-ed84cfe47b38"},"vehicle_type_id":"4","last_reported":1761678507,"current_range_meters":8000,"station_id":"","pricing_plan_id":"cebpf4jnsgd1na2vs0mg"},{"bike_id":"1b8b63ec-7548-4816-b198-44e2162337ac","system_id":"levelo_inurba_marseille","lat":43.30681,"lon":5.40096,"is_reserved":false,"is_disabled":true,"rental_uris":{"android":"levelo://app?vid=1b8b63ec-7548-4816-b198-44e2162337ac","ios":"levelo://app?vid=1b8b63ec-7548-4816-b198-44e2162337ac"},"vehicle_type_id":"4","last_reported":1761678507,"current_range_meters":8000,"station_id":"ce4bh112rcd13ifvqda0","pricing_plan_id":"cebpf4jnsgd1na2vs0mg"},{"bike_id":"e4fd9ca6-7b99-43f9-a59b-0cb9e4c40d4b","system_id":"levelo_inurba_marseille","lat":43.29022,"lon":5.38643,"is_reserved":false,"is_disabled":false,"rental_uris":{"android":"levelo://app?vid=e4fd9ca6-7b99-43f9-a59b-0cb9e4c40d4b","ios":"levelo://app?vid=e4fd9ca6-7b99-43f9-a59b-0cb9e4c40d4b"},"vehicle_type_id":"4","last_reported":1761678507,"current_range_meters":8000,"station_id":"ce4bh4p2rcd13ifvqe0g","pricing_plan_id":"cebpf4jnsgd1na2vs0mg"},{"bike_id":"ee481740-1492-489d-a140-b93c62b22a16","system_id":"levelo_inurba_marseille","lat":43.23059,"lon":5.35492,"is_reserved":false,"is_disabled":false,"rental_uris":{"android":"levelo://app?vid=ee481740-1492-489d-a140-b93c62b22a16","ios":"levelo://app?vid=ee481740-1492-489d-a140-b93c62b22a16"},"vehicle_type_id":"4","last_reported":1761678507,"current_range_meters":8000,"station_id":"cpo3342slgdg3j2ifvpg","pricing_plan_id":"cebpf4jnsgd1na2vs0mg"},{"bike_id":"52f7e78f-9253-4821-9899-b00bebf49ed7","system_id":"levelo_inurba_marseille","lat":43.29524,"lon":5.38543,"is_reserved":false,"is_disabled":false,"rental_uris":{"android":"levelo://app?vid=52f7e78f-9253-4821-9899-b00bebf49ed7","ios":"levelo://app?vid=52f7e78f-9253-4821-9899-b00bebf49ed7"},"vehicle_type_id":"4","last_reported":1761678507,"current_range_meters":8000,"station_id":"ce4bgih2rcd13ifvqba0","pricing_plan_id":"cebpf4jnsgd1na2vs0mg"},{"bike_id":"a91b4918-25d1-4e67-aa5b-c71df8be0476","system_id":"levelo_inurba_marseille","lat":43.31162,"lon":5.38722,"is_reserved":false,"is_disabled":false,"rental_uris":{"android":"levelo://app?vid=a91b4918-25d1-4e67-aa5b-c71df8be0476","ios":"levelo://app?vid=a91b4918-25d1-4e67-aa5b-c71df8be0476"},"vehicle_type_id":"4","last_reported":1761678507,"current_range_meters":8000,"station_id":"ce4bgv12rcd13ifvqcp0","pricing_plan_id":"cebpf4jnsgd1na2vs0mg"},{"bike_id":"6ef7ec01-ec6d-4143-85c9-e3712bd5afef","system_id":"levelo_inurba_marseille","lat":43.29846,"lon":5.381053,"is_reserved":false,"is_disabled":false,"rental_uris":{"android":"levelo://app?vid=6ef7ec01-ec6d-4143-85c9-e3712bd5afef","ios":"levelo://app?vid=6ef7ec01-ec6d-4143-85c9-e3712bd5afef"},"vehicle_type_id":"4","last_reported":1761678507,"current_range_meters":8400,"station_id":"ce4bgj12rcd13ifvqbc0","pricing_plan_id":"cebpf4jnsgd1na2vs0mg"},{"bike_id":"5365bf1e-a509-4be8-9045-f7da9c3da202","system_id":"levelo_inurba_marseille","lat":43.28683,"lon":5.38655,"is_reserved":false,"is_disabled":false,"rental_uris":{"android":"levelo://app?vid=5365bf1e-a509-4be8-9045-f7da9c3da202","ios":"levelo://app?vid=5365bf1e-a509-4be8-9045-f7da9c3da202"},"vehicle_type_id":"4","last_reported":1761678507,"current_range_meters":8400,"station_id":"ce4bh492rcd13ifvqdug","pricing_plan_id":"cebpf4jnsgd1na2vs0mg"},{"bike_id":"c698074b-e2a6-44e7-beba-3f0d874adffe","system_id":"levelo_inurba_marseille","lat":43.29709,"lon":5.3659,"is_reserved":false,"is_disabled":false,"rental_uris":{"android":"levelo://app?vid=c698074b-e2a6-44e7-beba-3f0d874adffe","ios":"levelo://app?vid=c698074b-e2a6-44e7-beba-3f0d874adffe"},"vehicle_type_id":"4","last_reported":1761678507,"current_range_meters":8400,"station_id":"ce4bgn12rcd13ifvqbt0","pricing_plan_id":"cebpf4jnsgd1na2vs0mg"},{"bike_id":"5eccf598-d1b0-4b1c-8026-978b6af21f04","system_id":"levelo_inurba_marseille","lat":43.2926,"lon":5.40907,"is_reserved":false,"is_disabled":false,"rental_uris":{"android":"levelo://app?vid=5eccf598-d1b0-4b1c-8026-978b6af21f04","ios":"levelo://app?vid=5eccf598-d1b0-4b1c-8026-978b6af21f04"},"vehicle_type_id":"4","last_reported":1761678507,"current_range_meters":8400,"station_id":"ce4bh192rcd13ifvqdc0","pricing_plan_id":"cebpf4jnsgd1na2vs0mg"},{"bike_id":"735a886a-95ed-40e6-abba-03d91e56b781","system_id":"levelo_inurba_marseille","lat":43.28969,"lon":5.3782,"is_reserved":false,"is_disabled":false,"rental_uris":{"android":"levelo://app?vid=735a886a-95ed-40e6-abba-03d91e56b781","ios":"levelo://app?vid=735a886a-95ed-40e6-abba-03d91e56b781"},"vehicle_type_id":"4","last_reported":1761678507,"current_range_meters":8400,"station_id":"ce4bh9p2rcd13ifvqed0","pricing_plan_id":"cebpf4jnsgd1na2vs0mg"},{"bike_id":"eaf52e12-a387-4735-9e39-5f22f4271332","system_id":"levelo_inurba_marseille","lat":43.29519,"lon":5.39036,"is_reserved":false,"is_disabled":false,"rental_uris":{"android":"levelo://app?vid=eaf52e12-a387-4735-9e39-5f22f4271332","ios":"levelo://app?vid=eaf52e12-a387-4735-9e39-5f22f4271332"},"vehicle_type_id":"4","last_reported":1761678507,"current_range_meters":8400,"station_id":"ce4bh3p2rcd13ifvqdp0","pricing_plan_id":"cebpf4jnsgd1na2vs0mg"},{"bike_id":"0c2793f6-9da4-4e04-a961-e7c4972c51fa","system_id":"levelo_inurba_marseille","lat":43.29527,"lon":5.3854,"is_reserved":false,"is_disabled":false,"rental_uris":{"android":"levelo://app?vid=0c2793f6-9da4-4e04-a961-e7c4972c51fa","ios":"levelo://app?vid=0c2793f6-9da4-4e04-a961-e7c4972c51fa"},"vehicle_type_id":"4","last_reported":1761678507,"current_range_meters":8400,"station_id":"ce4bgih2rcd13ifvqba0","pricing_plan_id":"cebpf4jnsgd1na2vs0mg"},{"bike_id":"53bb7b8b-ceba-4600-8e66-932be1b71207","system_id":"levelo_inurba_marseille","lat":43.28962,"lon":5.37815,"is_reserved":false,"is_disabled":false,"rental_uris":{"android":"levelo://app?vid=53bb7b8b-ceba-4600-8e66-932be1b71207","ios":"levelo://app?vid=53bb7b8b-ceba-4600-8e66-932be1b71207"},"vehicle_type_id":"4","last_reported":1761678507,"current_range_meters":8400,"station_id":"ce4bh9p2rcd13ifvqed0","pricing_plan_id":"cebpf4jnsgd1na2vs0mg"},{"bike_id":"2e06cfd7-52dc-4b3d-8741-6902cc19e888","system_id":"levelo_inurba_marseille","lat":43.29265,"lon":5.3843,"is_reserved":false,"is_disabled":false,"rental_uris":{"android":"levelo://app?vid=2e06cfd7-52dc-4b3d-8741-6902cc19e888","ios":"levelo://app?vid=2e06cfd7-52dc-4b3d-8741-6902cc19e888"},"vehicle_type_id":"4","last_reported":1761678507,"current_range_meters":8800,"station_id":"ce4bh692rcd13ifvqea0","pricing_plan_id":"cebpf4jnsgd1na2vs0mg"},{"bike_id":"45e7638c-8f27-4e4d-ac36-814394bfadd6","system_id":"levelo_inurba_marseille","lat":43.30247,"lon":5.40037,"is_reserved":false,"is_disabled":false,"rental_uris":{"android":"levelo://app?vid=45e7638c-8f27-4e4d-ac36-814394bfadd6","ios":"levelo://app?vid=45e7638c-8f27-4e4d-ac36-814394bfadd6"},"vehicle_type_id":"4","last_reported":1761678507,"current_range_meters":8800,"station_id":"ce4bgvh2rcd13ifvqcs0","pricing_plan_id":"cebpf4jnsgd1na2vs0mg"},{"bike_id":"208a1fa9-c371-4a9e-bc97-d54ccd03a0b4","system_id":"levelo_inurba_marseille","lat":43.33795,"lon":5.37465,"is_reserved":false,"is_disabled":false,"rental_uris":{"android":"levelo://app?vid=208a1fa9-c371-4a9e-bc97-d54ccd03a0b4","ios":"levelo://app?vid=208a1fa9-c371-4a9e-bc97-d54ccd03a0b4"},"vehicle_type_id":"4","last_reported":1761678507,"current_range_meters":8800,"station_id":"","pricing_plan_id":"cebpf4jnsgd1na2vs0mg"},{"bike_id":"b734ffa6-8d4d-487e-9d08-acccfd23f0b6","system_id":"levelo_inurba_marseille","lat":43.29021,"lon":5.38647,"is_reserved":false,"is_disabled":false,"rental_uris":{"android":"levelo://app?vid=b734ffa6-8d4d-487e-9d08-acccfd23f0b6","ios":"levelo://app?vid=b734ffa6-8d4d-487e-9d08-acccfd23f0b6"},"vehicle_type_id":"4","last_reported":1761678507,"current_range_meters":8800,"station_id":"ce4bh4p2rcd13ifvqe0g","pricing_plan_id":"cebpf4jnsgd1na2vs0mg"},{"bike_id":"abe09c43-72d3-407e-9eb6-adbe00314cab","system_id":"levelo_inurba_marseille","lat":43.2656,"lon":5.39002,"is_reserved":false,"is_disabled":false,"rental_uris":{"android":"levelo://app?vid=abe09c43-72d3-407e-9eb6-adbe00314cab","ios":"levelo://app?vid=abe09c43-72d3-407e-9eb6-adbe00314cab"},"vehicle_type_id":"4","last_reported":1761678507,"current_range_meters":8800,"station_id":"ce4bhe12rcd13ifvqf30","pricing_plan_id":"cebpf4jnsgd1na2vs0mg"},{"bike_id":"c261c842-fb64-4d93-874e-6e25499bb0b8","system_id":"levelo_inurba_marseille","lat":43.28402,"lon":5.37503,"is_reserved":false,"is_disabled":false,"rental_uris":{"android":"levelo://app?vid=c261c842-fb64-4d93-874e-6e25499bb0b8","ios":"levelo://app?vid=c261c842-fb64-4d93-874e-6e25499bb0b8"},"vehicle_type_id":"4","last_reported":1761678507,"current_range_meters":8800,"station_id":"ce4bh412rcd13ifvqds0","pricing_plan_id":"cebpf4jnsgd1na2vs0mg"},{"bike_id":"49ba4038-0fb8-4acd-941d-b1ac52ff79f0","system_id":"levelo_inurba_marseille","lat":43.29195,"lon":5.3581,"is_reserved":false,"is_disabled":false,"rental_uris":{"android":"levelo://app?vid=49ba4038-0fb8-4acd-941d-b1ac52ff79f0","ios":"levelo://app?vid=49ba4038-0fb8-4acd-941d-b1ac52ff79f0"},"vehicle_type_id":"4","last_reported":1761678507,"current_range_meters":8800,"station_id":"ce4bhb12rcd13ifvqel0","pricing_plan_id":"cebpf4jnsgd1na2vs0mg"},{"bike_id":"1880ebb9-7edb-463e-976b-226e958b9ebe","system_id":"levelo_inurba_marseille","lat":43.31097,"lon":5.37487,"is_reserved":false,"is_disabled":false,"rental_uris":{"android":"levelo://app?vid=1880ebb9-7edb-463e-976b-226e958b9ebe","ios":"levelo://app?vid=1880ebb9-7edb-463e-976b-226e958b9ebe"},"vehicle_type_id":"4","last_reported":1761678507,"current_range_meters":9200,"station_id":"ce4bgt12rcd13ifvqce0","pricing_plan_id":"cebpf4jnsgd1na2vs0mg"},{"bike_id":"ff3ce436-1785-418e-8081-70fae0b4c310","system_id":"levelo_inurba_marseille","lat":43.270726,"lon":5.422781,"is_reserved":false,"is_disabled":false,"rental_uris":{"android":"levelo://app?vid=ff3ce436-1785-418e-8081-70fae0b4c310","ios":"levelo://app?vid=ff3ce436-1785-418e-8081-70fae0b4c310"},"vehicle_type_id":"4","last_reported":1761678507,"current_range_meters":9200,"station_id":"ce4bhk92rcd13ifvqgb0","pricing_plan_id":"cebpf4jnsgd1na2vs0mg"},{"bike_id":"3b82aff6-7cb9-43aa-944c-0f02fe4ef9fa","system_id":"levelo_inurba_marseille","lat":43.27963,"lon":5.38737,"is_reserved":false,"is_disabled":true,"rental_uris":{"android":"levelo://app?vid=3b82aff6-7cb9-43aa-944c-0f02fe4ef9fa","ios":"levelo://app?vid=3b82aff6-7cb9-43aa-944c-0f02fe4ef9fa"},"vehicle_type_id":"4","last_reported":1761678507,"current_range_meters":9200,"station_id":"ce4bhg12rcd13ifvqf80","pricing_plan_id":"cebpf4jnsgd1na2vs0mg"},{"bike_id":"c2a5db04-9a47-4f57-bfc5-ecfd396760a0","system_id":"levelo_inurba_marseille","lat":43.29516,"lon":5.39039,"is_reserved":false,"is_disabled":false,"rental_uris":{"android":"levelo://app?vid=c2a5db04-9a47-4f57-bfc5-ecfd396760a0","ios":"levelo://app?vid=c2a5db04-9a47-4f57-bfc5-ecfd396760a0"},"vehicle_type_id":"4","last_reported":1761678507,"current_range_meters":9200,"station_id":"ce4bh3p2rcd13ifvqdp0","pricing_plan_id":"cebpf4jnsgd1na2vs0mg"},{"bike_id":"e3ddaf56-889b-439f-bdeb-432a5e3c685c","system_id":"levelo_inurba_marseille","lat":43.2858,"lon":5.395,"is_reserved":false,"is_disabled":false,"rental_uris":{"android":"levelo://app?vid=e3ddaf56-889b-439f-bdeb-432a5e3c685c","ios":"levelo://app?vid=e3ddaf56-889b-439f-bdeb-432a5e3c685c"},"vehicle_type_id":"4","last_reported":1761678507,"current_range_meters":9200,"station_id":"ce4bh292rcd13ifvqdg0","pricing_plan_id":"cebpf4jnsgd1na2vs0mg"},{"bike_id":"f9484733-c07f-4293-8628-46871c65b913","system_id":"levelo_inurba_marseille","lat":43.25456,"lon":5.38104,"is_reserved":false,"is_disabled":false,"rental_uris":{"android":"levelo://app?vid=f9484733-c07f-4293-8628-46871c65b913","ios":"levelo://app?vid=f9484733-c07f-4293-8628-46871c65b913"},"vehicle_type_id":"4","last_reported":1761678507,"current_range_meters":9600,"station_id":"","pricing_plan_id":"cebpf4jnsgd1na2vs0mg"},{"bike_id":"0e93325c-782a-4314-838d-6c38f9ad14d4","system_id":"levelo_inurba_marseille","lat":43.2744,"lon":5.39413,"is_reserved":false,"is_disabled":false,"rental_uris":{"android":"levelo://app?vid=0e93325c-782a-4314-838d-6c38f9ad14d4","ios":"levelo://app?vid=0e93325c-782a-4314-838d-6c38f9ad14d4"},"vehicle_type_id":"4","last_reported":1761678507,"current_range_meters":9600,"station_id":"ce4bhdp2rcd13ifvqf20","pricing_plan_id":"cebpf4jnsgd1na2vs0mg"},{"bike_id":"4430400e-997c-4442-8f84-c7bed5d08a88","system_id":"levelo_inurba_marseille","lat":43.27985,"lon":5.41661,"is_reserved":false,"is_disabled":false,"rental_uris":{"android":"levelo://app?vid=4430400e-997c-4442-8f84-c7bed5d08a88","ios":"levelo://app?vid=4430400e-997c-4442-8f84-c7bed5d08a88"},"vehicle_type_id":"4","last_reported":1761678507,"current_range_meters":9600,"station_id":"ce4bho12rcd13ifvqh1g","pricing_plan_id":"cebpf4jnsgd1na2vs0mg"},{"bike_id":"4b362e1d-451a-4f97-b2f0-2662c5b1b4e0","system_id":"levelo_inurba_marseille","lat":43.29739,"lon":5.42794,"is_reserved":false,"is_disabled":false,"rental_uris":{"android":"levelo://app?vid=4b362e1d-451a-4f97-b2f0-2662c5b1b4e0","ios":"levelo://app?vid=4b362e1d-451a-4f97-b2f0-2662c5b1b4e0"},"vehicle_type_id":"4","last_reported":1761678507,"current_range_meters":10000,"station_id":"st_d3md5207bmas73dh9klg","pricing_plan_id":"cebpf4jnsgd1na2vs0mg"},{"bike_id":"17c75917-08a3-4c8a-8829-0dbbf027303c","system_id":"levelo_inurba_marseille","lat":43.26954,"lon":5.38627,"is_reserved":false,"is_disabled":false,"rental_uris":{"android":"levelo://app?vid=17c75917-08a3-4c8a-8829-0dbbf027303c","ios":"levelo://app?vid=17c75917-08a3-4c8a-8829-0dbbf027303c"},"vehicle_type_id":"4","last_reported":1761678507,"current_range_meters":10000,"station_id":"ce4bhh92rcd13ifvqfh0","pricing_plan_id":"cebpf4jnsgd1na2vs0mg"},{"bike_id":"dda7652b-3b1c-41c3-9c9a-0bd1480572f3","system_id":"levelo_inurba_marseille","lat":43.29898,"lon":5.389144,"is_reserved":false,"is_disabled":false,"rental_uris":{"android":"levelo://app?vid=dda7652b-3b1c-41c3-9c9a-0bd1480572f3","ios":"levelo://app?vid=dda7652b-3b1c-41c3-9c9a-0bd1480572f3"},"vehicle_type_id":"4","last_reported":1761678507,"current_range_meters":10000,"station_id":"ce4bh392rcd13ifvqdl0","pricing_plan_id":"cebpf4jnsgd1na2vs0mg"},{"bike_id":"d05c4176-f995-472c-9849-ed781d6a7edd","system_id":"levelo_inurba_marseille","lat":43.29034,"lon":5.38633,"is_reserved":false,"is_disabled":false,"rental_uris":{"android":"levelo://app?vid=d05c4176-f995-472c-9849-ed781d6a7edd","ios":"levelo://app?vid=d05c4176-f995-472c-9849-ed781d6a7edd"},"vehicle_type_id":"4","last_reported":1761678507,"current_range_meters":10000,"station_id":"ce4bh4p2rcd13ifvqe0g","pricing_plan_id":"cebpf4jnsgd1na2vs0mg"},{"bike_id":"8bf86503-273c-4ad6-96a1-1861790a19ab","system_id":"levelo_inurba_marseille","lat":43.28929,"lon":5.384,"is_reserved":false,"is_disabled":false,"rental_uris":{"android":"levelo://app?vid=8bf86503-273c-4ad6-96a1-1861790a19ab","ios":"levelo://app?vid=8bf86503-273c-4ad6-96a1-1861790a19ab"},"vehicle_type_id":"4","last_reported":1761678507,"current_range_meters":10000,"station_id":"ce4bh612rcd13ifvqe6g","pricing_plan_id":"cebpf4jnsgd1na2vs0mg"},{"bike_id":"dbcbcef0-4b5f-446e-9d2e-80d991993c2b","system_id":"levelo_inurba_marseille","lat":43.295362,"lon":5.402247,"is_reserved":false,"is_disabled":false,"rental_uris":{"android":"levelo://app?vid=dbcbcef0-4b5f-446e-9d2e-80d991993c2b","ios":"levelo://app?vid=dbcbcef0-4b5f-446e-9d2e-80d991993c2b"},"vehicle_type_id":"4","last_reported":1761678507,"current_range_meters":10000,"station_id":"","pricing_plan_id":"cebpf4jnsgd1na2vs0mg"},{"bike_id":"011ffc47-cab5-4e69-83ea-75158b7053d8","system_id":"levelo_inurba_marseille","lat":43.255821,"lon":5.382295,"is_reserved":false,"is_disabled":true,"rental_uris":{"android":"levelo://app?vid=011ffc47-cab5-4e69-83ea-75158b7053d8","ios":"levelo://app?vid=011ffc47-cab5-4e69-83ea-75158b7053d8"},"vehicle_type_id":"4","last_reported":1761678507,"current_range_meters":10000,"station_id":"ce4bhih2rcd13ifvqfs0","pricing_plan_id":"cebpf4jnsgd1na2vs0mg"},{"bike_id":"b1d92376-dfcd-430d-bb52-bfcea603ba8f","system_id":"levelo_inurba_marseille","lat":43.307861,"lon":5.376414,"is_reserved":false,"is_disabled":false,"rental_uris":{"android":"levelo://app?vid=b1d92376-dfcd-430d-bb52-bfcea603ba8f","ios":"levelo://app?vid=b1d92376-dfcd-430d-bb52-bfcea603ba8f"},"vehicle_type_id":"4","last_reported":1761678507,"current_range_meters":10000,"station_id":"ce4bgv92rcd13ifvqcq0","pricing_plan_id":"cebpf4jnsgd1na2vs0mg"},{"bike_id":"7aa26a18-77e4-41b2-bb4d-083d6334db1d","system_id":"levelo_inurba_marseille","lat":43.28118,"lon":5.37859,"is_reserved":false,"is_disabled":false,"rental_uris":{"android":"levelo://app?vid=7aa26a18-77e4-41b2-bb4d-083d6334db1d","ios":"levelo://app?vid=7aa26a18-77e4-41b2-bb4d-083d6334db1d"},"vehicle_type_id":"4","last_reported":1761678507,"current_range_meters":10000,"station_id":"ce4bha12rcd13ifvqee0","pricing_plan_id":"cebpf4jnsgd1na2vs0mg"},{"bike_id":"03c6ef07-7651-4033-9c0d-4766b18183cf","system_id":"levelo_inurba_marseille","lat":43.28668,"lon":5.38666,"is_reserved":false,"is_disabled":false,"rental_uris":{"android":"levelo://app?vid=03c6ef07-7651-4033-9c0d-4766b18183cf","ios":"levelo://app?vid=03c6ef07-7651-4033-9c0d-4766b18183cf"},"vehicle_type_id":"4","last_reported":1761678507,"current_range_meters":10000,"station_id":"ce4bh492rcd13ifvqdug","pricing_plan_id":"cebpf4jnsgd1na2vs0mg"},{"bike_id":"fe3f7443-2962-46c2-81f9-663f5fc538c8","system_id":"levelo_inurba_marseille","lat":43.29844,"lon":5.36274,"is_reserved":false,"is_disabled":false,"rental_uris":{"android":"levelo://app?vid=fe3f7443-2962-46c2-81f9-663f5fc538c8","ios":"levelo://app?vid=fe3f7443-2962-46c2-81f9-663f5fc538c8"},"vehicle_type_id":"4","last_reported":1761678507,"current_range_meters":10000,"station_id":"ce4bgpp2rcd13ifvqc3g","pricing_plan_id":"cebpf4jnsgd1na2vs0mg"},{"bike_id":"ae02210f-3a75-423b-b85c-34cdf2f682b3","system_id":"levelo_inurba_marseille","lat":43.28415,"lon":5.37513,"is_reserved":false,"is_disabled":false,"rental_uris":{"android":"levelo://app?vid=ae02210f-3a75-423b-b85c-34cdf2f682b3","ios":"levelo://app?vid=ae02210f-3a75-423b-b85c-34cdf2f682b3"},"vehicle_type_id":"4","last_reported":1761678507,"current_range_meters":10800,"station_id":"ce4bh412rcd13ifvqds0","pricing_plan_id":"cebpf4jnsgd1na2vs0mg"},{"bike_id":"3a5fa061-2677-4afd-93d9-188630c74779","system_id":"levelo_inurba_marseille","lat":43.2928,"lon":5.38439,"is_reserved":false,"is_disabled":false,"rental_uris":{"android":"levelo://app?vid=3a5fa061-2677-4afd-93d9-188630c74779","ios":"levelo://app?vid=3a5fa061-2677-4afd-93d9-188630c74779"},"vehicle_type_id":"4","last_reported":1761678507,"current_range_meters":10800,"station_id":"ce4bh692rcd13ifvqea0","pricing_plan_id":"cebpf4jnsgd1na2vs0mg"},{"bike_id":"f6ab28de-f77d-4c0b-b0e7-35d3add57284","system_id":"levelo_inurba_marseille","lat":43.282766,"lon":5.385965,"is_reserved":false,"is_disabled":false,"rental_uris":{"android":"levelo://app?vid=f6ab28de-f77d-4c0b-b0e7-35d3add57284","ios":"levelo://app?vid=f6ab28de-f77d-4c0b-b0e7-35d3add57284"},"vehicle_type_id":"4","last_reported":1761678507,"current_range_meters":10800,"station_id":"ce4bh492rcd13ifvqdvg","pricing_plan_id":"cebpf4jnsgd1na2vs0mg"},{"bike_id":"d8f266eb-434e-461e-9577-04e108dafd62","system_id":"levelo_inurba_marseille","lat":43.30925,"lon":5.4016,"is_reserved":false,"is_disabled":false,"rental_uris":{"android":"levelo://app?vid=d8f266eb-434e-461e-9577-04e108dafd62","ios":"levelo://app?vid=d8f266eb-434e-461e-9577-04e108dafd62"},"vehicle_type_id":"4","last_reported":1761678507,"current_range_meters":10800,"station_id":"ce4bgvp2rcd13ifvqct0","pricing_plan_id":"cebpf4jnsgd1na2vs0mg"},{"bike_id":"f22cb122-b049-49b4-8606-4f27158b31f5","system_id":"levelo_inurba_marseille","lat":43.29708,"lon":5.36606,"is_reserved":false,"is_disabled":false,"rental_uris":{"android":"levelo://app?vid=f22cb122-b049-49b4-8606-4f27158b31f5","ios":"levelo://app?vid=f22cb122-b049-49b4-8606-4f27158b31f5"},"vehicle_type_id":"4","last_reported":1761678507,"current_range_meters":10800,"station_id":"ce4bgn12rcd13ifvqbt0","pricing_plan_id":"cebpf4jnsgd1na2vs0mg"},{"bike_id":"015b31d7-53c2-4fc4-b495-0fdd378f2317","system_id":"levelo_inurba_marseille","lat":43.24664,"lon":5.38157,"is_reserved":false,"is_disabled":false,"rental_uris":{"android":"levelo://app?vid=015b31d7-53c2-4fc4-b495-0fdd378f2317","ios":"levelo://app?vid=015b31d7-53c2-4fc4-b495-0fdd378f2317"},"vehicle_type_id":"4","last_reported":1761678507,"current_range_meters":10800,"station_id":"ce4bhih2rcd13ifvqfr0","pricing_plan_id":"cebpf4jnsgd1na2vs0mg"},{"bike_id":"3e04738f-b6c6-450d-af89-f81fc3d5b9ef","system_id":"levelo_inurba_marseille","lat":43.29304,"lon":5.37468,"is_reserved":false,"is_disabled":false,"rental_uris":{"android":"levelo://app?vid=3e04738f-b6c6-450d-af89-f81fc3d5b9ef","ios":"levelo://app?vid=3e04738f-b6c6-450d-af89-f81fc3d5b9ef"},"vehicle_type_id":"4","last_reported":1761678507,"current_range_meters":10800,"station_id":"ce4bgi12rcd13ifvqb70","pricing_plan_id":"cebpf4jnsgd1na2vs0mg"},{"bike_id":"142bebf4-51bc-4f57-9cc1-4d34f7b1c3f8","system_id":"levelo_inurba_marseille","lat":43.33039,"lon":5.39044,"is_reserved":false,"is_disabled":false,"rental_uris":{"android":"levelo://app?vid=142bebf4-51bc-4f57-9cc1-4d34f7b1c3f8","ios":"levelo://app?vid=142bebf4-51bc-4f57-9cc1-4d34f7b1c3f8"},"vehicle_type_id":"4","last_reported":1761678507,"current_range_meters":11200,"station_id":"ce4bhr92rcd13ifvqhrg","pricing_plan_id":"cebpf4jnsgd1na2vs0mg"},{"bike_id":"6abb9e09-33f3-43f3-9417-8cc0cf0144f6","system_id":"levelo_inurba_marseille","lat":43.29916,"lon":5.37453,"is_reserved":false,"is_disabled":true,"rental_uris":{"android":"levelo://app?vid=6abb9e09-33f3-43f3-9417-8cc0cf0144f6","ios":"levelo://app?vid=6abb9e09-33f3-43f3-9417-8cc0cf0144f6"},"vehicle_type_id":"4","last_reported":1761678507,"current_range_meters":11200,"station_id":"ce4bgjh2rcd13ifvqbg0","pricing_plan_id":"cebpf4jnsgd1na2vs0mg"},{"bike_id":"696513eb-0aa7-40eb-a317-6de4d47e809f","system_id":"levelo_inurba_marseille","lat":43.28653,"lon":5.386055,"is_reserved":false,"is_disabled":false,"rental_uris":{"android":"levelo://app?vid=696513eb-0aa7-40eb-a317-6de4d47e809f","ios":"levelo://app?vid=696513eb-0aa7-40eb-a317-6de4d47e809f"},"vehicle_type_id":"4","last_reported":1761678507,"current_range_meters":11200,"station_id":"ce4bh492rcd13ifvqdug","pricing_plan_id":"cebpf4jnsgd1na2vs0mg"},{"bike_id":"32a863b6-26b8-457c-992a-f0253dd4c910","system_id":"levelo_inurba_marseille","lat":43.28494,"lon":5.48358,"is_reserved":false,"is_disabled":false,"rental_uris":{"android":"levelo://app?vid=32a863b6-26b8-457c-992a-f0253dd4c910","ios":"levelo://app?vid=32a863b6-26b8-457c-992a-f0253dd4c910"},"vehicle_type_id":"4","last_reported":1761678507,"current_range_meters":11200,"station_id":"st_d3svhcjqgbts73a3dn0g","pricing_plan_id":"cebpf4jnsgd1na2vs0mg"},{"bike_id":"eaaf293c-515b-4cc0-b5d7-1e9814673cf5","system_id":"levelo_inurba_marseille","lat":43.30145,"lon":5.3741,"is_reserved":false,"is_disabled":false,"rental_uris":{"android":"levelo://app?vid=eaaf293c-515b-4cc0-b5d7-1e9814673cf5","ios":"levelo://app?vid=eaaf293c-515b-4cc0-b5d7-1e9814673cf5"},"vehicle_type_id":"4","last_reported":1761678507,"current_range_meters":11600,"station_id":"ce4bgs92rcd13ifvqcc0","pricing_plan_id":"cebpf4jnsgd1na2vs0mg"},{"bike_id":"dccef0b1-edb3-49b5-866c-43e10e5763cc","system_id":"levelo_inurba_marseille","lat":43.28826,"lon":5.4384,"is_reserved":false,"is_disabled":false,"rental_uris":{"android":"levelo://app?vid=dccef0b1-edb3-49b5-866c-43e10e5763cc","ios":"levelo://app?vid=dccef0b1-edb3-49b5-866c-43e10e5763cc"},"vehicle_type_id":"4","last_reported":1761678507,"current_range_meters":11600,"station_id":"","pricing_plan_id":"cebpf4jnsgd1na2vs0mg"},{"bike_id":"d33a3e7a-3977-404d-97c8-3671481ed32b","system_id":"levelo_inurba_marseille","lat":43.29021,"lon":5.38618,"is_reserved":false,"is_disabled":false,"rental_uris":{"android":"levelo://app?vid=d33a3e7a-3977-404d-97c8-3671481ed32b","ios":"levelo://app?vid=d33a3e7a-3977-404d-97c8-3671481ed32b"},"vehicle_type_id":"4","last_reported":1761678507,"current_range_meters":11600,"station_id":"ce4bh4p2rcd13ifvqe0g","pricing_plan_id":"cebpf4jnsgd1na2vs0mg"},{"bike_id":"0f0beace-c45a-4f2e-98ce-e3575b010c2f","system_id":"levelo_inurba_marseille","lat":43.27615,"lon":5.361,"is_reserved":false,"is_disabled":false,"rental_uris":{"android":"levelo://app?vid=0f0beace-c45a-4f2e-98ce-e3575b010c2f","ios":"levelo://app?vid=0f0beace-c45a-4f2e-98ce-e3575b010c2f"},"vehicle_type_id":"4","last_reported":1761678507,"current_range_meters":11600,"station_id":"ce4bgj92rcd13ifvqbe0","pricing_plan_id":"cebpf4jnsgd1na2vs0mg"},{"bike_id":"f85e5618-b2d5-44d0-9639-4875cd2aac86","system_id":"levelo_inurba_marseille","lat":43.2842,"lon":5.37518,"is_reserved":false,"is_disabled":false,"rental_uris":{"android":"levelo://app?vid=f85e5618-b2d5-44d0-9639-4875cd2aac86","ios":"levelo://app?vid=f85e5618-b2d5-44d0-9639-4875cd2aac86"},"vehicle_type_id":"4","last_reported":1761678507,"current_range_meters":11600,"station_id":"ce4bh412rcd13ifvqds0","pricing_plan_id":"cebpf4jnsgd1na2vs0mg"},{"bike_id":"897d1025-cdde-48ec-9b73-6418bafdbbc5","system_id":"levelo_inurba_marseille","lat":43.28087,"lon":5.34766,"is_reserved":false,"is_disabled":false,"rental_uris":{"android":"levelo://app?vid=897d1025-cdde-48ec-9b73-6418bafdbbc5","ios":"levelo://app?vid=897d1025-cdde-48ec-9b73-6418bafdbbc5"},"vehicle_type_id":"4","last_reported":1761678507,"current_range_meters":11600,"station_id":"","pricing_plan_id":"cebpf4jnsgd1na2vs0mg"},{"bike_id":"d5ca831f-8041-403e-ada8-7b4196c3d5be","system_id":"levelo_inurba_marseille","lat":43.293714,"lon":5.379385,"is_reserved":false,"is_disabled":false,"rental_uris":{"android":"levelo://app?vid=d5ca831f-8041-403e-ada8-7b4196c3d5be","ios":"levelo://app?vid=d5ca831f-8041-403e-ada8-7b4196c3d5be"},"vehicle_type_id":"4","last_reported":1761678507,"current_range_meters":12000,"station_id":"","pricing_plan_id":"cebpf4jnsgd1na2vs0mg"},{"bike_id":"f4ae9746-b1ce-4423-871f-af6ff98b156e","system_id":"levelo_inurba_marseille","lat":43.30256,"lon":5.40085,"is_reserved":false,"is_disabled":false,"rental_uris":{"android":"levelo://app?vid=f4ae9746-b1ce-4423-871f-af6ff98b156e","ios":"levelo://app?vid=f4ae9746-b1ce-4423-871f-af6ff98b156e"},"vehicle_type_id":"4","last_reported":1761678507,"current_range_meters":12000,"station_id":"ce4bgvh2rcd13ifvqcs0","pricing_plan_id":"cebpf4jnsgd1na2vs0mg"},{"bike_id":"4b41a6dd-7fdf-4f0a-a85a-c6b5842d25b1","system_id":"levelo_inurba_marseille","lat":43.27902,"lon":5.38286,"is_reserved":false,"is_disabled":false,"rental_uris":{"android":"levelo://app?vid=4b41a6dd-7fdf-4f0a-a85a-c6b5842d25b1","ios":"levelo://app?vid=4b41a6dd-7fdf-4f0a-a85a-c6b5842d25b1"},"vehicle_type_id":"4","last_reported":1761678507,"current_range_meters":12400,"station_id":"","pricing_plan_id":"cebpf4jnsgd1na2vs0mg"},{"bike_id":"d2ce14a1-e9f5-407b-a0c3-2e69d0a16a79","system_id":"levelo_inurba_marseille","lat":43.28214,"lon":5.39073,"is_reserved":false,"is_disabled":true,"rental_uris":{"android":"levelo://app?vid=d2ce14a1-e9f5-407b-a0c3-2e69d0a16a79","ios":"levelo://app?vid=d2ce14a1-e9f5-407b-a0c3-2e69d0a16a79"},"vehicle_type_id":"4","last_reported":1761678507,"current_range_meters":12400,"station_id":"ce4bhn92rcd13ifvqgsg","pricing_plan_id":"cebpf4jnsgd1na2vs0mg"},{"bike_id":"1be51a73-2fbd-41de-b088-00e58c8b062a","system_id":"levelo_inurba_marseille","lat":43.30427,"lon":5.41283,"is_reserved":false,"is_disabled":false,"rental_uris":{"android":"levelo://app?vid=1be51a73-2fbd-41de-b088-00e58c8b062a","ios":"levelo://app?vid=1be51a73-2fbd-41de-b088-00e58c8b062a"},"vehicle_type_id":"4","last_reported":1761678507,"current_range_meters":12400,"station_id":"ce4bhop2rcd13ifvqh8g","pricing_plan_id":"cebpf4jnsgd1na2vs0mg"},{"bike_id":"5dae57e2-b476-4f3b-801e-fed4e7b0c558","system_id":"levelo_inurba_marseille","lat":43.24388,"lon":5.37049,"is_reserved":false,"is_disabled":false,"rental_uris":{"android":"levelo://app?vid=5dae57e2-b476-4f3b-801e-fed4e7b0c558","ios":"levelo://app?vid=5dae57e2-b476-4f3b-801e-fed4e7b0c558"},"vehicle_type_id":"4","last_reported":1761678507,"current_range_meters":12400,"station_id":"ce4bhhh2rcd13ifvqfk0","pricing_plan_id":"cebpf4jnsgd1na2vs0mg"},{"bike_id":"d48f6e93-440f-40e3-a7b2-25c879efd2ff","system_id":"levelo_inurba_marseille","lat":43.28917,"lon":5.38381,"is_reserved":false,"is_disabled":false,"rental_uris":{"android":"levelo://app?vid=d48f6e93-440f-40e3-a7b2-25c879efd2ff","ios":"levelo://app?vid=d48f6e93-440f-40e3-a7b2-25c879efd2ff"},"vehicle_type_id":"4","last_reported":1761678507,"current_range_meters":12400,"station_id":"ce4bh612rcd13ifvqe6g","pricing_plan_id":"cebpf4jnsgd1na2vs0mg"},{"bike_id":"1975be38-f301-42ba-a022-50bba37a3dac","system_id":"levelo_inurba_marseille","lat":43.284149,"lon":5.375119,"is_reserved":false,"is_disabled":false,"rental_uris":{"android":"levelo://app?vid=1975be38-f301-42ba-a022-50bba37a3dac","ios":"levelo://app?vid=1975be38-f301-42ba-a022-50bba37a3dac"},"vehicle_type_id":"4","last_reported":1761678507,"current_range_meters":12400,"station_id":"ce4bh412rcd13ifvqds0","pricing_plan_id":"cebpf4jnsgd1na2vs0mg"},{"bike_id":"f92e8053-4f66-4b9f-8dcd-558a0434832d","system_id":"levelo_inurba_marseille","lat":43.30307,"lon":5.39196,"is_reserved":false,"is_disabled":false,"rental_uris":{"android":"levelo://app?vid=f92e8053-4f66-4b9f-8dcd-558a0434832d","ios":"levelo://app?vid=f92e8053-4f66-4b9f-8dcd-558a0434832d"},"vehicle_type_id":"4","last_reported":1761678507,"current_range_meters":12400,"station_id":"ce4bgkh2rcd13ifvqbk0","pricing_plan_id":"cebpf4jnsgd1na2vs0mg"},{"bike_id":"2f22d606-7c25-430e-8b6f-03014ec1cf33","system_id":"levelo_inurba_marseille","lat":43.30871,"lon":5.39636,"is_reserved":false,"is_disabled":false,"rental_uris":{"android":"levelo://app?vid=2f22d606-7c25-430e-8b6f-03014ec1cf33","ios":"levelo://app?vid=2f22d606-7c25-430e-8b6f-03014ec1cf33"},"vehicle_type_id":"4","last_reported":1761678507,"current_range_meters":12400,"station_id":"ce4bh012rcd13ifvqcv0","pricing_plan_id":"cebpf4jnsgd1na2vs0mg"},{"bike_id":"2dadb0b7-125c-4cad-a51f-e306e38949dd","system_id":"levelo_inurba_marseille","lat":43.25336,"lon":5.421779,"is_reserved":false,"is_disabled":false,"rental_uris":{"android":"levelo://app?vid=2dadb0b7-125c-4cad-a51f-e306e38949dd","ios":"levelo://app?vid=2dadb0b7-125c-4cad-a51f-e306e38949dd"},"vehicle_type_id":"4","last_reported":1761678507,"current_range_meters":12800,"station_id":"st_d2m65c5bi1j21697t3ng","pricing_plan_id":"cebpf4jnsgd1na2vs0mg"},{"bike_id":"db88a8a5-5637-4384-a6d7-41d8f099747a","system_id":"levelo_inurba_marseille","lat":43.312379,"lon":5.368484,"is_reserved":false,"is_disabled":false,"rental_uris":{"android":"levelo://app?vid=db88a8a5-5637-4384-a6d7-41d8f099747a","ios":"levelo://app?vid=db88a8a5-5637-4384-a6d7-41d8f099747a"},"vehicle_type_id":"4","last_reported":1761678507,"current_range_meters":12800,"station_id":"ce4bgr92rcd13ifvqc6g","pricing_plan_id":"cebpf4jnsgd1na2vs0mg"},{"bike_id":"467b2dde-7c59-49b4-bb32-ac2db091929d","system_id":"levelo_inurba_marseille","lat":43.28559,"lon":5.39508,"is_reserved":false,"is_disabled":false,"rental_uris":{"android":"levelo://app?vid=467b2dde-7c59-49b4-bb32-ac2db091929d","ios":"levelo://app?vid=467b2dde-7c59-49b4-bb32-ac2db091929d"},"vehicle_type_id":"4","last_reported":1761678507,"current_range_meters":12800,"station_id":"ce4bh292rcd13ifvqdg0","pricing_plan_id":"cebpf4jnsgd1na2vs0mg"},{"bike_id":"bbd25c38-213a-45de-be56-2b99e4a2b2aa","system_id":"levelo_inurba_marseille","lat":43.287893,"lon":5.400289,"is_reserved":false,"is_disabled":false,"rental_uris":{"android":"levelo://app?vid=bbd25c38-213a-45de-be56-2b99e4a2b2aa","ios":"levelo://app?vid=bbd25c38-213a-45de-be56-2b99e4a2b2aa"},"vehicle_type_id":"4","last_reported":1761678507,"current_range_meters":12800,"station_id":"ce4bho92rcd13ifvqh3g","pricing_plan_id":"cebpf4jnsgd1na2vs0mg"},{"bike_id":"dced2bcc-e95f-44ce-b7d8-7bb47def612a","system_id":"levelo_inurba_marseille","lat":43.23058,"lon":5.35488,"is_reserved":false,"is_disabled":false,"rental_uris":{"android":"levelo://app?vid=dced2bcc-e95f-44ce-b7d8-7bb47def612a","ios":"levelo://app?vid=dced2bcc-e95f-44ce-b7d8-7bb47def612a"},"vehicle_type_id":"4","last_reported":1761678507,"current_range_meters":12800,"station_id":"cpo3342slgdg3j2ifvpg","pricing_plan_id":"cebpf4jnsgd1na2vs0mg"},{"bike_id":"e68f19ec-6316-4a47-919b-a01164633315","system_id":"levelo_inurba_marseille","lat":43.250984,"lon":5.395201,"is_reserved":false,"is_disabled":true,"rental_uris":{"android":"levelo://app?vid=e68f19ec-6316-4a47-919b-a01164633315","ios":"levelo://app?vid=e68f19ec-6316-4a47-919b-a01164633315"},"vehicle_type_id":"4","last_reported":1761678507,"current_range_meters":12800,"station_id":"ce4bhm12rcd13ifvqgkg","pricing_plan_id":"cebpf4jnsgd1na2vs0mg"},{"bike_id":"49ed0d39-51fe-4cd4-8527-50556baa8749","system_id":"levelo_inurba_marseille","lat":43.22531,"lon":5.348321,"is_reserved":false,"is_disabled":false,"rental_uris":{"android":"levelo://app?vid=49ed0d39-51fe-4cd4-8527-50556baa8749","ios":"levelo://app?vid=49ed0d39-51fe-4cd4-8527-50556baa8749"},"vehicle_type_id":"4","last_reported":1761678507,"current_range_meters":12800,"station_id":"","pricing_plan_id":"cebpf4jnsgd1na2vs0mg"},{"bike_id":"d8bde676-08fe-4b1f-bd5f-04bcf5245000","system_id":"levelo_inurba_marseille","lat":43.28661,"lon":5.36358,"is_reserved":false,"is_disabled":false,"rental_uris":{"android":"levelo://app?vid=d8bde676-08fe-4b1f-bd5f-04bcf5245000","ios":"levelo://app?vid=d8bde676-08fe-4b1f-bd5f-04bcf5245000"},"vehicle_type_id":"4","last_reported":1761678507,"current_range_meters":13600,"station_id":"ce4bhah2rcd13ifvqej0","pricing_plan_id":"cebpf4jnsgd1na2vs0mg"},{"bike_id":"c67e6db6-1510-4775-9478-a184e187b431","system_id":"levelo_inurba_marseille","lat":43.2867,"lon":5.36352,"is_reserved":false,"is_disabled":false,"rental_uris":{"android":"levelo://app?vid=c67e6db6-1510-4775-9478-a184e187b431","ios":"levelo://app?vid=c67e6db6-1510-4775-9478-a184e187b431"},"vehicle_type_id":"4","last_reported":1761678507,"current_range_meters":13600,"station_id":"ce4bhah2rcd13ifvqej0","pricing_plan_id":"cebpf4jnsgd1na2vs0mg"},{"bike_id":"f68a18ee-6e48-48c5-9f27-936e422ff9c4","system_id":"levelo_inurba_marseille","lat":43.30774,"lon":5.4247,"is_reserved":false,"is_disabled":false,"rental_uris":{"android":"levelo://app?vid=f68a18ee-6e48-48c5-9f27-936e422ff9c4","ios":"levelo://app?vid=f68a18ee-6e48-48c5-9f27-936e422ff9c4"},"vehicle_type_id":"4","last_reported":1761678507,"current_range_meters":13600,"station_id":"st_cvj6ca6bvosntc0bfgr0","pricing_plan_id":"cebpf4jnsgd1na2vs0mg"},{"bike_id":"f1b32764-5ab9-4e8e-a35a-116f87feb363","system_id":"levelo_inurba_marseille","lat":43.303193,"lon":5.404397,"is_reserved":false,"is_disabled":false,"rental_uris":{"android":"levelo://app?vid=f1b32764-5ab9-4e8e-a35a-116f87feb363","ios":"levelo://app?vid=f1b32764-5ab9-4e8e-a35a-116f87feb363"},"vehicle_type_id":"4","last_reported":1761678507,"current_range_meters":13600,"station_id":"ce4bh012rcd13ifvqd10","pricing_plan_id":"cebpf4jnsgd1na2vs0mg"},{"bike_id":"97a31a90-5aec-4742-929e-de62da0db225","system_id":"levelo_inurba_marseille","lat":43.30657,"lon":5.40077,"is_reserved":false,"is_disabled":false,"rental_uris":{"android":"levelo://app?vid=97a31a90-5aec-4742-929e-de62da0db225","ios":"levelo://app?vid=97a31a90-5aec-4742-929e-de62da0db225"},"vehicle_type_id":"4","last_reported":1761678507,"current_range_meters":13600,"station_id":"ce4bh112rcd13ifvqda0","pricing_plan_id":"cebpf4jnsgd1na2vs0mg"},{"bike_id":"e362f4ba-3ff5-409c-847f-dbee0482ec04","system_id":"levelo_inurba_marseille","lat":43.29969,"lon":5.37159,"is_reserved":false,"is_disabled":true,"rental_uris":{"android":"levelo://app?vid=e362f4ba-3ff5-409c-847f-dbee0482ec04","ios":"levelo://app?vid=e362f4ba-3ff5-409c-847f-dbee0482ec04"},"vehicle_type_id":"4","last_reported":1761678507,"current_range_meters":13600,"station_id":"ce4bgr92rcd13ifvqc7g","pricing_plan_id":"cebpf4jnsgd1na2vs0mg"},{"bike_id":"94e6b0aa-f8c9-477e-8091-c3a189e0f238","system_id":"levelo_inurba_marseille","lat":43.29693,"lon":5.38128,"is_reserved":false,"is_disabled":false,"rental_uris":{"android":"levelo://app?vid=94e6b0aa-f8c9-477e-8091-c3a189e0f238","ios":"levelo://app?vid=94e6b0aa-f8c9-477e-8091-c3a189e0f238"},"vehicle_type_id":"4","last_reported":1761678507,"current_range_meters":14000,"station_id":"","pricing_plan_id":"cebpf4jnsgd1na2vs0mg"},{"bike_id":"ba5b4d47-4254-4dee-9a79-2a2d4a4e17b3","system_id":"levelo_inurba_marseille","lat":43.24948,"lon":5.40487,"is_reserved":false,"is_disabled":false,"rental_uris":{"android":"levelo://app?vid=ba5b4d47-4254-4dee-9a79-2a2d4a4e17b3","ios":"levelo://app?vid=ba5b4d47-4254-4dee-9a79-2a2d4a4e17b3"},"vehicle_type_id":"4","last_reported":1761678507,"current_range_meters":14000,"station_id":"st_d2ngiaodas8pm72gd1h0","pricing_plan_id":"cebpf4jnsgd1na2vs0mg"},{"bike_id":"63dac326-4326-4d8c-b485-571f34cbb501","system_id":"levelo_inurba_marseille","lat":43.29252,"lon":5.38427,"is_reserved":false,"is_disabled":false,"rental_uris":{"android":"levelo://app?vid=63dac326-4326-4d8c-b485-571f34cbb501","ios":"levelo://app?vid=63dac326-4326-4d8c-b485-571f34cbb501"},"vehicle_type_id":"4","last_reported":1761678507,"current_range_meters":14000,"station_id":"ce4bh692rcd13ifvqea0","pricing_plan_id":"cebpf4jnsgd1na2vs0mg"},{"bike_id":"b8e04856-8974-4e89-8a03-1c0dd51ecdf7","system_id":"levelo_inurba_marseille","lat":43.29528,"lon":5.3855,"is_reserved":false,"is_disabled":false,"rental_uris":{"android":"levelo://app?vid=b8e04856-8974-4e89-8a03-1c0dd51ecdf7","ios":"levelo://app?vid=b8e04856-8974-4e89-8a03-1c0dd51ecdf7"},"vehicle_type_id":"4","last_reported":1761678507,"current_range_meters":14000,"station_id":"ce4bgih2rcd13ifvqba0","pricing_plan_id":"cebpf4jnsgd1na2vs0mg"},{"bike_id":"3100f363-5186-41e2-9a29-577e7c24c7fc","system_id":"levelo_inurba_marseille","lat":43.2937,"lon":5.37841,"is_reserved":false,"is_disabled":false,"rental_uris":{"android":"levelo://app?vid=3100f363-5186-41e2-9a29-577e7c24c7fc","ios":"levelo://app?vid=3100f363-5186-41e2-9a29-577e7c24c7fc"},"vehicle_type_id":"4","last_reported":1761678507,"current_range_meters":14000,"station_id":"ce4bgjh2rcd13ifvqbf0","pricing_plan_id":"cebpf4jnsgd1na2vs0mg"},{"bike_id":"f202aef9-db9c-4b5f-b19b-62f40b9a9dba","system_id":"levelo_inurba_marseille","lat":43.24075,"lon":5.37761,"is_reserved":false,"is_disabled":false,"rental_uris":{"android":"levelo://app?vid=f202aef9-db9c-4b5f-b19b-62f40b9a9dba","ios":"levelo://app?vid=f202aef9-db9c-4b5f-b19b-62f40b9a9dba"},"vehicle_type_id":"4","last_reported":1761678507,"current_range_meters":14000,"station_id":"ce4bhnp2rcd13ifvqgvg","pricing_plan_id":"cebpf4jnsgd1na2vs0mg"},{"bike_id":"32d7653e-b033-4183-b4c0-f44169bb9067","system_id":"levelo_inurba_marseille","lat":43.32705,"lon":5.39206,"is_reserved":false,"is_disabled":false,"rental_uris":{"android":"levelo://app?vid=32d7653e-b033-4183-b4c0-f44169bb9067","ios":"levelo://app?vid=32d7653e-b033-4183-b4c0-f44169bb9067"},"vehicle_type_id":"4","last_reported":1761678507,"current_range_meters":14000,"station_id":"","pricing_plan_id":"cebpf4jnsgd1na2vs0mg"},{"bike_id":"2be3bf9b-39f4-4c37-8c01-9e9bcabe1c53","system_id":"levelo_inurba_marseille","lat":43.33741,"lon":5.37444,"is_reserved":false,"is_disabled":false,"rental_uris":{"android":"levelo://app?vid=2be3bf9b-39f4-4c37-8c01-9e9bcabe1c53","ios":"levelo://app?vid=2be3bf9b-39f4-4c37-8c01-9e9bcabe1c53"},"vehicle_type_id":"4","last_reported":1761678507,"current_range_meters":14000,"station_id":"","pricing_plan_id":"cebpf4jnsgd1na2vs0mg"},{"bike_id":"efc40e6a-a407-4c31-9609-2557951dc4e7","system_id":"levelo_inurba_marseille","lat":43.30419,"lon":5.3889,"is_reserved":false,"is_disabled":false,"rental_uris":{"android":"levelo://app?vid=efc40e6a-a407-4c31-9609-2557951dc4e7","ios":"levelo://app?vid=efc40e6a-a407-4c31-9609-2557951dc4e7"},"vehicle_type_id":"4","last_reported":1761678507,"current_range_meters":14000,"station_id":"ce4bgk12rcd13ifvqbi0","pricing_plan_id":"cebpf4jnsgd1na2vs0mg"},{"bike_id":"29902583-9450-4aea-886e-f84d10138293","system_id":"levelo_inurba_marseille","lat":43.29997,"lon":5.38491,"is_reserved":false,"is_disabled":false,"rental_uris":{"android":"levelo://app?vid=29902583-9450-4aea-886e-f84d10138293","ios":"levelo://app?vid=29902583-9450-4aea-886e-f84d10138293"},"vehicle_type_id":"4","last_reported":1761678507,"current_range_meters":14000,"station_id":"ce4bgj92rcd13ifvqbd0","pricing_plan_id":"cebpf4jnsgd1na2vs0mg"},{"bike_id":"ce00e885-a781-4efe-acd7-bb2e5665d1e7","system_id":"levelo_inurba_marseille","lat":43.2842,"lon":5.37524,"is_reserved":false,"is_disabled":false,"rental_uris":{"android":"levelo://app?vid=ce00e885-a781-4efe-acd7-bb2e5665d1e7","ios":"levelo://app?vid=ce00e885-a781-4efe-acd7-bb2e5665d1e7"},"vehicle_type_id":"4","last_reported":1761678507,"current_range_meters":14400,"station_id":"ce4bh412rcd13ifvqds0","pricing_plan_id":"cebpf4jnsgd1na2vs0mg"},{"bike_id":"7646a48b-a165-4172-aaa5-aabda3625dff","system_id":"levelo_inurba_marseille","lat":43.29529,"lon":5.38545,"is_reserved":false,"is_disabled":false,"rental_uris":{"android":"levelo://app?vid=7646a48b-a165-4172-aaa5-aabda3625dff","ios":"levelo://app?vid=7646a48b-a165-4172-aaa5-aabda3625dff"},"vehicle_type_id":"4","last_reported":1761678507,"current_range_meters":14400,"station_id":"ce4bgih2rcd13ifvqba0","pricing_plan_id":"cebpf4jnsgd1na2vs0mg"},{"bike_id":"720466cc-999a-4d77-9e26-053a3dffc8ba","system_id":"levelo_inurba_marseille","lat":43.323675,"lon":5.388864,"is_reserved":false,"is_disabled":false,"rental_uris":{"android":"levelo://app?vid=720466cc-999a-4d77-9e26-053a3dffc8ba","ios":"levelo://app?vid=720466cc-999a-4d77-9e26-053a3dffc8ba"},"vehicle_type_id":"4","last_reported":1761678507,"current_range_meters":14400,"station_id":"ce4bhqp2rcd13ifvqhog","pricing_plan_id":"cebpf4jnsgd1na2vs0mg"},{"bike_id":"62b5fb27-3cad-4cd0-90df-f9b430bde5ef","system_id":"levelo_inurba_marseille","lat":43.280365,"lon":5.369492,"is_reserved":false,"is_disabled":false,"rental_uris":{"android":"levelo://app?vid=62b5fb27-3cad-4cd0-90df-f9b430bde5ef","ios":"levelo://app?vid=62b5fb27-3cad-4cd0-90df-f9b430bde5ef"},"vehicle_type_id":"4","last_reported":1761678507,"current_range_meters":14400,"station_id":"ce4bha12rcd13ifvqef0","pricing_plan_id":"cebpf4jnsgd1na2vs0mg"},{"bike_id":"ae8ebe94-fc0f-4409-8f77-39eb5c613a67","system_id":"levelo_inurba_marseille","lat":43.337444,"lon":5.374475,"is_reserved":false,"is_disabled":false,"rental_uris":{"android":"levelo://app?vid=ae8ebe94-fc0f-4409-8f77-39eb5c613a67","ios":"levelo://app?vid=ae8ebe94-fc0f-4409-8f77-39eb5c613a67"},"vehicle_type_id":"4","last_reported":1761678507,"current_range_meters":14800,"station_id":"","pricing_plan_id":"cebpf4jnsgd1na2vs0mg"},{"bike_id":"d9a21a39-82a4-44e5-91ef-7ee4a7aa79c8","system_id":"levelo_inurba_marseille","lat":43.28115,"lon":5.37842,"is_reserved":false,"is_disabled":false,"rental_uris":{"android":"levelo://app?vid=d9a21a39-82a4-44e5-91ef-7ee4a7aa79c8","ios":"levelo://app?vid=d9a21a39-82a4-44e5-91ef-7ee4a7aa79c8"},"vehicle_type_id":"4","last_reported":1761678507,"current_range_meters":14800,"station_id":"ce4bha12rcd13ifvqee0","pricing_plan_id":"cebpf4jnsgd1na2vs0mg"},{"bike_id":"9ec29212-eec1-4833-aa85-cba13bf8d30a","system_id":"levelo_inurba_marseille","lat":43.2885,"lon":5.39315,"is_reserved":false,"is_disabled":false,"rental_uris":{"android":"levelo://app?vid=9ec29212-eec1-4833-aa85-cba13bf8d30a","ios":"levelo://app?vid=9ec29212-eec1-4833-aa85-cba13bf8d30a"},"vehicle_type_id":"4","last_reported":1761678507,"current_range_meters":14800,"station_id":"ce4bh2p2rcd13ifvqdi0","pricing_plan_id":"cebpf4jnsgd1na2vs0mg"},{"bike_id":"50458368-3c2e-46e5-bc6a-25ba3116f6df","system_id":"levelo_inurba_marseille","lat":43.29823,"lon":5.44103,"is_reserved":false,"is_disabled":false,"rental_uris":{"android":"levelo://app?vid=50458368-3c2e-46e5-bc6a-25ba3116f6df","ios":"levelo://app?vid=50458368-3c2e-46e5-bc6a-25ba3116f6df"},"vehicle_type_id":"4","last_reported":1761678507,"current_range_meters":15200,"station_id":"st_d3jp68qikq2c7381ktn0","pricing_plan_id":"cebpf4jnsgd1na2vs0mg"},{"bike_id":"e0ff5506-344a-4f05-a1d0-68f5db5c5e83","system_id":"levelo_inurba_marseille","lat":43.29527,"lon":5.38542,"is_reserved":false,"is_disabled":false,"rental_uris":{"android":"levelo://app?vid=e0ff5506-344a-4f05-a1d0-68f5db5c5e83","ios":"levelo://app?vid=e0ff5506-344a-4f05-a1d0-68f5db5c5e83"},"vehicle_type_id":"4","last_reported":1761678507,"current_range_meters":15200,"station_id":"ce4bgih2rcd13ifvqba0","pricing_plan_id":"cebpf4jnsgd1na2vs0mg"},{"bike_id":"19203a67-96aa-459d-8b75-fad179368924","system_id":"levelo_inurba_marseille","lat":43.28698,"lon":5.39982,"is_reserved":false,"is_disabled":false,"rental_uris":{"android":"levelo://app?vid=19203a67-96aa-459d-8b75-fad179368924","ios":"levelo://app?vid=19203a67-96aa-459d-8b75-fad179368924"},"vehicle_type_id":"4","last_reported":1761678507,"current_range_meters":15200,"station_id":"ce4bho92rcd13ifvqh3g","pricing_plan_id":"cebpf4jnsgd1na2vs0mg"},{"bike_id":"aa0e7e4b-f890-4f53-a40a-615d9f77115a","system_id":"levelo_inurba_marseille","lat":43.32088,"lon":5.36792,"is_reserved":false,"is_disabled":false,"rental_uris":{"android":"levelo://app?vid=aa0e7e4b-f890-4f53-a40a-615d9f77115a","ios":"levelo://app?vid=aa0e7e4b-f890-4f53-a40a-615d9f77115a"},"vehicle_type_id":"4","last_reported":1761678507,"current_range_meters":15200,"station_id":"ce4bhrh2rcd13ifvqhug","pricing_plan_id":"cebpf4jnsgd1na2vs0mg"},{"bike_id":"f112a05d-60aa-4e69-a399-50c640ce53eb","system_id":"levelo_inurba_marseille","lat":43.29295,"lon":5.37453,"is_reserved":false,"is_disabled":false,"rental_uris":{"android":"levelo://app?vid=f112a05d-60aa-4e69-a399-50c640ce53eb","ios":"levelo://app?vid=f112a05d-60aa-4e69-a399-50c640ce53eb"},"vehicle_type_id":"4","last_reported":1761678507,"current_range_meters":15200,"station_id":"ce4bgi12rcd13ifvqb70","pricing_plan_id":"cebpf4jnsgd1na2vs0mg"},{"bike_id":"9070dfd1-ed3c-48c4-8227-bbfd39939a1a","system_id":"levelo_inurba_marseille","lat":43.28463,"lon":5.35878,"is_reserved":false,"is_disabled":false,"rental_uris":{"android":"levelo://app?vid=9070dfd1-ed3c-48c4-8227-bbfd39939a1a","ios":"levelo://app?vid=9070dfd1-ed3c-48c4-8227-bbfd39939a1a"},"vehicle_type_id":"4","last_reported":1761678507,"current_range_meters":15200,"station_id":"ce4bhah2rcd13ifvqei0","pricing_plan_id":"cebpf4jnsgd1na2vs0mg"},{"bike_id":"56c4d96c-b13b-4733-a704-dc1074ca7d41","system_id":"levelo_inurba_marseille","lat":43.30264,"lon":5.40085,"is_reserved":false,"is_disabled":false,"rental_uris":{"android":"levelo://app?vid=56c4d96c-b13b-4733-a704-dc1074ca7d41","ios":"levelo://app?vid=56c4d96c-b13b-4733-a704-dc1074ca7d41"},"vehicle_type_id":"4","last_reported":1761678507,"current_range_meters":15200,"station_id":"ce4bgvh2rcd13ifvqcs0","pricing_plan_id":"cebpf4jnsgd1na2vs0mg"},{"bike_id":"dfa8043f-8ebf-4ed6-b39f-49262753d28b","system_id":"levelo_inurba_marseille","lat":43.292682,"lon":5.384265,"is_reserved":false,"is_disabled":false,"rental_uris":{"android":"levelo://app?vid=dfa8043f-8ebf-4ed6-b39f-49262753d28b","ios":"levelo://app?vid=dfa8043f-8ebf-4ed6-b39f-49262753d28b"},"vehicle_type_id":"4","last_reported":1761678507,"current_range_meters":15200,"station_id":"ce4bh692rcd13ifvqea0","pricing_plan_id":"cebpf4jnsgd1na2vs0mg"},{"bike_id":"31a5b974-f7c1-4dca-b545-aa743e2168a5","system_id":"levelo_inurba_marseille","lat":43.30434,"lon":5.3888,"is_reserved":false,"is_disabled":false,"rental_uris":{"android":"levelo://app?vid=31a5b974-f7c1-4dca-b545-aa743e2168a5","ios":"levelo://app?vid=31a5b974-f7c1-4dca-b545-aa743e2168a5"},"vehicle_type_id":"4","last_reported":1761678507,"current_range_meters":15200,"station_id":"ce4bgk12rcd13ifvqbi0","pricing_plan_id":"cebpf4jnsgd1na2vs0mg"},{"bike_id":"a2c44ae7-52cc-4b80-a772-211a26fa85b1","system_id":"levelo_inurba_marseille","lat":43.30203,"lon":5.36632,"is_reserved":false,"is_disabled":true,"rental_uris":{"android":"levelo://app?vid=a2c44ae7-52cc-4b80-a772-211a26fa85b1","ios":"levelo://app?vid=a2c44ae7-52cc-4b80-a772-211a26fa85b1"},"vehicle_type_id":"4","last_reported":1761678507,"current_range_meters":16000,"station_id":"ce4bgrh2rcd13ifvqc8g","pricing_plan_id":"cebpf4jnsgd1na2vs0mg"},{"bike_id":"7dadf09d-637b-4168-9565-faf64f3eb916","system_id":"levelo_inurba_marseille","lat":43.23166,"lon":5.43759,"is_reserved":false,"is_disabled":false,"rental_uris":{"android":"levelo://app?vid=7dadf09d-637b-4168-9565-faf64f3eb916","ios":"levelo://app?vid=7dadf09d-637b-4168-9565-faf64f3eb916"},"vehicle_type_id":"4","last_reported":1761678507,"current_range_meters":16000,"station_id":"","pricing_plan_id":"cebpf4jnsgd1na2vs0mg"},{"bike_id":"24588a28-15b6-41a1-9d6f-5cf34d33a2d9","system_id":"levelo_inurba_marseille","lat":43.313662,"lon":5.397015,"is_reserved":false,"is_disabled":false,"rental_uris":{"android":"levelo://app?vid=24588a28-15b6-41a1-9d6f-5cf34d33a2d9","ios":"levelo://app?vid=24588a28-15b6-41a1-9d6f-5cf34d33a2d9"},"vehicle_type_id":"4","last_reported":1761678507,"current_range_meters":16000,"station_id":"ce4bgvp2rcd13ifvqcu0","pricing_plan_id":"cebpf4jnsgd1na2vs0mg"},{"bike_id":"d24a2c68-94c2-4577-88eb-bd161c9ebb38","system_id":"levelo_inurba_marseille","lat":43.225311,"lon":5.348358,"is_reserved":false,"is_disabled":false,"rental_uris":{"android":"levelo://app?vid=d24a2c68-94c2-4577-88eb-bd161c9ebb38","ios":"levelo://app?vid=d24a2c68-94c2-4577-88eb-bd161c9ebb38"},"vehicle_type_id":"4","last_reported":1761678507,"current_range_meters":16000,"station_id":"","pricing_plan_id":"cebpf4jnsgd1na2vs0mg"},{"bike_id":"02dd205b-e97c-4104-9683-066d2523fd3f","system_id":"levelo_inurba_marseille","lat":43.23065,"lon":5.35492,"is_reserved":false,"is_disabled":false,"rental_uris":{"android":"levelo://app?vid=02dd205b-e97c-4104-9683-066d2523fd3f","ios":"levelo://app?vid=02dd205b-e97c-4104-9683-066d2523fd3f"},"vehicle_type_id":"4","last_reported":1761678507,"current_range_meters":16000,"station_id":"cpo3342slgdg3j2ifvpg","pricing_plan_id":"cebpf4jnsgd1na2vs0mg"},{"bike_id":"ed0d6f55-0fe5-42cb-9a63-d6ac03de74dd","system_id":"levelo_inurba_marseille","lat":43.302684,"lon":5.377106,"is_reserved":false,"is_disabled":false,"rental_uris":{"android":"levelo://app?vid=ed0d6f55-0fe5-42cb-9a63-d6ac03de74dd","ios":"levelo://app?vid=ed0d6f55-0fe5-42cb-9a63-d6ac03de74dd"},"vehicle_type_id":"4","last_reported":1761678507,"current_range_meters":16400,"station_id":"ce4bguh2rcd13ifvqcj0","pricing_plan_id":"cebpf4jnsgd1na2vs0mg"},{"bike_id":"d798dcd0-3180-4850-b8c7-5b89672ba022","system_id":"levelo_inurba_marseille","lat":43.29225,"lon":5.39324,"is_reserved":false,"is_disabled":false,"rental_uris":{"android":"levelo://app?vid=d798dcd0-3180-4850-b8c7-5b89672ba022","ios":"levelo://app?vid=d798dcd0-3180-4850-b8c7-5b89672ba022"},"vehicle_type_id":"4","last_reported":1761678507,"current_range_meters":16400,"station_id":"ce4bh192rcd13ifvqdd0","pricing_plan_id":"cebpf4jnsgd1na2vs0mg"},{"bike_id":"82c3d2c8-f0bf-446e-b125-018f07998329","system_id":"levelo_inurba_marseille","lat":43.32755,"lon":5.40095,"is_reserved":false,"is_disabled":false,"rental_uris":{"android":"levelo://app?vid=82c3d2c8-f0bf-446e-b125-018f07998329","ios":"levelo://app?vid=82c3d2c8-f0bf-446e-b125-018f07998329"},"vehicle_type_id":"4","last_reported":1761678507,"current_range_meters":16400,"station_id":"","pricing_plan_id":"cebpf4jnsgd1na2vs0mg"},{"bike_id":"7c368e71-758c-4c86-abe6-e0ed4958ac76","system_id":"levelo_inurba_marseille","lat":43.25582,"lon":5.38225,"is_reserved":false,"is_disabled":false,"rental_uris":{"android":"levelo://app?vid=7c368e71-758c-4c86-abe6-e0ed4958ac76","ios":"levelo://app?vid=7c368e71-758c-4c86-abe6-e0ed4958ac76"},"vehicle_type_id":"4","last_reported":1761678507,"current_range_meters":16400,"station_id":"ce4bhih2rcd13ifvqfs0","pricing_plan_id":"cebpf4jnsgd1na2vs0mg"},{"bike_id":"776dc882-a206-4f5a-94c6-3811824ed917","system_id":"levelo_inurba_marseille","lat":43.29791,"lon":5.40399,"is_reserved":false,"is_disabled":false,"rental_uris":{"android":"levelo://app?vid=776dc882-a206-4f5a-94c6-3811824ed917","ios":"levelo://app?vid=776dc882-a206-4f5a-94c6-3811824ed917"},"vehicle_type_id":"4","last_reported":1761678507,"current_range_meters":16400,"station_id":"ce4bh112rcd13ifvqd90","pricing_plan_id":"cebpf4jnsgd1na2vs0mg"},{"bike_id":"38530d74-09ce-4ef8-b62c-23f9a2d478a5","system_id":"levelo_inurba_marseille","lat":43.30138,"lon":5.38766,"is_reserved":false,"is_disabled":false,"rental_uris":{"android":"levelo://app?vid=38530d74-09ce-4ef8-b62c-23f9a2d478a5","ios":"levelo://app?vid=38530d74-09ce-4ef8-b62c-23f9a2d478a5"},"vehicle_type_id":"4","last_reported":1761678507,"current_range_meters":16400,"station_id":"ce4bghh2rcd13ifvqb60","pricing_plan_id":"cebpf4jnsgd1na2vs0mg"},{"bike_id":"1fc2cd5c-5cb6-42ed-b0f5-ddf1cc748404","system_id":"levelo_inurba_marseille","lat":43.29878,"lon":5.38899,"is_reserved":false,"is_disabled":false,"rental_uris":{"android":"levelo://app?vid=1fc2cd5c-5cb6-42ed-b0f5-ddf1cc748404","ios":"levelo://app?vid=1fc2cd5c-5cb6-42ed-b0f5-ddf1cc748404"},"vehicle_type_id":"4","last_reported":1761678507,"current_range_meters":16400,"station_id":"ce4bh392rcd13ifvqdl0","pricing_plan_id":"cebpf4jnsgd1na2vs0mg"},{"bike_id":"9c97335d-e5a0-4807-8718-cc9e9bd0f749","system_id":"levelo_inurba_marseille","lat":43.25114,"lon":5.39531,"is_reserved":false,"is_disabled":false,"rental_uris":{"android":"levelo://app?vid=9c97335d-e5a0-4807-8718-cc9e9bd0f749","ios":"levelo://app?vid=9c97335d-e5a0-4807-8718-cc9e9bd0f749"},"vehicle_type_id":"4","last_reported":1761678507,"current_range_meters":16400,"station_id":"ce4bhm12rcd13ifvqgkg","pricing_plan_id":"cebpf4jnsgd1na2vs0mg"},{"bike_id":"025f0b58-2ca1-4f6f-a038-9584999cd0cc","system_id":"levelo_inurba_marseille","lat":43.29253,"lon":5.38444,"is_reserved":false,"is_disabled":false,"rental_uris":{"android":"levelo://app?vid=025f0b58-2ca1-4f6f-a038-9584999cd0cc","ios":"levelo://app?vid=025f0b58-2ca1-4f6f-a038-9584999cd0cc"},"vehicle_type_id":"4","last_reported":1761678507,"current_range_meters":16400,"station_id":"ce4bh692rcd13ifvqea0","pricing_plan_id":"cebpf4jnsgd1na2vs0mg"},{"bike_id":"11716ec0-de75-4788-aa86-bbb4f0d68f78","system_id":"levelo_inurba_marseille","lat":43.289797,"lon":5.366349,"is_reserved":false,"is_disabled":false,"rental_uris":{"android":"levelo://app?vid=11716ec0-de75-4788-aa86-bbb4f0d68f78","ios":"levelo://app?vid=11716ec0-de75-4788-aa86-bbb4f0d68f78"},"vehicle_type_id":"4","last_reported":1761678507,"current_range_meters":16800,"station_id":"ce4bhap2rcd13ifvqek0","pricing_plan_id":"cebpf4jnsgd1na2vs0mg"},{"bike_id":"88633b1f-c447-4aa4-94d8-ccbd4df4d334","system_id":"levelo_inurba_marseille","lat":43.29254,"lon":5.409,"is_reserved":false,"is_disabled":false,"rental_uris":{"android":"levelo://app?vid=88633b1f-c447-4aa4-94d8-ccbd4df4d334","ios":"levelo://app?vid=88633b1f-c447-4aa4-94d8-ccbd4df4d334"},"vehicle_type_id":"4","last_reported":1761678507,"current_range_meters":16800,"station_id":"ce4bh192rcd13ifvqdc0","pricing_plan_id":"cebpf4jnsgd1na2vs0mg"},{"bike_id":"b7853e2d-9fd8-47b7-b418-f5a31a67b88f","system_id":"levelo_inurba_marseille","lat":43.295114,"lon":5.379263,"is_reserved":false,"is_disabled":false,"rental_uris":{"android":"levelo://app?vid=b7853e2d-9fd8-47b7-b418-f5a31a67b88f","ios":"levelo://app?vid=b7853e2d-9fd8-47b7-b418-f5a31a67b88f"},"vehicle_type_id":"4","last_reported":1761678507,"current_range_meters":16800,"station_id":"","pricing_plan_id":"cebpf4jnsgd1na2vs0mg"},{"bike_id":"79291fa6-7eb4-4fdc-bcb4-f6d54d1fa287","system_id":"levelo_inurba_marseille","lat":43.29525,"lon":5.38544,"is_reserved":false,"is_disabled":false,"rental_uris":{"android":"levelo://app?vid=79291fa6-7eb4-4fdc-bcb4-f6d54d1fa287","ios":"levelo://app?vid=79291fa6-7eb4-4fdc-bcb4-f6d54d1fa287"},"vehicle_type_id":"4","last_reported":1761678507,"current_range_meters":16800,"station_id":"ce4bgih2rcd13ifvqba0","pricing_plan_id":"cebpf4jnsgd1na2vs0mg"},{"bike_id":"fc8dce04-fa9b-4511-9944-96d30aadef1b","system_id":"levelo_inurba_marseille","lat":43.30325,"lon":5.40432,"is_reserved":false,"is_disabled":false,"rental_uris":{"android":"levelo://app?vid=fc8dce04-fa9b-4511-9944-96d30aadef1b","ios":"levelo://app?vid=fc8dce04-fa9b-4511-9944-96d30aadef1b"},"vehicle_type_id":"4","last_reported":1761678507,"current_range_meters":16800,"station_id":"ce4bh012rcd13ifvqd10","pricing_plan_id":"cebpf4jnsgd1na2vs0mg"},{"bike_id":"1a0ee668-f3c9-4c5b-af99-05e583b2311f","system_id":"levelo_inurba_marseille","lat":43.28106,"lon":5.37831,"is_reserved":false,"is_disabled":false,"rental_uris":{"android":"levelo://app?vid=1a0ee668-f3c9-4c5b-af99-05e583b2311f","ios":"levelo://app?vid=1a0ee668-f3c9-4c5b-af99-05e583b2311f"},"vehicle_type_id":"4","last_reported":1761678507,"current_range_meters":17200,"station_id":"ce4bha12rcd13ifvqee0","pricing_plan_id":"cebpf4jnsgd1na2vs0mg"},{"bike_id":"19c69ac9-553a-4dbe-8ab4-196c5b3e56d5","system_id":"levelo_inurba_marseille","lat":43.30645,"lon":5.40099,"is_reserved":false,"is_disabled":false,"rental_uris":{"android":"levelo://app?vid=19c69ac9-553a-4dbe-8ab4-196c5b3e56d5","ios":"levelo://app?vid=19c69ac9-553a-4dbe-8ab4-196c5b3e56d5"},"vehicle_type_id":"4","last_reported":1761678507,"current_range_meters":17200,"station_id":"ce4bh112rcd13ifvqda0","pricing_plan_id":"cebpf4jnsgd1na2vs0mg"},{"bike_id":"28ecc673-9f76-410b-bbf1-6f0559d3f1af","system_id":"levelo_inurba_marseille","lat":43.29347,"lon":5.37435,"is_reserved":false,"is_disabled":false,"rental_uris":{"android":"levelo://app?vid=28ecc673-9f76-410b-bbf1-6f0559d3f1af","ios":"levelo://app?vid=28ecc673-9f76-410b-bbf1-6f0559d3f1af"},"vehicle_type_id":"4","last_reported":1761678507,"current_range_meters":17200,"station_id":"ce4bhap2rcd13ifvqek0","pricing_plan_id":"cebpf4jnsgd1na2vs0mg"},{"bike_id":"4802e827-5d5e-4d4b-a7d0-3078a013f8f6","system_id":"levelo_inurba_marseille","lat":43.295167,"lon":5.390457,"is_reserved":false,"is_disabled":false,"rental_uris":{"android":"levelo://app?vid=4802e827-5d5e-4d4b-a7d0-3078a013f8f6","ios":"levelo://app?vid=4802e827-5d5e-4d4b-a7d0-3078a013f8f6"},"vehicle_type_id":"4","last_reported":1761678507,"current_range_meters":17600,"station_id":"ce4bh3p2rcd13ifvqdp0","pricing_plan_id":"cebpf4jnsgd1na2vs0mg"},{"bike_id":"fef7c7e6-8059-41aa-ae57-31b07bd2b2eb","system_id":"levelo_inurba_marseille","lat":43.225311,"lon":5.348374,"is_reserved":false,"is_disabled":false,"rental_uris":{"android":"levelo://app?vid=fef7c7e6-8059-41aa-ae57-31b07bd2b2eb","ios":"levelo://app?vid=fef7c7e6-8059-41aa-ae57-31b07bd2b2eb"},"vehicle_type_id":"4","last_reported":1761678507,"current_range_meters":17600,"station_id":"","pricing_plan_id":"cebpf4jnsgd1na2vs0mg"},{"bike_id":"7c34dc29-9b45-423a-834a-a7f85e55d450","system_id":"levelo_inurba_marseille","lat":43.29255,"lon":5.38423,"is_reserved":false,"is_disabled":false,"rental_uris":{"android":"levelo://app?vid=7c34dc29-9b45-423a-834a-a7f85e55d450","ios":"levelo://app?vid=7c34dc29-9b45-423a-834a-a7f85e55d450"},"vehicle_type_id":"4","last_reported":1761678507,"current_range_meters":17600,"station_id":"ce4bh692rcd13ifvqea0","pricing_plan_id":"cebpf4jnsgd1na2vs0mg"},{"bike_id":"ba29737f-5591-454e-8c70-aeb6c9aafeef","system_id":"levelo_inurba_marseille","lat":43.24956,"lon":5.40497,"is_reserved":false,"is_disabled":false,"rental_uris":{"android":"levelo://app?vid=ba29737f-5591-454e-8c70-aeb6c9aafeef","ios":"levelo://app?vid=ba29737f-5591-454e-8c70-aeb6c9aafeef"},"vehicle_type_id":"4","last_reported":1761678507,"current_range_meters":17600,"station_id":"st_d2ngiaodas8pm72gd1h0","pricing_plan_id":"cebpf4jnsgd1na2vs0mg"},{"bike_id":"99958f0a-a39a-46c7-9a32-5b4b41f10307","system_id":"levelo_inurba_marseille","lat":43.30805,"lon":5.38144,"is_reserved":false,"is_disabled":false,"rental_uris":{"android":"levelo://app?vid=99958f0a-a39a-46c7-9a32-5b4b41f10307","ios":"levelo://app?vid=99958f0a-a39a-46c7-9a32-5b4b41f10307"},"vehicle_type_id":"4","last_reported":1761678507,"current_range_meters":17600,"station_id":"ce4bgt12rcd13ifvqce0","pricing_plan_id":"cebpf4jnsgd1na2vs0mg"},{"bike_id":"731c6dbb-3562-49c0-8d1a-307d7d710a0c","system_id":"levelo_inurba_marseille","lat":43.29527,"lon":5.38522,"is_reserved":false,"is_disabled":false,"rental_uris":{"android":"levelo://app?vid=731c6dbb-3562-49c0-8d1a-307d7d710a0c","ios":"levelo://app?vid=731c6dbb-3562-49c0-8d1a-307d7d710a0c"},"vehicle_type_id":"4","last_reported":1761678507,"current_range_meters":17600,"station_id":"ce4bgih2rcd13ifvqba0","pricing_plan_id":"cebpf4jnsgd1na2vs0mg"},{"bike_id":"8f88ca0d-6dd7-4cf9-ad18-09074502ae18","system_id":"levelo_inurba_marseille","lat":43.29039,"lon":5.38597,"is_reserved":false,"is_disabled":false,"rental_uris":{"android":"levelo://app?vid=8f88ca0d-6dd7-4cf9-ad18-09074502ae18","ios":"levelo://app?vid=8f88ca0d-6dd7-4cf9-ad18-09074502ae18"},"vehicle_type_id":"4","last_reported":1761678507,"current_range_meters":17600,"station_id":"ce4bh4p2rcd13ifvqe0g","pricing_plan_id":"cebpf4jnsgd1na2vs0mg"},{"bike_id":"f6adb9c1-4a78-4322-baec-aa5f6f5d93b6","system_id":"levelo_inurba_marseille","lat":43.225321,"lon":5.348302,"is_reserved":false,"is_disabled":false,"rental_uris":{"android":"levelo://app?vid=f6adb9c1-4a78-4322-baec-aa5f6f5d93b6","ios":"levelo://app?vid=f6adb9c1-4a78-4322-baec-aa5f6f5d93b6"},"vehicle_type_id":"4","last_reported":1761678507,"current_range_meters":17600,"station_id":"","pricing_plan_id":"cebpf4jnsgd1na2vs0mg"},{"bike_id":"1d3b177f-b94c-4b69-b81b-06c3e31e4efc","system_id":"levelo_inurba_marseille","lat":43.30671,"lon":5.40079,"is_reserved":false,"is_disabled":false,"rental_uris":{"android":"levelo://app?vid=1d3b177f-b94c-4b69-b81b-06c3e31e4efc","ios":"levelo://app?vid=1d3b177f-b94c-4b69-b81b-06c3e31e4efc"},"vehicle_type_id":"4","last_reported":1761678507,"current_range_meters":18000,"station_id":"ce4bh112rcd13ifvqda0","pricing_plan_id":"cebpf4jnsgd1na2vs0mg"},{"bike_id":"14c6cedd-2559-445e-b389-644995a90b39","system_id":"levelo_inurba_marseille","lat":43.31075,"lon":5.42772,"is_reserved":false,"is_disabled":false,"rental_uris":{"android":"levelo://app?vid=14c6cedd-2559-445e-b389-644995a90b39","ios":"levelo://app?vid=14c6cedd-2559-445e-b389-644995a90b39"},"vehicle_type_id":"4","last_reported":1761678507,"current_range_meters":18000,"station_id":"","pricing_plan_id":"cebpf4jnsgd1na2vs0mg"},{"bike_id":"3be6387f-9356-4d22-96e9-26a716368262","system_id":"levelo_inurba_marseille","lat":43.29625,"lon":5.40555,"is_reserved":false,"is_disabled":true,"rental_uris":{"android":"levelo://app?vid=3be6387f-9356-4d22-96e9-26a716368262","ios":"levelo://app?vid=3be6387f-9356-4d22-96e9-26a716368262"},"vehicle_type_id":"4","last_reported":1761678507,"current_range_meters":18000,"station_id":"ce4bh0h2rcd13ifvqd60","pricing_plan_id":"cebpf4jnsgd1na2vs0mg"},{"bike_id":"6416cd80-48f3-45e0-8405-27e81c43f849","system_id":"levelo_inurba_marseille","lat":43.30595,"lon":5.39352,"is_reserved":false,"is_disabled":false,"rental_uris":{"android":"levelo://app?vid=6416cd80-48f3-45e0-8405-27e81c43f849","ios":"levelo://app?vid=6416cd80-48f3-45e0-8405-27e81c43f849"},"vehicle_type_id":"4","last_reported":1761678507,"current_range_meters":18000,"station_id":"ce4bh0p2rcd13ifvqd80","pricing_plan_id":"cebpf4jnsgd1na2vs0mg"},{"bike_id":"34cfbbfb-7fcd-4e0b-a511-b666cf091d8e","system_id":"levelo_inurba_marseille","lat":43.25093,"lon":5.39499,"is_reserved":false,"is_disabled":true,"rental_uris":{"android":"levelo://app?vid=34cfbbfb-7fcd-4e0b-a511-b666cf091d8e","ios":"levelo://app?vid=34cfbbfb-7fcd-4e0b-a511-b666cf091d8e"},"vehicle_type_id":"4","last_reported":1761678507,"current_range_meters":18000,"station_id":"ce4bhm12rcd13ifvqgkg","pricing_plan_id":"cebpf4jnsgd1na2vs0mg"},{"bike_id":"7fb0d27d-ec45-4de8-9c9e-90046ec376fa","system_id":"levelo_inurba_marseille","lat":43.24178,"lon":5.36397,"is_reserved":false,"is_disabled":false,"rental_uris":{"android":"levelo://app?vid=7fb0d27d-ec45-4de8-9c9e-90046ec376fa","ios":"levelo://app?vid=7fb0d27d-ec45-4de8-9c9e-90046ec376fa"},"vehicle_type_id":"4","last_reported":1761678507,"current_range_meters":18000,"station_id":"cpo36qri1sfpv3e86is0","pricing_plan_id":"cebpf4jnsgd1na2vs0mg"},{"bike_id":"faee4aed-34d1-4e59-9f3e-bc2337688920","system_id":"levelo_inurba_marseille","lat":43.31706,"lon":5.43686,"is_reserved":false,"is_disabled":true,"rental_uris":{"android":"levelo://app?vid=faee4aed-34d1-4e59-9f3e-bc2337688920","ios":"levelo://app?vid=faee4aed-34d1-4e59-9f3e-bc2337688920"},"vehicle_type_id":"4","last_reported":1761678507,"current_range_meters":18000,"station_id":"ce4bhp92rcd13ifvqhcg","pricing_plan_id":"cebpf4jnsgd1na2vs0mg"},{"bike_id":"eaa27f99-1b2b-451b-9b6e-d89600e0e460","system_id":"levelo_inurba_marseille","lat":43.29516,"lon":5.3854,"is_reserved":false,"is_disabled":false,"rental_uris":{"android":"levelo://app?vid=eaa27f99-1b2b-451b-9b6e-d89600e0e460","ios":"levelo://app?vid=eaa27f99-1b2b-451b-9b6e-d89600e0e460"},"vehicle_type_id":"4","last_reported":1761678507,"current_range_meters":18000,"station_id":"ce4bgih2rcd13ifvqba0","pricing_plan_id":"cebpf4jnsgd1na2vs0mg"},{"bike_id":"738e36cd-60e8-4877-a4b5-c11d7d14c02e","system_id":"levelo_inurba_marseille","lat":43.300958,"lon":5.389832,"is_reserved":false,"is_disabled":false,"rental_uris":{"android":"levelo://app?vid=738e36cd-60e8-4877-a4b5-c11d7d14c02e","ios":"levelo://app?vid=738e36cd-60e8-4877-a4b5-c11d7d14c02e"},"vehicle_type_id":"4","last_reported":1761678507,"current_range_meters":18000,"station_id":"ce4bh192rcd13ifvqdb0","pricing_plan_id":"cebpf4jnsgd1na2vs0mg"},{"bike_id":"d1146506-1979-4edf-951b-bc60c11fd580","system_id":"levelo_inurba_marseille","lat":43.29263,"lon":5.40903,"is_reserved":false,"is_disabled":false,"rental_uris":{"android":"levelo://app?vid=d1146506-1979-4edf-951b-bc60c11fd580","ios":"levelo://app?vid=d1146506-1979-4edf-951b-bc60c11fd580"},"vehicle_type_id":"4","last_reported":1761678507,"current_range_meters":18000,"station_id":"ce4bh192rcd13ifvqdc0","pricing_plan_id":"cebpf4jnsgd1na2vs0mg"},{"bike_id":"0b5c2326-04c1-4c81-9c1b-7955d4cb0b09","system_id":"levelo_inurba_marseille","lat":43.25569,"lon":5.38245,"is_reserved":false,"is_disabled":false,"rental_uris":{"android":"levelo://app?vid=0b5c2326-04c1-4c81-9c1b-7955d4cb0b09","ios":"levelo://app?vid=0b5c2326-04c1-4c81-9c1b-7955d4cb0b09"},"vehicle_type_id":"4","last_reported":1761678507,"current_range_meters":18000,"station_id":"ce4bhih2rcd13ifvqfs0","pricing_plan_id":"cebpf4jnsgd1na2vs0mg"},{"bike_id":"96874538-e338-47dd-8158-7284ae5bb7a5","system_id":"levelo_inurba_marseille","lat":43.2906,"lon":5.39421,"is_reserved":false,"is_disabled":false,"rental_uris":{"android":"levelo://app?vid=96874538-e338-47dd-8158-7284ae5bb7a5","ios":"levelo://app?vid=96874538-e338-47dd-8158-7284ae5bb7a5"},"vehicle_type_id":"4","last_reported":1761678507,"current_range_meters":18800,"station_id":"","pricing_plan_id":"cebpf4jnsgd1na2vs0mg"},{"bike_id":"e3260d53-1f31-4048-a6b1-57d9b1375877","system_id":"levelo_inurba_marseille","lat":43.28538,"lon":5.44096,"is_reserved":false,"is_disabled":false,"rental_uris":{"android":"levelo://app?vid=e3260d53-1f31-4048-a6b1-57d9b1375877","ios":"levelo://app?vid=e3260d53-1f31-4048-a6b1-57d9b1375877"},"vehicle_type_id":"4","last_reported":1761678507,"current_range_meters":18800,"station_id":"st_d3j3df2ikq2c7380ej80","pricing_plan_id":"cebpf4jnsgd1na2vs0mg"},{"bike_id":"3d00cf23-a66b-47a1-8eb3-f05af16b09a1","system_id":"levelo_inurba_marseille","lat":43.2441,"lon":5.37075,"is_reserved":false,"is_disabled":false,"rental_uris":{"android":"levelo://app?vid=3d00cf23-a66b-47a1-8eb3-f05af16b09a1","ios":"levelo://app?vid=3d00cf23-a66b-47a1-8eb3-f05af16b09a1"},"vehicle_type_id":"4","last_reported":1761678507,"current_range_meters":18800,"station_id":"ce4bhhh2rcd13ifvqfk0","pricing_plan_id":"cebpf4jnsgd1na2vs0mg"},{"bike_id":"1a34b5a4-3c1e-479b-b6f5-76f97d5c5c52","system_id":"levelo_inurba_marseille","lat":43.28524,"lon":5.44095,"is_reserved":false,"is_disabled":false,"rental_uris":{"android":"levelo://app?vid=1a34b5a4-3c1e-479b-b6f5-76f97d5c5c52","ios":"levelo://app?vid=1a34b5a4-3c1e-479b-b6f5-76f97d5c5c52"},"vehicle_type_id":"4","last_reported":1761678507,"current_range_meters":18800,"station_id":"st_d3j3df2ikq2c7380ej80","pricing_plan_id":"cebpf4jnsgd1na2vs0mg"},{"bike_id":"bccbe444-11e1-4102-b9e2-ee54115f4a07","system_id":"levelo_inurba_marseille","lat":43.287216,"lon":5.361006,"is_reserved":false,"is_disabled":false,"rental_uris":{"android":"levelo://app?vid=bccbe444-11e1-4102-b9e2-ee54115f4a07","ios":"levelo://app?vid=bccbe444-11e1-4102-b9e2-ee54115f4a07"},"vehicle_type_id":"4","last_reported":1761678507,"current_range_meters":18800,"station_id":"cki0cbj6b192h4jlfktg","pricing_plan_id":"cebpf4jnsgd1na2vs0mg"},