{"last_updated":1743534507,"ttl":60,"version":"2.2","data":{"bikes":[{"bike_id":"7503e781-3a43-4f29-9116-5c77f5a53429","system_id":"levelo_inurba_marseille","lat":43.24836,"lon":5.37477,"is_reserved":false,"is_disabled":true,"rental_uris":{"android":"levelo://app?vid=7503e781-3a43-4f29-9116-5c77f5a53429","ios":"levelo://app?vid=7503e781-3a43-4f29-9116-5c77f5a53429"},"vehicle_type_id":"4","last_reported":1743534507,"current_range_meters":2800,"station_id":"","pricing_plan_id":"cebpf4jnsgd1na2vs0mg"},{"bike_id":"91178871-e266-471f-a102-a6fe88e13477","system_id":"levelo_inurba_marseille","lat":43.29091,"lon":5.3721,"is_reserved":false,"is_disabled":false,"rental_uris":{"android":"levelo://app?vid=91178871-e266-471f-a102-a6fe88e13477","ios":"levelo://app?vid=91178871-e266-471f-a102-a6fe88e13477"},"vehicle_type_id":"4","last_reported":1743534507,"current_range_meters":2800,"station_id":"ce4bh5p2rcd13ifvqe4g","pricing_plan_id":"cebpf4jnsgd1na2vs0mg"},{"bike_id":"6f6a8872-892c-4e12-9d08-42fc1f349b42","system_id":"levelo_inurba_marseille","lat":43.25502,"lon":5.37653,"is_reserved":false,"is_disabled":false,"rental_uris":{"android":"levelo://app?vid=6f6a8872-892c-4e12-9d08-42fc1f349b42","ios":"levelo://app?vid=6f6a8872-892c-4e12-9d08-42fc1f349b42"},"vehicle_type_id":"4","last_reported":1743534507,"current_range_meters":2800,"station_id":"ce4bhh12rcd13ifvqff0","pricing_plan_id":"cebpf4jnsgd1na2vs0mg"},{"bike_id":"0689bfb1-634a-4774-a415-d3280d852373","system_id":"levelo_inurba_marseille","lat":43.32089,"lon":5.36684,"is_reserved":false,"is_disabled":false,"rental_uris":{"android":"levelo://app?vid=0689bfb1-634a-4774-a415-d3280d852373","ios":"levelo://app?vid=0689bfb1-634a-4774-a415-d3280d852373"},"vehicle_type_id":"4","last_reported":1743534507,"current_range_meters":2800,"station_id":"","pricing_plan_id":"cebpf4jnsgd1na2vs0mg"},{"bike_id":"f3226009-a5f7-412c-a754-d3718d1f941b","system_id":"levelo_inurba_marseille","lat":43.3047,"lon":5.39997,"is_reserved":false,"is_disabled":false,"rental_uris":{"android":"levelo://app?vid=f3226009-a5f7-412c-a754-d3718d1f941b","ios":"levelo://app?vid=f3226009-a5f7-412c-a754-d3718d1f941b"},"vehicle_type_id":"4","last_reported":1743534507,"current_range_meters":2800,"station_id":"","pricing_plan_id":"cebpf4jnsgd1na2vs0mg"},{"bike_id":"d134a842-4d8c-4a51-8ebd-a550ed25f62b","system_id":"levelo_inurba_marseille","lat":43.284565,"lon":5.358945,"is_reserved":false,"is_disabled":true,"rental_uris":{"android":"levelo://app?vid=d134a842-4d8c-4a51-8ebd-a550ed25f62b","ios":"levelo://app?vid=d134a842-4d8c-4a51-8ebd-a550ed25f62b"},"vehicle_type_id":"4","last_reported":1743534507,"current_range_meters":2800,"station_id":"ce4bhah2rcd13ifvqei0","pricing_plan_id":"cebpf4jnsgd1na2vs0mg"},{"bike_id":"27bf3e59-675b-4fef-9dfe-e028bcfb064a","system_id":"levelo_inurba_marseille","lat":43.29909,"lon":5.38136,"is_reserved":false,"is_disabled":false,"rental_uris":{"android":"levelo://app?vid=27bf3e59-675b-4fef-9dfe-e028bcfb064a","ios":"levelo://app?vid=27bf3e59-675b-4fef-9dfe-e028bcfb064a"},"vehicle_type_id":"4","last_reported":1743534507,"current_range_meters":3200,"station_id":"ce4bgj12rcd13ifvqbc0","pricing_plan_id":"cebpf4jnsgd1na2vs0mg"},{"bike_id":"edff01ab-437b-4800-83fa-2afdbd181162","system_id":"levelo_inurba_marseille","lat":43.26567,"lon":5.39021,"is_reserved":false,"is_disabled":false,"rental_uris":{"android":"levelo://app?vid=edff01ab-437b-4800-83fa-2afdbd181162","ios":"levelo://app?vid=edff01ab-437b-4800-83fa-2afdbd181162"},"vehicle_type_id":"4","last_reported":1743534507,"current_range_meters":3200,"station_id":"ce4bhe12rcd13ifvqf30","pricing_plan_id":"cebpf4jnsgd1na2vs0mg"},{"bike_id":"3f7fb305-4d65-41a3-9470-7dedb7e96321","system_id":"levelo_inurba_marseille","lat":43.26969,"lon":5.40238,"is_reserved":false,"is_disabled":false,"rental_uris":{"android":"levelo://app?vid=3f7fb305-4d65-41a3-9470-7dedb7e96321","ios":"levelo://app?vid=3f7fb305-4d65-41a3-9470-7dedb7e96321"},"vehicle_type_id":"4","last_reported":1743534507,"current_range_meters":3200,"station_id":"cjm6bp8fraef2m0cb0m0","pricing_plan_id":"cebpf4jnsgd1na2vs0mg"},{"bike_id":"4b39ecf5-38cb-408b-8823-098d0675bdef","system_id":"levelo_inurba_marseille","lat":43.29515,"lon":5.39034,"is_reserved":false,"is_disabled":false,"rental_uris":{"android":"levelo://app?vid=4b39ecf5-38cb-408b-8823-098d0675bdef","ios":"levelo://app?vid=4b39ecf5-38cb-408b-8823-098d0675bdef"},"vehicle_type_id":"4","last_reported":1743534507,"current_range_meters":3600,"station_id":"ce4bh3p2rcd13ifvqdp0","pricing_plan_id":"cebpf4jnsgd1na2vs0mg"},{"bike_id":"a9dafc81-cfd7-45d7-8706-75eafdc03ce4","system_id":"levelo_inurba_marseille","lat":43.26567,"lon":5.3903,"is_reserved":false,"is_disabled":false,"rental_uris":{"android":"levelo://app?vid=a9dafc81-cfd7-45d7-8706-75eafdc03ce4","ios":"levelo://app?vid=a9dafc81-cfd7-45d7-8706-75eafdc03ce4"},"vehicle_type_id":"4","last_reported":1743534507,"current_range_meters":3600,"station_id":"ce4bhe12rcd13ifvqf30","pricing_plan_id":"cebpf4jnsgd1na2vs0mg"},{"bike_id":"350523a5-78a9-4774-bf79-ebe6c12eeb21","system_id":"levelo_inurba_marseille","lat":43.29052,"lon":5.35919,"is_reserved":false,"is_disabled":false,"rental_uris":{"android":"levelo://app?vid=350523a5-78a9-4774-bf79-ebe6c12eeb21","ios":"levelo://app?vid=350523a5-78a9-4774-bf79-ebe6c12eeb21"},"vehicle_type_id":"4","last_reported":1743534507,"current_range_meters":3600,"station_id":"ce4bha92rcd13ifvqeg0","pricing_plan_id":"cebpf4jnsgd1na2vs0mg"},{"bike_id":"57e2f51f-e093-4678-891f-7d4f8ba4a7fc","system_id":"levelo_inurba_marseille","lat":43.30309,"lon":5.40408,"is_reserved":false,"is_disabled":false,"rental_uris":{"android":"levelo://app?vid=57e2f51f-e093-4678-891f-7d4f8ba4a7fc","ios":"levelo://app?vid=57e2f51f-e093-4678-891f-7d4f8ba4a7fc"},"vehicle_type_id":"4","last_reported":1743534507,"current_range_meters":3600,"station_id":"ce4bh012rcd13ifvqd10","pricing_plan_id":"cebpf4jnsgd1na2vs0mg"},{"bike_id":"e6696693-81d8-4e9d-9c39-6720ce7d0c07","system_id":"levelo_inurba_marseille","lat":43.28101,"lon":5.37834,"is_reserved":false,"is_disabled":false,"rental_uris":{"android":"levelo://app?vid=e6696693-81d8-4e9d-9c39-6720ce7d0c07","ios":"levelo://app?vid=e6696693-81d8-4e9d-9c39-6720ce7d0c07"},"vehicle_type_id":"4","last_reported":1743534507,"current_range_meters":3600,"station_id":"ce4bha12rcd13ifvqee0","pricing_plan_id":"cebpf4jnsgd1na2vs0mg"},{"bike_id":"9b29a14e-a235-4c34-909f-1c49e773b601","system_id":"levelo_inurba_marseille","lat":43.29302,"lon":5.37167,"is_reserved":false,"is_disabled":false,"rental_uris":{"android":"levelo://app?vid=9b29a14e-a235-4c34-909f-1c49e773b601","ios":"levelo://app?vid=9b29a14e-a235-4c34-909f-1c49e773b601"},"vehicle_type_id":"4","last_reported":1743534507,"current_range_meters":4000,"station_id":"ce4bgh92rcd13ifvqb40","pricing_plan_id":"cebpf4jnsgd1na2vs0mg"},{"bike_id":"5e389705-f460-4292-85fe-91cb06407076","system_id":"levelo_inurba_marseille","lat":43.32344,"lon":5.40619,"is_reserved":false,"is_disabled":false,"rental_uris":{"android":"levelo://app?vid=5e389705-f460-4292-85fe-91cb06407076","ios":"levelo://app?vid=5e389705-f460-4292-85fe-91cb06407076"},"vehicle_type_id":"4","last_reported":1743534507,"current_range_meters":4400,"station_id":"ce4bhq92rcd13ifvqhjg","pricing_plan_id":"cebpf4jnsgd1na2vs0mg"},{"bike_id":"e8feef46-0889-480b-9ff2-ff22dd281f12","system_id":"levelo_inurba_marseille","lat":43.27813,"lon":5.4071,"is_reserved":false,"is_disabled":false,"rental_uris":{"android":"levelo://app?vid=e8feef46-0889-480b-9ff2-ff22dd281f12","ios":"levelo://app?vid=e8feef46-0889-480b-9ff2-ff22dd281f12"},"vehicle_type_id":"4","last_reported":1743534507,"current_range_meters":4400,"station_id":"ce4bhnh2rcd13ifvqgtg","pricing_plan_id":"cebpf4jnsgd1na2vs0mg"},{"bike_id":"a3436b6a-5177-4ade-b07d-f6788de07b55","system_id":"levelo_inurba_marseille","lat":43.28618,"lon":5.35109,"is_reserved":false,"is_disabled":false,"rental_uris":{"android":"levelo://app?vid=a3436b6a-5177-4ade-b07d-f6788de07b55","ios":"levelo://app?vid=a3436b6a-5177-4ade-b07d-f6788de07b55"},"vehicle_type_id":"4","last_reported":1743534507,"current_range_meters":4400,"station_id":"ce4bhch2rcd13ifvqeug","pricing_plan_id":"cebpf4jnsgd1na2vs0mg"},{"bike_id":"0c40db3f-32b6-4ea9-9b45-f4c085819df2","system_id":"levelo_inurba_marseille","lat":43.28318,"lon":5.38908,"is_reserved":false,"is_disabled":false,"rental_uris":{"android":"levelo://app?vid=0c40db3f-32b6-4ea9-9b45-f4c085819df2","ios":"levelo://app?vid=0c40db3f-32b6-4ea9-9b45-f4c085819df2"},"vehicle_type_id":"4","last_reported":1743534507,"current_range_meters":4400,"station_id":"","pricing_plan_id":"cebpf4jnsgd1na2vs0mg"},{"bike_id":"97fcf2b1-0772-4e3b-8446-f8f22866aac9","system_id":"levelo_inurba_marseille","lat":43.28451,"lon":5.35917,"is_reserved":false,"is_disabled":false,"rental_uris":{"android":"levelo://app?vid=97fcf2b1-0772-4e3b-8446-f8f22866aac9","ios":"levelo://app?vid=97fcf2b1-0772-4e3b-8446-f8f22866aac9"},"vehicle_type_id":"4","last_reported":1743534507,"current_range_meters":4400,"station_id":"ce4bhah2rcd13ifvqei0","pricing_plan_id":"cebpf4jnsgd1na2vs0mg"},{"bike_id":"1b167083-12b7-424b-b082-ddc2382f2cdc","system_id":"levelo_inurba_marseille","lat":43.285986,"lon":5.35095,"is_reserved":false,"is_disabled":false,"rental_uris":{"android":"levelo://app?vid=1b167083-12b7-424b-b082-ddc2382f2cdc","ios":"levelo://app?vid=1b167083-12b7-424b-b082-ddc2382f2cdc"},"vehicle_type_id":"4","last_reported":1743534507,"current_range_meters":4400,"station_id":"","pricing_plan_id":"cebpf4jnsgd1na2vs0mg"},{"bike_id":"d02e4511-c09d-4b17-a19c-20db2cea8ba1","system_id":"levelo_inurba_marseille","lat":43.27069,"lon":5.422803,"is_reserved":false,"is_disabled":false,"rental_uris":{"android":"levelo://app?vid=d02e4511-c09d-4b17-a19c-20db2cea8ba1","ios":"levelo://app?vid=d02e4511-c09d-4b17-a19c-20db2cea8ba1"},"vehicle_type_id":"4","last_reported":1743534507,"current_range_meters":4800,"station_id":"ce4bhk92rcd13ifvqgb0","pricing_plan_id":"cebpf4jnsgd1na2vs0mg"},{"bike_id":"1945ebeb-6ec8-4a0c-9d89-2d8219042cad","system_id":"levelo_inurba_marseille","lat":43.28108,"lon":5.3784,"is_reserved":false,"is_disabled":false,"rental_uris":{"android":"levelo://app?vid=1945ebeb-6ec8-4a0c-9d89-2d8219042cad","ios":"levelo://app?vid=1945ebeb-6ec8-4a0c-9d89-2d8219042cad"},"vehicle_type_id":"4","last_reported":1743534507,"current_range_meters":4800,"station_id":"ce4bha12rcd13ifvqee0","pricing_plan_id":"cebpf4jnsgd1na2vs0mg"},{"bike_id":"12c2e0ef-deb7-4061-b663-3f414aff74f4","system_id":"levelo_inurba_marseille","lat":43.28939,"lon":5.36641,"is_reserved":false,"is_disabled":false,"rental_uris":{"android":"levelo://app?vid=12c2e0ef-deb7-4061-b663-3f414aff74f4","ios":"levelo://app?vid=12c2e0ef-deb7-4061-b663-3f414aff74f4"},"vehicle_type_id":"4","last_reported":1743534507,"current_range_meters":4800,"station_id":"ce4bhap2rcd13ifvqek0","pricing_plan_id":"cebpf4jnsgd1na2vs0mg"},{"bike_id":"4f6db61e-8293-4a0d-bb9c-f9aae02e4996","system_id":"levelo_inurba_marseille","lat":43.25119,"lon":5.39518,"is_reserved":false,"is_disabled":false,"rental_uris":{"android":"levelo://app?vid=4f6db61e-8293-4a0d-bb9c-f9aae02e4996","ios":"levelo://app?vid=4f6db61e-8293-4a0d-bb9c-f9aae02e4996"},"vehicle_type_id":"4","last_reported":1743534507,"current_range_meters":4800,"station_id":"ce4bhm12rcd13ifvqgkg","pricing_plan_id":"cebpf4jnsgd1na2vs0mg"},{"bike_id":"791f8b6d-c7b8-43a3-af53-554de4edbd8b","system_id":"levelo_inurba_marseille","lat":43.27066,"lon":5.40037,"is_reserved":false,"is_disabled":false,"rental_uris":{"android":"levelo://app?vid=791f8b6d-c7b8-43a3-af53-554de4edbd8b","ios":"levelo://app?vid=791f8b6d-c7b8-43a3-af53-554de4edbd8b"},"vehicle_type_id":"4","last_reported":1743534507,"current_range_meters":5600,"station_id":"","pricing_plan_id":"cebpf4jnsgd1na2vs0mg"},{"bike_id":"92bf22f8-3691-41fa-86bd-3691dfe2c874","system_id":"levelo_inurba_marseille","lat":43.3026,"lon":5.40054,"is_reserved":false,"is_disabled":false,"rental_uris":{"android":"levelo://app?vid=92bf22f8-3691-41fa-86bd-3691dfe2c874","ios":"levelo://app?vid=92bf22f8-3691-41fa-86bd-3691dfe2c874"},"vehicle_type_id":"4","last_reported":1743534507,"current_range_meters":5600,"station_id":"ce4bgvh2rcd13ifvqcs0","pricing_plan_id":"cebpf4jnsgd1na2vs0mg"},{"bike_id":"13ec9e16-deb0-4ea9-8160-dcf9c80e1bb4","system_id":"levelo_inurba_marseille","lat":43.30891,"lon":5.39662,"is_reserved":false,"is_disabled":false,"rental_uris":{"android":"levelo://app?vid=13ec9e16-deb0-4ea9-8160-dcf9c80e1bb4","ios":"levelo://app?vid=13ec9e16-deb0-4ea9-8160-dcf9c80e1bb4"},"vehicle_type_id":"4","last_reported":1743534507,"current_range_meters":5600,"station_id":"ce4bh012rcd13ifvqcv0","pricing_plan_id":"cebpf4jnsgd1na2vs0mg"},{"bike_id":"c6438c46-204d-4a79-9a65-1f7b29c6cbc4","system_id":"levelo_inurba_marseille","lat":43.28433,"lon":5.39184,"is_reserved":false,"is_disabled":true,"rental_uris":{"android":"levelo://app?vid=c6438c46-204d-4a79-9a65-1f7b29c6cbc4","ios":"levelo://app?vid=c6438c46-204d-4a79-9a65-1f7b29c6cbc4"},"vehicle_type_id":"4","last_reported":1743534507,"current_range_meters":6000,"station_id":"ce4bhoh2rcd13ifvqh5g","pricing_plan_id":"cebpf4jnsgd1na2vs0mg"},{"bike_id":"e1952107-ad59-47bb-a610-aa0fc34b19c6","system_id":"levelo_inurba_marseille","lat":43.29538,"lon":5.3855,"is_reserved":false,"is_disabled":false,"rental_uris":{"android":"levelo://app?vid=e1952107-ad59-47bb-a610-aa0fc34b19c6","ios":"levelo://app?vid=e1952107-ad59-47bb-a610-aa0fc34b19c6"},"vehicle_type_id":"4","last_reported":1743534507,"current_range_meters":6000,"station_id":"ce4bgih2rcd13ifvqba0","pricing_plan_id":"cebpf4jnsgd1na2vs0mg"},{"bike_id":"03cc9f61-dd7c-4ac7-af3a-55f779162c79","system_id":"levelo_inurba_marseille","lat":43.268103,"lon":5.402652,"is_reserved":false,"is_disabled":false,"rental_uris":{"android":"levelo://app?vid=03cc9f61-dd7c-4ac7-af3a-55f779162c79","ios":"levelo://app?vid=03cc9f61-dd7c-4ac7-af3a-55f779162c79"},"vehicle_type_id":"4","last_reported":1743534507,"current_range_meters":6000,"station_id":"ce501612rcd8frsf0b60","pricing_plan_id":"cebpf4jnsgd1na2vs0mg"},{"bike_id":"7e016232-e275-46b2-9007-3a933cc654b1","system_id":"levelo_inurba_marseille","lat":43.23179,"lon":5.3999,"is_reserved":false,"is_disabled":false,"rental_uris":{"android":"levelo://app?vid=7e016232-e275-46b2-9007-3a933cc654b1","ios":"levelo://app?vid=7e016232-e275-46b2-9007-3a933cc654b1"},"vehicle_type_id":"4","last_reported":1743534507,"current_range_meters":6400,"station_id":"ce4bhn12rcd13ifvqgqg","pricing_plan_id":"cebpf4jnsgd1na2vs0mg"},{"bike_id":"793f9885-d819-4106-ae4e-4c0b8ae32feb","system_id":"levelo_inurba_marseille","lat":43.2921,"lon":5.36071,"is_reserved":false,"is_disabled":false,"rental_uris":{"android":"levelo://app?vid=793f9885-d819-4106-ae4e-4c0b8ae32feb","ios":"levelo://app?vid=793f9885-d819-4106-ae4e-4c0b8ae32feb"},"vehicle_type_id":"4","last_reported":1743534507,"current_range_meters":6400,"station_id":"ce4bhbh2rcd13ifvqeqg","pricing_plan_id":"cebpf4jnsgd1na2vs0mg"},{"bike_id":"23a2997f-acca-44d1-a72c-cccdd94a796c","system_id":"levelo_inurba_marseille","lat":43.30923,"lon":5.40165,"is_reserved":false,"is_disabled":true,"rental_uris":{"android":"levelo://app?vid=23a2997f-acca-44d1-a72c-cccdd94a796c","ios":"levelo://app?vid=23a2997f-acca-44d1-a72c-cccdd94a796c"},"vehicle_type_id":"4","last_reported":1743534507,"current_range_meters":6400,"station_id":"ce4bgvp2rcd13ifvqct0","pricing_plan_id":"cebpf4jnsgd1na2vs0mg"},{"bike_id":"cbf93717-b509-4a4c-92d5-fa33f3429e1a","system_id":"levelo_inurba_marseille","lat":43.31175,"lon":5.38713,"is_reserved":false,"is_disabled":false,"rental_uris":{"android":"levelo://app?vid=cbf93717-b509-4a4c-92d5-fa33f3429e1a","ios":"levelo://app?vid=cbf93717-b509-4a4c-92d5-fa33f3429e1a"},"vehicle_type_id":"4","last_reported":1743534507,"current_range_meters":6400,"station_id":"ce4bgv12rcd13ifvqcp0","pricing_plan_id":"cebpf4jnsgd1na2vs0mg"},{"bike_id":"eebf72b5-e3ef-4e3f-8181-c82b2045fd37","system_id":"levelo_inurba_marseille","lat":43.26559,"lon":5.37307,"is_reserved":false,"is_disabled":false,"rental_uris":{"android":"levelo://app?vid=eebf72b5-e3ef-4e3f-8181-c82b2045fd37","ios":"levelo://app?vid=eebf72b5-e3ef-4e3f-8181-c82b2045fd37"},"vehicle_type_id":"4","last_reported":1743534507,"current_range_meters":6400,"station_id":"ce4bhg12rcd13ifvqf70","pricing_plan_id":"cebpf4jnsgd1na2vs0mg"},{"bike_id":"b2d16f4a-2a47-4b97-bddd-ea2cd0fd01fe","system_id":"levelo_inurba_marseille","lat":43.29274,"lon":5.36846,"is_reserved":false,"is_disabled":false,"rental_uris":{"android":"levelo://app?vid=b2d16f4a-2a47-4b97-bddd-ea2cd0fd01fe","ios":"levelo://app?vid=b2d16f4a-2a47-4b97-bddd-ea2cd0fd01fe"},"vehicle_type_id":"4","last_reported":1743534507,"current_range_meters":6400,"station_id":"ce4bhbp2rcd13ifvqesg","pricing_plan_id":"cebpf4jnsgd1na2vs0mg"},{"bike_id":"00015ab4-424f-4160-be20-17a3ffcd0a5e","system_id":"levelo_inurba_marseille","lat":43.28572,"lon":5.39497,"is_reserved":false,"is_disabled":false,"rental_uris":{"android":"levelo://app?vid=00015ab4-424f-4160-be20-17a3ffcd0a5e","ios":"levelo://app?vid=00015ab4-424f-4160-be20-17a3ffcd0a5e"},"vehicle_type_id":"4","last_reported":1743534507,"current_range_meters":6400,"station_id":"ce4bh292rcd13ifvqdg0","pricing_plan_id":"cebpf4jnsgd1na2vs0mg"},{"bike_id":"9582e48e-5616-48bd-b325-34a02aa0fa59","system_id":"levelo_inurba_marseille","lat":43.29531,"lon":5.39403,"is_reserved":false,"is_disabled":false,"rental_uris":{"android":"levelo://app?vid=9582e48e-5616-48bd-b325-34a02aa0fa59","ios":"levelo://app?vid=9582e48e-5616-48bd-b325-34a02aa0fa59"},"vehicle_type_id":"4","last_reported":1743534507,"current_range_meters":6400,"station_id":"ce4bh292rcd13ifvqdf0","pricing_plan_id":"cebpf4jnsgd1na2vs0mg"},{"bike_id":"8f188c1f-e79b-4d9c-bdf0-db34efe70778","system_id":"levelo_inurba_marseille","lat":43.23193,"lon":5.35559,"is_reserved":false,"is_disabled":false,"rental_uris":{"android":"levelo://app?vid=8f188c1f-e79b-4d9c-bdf0-db34efe70778","ios":"levelo://app?vid=8f188c1f-e79b-4d9c-bdf0-db34efe70778"},"vehicle_type_id":"4","last_reported":1743534507,"current_range_meters":6400,"station_id":"ce4bhu92rcd13ifvqi70","pricing_plan_id":"cebpf4jnsgd1na2vs0mg"},{"bike_id":"1d86137e-ae66-4ca4-846b-fbbdc3d570b6","system_id":"levelo_inurba_marseille","lat":43.29415,"lon":5.38612,"is_reserved":false,"is_disabled":false,"rental_uris":{"android":"levelo://app?vid=1d86137e-ae66-4ca4-846b-fbbdc3d570b6","ios":"levelo://app?vid=1d86137e-ae66-4ca4-846b-fbbdc3d570b6"},"vehicle_type_id":"4","last_reported":1743534507,"current_range_meters":6400,"station_id":"ce4bh2h2rcd13ifvqdh0","pricing_plan_id":"cebpf4jnsgd1na2vs0mg"},{"bike_id":"7b4adc5f-65cd-48f4-8459-bd3a9dbd2d30","system_id":"levelo_inurba_marseille","lat":43.29308,"lon":5.3744,"is_reserved":false,"is_disabled":false,"rental_uris":{"android":"levelo://app?vid=7b4adc5f-65cd-48f4-8459-bd3a9dbd2d30","ios":"levelo://app?vid=7b4adc5f-65cd-48f4-8459-bd3a9dbd2d30"},"vehicle_type_id":"4","last_reported":1743534507,"current_range_meters":6400,"station_id":"ce4bgi12rcd13ifvqb70","pricing_plan_id":"cebpf4jnsgd1na2vs0mg"},{"bike_id":"cc50a121-30f5-4ec0-9fd0-0d8cc5adbd88","system_id":"levelo_inurba_marseille","lat":43.26624,"lon":5.39064,"is_reserved":false,"is_disabled":false,"rental_uris":{"android":"levelo://app?vid=cc50a121-30f5-4ec0-9fd0-0d8cc5adbd88","ios":"levelo://app?vid=cc50a121-30f5-4ec0-9fd0-0d8cc5adbd88"},"vehicle_type_id":"4","last_reported":1743534507,"current_range_meters":6800,"station_id":"","pricing_plan_id":"cebpf4jnsgd1na2vs0mg"},{"bike_id":"fa36f309-6b39-4046-9bcf-4e553f3ec51d","system_id":"levelo_inurba_marseille","lat":43.25582,"lon":5.38243,"is_reserved":false,"is_disabled":false,"rental_uris":{"android":"levelo://app?vid=fa36f309-6b39-4046-9bcf-4e553f3ec51d","ios":"levelo://app?vid=fa36f309-6b39-4046-9bcf-4e553f3ec51d"},"vehicle_type_id":"4","last_reported":1743534507,"current_range_meters":6800,"station_id":"ce4bhih2rcd13ifvqfs0","pricing_plan_id":"cebpf4jnsgd1na2vs0mg"},{"bike_id":"d8dc7b2b-b521-459d-a4da-10bf163ca7c0","system_id":"levelo_inurba_marseille","lat":43.24688,"lon":5.381457,"is_reserved":false,"is_disabled":false,"rental_uris":{"android":"levelo://app?vid=d8dc7b2b-b521-459d-a4da-10bf163ca7c0","ios":"levelo://app?vid=d8dc7b2b-b521-459d-a4da-10bf163ca7c0"},"vehicle_type_id":"4","last_reported":1743534507,"current_range_meters":6800,"station_id":"ce4bhih2rcd13ifvqfr0","pricing_plan_id":"cebpf4jnsgd1na2vs0mg"},{"bike_id":"bb5b3ab2-6813-41c6-8bcd-a7f4e28c5f3e","system_id":"levelo_inurba_marseille","lat":43.313232,"lon":5.396838,"is_reserved":false,"is_disabled":false,"rental_uris":{"android":"levelo://app?vid=bb5b3ab2-6813-41c6-8bcd-a7f4e28c5f3e","ios":"levelo://app?vid=bb5b3ab2-6813-41c6-8bcd-a7f4e28c5f3e"},"vehicle_type_id":"4","last_reported":1743534507,"current_range_meters":6800,"station_id":"ce4bgvp2rcd13ifvqcu0","pricing_plan_id":"cebpf4jnsgd1na2vs0mg"},{"bike_id":"e81d0e50-2554-465e-b787-935099e8710d","system_id":"levelo_inurba_marseille","lat":43.30101,"lon":5.39074,"is_reserved":false,"is_disabled":false,"rental_uris":{"android":"levelo://app?vid=e81d0e50-2554-465e-b787-935099e8710d","ios":"levelo://app?vid=e81d0e50-2554-465e-b787-935099e8710d"},"vehicle_type_id":"4","last_reported":1743534507,"current_range_meters":6800,"station_id":"ce4bh192rcd13ifvqdb0","pricing_plan_id":"cebpf4jnsgd1na2vs0mg"},{"bike_id":"f9d4d8b5-f0b8-4b3a-b7a0-c4780a0abb6e","system_id":"levelo_inurba_marseille","lat":43.28446,"lon":5.39204,"is_reserved":false,"is_disabled":false,"rental_uris":{"android":"levelo://app?vid=f9d4d8b5-f0b8-4b3a-b7a0-c4780a0abb6e","ios":"levelo://app?vid=f9d4d8b5-f0b8-4b3a-b7a0-c4780a0abb6e"},"vehicle_type_id":"4","last_reported":1743534507,"current_range_meters":6800,"station_id":"ce4bhoh2rcd13ifvqh5g","pricing_plan_id":"cebpf4jnsgd1na2vs0mg"},{"bike_id":"3f9dbb0e-19fd-42d9-9d51-11fb28629530","system_id":"levelo_inurba_marseille","lat":43.31663,"lon":5.37415,"is_reserved":false,"is_disabled":false,"rental_uris":{"android":"levelo://app?vid=3f9dbb0e-19fd-42d9-9d51-11fb28629530","ios":"levelo://app?vid=3f9dbb0e-19fd-42d9-9d51-11fb28629530"},"vehicle_type_id":"4","last_reported":1743534507,"current_range_meters":7200,"station_id":"","pricing_plan_id":"cebpf4jnsgd1na2vs0mg"},{"bike_id":"4cf4a3f3-7a34-4e97-8627-ffe98758203b","system_id":"levelo_inurba_marseille","lat":43.27989,"lon":5.40025,"is_reserved":false,"is_disabled":false,"rental_uris":{"android":"levelo://app?vid=4cf4a3f3-7a34-4e97-8627-ffe98758203b","ios":"levelo://app?vid=4cf4a3f3-7a34-4e97-8627-ffe98758203b"},"vehicle_type_id":"4","last_reported":1743534507,"current_range_meters":7200,"station_id":"ce4bho92rcd13ifvqh4g","pricing_plan_id":"cebpf4jnsgd1na2vs0mg"},{"bike_id":"5dfec2f7-aa7f-4b37-beba-c2e7ad7ae104","system_id":"levelo_inurba_marseille","lat":43.29413,"lon":5.38625,"is_reserved":false,"is_disabled":false,"rental_uris":{"android":"levelo://app?vid=5dfec2f7-aa7f-4b37-beba-c2e7ad7ae104","ios":"levelo://app?vid=5dfec2f7-aa7f-4b37-beba-c2e7ad7ae104"},"vehicle_type_id":"4","last_reported":1743534507,"current_range_meters":7200,"station_id":"ce4bh2h2rcd13ifvqdh0","pricing_plan_id":"cebpf4jnsgd1na2vs0mg"},{"bike_id":"348f5979-3b99-4908-9bd8-d48c4cfadc7e","system_id":"levelo_inurba_marseille","lat":43.31327,"lon":5.39688,"is_reserved":false,"is_disabled":false,"rental_uris":{"android":"levelo://app?vid=348f5979-3b99-4908-9bd8-d48c4cfadc7e","ios":"levelo://app?vid=348f5979-3b99-4908-9bd8-d48c4cfadc7e"},"vehicle_type_id":"4","last_reported":1743534507,"current_range_meters":7200,"station_id":"ce4bgvp2rcd13ifvqcu0","pricing_plan_id":"cebpf4jnsgd1na2vs0mg"},{"bike_id":"fb830583-0de3-4f37-86b7-38b93326f9ef","system_id":"levelo_inurba_marseille","lat":43.240816,"lon":5.37767,"is_reserved":false,"is_disabled":false,"rental_uris":{"android":"levelo://app?vid=fb830583-0de3-4f37-86b7-38b93326f9ef","ios":"levelo://app?vid=fb830583-0de3-4f37-86b7-38b93326f9ef"},"vehicle_type_id":"4","last_reported":1743534507,"current_range_meters":7200,"station_id":"ce4bhnp2rcd13ifvqgvg","pricing_plan_id":"cebpf4jnsgd1na2vs0mg"},{"bike_id":"c2b3a291-d839-41cf-b3f8-98c3c834cd09","system_id":"levelo_inurba_marseille","lat":43.29292,"lon":5.37459,"is_reserved":false,"is_disabled":false,"rental_uris":{"android":"levelo://app?vid=c2b3a291-d839-41cf-b3f8-98c3c834cd09","ios":"levelo://app?vid=c2b3a291-d839-41cf-b3f8-98c3c834cd09"},"vehicle_type_id":"4","last_reported":1743534507,"current_range_meters":7200,"station_id":"ce4bgi12rcd13ifvqb70","pricing_plan_id":"cebpf4jnsgd1na2vs0mg"},{"bike_id":"d662608d-504d-43ae-8d4a-6ba237d6c000","system_id":"levelo_inurba_marseille","lat":43.27821,"lon":5.38491,"is_reserved":false,"is_disabled":false,"rental_uris":{"android":"levelo://app?vid=d662608d-504d-43ae-8d4a-6ba237d6c000","ios":"levelo://app?vid=d662608d-504d-43ae-8d4a-6ba237d6c000"},"vehicle_type_id":"4","last_reported":1743534507,"current_range_meters":7200,"station_id":"","pricing_plan_id":"cebpf4jnsgd1na2vs0mg"},{"bike_id":"065534f8-7e3c-4621-8583-c535f26fc71f","system_id":"levelo_inurba_marseille","lat":43.28567,"lon":5.39496,"is_reserved":false,"is_disabled":false,"rental_uris":{"android":"levelo://app?vid=065534f8-7e3c-4621-8583-c535f26fc71f","ios":"levelo://app?vid=065534f8-7e3c-4621-8583-c535f26fc71f"},"vehicle_type_id":"4","last_reported":1743534507,"current_range_meters":6800,"station_id":"ce4bh292rcd13ifvqdg0","pricing_plan_id":"cebpf4jnsgd1na2vs0mg"},{"bike_id":"b33c45cb-d2cd-4e77-ad43-4a1daa6c907f","system_id":"levelo_inurba_marseille","lat":43.28563,"lon":5.395,"is_reserved":false,"is_disabled":false,"rental_uris":{"android":"levelo://app?vid=b33c45cb-d2cd-4e77-ad43-4a1daa6c907f","ios":"levelo://app?vid=b33c45cb-d2cd-4e77-ad43-4a1daa6c907f"},"vehicle_type_id":"4","last_reported":1743534507,"current_range_meters":8000,"station_id":"ce4bh292rcd13ifvqdg0","pricing_plan_id":"cebpf4jnsgd1na2vs0mg"},{"bike_id":"adfa59e9-00af-4c51-90f5-24a4e9477ea8","system_id":"levelo_inurba_marseille","lat":43.29039,"lon":5.37573,"is_reserved":false,"is_disabled":false,"rental_uris":{"android":"levelo://app?vid=adfa59e9-00af-4c51-90f5-24a4e9477ea8","ios":"levelo://app?vid=adfa59e9-00af-4c51-90f5-24a4e9477ea8"},"vehicle_type_id":"4","last_reported":1743534507,"current_range_meters":8000,"station_id":"ce4bh692rcd13ifvqe90","pricing_plan_id":"cebpf4jnsgd1na2vs0mg"},{"bike_id":"85f884c1-013a-45b8-a8fe-d48002f911ef","system_id":"levelo_inurba_marseille","lat":43.31322,"lon":5.39709,"is_reserved":false,"is_disabled":false,"rental_uris":{"android":"levelo://app?vid=85f884c1-013a-45b8-a8fe-d48002f911ef","ios":"levelo://app?vid=85f884c1-013a-45b8-a8fe-d48002f911ef"},"vehicle_type_id":"4","last_reported":1743534507,"current_range_meters":8000,"station_id":"ce4bgvp2rcd13ifvqcu0","pricing_plan_id":"cebpf4jnsgd1na2vs0mg"},{"bike_id":"42303157-d075-4d8f-904f-92c01686c9bb","system_id":"levelo_inurba_marseille","lat":43.26816,"lon":5.40237,"is_reserved":false,"is_disabled":false,"rental_uris":{"android":"levelo://app?vid=42303157-d075-4d8f-904f-92c01686c9bb","ios":"levelo://app?vid=42303157-d075-4d8f-904f-92c01686c9bb"},"vehicle_type_id":"4","last_reported":1743534507,"current_range_meters":8000,"station_id":"ce501612rcd8frsf0b60","pricing_plan_id":"cebpf4jnsgd1na2vs0mg"},{"bike_id":"08724991-fdd4-4564-9d6b-c761aefd13aa","system_id":"levelo_inurba_marseille","lat":43.28849,"lon":5.35861,"is_reserved":false,"is_disabled":false,"rental_uris":{"android":"levelo://app?vid=08724991-fdd4-4564-9d6b-c761aefd13aa","ios":"levelo://app?vid=08724991-fdd4-4564-9d6b-c761aefd13aa"},"vehicle_type_id":"4","last_reported":1743534507,"current_range_meters":8000,"station_id":"ce4bhb12rcd13ifvqem0","pricing_plan_id":"cebpf4jnsgd1na2vs0mg"},{"bike_id":"28b6a25f-1d3c-4a54-b29e-afa1b303d4b2","system_id":"levelo_inurba_marseille","lat":43.31331,"lon":5.39679,"is_reserved":false,"is_disabled":false,"rental_uris":{"android":"levelo://app?vid=28b6a25f-1d3c-4a54-b29e-afa1b303d4b2","ios":"levelo://app?vid=28b6a25f-1d3c-4a54-b29e-afa1b303d4b2"},"vehicle_type_id":"4","last_reported":1743534507,"current_range_meters":8000,"station_id":"ce4bgvp2rcd13ifvqcu0","pricing_plan_id":"cebpf4jnsgd1na2vs0mg"},{"bike_id":"aab14b9e-0b50-4607-8532-1baece3d1612","system_id":"levelo_inurba_marseille","lat":43.29256,"lon":5.38436,"is_reserved":false,"is_disabled":false,"rental_uris":{"android":"levelo://app?vid=aab14b9e-0b50-4607-8532-1baece3d1612","ios":"levelo://app?vid=aab14b9e-0b50-4607-8532-1baece3d1612"},"vehicle_type_id":"4","last_reported":1743534507,"current_range_meters":8000,"station_id":"ce4bh692rcd13ifvqea0","pricing_plan_id":"cebpf4jnsgd1na2vs0mg"},{"bike_id":"721bcc92-6b82-4aac-988d-3c86699ef60a","system_id":"levelo_inurba_marseille","lat":43.2784,"lon":5.39201,"is_reserved":false,"is_disabled":true,"rental_uris":{"android":"levelo://app?vid=721bcc92-6b82-4aac-988d-3c86699ef60a","ios":"levelo://app?vid=721bcc92-6b82-4aac-988d-3c86699ef60a"},"vehicle_type_id":"4","last_reported":1743534507,"current_range_meters":8000,"station_id":"ce4bhjp2rcd13ifvqga0","pricing_plan_id":"cebpf4jnsgd1na2vs0mg"},{"bike_id":"bb416ae5-bb8c-4926-9fc4-96907a1ff913","system_id":"levelo_inurba_marseille","lat":43.29266,"lon":5.38448,"is_reserved":false,"is_disabled":false,"rental_uris":{"android":"levelo://app?vid=bb416ae5-bb8c-4926-9fc4-96907a1ff913","ios":"levelo://app?vid=bb416ae5-bb8c-4926-9fc4-96907a1ff913"},"vehicle_type_id":"4","last_reported":1743534507,"current_range_meters":8000,"station_id":"ce4bh692rcd13ifvqea0","pricing_plan_id":"cebpf4jnsgd1na2vs0mg"},{"bike_id":"6d51773c-f101-4b09-b507-ab028ef1af9c","system_id":"levelo_inurba_marseille","lat":43.28848,"lon":5.35857,"is_reserved":false,"is_disabled":false,"rental_uris":{"android":"levelo://app?vid=6d51773c-f101-4b09-b507-ab028ef1af9c","ios":"levelo://app?vid=6d51773c-f101-4b09-b507-ab028ef1af9c"},"vehicle_type_id":"4","last_reported":1743534507,"current_range_meters":8000,"station_id":"ce4bhb12rcd13ifvqem0","pricing_plan_id":"cebpf4jnsgd1na2vs0mg"},{"bike_id":"11fb0821-8afa-433a-9d88-19545526da74","system_id":"levelo_inurba_marseille","lat":43.27954,"lon":5.38033,"is_reserved":false,"is_disabled":true,"rental_uris":{"android":"levelo://app?vid=11fb0821-8afa-433a-9d88-19545526da74","ios":"levelo://app?vid=11fb0821-8afa-433a-9d88-19545526da74"},"vehicle_type_id":"4","last_reported":1743534507,"current_range_meters":8000,"station_id":"ce4bhf92rcd13ifvqf50","pricing_plan_id":"cebpf4jnsgd1na2vs0mg"},{"bike_id":"f1868989-7002-49b6-b60e-cc4942fee32c","system_id":"levelo_inurba_marseille","lat":43.295319,"lon":5.390502,"is_reserved":false,"is_disabled":false,"rental_uris":{"android":"levelo://app?vid=f1868989-7002-49b6-b60e-cc4942fee32c","ios":"levelo://app?vid=f1868989-7002-49b6-b60e-cc4942fee32c"},"vehicle_type_id":"4","last_reported":1743534507,"current_range_meters":8000,"station_id":"ce4bh3p2rcd13ifvqdp0","pricing_plan_id":"cebpf4jnsgd1na2vs0mg"},{"bike_id":"6bcb30fb-f395-4c13-9f84-9a3c277b8bbe","system_id":"levelo_inurba_marseille","lat":43.27978,"lon":5.38737,"is_reserved":false,"is_disabled":false,"rental_uris":{"android":"levelo://app?vid=6bcb30fb-f395-4c13-9f84-9a3c277b8bbe","ios":"levelo://app?vid=6bcb30fb-f395-4c13-9f84-9a3c277b8bbe"},"vehicle_type_id":"4","last_reported":1743534507,"current_range_meters":8000,"station_id":"ce4bhg12rcd13ifvqf80","pricing_plan_id":"cebpf4jnsgd1na2vs0mg"},{"bike_id":"379618a3-d15e-4ea8-8c9a-a0e10d37a8dc","system_id":"levelo_inurba_marseille","lat":43.29265,"lon":5.38441,"is_reserved":false,"is_disabled":false,"rental_uris":{"android":"levelo://app?vid=379618a3-d15e-4ea8-8c9a-a0e10d37a8dc","ios":"levelo://app?vid=379618a3-d15e-4ea8-8c9a-a0e10d37a8dc"},"vehicle_type_id":"4","last_reported":1743534507,"current_range_meters":8000,"station_id":"ce4bh692rcd13ifvqea0","pricing_plan_id":"cebpf4jnsgd1na2vs0mg"},{"bike_id":"8e17fdce-8919-4705-a84a-1e07b55005a3","system_id":"levelo_inurba_marseille","lat":43.28575,"lon":5.39497,"is_reserved":false,"is_disabled":false,"rental_uris":{"android":"levelo://app?vid=8e17fdce-8919-4705-a84a-1e07b55005a3","ios":"levelo://app?vid=8e17fdce-8919-4705-a84a-1e07b55005a3"},"vehicle_type_id":"4","last_reported":1743534507,"current_range_meters":8000,"station_id":"ce4bh292rcd13ifvqdg0","pricing_plan_id":"cebpf4jnsgd1na2vs0mg"},{"bike_id":"0ef75f94-75d2-4943-8a69-80429538147b","system_id":"levelo_inurba_marseille","lat":43.30131,"lon":5.39874,"is_reserved":false,"is_disabled":false,"rental_uris":{"android":"levelo://app?vid=0ef75f94-75d2-4943-8a69-80429538147b","ios":"levelo://app?vid=0ef75f94-75d2-4943-8a69-80429538147b"},"vehicle_type_id":"4","last_reported":1743534507,"current_range_meters":8000,"station_id":"ce4bh0h2rcd13ifvqd40","pricing_plan_id":"cebpf4jnsgd1na2vs0mg"},{"bike_id":"3a7691e4-df3b-46a6-afb5-cd9f2146d29e","system_id":"levelo_inurba_marseille","lat":43.30916,"lon":5.40143,"is_reserved":false,"is_disabled":false,"rental_uris":{"android":"levelo://app?vid=3a7691e4-df3b-46a6-afb5-cd9f2146d29e","ios":"levelo://app?vid=3a7691e4-df3b-46a6-afb5-cd9f2146d29e"},"vehicle_type_id":"4","last_reported":1743534507,"current_range_meters":8000,"station_id":"ce4bgvp2rcd13ifvqct0","pricing_plan_id":"cebpf4jnsgd1na2vs0mg"},{"bike_id":"626e09f7-121c-4472-9fc5-6d4c0b15d481","system_id":"levelo_inurba_marseille","lat":43.31733,"lon":5.4044,"is_reserved":false,"is_disabled":false,"rental_uris":{"android":"levelo://app?vid=626e09f7-121c-4472-9fc5-6d4c0b15d481","ios":"levelo://app?vid=626e09f7-121c-4472-9fc5-6d4c0b15d481"},"vehicle_type_id":"4","last_reported":1743534507,"current_range_meters":8000,"station_id":"ce4bh012rcd13ifvqd00","pricing_plan_id":"cebpf4jnsgd1na2vs0mg"},{"bike_id":"91d48793-5dd7-45b0-b672-d2eea9be4411","system_id":"levelo_inurba_marseille","lat":43.25002,"lon":5.38927,"is_reserved":false,"is_disabled":false,"rental_uris":{"android":"levelo://app?vid=91d48793-5dd7-45b0-b672-d2eea9be4411","ios":"levelo://app?vid=91d48793-5dd7-45b0-b672-d2eea9be4411"},"vehicle_type_id":"4","last_reported":1743534507,"current_range_meters":8000,"station_id":"ce4bhgp2rcd13ifvqfd0","pricing_plan_id":"cebpf4jnsgd1na2vs0mg"},{"bike_id":"8fa87752-921c-4867-8b79-c75713619160","system_id":"levelo_inurba_marseille","lat":43.29511,"lon":5.39404,"is_reserved":false,"is_disabled":false,"rental_uris":{"android":"levelo://app?vid=8fa87752-921c-4867-8b79-c75713619160","ios":"levelo://app?vid=8fa87752-921c-4867-8b79-c75713619160"},"vehicle_type_id":"4","last_reported":1743534507,"current_range_meters":8000,"station_id":"ce4bh292rcd13ifvqdf0","pricing_plan_id":"cebpf4jnsgd1na2vs0mg"},{"bike_id":"fef1d547-feef-4239-90b2-e0f3b60672f8","system_id":"levelo_inurba_marseille","lat":43.29595,"lon":5.39993,"is_reserved":false,"is_disabled":true,"rental_uris":{"android":"levelo://app?vid=fef1d547-feef-4239-90b2-e0f3b60672f8","ios":"levelo://app?vid=fef1d547-feef-4239-90b2-e0f3b60672f8"},"vehicle_type_id":"4","last_reported":1743534507,"current_range_meters":8400,"station_id":"ce4bh312rcd13ifvqdj0","pricing_plan_id":"cebpf4jnsgd1na2vs0mg"},{"bike_id":"3a21b672-7501-4151-b579-3c3525dcd7c3","system_id":"levelo_inurba_marseille","lat":43.26546,"lon":5.3729,"is_reserved":false,"is_disabled":false,"rental_uris":{"android":"levelo://app?vid=3a21b672-7501-4151-b579-3c3525dcd7c3","ios":"levelo://app?vid=3a21b672-7501-4151-b579-3c3525dcd7c3"},"vehicle_type_id":"4","last_reported":1743534507,"current_range_meters":8400,"station_id":"ce4bhg12rcd13ifvqf70","pricing_plan_id":"cebpf4jnsgd1na2vs0mg"},{"bike_id":"a98ca414-5a9d-44e4-9fe8-4c3a59245923","system_id":"levelo_inurba_marseille","lat":43.30835,"lon":5.43558,"is_reserved":false,"is_disabled":false,"rental_uris":{"android":"levelo://app?vid=a98ca414-5a9d-44e4-9fe8-4c3a59245923","ios":"levelo://app?vid=a98ca414-5a9d-44e4-9fe8-4c3a59245923"},"vehicle_type_id":"4","last_reported":1743534507,"current_range_meters":8400,"station_id":"ce4bhph2rcd13ifvqheg","pricing_plan_id":"cebpf4jnsgd1na2vs0mg"},{"bike_id":"1167d76f-0701-42ca-9566-e6b8288b4501","system_id":"levelo_inurba_marseille","lat":43.28291,"lon":5.37843,"is_reserved":false,"is_disabled":false,"rental_uris":{"android":"levelo://app?vid=1167d76f-0701-42ca-9566-e6b8288b4501","ios":"levelo://app?vid=1167d76f-0701-42ca-9566-e6b8288b4501"},"vehicle_type_id":"4","last_reported":1743534507,"current_range_meters":8400,"station_id":"","pricing_plan_id":"cebpf4jnsgd1na2vs0mg"},{"bike_id":"12e1f61b-9855-429a-8cb6-7740a5a561f5","system_id":"levelo_inurba_marseille","lat":43.29298,"lon":5.36849,"is_reserved":false,"is_disabled":false,"rental_uris":{"android":"levelo://app?vid=12e1f61b-9855-429a-8cb6-7740a5a561f5","ios":"levelo://app?vid=12e1f61b-9855-429a-8cb6-7740a5a561f5"},"vehicle_type_id":"4","last_reported":1743534507,"current_range_meters":8400,"station_id":"ce4bhbp2rcd13ifvqesg","pricing_plan_id":"cebpf4jnsgd1na2vs0mg"},{"bike_id":"cfa888b4-efdc-4310-ab03-bef845f6f80d","system_id":"levelo_inurba_marseille","lat":43.29258,"lon":5.38439,"is_reserved":false,"is_disabled":false,"rental_uris":{"android":"levelo://app?vid=cfa888b4-efdc-4310-ab03-bef845f6f80d","ios":"levelo://app?vid=cfa888b4-efdc-4310-ab03-bef845f6f80d"},"vehicle_type_id":"4","last_reported":1743534507,"current_range_meters":8400,"station_id":"ce4bh692rcd13ifvqea0","pricing_plan_id":"cebpf4jnsgd1na2vs0mg"},{"bike_id":"33b8dd29-56e2-488c-9bb6-7f788906afe5","system_id":"levelo_inurba_marseille","lat":43.30754,"lon":5.37259,"is_reserved":false,"is_disabled":false,"rental_uris":{"android":"levelo://app?vid=33b8dd29-56e2-488c-9bb6-7f788906afe5","ios":"levelo://app?vid=33b8dd29-56e2-488c-9bb6-7f788906afe5"},"vehicle_type_id":"4","last_reported":1743534507,"current_range_meters":8400,"station_id":"","pricing_plan_id":"cebpf4jnsgd1na2vs0mg"},{"bike_id":"4ad73676-975d-4eb4-8ab0-34916f3a4594","system_id":"levelo_inurba_marseille","lat":43.30661,"lon":5.37141,"is_reserved":false,"is_disabled":false,"rental_uris":{"android":"levelo://app?vid=4ad73676-975d-4eb4-8ab0-34916f3a4594","ios":"levelo://app?vid=4ad73676-975d-4eb4-8ab0-34916f3a4594"},"vehicle_type_id":"4","last_reported":1743534507,"current_range_meters":8400,"station_id":"","pricing_plan_id":"cebpf4jnsgd1na2vs0mg"},{"bike_id":"42b23b42-be3d-42df-9abb-8de2e6d60da3","system_id":"levelo_inurba_marseille","lat":43.289308,"lon":5.366298,"is_reserved":false,"is_disabled":false,"rental_uris":{"android":"levelo://app?vid=42b23b42-be3d-42df-9abb-8de2e6d60da3","ios":"levelo://app?vid=42b23b42-be3d-42df-9abb-8de2e6d60da3"},"vehicle_type_id":"4","last_reported":1743534507,"current_range_meters":8400,"station_id":"ce4bhap2rcd13ifvqek0","pricing_plan_id":"cebpf4jnsgd1na2vs0mg"},{"bike_id":"2b9b31ad-6e45-403f-9450-a25bb8507203","system_id":"levelo_inurba_marseille","lat":43.32148,"lon":5.36819,"is_reserved":false,"is_disabled":false,"rental_uris":{"android":"levelo://app?vid=2b9b31ad-6e45-403f-9450-a25bb8507203","ios":"levelo://app?vid=2b9b31ad-6e45-403f-9450-a25bb8507203"},"vehicle_type_id":"4","last_reported":1743534507,"current_range_meters":8400,"station_id":"","pricing_plan_id":"cebpf4jnsgd1na2vs0mg"},{"bike_id":"4c755e8c-58a0-4b69-957d-1fecd53e0073","system_id":"levelo_inurba_marseille","lat":43.29601,"lon":5.38116,"is_reserved":false,"is_disabled":false,"rental_uris":{"android":"levelo://app?vid=4c755e8c-58a0-4b69-957d-1fecd53e0073","ios":"levelo://app?vid=4c755e8c-58a0-4b69-957d-1fecd53e0073"},"vehicle_type_id":"4","last_reported":1743534507,"current_range_meters":8400,"station_id":"ce4bgl12rcd13ifvqbo0","pricing_plan_id":"cebpf4jnsgd1na2vs0mg"},{"bike_id":"5e33a95c-77ec-45d3-911d-392849531992","system_id":"levelo_inurba_marseille","lat":43.28615,"lon":5.35103,"is_reserved":false,"is_disabled":false,"rental_uris":{"android":"levelo://app?vid=5e33a95c-77ec-45d3-911d-392849531992","ios":"levelo://app?vid=5e33a95c-77ec-45d3-911d-392849531992"},"vehicle_type_id":"4","last_reported":1743534507,"current_range_meters":8400,"station_id":"ce4bhch2rcd13ifvqeug","pricing_plan_id":"cebpf4jnsgd1na2vs0mg"},{"bike_id":"d7e94a04-56bd-41c4-a7fd-d5876e694f5d","system_id":"levelo_inurba_marseille","lat":43.24541,"lon":5.39533,"is_reserved":false,"is_disabled":false,"rental_uris":{"android":"levelo://app?vid=d7e94a04-56bd-41c4-a7fd-d5876e694f5d","ios":"levelo://app?vid=d7e94a04-56bd-41c4-a7fd-d5876e694f5d"},"vehicle_type_id":"4","last_reported":1743534507,"current_range_meters":8400,"station_id":"ce4bhlp2rcd13ifvqgjg","pricing_plan_id":"cebpf4jnsgd1na2vs0mg"},{"bike_id":"ab917714-e47d-4ed7-b902-4c1637c1701e","system_id":"levelo_inurba_marseille","lat":43.28854,"lon":5.35867,"is_reserved":false,"is_disabled":false,"rental_uris":{"android":"levelo://app?vid=ab917714-e47d-4ed7-b902-4c1637c1701e","ios":"levelo://app?vid=ab917714-e47d-4ed7-b902-4c1637c1701e"},"vehicle_type_id":"4","last_reported":1743534507,"current_range_meters":8400,"station_id":"ce4bhb12rcd13ifvqem0","pricing_plan_id":"cebpf4jnsgd1na2vs0mg"},{"bike_id":"f3faacc2-03ed-462c-8bc0-5afcd7ff09ab","system_id":"levelo_inurba_marseille","lat":43.313593,"lon":5.384877,"is_reserved":false,"is_disabled":false,"rental_uris":{"android":"levelo://app?vid=f3faacc2-03ed-462c-8bc0-5afcd7ff09ab","ios":"levelo://app?vid=f3faacc2-03ed-462c-8bc0-5afcd7ff09ab"},"vehicle_type_id":"4","last_reported":1743534507,"current_range_meters":8800,"station_id":"ce4bgt92rcd13ifvqcf0","pricing_plan_id":"cebpf4jnsgd1na2vs0mg"},{"bike_id":"72616857-49aa-4dd6-bef0-01c44d641f17","system_id":"levelo_inurba_marseille","lat":43.295796,"lon":5.375137,"is_reserved":false,"is_disabled":false,"rental_uris":{"android":"levelo://app?vid=72616857-49aa-4dd6-bef0-01c44d641f17","ios":"levelo://app?vid=72616857-49aa-4dd6-bef0-01c44d641f17"},"vehicle_type_id":"4","last_reported":1743534507,"current_range_meters":8800,"station_id":"ce4bgh92rcd13ifvqb50","pricing_plan_id":"cebpf4jnsgd1na2vs0mg"},{"bike_id":"ea76e06d-87c7-44be-8fa6-65c209863e50","system_id":"levelo_inurba_marseille","lat":43.29013,"lon":5.38132,"is_reserved":false,"is_disabled":false,"rental_uris":{"android":"levelo://app?vid=ea76e06d-87c7-44be-8fa6-65c209863e50","ios":"levelo://app?vid=ea76e06d-87c7-44be-8fa6-65c209863e50"},"vehicle_type_id":"4","last_reported":1743534507,"current_range_meters":8800,"station_id":"ce4bh4p2rcd13ifvqe1g","pricing_plan_id":"cebpf4jnsgd1na2vs0mg"},{"bike_id":"06b1d6c7-37b4-4959-bca4-885ccac8901f","system_id":"levelo_inurba_marseille","lat":43.3106,"lon":5.3834,"is_reserved":false,"is_disabled":false,"rental_uris":{"android":"levelo://app?vid=06b1d6c7-37b4-4959-bca4-885ccac8901f","ios":"levelo://app?vid=06b1d6c7-37b4-4959-bca4-885ccac8901f"},"vehicle_type_id":"4","last_reported":1743534507,"current_range_meters":8800,"station_id":"ce4bgv92rcd13ifvqcr0","pricing_plan_id":"cebpf4jnsgd1na2vs0mg"},{"bike_id":"c6c438e8-d3ab-4770-968b-7a1a93e8a8c6","system_id":"levelo_inurba_marseille","lat":43.28911,"lon":5.45882,"is_reserved":false,"is_disabled":false,"rental_uris":{"android":"levelo://app?vid=c6c438e8-d3ab-4770-968b-7a1a93e8a8c6","ios":"levelo://app?vid=c6c438e8-d3ab-4770-968b-7a1a93e8a8c6"},"vehicle_type_id":"4","last_reported":1743534507,"current_range_meters":8800,"station_id":"","pricing_plan_id":"cebpf4jnsgd1na2vs0mg"},{"bike_id":"4a48f963-6e5f-4777-9bcd-540f020d49d5","system_id":"levelo_inurba_marseille","lat":43.27829,"lon":5.39213,"is_reserved":false,"is_disabled":true,"rental_uris":{"android":"levelo://app?vid=4a48f963-6e5f-4777-9bcd-540f020d49d5","ios":"levelo://app?vid=4a48f963-6e5f-4777-9bcd-540f020d49d5"},"vehicle_type_id":"4","last_reported":1743534507,"current_range_meters":8800,"station_id":"ce4bhjp2rcd13ifvqga0","pricing_plan_id":"cebpf4jnsgd1na2vs0mg"},{"bike_id":"deea1378-afdd-4f0c-a9f4-240b850ac38b","system_id":"levelo_inurba_marseille","lat":43.27996,"lon":5.40022,"is_reserved":false,"is_disabled":false,"rental_uris":{"android":"levelo://app?vid=deea1378-afdd-4f0c-a9f4-240b850ac38b","ios":"levelo://app?vid=deea1378-afdd-4f0c-a9f4-240b850ac38b"},"vehicle_type_id":"4","last_reported":1743534507,"current_range_meters":8800,"station_id":"ce4bho92rcd13ifvqh4g","pricing_plan_id":"cebpf4jnsgd1na2vs0mg"},{"bike_id":"49423b93-28c3-4afa-893a-d3004cba0328","system_id":"levelo_inurba_marseille","lat":43.27837,"lon":5.39208,"is_reserved":false,"is_disabled":false,"rental_uris":{"android":"levelo://app?vid=49423b93-28c3-4afa-893a-d3004cba0328","ios":"levelo://app?vid=49423b93-28c3-4afa-893a-d3004cba0328"},"vehicle_type_id":"4","last_reported":1743534507,"current_range_meters":9200,"station_id":"ce4bhjp2rcd13ifvqga0","pricing_plan_id":"cebpf4jnsgd1na2vs0mg"},{"bike_id":"a495ab47-72d1-4f9e-8b95-72d772792f33","system_id":"levelo_inurba_marseille","lat":43.30437,"lon":5.36853,"is_reserved":false,"is_disabled":false,"rental_uris":{"android":"levelo://app?vid=a495ab47-72d1-4f9e-8b95-72d772792f33","ios":"levelo://app?vid=a495ab47-72d1-4f9e-8b95-72d772792f33"},"vehicle_type_id":"4","last_reported":1743534507,"current_range_meters":9200,"station_id":"","pricing_plan_id":"cebpf4jnsgd1na2vs0mg"},{"bike_id":"54b5145b-e40e-470b-9c4b-6d91307eeed7","system_id":"levelo_inurba_marseille","lat":43.29528,"lon":5.3855,"is_reserved":false,"is_disabled":false,"rental_uris":{"android":"levelo://app?vid=54b5145b-e40e-470b-9c4b-6d91307eeed7","ios":"levelo://app?vid=54b5145b-e40e-470b-9c4b-6d91307eeed7"},"vehicle_type_id":"4","last_reported":1743534507,"current_range_meters":9200,"station_id":"ce4bgih2rcd13ifvqba0","pricing_plan_id":"cebpf4jnsgd1na2vs0mg"},{"bike_id":"4e731b01-8520-49d5-a2ac-5d6dcf51d952","system_id":"levelo_inurba_marseille","lat":43.25107,"lon":5.40299,"is_reserved":false,"is_disabled":false,"rental_uris":{"android":"levelo://app?vid=4e731b01-8520-49d5-a2ac-5d6dcf51d952","ios":"levelo://app?vid=4e731b01-8520-49d5-a2ac-5d6dcf51d952"},"vehicle_type_id":"4","last_reported":1743534507,"current_range_meters":9200,"station_id":"ce4bhlh2rcd13ifvqgig","pricing_plan_id":"cebpf4jnsgd1na2vs0mg"},{"bike_id":"589937a8-290f-4c12-b802-8a57bb49fdf5","system_id":"levelo_inurba_marseille","lat":43.29412,"lon":5.38631,"is_reserved":false,"is_disabled":false,"rental_uris":{"android":"levelo://app?vid=589937a8-290f-4c12-b802-8a57bb49fdf5","ios":"levelo://app?vid=589937a8-290f-4c12-b802-8a57bb49fdf5"},"vehicle_type_id":"4","last_reported":1743534507,"current_range_meters":9200,"station_id":"ce4bh2h2rcd13ifvqdh0","pricing_plan_id":"cebpf4jnsgd1na2vs0mg"},{"bike_id":"66a6759f-f104-404f-ba35-7dd5d87e6d0b","system_id":"levelo_inurba_marseille","lat":43.30151,"lon":5.37671,"is_reserved":false,"is_disabled":false,"rental_uris":{"android":"levelo://app?vid=66a6759f-f104-404f-ba35-7dd5d87e6d0b","ios":"levelo://app?vid=66a6759f-f104-404f-ba35-7dd5d87e6d0b"},"vehicle_type_id":"4","last_reported":1743534507,"current_range_meters":9200,"station_id":"","pricing_plan_id":"cebpf4jnsgd1na2vs0mg"},{"bike_id":"93e73f52-89fe-4036-9a98-4e6f037ab124","system_id":"levelo_inurba_marseille","lat":43.29532,"lon":5.38542,"is_reserved":false,"is_disabled":false,"rental_uris":{"android":"levelo://app?vid=93e73f52-89fe-4036-9a98-4e6f037ab124","ios":"levelo://app?vid=93e73f52-89fe-4036-9a98-4e6f037ab124"},"vehicle_type_id":"4","last_reported":1743534507,"current_range_meters":9600,"station_id":"ce4bgih2rcd13ifvqba0","pricing_plan_id":"cebpf4jnsgd1na2vs0mg"},{"bike_id":"e6928b84-bc47-4de0-8a23-14baa6be129c","system_id":"levelo_inurba_marseille","lat":43.30084,"lon":5.39907,"is_reserved":false,"is_disabled":true,"rental_uris":{"android":"levelo://app?vid=e6928b84-bc47-4de0-8a23-14baa6be129c","ios":"levelo://app?vid=e6928b84-bc47-4de0-8a23-14baa6be129c"},"vehicle_type_id":"4","last_reported":1743534507,"current_range_meters":9600,"station_id":"","pricing_plan_id":"cebpf4jnsgd1na2vs0mg"},{"bike_id":"cedc9494-c056-4efc-a4ec-4dfdf9e486db","system_id":"levelo_inurba_marseille","lat":43.29368,"lon":5.37846,"is_reserved":false,"is_disabled":false,"rental_uris":{"android":"levelo://app?vid=cedc9494-c056-4efc-a4ec-4dfdf9e486db","ios":"levelo://app?vid=cedc9494-c056-4efc-a4ec-4dfdf9e486db"},"vehicle_type_id":"4","last_reported":1743534507,"current_range_meters":9600,"station_id":"ce4bgjh2rcd13ifvqbf0","pricing_plan_id":"cebpf4jnsgd1na2vs0mg"},{"bike_id":"4e47e251-2123-47f1-8952-4da9debb1b52","system_id":"levelo_inurba_marseille","lat":43.26503,"lon":5.39565,"is_reserved":false,"is_disabled":false,"rental_uris":{"android":"levelo://app?vid=4e47e251-2123-47f1-8952-4da9debb1b52","ios":"levelo://app?vid=4e47e251-2123-47f1-8952-4da9debb1b52"},"vehicle_type_id":"4","last_reported":1743534507,"current_range_meters":9600,"station_id":"ce4bhi12rcd13ifvqfq0","pricing_plan_id":"cebpf4jnsgd1na2vs0mg"},{"bike_id":"53d91daf-f061-406c-bda6-778da9f1f94f","system_id":"levelo_inurba_marseille","lat":43.27909,"lon":5.37887,"is_reserved":false,"is_disabled":false,"rental_uris":{"android":"levelo://app?vid=53d91daf-f061-406c-bda6-778da9f1f94f","ios":"levelo://app?vid=53d91daf-f061-406c-bda6-778da9f1f94f"},"vehicle_type_id":"4","last_reported":1743534507,"current_range_meters":9600,"station_id":"ce4bhf92rcd13ifvqf50","pricing_plan_id":"cebpf4jnsgd1na2vs0mg"},{"bike_id":"8f65cf44-a162-441c-a7f7-23db3fe93296","system_id":"levelo_inurba_marseille","lat":43.28103,"lon":5.37845,"is_reserved":false,"is_disabled":false,"rental_uris":{"android":"levelo://app?vid=8f65cf44-a162-441c-a7f7-23db3fe93296","ios":"levelo://app?vid=8f65cf44-a162-441c-a7f7-23db3fe93296"},"vehicle_type_id":"4","last_reported":1743534507,"current_range_meters":9600,"station_id":"ce4bha12rcd13ifvqee0","pricing_plan_id":"cebpf4jnsgd1na2vs0mg"},{"bike_id":"3e5329f3-c0cd-422c-afb1-2f46242590da","system_id":"levelo_inurba_marseille","lat":43.31915,"lon":5.37565,"is_reserved":false,"is_disabled":false,"rental_uris":{"android":"levelo://app?vid=3e5329f3-c0cd-422c-afb1-2f46242590da","ios":"levelo://app?vid=3e5329f3-c0cd-422c-afb1-2f46242590da"},"vehicle_type_id":"4","last_reported":1743534507,"current_range_meters":9600,"station_id":"","pricing_plan_id":"cebpf4jnsgd1na2vs0mg"},{"bike_id":"e47bc61d-df2d-41b3-b26b-dd94e6e5e301","system_id":"levelo_inurba_marseille","lat":43.26251,"lon":5.4214,"is_reserved":false,"is_disabled":false,"rental_uris":{"android":"levelo://app?vid=e47bc61d-df2d-41b3-b26b-dd94e6e5e301","ios":"levelo://app?vid=e47bc61d-df2d-41b3-b26b-dd94e6e5e301"},"vehicle_type_id":"4","last_reported":1743534507,"current_range_meters":9600,"station_id":"","pricing_plan_id":"cebpf4jnsgd1na2vs0mg"},{"bike_id":"7bdf0d60-3026-4723-ac07-ebb25b9cf79f","system_id":"levelo_inurba_marseille","lat":43.28795,"lon":5.38691,"is_reserved":false,"is_disabled":false,"rental_uris":{"android":"levelo://app?vid=7bdf0d60-3026-4723-ac07-ebb25b9cf79f","ios":"levelo://app?vid=7bdf0d60-3026-4723-ac07-ebb25b9cf79f"},"vehicle_type_id":"4","last_reported":1743534507,"current_range_meters":9600,"station_id":"","pricing_plan_id":"cebpf4jnsgd1na2vs0mg"},{"bike_id":"7725e19b-5945-40a0-870f-785dc9ebfbed","system_id":"levelo_inurba_marseille","lat":43.32286,"lon":5.38277,"is_reserved":false,"is_disabled":false,"rental_uris":{"android":"levelo://app?vid=7725e19b-5945-40a0-870f-785dc9ebfbed","ios":"levelo://app?vid=7725e19b-5945-40a0-870f-785dc9ebfbed"},"vehicle_type_id":"4","last_reported":1743534507,"current_range_meters":9600,"station_id":"ce4bhr12rcd13ifvqhqg","pricing_plan_id":"cebpf4jnsgd1na2vs0mg"},{"bike_id":"ab52962f-bc93-4ddd-be76-164eb31c1a2f","system_id":"levelo_inurba_marseille","lat":43.24998,"lon":5.3893,"is_reserved":false,"is_disabled":false,"rental_uris":{"android":"levelo://app?vid=ab52962f-bc93-4ddd-be76-164eb31c1a2f","ios":"levelo://app?vid=ab52962f-bc93-4ddd-be76-164eb31c1a2f"},"vehicle_type_id":"4","last_reported":1743534507,"current_range_meters":9600,"station_id":"ce4bhgp2rcd13ifvqfd0","pricing_plan_id":"cebpf4jnsgd1na2vs0mg"},{"bike_id":"2c567be4-626d-4614-8796-6c92d09d2fa1","system_id":"levelo_inurba_marseille","lat":43.29519,"lon":5.3746,"is_reserved":false,"is_disabled":false,"rental_uris":{"android":"levelo://app?vid=2c567be4-626d-4614-8796-6c92d09d2fa1","ios":"levelo://app?vid=2c567be4-626d-4614-8796-6c92d09d2fa1"},"vehicle_type_id":"4","last_reported":1743534507,"current_range_meters":10000,"station_id":"ce4bgkp2rcd13ifvqbmg","pricing_plan_id":"cebpf4jnsgd1na2vs0mg"},{"bike_id":"6fe50303-3adc-422d-9b31-96597a73342b","system_id":"levelo_inurba_marseille","lat":43.23181,"lon":5.39986,"is_reserved":false,"is_disabled":false,"rental_uris":{"android":"levelo://app?vid=6fe50303-3adc-422d-9b31-96597a73342b","ios":"levelo://app?vid=6fe50303-3adc-422d-9b31-96597a73342b"},"vehicle_type_id":"4","last_reported":1743534507,"current_range_meters":10000,"station_id":"ce4bhn12rcd13ifvqgqg","pricing_plan_id":"cebpf4jnsgd1na2vs0mg"},{"bike_id":"515665b8-e5fc-4dbc-b90f-05d42ba5c9a9","system_id":"levelo_inurba_marseille","lat":43.30108,"lon":5.39855,"is_reserved":false,"is_disabled":true,"rental_uris":{"android":"levelo://app?vid=515665b8-e5fc-4dbc-b90f-05d42ba5c9a9","ios":"levelo://app?vid=515665b8-e5fc-4dbc-b90f-05d42ba5c9a9"},"vehicle_type_id":"4","last_reported":1743534507,"current_range_meters":10000,"station_id":"ce4bh0h2rcd13ifvqd40","pricing_plan_id":"cebpf4jnsgd1na2vs0mg"},{"bike_id":"4c4a2dbb-70b1-4efa-8805-54170e6a6379","system_id":"levelo_inurba_marseille","lat":43.297724,"lon":5.363178,"is_reserved":false,"is_disabled":false,"rental_uris":{"android":"levelo://app?vid=4c4a2dbb-70b1-4efa-8805-54170e6a6379","ios":"levelo://app?vid=4c4a2dbb-70b1-4efa-8805-54170e6a6379"},"vehicle_type_id":"4","last_reported":1743534507,"current_range_meters":10000,"station_id":"ce4bgpp2rcd13ifvqc3g","pricing_plan_id":"cebpf4jnsgd1na2vs0mg"},{"bike_id":"b3cc6af8-4e04-47ee-b7ed-e72bfdc8a57b","system_id":"levelo_inurba_marseille","lat":43.31738,"lon":5.39016,"is_reserved":false,"is_disabled":false,"rental_uris":{"android":"levelo://app?vid=b3cc6af8-4e04-47ee-b7ed-e72bfdc8a57b","ios":"levelo://app?vid=b3cc6af8-4e04-47ee-b7ed-e72bfdc8a57b"},"vehicle_type_id":"4","last_reported":1743534507,"current_range_meters":10000,"station_id":"ce4bhqp2rcd13ifvqhng","pricing_plan_id":"cebpf4jnsgd1na2vs0mg"},{"bike_id":"d26b5127-066f-4edc-9ffe-625bc04bd0e8","system_id":"levelo_inurba_marseille","lat":43.30139,"lon":5.39867,"is_reserved":false,"is_disabled":false,"rental_uris":{"android":"levelo://app?vid=d26b5127-066f-4edc-9ffe-625bc04bd0e8","ios":"levelo://app?vid=d26b5127-066f-4edc-9ffe-625bc04bd0e8"},"vehicle_type_id":"4","last_reported":1743534507,"current_range_meters":10000,"station_id":"ce4bh0h2rcd13ifvqd40","pricing_plan_id":"cebpf4jnsgd1na2vs0mg"},{"bike_id":"4d41c06d-8177-4456-a41b-45d5ec041b86","system_id":"levelo_inurba_marseille","lat":43.28693,"lon":5.37388,"is_reserved":false,"is_disabled":false,"rental_uris":{"android":"levelo://app?vid=4d41c06d-8177-4456-a41b-45d5ec041b86","ios":"levelo://app?vid=4d41c06d-8177-4456-a41b-45d5ec041b86"},"vehicle_type_id":"4","last_reported":1743534507,"current_range_meters":10000,"station_id":"ce4bh3p2rcd13ifvqdq0","pricing_plan_id":"cebpf4jnsgd1na2vs0mg"},{"bike_id":"5ecafc64-86c4-4df5-818d-7b60b3345ce1","system_id":"levelo_inurba_marseille","lat":43.28617,"lon":5.35108,"is_reserved":false,"is_disabled":false,"rental_uris":{"android":"levelo://app?vid=5ecafc64-86c4-4df5-818d-7b60b3345ce1","ios":"levelo://app?vid=5ecafc64-86c4-4df5-818d-7b60b3345ce1"},"vehicle_type_id":"4","last_reported":1743534507,"current_range_meters":10000,"station_id":"ce4bhch2rcd13ifvqeug","pricing_plan_id":"cebpf4jnsgd1na2vs0mg"},{"bike_id":"27773214-4312-4127-aa54-e74cba3d6d07","system_id":"levelo_inurba_marseille","lat":43.27805,"lon":5.40739,"is_reserved":false,"is_disabled":false,"rental_uris":{"android":"levelo://app?vid=27773214-4312-4127-aa54-e74cba3d6d07","ios":"levelo://app?vid=27773214-4312-4127-aa54-e74cba3d6d07"},"vehicle_type_id":"4","last_reported":1743534507,"current_range_meters":10000,"station_id":"ce4bhnh2rcd13ifvqgtg","pricing_plan_id":"cebpf4jnsgd1na2vs0mg"},{"bike_id":"f2dfd2a0-5846-4c43-9aae-f5b5157fea3b","system_id":"levelo_inurba_marseille","lat":43.286273,"lon":5.351089,"is_reserved":false,"is_disabled":false,"rental_uris":{"android":"levelo://app?vid=f2dfd2a0-5846-4c43-9aae-f5b5157fea3b","ios":"levelo://app?vid=f2dfd2a0-5846-4c43-9aae-f5b5157fea3b"},"vehicle_type_id":"4","last_reported":1743534507,"current_range_meters":10000,"station_id":"ce4bhch2rcd13ifvqeug","pricing_plan_id":"cebpf4jnsgd1na2vs0mg"},{"bike_id":"67e02190-fe32-43d4-8320-0b46d4310805","system_id":"levelo_inurba_marseille","lat":43.23187,"lon":5.39991,"is_reserved":false,"is_disabled":false,"rental_uris":{"android":"levelo://app?vid=67e02190-fe32-43d4-8320-0b46d4310805","ios":"levelo://app?vid=67e02190-fe32-43d4-8320-0b46d4310805"},"vehicle_type_id":"4","last_reported":1743534507,"current_range_meters":10800,"station_id":"ce4bhn12rcd13ifvqgqg","pricing_plan_id":"cebpf4jnsgd1na2vs0mg"},{"bike_id":"eb7da56b-5c69-49ae-a682-c31364575d55","system_id":"levelo_inurba_marseille","lat":43.257077,"lon":5.411097,"is_reserved":false,"is_disabled":false,"rental_uris":{"android":"levelo://app?vid=eb7da56b-5c69-49ae-a682-c31364575d55","ios":"levelo://app?vid=eb7da56b-5c69-49ae-a682-c31364575d55"},"vehicle_type_id":"4","last_reported":1743534507,"current_range_meters":10800,"station_id":"ce4bhkp2rcd13ifvqgd0","pricing_plan_id":"cebpf4jnsgd1na2vs0mg"},{"bike_id":"0c71dbf1-d2b8-46f3-9b33-ed7d58d7ac76","system_id":"levelo_inurba_marseille","lat":43.296275,"lon":5.406199,"is_reserved":false,"is_disabled":false,"rental_uris":{"android":"levelo://app?vid=0c71dbf1-d2b8-46f3-9b33-ed7d58d7ac76","ios":"levelo://app?vid=0c71dbf1-d2b8-46f3-9b33-ed7d58d7ac76"},"vehicle_type_id":"4","last_reported":1743534507,"current_range_meters":10800,"station_id":"ce4bh0h2rcd13ifvqd60","pricing_plan_id":"cebpf4jnsgd1na2vs0mg"},{"bike_id":"2e8d8654-23f7-434b-a09e-ae1e8d2abb71","system_id":"levelo_inurba_marseille","lat":43.25097,"lon":5.39535,"is_reserved":false,"is_disabled":false,"rental_uris":{"android":"levelo://app?vid=2e8d8654-23f7-434b-a09e-ae1e8d2abb71","ios":"levelo://app?vid=2e8d8654-23f7-434b-a09e-ae1e8d2abb71"},"vehicle_type_id":"4","last_reported":1743534507,"current_range_meters":10800,"station_id":"ce4bhm12rcd13ifvqgkg","pricing_plan_id":"cebpf4jnsgd1na2vs0mg"},{"bike_id":"34ead93f-0548-429e-a369-3703fc242f80","system_id":"levelo_inurba_marseille","lat":43.255807,"lon":5.382384,"is_reserved":false,"is_disabled":false,"rental_uris":{"android":"levelo://app?vid=34ead93f-0548-429e-a369-3703fc242f80","ios":"levelo://app?vid=34ead93f-0548-429e-a369-3703fc242f80"},"vehicle_type_id":"4","last_reported":1743534507,"current_range_meters":10800,"station_id":"ce4bhih2rcd13ifvqfs0","pricing_plan_id":"cebpf4jnsgd1na2vs0mg"},{"bike_id":"34872135-cb91-41d4-b4b2-6035f1a4a7a3","system_id":"levelo_inurba_marseille","lat":43.28718,"lon":5.37948,"is_reserved":false,"is_disabled":false,"rental_uris":{"android":"levelo://app?vid=34872135-cb91-41d4-b4b2-6035f1a4a7a3","ios":"levelo://app?vid=34872135-cb91-41d4-b4b2-6035f1a4a7a3"},"vehicle_type_id":"4","last_reported":1743534507,"current_range_meters":10800,"station_id":"ce4bh9p2rcd13ifvqec0","pricing_plan_id":"cebpf4jnsgd1na2vs0mg"},{"bike_id":"6cbd8faa-ab2b-482d-9f08-169f36426a75","system_id":"levelo_inurba_marseille","lat":43.28683,"lon":5.3738,"is_reserved":false,"is_disabled":false,"rental_uris":{"android":"levelo://app?vid=6cbd8faa-ab2b-482d-9f08-169f36426a75","ios":"levelo://app?vid=6cbd8faa-ab2b-482d-9f08-169f36426a75"},"vehicle_type_id":"4","last_reported":1743534507,"current_range_meters":10800,"station_id":"ce4bh3p2rcd13ifvqdq0","pricing_plan_id":"cebpf4jnsgd1na2vs0mg"},{"bike_id":"414f2e77-28f8-4983-a805-487bb5928c94","system_id":"levelo_inurba_marseille","lat":43.29269,"lon":5.3762,"is_reserved":false,"is_disabled":false,"rental_uris":{"android":"levelo://app?vid=414f2e77-28f8-4983-a805-487bb5928c94","ios":"levelo://app?vid=414f2e77-28f8-4983-a805-487bb5928c94"},"vehicle_type_id":"4","last_reported":1743534507,"current_range_meters":10800,"station_id":"ce4bgi12rcd13ifvqb80","pricing_plan_id":"cebpf4jnsgd1na2vs0mg"},{"bike_id":"fa1fecff-0922-45a4-9e07-5369fb295144","system_id":"levelo_inurba_marseille","lat":43.29537,"lon":5.38554,"is_reserved":false,"is_disabled":false,"rental_uris":{"android":"levelo://app?vid=fa1fecff-0922-45a4-9e07-5369fb295144","ios":"levelo://app?vid=fa1fecff-0922-45a4-9e07-5369fb295144"},"vehicle_type_id":"4","last_reported":1743534507,"current_range_meters":10800,"station_id":"ce4bgih2rcd13ifvqba0","pricing_plan_id":"cebpf4jnsgd1na2vs0mg"},{"bike_id":"7d24f7f3-5a91-46ae-971d-a7a715309919","system_id":"levelo_inurba_marseille","lat":43.23205,"lon":5.40004,"is_reserved":false,"is_disabled":false,"rental_uris":{"android":"levelo://app?vid=7d24f7f3-5a91-46ae-971d-a7a715309919","ios":"levelo://app?vid=7d24f7f3-5a91-46ae-971d-a7a715309919"},"vehicle_type_id":"4","last_reported":1743534507,"current_range_meters":10800,"station_id":"ce4bhn12rcd13ifvqgqg","pricing_plan_id":"cebpf4jnsgd1na2vs0mg"},{"bike_id":"b18d61be-1314-4787-bdc3-677619cdb9f9","system_id":"levelo_inurba_marseille","lat":43.29937,"lon":5.37045,"is_reserved":false,"is_disabled":false,"rental_uris":{"android":"levelo://app?vid=b18d61be-1314-4787-bdc3-677619cdb9f9","ios":"levelo://app?vid=b18d61be-1314-4787-bdc3-677619cdb9f9"},"vehicle_type_id":"4","last_reported":1743534507,"current_range_meters":10800,"station_id":"","pricing_plan_id":"cebpf4jnsgd1na2vs0mg"},{"bike_id":"e46bc2a1-26e5-4354-8e4b-c7a87bcf2a85","system_id":"levelo_inurba_marseille","lat":43.2941,"lon":5.38619,"is_reserved":false,"is_disabled":false,"rental_uris":{"android":"levelo://app?vid=e46bc2a1-26e5-4354-8e4b-c7a87bcf2a85","ios":"levelo://app?vid=e46bc2a1-26e5-4354-8e4b-c7a87bcf2a85"},"vehicle_type_id":"4","last_reported":1743534507,"current_range_meters":10800,"station_id":"ce4bh2h2rcd13ifvqdh0","pricing_plan_id":"cebpf4jnsgd1na2vs0mg"},{"bike_id":"31785e8b-2e36-4757-9d7b-f9d07bbcc589","system_id":"levelo_inurba_marseille","lat":43.290234,"lon":5.38126,"is_reserved":false,"is_disabled":false,"rental_uris":{"android":"levelo://app?vid=31785e8b-2e36-4757-9d7b-f9d07bbcc589","ios":"levelo://app?vid=31785e8b-2e36-4757-9d7b-f9d07bbcc589"},"vehicle_type_id":"4","last_reported":1743534507,"current_range_meters":10800,"station_id":"ce4bh4p2rcd13ifvqe1g","pricing_plan_id":"cebpf4jnsgd1na2vs0mg"},{"bike_id":"3ba6ccff-1eda-46d4-acbd-01dbdd65bb76","system_id":"levelo_inurba_marseille","lat":43.2989,"lon":5.43662,"is_reserved":false,"is_disabled":false,"rental_uris":{"android":"levelo://app?vid=3ba6ccff-1eda-46d4-acbd-01dbdd65bb76","ios":"levelo://app?vid=3ba6ccff-1eda-46d4-acbd-01dbdd65bb76"},"vehicle_type_id":"4","last_reported":1743534507,"current_range_meters":10800,"station_id":"ce4bhpp2rcd13ifvqhfg","pricing_plan_id":"cebpf4jnsgd1na2vs0mg"},{"bike_id":"c46fb111-96dd-402e-989c-b3cd45695864","system_id":"levelo_inurba_marseille","lat":43.30132,"lon":5.3878,"is_reserved":false,"is_disabled":false,"rental_uris":{"android":"levelo://app?vid=c46fb111-96dd-402e-989c-b3cd45695864","ios":"levelo://app?vid=c46fb111-96dd-402e-989c-b3cd45695864"},"vehicle_type_id":"4","last_reported":1743534507,"current_range_meters":11200,"station_id":"ce4bghh2rcd13ifvqb60","pricing_plan_id":"cebpf4jnsgd1na2vs0mg"},{"bike_id":"7ad05cbc-4d56-4556-9619-d847a1f6875b","system_id":"levelo_inurba_marseille","lat":43.29843,"lon":5.36277,"is_reserved":false,"is_disabled":false,"rental_uris":{"android":"levelo://app?vid=7ad05cbc-4d56-4556-9619-d847a1f6875b","ios":"levelo://app?vid=7ad05cbc-4d56-4556-9619-d847a1f6875b"},"vehicle_type_id":"4","last_reported":1743534507,"current_range_meters":11200,"station_id":"ce4bgpp2rcd13ifvqc3g","pricing_plan_id":"cebpf4jnsgd1na2vs0mg"},{"bike_id":"56cfda8b-2674-4efc-8ad1-c51e28d4f008","system_id":"levelo_inurba_marseille","lat":43.280407,"lon":5.369497,"is_reserved":false,"is_disabled":false,"rental_uris":{"android":"levelo://app?vid=56cfda8b-2674-4efc-8ad1-c51e28d4f008","ios":"levelo://app?vid=56cfda8b-2674-4efc-8ad1-c51e28d4f008"},"vehicle_type_id":"4","last_reported":1743534507,"current_range_meters":11200,"station_id":"ce4bha12rcd13ifvqef0","pricing_plan_id":"cebpf4jnsgd1na2vs0mg"},{"bike_id":"b2fae70b-c47d-4c82-a400-ffe584207470","system_id":"levelo_inurba_marseille","lat":43.31361,"lon":5.38491,"is_reserved":false,"is_disabled":false,"rental_uris":{"android":"levelo://app?vid=b2fae70b-c47d-4c82-a400-ffe584207470","ios":"levelo://app?vid=b2fae70b-c47d-4c82-a400-ffe584207470"},"vehicle_type_id":"4","last_reported":1743534507,"current_range_meters":11200,"station_id":"ce4bgt92rcd13ifvqcf0","pricing_plan_id":"cebpf4jnsgd1na2vs0mg"},{"bike_id":"c3742909-8ac1-45e8-bbc0-0a14494abaa8","system_id":"levelo_inurba_marseille","lat":43.246461,"lon":5.388909,"is_reserved":false,"is_disabled":false,"rental_uris":{"android":"levelo://app?vid=c3742909-8ac1-45e8-bbc0-0a14494abaa8","ios":"levelo://app?vid=c3742909-8ac1-45e8-bbc0-0a14494abaa8"},"vehicle_type_id":"4","last_reported":1743534507,"current_range_meters":11200,"station_id":"ce4bhg12rcd13ifvqf60","pricing_plan_id":"cebpf4jnsgd1na2vs0mg"},{"bike_id":"2b22d529-5b20-4ada-803e-0293761a2a4c","system_id":"levelo_inurba_marseille","lat":43.28698,"lon":5.37395,"is_reserved":false,"is_disabled":false,"rental_uris":{"android":"levelo://app?vid=2b22d529-5b20-4ada-803e-0293761a2a4c","ios":"levelo://app?vid=2b22d529-5b20-4ada-803e-0293761a2a4c"},"vehicle_type_id":"4","last_reported":1743534507,"current_range_meters":11200,"station_id":"ce4bh3p2rcd13ifvqdq0","pricing_plan_id":"cebpf4jnsgd1na2vs0mg"},{"bike_id":"041c6bb4-25e5-4d13-ad6c-53bcd18cf89f","system_id":"levelo_inurba_marseille","lat":43.25087,"lon":5.39466,"is_reserved":false,"is_disabled":false,"rental_uris":{"android":"levelo://app?vid=041c6bb4-25e5-4d13-ad6c-53bcd18cf89f","ios":"levelo://app?vid=041c6bb4-25e5-4d13-ad6c-53bcd18cf89f"},"vehicle_type_id":"4","last_reported":1743534507,"current_range_meters":11200,"station_id":"ce4bhm12rcd13ifvqgkg","pricing_plan_id":"cebpf4jnsgd1na2vs0mg"},{"bike_id":"2e86a168-eb5b-4f3c-ae41-c73168f546ca","system_id":"levelo_inurba_marseille","lat":43.29297,"lon":5.37162,"is_reserved":false,"is_disabled":false,"rental_uris":{"android":"levelo://app?vid=2e86a168-eb5b-4f3c-ae41-c73168f546ca","ios":"levelo://app?vid=2e86a168-eb5b-4f3c-ae41-c73168f546ca"},"vehicle_type_id":"4","last_reported":1743534507,"current_range_meters":11600,"station_id":"ce4bgh92rcd13ifvqb40","pricing_plan_id":"cebpf4jnsgd1na2vs0mg"},{"bike_id":"41e383b6-ff2a-4fbf-8f3c-6d77ac0e67b1","system_id":"levelo_inurba_marseille","lat":43.28933,"lon":5.36641,"is_reserved":false,"is_disabled":false,"rental_uris":{"android":"levelo://app?vid=41e383b6-ff2a-4fbf-8f3c-6d77ac0e67b1","ios":"levelo://app?vid=41e383b6-ff2a-4fbf-8f3c-6d77ac0e67b1"},"vehicle_type_id":"4","last_reported":1743534507,"current_range_meters":11600,"station_id":"ce4bhap2rcd13ifvqek0","pricing_plan_id":"cebpf4jnsgd1na2vs0mg"},{"bike_id":"60129d40-45b0-48c5-8fe5-8766c358d773","system_id":"levelo_inurba_marseille","lat":43.25104,"lon":5.39544,"is_reserved":false,"is_disabled":false,"rental_uris":{"android":"levelo://app?vid=60129d40-45b0-48c5-8fe5-8766c358d773","ios":"levelo://app?vid=60129d40-45b0-48c5-8fe5-8766c358d773"},"vehicle_type_id":"4","last_reported":1743534507,"current_range_meters":11600,"station_id":"ce4bhm12rcd13ifvqgkg","pricing_plan_id":"cebpf4jnsgd1na2vs0mg"},{"bike_id":"628cfdd6-0d8d-41e3-9827-7524f68c588d","system_id":"levelo_inurba_marseille","lat":43.27897,"lon":5.38018,"is_reserved":false,"is_disabled":false,"rental_uris":{"android":"levelo://app?vid=628cfdd6-0d8d-41e3-9827-7524f68c588d","ios":"levelo://app?vid=628cfdd6-0d8d-41e3-9827-7524f68c588d"},"vehicle_type_id":"4","last_reported":1743534507,"current_range_meters":11600,"station_id":"ce4bhf92rcd13ifvqf50","pricing_plan_id":"cebpf4jnsgd1na2vs0mg"},{"bike_id":"4220d26d-272d-4b23-9cec-a79c1d919b49","system_id":"levelo_inurba_marseille","lat":43.30581,"lon":5.37103,"is_reserved":false,"is_disabled":false,"rental_uris":{"android":"levelo://app?vid=4220d26d-272d-4b23-9cec-a79c1d919b49","ios":"levelo://app?vid=4220d26d-272d-4b23-9cec-a79c1d919b49"},"vehicle_type_id":"4","last_reported":1743534507,"current_range_meters":11600,"station_id":"","pricing_plan_id":"cebpf4jnsgd1na2vs0mg"},{"bike_id":"b0497066-241b-4e4f-b570-35c79fa0b46a","system_id":"levelo_inurba_marseille","lat":43.31065,"lon":5.38353,"is_reserved":false,"is_disabled":false,"rental_uris":{"android":"levelo://app?vid=b0497066-241b-4e4f-b570-35c79fa0b46a","ios":"levelo://app?vid=b0497066-241b-4e4f-b570-35c79fa0b46a"},"vehicle_type_id":"4","last_reported":1743534507,"current_range_meters":11600,"station_id":"ce4bgv92rcd13ifvqcr0","pricing_plan_id":"cebpf4jnsgd1na2vs0mg"},{"bike_id":"e5f7b14c-dbe9-4897-9a1a-a5fcfa36e599","system_id":"levelo_inurba_marseille","lat":43.29254,"lon":5.36838,"is_reserved":false,"is_disabled":false,"rental_uris":{"android":"levelo://app?vid=e5f7b14c-dbe9-4897-9a1a-a5fcfa36e599","ios":"levelo://app?vid=e5f7b14c-dbe9-4897-9a1a-a5fcfa36e599"},"vehicle_type_id":"4","last_reported":1743534507,"current_range_meters":11600,"station_id":"ce4bhbp2rcd13ifvqesg","pricing_plan_id":"cebpf4jnsgd1na2vs0mg"},{"bike_id":"9c8eecec-e70a-4826-9811-8377457bfbb4","system_id":"levelo_inurba_marseille","lat":43.31168,"lon":5.38709,"is_reserved":false,"is_disabled":false,"rental_uris":{"android":"levelo://app?vid=9c8eecec-e70a-4826-9811-8377457bfbb4","ios":"levelo://app?vid=9c8eecec-e70a-4826-9811-8377457bfbb4"},"vehicle_type_id":"4","last_reported":1743534507,"current_range_meters":12000,"station_id":"ce4bgv12rcd13ifvqcp0","pricing_plan_id":"cebpf4jnsgd1na2vs0mg"},{"bike_id":"0955bcb1-f8dc-47f4-a135-54218809acb7","system_id":"levelo_inurba_marseille","lat":43.26561,"lon":5.37323,"is_reserved":false,"is_disabled":true,"rental_uris":{"android":"levelo://app?vid=0955bcb1-f8dc-47f4-a135-54218809acb7","ios":"levelo://app?vid=0955bcb1-f8dc-47f4-a135-54218809acb7"},"vehicle_type_id":"4","last_reported":1743534507,"current_range_meters":12000,"station_id":"ce4bhg12rcd13ifvqf70","pricing_plan_id":"cebpf4jnsgd1na2vs0mg"},{"bike_id":"c7528b04-51c8-43ac-8037-a145d549f4c8","system_id":"levelo_inurba_marseille","lat":43.24073,"lon":5.3776,"is_reserved":false,"is_disabled":false,"rental_uris":{"android":"levelo://app?vid=c7528b04-51c8-43ac-8037-a145d549f4c8","ios":"levelo://app?vid=c7528b04-51c8-43ac-8037-a145d549f4c8"},"vehicle_type_id":"4","last_reported":1743534507,"current_range_meters":12000,"station_id":"ce4bhnp2rcd13ifvqgvg","pricing_plan_id":"cebpf4jnsgd1na2vs0mg"},{"bike_id":"84ed46e5-c0ee-494a-a4da-9d41a1cedef8","system_id":"levelo_inurba_marseille","lat":43.249446,"lon":5.396441,"is_reserved":false,"is_disabled":false,"rental_uris":{"android":"levelo://app?vid=84ed46e5-c0ee-494a-a4da-9d41a1cedef8","ios":"levelo://app?vid=84ed46e5-c0ee-494a-a4da-9d41a1cedef8"},"vehicle_type_id":"4","last_reported":1743534507,"current_range_meters":12000,"station_id":"ce4bhnp2rcd13ifvqgvg","pricing_plan_id":"cebpf4jnsgd1na2vs0mg"},{"bike_id":"e055ff70-1e02-469e-8b20-efb9a9753d96","system_id":"levelo_inurba_marseille","lat":43.28467,"lon":5.35885,"is_reserved":false,"is_disabled":false,"rental_uris":{"android":"levelo://app?vid=e055ff70-1e02-469e-8b20-efb9a9753d96","ios":"levelo://app?vid=e055ff70-1e02-469e-8b20-efb9a9753d96"},"vehicle_type_id":"4","last_reported":1743534507,"current_range_meters":12000,"station_id":"ce4bhah2rcd13ifvqei0","pricing_plan_id":"cebpf4jnsgd1na2vs0mg"},{"bike_id":"6b8d5371-b5ab-4832-8c8e-12234f9dff78","system_id":"levelo_inurba_marseille","lat":43.31747,"lon":5.39022,"is_reserved":false,"is_disabled":false,"rental_uris":{"android":"levelo://app?vid=6b8d5371-b5ab-4832-8c8e-12234f9dff78","ios":"levelo://app?vid=6b8d5371-b5ab-4832-8c8e-12234f9dff78"},"vehicle_type_id":"4","last_reported":1743534507,"current_range_meters":12000,"station_id":"ce4bhqp2rcd13ifvqhng","pricing_plan_id":"cebpf4jnsgd1na2vs0mg"},{"bike_id":"3230e19e-78f2-4e1b-9043-cdf173a0a585","system_id":"levelo_inurba_marseille","lat":43.28693,"lon":5.3739,"is_reserved":false,"is_disabled":false,"rental_uris":{"android":"levelo://app?vid=3230e19e-78f2-4e1b-9043-cdf173a0a585","ios":"levelo://app?vid=3230e19e-78f2-4e1b-9043-cdf173a0a585"},"vehicle_type_id":"4","last_reported":1743534507,"current_range_meters":12000,"station_id":"ce4bh3p2rcd13ifvqdq0","pricing_plan_id":"cebpf4jnsgd1na2vs0mg"},{"bike_id":"8769d6f1-b92a-4e4d-8941-e6f36acec073","system_id":"levelo_inurba_marseille","lat":43.26492,"lon":5.39551,"is_reserved":false,"is_disabled":false,"rental_uris":{"android":"levelo://app?vid=8769d6f1-b92a-4e4d-8941-e6f36acec073","ios":"levelo://app?vid=8769d6f1-b92a-4e4d-8941-e6f36acec073"},"vehicle_type_id":"4","last_reported":1743534507,"current_range_meters":12000,"station_id":"ce4bhi12rcd13ifvqfq0","pricing_plan_id":"cebpf4jnsgd1na2vs0mg"},{"bike_id":"673cd2fb-9a5c-412d-a385-2a1c87de78c8","system_id":"levelo_inurba_marseille","lat":43.28635,"lon":5.37064,"is_reserved":false,"is_disabled":false,"rental_uris":{"android":"levelo://app?vid=673cd2fb-9a5c-412d-a385-2a1c87de78c8","ios":"levelo://app?vid=673cd2fb-9a5c-412d-a385-2a1c87de78c8"},"vehicle_type_id":"4","last_reported":1743534507,"current_range_meters":12000,"station_id":"ce4bht12rcd13ifvqi60","pricing_plan_id":"cebpf4jnsgd1na2vs0mg"},{"bike_id":"95ba5de1-4b08-4def-b154-5ecedb7e8c64","system_id":"levelo_inurba_marseille","lat":43.31162,"lon":5.38729,"is_reserved":false,"is_disabled":false,"rental_uris":{"android":"levelo://app?vid=95ba5de1-4b08-4def-b154-5ecedb7e8c64","ios":"levelo://app?vid=95ba5de1-4b08-4def-b154-5ecedb7e8c64"},"vehicle_type_id":"4","last_reported":1743534507,"current_range_meters":12000,"station_id":"ce4bgv12rcd13ifvqcp0","pricing_plan_id":"cebpf4jnsgd1na2vs0mg"},{"bike_id":"9fcdf01c-acb1-4f8c-8559-798b026094db","system_id":"levelo_inurba_marseille","lat":43.29055,"lon":5.35924,"is_reserved":false,"is_disabled":false,"rental_uris":{"android":"levelo://app?vid=9fcdf01c-acb1-4f8c-8559-798b026094db","ios":"levelo://app?vid=9fcdf01c-acb1-4f8c-8559-798b026094db"},"vehicle_type_id":"4","last_reported":1743534507,"current_range_meters":11600,"station_id":"ce4bha92rcd13ifvqeg0","pricing_plan_id":"cebpf4jnsgd1na2vs0mg"},{"bike_id":"702119d2-e0ce-4638-97ef-a3ef55ac5b35","system_id":"levelo_inurba_marseille","lat":43.29021,"lon":5.38137,"is_reserved":false,"is_disabled":false,"rental_uris":{"android":"levelo://app?vid=702119d2-e0ce-4638-97ef-a3ef55ac5b35","ios":"levelo://app?vid=702119d2-e0ce-4638-97ef-a3ef55ac5b35"},"vehicle_type_id":"4","last_reported":1743534507,"current_range_meters":12000,"station_id":"ce4bh4p2rcd13ifvqe1g","pricing_plan_id":"cebpf4jnsgd1na2vs0mg"},{"bike_id":"f616f89a-6b5f-47f2-be4a-c1252268f5f4","system_id":"levelo_inurba_marseille","lat":43.29436,"lon":5.38628,"is_reserved":false,"is_disabled":true,"rental_uris":{"android":"levelo://app?vid=f616f89a-6b5f-47f2-be4a-c1252268f5f4","ios":"levelo://app?vid=f616f89a-6b5f-47f2-be4a-c1252268f5f4"},"vehicle_type_id":"4","last_reported":1743534507,"current_range_meters":12400,"station_id":"ce4bh2h2rcd13ifvqdh0","pricing_plan_id":"cebpf4jnsgd1na2vs0mg"},{"bike_id":"a87c03f6-1e0b-496a-ba35-8cae889bb9b4","system_id":"levelo_inurba_marseille","lat":43.26814,"lon":5.40265,"is_reserved":false,"is_disabled":false,"rental_uris":{"android":"levelo://app?vid=a87c03f6-1e0b-496a-ba35-8cae889bb9b4","ios":"levelo://app?vid=a87c03f6-1e0b-496a-ba35-8cae889bb9b4"},"vehicle_type_id":"4","last_reported":1743534507,"current_range_meters":12400,"station_id":"ce501612rcd8frsf0b60","pricing_plan_id":"cebpf4jnsgd1na2vs0mg"},{"bike_id":"6e6a66e5-58ca-4db1-9695-b46ed5c28827","system_id":"levelo_inurba_marseille","lat":43.31807,"lon":5.36834,"is_reserved":false,"is_disabled":false,"rental_uris":{"android":"levelo://app?vid=6e6a66e5-58ca-4db1-9695-b46ed5c28827","ios":"levelo://app?vid=6e6a66e5-58ca-4db1-9695-b46ed5c28827"},"vehicle_type_id":"4","last_reported":1743534507,"current_range_meters":12400,"station_id":"","pricing_plan_id":"cebpf4jnsgd1na2vs0mg"},{"bike_id":"7089a631-8b55-4bae-8225-d55053097321","system_id":"levelo_inurba_marseille","lat":43.26614,"lon":5.39071,"is_reserved":false,"is_disabled":false,"rental_uris":{"android":"levelo://app?vid=7089a631-8b55-4bae-8225-d55053097321","ios":"levelo://app?vid=7089a631-8b55-4bae-8225-d55053097321"},"vehicle_type_id":"4","last_reported":1743534507,"current_range_meters":12400,"station_id":"","pricing_plan_id":"cebpf4jnsgd1na2vs0mg"},{"bike_id":"aae479d5-1ce3-4759-bab8-5226ef3c33eb","system_id":"levelo_inurba_marseille","lat":43.30657,"lon":5.40074,"is_reserved":false,"is_disabled":false,"rental_uris":{"android":"levelo://app?vid=aae479d5-1ce3-4759-bab8-5226ef3c33eb","ios":"levelo://app?vid=aae479d5-1ce3-4759-bab8-5226ef3c33eb"},"vehicle_type_id":"4","last_reported":1743534507,"current_range_meters":12400,"station_id":"ce4bh112rcd13ifvqda0","pricing_plan_id":"cebpf4jnsgd1na2vs0mg"},{"bike_id":"a742bd78-af1e-4121-b6a0-11d74214de10","system_id":"levelo_inurba_marseille","lat":43.30301,"lon":5.36874,"is_reserved":false,"is_disabled":false,"rental_uris":{"android":"levelo://app?vid=a742bd78-af1e-4121-b6a0-11d74214de10","ios":"levelo://app?vid=a742bd78-af1e-4121-b6a0-11d74214de10"},"vehicle_type_id":"4","last_reported":1743534507,"current_range_meters":12400,"station_id":"ce4bgqh2rcd13ifvqc5g","pricing_plan_id":"cebpf4jnsgd1na2vs0mg"},{"bike_id":"9e87d8e6-7d87-4853-81e0-a9b8308d82de","system_id":"levelo_inurba_marseille","lat":43.28427,"lon":5.37526,"is_reserved":false,"is_disabled":false,"rental_uris":{"android":"levelo://app?vid=9e87d8e6-7d87-4853-81e0-a9b8308d82de","ios":"levelo://app?vid=9e87d8e6-7d87-4853-81e0-a9b8308d82de"},"vehicle_type_id":"4","last_reported":1743534507,"current_range_meters":12800,"station_id":"ce4bh412rcd13ifvqds0","pricing_plan_id":"cebpf4jnsgd1na2vs0mg"},{"bike_id":"cff460a2-2ee3-49bf-a27e-5e1d4163fb2d","system_id":"levelo_inurba_marseille","lat":43.3133,"lon":5.39702,"is_reserved":false,"is_disabled":false,"rental_uris":{"android":"levelo://app?vid=cff460a2-2ee3-49bf-a27e-5e1d4163fb2d","ios":"levelo://app?vid=cff460a2-2ee3-49bf-a27e-5e1d4163fb2d"},"vehicle_type_id":"4","last_reported":1743534507,"current_range_meters":12800,"station_id":"ce4bgvp2rcd13ifvqcu0","pricing_plan_id":"cebpf4jnsgd1na2vs0mg"},{"bike_id":"5ca0db3d-fbcc-4da3-a6d9-eccb23bb45a7","system_id":"levelo_inurba_marseille","lat":43.29903,"lon":5.38146,"is_reserved":false,"is_disabled":false,"rental_uris":{"android":"levelo://app?vid=5ca0db3d-fbcc-4da3-a6d9-eccb23bb45a7","ios":"levelo://app?vid=5ca0db3d-fbcc-4da3-a6d9-eccb23bb45a7"},"vehicle_type_id":"4","last_reported":1743534507,"current_range_meters":12800,"station_id":"ce4bgj12rcd13ifvqbc0","pricing_plan_id":"cebpf4jnsgd1na2vs0mg"},{"bike_id":"9756b935-5c04-4e66-917a-cc939ad036d2","system_id":"levelo_inurba_marseille","lat":43.26561,"lon":5.39002,"is_reserved":false,"is_disabled":false,"rental_uris":{"android":"levelo://app?vid=9756b935-5c04-4e66-917a-cc939ad036d2","ios":"levelo://app?vid=9756b935-5c04-4e66-917a-cc939ad036d2"},"vehicle_type_id":"4","last_reported":1743534507,"current_range_meters":12400,"station_id":"ce4bhkp2rcd13ifvqgd0","pricing_plan_id":"cebpf4jnsgd1na2vs0mg"},{"bike_id":"0330925c-eedd-4398-92d8-3a47167830d2","system_id":"levelo_inurba_marseille","lat":43.29225,"lon":5.3606,"is_reserved":false,"is_disabled":false,"rental_uris":{"android":"levelo://app?vid=0330925c-eedd-4398-92d8-3a47167830d2","ios":"levelo://app?vid=0330925c-eedd-4398-92d8-3a47167830d2"},"vehicle_type_id":"4","last_reported":1743534507,"current_range_meters":12800,"station_id":"ce4bhbh2rcd13ifvqeqg","pricing_plan_id":"cebpf4jnsgd1na2vs0mg"},{"bike_id":"d6452712-3c80-4fe7-a385-646f71cc9dcd","system_id":"levelo_inurba_marseille","lat":43.28678,"lon":5.38662,"is_reserved":false,"is_disabled":false,"rental_uris":{"android":"levelo://app?vid=d6452712-3c80-4fe7-a385-646f71cc9dcd","ios":"levelo://app?vid=d6452712-3c80-4fe7-a385-646f71cc9dcd"},"vehicle_type_id":"4","last_reported":1743534507,"current_range_meters":12800,"station_id":"ce4bh492rcd13ifvqdug","pricing_plan_id":"cebpf4jnsgd1na2vs0mg"},{"bike_id":"b2cabdca-6be8-4efa-8903-8b392db9b9f2","system_id":"levelo_inurba_marseille","lat":43.29787,"lon":5.39347,"is_reserved":false,"is_disabled":false,"rental_uris":{"android":"levelo://app?vid=b2cabdca-6be8-4efa-8903-8b392db9b9f2","ios":"levelo://app?vid=b2cabdca-6be8-4efa-8903-8b392db9b9f2"},"vehicle_type_id":"4","last_reported":1743534507,"current_range_meters":12800,"station_id":"chh1huq6cuj3fo74tm60","pricing_plan_id":"cebpf4jnsgd1na2vs0mg"},{"bike_id":"a198677f-1d5e-4d03-9763-007bd0254a72","system_id":"levelo_inurba_marseille","lat":43.28339,"lon":5.38103,"is_reserved":false,"is_disabled":false,"rental_uris":{"android":"levelo://app?vid=a198677f-1d5e-4d03-9763-007bd0254a72","ios":"levelo://app?vid=a198677f-1d5e-4d03-9763-007bd0254a72"},"vehicle_type_id":"4","last_reported":1743534507,"current_range_meters":12800,"station_id":"ce4bh412rcd13ifvqdr0","pricing_plan_id":"cebpf4jnsgd1na2vs0mg"},{"bike_id":"70b81d6c-8b4b-4ce8-816f-5600ccdf0f4c","system_id":"levelo_inurba_marseille","lat":43.29598,"lon":5.38108,"is_reserved":false,"is_disabled":false,"rental_uris":{"android":"levelo://app?vid=70b81d6c-8b4b-4ce8-816f-5600ccdf0f4c","ios":"levelo://app?vid=70b81d6c-8b4b-4ce8-816f-5600ccdf0f4c"},"vehicle_type_id":"4","last_reported":1743534507,"current_range_meters":12800,"station_id":"ce4bgl12rcd13ifvqbo0","pricing_plan_id":"cebpf4jnsgd1na2vs0mg"},{"bike_id":"17011927-5eb5-4a38-a132-35a6858ea1fb","system_id":"levelo_inurba_marseille","lat":43.30296,"lon":5.39199,"is_reserved":false,"is_disabled":true,"rental_uris":{"android":"levelo://app?vid=17011927-5eb5-4a38-a132-35a6858ea1fb","ios":"levelo://app?vid=17011927-5eb5-4a38-a132-35a6858ea1fb"},"vehicle_type_id":"4","last_reported":1743534507,"current_range_meters":12800,"station_id":"ce4bgkh2rcd13ifvqbk0","pricing_plan_id":"cebpf4jnsgd1na2vs0mg"},{"bike_id":"0f3acb50-532e-4afe-8e37-7d407ec10fe1","system_id":"levelo_inurba_marseille","lat":43.30247,"lon":5.40067,"is_reserved":false,"is_disabled":false,"rental_uris":{"android":"levelo://app?vid=0f3acb50-532e-4afe-8e37-7d407ec10fe1","ios":"levelo://app?vid=0f3acb50-532e-4afe-8e37-7d407ec10fe1"},"vehicle_type_id":"4","last_reported":1743534507,"current_range_meters":12800,"station_id":"ce4bgvh2rcd13ifvqcs0","pricing_plan_id":"cebpf4jnsgd1na2vs0mg"},{"bike_id":"7dc3df4d-cb47-4442-be23-664b36e4ea81","system_id":"levelo_inurba_marseille","lat":43.28926,"lon":5.36626,"is_reserved":false,"is_disabled":false,"rental_uris":{"android":"levelo://app?vid=7dc3df4d-cb47-4442-be23-664b36e4ea81","ios":"levelo://app?vid=7dc3df4d-cb47-4442-be23-664b36e4ea81"},"vehicle_type_id":"4","last_reported":1743534507,"current_range_meters":13600,"station_id":"ce4bhap2rcd13ifvqek0","pricing_plan_id":"cebpf4jnsgd1na2vs0mg"},{"bike_id":"222486d3-1c47-4bf7-b474-af68c35553a1","system_id":"levelo_inurba_marseille","lat":43.29195,"lon":5.39325,"is_reserved":false,"is_disabled":false,"rental_uris":{"android":"levelo://app?vid=222486d3-1c47-4bf7-b474-af68c35553a1","ios":"levelo://app?vid=222486d3-1c47-4bf7-b474-af68c35553a1"},"vehicle_type_id":"4","last_reported":1743534507,"current_range_meters":13600,"station_id":"ce4bh192rcd13ifvqdd0","pricing_plan_id":"cebpf4jnsgd1na2vs0mg"},{"bike_id":"1b672112-1a49-4518-8828-abbf42b6ebac","system_id":"levelo_inurba_marseille","lat":43.28853,"lon":5.35873,"is_reserved":false,"is_disabled":false,"rental_uris":{"android":"levelo://app?vid=1b672112-1a49-4518-8828-abbf42b6ebac","ios":"levelo://app?vid=1b672112-1a49-4518-8828-abbf42b6ebac"},"vehicle_type_id":"4","last_reported":1743534507,"current_range_meters":13600,"station_id":"ce4bhb12rcd13ifvqem0","pricing_plan_id":"cebpf4jnsgd1na2vs0mg"},{"bike_id":"062f662a-fdc3-4404-96a7-532a807a62a2","system_id":"levelo_inurba_marseille","lat":43.28706,"lon":5.37959,"is_reserved":false,"is_disabled":true,"rental_uris":{"android":"levelo://app?vid=062f662a-fdc3-4404-96a7-532a807a62a2","ios":"levelo://app?vid=062f662a-fdc3-4404-96a7-532a807a62a2"},"vehicle_type_id":"4","last_reported":1743534507,"current_range_meters":13600,"station_id":"ce4bh9p2rcd13ifvqec0","pricing_plan_id":"cebpf4jnsgd1na2vs0mg"},{"bike_id":"dd3db03f-0f43-4986-9ec8-2a76818fb28c","system_id":"levelo_inurba_marseille","lat":43.23235,"lon":5.35557,"is_reserved":false,"is_disabled":false,"rental_uris":{"android":"levelo://app?vid=dd3db03f-0f43-4986-9ec8-2a76818fb28c","ios":"levelo://app?vid=dd3db03f-0f43-4986-9ec8-2a76818fb28c"},"vehicle_type_id":"4","last_reported":1743534507,"current_range_meters":13600,"station_id":"ce4bhu92rcd13ifvqi70","pricing_plan_id":"cebpf4jnsgd1na2vs0mg"},{"bike_id":"3d8a281e-cbeb-49dc-ad5b-7c3beb3cfab9","system_id":"levelo_inurba_marseille","lat":43.28075,"lon":5.39661,"is_reserved":false,"is_disabled":false,"rental_uris":{"android":"levelo://app?vid=3d8a281e-cbeb-49dc-ad5b-7c3beb3cfab9","ios":"levelo://app?vid=3d8a281e-cbeb-49dc-ad5b-7c3beb3cfab9"},"vehicle_type_id":"4","last_reported":1743534507,"current_range_meters":13600,"station_id":"ce4bho12rcd13ifvqh2g","pricing_plan_id":"cebpf4jnsgd1na2vs0mg"},{"bike_id":"49428efe-bbd8-4963-9aaf-ed822fd5c61b","system_id":"levelo_inurba_marseille","lat":43.2916,"lon":5.44349,"is_reserved":false,"is_disabled":false,"rental_uris":{"android":"levelo://app?vid=49428efe-bbd8-4963-9aaf-ed822fd5c61b","ios":"levelo://app?vid=49428efe-bbd8-4963-9aaf-ed822fd5c61b"},"vehicle_type_id":"4","last_reported":1743534507,"current_range_meters":13600,"station_id":"","pricing_plan_id":"cebpf4jnsgd1na2vs0mg"},{"bike_id":"71aa43a1-d30d-4aca-9564-7c072b9846f1","system_id":"levelo_inurba_marseille","lat":43.29594,"lon":5.38057,"is_reserved":false,"is_disabled":false,"rental_uris":{"android":"levelo://app?vid=71aa43a1-d30d-4aca-9564-7c072b9846f1","ios":"levelo://app?vid=71aa43a1-d30d-4aca-9564-7c072b9846f1"},"vehicle_type_id":"4","last_reported":1743534507,"current_range_meters":13600,"station_id":"ce4bgl12rcd13ifvqbo0","pricing_plan_id":"cebpf4jnsgd1na2vs0mg"},{"bike_id":"8c8c904f-4688-4edc-8d5e-ac5ec4c04aa2","system_id":"levelo_inurba_marseille","lat":43.26072,"lon":5.39387,"is_reserved":false,"is_disabled":true,"rental_uris":{"android":"levelo://app?vid=8c8c904f-4688-4edc-8d5e-ac5ec4c04aa2","ios":"levelo://app?vid=8c8c904f-4688-4edc-8d5e-ac5ec4c04aa2"},"vehicle_type_id":"4","last_reported":1743534507,"current_range_meters":14000,"station_id":"ce4bhh92rcd13ifvqfj0","pricing_plan_id":"cebpf4jnsgd1na2vs0mg"},{"bike_id":"b80ee275-2592-4659-b2e9-175feb839700","system_id":"levelo_inurba_marseille","lat":43.23205,"lon":5.35546,"is_reserved":false,"is_disabled":false,"rental_uris":{"android":"levelo://app?vid=b80ee275-2592-4659-b2e9-175feb839700","ios":"levelo://app?vid=b80ee275-2592-4659-b2e9-175feb839700"},"vehicle_type_id":"4","last_reported":1743534507,"current_range_meters":14000,"station_id":"ce4bhu92rcd13ifvqi70","pricing_plan_id":"cebpf4jnsgd1na2vs0mg"},{"bike_id":"c1437b83-a6d5-4049-b07f-efcc02575a94","system_id":"levelo_inurba_marseille","lat":43.28058,"lon":5.40782,"is_reserved":false,"is_disabled":false,"rental_uris":{"android":"levelo://app?vid=c1437b83-a6d5-4049-b07f-efcc02575a94","ios":"levelo://app?vid=c1437b83-a6d5-4049-b07f-efcc02575a94"},"vehicle_type_id":"4","last_reported":1743534507,"current_range_meters":14000,"station_id":"","pricing_plan_id":"cebpf4jnsgd1na2vs0mg"},{"bike_id":"44ffc420-fb00-43ca-84c6-03e543ab1913","system_id":"levelo_inurba_marseille","lat":43.29305,"lon":5.3718,"is_reserved":false,"is_disabled":false,"rental_uris":{"android":"levelo://app?vid=44ffc420-fb00-43ca-84c6-03e543ab1913","ios":"levelo://app?vid=44ffc420-fb00-43ca-84c6-03e543ab1913"},"vehicle_type_id":"4","last_reported":1743534507,"current_range_meters":14000,"station_id":"ce4bgh92rcd13ifvqb40","pricing_plan_id":"cebpf4jnsgd1na2vs0mg"},{"bike_id":"c81287e3-19fe-4e50-b480-ea383988e9c8","system_id":"levelo_inurba_marseille","lat":43.25838,"lon":5.39449,"is_reserved":false,"is_disabled":false,"rental_uris":{"android":"levelo://app?vid=c81287e3-19fe-4e50-b480-ea383988e9c8","ios":"levelo://app?vid=c81287e3-19fe-4e50-b480-ea383988e9c8"},"vehicle_type_id":"4","last_reported":1743534507,"current_range_meters":14000,"station_id":"ce4bhip2rcd13ifvqft0","pricing_plan_id":"cebpf4jnsgd1na2vs0mg"},{"bike_id":"f589c491-61bb-4ca1-aa3e-7e3bb3446950","system_id":"levelo_inurba_marseille","lat":43.23219,"lon":5.3556,"is_reserved":false,"is_disabled":false,"rental_uris":{"android":"levelo://app?vid=f589c491-61bb-4ca1-aa3e-7e3bb3446950","ios":"levelo://app?vid=f589c491-61bb-4ca1-aa3e-7e3bb3446950"},"vehicle_type_id":"4","last_reported":1743534507,"current_range_meters":14000,"station_id":"ce4bhu92rcd13ifvqi70","pricing_plan_id":"cebpf4jnsgd1na2vs0mg"},{"bike_id":"064e515e-30f5-4b8d-8281-4a84086fc9f2","system_id":"levelo_inurba_marseille","lat":43.30428,"lon":5.38892,"is_reserved":false,"is_disabled":false,"rental_uris":{"android":"levelo://app?vid=064e515e-30f5-4b8d-8281-4a84086fc9f2","ios":"levelo://app?vid=064e515e-30f5-4b8d-8281-4a84086fc9f2"},"vehicle_type_id":"4","last_reported":1743534507,"current_range_meters":14000,"station_id":"ce4bgk12rcd13ifvqbi0","pricing_plan_id":"cebpf4jnsgd1na2vs0mg"},{"bike_id":"a406243c-5803-45c5-836d-42fdc3a4310a","system_id":"levelo_inurba_marseille","lat":43.3145,"lon":5.37386,"is_reserved":false,"is_disabled":false,"rental_uris":{"android":"levelo://app?vid=a406243c-5803-45c5-836d-42fdc3a4310a","ios":"levelo://app?vid=a406243c-5803-45c5-836d-42fdc3a4310a"},"vehicle_type_id":"4","last_reported":1743534507,"current_range_meters":14000,"station_id":"","pricing_plan_id":"cebpf4jnsgd1na2vs0mg"},{"bike_id":"9ebf2394-bb54-4972-bde6-2a6a8dfa9819","system_id":"levelo_inurba_marseille","lat":43.25821,"lon":5.39415,"is_reserved":false,"is_disabled":false,"rental_uris":{"android":"levelo://app?vid=9ebf2394-bb54-4972-bde6-2a6a8dfa9819","ios":"levelo://app?vid=9ebf2394-bb54-4972-bde6-2a6a8dfa9819"},"vehicle_type_id":"4","last_reported":1743534507,"current_range_meters":14000,"station_id":"ce4bhip2rcd13ifvqft0","pricing_plan_id":"cebpf4jnsgd1na2vs0mg"},{"bike_id":"019e4e28-a1a2-47df-8fdd-96830370297d","system_id":"levelo_inurba_marseille","lat":43.2916,"lon":5.37151,"is_reserved":false,"is_disabled":false,"rental_uris":{"android":"levelo://app?vid=019e4e28-a1a2-47df-8fdd-96830370297d","ios":"levelo://app?vid=019e4e28-a1a2-47df-8fdd-96830370297d"},"vehicle_type_id":"4","last_reported":1743534507,"current_range_meters":13600,"station_id":"ce4bha92rcd13ifvqeh0","pricing_plan_id":"cebpf4jnsgd1na2vs0mg"},{"bike_id":"0ed80ee8-56b7-4580-8a94-56be39e58fa3","system_id":"levelo_inurba_marseille","lat":43.25574,"lon":5.38235,"is_reserved":false,"is_disabled":false,"rental_uris":{"android":"levelo://app?vid=0ed80ee8-56b7-4580-8a94-56be39e58fa3","ios":"levelo://app?vid=0ed80ee8-56b7-4580-8a94-56be39e58fa3"},"vehicle_type_id":"4","last_reported":1743534507,"current_range_meters":14000,"station_id":"ce4bhih2rcd13ifvqfs0","pricing_plan_id":"cebpf4jnsgd1na2vs0mg"},{"bike_id":"827c34f3-7051-4e89-8ca6-0e22c01c9fc2","system_id":"levelo_inurba_marseille","lat":43.29295,"lon":5.36852,"is_reserved":false,"is_disabled":false,"rental_uris":{"android":"levelo://app?vid=827c34f3-7051-4e89-8ca6-0e22c01c9fc2","ios":"levelo://app?vid=827c34f3-7051-4e89-8ca6-0e22c01c9fc2"},"vehicle_type_id":"4","last_reported":1743534507,"current_range_meters":14400,"station_id":"ce4bhbp2rcd13ifvqesg","pricing_plan_id":"cebpf4jnsgd1na2vs0mg"},{"bike_id":"f55695a6-b65f-4a30-99ab-94b2bfa63268","system_id":"levelo_inurba_marseille","lat":43.23191,"lon":5.35535,"is_reserved":false,"is_disabled":false,"rental_uris":{"android":"levelo://app?vid=f55695a6-b65f-4a30-99ab-94b2bfa63268","ios":"levelo://app?vid=f55695a6-b65f-4a30-99ab-94b2bfa63268"},"vehicle_type_id":"4","last_reported":1743534507,"current_range_meters":14400,"station_id":"ce4bhu92rcd13ifvqi70","pricing_plan_id":"cebpf4jnsgd1na2vs0mg"},{"bike_id":"8e9118c1-2907-46a2-b63b-5db47d7da80b","system_id":"levelo_inurba_marseille","lat":43.287017,"lon":5.373845,"is_reserved":false,"is_disabled":false,"rental_uris":{"android":"levelo://app?vid=8e9118c1-2907-46a2-b63b-5db47d7da80b","ios":"levelo://app?vid=8e9118c1-2907-46a2-b63b-5db47d7da80b"},"vehicle_type_id":"4","last_reported":1743534507,"current_range_meters":14400,"station_id":"ce4bh3p2rcd13ifvqdq0","pricing_plan_id":"cebpf4jnsgd1na2vs0mg"},{"bike_id":"f27fea75-c0ec-46f3-afd7-caabe3619969","system_id":"levelo_inurba_marseille","lat":43.25749,"lon":5.4114,"is_reserved":false,"is_disabled":false,"rental_uris":{"android":"levelo://app?vid=f27fea75-c0ec-46f3-afd7-caabe3619969","ios":"levelo://app?vid=f27fea75-c0ec-46f3-afd7-caabe3619969"},"vehicle_type_id":"4","last_reported":1743534507,"current_range_meters":14400,"station_id":"ce4bhkp2rcd13ifvqgd0","pricing_plan_id":"cebpf4jnsgd1na2vs0mg"},{"bike_id":"75dae32f-059a-4b5b-a5e8-963c6eda2f66","system_id":"levelo_inurba_marseille","lat":43.27514,"lon":5.41031,"is_reserved":false,"is_disabled":false,"rental_uris":{"android":"levelo://app?vid=75dae32f-059a-4b5b-a5e8-963c6eda2f66","ios":"levelo://app?vid=75dae32f-059a-4b5b-a5e8-963c6eda2f66"},"vehicle_type_id":"4","last_reported":1743534507,"current_range_meters":14400,"station_id":"","pricing_plan_id":"cebpf4jnsgd1na2vs0mg"},{"bike_id":"7b869cea-1d61-42d2-b04b-29df5bd7497f","system_id":"levelo_inurba_marseille","lat":43.32124,"lon":5.36783,"is_reserved":false,"is_disabled":false,"rental_uris":{"android":"levelo://app?vid=7b869cea-1d61-42d2-b04b-29df5bd7497f","ios":"levelo://app?vid=7b869cea-1d61-42d2-b04b-29df5bd7497f"},"vehicle_type_id":"4","last_reported":1743534507,"current_range_meters":14800,"station_id":"ce4bhrh2rcd13ifvqhug","pricing_plan_id":"cebpf4jnsgd1na2vs0mg"},{"bike_id":"7be06644-e888-41f2-9c08-173a9a3965bc","system_id":"levelo_inurba_marseille","lat":43.23192,"lon":5.39995,"is_reserved":false,"is_disabled":false,"rental_uris":{"android":"levelo://app?vid=7be06644-e888-41f2-9c08-173a9a3965bc","ios":"levelo://app?vid=7be06644-e888-41f2-9c08-173a9a3965bc"},"vehicle_type_id":"4","last_reported":1743534507,"current_range_meters":14800,"station_id":"ce4bhn12rcd13ifvqgqg","pricing_plan_id":"cebpf4jnsgd1na2vs0mg"},{"bike_id":"b465ce82-d3d5-48ff-a6a0-874e8160d2a2","system_id":"levelo_inurba_marseille","lat":43.28924,"lon":5.36628,"is_reserved":false,"is_disabled":false,"rental_uris":{"android":"levelo://app?vid=b465ce82-d3d5-48ff-a6a0-874e8160d2a2","ios":"levelo://app?vid=b465ce82-d3d5-48ff-a6a0-874e8160d2a2"},"vehicle_type_id":"4","last_reported":1743534507,"current_range_meters":14800,"station_id":"ce4bhap2rcd13ifvqek0","pricing_plan_id":"cebpf4jnsgd1na2vs0mg"},{"bike_id":"64d267a9-f77f-46f7-9279-a4d553f59527","system_id":"levelo_inurba_marseille","lat":43.28602,"lon":5.35066,"is_reserved":false,"is_disabled":false,"rental_uris":{"android":"levelo://app?vid=64d267a9-f77f-46f7-9279-a4d553f59527","ios":"levelo://app?vid=64d267a9-f77f-46f7-9279-a4d553f59527"},"vehicle_type_id":"4","last_reported":1743534507,"current_range_meters":14800,"station_id":"ce4bhch2rcd13ifvqeug","pricing_plan_id":"cebpf4jnsgd1na2vs0mg"},{"bike_id":"d76e78a4-cf4c-4513-84b9-0bd7b639a2d3","system_id":"levelo_inurba_marseille","lat":43.2963,"lon":5.40599,"is_reserved":false,"is_disabled":false,"rental_uris":{"android":"levelo://app?vid=d76e78a4-cf4c-4513-84b9-0bd7b639a2d3","ios":"levelo://app?vid=d76e78a4-cf4c-4513-84b9-0bd7b639a2d3"},"vehicle_type_id":"4","last_reported":1743534507,"current_range_meters":14800,"station_id":"ce4bh0h2rcd13ifvqd60","pricing_plan_id":"cebpf4jnsgd1na2vs0mg"},{"bike_id":"d7045921-f1e9-4f00-924b-59a57bde6ed8","system_id":"levelo_inurba_marseille","lat":43.31312,"lon":5.39605,"is_reserved":false,"is_disabled":false,"rental_uris":{"android":"levelo://app?vid=d7045921-f1e9-4f00-924b-59a57bde6ed8","ios":"levelo://app?vid=d7045921-f1e9-4f00-924b-59a57bde6ed8"},"vehicle_type_id":"4","last_reported":1743534507,"current_range_meters":14800,"station_id":"ce4bgvp2rcd13ifvqcu0","pricing_plan_id":"cebpf4jnsgd1na2vs0mg"},{"bike_id":"4a60d82a-6972-439f-ad55-36575230fa50","system_id":"levelo_inurba_marseille","lat":43.28691,"lon":5.37387,"is_reserved":false,"is_disabled":false,"rental_uris":{"android":"levelo://app?vid=4a60d82a-6972-439f-ad55-36575230fa50","ios":"levelo://app?vid=4a60d82a-6972-439f-ad55-36575230fa50"},"vehicle_type_id":"4","last_reported":1743534507,"current_range_meters":15200,"station_id":"ce4bh3p2rcd13ifvqdq0","pricing_plan_id":"cebpf4jnsgd1na2vs0mg"},{"bike_id":"facaca46-7e62-4a2e-ab17-cc09f773590c","system_id":"levelo_inurba_marseille","lat":43.27622,"lon":5.360893,"is_reserved":false,"is_disabled":false,"rental_uris":{"android":"levelo://app?vid=facaca46-7e62-4a2e-ab17-cc09f773590c","ios":"levelo://app?vid=facaca46-7e62-4a2e-ab17-cc09f773590c"},"vehicle_type_id":"4","last_reported":1743534507,"current_range_meters":15200,"station_id":"ce4bgj92rcd13ifvqbe0","pricing_plan_id":"cebpf4jnsgd1na2vs0mg"},{"bike_id":"f3872a2d-f77f-4681-8492-fce0edf17c80","system_id":"levelo_inurba_marseille","lat":43.283404,"lon":5.385086,"is_reserved":false,"is_disabled":false,"rental_uris":{"android":"levelo://app?vid=f3872a2d-f77f-4681-8492-fce0edf17c80","ios":"levelo://app?vid=f3872a2d-f77f-4681-8492-fce0edf17c80"},"vehicle_type_id":"4","last_reported":1743534507,"current_range_meters":15200,"station_id":"ce4bhhp2rcd13ifvqfm0","pricing_plan_id":"cebpf4jnsgd1na2vs0mg"},{"bike_id":"6dd90892-a47d-462a-993e-a47e7d132155","system_id":"levelo_inurba_marseille","lat":43.27996,"lon":5.41661,"is_reserved":false,"is_disabled":false,"rental_uris":{"android":"levelo://app?vid=6dd90892-a47d-462a-993e-a47e7d132155","ios":"levelo://app?vid=6dd90892-a47d-462a-993e-a47e7d132155"},"vehicle_type_id":"4","last_reported":1743534507,"current_range_meters":15200,"station_id":"ce4bho12rcd13ifvqh1g","pricing_plan_id":"cebpf4jnsgd1na2vs0mg"},{"bike_id":"c1550410-dc28-49b7-aee9-9f6ea530dcf6","system_id":"levelo_inurba_marseille","lat":43.30095,"lon":5.39105,"is_reserved":false,"is_disabled":false,"rental_uris":{"android":"levelo://app?vid=c1550410-dc28-49b7-aee9-9f6ea530dcf6","ios":"levelo://app?vid=c1550410-dc28-49b7-aee9-9f6ea530dcf6"},"vehicle_type_id":"4","last_reported":1743534507,"current_range_meters":15200,"station_id":"ce4bh192rcd13ifvqdb0","pricing_plan_id":"cebpf4jnsgd1na2vs0mg"},{"bike_id":"d239b0b5-a2d0-4e84-945d-fd7291dce43c","system_id":"levelo_inurba_marseille","lat":43.286967,"lon":5.37401,"is_reserved":false,"is_disabled":false,"rental_uris":{"android":"levelo://app?vid=d239b0b5-a2d0-4e84-945d-fd7291dce43c","ios":"levelo://app?vid=d239b0b5-a2d0-4e84-945d-fd7291dce43c"},"vehicle_type_id":"4","last_reported":1743534507,"current_range_meters":15200,"station_id":"ce4bh3p2rcd13ifvqdq0","pricing_plan_id":"cebpf4jnsgd1na2vs0mg"},{"bike_id":"7510ac63-dac2-4973-b271-daa982d63b9c","system_id":"levelo_inurba_marseille","lat":43.27835,"lon":5.39209,"is_reserved":false,"is_disabled":false,"rental_uris":{"android":"levelo://app?vid=7510ac63-dac2-4973-b271-daa982d63b9c","ios":"levelo://app?vid=7510ac63-dac2-4973-b271-daa982d63b9c"},"vehicle_type_id":"4","last_reported":1743534507,"current_range_meters":15200,"station_id":"ce4bhjp2rcd13ifvqga0","pricing_plan_id":"cebpf4jnsgd1na2vs0mg"},{"bike_id":"a680fcef-3560-458d-9c46-af5039ad5317","system_id":"levelo_inurba_marseille","lat":43.26571,"lon":5.3731,"is_reserved":false,"is_disabled":false,"rental_uris":{"android":"levelo://app?vid=a680fcef-3560-458d-9c46-af5039ad5317","ios":"levelo://app?vid=a680fcef-3560-458d-9c46-af5039ad5317"},"vehicle_type_id":"4","last_reported":1743534507,"current_range_meters":15200,"station_id":"ce4bhg12rcd13ifvqf70","pricing_plan_id":"cebpf4jnsgd1na2vs0mg"},{"bike_id":"51259004-1185-4c13-9419-d9e423c644bc","system_id":"levelo_inurba_marseille","lat":43.29531,"lon":5.39041,"is_reserved":false,"is_disabled":false,"rental_uris":{"android":"levelo://app?vid=51259004-1185-4c13-9419-d9e423c644bc","ios":"levelo://app?vid=51259004-1185-4c13-9419-d9e423c644bc"},"vehicle_type_id":"4","last_reported":1743534507,"current_range_meters":15200,"station_id":"ce4bh3p2rcd13ifvqdp0","pricing_plan_id":"cebpf4jnsgd1na2vs0mg"},