{"last_updated":1712412340,"ttl":30,"version":"2.2","data":{"bikes":[{"bike_id":"f8cb903f-2a0a-4087-8295-1e0c2ed34c4e","system_id":"levelo_inurba_marseille","lat":43.31341,"lon":5.367098,"is_reserved":false,"is_disabled":false,"rental_uris":{"android":"levelo://app?vid=f8cb903f-2a0a-4087-8295-1e0c2ed34c4e","ios":"levelo://app?vid=f8cb903f-2a0a-4087-8295-1e0c2ed34c4e"},"vehicle_type_id":"4","last_reported":1712412341,"current_range_meters":26800,"station_id":"ce4bgr92rcd13ifvqc6g","pricing_plan_id":"cebpf4jnsgd1na2vs0mg"},{"bike_id":"b50177d5-7f78-46b7-b49a-dd6134763460","system_id":"levelo_inurba_marseille","lat":43.31495,"lon":5.37307,"is_reserved":false,"is_disabled":false,"rental_uris":{"android":"levelo://app?vid=b50177d5-7f78-46b7-b49a-dd6134763460","ios":"levelo://app?vid=b50177d5-7f78-46b7-b49a-dd6134763460"},"vehicle_type_id":"4","last_reported":1712412341,"current_range_meters":0,"station_id":"ce4bgt12rcd13ifvqcd0","pricing_plan_id":"cebpf4jnsgd1na2vs0mg"},{"bike_id":"93148525-d5ac-44a2-8251-9de917ab2a25","system_id":"levelo_inurba_marseille","lat":43.30549,"lon":5.36552,"is_reserved":false,"is_disabled":false,"rental_uris":{"android":"levelo://app?vid=93148525-d5ac-44a2-8251-9de917ab2a25","ios":"levelo://app?vid=93148525-d5ac-44a2-8251-9de917ab2a25"},"vehicle_type_id":"4","last_reported":1712412341,"current_range_meters":0,"station_id":"ce4bgs12rcd13ifvqcag","pricing_plan_id":"cebpf4jnsgd1na2vs0mg"},{"bike_id":"e1c981e1-25ee-47a4-99ce-15225f8f8260","system_id":"levelo_inurba_marseille","lat":43.258224,"lon":5.394369,"is_reserved":false,"is_disabled":false,"rental_uris":{"android":"levelo://app?vid=e1c981e1-25ee-47a4-99ce-15225f8f8260","ios":"levelo://app?vid=e1c981e1-25ee-47a4-99ce-15225f8f8260"},"vehicle_type_id":"4","last_reported":1712412341,"current_range_meters":1200,"station_id":"ce4bhip2rcd13ifvqft0","pricing_plan_id":"cebpf4jnsgd1na2vs0mg"},{"bike_id":"6dd82c46-257d-41cb-8a8d-2879af4ead35","system_id":"levelo_inurba_marseille","lat":43.307945,"lon":5.376487,"is_reserved":false,"is_disabled":false,"rental_uris":{"android":"levelo://app?vid=6dd82c46-257d-41cb-8a8d-2879af4ead35","ios":"levelo://app?vid=6dd82c46-257d-41cb-8a8d-2879af4ead35"},"vehicle_type_id":"4","last_reported":1712412341,"current_range_meters":9600,"station_id":"ce4bgv92rcd13ifvqcq0","pricing_plan_id":"cebpf4jnsgd1na2vs0mg"},{"bike_id":"3cab3d56-9bb4-4d64-b8f4-fa041e25b7dd","system_id":"levelo_inurba_marseille","lat":43.311131,"lon":5.377651,"is_reserved":false,"is_disabled":false,"rental_uris":{"android":"levelo://app?vid=3cab3d56-9bb4-4d64-b8f4-fa041e25b7dd","ios":"levelo://app?vid=3cab3d56-9bb4-4d64-b8f4-fa041e25b7dd"},"vehicle_type_id":"4","last_reported":1712412341,"current_range_meters":0,"station_id":"ce4bgt92rcd13ifvqcg0","pricing_plan_id":"cebpf4jnsgd1na2vs0mg"},{"bike_id":"bbfed310-f5ca-41c8-bf3a-f83cd6959697","system_id":"levelo_inurba_marseille","lat":43.313254,"lon":5.37881,"is_reserved":false,"is_disabled":false,"rental_uris":{"android":"levelo://app?vid=bbfed310-f5ca-41c8-bf3a-f83cd6959697","ios":"levelo://app?vid=bbfed310-f5ca-41c8-bf3a-f83cd6959697"},"vehicle_type_id":"4","last_reported":1712412341,"current_range_meters":1200,"station_id":"","pricing_plan_id":"cebpf4jnsgd1na2vs0mg"},{"bike_id":"1b5698ac-89dd-4b1f-ae01-550782a39766","system_id":"levelo_inurba_marseille","lat":43.30513,"lon":5.37343,"is_reserved":false,"is_disabled":false,"rental_uris":{"android":"levelo://app?vid=1b5698ac-89dd-4b1f-ae01-550782a39766","ios":"levelo://app?vid=1b5698ac-89dd-4b1f-ae01-550782a39766"},"vehicle_type_id":"4","last_reported":1712412341,"current_range_meters":0,"station_id":"","pricing_plan_id":"cebpf4jnsgd1na2vs0mg"},{"bike_id":"30bdef3c-075d-4434-9663-c36f790b4b63","system_id":"levelo_inurba_marseille","lat":43.303046,"lon":5.368981,"is_reserved":false,"is_disabled":false,"rental_uris":{"android":"levelo://app?vid=30bdef3c-075d-4434-9663-c36f790b4b63","ios":"levelo://app?vid=30bdef3c-075d-4434-9663-c36f790b4b63"},"vehicle_type_id":"4","last_reported":1712412341,"current_range_meters":0,"station_id":"ce4bgqh2rcd13ifvqc5g","pricing_plan_id":"cebpf4jnsgd1na2vs0mg"},{"bike_id":"a168d3da-970f-4970-a93d-057e6d5cad84","system_id":"levelo_inurba_marseille","lat":43.3081,"lon":5.38155,"is_reserved":false,"is_disabled":false,"rental_uris":{"android":"levelo://app?vid=a168d3da-970f-4970-a93d-057e6d5cad84","ios":"levelo://app?vid=a168d3da-970f-4970-a93d-057e6d5cad84"},"vehicle_type_id":"4","last_reported":1712412341,"current_range_meters":8000,"station_id":"ce4bgt12rcd13ifvqce0","pricing_plan_id":"cebpf4jnsgd1na2vs0mg"},{"bike_id":"087c72fb-befb-4599-bb29-66d5ee3b0762","system_id":"levelo_inurba_marseille","lat":43.304606,"lon":5.379026,"is_reserved":false,"is_disabled":false,"rental_uris":{"android":"levelo://app?vid=087c72fb-befb-4599-bb29-66d5ee3b0762","ios":"levelo://app?vid=087c72fb-befb-4599-bb29-66d5ee3b0762"},"vehicle_type_id":"4","last_reported":1712412341,"current_range_meters":4800,"station_id":"ce4bgup2rcd13ifvqcn0","pricing_plan_id":"cebpf4jnsgd1na2vs0mg"},{"bike_id":"32b7a2d7-d304-4b5c-b97b-d6f9fda4565f","system_id":"levelo_inurba_marseille","lat":43.324771,"lon":5.36557,"is_reserved":false,"is_disabled":false,"rental_uris":{"android":"levelo://app?vid=32b7a2d7-d304-4b5c-b97b-d6f9fda4565f","ios":"levelo://app?vid=32b7a2d7-d304-4b5c-b97b-d6f9fda4565f"},"vehicle_type_id":"4","last_reported":1712412341,"current_range_meters":2000,"station_id":"ce4bhs12rcd13ifvqhvg","pricing_plan_id":"cebpf4jnsgd1na2vs0mg"},{"bike_id":"ed1b50d7-16ab-4f29-a8af-14b173f1b067","system_id":"levelo_inurba_marseille","lat":43.310804,"lon":5.38359,"is_reserved":false,"is_disabled":false,"rental_uris":{"android":"levelo://app?vid=ed1b50d7-16ab-4f29-a8af-14b173f1b067","ios":"levelo://app?vid=ed1b50d7-16ab-4f29-a8af-14b173f1b067"},"vehicle_type_id":"4","last_reported":1712412341,"current_range_meters":0,"station_id":"ce4bgv92rcd13ifvqcr0","pricing_plan_id":"cebpf4jnsgd1na2vs0mg"},{"bike_id":"83de497e-0e5a-41db-b1e7-206831e58c10","system_id":"levelo_inurba_marseille","lat":43.30143,"lon":5.37413,"is_reserved":false,"is_disabled":false,"rental_uris":{"android":"levelo://app?vid=83de497e-0e5a-41db-b1e7-206831e58c10","ios":"levelo://app?vid=83de497e-0e5a-41db-b1e7-206831e58c10"},"vehicle_type_id":"4","last_reported":1712412341,"current_range_meters":25200,"station_id":"ce4bgs92rcd13ifvqcc0","pricing_plan_id":"cebpf4jnsgd1na2vs0mg"},{"bike_id":"d3b8de65-85f8-46e2-a1fb-106263156db0","system_id":"levelo_inurba_marseille","lat":43.319935,"lon":5.381699,"is_reserved":false,"is_disabled":false,"rental_uris":{"android":"levelo://app?vid=d3b8de65-85f8-46e2-a1fb-106263156db0","ios":"levelo://app?vid=d3b8de65-85f8-46e2-a1fb-106263156db0"},"vehicle_type_id":"4","last_reported":1712412341,"current_range_meters":30400,"station_id":"ce4bhr12rcd13ifvqhpg","pricing_plan_id":"cebpf4jnsgd1na2vs0mg"},{"bike_id":"e3e17167-b7d0-4053-81b1-923db457dcf2","system_id":"levelo_inurba_marseille","lat":43.319935,"lon":5.381699,"is_reserved":false,"is_disabled":false,"rental_uris":{"android":"levelo://app?vid=e3e17167-b7d0-4053-81b1-923db457dcf2","ios":"levelo://app?vid=e3e17167-b7d0-4053-81b1-923db457dcf2"},"vehicle_type_id":"4","last_reported":1712412341,"current_range_meters":25600,"station_id":"ce4bhr12rcd13ifvqhpg","pricing_plan_id":"cebpf4jnsgd1na2vs0mg"},{"bike_id":"6920eb6a-6545-46c8-ab6f-a7e0189a9542","system_id":"levelo_inurba_marseille","lat":43.319954,"lon":5.381507,"is_reserved":false,"is_disabled":false,"rental_uris":{"android":"levelo://app?vid=6920eb6a-6545-46c8-ab6f-a7e0189a9542","ios":"levelo://app?vid=6920eb6a-6545-46c8-ab6f-a7e0189a9542"},"vehicle_type_id":"4","last_reported":1712412341,"current_range_meters":4000,"station_id":"ce4bhr12rcd13ifvqhpg","pricing_plan_id":"cebpf4jnsgd1na2vs0mg"},{"bike_id":"7cb628a8-72fe-4a73-b485-08088c96862b","system_id":"levelo_inurba_marseille","lat":43.31018,"lon":5.384223,"is_reserved":false,"is_disabled":false,"rental_uris":{"android":"levelo://app?vid=7cb628a8-72fe-4a73-b485-08088c96862b","ios":"levelo://app?vid=7cb628a8-72fe-4a73-b485-08088c96862b"},"vehicle_type_id":"4","last_reported":1712412341,"current_range_meters":20000,"station_id":"","pricing_plan_id":"cebpf4jnsgd1na2vs0mg"},{"bike_id":"43417818-fa69-49f0-ba9a-0ddacb4f7346","system_id":"levelo_inurba_marseille","lat":43.313693,"lon":5.385007,"is_reserved":false,"is_disabled":false,"rental_uris":{"android":"levelo://app?vid=43417818-fa69-49f0-ba9a-0ddacb4f7346","ios":"levelo://app?vid=43417818-fa69-49f0-ba9a-0ddacb4f7346"},"vehicle_type_id":"4","last_reported":1712412341,"current_range_meters":18400,"station_id":"ce4bgt92rcd13ifvqcf0","pricing_plan_id":"cebpf4jnsgd1na2vs0mg"},{"bike_id":"6898bbdc-6c20-48cc-a89c-944722a0926f","system_id":"levelo_inurba_marseille","lat":43.299222,"lon":5.365554,"is_reserved":false,"is_disabled":false,"rental_uris":{"android":"levelo://app?vid=6898bbdc-6c20-48cc-a89c-944722a0926f","ios":"levelo://app?vid=6898bbdc-6c20-48cc-a89c-944722a0926f"},"vehicle_type_id":"4","last_reported":1712412341,"current_range_meters":24800,"station_id":"ce4bgm92rcd13ifvqbr0","pricing_plan_id":"cebpf4jnsgd1na2vs0mg"},{"bike_id":"336a57b7-4cb3-48a3-bf17-1d7c48311088","system_id":"levelo_inurba_marseille","lat":43.299724,"lon":5.371829,"is_reserved":false,"is_disabled":false,"rental_uris":{"android":"levelo://app?vid=336a57b7-4cb3-48a3-bf17-1d7c48311088","ios":"levelo://app?vid=336a57b7-4cb3-48a3-bf17-1d7c48311088"},"vehicle_type_id":"4","last_reported":1712412341,"current_range_meters":0,"station_id":"ce4bgr92rcd13ifvqc7g","pricing_plan_id":"cebpf4jnsgd1na2vs0mg"},{"bike_id":"22923ea2-9f23-48b1-9d87-983da45bce23","system_id":"levelo_inurba_marseille","lat":43.298433,"lon":5.362774,"is_reserved":false,"is_disabled":false,"rental_uris":{"android":"levelo://app?vid=22923ea2-9f23-48b1-9d87-983da45bce23","ios":"levelo://app?vid=22923ea2-9f23-48b1-9d87-983da45bce23"},"vehicle_type_id":"4","last_reported":1712412341,"current_range_meters":0,"station_id":"ce4bgpp2rcd13ifvqc3g","pricing_plan_id":"cebpf4jnsgd1na2vs0mg"},{"bike_id":"6bb80133-cfc2-4d40-9eed-f729492b38c6","system_id":"levelo_inurba_marseille","lat":43.299243,"lon":5.374807,"is_reserved":false,"is_disabled":false,"rental_uris":{"android":"levelo://app?vid=6bb80133-cfc2-4d40-9eed-f729492b38c6","ios":"levelo://app?vid=6bb80133-cfc2-4d40-9eed-f729492b38c6"},"vehicle_type_id":"4","last_reported":1712412341,"current_range_meters":29600,"station_id":"ce4bgjh2rcd13ifvqbg0","pricing_plan_id":"cebpf4jnsgd1na2vs0mg"},{"bike_id":"084c9f69-5bd2-4136-b25e-0f0363646b3d","system_id":"levelo_inurba_marseille","lat":43.298433,"lon":5.362774,"is_reserved":false,"is_disabled":false,"rental_uris":{"android":"levelo://app?vid=084c9f69-5bd2-4136-b25e-0f0363646b3d","ios":"levelo://app?vid=084c9f69-5bd2-4136-b25e-0f0363646b3d"},"vehicle_type_id":"4","last_reported":1712412341,"current_range_meters":23200,"station_id":"ce4bgpp2rcd13ifvqc3g","pricing_plan_id":"cebpf4jnsgd1na2vs0mg"},{"bike_id":"57f65d64-78c3-41be-bf73-ddd09e22c956","system_id":"levelo_inurba_marseille","lat":43.311722,"lon":5.387247,"is_reserved":false,"is_disabled":false,"rental_uris":{"android":"levelo://app?vid=57f65d64-78c3-41be-bf73-ddd09e22c956","ios":"levelo://app?vid=57f65d64-78c3-41be-bf73-ddd09e22c956"},"vehicle_type_id":"4","last_reported":1712412341,"current_range_meters":27200,"station_id":"ce4bgv12rcd13ifvqcp0","pricing_plan_id":"cebpf4jnsgd1na2vs0mg"},{"bike_id":"18651e73-a960-43da-bdae-371146c35a92","system_id":"levelo_inurba_marseille","lat":43.322872,"lon":5.382756,"is_reserved":false,"is_disabled":false,"rental_uris":{"android":"levelo://app?vid=18651e73-a960-43da-bdae-371146c35a92","ios":"levelo://app?vid=18651e73-a960-43da-bdae-371146c35a92"},"vehicle_type_id":"4","last_reported":1712412341,"current_range_meters":31200,"station_id":"ce4bhr12rcd13ifvqhqg","pricing_plan_id":"cebpf4jnsgd1na2vs0mg"},{"bike_id":"79a09dc1-a136-4553-b035-ca9b20a658e5","system_id":"levelo_inurba_marseille","lat":43.30181,"lon":5.3818,"is_reserved":false,"is_disabled":false,"rental_uris":{"android":"levelo://app?vid=79a09dc1-a136-4553-b035-ca9b20a658e5","ios":"levelo://app?vid=79a09dc1-a136-4553-b035-ca9b20a658e5"},"vehicle_type_id":"4","last_reported":1712412341,"current_range_meters":12800,"station_id":"","pricing_plan_id":"cebpf4jnsgd1na2vs0mg"},{"bike_id":"02d4867d-f173-4ac0-b92e-b467233c65b5","system_id":"levelo_inurba_marseille","lat":43.29709,"lon":5.36622,"is_reserved":false,"is_disabled":false,"rental_uris":{"android":"levelo://app?vid=02d4867d-f173-4ac0-b92e-b467233c65b5","ios":"levelo://app?vid=02d4867d-f173-4ac0-b92e-b467233c65b5"},"vehicle_type_id":"4","last_reported":1712412341,"current_range_meters":11200,"station_id":"ce4bgn12rcd13ifvqbt0","pricing_plan_id":"cebpf4jnsgd1na2vs0mg"},{"bike_id":"e836db59-4131-42e9-b137-01c1f901336d","system_id":"levelo_inurba_marseille","lat":43.29599,"lon":5.36865,"is_reserved":false,"is_disabled":false,"rental_uris":{"android":"levelo://app?vid=e836db59-4131-42e9-b137-01c1f901336d","ios":"levelo://app?vid=e836db59-4131-42e9-b137-01c1f901336d"},"vehicle_type_id":"4","last_reported":1712412341,"current_range_meters":0,"station_id":"ce4bhb92rcd13ifvqen0","pricing_plan_id":"cebpf4jnsgd1na2vs0mg"},{"bike_id":"4e8c145a-72ff-42d3-8c67-e624e9447107","system_id":"levelo_inurba_marseille","lat":43.296131,"lon":5.370791,"is_reserved":false,"is_disabled":false,"rental_uris":{"android":"levelo://app?vid=4e8c145a-72ff-42d3-8c67-e624e9447107","ios":"levelo://app?vid=4e8c145a-72ff-42d3-8c67-e624e9447107"},"vehicle_type_id":"4","last_reported":1712412341,"current_range_meters":11600,"station_id":"ce4bgnh2rcd13ifvqc0g","pricing_plan_id":"cebpf4jnsgd1na2vs0mg"},{"bike_id":"071b048f-c05c-470c-8607-59824e889b97","system_id":"levelo_inurba_marseille","lat":43.29625,"lon":5.37163,"is_reserved":false,"is_disabled":false,"rental_uris":{"android":"levelo://app?vid=071b048f-c05c-470c-8607-59824e889b97","ios":"levelo://app?vid=071b048f-c05c-470c-8607-59824e889b97"},"vehicle_type_id":"4","last_reported":1712412341,"current_range_meters":0,"station_id":"ce4bgnh2rcd13ifvqc0g","pricing_plan_id":"cebpf4jnsgd1na2vs0mg"},{"bike_id":"c79c5fbd-1f04-4b84-b1de-700632959a73","system_id":"levelo_inurba_marseille","lat":43.296129,"lon":5.370777,"is_reserved":false,"is_disabled":false,"rental_uris":{"android":"levelo://app?vid=c79c5fbd-1f04-4b84-b1de-700632959a73","ios":"levelo://app?vid=c79c5fbd-1f04-4b84-b1de-700632959a73"},"vehicle_type_id":"4","last_reported":1712412341,"current_range_meters":0,"station_id":"ce4bgnh2rcd13ifvqc0g","pricing_plan_id":"cebpf4jnsgd1na2vs0mg"},{"bike_id":"6b9106ea-f8e6-4744-8354-23c3a7b9a30e","system_id":"levelo_inurba_marseille","lat":43.29573,"lon":5.367355,"is_reserved":false,"is_disabled":false,"rental_uris":{"android":"levelo://app?vid=6b9106ea-f8e6-4744-8354-23c3a7b9a30e","ios":"levelo://app?vid=6b9106ea-f8e6-4744-8354-23c3a7b9a30e"},"vehicle_type_id":"4","last_reported":1712412341,"current_range_meters":12400,"station_id":"ce4bgph2rcd13ifvqc2g","pricing_plan_id":"cebpf4jnsgd1na2vs0mg"},{"bike_id":"51ac8d4a-4c0a-4176-9fc9-20ce96b5a02e","system_id":"levelo_inurba_marseille","lat":43.305712,"lon":5.365641,"is_reserved":false,"is_disabled":false,"rental_uris":{"android":"levelo://app?vid=51ac8d4a-4c0a-4176-9fc9-20ce96b5a02e","ios":"levelo://app?vid=51ac8d4a-4c0a-4176-9fc9-20ce96b5a02e"},"vehicle_type_id":"4","last_reported":1712412341,"current_range_meters":11600,"station_id":"ce4bgs12rcd13ifvqcag","pricing_plan_id":"cebpf4jnsgd1na2vs0mg"},{"bike_id":"24a796bd-7b5d-42ee-bd93-f0f40f393dab","system_id":"levelo_inurba_marseille","lat":43.299028,"lon":5.381509,"is_reserved":false,"is_disabled":false,"rental_uris":{"android":"levelo://app?vid=24a796bd-7b5d-42ee-bd93-f0f40f393dab","ios":"levelo://app?vid=24a796bd-7b5d-42ee-bd93-f0f40f393dab"},"vehicle_type_id":"4","last_reported":1712412341,"current_range_meters":28800,"station_id":"ce4bgj12rcd13ifvqbc0","pricing_plan_id":"cebpf4jnsgd1na2vs0mg"},{"bike_id":"b9e0915c-6002-4368-89af-c27ea8fd6b24","system_id":"levelo_inurba_marseille","lat":43.309589,"lon":5.390258,"is_reserved":false,"is_disabled":false,"rental_uris":{"android":"levelo://app?vid=b9e0915c-6002-4368-89af-c27ea8fd6b24","ios":"levelo://app?vid=b9e0915c-6002-4368-89af-c27ea8fd6b24"},"vehicle_type_id":"4","last_reported":1712412341,"current_range_meters":3200,"station_id":"ce4bgup2rcd13ifvqco0","pricing_plan_id":"cebpf4jnsgd1na2vs0mg"},{"bike_id":"c0f35902-8dde-449e-9228-1132b2cdbd3d","system_id":"levelo_inurba_marseille","lat":43.309589,"lon":5.390258,"is_reserved":false,"is_disabled":false,"rental_uris":{"android":"levelo://app?vid=c0f35902-8dde-449e-9228-1132b2cdbd3d","ios":"levelo://app?vid=c0f35902-8dde-449e-9228-1132b2cdbd3d"},"vehicle_type_id":"4","last_reported":1712412341,"current_range_meters":14800,"station_id":"ce4bgup2rcd13ifvqco0","pricing_plan_id":"cebpf4jnsgd1na2vs0mg"},{"bike_id":"ddfe8b34-b984-4980-88c9-504723e460a5","system_id":"levelo_inurba_marseille","lat":43.317557,"lon":5.390173,"is_reserved":false,"is_disabled":false,"rental_uris":{"android":"levelo://app?vid=ddfe8b34-b984-4980-88c9-504723e460a5","ios":"levelo://app?vid=ddfe8b34-b984-4980-88c9-504723e460a5"},"vehicle_type_id":"4","last_reported":1712412341,"current_range_meters":28400,"station_id":"ce4bhqp2rcd13ifvqhng","pricing_plan_id":"cebpf4jnsgd1na2vs0mg"},{"bike_id":"3b829895-eea0-43aa-900b-e3afa20a292c","system_id":"levelo_inurba_marseille","lat":43.317557,"lon":5.390173,"is_reserved":false,"is_disabled":false,"rental_uris":{"android":"levelo://app?vid=3b829895-eea0-43aa-900b-e3afa20a292c","ios":"levelo://app?vid=3b829895-eea0-43aa-900b-e3afa20a292c"},"vehicle_type_id":"4","last_reported":1712412341,"current_range_meters":18400,"station_id":"ce4bhqp2rcd13ifvqhng","pricing_plan_id":"cebpf4jnsgd1na2vs0mg"},{"bike_id":"0f844f6f-efb7-492d-8293-572f6dffec35","system_id":"levelo_inurba_marseille","lat":43.317557,"lon":5.390173,"is_reserved":false,"is_disabled":false,"rental_uris":{"android":"levelo://app?vid=0f844f6f-efb7-492d-8293-572f6dffec35","ios":"levelo://app?vid=0f844f6f-efb7-492d-8293-572f6dffec35"},"vehicle_type_id":"4","last_reported":1712412341,"current_range_meters":9200,"station_id":"ce4bhqp2rcd13ifvqhng","pricing_plan_id":"cebpf4jnsgd1na2vs0mg"},{"bike_id":"baefa566-b008-497a-96a5-88e607af3af4","system_id":"levelo_inurba_marseille","lat":43.317557,"lon":5.390173,"is_reserved":false,"is_disabled":false,"rental_uris":{"android":"levelo://app?vid=baefa566-b008-497a-96a5-88e607af3af4","ios":"levelo://app?vid=baefa566-b008-497a-96a5-88e607af3af4"},"vehicle_type_id":"4","last_reported":1712412341,"current_range_meters":12000,"station_id":"ce4bhqp2rcd13ifvqhng","pricing_plan_id":"cebpf4jnsgd1na2vs0mg"},{"bike_id":"3bb369b2-dce5-41aa-bcfc-b91a8e98a9e8","system_id":"levelo_inurba_marseille","lat":43.295748,"lon":5.37522,"is_reserved":false,"is_disabled":false,"rental_uris":{"android":"levelo://app?vid=3bb369b2-dce5-41aa-bcfc-b91a8e98a9e8","ios":"levelo://app?vid=3bb369b2-dce5-41aa-bcfc-b91a8e98a9e8"},"vehicle_type_id":"4","last_reported":1712412341,"current_range_meters":0,"station_id":"ce4bgh92rcd13ifvqb50","pricing_plan_id":"cebpf4jnsgd1na2vs0mg"},{"bike_id":"f5d611ae-ce4a-427c-9347-f9b5e9c8defd","system_id":"levelo_inurba_marseille","lat":43.295798,"lon":5.375062,"is_reserved":false,"is_disabled":false,"rental_uris":{"android":"levelo://app?vid=f5d611ae-ce4a-427c-9347-f9b5e9c8defd","ios":"levelo://app?vid=f5d611ae-ce4a-427c-9347-f9b5e9c8defd"},"vehicle_type_id":"4","last_reported":1712412341,"current_range_meters":4800,"station_id":"ce4bgh92rcd13ifvqb50","pricing_plan_id":"cebpf4jnsgd1na2vs0mg"},{"bike_id":"1fab5c46-0249-45d0-b66d-53e023628c25","system_id":"levelo_inurba_marseille","lat":43.295748,"lon":5.37522,"is_reserved":false,"is_disabled":false,"rental_uris":{"android":"levelo://app?vid=1fab5c46-0249-45d0-b66d-53e023628c25","ios":"levelo://app?vid=1fab5c46-0249-45d0-b66d-53e023628c25"},"vehicle_type_id":"4","last_reported":1712412341,"current_range_meters":0,"station_id":"ce4bgh92rcd13ifvqb50","pricing_plan_id":"cebpf4jnsgd1na2vs0mg"},{"bike_id":"6a9c0f9b-77af-4ca8-93bd-558710f7a8f2","system_id":"levelo_inurba_marseille","lat":43.304274,"lon":5.388873,"is_reserved":false,"is_disabled":false,"rental_uris":{"android":"levelo://app?vid=6a9c0f9b-77af-4ca8-93bd-558710f7a8f2","ios":"levelo://app?vid=6a9c0f9b-77af-4ca8-93bd-558710f7a8f2"},"vehicle_type_id":"4","last_reported":1712412341,"current_range_meters":18800,"station_id":"ce4bgk12rcd13ifvqbi0","pricing_plan_id":"cebpf4jnsgd1na2vs0mg"},{"bike_id":"296249bf-e7f8-4617-be16-4597bed69748","system_id":"levelo_inurba_marseille","lat":43.317557,"lon":5.390173,"is_reserved":false,"is_disabled":false,"rental_uris":{"android":"levelo://app?vid=296249bf-e7f8-4617-be16-4597bed69748","ios":"levelo://app?vid=296249bf-e7f8-4617-be16-4597bed69748"},"vehicle_type_id":"4","last_reported":1712412341,"current_range_meters":12400,"station_id":"ce4bhqp2rcd13ifvqhng","pricing_plan_id":"cebpf4jnsgd1na2vs0mg"},{"bike_id":"6801dc56-1b61-4e5c-ae8c-4b99941fcf31","system_id":"levelo_inurba_marseille","lat":43.29621,"lon":5.3772,"is_reserved":false,"is_disabled":false,"rental_uris":{"android":"levelo://app?vid=6801dc56-1b61-4e5c-ae8c-4b99941fcf31","ios":"levelo://app?vid=6801dc56-1b61-4e5c-ae8c-4b99941fcf31"},"vehicle_type_id":"4","last_reported":1712412341,"current_range_meters":0,"station_id":"ce4bgi92rcd13ifvqb90","pricing_plan_id":"cebpf4jnsgd1na2vs0mg"},{"bike_id":"9747e17f-2160-4259-a864-82e14f06d429","system_id":"levelo_inurba_marseille","lat":43.295331,"lon":5.375035,"is_reserved":false,"is_disabled":false,"rental_uris":{"android":"levelo://app?vid=9747e17f-2160-4259-a864-82e14f06d429","ios":"levelo://app?vid=9747e17f-2160-4259-a864-82e14f06d429"},"vehicle_type_id":"4","last_reported":1712412341,"current_range_meters":0,"station_id":"ce4bgkp2rcd13ifvqbmg","pricing_plan_id":"cebpf4jnsgd1na2vs0mg"},{"bike_id":"9e5c2a3d-b8d4-4b7b-a81b-1943205758bf","system_id":"levelo_inurba_marseille","lat":43.297075,"lon":5.38015,"is_reserved":false,"is_disabled":false,"rental_uris":{"android":"levelo://app?vid=9e5c2a3d-b8d4-4b7b-a81b-1943205758bf","ios":"levelo://app?vid=9e5c2a3d-b8d4-4b7b-a81b-1943205758bf"},"vehicle_type_id":"4","last_reported":1712412341,"current_range_meters":0,"station_id":"ce4bgi92rcd13ifvqb90","pricing_plan_id":"cebpf4jnsgd1na2vs0mg"},{"bike_id":"094c1e85-3c95-453f-80dc-fa9784ab1441","system_id":"levelo_inurba_marseille","lat":43.305994,"lon":5.393687,"is_reserved":false,"is_disabled":false,"rental_uris":{"android":"levelo://app?vid=094c1e85-3c95-453f-80dc-fa9784ab1441","ios":"levelo://app?vid=094c1e85-3c95-453f-80dc-fa9784ab1441"},"vehicle_type_id":"4","last_reported":1712412341,"current_range_meters":0,"station_id":"ce4bh0p2rcd13ifvqd80","pricing_plan_id":"cebpf4jnsgd1na2vs0mg"},{"bike_id":"bd2e1790-a9ba-4fbf-a419-cf1187704199","system_id":"levelo_inurba_marseille","lat":43.29977,"lon":5.38495,"is_reserved":false,"is_disabled":false,"rental_uris":{"android":"levelo://app?vid=bd2e1790-a9ba-4fbf-a419-cf1187704199","ios":"levelo://app?vid=bd2e1790-a9ba-4fbf-a419-cf1187704199"},"vehicle_type_id":"4","last_reported":1712412341,"current_range_meters":0,"station_id":"ce4bgj92rcd13ifvqbd0","pricing_plan_id":"cebpf4jnsgd1na2vs0mg"},{"bike_id":"4c460803-60f9-48a3-b13b-faa8d04cf584","system_id":"levelo_inurba_marseille","lat":43.29525,"lon":5.37504,"is_reserved":false,"is_disabled":false,"rental_uris":{"android":"levelo://app?vid=4c460803-60f9-48a3-b13b-faa8d04cf584","ios":"levelo://app?vid=4c460803-60f9-48a3-b13b-faa8d04cf584"},"vehicle_type_id":"4","last_reported":1712412341,"current_range_meters":27200,"station_id":"ce4bhch2rcd13ifvqeug","pricing_plan_id":"cebpf4jnsgd1na2vs0mg"},{"bike_id":"a50dd489-a3aa-4236-b534-fb26a2bd9e7b","system_id":"levelo_inurba_marseille","lat":43.305994,"lon":5.393687,"is_reserved":false,"is_disabled":false,"rental_uris":{"android":"levelo://app?vid=a50dd489-a3aa-4236-b534-fb26a2bd9e7b","ios":"levelo://app?vid=a50dd489-a3aa-4236-b534-fb26a2bd9e7b"},"vehicle_type_id":"4","last_reported":1712412341,"current_range_meters":13200,"station_id":"ce4bh0p2rcd13ifvqd80","pricing_plan_id":"cebpf4jnsgd1na2vs0mg"},{"bike_id":"4fb75497-f468-44a7-a9a4-8d8325952c61","system_id":"levelo_inurba_marseille","lat":43.299724,"lon":5.384848,"is_reserved":false,"is_disabled":false,"rental_uris":{"android":"levelo://app?vid=4fb75497-f468-44a7-a9a4-8d8325952c61","ios":"levelo://app?vid=4fb75497-f468-44a7-a9a4-8d8325952c61"},"vehicle_type_id":"4","last_reported":1712412341,"current_range_meters":4400,"station_id":"ce4bgj92rcd13ifvqbd0","pricing_plan_id":"cebpf4jnsgd1na2vs0mg"},{"bike_id":"770ed522-96ad-484e-9bf2-fef547d0a759","system_id":"levelo_inurba_marseille","lat":43.299724,"lon":5.384848,"is_reserved":false,"is_disabled":false,"rental_uris":{"android":"levelo://app?vid=770ed522-96ad-484e-9bf2-fef547d0a759","ios":"levelo://app?vid=770ed522-96ad-484e-9bf2-fef547d0a759"},"vehicle_type_id":"4","last_reported":1712412341,"current_range_meters":12400,"station_id":"ce4bgj92rcd13ifvqbd0","pricing_plan_id":"cebpf4jnsgd1na2vs0mg"},{"bike_id":"032af94f-312b-4ac0-a569-301c43b3cf34","system_id":"levelo_inurba_marseille","lat":43.315293,"lon":5.380349,"is_reserved":false,"is_disabled":false,"rental_uris":{"android":"levelo://app?vid=032af94f-312b-4ac0-a569-301c43b3cf34","ios":"levelo://app?vid=032af94f-312b-4ac0-a569-301c43b3cf34"},"vehicle_type_id":"4","last_reported":1712412341,"current_range_meters":30800,"station_id":"ce4bhsp2rcd13ifvqi50","pricing_plan_id":"cebpf4jnsgd1na2vs0mg"},{"bike_id":"3ad6d32b-8a59-4492-b2c0-ae2e1b55f787","system_id":"levelo_inurba_marseille","lat":43.32367,"lon":5.388836,"is_reserved":false,"is_disabled":false,"rental_uris":{"android":"levelo://app?vid=3ad6d32b-8a59-4492-b2c0-ae2e1b55f787","ios":"levelo://app?vid=3ad6d32b-8a59-4492-b2c0-ae2e1b55f787"},"vehicle_type_id":"4","last_reported":1712412341,"current_range_meters":8800,"station_id":"ce4bhqp2rcd13ifvqhog","pricing_plan_id":"cebpf4jnsgd1na2vs0mg"},{"bike_id":"41405296-cc57-4517-995e-a1d8f1fd6e67","system_id":"levelo_inurba_marseille","lat":43.32367,"lon":5.388836,"is_reserved":false,"is_disabled":false,"rental_uris":{"android":"levelo://app?vid=41405296-cc57-4517-995e-a1d8f1fd6e67","ios":"levelo://app?vid=41405296-cc57-4517-995e-a1d8f1fd6e67"},"vehicle_type_id":"4","last_reported":1712412341,"current_range_meters":16800,"station_id":"ce4bhqp2rcd13ifvqhog","pricing_plan_id":"cebpf4jnsgd1na2vs0mg"},{"bike_id":"156ce9be-bac6-4491-9c94-9fef002b2694","system_id":"levelo_inurba_marseille","lat":43.32367,"lon":5.388836,"is_reserved":false,"is_disabled":false,"rental_uris":{"android":"levelo://app?vid=156ce9be-bac6-4491-9c94-9fef002b2694","ios":"levelo://app?vid=156ce9be-bac6-4491-9c94-9fef002b2694"},"vehicle_type_id":"4","last_reported":1712412341,"current_range_meters":25600,"station_id":"ce4bhqp2rcd13ifvqhog","pricing_plan_id":"cebpf4jnsgd1na2vs0mg"},{"bike_id":"cd4b0be2-acb2-45fe-b041-4d1fbb0de5ed","system_id":"levelo_inurba_marseille","lat":43.293009,"lon":5.374584,"is_reserved":false,"is_disabled":false,"rental_uris":{"android":"levelo://app?vid=cd4b0be2-acb2-45fe-b041-4d1fbb0de5ed","ios":"levelo://app?vid=cd4b0be2-acb2-45fe-b041-4d1fbb0de5ed"},"vehicle_type_id":"4","last_reported":1712412341,"current_range_meters":28000,"station_id":"ce4bgi12rcd13ifvqb70","pricing_plan_id":"cebpf4jnsgd1na2vs0mg"},{"bike_id":"a7e5cf9c-c93c-467a-82d8-af8d8b2cc469","system_id":"levelo_inurba_marseille","lat":43.293259,"lon":5.371586,"is_reserved":false,"is_disabled":false,"rental_uris":{"android":"levelo://app?vid=a7e5cf9c-c93c-467a-82d8-af8d8b2cc469","ios":"levelo://app?vid=a7e5cf9c-c93c-467a-82d8-af8d8b2cc469"},"vehicle_type_id":"4","last_reported":1712412341,"current_range_meters":0,"station_id":"ce4bgh92rcd13ifvqb40","pricing_plan_id":"cebpf4jnsgd1na2vs0mg"},{"bike_id":"7991b26f-08e1-4179-a718-ba0c52332cf8","system_id":"levelo_inurba_marseille","lat":43.292376,"lon":5.368431,"is_reserved":false,"is_disabled":false,"rental_uris":{"android":"levelo://app?vid=7991b26f-08e1-4179-a718-ba0c52332cf8","ios":"levelo://app?vid=7991b26f-08e1-4179-a718-ba0c52332cf8"},"vehicle_type_id":"4","last_reported":1712412341,"current_range_meters":6800,"station_id":"ce4bhbp2rcd13ifvqesg","pricing_plan_id":"cebpf4jnsgd1na2vs0mg"},{"bike_id":"dedc34a2-5f2a-45a9-bb9f-62cdc1eb5c3a","system_id":"levelo_inurba_marseille","lat":43.284793,"lon":5.384119,"is_reserved":false,"is_disabled":false,"rental_uris":{"android":"levelo://app?vid=dedc34a2-5f2a-45a9-bb9f-62cdc1eb5c3a","ios":"levelo://app?vid=dedc34a2-5f2a-45a9-bb9f-62cdc1eb5c3a"},"vehicle_type_id":"4","last_reported":1712412341,"current_range_meters":0,"station_id":"ce4bh512rcd13ifvqe3g","pricing_plan_id":"cebpf4jnsgd1na2vs0mg"},{"bike_id":"75990f9a-8c85-43a7-8589-48403b146a08","system_id":"levelo_inurba_marseille","lat":43.293009,"lon":5.374584,"is_reserved":false,"is_disabled":false,"rental_uris":{"android":"levelo://app?vid=75990f9a-8c85-43a7-8589-48403b146a08","ios":"levelo://app?vid=75990f9a-8c85-43a7-8589-48403b146a08"},"vehicle_type_id":"4","last_reported":1712412341,"current_range_meters":8400,"station_id":"ce4bgi12rcd13ifvqb70","pricing_plan_id":"cebpf4jnsgd1na2vs0mg"},{"bike_id":"2f83526e-4167-4e10-8c59-de1d8385fd0b","system_id":"levelo_inurba_marseille","lat":43.302992,"lon":5.392136,"is_reserved":false,"is_disabled":false,"rental_uris":{"android":"levelo://app?vid=2f83526e-4167-4e10-8c59-de1d8385fd0b","ios":"levelo://app?vid=2f83526e-4167-4e10-8c59-de1d8385fd0b"},"vehicle_type_id":"4","last_reported":1712412341,"current_range_meters":0,"station_id":"ce4bgkh2rcd13ifvqbk0","pricing_plan_id":"cebpf4jnsgd1na2vs0mg"},{"bike_id":"d0edc49d-684c-4964-a138-b081d23799c2","system_id":"levelo_inurba_marseille","lat":43.292311,"lon":5.360731,"is_reserved":false,"is_disabled":false,"rental_uris":{"android":"levelo://app?vid=d0edc49d-684c-4964-a138-b081d23799c2","ios":"levelo://app?vid=d0edc49d-684c-4964-a138-b081d23799c2"},"vehicle_type_id":"4","last_reported":1712412341,"current_range_meters":11200,"station_id":"ce4bhbh2rcd13ifvqeqg","pricing_plan_id":"cebpf4jnsgd1na2vs0mg"},{"bike_id":"bb89da9c-59b2-4f4e-aa06-1c47e26ac8b4","system_id":"levelo_inurba_marseille","lat":43.29229,"lon":5.36077,"is_reserved":false,"is_disabled":false,"rental_uris":{"android":"levelo://app?vid=bb89da9c-59b2-4f4e-aa06-1c47e26ac8b4","ios":"levelo://app?vid=bb89da9c-59b2-4f4e-aa06-1c47e26ac8b4"},"vehicle_type_id":"4","last_reported":1712412341,"current_range_meters":0,"station_id":"ce4bhbh2rcd13ifvqeqg","pricing_plan_id":"cebpf4jnsgd1na2vs0mg"},{"bike_id":"21258b83-e086-4be9-bcd4-4af96b442387","system_id":"levelo_inurba_marseille","lat":43.292311,"lon":5.360731,"is_reserved":false,"is_disabled":false,"rental_uris":{"android":"levelo://app?vid=21258b83-e086-4be9-bcd4-4af96b442387","ios":"levelo://app?vid=21258b83-e086-4be9-bcd4-4af96b442387"},"vehicle_type_id":"4","last_reported":1712412341,"current_range_meters":0,"station_id":"ce4bhbh2rcd13ifvqeqg","pricing_plan_id":"cebpf4jnsgd1na2vs0mg"},{"bike_id":"55e18bf8-c2a9-4453-8226-6f0b13d99607","system_id":"levelo_inurba_marseille","lat":43.302008,"lon":5.394694,"is_reserved":false,"is_disabled":false,"rental_uris":{"android":"levelo://app?vid=55e18bf8-c2a9-4453-8226-6f0b13d99607","ios":"levelo://app?vid=55e18bf8-c2a9-4453-8226-6f0b13d99607"},"vehicle_type_id":"4","last_reported":1712412341,"current_range_meters":0,"station_id":"ce4bh0p2rcd13ifvqd70","pricing_plan_id":"cebpf4jnsgd1na2vs0mg"},{"bike_id":"c74b40e7-4546-4667-bf60-002ada1918d5","system_id":"levelo_inurba_marseille","lat":43.291994,"lon":5.357886,"is_reserved":false,"is_disabled":false,"rental_uris":{"android":"levelo://app?vid=c74b40e7-4546-4667-bf60-002ada1918d5","ios":"levelo://app?vid=c74b40e7-4546-4667-bf60-002ada1918d5"},"vehicle_type_id":"4","last_reported":1712412341,"current_range_meters":0,"station_id":"ce4bhb12rcd13ifvqel0","pricing_plan_id":"cebpf4jnsgd1na2vs0mg"},{"bike_id":"262ef7cc-d901-43b0-acd1-054049c032c7","system_id":"levelo_inurba_marseille","lat":43.291671,"lon":5.371575,"is_reserved":false,"is_disabled":false,"rental_uris":{"android":"levelo://app?vid=262ef7cc-d901-43b0-acd1-054049c032c7","ios":"levelo://app?vid=262ef7cc-d901-43b0-acd1-054049c032c7"},"vehicle_type_id":"4","last_reported":1712412341,"current_range_meters":27600,"station_id":"ce4bha92rcd13ifvqeh0","pricing_plan_id":"cebpf4jnsgd1na2vs0mg"},{"bike_id":"b97f0ab5-a8e7-44a8-83bb-0ccef8d0b7eb","system_id":"levelo_inurba_marseille","lat":43.299717,"lon":5.384845,"is_reserved":false,"is_disabled":false,"rental_uris":{"android":"levelo://app?vid=b97f0ab5-a8e7-44a8-83bb-0ccef8d0b7eb","ios":"levelo://app?vid=b97f0ab5-a8e7-44a8-83bb-0ccef8d0b7eb"},"vehicle_type_id":"4","last_reported":1712412341,"current_range_meters":0,"station_id":"ce4bgj92rcd13ifvqbd0","pricing_plan_id":"cebpf4jnsgd1na2vs0mg"},{"bike_id":"30caad79-0bea-4fa3-83cd-2c4f99955be0","system_id":"levelo_inurba_marseille","lat":43.313291,"lon":5.396838,"is_reserved":false,"is_disabled":false,"rental_uris":{"android":"levelo://app?vid=30caad79-0bea-4fa3-83cd-2c4f99955be0","ios":"levelo://app?vid=30caad79-0bea-4fa3-83cd-2c4f99955be0"},"vehicle_type_id":"4","last_reported":1712412341,"current_range_meters":3600,"station_id":"ce4bgvp2rcd13ifvqcu0","pricing_plan_id":"cebpf4jnsgd1na2vs0mg"},{"bike_id":"ca01e377-1db9-4cb4-b000-59b60b7cd638","system_id":"levelo_inurba_marseille","lat":43.313291,"lon":5.396838,"is_reserved":false,"is_disabled":false,"rental_uris":{"android":"levelo://app?vid=ca01e377-1db9-4cb4-b000-59b60b7cd638","ios":"levelo://app?vid=ca01e377-1db9-4cb4-b000-59b60b7cd638"},"vehicle_type_id":"4","last_reported":1712412341,"current_range_meters":6000,"station_id":"ce4bgvp2rcd13ifvqcu0","pricing_plan_id":"cebpf4jnsgd1na2vs0mg"},{"bike_id":"4b57fb2e-a4f2-4972-a4c4-31247729a54d","system_id":"levelo_inurba_marseille","lat":43.317557,"lon":5.390173,"is_reserved":false,"is_disabled":false,"rental_uris":{"android":"levelo://app?vid=4b57fb2e-a4f2-4972-a4c4-31247729a54d","ios":"levelo://app?vid=4b57fb2e-a4f2-4972-a4c4-31247729a54d"},"vehicle_type_id":"4","last_reported":1712412341,"current_range_meters":800,"station_id":"ce4bhqp2rcd13ifvqhng","pricing_plan_id":"cebpf4jnsgd1na2vs0mg"},{"bike_id":"4afb24a1-0d79-4e36-afa3-071f32931611","system_id":"levelo_inurba_marseille","lat":43.29529,"lon":5.385581,"is_reserved":false,"is_disabled":false,"rental_uris":{"android":"levelo://app?vid=4afb24a1-0d79-4e36-afa3-071f32931611","ios":"levelo://app?vid=4afb24a1-0d79-4e36-afa3-071f32931611"},"vehicle_type_id":"4","last_reported":1712412341,"current_range_meters":0,"station_id":"ce4bgih2rcd13ifvqba0","pricing_plan_id":"cebpf4jnsgd1na2vs0mg"},{"bike_id":"a06d5a7e-f045-4c60-8b12-30c047b335c0","system_id":"levelo_inurba_marseille","lat":43.295554,"lon":5.385784,"is_reserved":false,"is_disabled":false,"rental_uris":{"android":"levelo://app?vid=a06d5a7e-f045-4c60-8b12-30c047b335c0","ios":"levelo://app?vid=a06d5a7e-f045-4c60-8b12-30c047b335c0"},"vehicle_type_id":"4","last_reported":1712412341,"current_range_meters":0,"station_id":"ce4bgih2rcd13ifvqba0","pricing_plan_id":"cebpf4jnsgd1na2vs0mg"},{"bike_id":"f3edbc25-44f0-420c-ada6-0a8a78ec809a","system_id":"levelo_inurba_marseille","lat":43.29529,"lon":5.385581,"is_reserved":false,"is_disabled":false,"rental_uris":{"android":"levelo://app?vid=f3edbc25-44f0-420c-ada6-0a8a78ec809a","ios":"levelo://app?vid=f3edbc25-44f0-420c-ada6-0a8a78ec809a"},"vehicle_type_id":"4","last_reported":1712412341,"current_range_meters":0,"station_id":"ce4bgih2rcd13ifvqba0","pricing_plan_id":"cebpf4jnsgd1na2vs0mg"},{"bike_id":"00d8e663-3802-47c9-9d43-5ab988e57081","system_id":"levelo_inurba_marseille","lat":43.290779,"lon":5.371482,"is_reserved":false,"is_disabled":false,"rental_uris":{"android":"levelo://app?vid=00d8e663-3802-47c9-9d43-5ab988e57081","ios":"levelo://app?vid=00d8e663-3802-47c9-9d43-5ab988e57081"},"vehicle_type_id":"4","last_reported":1712412341,"current_range_meters":16800,"station_id":"ce4bh5p2rcd13ifvqe4g","pricing_plan_id":"cebpf4jnsgd1na2vs0mg"},{"bike_id":"4b1a664a-b515-49f8-895b-d5eecc8e2e04","system_id":"levelo_inurba_marseille","lat":43.290624,"lon":5.359245,"is_reserved":false,"is_disabled":false,"rental_uris":{"android":"levelo://app?vid=4b1a664a-b515-49f8-895b-d5eecc8e2e04","ios":"levelo://app?vid=4b1a664a-b515-49f8-895b-d5eecc8e2e04"},"vehicle_type_id":"4","last_reported":1712412341,"current_range_meters":15600,"station_id":"ce4bha92rcd13ifvqeg0","pricing_plan_id":"cebpf4jnsgd1na2vs0mg"},{"bike_id":"14195be5-1dd9-4cfc-b775-72f03b0bd8d6","system_id":"levelo_inurba_marseille","lat":43.28943,"lon":5.36634,"is_reserved":false,"is_disabled":false,"rental_uris":{"android":"levelo://app?vid=14195be5-1dd9-4cfc-b775-72f03b0bd8d6","ios":"levelo://app?vid=14195be5-1dd9-4cfc-b775-72f03b0bd8d6"},"vehicle_type_id":"4","last_reported":1712412341,"current_range_meters":0,"station_id":"ce4bhap2rcd13ifvqek0","pricing_plan_id":"cebpf4jnsgd1na2vs0mg"},{"bike_id":"a7447dd7-9fad-4bcb-9765-838f1694bae8","system_id":"levelo_inurba_marseille","lat":43.28039,"lon":5.369297,"is_reserved":false,"is_disabled":false,"rental_uris":{"android":"levelo://app?vid=a7447dd7-9fad-4bcb-9765-838f1694bae8","ios":"levelo://app?vid=a7447dd7-9fad-4bcb-9765-838f1694bae8"},"vehicle_type_id":"4","last_reported":1712412341,"current_range_meters":14800,"station_id":"ce4bha12rcd13ifvqef0","pricing_plan_id":"cebpf4jnsgd1na2vs0mg"},{"bike_id":"aaee0fda-c085-456b-97a0-fdb9d8e31025","system_id":"levelo_inurba_marseille","lat":43.292642,"lon":5.384254,"is_reserved":false,"is_disabled":false,"rental_uris":{"android":"levelo://app?vid=aaee0fda-c085-456b-97a0-fdb9d8e31025","ios":"levelo://app?vid=aaee0fda-c085-456b-97a0-fdb9d8e31025"},"vehicle_type_id":"4","last_reported":1712412341,"current_range_meters":0,"station_id":"ce4bh692rcd13ifvqea0","pricing_plan_id":"cebpf4jnsgd1na2vs0mg"},{"bike_id":"15c89152-cbaa-4fc7-89f7-2aef82d68d88","system_id":"levelo_inurba_marseille","lat":43.270721,"lon":5.422764,"is_reserved":false,"is_disabled":false,"rental_uris":{"android":"levelo://app?vid=15c89152-cbaa-4fc7-89f7-2aef82d68d88","ios":"levelo://app?vid=15c89152-cbaa-4fc7-89f7-2aef82d68d88"},"vehicle_type_id":"4","last_reported":1712412341,"current_range_meters":0,"station_id":"ce4bhk92rcd13ifvqgb0","pricing_plan_id":"cebpf4jnsgd1na2vs0mg"},{"bike_id":"e236908f-d568-467d-a179-2a1662e731bf","system_id":"levelo_inurba_marseille","lat":43.289184,"lon":5.366408,"is_reserved":false,"is_disabled":false,"rental_uris":{"android":"levelo://app?vid=e236908f-d568-467d-a179-2a1662e731bf","ios":"levelo://app?vid=e236908f-d568-467d-a179-2a1662e731bf"},"vehicle_type_id":"4","last_reported":1712412341,"current_range_meters":0,"station_id":"ce4bhap2rcd13ifvqek0","pricing_plan_id":"cebpf4jnsgd1na2vs0mg"},{"bike_id":"2bbe6010-184b-4d19-9635-cefd28b8afa1","system_id":"levelo_inurba_marseille","lat":43.29008,"lon":5.35617,"is_reserved":false,"is_disabled":false,"rental_uris":{"android":"levelo://app?vid=2bbe6010-184b-4d19-9635-cefd28b8afa1","ios":"levelo://app?vid=2bbe6010-184b-4d19-9635-cefd28b8afa1"},"vehicle_type_id":"4","last_reported":1712412341,"current_range_meters":0,"station_id":"ce4bhb92rcd13ifvqen0","pricing_plan_id":"cebpf4jnsgd1na2vs0mg"},{"bike_id":"b8f77734-e0ad-4ad7-81f0-9a07e0e6d313","system_id":"levelo_inurba_marseille","lat":43.29009,"lon":5.35613,"is_reserved":false,"is_disabled":false,"rental_uris":{"android":"levelo://app?vid=b8f77734-e0ad-4ad7-81f0-9a07e0e6d313","ios":"levelo://app?vid=b8f77734-e0ad-4ad7-81f0-9a07e0e6d313"},"vehicle_type_id":"4","last_reported":1712412341,"current_range_meters":0,"station_id":"ce4bhb92rcd13ifvqen0","pricing_plan_id":"cebpf4jnsgd1na2vs0mg"},{"bike_id":"0c8f81ab-8abf-4560-830f-28f3cba78ba3","system_id":"levelo_inurba_marseille","lat":43.290995,"lon":5.381361,"is_reserved":false,"is_disabled":false,"rental_uris":{"android":"levelo://app?vid=0c8f81ab-8abf-4560-830f-28f3cba78ba3","ios":"levelo://app?vid=0c8f81ab-8abf-4560-830f-28f3cba78ba3"},"vehicle_type_id":"4","last_reported":1712412341,"current_range_meters":800,"station_id":"ce4bh512rcd13ifvqe2g","pricing_plan_id":"cebpf4jnsgd1na2vs0mg"},{"bike_id":"a3c62f9b-7962-4eb7-a162-6384d6da58cc","system_id":"levelo_inurba_marseille","lat":43.295169,"lon":5.390426,"is_reserved":false,"is_disabled":false,"rental_uris":{"android":"levelo://app?vid=a3c62f9b-7962-4eb7-a162-6384d6da58cc","ios":"levelo://app?vid=a3c62f9b-7962-4eb7-a162-6384d6da58cc"},"vehicle_type_id":"4","last_reported":1712412341,"current_range_meters":11600,"station_id":"ce4bh3p2rcd13ifvqdp0","pricing_plan_id":"cebpf4jnsgd1na2vs0mg"},{"bike_id":"03420a97-229e-48e8-9a95-3ffc9a63ae9f","system_id":"levelo_inurba_marseille","lat":43.33025,"lon":5.39041,"is_reserved":false,"is_disabled":false,"rental_uris":{"android":"levelo://app?vid=03420a97-229e-48e8-9a95-3ffc9a63ae9f","ios":"levelo://app?vid=03420a97-229e-48e8-9a95-3ffc9a63ae9f"},"vehicle_type_id":"4","last_reported":1712412341,"current_range_meters":0,"station_id":"ce4bhr92rcd13ifvqhrg","pricing_plan_id":"cebpf4jnsgd1na2vs0mg"},{"bike_id":"a6d35766-e0a9-48f8-93fa-e416dc84cf89","system_id":"levelo_inurba_marseille","lat":43.330442,"lon":5.389148,"is_reserved":false,"is_disabled":false,"rental_uris":{"android":"levelo://app?vid=a6d35766-e0a9-48f8-93fa-e416dc84cf89","ios":"levelo://app?vid=a6d35766-e0a9-48f8-93fa-e416dc84cf89"},"vehicle_type_id":"4","last_reported":1712412341,"current_range_meters":4000,"station_id":"ce4bhr92rcd13ifvqhrg","pricing_plan_id":"cebpf4jnsgd1na2vs0mg"},{"bike_id":"1dce9aa1-5232-4b74-8ce2-5f74a5bbde23","system_id":"levelo_inurba_marseille","lat":43.33113,"lon":5.38923,"is_reserved":false,"is_disabled":false,"rental_uris":{"android":"levelo://app?vid=1dce9aa1-5232-4b74-8ce2-5f74a5bbde23","ios":"levelo://app?vid=1dce9aa1-5232-4b74-8ce2-5f74a5bbde23"},"vehicle_type_id":"4","last_reported":1712412341,"current_range_meters":16800,"station_id":"","pricing_plan_id":"cebpf4jnsgd1na2vs0mg"},{"bike_id":"29a0d463-0b5a-4dee-856d-01c0581c56b4","system_id":"levelo_inurba_marseille","lat":43.33023,"lon":5.39056,"is_reserved":false,"is_disabled":false,"rental_uris":{"android":"levelo://app?vid=29a0d463-0b5a-4dee-856d-01c0581c56b4","ios":"levelo://app?vid=29a0d463-0b5a-4dee-856d-01c0581c56b4"},"vehicle_type_id":"4","last_reported":1712412341,"current_range_meters":2800,"station_id":"ce4bhr92rcd13ifvqhrg","pricing_plan_id":"cebpf4jnsgd1na2vs0mg"},{"bike_id":"3b87a693-8ce6-42e3-8ed8-1fbf50b15285","system_id":"levelo_inurba_marseille","lat":43.33659,"lon":5.37508,"is_reserved":false,"is_disabled":false,"rental_uris":{"android":"levelo://app?vid=3b87a693-8ce6-42e3-8ed8-1fbf50b15285","ios":"levelo://app?vid=3b87a693-8ce6-42e3-8ed8-1fbf50b15285"},"vehicle_type_id":"4","last_reported":1712412341,"current_range_meters":0,"station_id":"","pricing_plan_id":"cebpf4jnsgd1na2vs0mg"},{"bike_id":"f6927552-6ec9-41de-a5a2-be4870d67fb6","system_id":"levelo_inurba_marseille","lat":43.28856,"lon":5.358371,"is_reserved":false,"is_disabled":false,"rental_uris":{"android":"levelo://app?vid=f6927552-6ec9-41de-a5a2-be4870d67fb6","ios":"levelo://app?vid=f6927552-6ec9-41de-a5a2-be4870d67fb6"},"vehicle_type_id":"4","last_reported":1712412341,"current_range_meters":16000,"station_id":"ce4bhb12rcd13ifvqem0","pricing_plan_id":"cebpf4jnsgd1na2vs0mg"},{"bike_id":"979ae432-9ff5-4588-908b-a7c2ac444746","system_id":"levelo_inurba_marseille","lat":43.3375,"lon":5.37452,"is_reserved":false,"is_disabled":false,"rental_uris":{"android":"levelo://app?vid=979ae432-9ff5-4588-908b-a7c2ac444746","ios":"levelo://app?vid=979ae432-9ff5-4588-908b-a7c2ac444746"},"vehicle_type_id":"4","last_reported":1712412341,"current_range_meters":30800,"station_id":"","pricing_plan_id":"cebpf4jnsgd1na2vs0mg"},{"bike_id":"54105aba-bc00-49a3-94c1-85e7fe7a61bf","system_id":"levelo_inurba_marseille","lat":43.301117,"lon":5.398795,"is_reserved":false,"is_disabled":false,"rental_uris":{"android":"levelo://app?vid=54105aba-bc00-49a3-94c1-85e7fe7a61bf","ios":"levelo://app?vid=54105aba-bc00-49a3-94c1-85e7fe7a61bf"},"vehicle_type_id":"4","last_reported":1712412341,"current_range_meters":20000,"station_id":"ce4bh0h2rcd13ifvqd40","pricing_plan_id":"cebpf4jnsgd1na2vs0mg"},{"bike_id":"4c454be1-a3c5-42d4-b1a8-882dfeed345d","system_id":"levelo_inurba_marseille","lat":43.301117,"lon":5.398795,"is_reserved":false,"is_disabled":false,"rental_uris":{"android":"levelo://app?vid=4c454be1-a3c5-42d4-b1a8-882dfeed345d","ios":"levelo://app?vid=4c454be1-a3c5-42d4-b1a8-882dfeed345d"},"vehicle_type_id":"4","last_reported":1712412341,"current_range_meters":8800,"station_id":"ce4bh0h2rcd13ifvqd40","pricing_plan_id":"cebpf4jnsgd1na2vs0mg"},{"bike_id":"2e93653a-8b21-4834-94bf-524834043050","system_id":"levelo_inurba_marseille","lat":43.2901,"lon":5.381269,"is_reserved":false,"is_disabled":false,"rental_uris":{"android":"levelo://app?vid=2e93653a-8b21-4834-94bf-524834043050","ios":"levelo://app?vid=2e93653a-8b21-4834-94bf-524834043050"},"vehicle_type_id":"4","last_reported":1712412341,"current_range_meters":7600,"station_id":"ce4bh4p2rcd13ifvqe1g","pricing_plan_id":"cebpf4jnsgd1na2vs0mg"},{"bike_id":"7187c40c-7d38-4fc9-bb31-fc4286429a8c","system_id":"levelo_inurba_marseille","lat":43.301117,"lon":5.398795,"is_reserved":false,"is_disabled":false,"rental_uris":{"android":"levelo://app?vid=7187c40c-7d38-4fc9-bb31-fc4286429a8c","ios":"levelo://app?vid=7187c40c-7d38-4fc9-bb31-fc4286429a8c"},"vehicle_type_id":"4","last_reported":1712412341,"current_range_meters":21600,"station_id":"ce4bh0h2rcd13ifvqd40","pricing_plan_id":"cebpf4jnsgd1na2vs0mg"},{"bike_id":"65518139-9de7-48fe-af63-a157c55982c9","system_id":"levelo_inurba_marseille","lat":43.286591,"lon":5.363346,"is_reserved":false,"is_disabled":false,"rental_uris":{"android":"levelo://app?vid=65518139-9de7-48fe-af63-a157c55982c9","ios":"levelo://app?vid=65518139-9de7-48fe-af63-a157c55982c9"},"vehicle_type_id":"4","last_reported":1712412341,"current_range_meters":800,"station_id":"ce4bhah2rcd13ifvqej0","pricing_plan_id":"cebpf4jnsgd1na2vs0mg"},{"bike_id":"8e261525-8365-46b7-a563-88a89e06a29d","system_id":"levelo_inurba_marseille","lat":43.286961,"lon":5.373785,"is_reserved":false,"is_disabled":false,"rental_uris":{"android":"levelo://app?vid=8e261525-8365-46b7-a563-88a89e06a29d","ios":"levelo://app?vid=8e261525-8365-46b7-a563-88a89e06a29d"},"vehicle_type_id":"4","last_reported":1712412341,"current_range_meters":20400,"station_id":"ce4bh3p2rcd13ifvqdq0","pricing_plan_id":"cebpf4jnsgd1na2vs0mg"},{"bike_id":"57aa02a3-d8d1-4d9b-860d-eed910facaec","system_id":"levelo_inurba_marseille","lat":43.287957,"lon":5.354267,"is_reserved":false,"is_disabled":false,"rental_uris":{"android":"levelo://app?vid=57aa02a3-d8d1-4d9b-860d-eed910facaec","ios":"levelo://app?vid=57aa02a3-d8d1-4d9b-860d-eed910facaec"},"vehicle_type_id":"4","last_reported":1712412341,"current_range_meters":1200,"station_id":"ce4bhbp2rcd13ifvqerg","pricing_plan_id":"cebpf4jnsgd1na2vs0mg"},{"bike_id":"d571e988-7729-4424-a554-d1d7031ae6cd","system_id":"levelo_inurba_marseille","lat":43.290336,"lon":5.386425,"is_reserved":false,"is_disabled":false,"rental_uris":{"android":"levelo://app?vid=d571e988-7729-4424-a554-d1d7031ae6cd","ios":"levelo://app?vid=d571e988-7729-4424-a554-d1d7031ae6cd"},"vehicle_type_id":"4","last_reported":1712412341,"current_range_meters":22000,"station_id":"ce4bh4p2rcd13ifvqe0g","pricing_plan_id":"cebpf4jnsgd1na2vs0mg"},{"bike_id":"18656416-39af-4468-8c63-ab3f8afff2cc","system_id":"levelo_inurba_marseille","lat":43.286039,"lon":5.370681,"is_reserved":false,"is_disabled":false,"rental_uris":{"android":"levelo://app?vid=18656416-39af-4468-8c63-ab3f8afff2cc","ios":"levelo://app?vid=18656416-39af-4468-8c63-ab3f8afff2cc"},"vehicle_type_id":"4","last_reported":1712412341,"current_range_meters":2800,"station_id":"ce4bht12rcd13ifvqi60","pricing_plan_id":"cebpf4jnsgd1na2vs0mg"},{"bike_id":"dc1a9d95-4381-4cba-b7db-a11f1c16bdde","system_id":"levelo_inurba_marseille","lat":43.286039,"lon":5.370681,"is_reserved":false,"is_disabled":false,"rental_uris":{"android":"levelo://app?vid=dc1a9d95-4381-4cba-b7db-a11f1c16bdde","ios":"levelo://app?vid=dc1a9d95-4381-4cba-b7db-a11f1c16bdde"},"vehicle_type_id":"4","last_reported":1712412341,"current_range_meters":5200,"station_id":"ce4bht12rcd13ifvqi60","pricing_plan_id":"cebpf4jnsgd1na2vs0mg"},{"bike_id":"cd9bf42c-3e73-491d-9ee4-7da7e2fc10fa","system_id":"levelo_inurba_marseille","lat":43.287168,"lon":5.379275,"is_reserved":false,"is_disabled":false,"rental_uris":{"android":"levelo://app?vid=cd9bf42c-3e73-491d-9ee4-7da7e2fc10fa","ios":"levelo://app?vid=cd9bf42c-3e73-491d-9ee4-7da7e2fc10fa"},"vehicle_type_id":"4","last_reported":1712412341,"current_range_meters":27200,"station_id":"ce4bh9p2rcd13ifvqec0","pricing_plan_id":"cebpf4jnsgd1na2vs0mg"},{"bike_id":"38cd262c-790a-4384-b44c-54e73501629b","system_id":"levelo_inurba_marseille","lat":43.286039,"lon":5.370681,"is_reserved":false,"is_disabled":false,"rental_uris":{"android":"levelo://app?vid=38cd262c-790a-4384-b44c-54e73501629b","ios":"levelo://app?vid=38cd262c-790a-4384-b44c-54e73501629b"},"vehicle_type_id":"4","last_reported":1712412341,"current_range_meters":5200,"station_id":"ce4bht12rcd13ifvqi60","pricing_plan_id":"cebpf4jnsgd1na2vs0mg"},{"bike_id":"60d115ff-2342-4883-9423-e2ad9c52dd40","system_id":"levelo_inurba_marseille","lat":43.323464,"lon":5.406297,"is_reserved":false,"is_disabled":false,"rental_uris":{"android":"levelo://app?vid=60d115ff-2342-4883-9423-e2ad9c52dd40","ios":"levelo://app?vid=60d115ff-2342-4883-9423-e2ad9c52dd40"},"vehicle_type_id":"4","last_reported":1712412341,"current_range_meters":26000,"station_id":"ce4bhq92rcd13ifvqhjg","pricing_plan_id":"cebpf4jnsgd1na2vs0mg"},{"bike_id":"e3e7a66c-0d12-442b-a40a-46f03322c963","system_id":"levelo_inurba_marseille","lat":43.316828,"lon":5.404723,"is_reserved":false,"is_disabled":false,"rental_uris":{"android":"levelo://app?vid=e3e7a66c-0d12-442b-a40a-46f03322c963","ios":"levelo://app?vid=e3e7a66c-0d12-442b-a40a-46f03322c963"},"vehicle_type_id":"4","last_reported":1712412341,"current_range_meters":22800,"station_id":"ce4bh012rcd13ifvqd00","pricing_plan_id":"cebpf4jnsgd1na2vs0mg"},{"bike_id":"d516f338-8d2e-4bdf-b46c-697df2654591","system_id":"levelo_inurba_marseille","lat":43.291994,"lon":5.392907,"is_reserved":false,"is_disabled":false,"rental_uris":{"android":"levelo://app?vid=d516f338-8d2e-4bdf-b46c-697df2654591","ios":"levelo://app?vid=d516f338-8d2e-4bdf-b46c-697df2654591"},"vehicle_type_id":"4","last_reported":1712412341,"current_range_meters":20800,"station_id":"ce4bh192rcd13ifvqdd0","pricing_plan_id":"cebpf4jnsgd1na2vs0mg"},{"bike_id":"fb7344a9-afe6-4214-98b8-fe2940ab2490","system_id":"levelo_inurba_marseille","lat":43.284534,"lon":5.358662,"is_reserved":false,"is_disabled":false,"rental_uris":{"android":"levelo://app?vid=fb7344a9-afe6-4214-98b8-fe2940ab2490","ios":"levelo://app?vid=fb7344a9-afe6-4214-98b8-fe2940ab2490"},"vehicle_type_id":"4","last_reported":1712412341,"current_range_meters":2400,"station_id":"ce4bhah2rcd13ifvqei0","pricing_plan_id":"cebpf4jnsgd1na2vs0mg"},{"bike_id":"0187a914-71ce-4c1b-af60-044de02eafe4","system_id":"levelo_inurba_marseille","lat":43.284534,"lon":5.358662,"is_reserved":false,"is_disabled":false,"rental_uris":{"android":"levelo://app?vid=0187a914-71ce-4c1b-af60-044de02eafe4","ios":"levelo://app?vid=0187a914-71ce-4c1b-af60-044de02eafe4"},"vehicle_type_id":"4","last_reported":1712412341,"current_range_meters":26000,"station_id":"ce4bhah2rcd13ifvqei0","pricing_plan_id":"cebpf4jnsgd1na2vs0mg"},{"bike_id":"7b499c58-ccd2-4d89-ab1d-c0d227ac475b","system_id":"levelo_inurba_marseille","lat":43.284534,"lon":5.358662,"is_reserved":false,"is_disabled":false,"rental_uris":{"android":"levelo://app?vid=7b499c58-ccd2-4d89-ab1d-c0d227ac475b","ios":"levelo://app?vid=7b499c58-ccd2-4d89-ab1d-c0d227ac475b"},"vehicle_type_id":"4","last_reported":1712412341,"current_range_meters":0,"station_id":"ce4bhah2rcd13ifvqei0","pricing_plan_id":"cebpf4jnsgd1na2vs0mg"},{"bike_id":"842edb70-edcb-43bb-9656-8b88bd62444c","system_id":"levelo_inurba_marseille","lat":43.29448,"lon":5.39754,"is_reserved":false,"is_disabled":false,"rental_uris":{"android":"levelo://app?vid=842edb70-edcb-43bb-9656-8b88bd62444c","ios":"levelo://app?vid=842edb70-edcb-43bb-9656-8b88bd62444c"},"vehicle_type_id":"4","last_reported":1712412341,"current_range_meters":23600,"station_id":"ce4bh3h2rcd13ifvqdo0","pricing_plan_id":"cebpf4jnsgd1na2vs0mg"},{"bike_id":"214daa05-ce2a-41d6-9ffa-a950d30b2c46","system_id":"levelo_inurba_marseille","lat":43.294314,"lon":5.397498,"is_reserved":false,"is_disabled":false,"rental_uris":{"android":"levelo://app?vid=214daa05-ce2a-41d6-9ffa-a950d30b2c46","ios":"levelo://app?vid=214daa05-ce2a-41d6-9ffa-a950d30b2c46"},"vehicle_type_id":"4","last_reported":1712412341,"current_range_meters":400,"station_id":"ce4bh3h2rcd13ifvqdo0","pricing_plan_id":"cebpf4jnsgd1na2vs0mg"},{"bike_id":"651f48a6-a9de-452d-a3ab-5ffea7b75373","system_id":"levelo_inurba_marseille","lat":43.286352,"lon":5.350932,"is_reserved":false,"is_disabled":false,"rental_uris":{"android":"levelo://app?vid=651f48a6-a9de-452d-a3ab-5ffea7b75373","ios":"levelo://app?vid=651f48a6-a9de-452d-a3ab-5ffea7b75373"},"vehicle_type_id":"4","last_reported":1712412341,"current_range_meters":24400,"station_id":"ce4bhch2rcd13ifvqeug","pricing_plan_id":"cebpf4jnsgd1na2vs0mg"},{"bike_id":"5eaf97e2-7ad3-4f59-87a1-ec9e29e77340","system_id":"levelo_inurba_marseille","lat":43.28623,"lon":5.3511,"is_reserved":false,"is_disabled":false,"rental_uris":{"android":"levelo://app?vid=5eaf97e2-7ad3-4f59-87a1-ec9e29e77340","ios":"levelo://app?vid=5eaf97e2-7ad3-4f59-87a1-ec9e29e77340"},"vehicle_type_id":"4","last_reported":1712412341,"current_range_meters":23200,"station_id":"ce4bhch2rcd13ifvqeug","pricing_plan_id":"cebpf4jnsgd1na2vs0mg"},{"bike_id":"38000561-a7d3-4465-bb82-a42c3f5d8f4a","system_id":"levelo_inurba_marseille","lat":43.28621,"lon":5.35115,"is_reserved":false,"is_disabled":false,"rental_uris":{"android":"levelo://app?vid=38000561-a7d3-4465-bb82-a42c3f5d8f4a","ios":"levelo://app?vid=38000561-a7d3-4465-bb82-a42c3f5d8f4a"},"vehicle_type_id":"4","last_reported":1712412341,"current_range_meters":12800,"station_id":"ce4bhch2rcd13ifvqeug","pricing_plan_id":"cebpf4jnsgd1na2vs0mg"},{"bike_id":"5068f54f-411e-484e-b0ed-5f05374ca42c","system_id":"levelo_inurba_marseille","lat":43.28622,"lon":5.35108,"is_reserved":false,"is_disabled":false,"rental_uris":{"android":"levelo://app?vid=5068f54f-411e-484e-b0ed-5f05374ca42c","ios":"levelo://app?vid=5068f54f-411e-484e-b0ed-5f05374ca42c"},"vehicle_type_id":"4","last_reported":1712412341,"current_range_meters":3600,"station_id":"ce4bhch2rcd13ifvqeug","pricing_plan_id":"cebpf4jnsgd1na2vs0mg"},{"bike_id":"2466ba66-4eee-49ae-92bb-bdfa8f90241e","system_id":"levelo_inurba_marseille","lat":43.28618,"lon":5.35114,"is_reserved":false,"is_disabled":false,"rental_uris":{"android":"levelo://app?vid=2466ba66-4eee-49ae-92bb-bdfa8f90241e","ios":"levelo://app?vid=2466ba66-4eee-49ae-92bb-bdfa8f90241e"},"vehicle_type_id":"4","last_reported":1712412341,"current_range_meters":9200,"station_id":"ce4bhch2rcd13ifvqeug","pricing_plan_id":"cebpf4jnsgd1na2vs0mg"},{"bike_id":"9bcbd89c-6bd7-47e1-b04e-ea6f956b5673","system_id":"levelo_inurba_marseille","lat":43.28618,"lon":5.35113,"is_reserved":false,"is_disabled":false,"rental_uris":{"android":"levelo://app?vid=9bcbd89c-6bd7-47e1-b04e-ea6f956b5673","ios":"levelo://app?vid=9bcbd89c-6bd7-47e1-b04e-ea6f956b5673"},"vehicle_type_id":"4","last_reported":1712412341,"current_range_meters":31200,"station_id":"ce4bhch2rcd13ifvqeug","pricing_plan_id":"cebpf4jnsgd1na2vs0mg"},{"bike_id":"72950446-5d6c-4b9d-8bdc-0534b259d78c","system_id":"levelo_inurba_marseille","lat":43.28618,"lon":5.3511,"is_reserved":false,"is_disabled":false,"rental_uris":{"android":"levelo://app?vid=72950446-5d6c-4b9d-8bdc-0534b259d78c","ios":"levelo://app?vid=72950446-5d6c-4b9d-8bdc-0534b259d78c"},"vehicle_type_id":"4","last_reported":1712412341,"current_range_meters":18400,"station_id":"ce4bhch2rcd13ifvqeug","pricing_plan_id":"cebpf4jnsgd1na2vs0mg"},{"bike_id":"d1614cfc-ab02-493f-9303-94c0aee169c0","system_id":"levelo_inurba_marseille","lat":43.286191,"lon":5.351056,"is_reserved":false,"is_disabled":false,"rental_uris":{"android":"levelo://app?vid=d1614cfc-ab02-493f-9303-94c0aee169c0","ios":"levelo://app?vid=d1614cfc-ab02-493f-9303-94c0aee169c0"},"vehicle_type_id":"4","last_reported":1712412341,"current_range_meters":31200,"station_id":"ce4bhch2rcd13ifvqeug","pricing_plan_id":"cebpf4jnsgd1na2vs0mg"},{"bike_id":"246dd155-1811-4873-9d1f-f1bc17a05b18","system_id":"levelo_inurba_marseille","lat":43.286154,"lon":5.351155,"is_reserved":false,"is_disabled":false,"rental_uris":{"android":"levelo://app?vid=246dd155-1811-4873-9d1f-f1bc17a05b18","ios":"levelo://app?vid=246dd155-1811-4873-9d1f-f1bc17a05b18"},"vehicle_type_id":"4","last_reported":1712412341,"current_range_meters":9200,"station_id":"ce4bhch2rcd13ifvqeug","pricing_plan_id":"cebpf4jnsgd1na2vs0mg"},{"bike_id":"ef3aa5b4-3d69-457d-aaa2-53882b437fb2","system_id":"levelo_inurba_marseille","lat":43.28618,"lon":5.35106,"is_reserved":false,"is_disabled":false,"rental_uris":{"android":"levelo://app?vid=ef3aa5b4-3d69-457d-aaa2-53882b437fb2","ios":"levelo://app?vid=ef3aa5b4-3d69-457d-aaa2-53882b437fb2"},"vehicle_type_id":"4","last_reported":1712412341,"current_range_meters":2400,"station_id":"ce4bhch2rcd13ifvqeug","pricing_plan_id":"cebpf4jnsgd1na2vs0mg"},{"bike_id":"f11a5995-1775-40cf-bab8-7f1739fa5d49","system_id":"levelo_inurba_marseille","lat":43.28616,"lon":5.35111,"is_reserved":false,"is_disabled":false,"rental_uris":{"android":"levelo://app?vid=f11a5995-1775-40cf-bab8-7f1739fa5d49","ios":"levelo://app?vid=f11a5995-1775-40cf-bab8-7f1739fa5d49"},"vehicle_type_id":"4","last_reported":1712412341,"current_range_meters":0,"station_id":"ce4bhch2rcd13ifvqeug","pricing_plan_id":"cebpf4jnsgd1na2vs0mg"},{"bike_id":"1c8c60be-0b4b-46b4-82b2-46a1056e75e0","system_id":"levelo_inurba_marseille","lat":43.28617,"lon":5.35105,"is_reserved":false,"is_disabled":false,"rental_uris":{"android":"levelo://app?vid=1c8c60be-0b4b-46b4-82b2-46a1056e75e0","ios":"levelo://app?vid=1c8c60be-0b4b-46b4-82b2-46a1056e75e0"},"vehicle_type_id":"4","last_reported":1712412341,"current_range_meters":22400,"station_id":"ce4bhch2rcd13ifvqeug","pricing_plan_id":"cebpf4jnsgd1na2vs0mg"},{"bike_id":"f33a2ced-7a61-4b4c-a3cc-bdffa983a2b4","system_id":"levelo_inurba_marseille","lat":43.28615,"lon":5.3511,"is_reserved":false,"is_disabled":false,"rental_uris":{"android":"levelo://app?vid=f33a2ced-7a61-4b4c-a3cc-bdffa983a2b4","ios":"levelo://app?vid=f33a2ced-7a61-4b4c-a3cc-bdffa983a2b4"},"vehicle_type_id":"4","last_reported":1712412341,"current_range_meters":3600,"station_id":"ce4bhch2rcd13ifvqeug","pricing_plan_id":"cebpf4jnsgd1na2vs0mg"},{"bike_id":"c2641296-eb31-432b-bc9f-494319ad1be8","system_id":"levelo_inurba_marseille","lat":43.28616,"lon":5.35106,"is_reserved":false,"is_disabled":false,"rental_uris":{"android":"levelo://app?vid=c2641296-eb31-432b-bc9f-494319ad1be8","ios":"levelo://app?vid=c2641296-eb31-432b-bc9f-494319ad1be8"},"vehicle_type_id":"4","last_reported":1712412341,"current_range_meters":13200,"station_id":"ce4bhch2rcd13ifvqeug","pricing_plan_id":"cebpf4jnsgd1na2vs0mg"},{"bike_id":"7ec2cb30-42bf-4655-874b-9fbccdc0ba25","system_id":"levelo_inurba_marseille","lat":43.28616,"lon":5.35105,"is_reserved":false,"is_disabled":false,"rental_uris":{"android":"levelo://app?vid=7ec2cb30-42bf-4655-874b-9fbccdc0ba25","ios":"levelo://app?vid=7ec2cb30-42bf-4655-874b-9fbccdc0ba25"},"vehicle_type_id":"4","last_reported":1712412341,"current_range_meters":13600,"station_id":"ce4bhch2rcd13ifvqeug","pricing_plan_id":"cebpf4jnsgd1na2vs0mg"},{"bike_id":"a71a1634-f931-4408-8b72-0d062142e805","system_id":"levelo_inurba_marseille","lat":43.28616,"lon":5.35103,"is_reserved":false,"is_disabled":false,"rental_uris":{"android":"levelo://app?vid=a71a1634-f931-4408-8b72-0d062142e805","ios":"levelo://app?vid=a71a1634-f931-4408-8b72-0d062142e805"},"vehicle_type_id":"4","last_reported":1712412341,"current_range_meters":13600,"station_id":"ce4bhch2rcd13ifvqeug","pricing_plan_id":"cebpf4jnsgd1na2vs0mg"},{"bike_id":"7ebaab5f-993f-4bf0-a29c-28e7f6e723b3","system_id":"levelo_inurba_marseille","lat":43.28614,"lon":5.35106,"is_reserved":false,"is_disabled":false,"rental_uris":{"android":"levelo://app?vid=7ebaab5f-993f-4bf0-a29c-28e7f6e723b3","ios":"levelo://app?vid=7ebaab5f-993f-4bf0-a29c-28e7f6e723b3"},"vehicle_type_id":"4","last_reported":1712412341,"current_range_meters":10400,"station_id":"ce4bhch2rcd13ifvqeug","pricing_plan_id":"cebpf4jnsgd1na2vs0mg"},{"bike_id":"731995c1-ef4e-427f-8d1d-625e49b468cf","system_id":"levelo_inurba_marseille","lat":43.28615,"lon":5.35101,"is_reserved":false,"is_disabled":false,"rental_uris":{"android":"levelo://app?vid=731995c1-ef4e-427f-8d1d-625e49b468cf","ios":"levelo://app?vid=731995c1-ef4e-427f-8d1d-625e49b468cf"},"vehicle_type_id":"4","last_reported":1712412341,"current_range_meters":6800,"station_id":"ce4bhch2rcd13ifvqeug","pricing_plan_id":"cebpf4jnsgd1na2vs0mg"},{"bike_id":"ae10937b-b519-4531-80df-b33107c70614","system_id":"levelo_inurba_marseille","lat":43.28613,"lon":5.35104,"is_reserved":false,"is_disabled":false,"rental_uris":{"android":"levelo://app?vid=ae10937b-b519-4531-80df-b33107c70614","ios":"levelo://app?vid=ae10937b-b519-4531-80df-b33107c70614"},"vehicle_type_id":"4","last_reported":1712412341,"current_range_meters":6000,"station_id":"ce4bhch2rcd13ifvqeug","pricing_plan_id":"cebpf4jnsgd1na2vs0mg"},{"bike_id":"e5fd84a8-5228-4c9c-b67b-8332905fe962","system_id":"levelo_inurba_marseille","lat":43.28613,"lon":5.35103,"is_reserved":false,"is_disabled":false,"rental_uris":{"android":"levelo://app?vid=e5fd84a8-5228-4c9c-b67b-8332905fe962","ios":"levelo://app?vid=e5fd84a8-5228-4c9c-b67b-8332905fe962"},"vehicle_type_id":"4","last_reported":1712412341,"current_range_meters":20800,"station_id":"ce4bhch2rcd13ifvqeug","pricing_plan_id":"cebpf4jnsgd1na2vs0mg"},{"bike_id":"b1fc98fb-5b8c-4645-9de4-b12a5cb8bcfe","system_id":"levelo_inurba_marseille","lat":43.285848,"lon":5.350787,"is_reserved":false,"is_disabled":false,"rental_uris":{"android":"levelo://app?vid=b1fc98fb-5b8c-4645-9de4-b12a5cb8bcfe","ios":"levelo://app?vid=b1fc98fb-5b8c-4645-9de4-b12a5cb8bcfe"},"vehicle_type_id":"4","last_reported":1712412341,"current_range_meters":16400,"station_id":"ce4bhch2rcd13ifvqeug","pricing_plan_id":"cebpf4jnsgd1na2vs0mg"},{"bike_id":"1bac264e-98b2-4bce-8009-94c9dcc5ed97","system_id":"levelo_inurba_marseille","lat":43.2861,"lon":5.35102,"is_reserved":false,"is_disabled":false,"rental_uris":{"android":"levelo://app?vid=1bac264e-98b2-4bce-8009-94c9dcc5ed97","ios":"levelo://app?vid=1bac264e-98b2-4bce-8009-94c9dcc5ed97"},"vehicle_type_id":"4","last_reported":1712412341,"current_range_meters":19600,"station_id":"ce4bhch2rcd13ifvqeug","pricing_plan_id":"cebpf4jnsgd1na2vs0mg"},{"bike_id":"f0ca38eb-9cac-41e0-84de-1ba8f60ae0a6","system_id":"levelo_inurba_marseille","lat":43.295713,"lon":5.399639,"is_reserved":false,"is_disabled":false,"rental_uris":{"android":"levelo://app?vid=f0ca38eb-9cac-41e0-84de-1ba8f60ae0a6","ios":"levelo://app?vid=f0ca38eb-9cac-41e0-84de-1ba8f60ae0a6"},"vehicle_type_id":"4","last_reported":1712412341,"current_range_meters":2400,"station_id":"ce4bh312rcd13ifvqdj0","pricing_plan_id":"cebpf4jnsgd1na2vs0mg"},{"bike_id":"e01ff5fa-1b92-4f0c-946d-d7b70bca91eb","system_id":"levelo_inurba_marseille","lat":43.283998,"lon":5.375062,"is_reserved":false,"is_disabled":false,"rental_uris":{"android":"levelo://app?vid=e01ff5fa-1b92-4f0c-946d-d7b70bca91eb","ios":"levelo://app?vid=e01ff5fa-1b92-4f0c-946d-d7b70bca91eb"},"vehicle_type_id":"4","last_reported":1712412341,"current_range_meters":0,"station_id":"ce4bh412rcd13ifvqds0","pricing_plan_id":"cebpf4jnsgd1na2vs0mg"},{"bike_id":"c5c0d990-19bb-4244-9804-bfc36259b72b","system_id":"levelo_inurba_marseille","lat":43.33717,"lon":5.391857,"is_reserved":false,"is_disabled":false,"rental_uris":{"android":"levelo://app?vid=c5c0d990-19bb-4244-9804-bfc36259b72b","ios":"levelo://app?vid=c5c0d990-19bb-4244-9804-bfc36259b72b"},"vehicle_type_id":"4","last_reported":1712412341,"current_range_meters":24400,"station_id":"ce4bhr92rcd13ifvqhsg","pricing_plan_id":"cebpf4jnsgd1na2vs0mg"},{"bike_id":"a936c9f4-21b2-41ac-b920-61e8b40d8e43","system_id":"levelo_inurba_marseille","lat":43.319179,"lon":5.407725,"is_reserved":false,"is_disabled":false,"rental_uris":{"android":"levelo://app?vid=a936c9f4-21b2-41ac-b920-61e8b40d8e43","ios":"levelo://app?vid=a936c9f4-21b2-41ac-b920-61e8b40d8e43"},"vehicle_type_id":"4","last_reported":1712412341,"current_range_meters":12800,"station_id":"ce4bhq12rcd13ifvqhig","pricing_plan_id":"cebpf4jnsgd1na2vs0mg"},{"bike_id":"ec19f8ce-c9ee-450b-a419-773231f14327","system_id":"levelo_inurba_marseille","lat":43.337168,"lon":5.391825,"is_reserved":false,"is_disabled":false,"rental_uris":{"android":"levelo://app?vid=ec19f8ce-c9ee-450b-a419-773231f14327","ios":"levelo://app?vid=ec19f8ce-c9ee-450b-a419-773231f14327"},"vehicle_type_id":"4","last_reported":1712412341,"current_range_meters":31600,"station_id":"ce4bhr92rcd13ifvqhsg","pricing_plan_id":"cebpf4jnsgd1na2vs0mg"},{"bike_id":"e76e4a64-f734-4e7b-a2e0-975011aa301c","system_id":"levelo_inurba_marseille","lat":43.337168,"lon":5.391825,"is_reserved":false,"is_disabled":false,"rental_uris":{"android":"levelo://app?vid=e76e4a64-f734-4e7b-a2e0-975011aa301c","ios":"levelo://app?vid=e76e4a64-f734-4e7b-a2e0-975011aa301c"},"vehicle_type_id":"4","last_reported":1712412341,"current_range_meters":20400,"station_id":"ce4bhr92rcd13ifvqhsg","pricing_plan_id":"cebpf4jnsgd1na2vs0mg"},{"bike_id":"5c371ace-8815-47a2-98e4-6b9611565400","system_id":"levelo_inurba_marseille","lat":43.3235,"lon":5.40628,"is_reserved":false,"is_disabled":false,"rental_uris":{"android":"levelo://app?vid=5c371ace-8815-47a2-98e4-6b9611565400","ios":"levelo://app?vid=5c371ace-8815-47a2-98e4-6b9611565400"},"vehicle_type_id":"4","last_reported":1712412341,"current_range_meters":5200,"station_id":"ce4bhq92rcd13ifvqhjg","pricing_plan_id":"cebpf4jnsgd1na2vs0mg"},{"bike_id":"00794e69-f6b6-45d6-843b-9b061fc6d6be","system_id":"levelo_inurba_marseille","lat":43.287884,"lon":5.391435,"is_reserved":false,"is_disabled":false,"rental_uris":{"android":"levelo://app?vid=00794e69-f6b6-45d6-843b-9b061fc6d6be","ios":"levelo://app?vid=00794e69-f6b6-45d6-843b-9b061fc6d6be"},"vehicle_type_id":"4","last_reported":1712412341,"current_range_meters":5200,"station_id":"","pricing_plan_id":"cebpf4jnsgd1na2vs0mg"},{"bike_id":"7d2c1ef5-7cbd-4f24-824b-c356596c6562","system_id":"levelo_inurba_marseille","lat":43.265569,"lon":5.390047,"is_reserved":false,"is_disabled":false,"rental_uris":{"android":"levelo://app?vid=7d2c1ef5-7cbd-4f24-824b-c356596c6562","ios":"levelo://app?vid=7d2c1ef5-7cbd-4f24-824b-c356596c6562"},"vehicle_type_id":"4","last_reported":1712412341,"current_range_meters":6800,"station_id":"ce4bhe12rcd13ifvqf30","pricing_plan_id":"cebpf4jnsgd1na2vs0mg"},{"bike_id":"85e42360-4608-48ef-875a-c400b9ca758e","system_id":"levelo_inurba_marseille","lat":43.284793,"lon":5.384113,"is_reserved":false,"is_disabled":false,"rental_uris":{"android":"levelo://app?vid=85e42360-4608-48ef-875a-c400b9ca758e","ios":"levelo://app?vid=85e42360-4608-48ef-875a-c400b9ca758e"},"vehicle_type_id":"4","last_reported":1712412341,"current_range_meters":0,"station_id":"ce4bh512rcd13ifvqe3g","pricing_plan_id":"cebpf4jnsgd1na2vs0mg"},{"bike_id":"538aca99-0a60-42ee-b511-f7950728b4c0","system_id":"levelo_inurba_marseille","lat":43.288497,"lon":5.393089,"is_reserved":false,"is_disabled":false,"rental_uris":{"android":"levelo://app?vid=538aca99-0a60-42ee-b511-f7950728b4c0","ios":"levelo://app?vid=538aca99-0a60-42ee-b511-f7950728b4c0"},"vehicle_type_id":"4","last_reported":1712412341,"current_range_meters":0,"station_id":"ce4bh2p2rcd13ifvqdi0","pricing_plan_id":"cebpf4jnsgd1na2vs0mg"},{"bike_id":"d38d4e33-b571-4ce4-9f07-555c232d4bf7","system_id":"levelo_inurba_marseille","lat":43.291675,"lon":5.371583,"is_reserved":false,"is_disabled":false,"rental_uris":{"android":"levelo://app?vid=d38d4e33-b571-4ce4-9f07-555c232d4bf7","ios":"levelo://app?vid=d38d4e33-b571-4ce4-9f07-555c232d4bf7"},"vehicle_type_id":"4","last_reported":1712412341,"current_range_meters":27600,"station_id":"ce4bha92rcd13ifvqeh0","pricing_plan_id":"cebpf4jnsgd1na2vs0mg"},{"bike_id":"c636032c-cfa4-4786-8b0d-60e4c418e4a3","system_id":"levelo_inurba_marseille","lat":43.28429,"lon":5.34994,"is_reserved":false,"is_disabled":false,"rental_uris":{"android":"levelo://app?vid=c636032c-cfa4-4786-8b0d-60e4c418e4a3","ios":"levelo://app?vid=c636032c-cfa4-4786-8b0d-60e4c418e4a3"},"vehicle_type_id":"4","last_reported":1712412341,"current_range_meters":11600,"station_id":"ce4bhbh2rcd13ifvqepg","pricing_plan_id":"cebpf4jnsgd1na2vs0mg"},{"bike_id":"006cea23-9849-4bd9-8159-7eac2da36164","system_id":"levelo_inurba_marseille","lat":43.284214,"lon":5.349706,"is_reserved":false,"is_disabled":false,"rental_uris":{"android":"levelo://app?vid=006cea23-9849-4bd9-8159-7eac2da36164","ios":"levelo://app?vid=006cea23-9849-4bd9-8159-7eac2da36164"},"vehicle_type_id":"4","last_reported":1712412341,"current_range_meters":8800,"station_id":"ce4bhbh2rcd13ifvqepg","pricing_plan_id":"cebpf4jnsgd1na2vs0mg"},{"bike_id":"2615c71c-c441-41a5-8a10-935268ab40ce","system_id":"levelo_inurba_marseille","lat":43.28421,"lon":5.35002,"is_reserved":false,"is_disabled":false,"rental_uris":{"android":"levelo://app?vid=2615c71c-c441-41a5-8a10-935268ab40ce","ios":"levelo://app?vid=2615c71c-c441-41a5-8a10-935268ab40ce"},"vehicle_type_id":"4","last_reported":1712412341,"current_range_meters":0,"station_id":"ce4bhbh2rcd13ifvqepg","pricing_plan_id":"cebpf4jnsgd1na2vs0mg"},{"bike_id":"ce7bb308-75d4-437b-8d9d-94b3c16c1492","system_id":"levelo_inurba_marseille","lat":43.284238,"lon":5.349882,"is_reserved":false,"is_disabled":false,"rental_uris":{"android":"levelo://app?vid=ce7bb308-75d4-437b-8d9d-94b3c16c1492","ios":"levelo://app?vid=ce7bb308-75d4-437b-8d9d-94b3c16c1492"},"vehicle_type_id":"4","last_reported":1712412341,"current_range_meters":31200,"station_id":"ce4bhbh2rcd13ifvqepg","pricing_plan_id":"cebpf4jnsgd1na2vs0mg"},{"bike_id":"24a6cd38-e095-4ad1-b5fe-5dd25fbac559","system_id":"levelo_inurba_marseille","lat":43.284217,"lon":5.349697,"is_reserved":false,"is_disabled":false,"rental_uris":{"android":"levelo://app?vid=24a6cd38-e095-4ad1-b5fe-5dd25fbac559","ios":"levelo://app?vid=24a6cd38-e095-4ad1-b5fe-5dd25fbac559"},"vehicle_type_id":"4","last_reported":1712412341,"current_range_meters":31200,"station_id":"ce4bhbh2rcd13ifvqepg","pricing_plan_id":"cebpf4jnsgd1na2vs0mg"},{"bike_id":"a5d6011e-381c-4885-bc25-4cffe6dc6c39","system_id":"levelo_inurba_marseille","lat":43.284214,"lon":5.349706,"is_reserved":false,"is_disabled":false,"rental_uris":{"android":"levelo://app?vid=a5d6011e-381c-4885-bc25-4cffe6dc6c39","ios":"levelo://app?vid=a5d6011e-381c-4885-bc25-4cffe6dc6c39"},"vehicle_type_id":"4","last_reported":1712412341,"current_range_meters":30000,"station_id":"ce4bhbh2rcd13ifvqepg","pricing_plan_id":"cebpf4jnsgd1na2vs0mg"},{"bike_id":"a95501e3-9ebd-443f-91df-ca1263f83cd2","system_id":"levelo_inurba_marseille","lat":43.28424,"lon":5.34985,"is_reserved":false,"is_disabled":false,"rental_uris":{"android":"levelo://app?vid=a95501e3-9ebd-443f-91df-ca1263f83cd2","ios":"levelo://app?vid=a95501e3-9ebd-443f-91df-ca1263f83cd2"},"vehicle_type_id":"4","last_reported":1712412341,"current_range_meters":30800,"station_id":"ce4bhbh2rcd13ifvqepg","pricing_plan_id":"cebpf4jnsgd1na2vs0mg"},{"bike_id":"9ed78da7-e9be-47da-b365-70c2cc6942d4","system_id":"levelo_inurba_marseille","lat":43.284217,"lon":5.349697,"is_reserved":false,"is_disabled":false,"rental_uris":{"android":"levelo://app?vid=9ed78da7-e9be-47da-b365-70c2cc6942d4","ios":"levelo://app?vid=9ed78da7-e9be-47da-b365-70c2cc6942d4"},"vehicle_type_id":"4","last_reported":1712412341,"current_range_meters":31200,"station_id":"ce4bhbh2rcd13ifvqepg","pricing_plan_id":"cebpf4jnsgd1na2vs0mg"},{"bike_id":"11e466c1-ce6c-4577-a77f-0f70d6ee3c4e","system_id":"levelo_inurba_marseille","lat":43.28423,"lon":5.34987,"is_reserved":false,"is_disabled":false,"rental_uris":{"android":"levelo://app?vid=11e466c1-ce6c-4577-a77f-0f70d6ee3c4e","ios":"levelo://app?vid=11e466c1-ce6c-4577-a77f-0f70d6ee3c4e"},"vehicle_type_id":"4","last_reported":1712412341,"current_range_meters":16000,"station_id":"ce4bhbh2rcd13ifvqepg","pricing_plan_id":"cebpf4jnsgd1na2vs0mg"},{"bike_id":"a1897dc5-05bd-4413-a8c8-1f887415a32c","system_id":"levelo_inurba_marseille","lat":43.28422,"lon":5.3499,"is_reserved":false,"is_disabled":false,"rental_uris":{"android":"levelo://app?vid=a1897dc5-05bd-4413-a8c8-1f887415a32c","ios":"levelo://app?vid=a1897dc5-05bd-4413-a8c8-1f887415a32c"},"vehicle_type_id":"4","last_reported":1712412341,"current_range_meters":20800,"station_id":"ce4bhbh2rcd13ifvqepg","pricing_plan_id":"cebpf4jnsgd1na2vs0mg"},{"bike_id":"6b7b7133-edea-4558-ae7c-039faecca6d7","system_id":"levelo_inurba_marseille","lat":43.284214,"lon":5.349706,"is_reserved":false,"is_disabled":false,"rental_uris":{"android":"levelo://app?vid=6b7b7133-edea-4558-ae7c-039faecca6d7","ios":"levelo://app?vid=6b7b7133-edea-4558-ae7c-039faecca6d7"},"vehicle_type_id":"4","last_reported":1712412341,"current_range_meters":11600,"station_id":"ce4bhbh2rcd13ifvqepg","pricing_plan_id":"cebpf4jnsgd1na2vs0mg"},{"bike_id":"8023571b-7b6b-4bad-9756-f4f2978e5bc5","system_id":"levelo_inurba_marseille","lat":43.284219,"lon":5.3497,"is_reserved":false,"is_disabled":false,"rental_uris":{"android":"levelo://app?vid=8023571b-7b6b-4bad-9756-f4f2978e5bc5","ios":"levelo://app?vid=8023571b-7b6b-4bad-9756-f4f2978e5bc5"},"vehicle_type_id":"4","last_reported":1712412341,"current_range_meters":12400,"station_id":"ce4bhbh2rcd13ifvqepg","pricing_plan_id":"cebpf4jnsgd1na2vs0mg"},{"bike_id":"9f024da7-7376-4ee8-af23-cda532e658a6","system_id":"levelo_inurba_marseille","lat":43.28424,"lon":5.34982,"is_reserved":false,"is_disabled":false,"rental_uris":{"android":"levelo://app?vid=9f024da7-7376-4ee8-af23-cda532e658a6","ios":"levelo://app?vid=9f024da7-7376-4ee8-af23-cda532e658a6"},"vehicle_type_id":"4","last_reported":1712412341,"current_range_meters":4400,"station_id":"ce4bhbh2rcd13ifvqepg","pricing_plan_id":"cebpf4jnsgd1na2vs0mg"},{"bike_id":"4f7f2d6d-70fb-4371-b8a4-18dc72505ed0","system_id":"levelo_inurba_marseille","lat":43.284212,"lon":5.349896,"is_reserved":false,"is_disabled":false,"rental_uris":{"android":"levelo://app?vid=4f7f2d6d-70fb-4371-b8a4-18dc72505ed0","ios":"levelo://app?vid=4f7f2d6d-70fb-4371-b8a4-18dc72505ed0"},"vehicle_type_id":"4","last_reported":1712412341,"current_range_meters":15600,"station_id":"ce4bhbh2rcd13ifvqepg","pricing_plan_id":"cebpf4jnsgd1na2vs0mg"},{"bike_id":"aba7328b-2269-4b8a-b586-b31d67c47c41","system_id":"levelo_inurba_marseille","lat":43.284213,"lon":5.349886,"is_reserved":false,"is_disabled":false,"rental_uris":{"android":"levelo://app?vid=aba7328b-2269-4b8a-b586-b31d67c47c41","ios":"levelo://app?vid=aba7328b-2269-4b8a-b586-b31d67c47c41"},"vehicle_type_id":"4","last_reported":1712412341,"current_range_meters":4800,"station_id":"ce4bhbh2rcd13ifvqepg","pricing_plan_id":"cebpf4jnsgd1na2vs0mg"},{"bike_id":"4042e741-1cba-4e4a-90c5-f2b0d7a8d024","system_id":"levelo_inurba_marseille","lat":43.28422,"lon":5.349864,"is_reserved":false,"is_disabled":false,"rental_uris":{"android":"levelo://app?vid=4042e741-1cba-4e4a-90c5-f2b0d7a8d024","ios":"levelo://app?vid=4042e741-1cba-4e4a-90c5-f2b0d7a8d024"},"vehicle_type_id":"4","last_reported":1712412341,"current_range_meters":6800,"station_id":"ce4bhbh2rcd13ifvqepg","pricing_plan_id":"cebpf4jnsgd1na2vs0mg"},{"bike_id":"09eb833e-ea46-4957-98e9-09a92ef77301","system_id":"levelo_inurba_marseille","lat":43.284214,"lon":5.349706,"is_reserved":false,"is_disabled":false,"rental_uris":{"android":"levelo://app?vid=09eb833e-ea46-4957-98e9-09a92ef77301","ios":"levelo://app?vid=09eb833e-ea46-4957-98e9-09a92ef77301"},"vehicle_type_id":"4","last_reported":1712412341,"current_range_meters":7600,"station_id":"ce4bhbh2rcd13ifvqepg","pricing_plan_id":"cebpf4jnsgd1na2vs0mg"},{"bike_id":"cd432511-508d-4d9c-a61d-7f86c14091d6","system_id":"levelo_inurba_marseille","lat":43.284207,"lon":5.349893,"is_reserved":false,"is_disabled":false,"rental_uris":{"android":"levelo://app?vid=cd432511-508d-4d9c-a61d-7f86c14091d6","ios":"levelo://app?vid=cd432511-508d-4d9c-a61d-7f86c14091d6"},"vehicle_type_id":"4","last_reported":1712412341,"current_range_meters":7200,"station_id":"ce4bhbh2rcd13ifvqepg","pricing_plan_id":"cebpf4jnsgd1na2vs0mg"},{"bike_id":"22d667f9-da73-42cf-889d-7a87cc9e9815","system_id":"levelo_inurba_marseille","lat":43.28421,"lon":5.34988,"is_reserved":false,"is_disabled":false,"rental_uris":{"android":"levelo://app?vid=22d667f9-da73-42cf-889d-7a87cc9e9815","ios":"levelo://app?vid=22d667f9-da73-42cf-889d-7a87cc9e9815"},"vehicle_type_id":"4","last_reported":1712412341,"current_range_meters":22800,"station_id":"ce4bhbh2rcd13ifvqepg","pricing_plan_id":"cebpf4jnsgd1na2vs0mg"},{"bike_id":"ff27dcc9-80ed-4778-9505-5ee88995b223","system_id":"levelo_inurba_marseille","lat":43.284217,"lon":5.349697,"is_reserved":false,"is_disabled":false,"rental_uris":{"android":"levelo://app?vid=ff27dcc9-80ed-4778-9505-5ee88995b223","ios":"levelo://app?vid=ff27dcc9-80ed-4778-9505-5ee88995b223"},"vehicle_type_id":"4","last_reported":1712412341,"current_range_meters":14400,"station_id":"ce4bhbh2rcd13ifvqepg","pricing_plan_id":"cebpf4jnsgd1na2vs0mg"},{"bike_id":"09806051-dc97-4445-ae64-855b51986f86","system_id":"levelo_inurba_marseille","lat":43.284219,"lon":5.3497,"is_reserved":false,"is_disabled":false,"rental_uris":{"android":"levelo://app?vid=09806051-dc97-4445-ae64-855b51986f86","ios":"levelo://app?vid=09806051-dc97-4445-ae64-855b51986f86"},"vehicle_type_id":"4","last_reported":1712412341,"current_range_meters":16000,"station_id":"ce4bhbh2rcd13ifvqepg","pricing_plan_id":"cebpf4jnsgd1na2vs0mg"},{"bike_id":"821fbbca-1fbe-46fd-b670-f2e70a4d5f4b","system_id":"levelo_inurba_marseille","lat":43.28424,"lon":5.34977,"is_reserved":false,"is_disabled":false,"rental_uris":{"android":"levelo://app?vid=821fbbca-1fbe-46fd-b670-f2e70a4d5f4b","ios":"levelo://app?vid=821fbbca-1fbe-46fd-b670-f2e70a4d5f4b"},"vehicle_type_id":"4","last_reported":1712412341,"current_range_meters":21600,"station_id":"ce4bhbh2rcd13ifvqepg","pricing_plan_id":"cebpf4jnsgd1na2vs0mg"},{"bike_id":"277580f7-8fd0-4b7c-9f4a-93edb83110cb","system_id":"levelo_inurba_marseille","lat":43.28422,"lon":5.34982,"is_reserved":false,"is_disabled":false,"rental_uris":{"android":"levelo://app?vid=277580f7-8fd0-4b7c-9f4a-93edb83110cb","ios":"levelo://app?vid=277580f7-8fd0-4b7c-9f4a-93edb83110cb"},"vehicle_type_id":"4","last_reported":1712412341,"current_range_meters":0,"station_id":"ce4bhbh2rcd13ifvqepg","pricing_plan_id":"cebpf4jnsgd1na2vs0mg"},{"bike_id":"1c9183ef-2614-41c3-98b1-6d5a0f4285b2","system_id":"levelo_inurba_marseille","lat":43.28419,"lon":5.34991,"is_reserved":false,"is_disabled":false,"rental_uris":{"android":"levelo://app?vid=1c9183ef-2614-41c3-98b1-6d5a0f4285b2","ios":"levelo://app?vid=1c9183ef-2614-41c3-98b1-6d5a0f4285b2"},"vehicle_type_id":"4","last_reported":1712412341,"current_range_meters":23200,"station_id":"ce4bhbh2rcd13ifvqepg","pricing_plan_id":"cebpf4jnsgd1na2vs0mg"},{"bike_id":"9a0dce56-e2c6-4b6a-a9cb-880609f956af","system_id":"levelo_inurba_marseille","lat":43.284208,"lon":5.349849,"is_reserved":false,"is_disabled":false,"rental_uris":{"android":"levelo://app?vid=9a0dce56-e2c6-4b6a-a9cb-880609f956af","ios":"levelo://app?vid=9a0dce56-e2c6-4b6a-a9cb-880609f956af"},"vehicle_type_id":"4","last_reported":1712412341,"current_range_meters":29200,"station_id":"ce4bhbh2rcd13ifvqepg","pricing_plan_id":"cebpf4jnsgd1na2vs0mg"},{"bike_id":"0b2c94ce-509c-481f-a9aa-0401b3c3e6b3","system_id":"levelo_inurba_marseille","lat":43.284217,"lon":5.349697,"is_reserved":false,"is_disabled":false,"rental_uris":{"android":"levelo://app?vid=0b2c94ce-509c-481f-a9aa-0401b3c3e6b3","ios":"levelo://app?vid=0b2c94ce-509c-481f-a9aa-0401b3c3e6b3"},"vehicle_type_id":"4","last_reported":1712412341,"current_range_meters":22000,"station_id":"ce4bhbh2rcd13ifvqepg","pricing_plan_id":"cebpf4jnsgd1na2vs0mg"},{"bike_id":"256187f6-1f70-4295-ace7-105cb21da54c","system_id":"levelo_inurba_marseille","lat":43.2842,"lon":5.34987,"is_reserved":false,"is_disabled":false,"rental_uris":{"android":"levelo://app?vid=256187f6-1f70-4295-ace7-105cb21da54c","ios":"levelo://app?vid=256187f6-1f70-4295-ace7-105cb21da54c"},"vehicle_type_id":"4","last_reported":1712412341,"current_range_meters":25600,"station_id":"ce4bhbh2rcd13ifvqepg","pricing_plan_id":"cebpf4jnsgd1na2vs0mg"},{"bike_id":"0fdc44ad-2978-486d-910c-1fb6f5bf5603","system_id":"levelo_inurba_marseille","lat":43.284192,"lon":5.349884,"is_reserved":false,"is_disabled":false,"rental_uris":{"android":"levelo://app?vid=0fdc44ad-2978-486d-910c-1fb6f5bf5603","ios":"levelo://app?vid=0fdc44ad-2978-486d-910c-1fb6f5bf5603"},"vehicle_type_id":"4","last_reported":1712412341,"current_range_meters":31200,"station_id":"ce4bhbh2rcd13ifvqepg","pricing_plan_id":"cebpf4jnsgd1na2vs0mg"},{"bike_id":"a73b5947-ffbc-42eb-85cc-50ffcbd02efe","system_id":"levelo_inurba_marseille","lat":43.284217,"lon":5.349697,"is_reserved":false,"is_disabled":false,"rental_uris":{"android":"levelo://app?vid=a73b5947-ffbc-42eb-85cc-50ffcbd02efe","ios":"levelo://app?vid=a73b5947-ffbc-42eb-85cc-50ffcbd02efe"},"vehicle_type_id":"4","last_reported":1712412341,"current_range_meters":30400,"station_id":"ce4bhbh2rcd13ifvqepg","pricing_plan_id":"cebpf4jnsgd1na2vs0mg"},{"bike_id":"5c943706-755f-4529-9fa4-887e50e46d7d","system_id":"levelo_inurba_marseille","lat":43.284217,"lon":5.349697,"is_reserved":false,"is_disabled":false,"rental_uris":{"android":"levelo://app?vid=5c943706-755f-4529-9fa4-887e50e46d7d","ios":"levelo://app?vid=5c943706-755f-4529-9fa4-887e50e46d7d"},"vehicle_type_id":"4","last_reported":1712412341,"current_range_meters":14400,"station_id":"ce4bhbh2rcd13ifvqepg","pricing_plan_id":"cebpf4jnsgd1na2vs0mg"},{"bike_id":"e720f177-d09f-4c13-9d14-b009a17daa66","system_id":"levelo_inurba_marseille","lat":43.28417,"lon":5.34995,"is_reserved":false,"is_disabled":false,"rental_uris":{"android":"levelo://app?vid=e720f177-d09f-4c13-9d14-b009a17daa66","ios":"levelo://app?vid=e720f177-d09f-4c13-9d14-b009a17daa66"},"vehicle_type_id":"4","last_reported":1712412341,"current_range_meters":3600,"station_id":"ce4bhbh2rcd13ifvqepg","pricing_plan_id":"cebpf4jnsgd1na2vs0mg"},{"bike_id":"639eabb1-35c9-4891-82ea-dd9a90e70991","system_id":"levelo_inurba_marseille","lat":43.284214,"lon":5.349706,"is_reserved":false,"is_disabled":false,"rental_uris":{"android":"levelo://app?vid=639eabb1-35c9-4891-82ea-dd9a90e70991","ios":"levelo://app?vid=639eabb1-35c9-4891-82ea-dd9a90e70991"},"vehicle_type_id":"4","last_reported":1712412341,"current_range_meters":24400,"station_id":"ce4bhbh2rcd13ifvqepg","pricing_plan_id":"cebpf4jnsgd1na2vs0mg"},{"bike_id":"62a265d1-8834-4f07-aec5-6e63284e4704","system_id":"levelo_inurba_marseille","lat":43.28421,"lon":5.34981,"is_reserved":false,"is_disabled":false,"rental_uris":{"android":"levelo://app?vid=62a265d1-8834-4f07-aec5-6e63284e4704","ios":"levelo://app?vid=62a265d1-8834-4f07-aec5-6e63284e4704"},"vehicle_type_id":"4","last_reported":1712412341,"current_range_meters":10400,"station_id":"ce4bhbh2rcd13ifvqepg","pricing_plan_id":"cebpf4jnsgd1na2vs0mg"},{"bike_id":"491d5efd-b7b7-4c14-ab22-5c3443ef4588","system_id":"levelo_inurba_marseille","lat":43.284217,"lon":5.349697,"is_reserved":false,"is_disabled":false,"rental_uris":{"android":"levelo://app?vid=491d5efd-b7b7-4c14-ab22-5c3443ef4588","ios":"levelo://app?vid=491d5efd-b7b7-4c14-ab22-5c3443ef4588"},"vehicle_type_id":"4","last_reported":1712412341,"current_range_meters":29600,"station_id":"ce4bhbh2rcd13ifvqepg","pricing_plan_id":"cebpf4jnsgd1na2vs0mg"},{"bike_id":"3a7332d9-b211-468b-ab34-1ac33a06f451","system_id":"levelo_inurba_marseille","lat":43.284217,"lon":5.349697,"is_reserved":false,"is_disabled":false,"rental_uris":{"android":"levelo://app?vid=3a7332d9-b211-468b-ab34-1ac33a06f451","ios":"levelo://app?vid=3a7332d9-b211-468b-ab34-1ac33a06f451"},"vehicle_type_id":"4","last_reported":1712412341,"current_range_meters":23600,"station_id":"ce4bhbh2rcd13ifvqepg","pricing_plan_id":"cebpf4jnsgd1na2vs0mg"},{"bike_id":"684b17fd-8f80-4a86-bf5e-e437d16b2fd7","system_id":"levelo_inurba_marseille","lat":43.28416,"lon":5.34995,"is_reserved":false,"is_disabled":false,"rental_uris":{"android":"levelo://app?vid=684b17fd-8f80-4a86-bf5e-e437d16b2fd7","ios":"levelo://app?vid=684b17fd-8f80-4a86-bf5e-e437d16b2fd7"},"vehicle_type_id":"4","last_reported":1712412341,"current_range_meters":18400,"station_id":"ce4bhbh2rcd13ifvqepg","pricing_plan_id":"cebpf4jnsgd1na2vs0mg"},{"bike_id":"d8ca2911-b8e6-42f1-af4e-879f971a9bdd","system_id":"levelo_inurba_marseille","lat":43.284219,"lon":5.3497,"is_reserved":false,"is_disabled":false,"rental_uris":{"android":"levelo://app?vid=d8ca2911-b8e6-42f1-af4e-879f971a9bdd","ios":"levelo://app?vid=d8ca2911-b8e6-42f1-af4e-879f971a9bdd"},"vehicle_type_id":"4","last_reported":1712412341,"current_range_meters":12400,"station_id":"ce4bhbh2rcd13ifvqepg","pricing_plan_id":"cebpf4jnsgd1na2vs0mg"},{"bike_id":"d7fca6c5-8080-4c07-9087-2e8fbd912991","system_id":"levelo_inurba_marseille","lat":43.284217,"lon":5.349697,"is_reserved":false,"is_disabled":false,"rental_uris":{"android":"levelo://app?vid=d7fca6c5-8080-4c07-9087-2e8fbd912991","ios":"levelo://app?vid=d7fca6c5-8080-4c07-9087-2e8fbd912991"},"vehicle_type_id":"4","last_reported":1712412341,"current_range_meters":7200,"station_id":"ce4bhbh2rcd13ifvqepg","pricing_plan_id":"cebpf4jnsgd1na2vs0mg"},{"bike_id":"a0147791-1d3b-4765-82cc-6ecde7eaeeee","system_id":"levelo_inurba_marseille","lat":43.284217,"lon":5.349697,"is_reserved":false,"is_disabled":false,"rental_uris":{"android":"levelo://app?vid=a0147791-1d3b-4765-82cc-6ecde7eaeeee","ios":"levelo://app?vid=a0147791-1d3b-4765-82cc-6ecde7eaeeee"},"vehicle_type_id":"4","last_reported":1712412341,"current_range_meters":800,"station_id":"ce4bhbh2rcd13ifvqepg","pricing_plan_id":"cebpf4jnsgd1na2vs0mg"},{"bike_id":"69eff2c1-4843-4a88-94bf-f2e8291e6c6f","system_id":"levelo_inurba_marseille","lat":43.28417,"lon":5.34988,"is_reserved":false,"is_disabled":false,"rental_uris":{"android":"levelo://app?vid=69eff2c1-4843-4a88-94bf-f2e8291e6c6f","ios":"levelo://app?vid=69eff2c1-4843-4a88-94bf-f2e8291e6c6f"},"vehicle_type_id":"4","last_reported":1712412341,"current_range_meters":6000,"station_id":"ce4bhbh2rcd13ifvqepg","pricing_plan_id":"cebpf4jnsgd1na2vs0mg"},{"bike_id":"103c3a16-373f-4ff6-962a-950a1c000648","system_id":"levelo_inurba_marseille","lat":43.284217,"lon":5.349697,"is_reserved":false,"is_disabled":false,"rental_uris":{"android":"levelo://app?vid=103c3a16-373f-4ff6-962a-950a1c000648","ios":"levelo://app?vid=103c3a16-373f-4ff6-962a-950a1c000648"},"vehicle_type_id":"4","last_reported":1712412341,"current_range_meters":25200,"station_id":"ce4bhbh2rcd13ifvqepg","pricing_plan_id":"cebpf4jnsgd1na2vs0mg"},{"bike_id":"75328eb3-ab3a-455e-98cb-13ae351b08b7","system_id":"levelo_inurba_marseille","lat":43.284214,"lon":5.349706,"is_reserved":false,"is_disabled":false,"rental_uris":{"android":"levelo://app?vid=75328eb3-ab3a-455e-98cb-13ae351b08b7","ios":"levelo://app?vid=75328eb3-ab3a-455e-98cb-13ae351b08b7"},"vehicle_type_id":"4","last_reported":1712412341,"current_range_meters":12800,"station_id":"ce4bhbh2rcd13ifvqepg","pricing_plan_id":"cebpf4jnsgd1na2vs0mg"},{"bike_id":"c576f199-d2c3-466e-a4b8-43acd4826343","system_id":"levelo_inurba_marseille","lat":43.28416,"lon":5.34987,"is_reserved":false,"is_disabled":false,"rental_uris":{"android":"levelo://app?vid=c576f199-d2c3-466e-a4b8-43acd4826343","ios":"levelo://app?vid=c576f199-d2c3-466e-a4b8-43acd4826343"},"vehicle_type_id":"4","last_reported":1712412341,"current_range_meters":8400,"station_id":"ce4bhbh2rcd13ifvqepg","pricing_plan_id":"cebpf4jnsgd1na2vs0mg"},{"bike_id":"fe0682f1-9605-4ee4-948c-434d77d53810","system_id":"levelo_inurba_marseille","lat":43.284217,"lon":5.349697,"is_reserved":false,"is_disabled":false,"rental_uris":{"android":"levelo://app?vid=fe0682f1-9605-4ee4-948c-434d77d53810","ios":"levelo://app?vid=fe0682f1-9605-4ee4-948c-434d77d53810"},"vehicle_type_id":"4","last_reported":1712412341,"current_range_meters":9200,"station_id":"ce4bhbh2rcd13ifvqepg","pricing_plan_id":"cebpf4jnsgd1na2vs0mg"},{"bike_id":"0e781c78-6ffd-412a-9ae4-53c8dd221125","system_id":"levelo_inurba_marseille","lat":43.284183,"lon":5.349783,"is_reserved":false,"is_disabled":false,"rental_uris":{"android":"levelo://app?vid=0e781c78-6ffd-412a-9ae4-53c8dd221125","ios":"levelo://app?vid=0e781c78-6ffd-412a-9ae4-53c8dd221125"},"vehicle_type_id":"4","last_reported":1712412341,"current_range_meters":19200,"station_id":"ce4bhbh2rcd13ifvqepg","pricing_plan_id":"cebpf4jnsgd1na2vs0mg"},{"bike_id":"248435e9-286f-463f-b72b-0a5ec5cda55f","system_id":"levelo_inurba_marseille","lat":43.284185,"lon":5.349778,"is_reserved":false,"is_disabled":false,"rental_uris":{"android":"levelo://app?vid=248435e9-286f-463f-b72b-0a5ec5cda55f","ios":"levelo://app?vid=248435e9-286f-463f-b72b-0a5ec5cda55f"},"vehicle_type_id":"4","last_reported":1712412341,"current_range_meters":0,"station_id":"ce4bhbh2rcd13ifvqepg","pricing_plan_id":"cebpf4jnsgd1na2vs0mg"},{"bike_id":"9fb6aa50-c5cd-43d3-986a-848e2437092c","system_id":"levelo_inurba_marseille","lat":43.28416,"lon":5.34981,"is_reserved":false,"is_disabled":false,"rental_uris":{"android":"levelo://app?vid=9fb6aa50-c5cd-43d3-986a-848e2437092c","ios":"levelo://app?vid=9fb6aa50-c5cd-43d3-986a-848e2437092c"},"vehicle_type_id":"4","last_reported":1712412341,"current_range_meters":800,"station_id":"ce4bhbh2rcd13ifvqepg","pricing_plan_id":"cebpf4jnsgd1na2vs0mg"},{"bike_id":"8835b6c4-7f08-4155-b97a-bec9fbe4d051","system_id":"levelo_inurba_marseille","lat":43.284217,"lon":5.349697,"is_reserved":false,"is_disabled":false,"rental_uris":{"android":"levelo://app?vid=8835b6c4-7f08-4155-b97a-bec9fbe4d051","ios":"levelo://app?vid=8835b6c4-7f08-4155-b97a-bec9fbe4d051"},"vehicle_type_id":"4","last_reported":1712412341,"current_range_meters":24000,"station_id":"ce4bhbh2rcd13ifvqepg","pricing_plan_id":"cebpf4jnsgd1na2vs0mg"},{"bike_id":"663e0222-db02-40d5-97e4-a4926a56c800","system_id":"levelo_inurba_marseille","lat":43.28415,"lon":5.3498,"is_reserved":false,"is_disabled":false,"rental_uris":{"android":"levelo://app?vid=663e0222-db02-40d5-97e4-a4926a56c800","ios":"levelo://app?vid=663e0222-db02-40d5-97e4-a4926a56c800"},"vehicle_type_id":"4","last_reported":1712412341,"current_range_meters":28400,"station_id":"ce4bhbh2rcd13ifvqepg","pricing_plan_id":"cebpf4jnsgd1na2vs0mg"},{"bike_id":"2c576ceb-f4f9-44b9-a9ff-4012b30cb418","system_id":"levelo_inurba_marseille","lat":43.284214,"lon":5.349706,"is_reserved":false,"is_disabled":false,"rental_uris":{"android":"levelo://app?vid=2c576ceb-f4f9-44b9-a9ff-4012b30cb418","ios":"levelo://app?vid=2c576ceb-f4f9-44b9-a9ff-4012b30cb418"},"vehicle_type_id":"4","last_reported":1712412341,"current_range_meters":14800,"station_id":"ce4bhbh2rcd13ifvqepg","pricing_plan_id":"cebpf4jnsgd1na2vs0mg"},{"bike_id":"cdd2bf80-483a-4441-b5be-3e97ee885d85","system_id":"levelo_inurba_marseille","lat":43.284214,"lon":5.349706,"is_reserved":false,"is_disabled":false,"rental_uris":{"android":"levelo://app?vid=cdd2bf80-483a-4441-b5be-3e97ee885d85","ios":"levelo://app?vid=cdd2bf80-483a-4441-b5be-3e97ee885d85"},"vehicle_type_id":"4","last_reported":1712412341,"current_range_meters":11200,"station_id":"ce4bhbh2rcd13ifvqepg","pricing_plan_id":"cebpf4jnsgd1na2vs0mg"},{"bike_id":"8ed94bdf-aa56-4dd0-9a23-a90d871006d8","system_id":"levelo_inurba_marseille","lat":43.284217,"lon":5.349697,"is_reserved":false,"is_disabled":false,"rental_uris":{"android":"levelo://app?vid=8ed94bdf-aa56-4dd0-9a23-a90d871006d8","ios":"levelo://app?vid=8ed94bdf-aa56-4dd0-9a23-a90d871006d8"},"vehicle_type_id":"4","last_reported":1712412341,"current_range_meters":18800,"station_id":"ce4bhbh2rcd13ifvqepg","pricing_plan_id":"cebpf4jnsgd1na2vs0mg"},{"bike_id":"661f03d0-0edb-4302-a6f8-bc11b3d435f3","system_id":"levelo_inurba_marseille","lat":43.254945,"lon":5.376454,"is_reserved":false,"is_disabled":false,"rental_uris":{"android":"levelo://app?vid=661f03d0-0edb-4302-a6f8-bc11b3d435f3","ios":"levelo://app?vid=661f03d0-0edb-4302-a6f8-bc11b3d435f3"},"vehicle_type_id":"4","last_reported":1712412341,"current_range_meters":12400,"station_id":"ce4bhh12rcd13ifvqff0","pricing_plan_id":"cebpf4jnsgd1na2vs0mg"},{"bike_id":"bc77577b-4435-44b4-a5f3-6c899511bdbc","system_id":"levelo_inurba_marseille","lat":43.284214,"lon":5.349706,"is_reserved":false,"is_disabled":false,"rental_uris":{"android":"levelo://app?vid=bc77577b-4435-44b4-a5f3-6c899511bdbc","ios":"levelo://app?vid=bc77577b-4435-44b4-a5f3-6c899511bdbc"},"vehicle_type_id":"4","last_reported":1712412341,"current_range_meters":0,"station_id":"ce4bhbh2rcd13ifvqepg","pricing_plan_id":"cebpf4jnsgd1na2vs0mg"},{"bike_id":"bacc38f7-39b4-49ce-85c1-2c7aeb1b3cd9","system_id":"levelo_inurba_marseille","lat":43.292644,"lon":5.384257,"is_reserved":false,"is_disabled":false,"rental_uris":{"android":"levelo://app?vid=bacc38f7-39b4-49ce-85c1-2c7aeb1b3cd9","ios":"levelo://app?vid=bacc38f7-39b4-49ce-85c1-2c7aeb1b3cd9"},"vehicle_type_id":"4","last_reported":1712412341,"current_range_meters":1200,"station_id":"ce4bh692rcd13ifvqea0","pricing_plan_id":"cebpf4jnsgd1na2vs0mg"},{"bike_id":"b1ae9f21-4805-4221-add2-5fc0174a1097","system_id":"levelo_inurba_marseille","lat":43.28282,"lon":5.35087,"is_reserved":false,"is_disabled":false,"rental_uris":{"android":"levelo://app?vid=b1ae9f21-4805-4221-add2-5fc0174a1097","ios":"levelo://app?vid=b1ae9f21-4805-4221-add2-5fc0174a1097"},"vehicle_type_id":"4","last_reported":1712412341,"current_range_meters":6000,"station_id":"ce4bhbp2rcd13ifvqerg","pricing_plan_id":"cebpf4jnsgd1na2vs0mg"},{"bike_id":"52178759-350a-4af5-adad-087d765c60fb","system_id":"levelo_inurba_marseille","lat":43.28283,"lon":5.35071,"is_reserved":false,"is_disabled":false,"rental_uris":{"android":"levelo://app?vid=52178759-350a-4af5-adad-087d765c60fb","ios":"levelo://app?vid=52178759-350a-4af5-adad-087d765c60fb"},"vehicle_type_id":"4","last_reported":1712412341,"current_range_meters":31200,"station_id":"ce4bhbp2rcd13ifvqerg","pricing_plan_id":"cebpf4jnsgd1na2vs0mg"},{"bike_id":"4c92151b-62e5-464f-9864-ea219862a845","system_id":"levelo_inurba_marseille","lat":43.282795,"lon":5.350803,"is_reserved":false,"is_disabled":false,"rental_uris":{"android":"levelo://app?vid=4c92151b-62e5-464f-9864-ea219862a845","ios":"levelo://app?vid=4c92151b-62e5-464f-9864-ea219862a845"},"vehicle_type_id":"4","last_reported":1712412341,"current_range_meters":800,"station_id":"ce4bhbp2rcd13ifvqerg","pricing_plan_id":"cebpf4jnsgd1na2vs0mg"},{"bike_id":"4c455063-1e8a-4cd4-a73c-5b0b1e636c82","system_id":"levelo_inurba_marseille","lat":43.2828,"lon":5.35077,"is_reserved":false,"is_disabled":false,"rental_uris":{"android":"levelo://app?vid=4c455063-1e8a-4cd4-a73c-5b0b1e636c82","ios":"levelo://app?vid=4c455063-1e8a-4cd4-a73c-5b0b1e636c82"},"vehicle_type_id":"4","last_reported":1712412341,"current_range_meters":0,"station_id":"ce4bhbp2rcd13ifvqerg","pricing_plan_id":"cebpf4jnsgd1na2vs0mg"},{"bike_id":"588fb7a3-21db-4542-93ed-6611ce70cf3d","system_id":"levelo_inurba_marseille","lat":43.28279,"lon":5.35071,"is_reserved":false,"is_disabled":false,"rental_uris":{"android":"levelo://app?vid=588fb7a3-21db-4542-93ed-6611ce70cf3d","ios":"levelo://app?vid=588fb7a3-21db-4542-93ed-6611ce70cf3d"},"vehicle_type_id":"4","last_reported":1712412341,"current_range_meters":18400,"station_id":"ce4bhbp2rcd13ifvqerg","pricing_plan_id":"cebpf4jnsgd1na2vs0mg"},{"bike_id":"4c7b0db3-1db4-4372-ab53-616ab1c21007","system_id":"levelo_inurba_marseille","lat":43.2828,"lon":5.35067,"is_reserved":false,"is_disabled":false,"rental_uris":{"android":"levelo://app?vid=4c7b0db3-1db4-4372-ab53-616ab1c21007","ios":"levelo://app?vid=4c7b0db3-1db4-4372-ab53-616ab1c21007"},"vehicle_type_id":"4","last_reported":1712412341,"current_range_meters":18400,"station_id":"ce4bhbp2rcd13ifvqerg","pricing_plan_id":"cebpf4jnsgd1na2vs0mg"},{"bike_id":"cc798270-b746-4683-af14-40e0a126f841","system_id":"levelo_inurba_marseille","lat":43.28278,"lon":5.35073,"is_reserved":false,"is_disabled":false,"rental_uris":{"android":"levelo://app?vid=cc798270-b746-4683-af14-40e0a126f841","ios":"levelo://app?vid=cc798270-b746-4683-af14-40e0a126f841"},"vehicle_type_id":"4","last_reported":1712412341,"current_range_meters":7200,"station_id":"ce4bhbp2rcd13ifvqerg","pricing_plan_id":"cebpf4jnsgd1na2vs0mg"},{"bike_id":"8110cbbb-aabb-4df4-875e-84394b4e98bd","system_id":"levelo_inurba_marseille","lat":43.282744,"lon":5.350818,"is_reserved":false,"is_disabled":false,"rental_uris":{"android":"levelo://app?vid=8110cbbb-aabb-4df4-875e-84394b4e98bd","ios":"levelo://app?vid=8110cbbb-aabb-4df4-875e-84394b4e98bd"},"vehicle_type_id":"4","last_reported":1712412341,"current_range_meters":11200,"station_id":"ce4bhbp2rcd13ifvqerg","pricing_plan_id":"cebpf4jnsgd1na2vs0mg"},{"bike_id":"9c88b8cf-6808-4000-a8ed-a2c7d15a2788","system_id":"levelo_inurba_marseille","lat":43.28278,"lon":5.35068,"is_reserved":false,"is_disabled":false,"rental_uris":{"android":"levelo://app?vid=9c88b8cf-6808-4000-a8ed-a2c7d15a2788","ios":"levelo://app?vid=9c88b8cf-6808-4000-a8ed-a2c7d15a2788"},"vehicle_type_id":"4","last_reported":1712412341,"current_range_meters":7600,"station_id":"ce4bhbp2rcd13ifvqerg","pricing_plan_id":"cebpf4jnsgd1na2vs0mg"},{"bike_id":"06ffc8b6-8088-4fd7-85c6-830b18c711aa","system_id":"levelo_inurba_marseille","lat":43.28277,"lon":5.3507,"is_reserved":false,"is_disabled":false,"rental_uris":{"android":"levelo://app?vid=06ffc8b6-8088-4fd7-85c6-830b18c711aa","ios":"levelo://app?vid=06ffc8b6-8088-4fd7-85c6-830b18c711aa"},"vehicle_type_id":"4","last_reported":1712412341,"current_range_meters":16800,"station_id":"ce4bhbp2rcd13ifvqerg","pricing_plan_id":"cebpf4jnsgd1na2vs0mg"},{"bike_id":"a2735ced-b16c-47a5-bc1d-2a5f1d62ef32","system_id":"levelo_inurba_marseille","lat":43.28278,"lon":5.35064,"is_reserved":false,"is_disabled":false,"rental_uris":{"android":"levelo://app?vid=a2735ced-b16c-47a5-bc1d-2a5f1d62ef32","ios":"levelo://app?vid=a2735ced-b16c-47a5-bc1d-2a5f1d62ef32"},"vehicle_type_id":"4","last_reported":1712412341,"current_range_meters":0,"station_id":"ce4bhbp2rcd13ifvqerg","pricing_plan_id":"cebpf4jnsgd1na2vs0mg"},{"bike_id":"85f38e4b-53cf-4db0-abf9-ec521224ccd8","system_id":"levelo_inurba_marseille","lat":43.28275,"lon":5.35068,"is_reserved":false,"is_disabled":false,"rental_uris":{"android":"levelo://app?vid=85f38e4b-53cf-4db0-abf9-ec521224ccd8","ios":"levelo://app?vid=85f38e4b-53cf-4db0-abf9-ec521224ccd8"},"vehicle_type_id":"4","last_reported":1712412341,"current_range_meters":28000,"station_id":"ce4bhbp2rcd13ifvqerg","pricing_plan_id":"cebpf4jnsgd1na2vs0mg"},{"bike_id":"96d9c7e6-cfe6-44b7-bb48-3f0c7879faae","system_id":"levelo_inurba_marseille","lat":43.282741,"lon":5.350686,"is_reserved":false,"is_disabled":false,"rental_uris":{"android":"levelo://app?vid=96d9c7e6-cfe6-44b7-bb48-3f0c7879faae","ios":"levelo://app?vid=96d9c7e6-cfe6-44b7-bb48-3f0c7879faae"},"vehicle_type_id":"4","last_reported":1712412341,"current_range_meters":31200,"station_id":"ce4bhbp2rcd13ifvqerg","pricing_plan_id":"cebpf4jnsgd1na2vs0mg"},{"bike_id":"108b0279-e4f6-4e17-bcd4-0cb2972ae934","system_id":"levelo_inurba_marseille","lat":43.28271,"lon":5.35079,"is_reserved":false,"is_disabled":false,"rental_uris":{"android":"levelo://app?vid=108b0279-e4f6-4e17-bcd4-0cb2972ae934","ios":"levelo://app?vid=108b0279-e4f6-4e17-bcd4-0cb2972ae934"},"vehicle_type_id":"4","last_reported":1712412341,"current_range_meters":8400,"station_id":"ce4bhbp2rcd13ifvqerg","pricing_plan_id":"cebpf4jnsgd1na2vs0mg"},