{"last_updated":1699254429,"ttl":30,"version":"2.2","data":{"bikes":[{"bike_id":"60cb80ae-bb20-4656-9557-0f24a4a8e24d","system_id":"levelo_inurba_marseille","lat":43.31341,"lon":5.367098,"is_reserved":false,"is_disabled":false,"rental_uris":{"android":"levelo://app?vid=60cb80ae-bb20-4656-9557-0f24a4a8e24d","ios":"levelo://app?vid=60cb80ae-bb20-4656-9557-0f24a4a8e24d"},"vehicle_type_id":"4","last_reported":1699254429,"current_range_meters":29200,"station_id":"ce4bgr92rcd13ifvqc6g","pricing_plan_id":"free"},{"bike_id":"685ab4a4-badd-4c62-a185-b30deea02fb8","system_id":"levelo_inurba_marseille","lat":43.31341,"lon":5.367098,"is_reserved":false,"is_disabled":false,"rental_uris":{"android":"levelo://app?vid=685ab4a4-badd-4c62-a185-b30deea02fb8","ios":"levelo://app?vid=685ab4a4-badd-4c62-a185-b30deea02fb8"},"vehicle_type_id":"4","last_reported":1699254429,"current_range_meters":28400,"station_id":"ce4bgr92rcd13ifvqc6g","pricing_plan_id":"free"},{"bike_id":"ee906e0e-a1f8-4e0e-9562-f3101192cecf","system_id":"levelo_inurba_marseille","lat":43.312239,"lon":5.368562,"is_reserved":false,"is_disabled":false,"rental_uris":{"android":"levelo://app?vid=ee906e0e-a1f8-4e0e-9562-f3101192cecf","ios":"levelo://app?vid=ee906e0e-a1f8-4e0e-9562-f3101192cecf"},"vehicle_type_id":"4","last_reported":1699254429,"current_range_meters":26800,"station_id":"ce4bgl92rcd13ifvqbq0","pricing_plan_id":"free"},{"bike_id":"54ce76db-d293-4e5d-b6f9-66274bd7b7e9","system_id":"levelo_inurba_marseille","lat":43.312239,"lon":5.368562,"is_reserved":false,"is_disabled":false,"rental_uris":{"android":"levelo://app?vid=54ce76db-d293-4e5d-b6f9-66274bd7b7e9","ios":"levelo://app?vid=54ce76db-d293-4e5d-b6f9-66274bd7b7e9"},"vehicle_type_id":"4","last_reported":1699254429,"current_range_meters":6000,"station_id":"ce4bgl92rcd13ifvqbq0","pricing_plan_id":"free"},{"bike_id":"4770eea0-653b-499b-ac79-c636ff23ac88","system_id":"levelo_inurba_marseille","lat":43.309076,"lon":5.368465,"is_reserved":false,"is_disabled":false,"rental_uris":{"android":"levelo://app?vid=4770eea0-653b-499b-ac79-c636ff23ac88","ios":"levelo://app?vid=4770eea0-653b-499b-ac79-c636ff23ac88"},"vehicle_type_id":"4","last_reported":1699254429,"current_range_meters":18400,"station_id":"ce4bgn92rcd13ifvqbvg","pricing_plan_id":"free"},{"bike_id":"1a11032c-2388-4c69-b8aa-dc2223f56d7f","system_id":"levelo_inurba_marseille","lat":43.309076,"lon":5.368465,"is_reserved":false,"is_disabled":false,"rental_uris":{"android":"levelo://app?vid=1a11032c-2388-4c69-b8aa-dc2223f56d7f","ios":"levelo://app?vid=1a11032c-2388-4c69-b8aa-dc2223f56d7f"},"vehicle_type_id":"4","last_reported":1699254429,"current_range_meters":28000,"station_id":"ce4bgn92rcd13ifvqbvg","pricing_plan_id":"free"},{"bike_id":"c4edd04f-c972-4976-9e3a-ff5825bf9e3b","system_id":"levelo_inurba_marseille","lat":43.309076,"lon":5.368465,"is_reserved":false,"is_disabled":false,"rental_uris":{"android":"levelo://app?vid=c4edd04f-c972-4976-9e3a-ff5825bf9e3b","ios":"levelo://app?vid=c4edd04f-c972-4976-9e3a-ff5825bf9e3b"},"vehicle_type_id":"4","last_reported":1699254429,"current_range_meters":21200,"station_id":"ce4bgn92rcd13ifvqbvg","pricing_plan_id":"free"},{"bike_id":"2a43344b-a050-4d4b-9e97-cee471b36381","system_id":"levelo_inurba_marseille","lat":43.314811,"lon":5.373103,"is_reserved":false,"is_disabled":false,"rental_uris":{"android":"levelo://app?vid=2a43344b-a050-4d4b-9e97-cee471b36381","ios":"levelo://app?vid=2a43344b-a050-4d4b-9e97-cee471b36381"},"vehicle_type_id":"4","last_reported":1699254429,"current_range_meters":30400,"station_id":"ce4bgt12rcd13ifvqcd0","pricing_plan_id":"free"},{"bike_id":"3cf278b2-fa9f-4945-9f2b-097cc66643b5","system_id":"levelo_inurba_marseille","lat":43.314811,"lon":5.373104,"is_reserved":false,"is_disabled":false,"rental_uris":{"android":"levelo://app?vid=3cf278b2-fa9f-4945-9f2b-097cc66643b5","ios":"levelo://app?vid=3cf278b2-fa9f-4945-9f2b-097cc66643b5"},"vehicle_type_id":"4","last_reported":1699254429,"current_range_meters":27200,"station_id":"ce4bgt12rcd13ifvqcd0","pricing_plan_id":"free"},{"bike_id":"20855b12-96e4-4157-96ca-5747352f453d","system_id":"levelo_inurba_marseille","lat":43.314811,"lon":5.373104,"is_reserved":false,"is_disabled":false,"rental_uris":{"android":"levelo://app?vid=20855b12-96e4-4157-96ca-5747352f453d","ios":"levelo://app?vid=20855b12-96e4-4157-96ca-5747352f453d"},"vehicle_type_id":"4","last_reported":1699254429,"current_range_meters":22000,"station_id":"ce4bgt12rcd13ifvqcd0","pricing_plan_id":"free"},{"bike_id":"53374b7a-ac49-4dfe-9705-9bd44afb5485","system_id":"levelo_inurba_marseille","lat":43.308876,"lon":5.372027,"is_reserved":false,"is_disabled":false,"rental_uris":{"android":"levelo://app?vid=53374b7a-ac49-4dfe-9705-9bd44afb5485","ios":"levelo://app?vid=53374b7a-ac49-4dfe-9705-9bd44afb5485"},"vehicle_type_id":"4","last_reported":1699254429,"current_range_meters":28400,"station_id":"ce4bguh2rcd13ifvqckg","pricing_plan_id":"free"},{"bike_id":"aab3d1fe-ca82-469a-a1b2-29f3d58f709d","system_id":"levelo_inurba_marseille","lat":43.308769,"lon":5.371938,"is_reserved":false,"is_disabled":false,"rental_uris":{"android":"levelo://app?vid=aab3d1fe-ca82-469a-a1b2-29f3d58f709d","ios":"levelo://app?vid=aab3d1fe-ca82-469a-a1b2-29f3d58f709d"},"vehicle_type_id":"4","last_reported":1699254429,"current_range_meters":29200,"station_id":"ce4bguh2rcd13ifvqckg","pricing_plan_id":"free"},{"bike_id":"7f6d1821-d960-4aa5-81c2-8064a10d310c","system_id":"levelo_inurba_marseille","lat":43.31885,"lon":5.370823,"is_reserved":false,"is_disabled":false,"rental_uris":{"android":"levelo://app?vid=7f6d1821-d960-4aa5-81c2-8064a10d310c","ios":"levelo://app?vid=7f6d1821-d960-4aa5-81c2-8064a10d310c"},"vehicle_type_id":"4","last_reported":1699254429,"current_range_meters":2800,"station_id":"","pricing_plan_id":"free"},{"bike_id":"aba1148f-ce96-44d7-92d3-1dced1debf04","system_id":"levelo_inurba_marseille","lat":43.30549,"lon":5.36714,"is_reserved":false,"is_disabled":false,"rental_uris":{"android":"levelo://app?vid=aba1148f-ce96-44d7-92d3-1dced1debf04","ios":"levelo://app?vid=aba1148f-ce96-44d7-92d3-1dced1debf04"},"vehicle_type_id":"4","last_reported":1699254429,"current_range_meters":30400,"station_id":"ce4bgrp2rcd13ifvqc9g","pricing_plan_id":"free"},{"bike_id":"883d800e-b188-4954-b03b-054cf64af8f0","system_id":"levelo_inurba_marseille","lat":43.30547,"lon":5.36727,"is_reserved":false,"is_disabled":false,"rental_uris":{"android":"levelo://app?vid=883d800e-b188-4954-b03b-054cf64af8f0","ios":"levelo://app?vid=883d800e-b188-4954-b03b-054cf64af8f0"},"vehicle_type_id":"4","last_reported":1699254429,"current_range_meters":28400,"station_id":"ce4bgrp2rcd13ifvqc9g","pricing_plan_id":"free"},{"bike_id":"3b5777c3-1b92-4be7-b24f-5bcacf83bb01","system_id":"levelo_inurba_marseille","lat":43.30554,"lon":5.36544,"is_reserved":false,"is_disabled":false,"rental_uris":{"android":"levelo://app?vid=3b5777c3-1b92-4be7-b24f-5bcacf83bb01","ios":"levelo://app?vid=3b5777c3-1b92-4be7-b24f-5bcacf83bb01"},"vehicle_type_id":"4","last_reported":1699254429,"current_range_meters":22000,"station_id":"ce4bgs12rcd13ifvqcag","pricing_plan_id":"free"},{"bike_id":"3047ecf4-9294-458e-9b6b-e3761872fb0f","system_id":"levelo_inurba_marseille","lat":43.30555,"lon":5.365322,"is_reserved":false,"is_disabled":false,"rental_uris":{"android":"levelo://app?vid=3047ecf4-9294-458e-9b6b-e3761872fb0f","ios":"levelo://app?vid=3047ecf4-9294-458e-9b6b-e3761872fb0f"},"vehicle_type_id":"4","last_reported":1699254429,"current_range_meters":30000,"station_id":"ce4bgs12rcd13ifvqcag","pricing_plan_id":"free"},{"bike_id":"3de2a2c2-16fb-45f3-82a0-52c69ec7fad7","system_id":"levelo_inurba_marseille","lat":43.305508,"lon":5.36543,"is_reserved":false,"is_disabled":false,"rental_uris":{"android":"levelo://app?vid=3de2a2c2-16fb-45f3-82a0-52c69ec7fad7","ios":"levelo://app?vid=3de2a2c2-16fb-45f3-82a0-52c69ec7fad7"},"vehicle_type_id":"4","last_reported":1699254429,"current_range_meters":30400,"station_id":"ce4bgs12rcd13ifvqcag","pricing_plan_id":"free"},{"bike_id":"f252b071-dddd-4e5f-ad07-506846af6d1a","system_id":"levelo_inurba_marseille","lat":43.305714,"lon":5.365633,"is_reserved":false,"is_disabled":false,"rental_uris":{"android":"levelo://app?vid=f252b071-dddd-4e5f-ad07-506846af6d1a","ios":"levelo://app?vid=f252b071-dddd-4e5f-ad07-506846af6d1a"},"vehicle_type_id":"4","last_reported":1699254429,"current_range_meters":23200,"station_id":"ce4bgs12rcd13ifvqcag","pricing_plan_id":"free"},{"bike_id":"07baca4a-bfd8-4772-a403-172add0ffa6a","system_id":"levelo_inurba_marseille","lat":43.3055,"lon":5.36533,"is_reserved":false,"is_disabled":false,"rental_uris":{"android":"levelo://app?vid=07baca4a-bfd8-4772-a403-172add0ffa6a","ios":"levelo://app?vid=07baca4a-bfd8-4772-a403-172add0ffa6a"},"vehicle_type_id":"4","last_reported":1699254429,"current_range_meters":29600,"station_id":"ce4bgs12rcd13ifvqcag","pricing_plan_id":"free"},{"bike_id":"2618f07b-edc7-4337-9222-9ced492dd718","system_id":"levelo_inurba_marseille","lat":43.305714,"lon":5.365633,"is_reserved":false,"is_disabled":false,"rental_uris":{"android":"levelo://app?vid=2618f07b-edc7-4337-9222-9ced492dd718","ios":"levelo://app?vid=2618f07b-edc7-4337-9222-9ced492dd718"},"vehicle_type_id":"4","last_reported":1699254429,"current_range_meters":27600,"station_id":"ce4bgs12rcd13ifvqcag","pricing_plan_id":"free"},{"bike_id":"60fb7de7-1559-4997-91f0-3fbb735bd27c","system_id":"levelo_inurba_marseille","lat":43.305714,"lon":5.365633,"is_reserved":false,"is_disabled":false,"rental_uris":{"android":"levelo://app?vid=60fb7de7-1559-4997-91f0-3fbb735bd27c","ios":"levelo://app?vid=60fb7de7-1559-4997-91f0-3fbb735bd27c"},"vehicle_type_id":"4","last_reported":1699254429,"current_range_meters":28400,"station_id":"ce4bgs12rcd13ifvqcag","pricing_plan_id":"free"},{"bike_id":"eb42a917-0053-456d-b626-1cdade3c7659","system_id":"levelo_inurba_marseille","lat":43.30607,"lon":5.37245,"is_reserved":false,"is_disabled":false,"rental_uris":{"android":"levelo://app?vid=eb42a917-0053-456d-b626-1cdade3c7659","ios":"levelo://app?vid=eb42a917-0053-456d-b626-1cdade3c7659"},"vehicle_type_id":"4","last_reported":1699254429,"current_range_meters":18800,"station_id":"ce4bgqh2rcd13ifvqc4g","pricing_plan_id":"free"},{"bike_id":"1d1b54f7-ee6a-4107-98cd-722c42cc56ad","system_id":"levelo_inurba_marseille","lat":43.311125,"lon":5.377624,"is_reserved":false,"is_disabled":false,"rental_uris":{"android":"levelo://app?vid=1d1b54f7-ee6a-4107-98cd-722c42cc56ad","ios":"levelo://app?vid=1d1b54f7-ee6a-4107-98cd-722c42cc56ad"},"vehicle_type_id":"4","last_reported":1699254429,"current_range_meters":26800,"station_id":"ce4bgt92rcd13ifvqcg0","pricing_plan_id":"free"},{"bike_id":"1fefd8e5-7b9a-46ee-9b2a-569bd0385aac","system_id":"levelo_inurba_marseille","lat":43.311184,"lon":5.377734,"is_reserved":false,"is_disabled":false,"rental_uris":{"android":"levelo://app?vid=1fefd8e5-7b9a-46ee-9b2a-569bd0385aac","ios":"levelo://app?vid=1fefd8e5-7b9a-46ee-9b2a-569bd0385aac"},"vehicle_type_id":"4","last_reported":1699254429,"current_range_meters":24000,"station_id":"ce4bgt92rcd13ifvqcg0","pricing_plan_id":"free"},{"bike_id":"ad4f46cb-0e43-4758-834f-a35122b701b2","system_id":"levelo_inurba_marseille","lat":43.311125,"lon":5.377624,"is_reserved":false,"is_disabled":false,"rental_uris":{"android":"levelo://app?vid=ad4f46cb-0e43-4758-834f-a35122b701b2","ios":"levelo://app?vid=ad4f46cb-0e43-4758-834f-a35122b701b2"},"vehicle_type_id":"4","last_reported":1699254429,"current_range_meters":28800,"station_id":"ce4bgt92rcd13ifvqcg0","pricing_plan_id":"free"},{"bike_id":"eb70dc43-7c77-4cbd-8778-b746913a07cd","system_id":"levelo_inurba_marseille","lat":43.30722,"lon":5.375117,"is_reserved":false,"is_disabled":false,"rental_uris":{"android":"levelo://app?vid=eb70dc43-7c77-4cbd-8778-b746913a07cd","ios":"levelo://app?vid=eb70dc43-7c77-4cbd-8778-b746913a07cd"},"vehicle_type_id":"4","last_reported":1699254429,"current_range_meters":14400,"station_id":"","pricing_plan_id":"free"},{"bike_id":"615d8b9f-85bc-469f-a588-1cd47deabf4b","system_id":"levelo_inurba_marseille","lat":43.307785,"lon":5.376456,"is_reserved":false,"is_disabled":false,"rental_uris":{"android":"levelo://app?vid=615d8b9f-85bc-469f-a588-1cd47deabf4b","ios":"levelo://app?vid=615d8b9f-85bc-469f-a588-1cd47deabf4b"},"vehicle_type_id":"4","last_reported":1699254429,"current_range_meters":29200,"station_id":"ce4bgv92rcd13ifvqcq0","pricing_plan_id":"free"},{"bike_id":"efc67e2a-e353-473b-a408-f22d03dcf45d","system_id":"levelo_inurba_marseille","lat":43.317075,"lon":5.377367,"is_reserved":false,"is_disabled":false,"rental_uris":{"android":"levelo://app?vid=efc67e2a-e353-473b-a408-f22d03dcf45d","ios":"levelo://app?vid=efc67e2a-e353-473b-a408-f22d03dcf45d"},"vehicle_type_id":"4","last_reported":1699254429,"current_range_meters":5200,"station_id":"ce4bgth2rcd13ifvqch0","pricing_plan_id":"free"},{"bike_id":"a9fd633a-a95c-42dd-86e6-e9d63e980f85","system_id":"levelo_inurba_marseille","lat":43.317075,"lon":5.377367,"is_reserved":false,"is_disabled":false,"rental_uris":{"android":"levelo://app?vid=a9fd633a-a95c-42dd-86e6-e9d63e980f85","ios":"levelo://app?vid=a9fd633a-a95c-42dd-86e6-e9d63e980f85"},"vehicle_type_id":"4","last_reported":1699254429,"current_range_meters":29600,"station_id":"ce4bgth2rcd13ifvqch0","pricing_plan_id":"free"},{"bike_id":"b2e1f9cf-cb45-4e48-8443-110c0521c682","system_id":"levelo_inurba_marseille","lat":43.317075,"lon":5.377367,"is_reserved":false,"is_disabled":false,"rental_uris":{"android":"levelo://app?vid=b2e1f9cf-cb45-4e48-8443-110c0521c682","ios":"levelo://app?vid=b2e1f9cf-cb45-4e48-8443-110c0521c682"},"vehicle_type_id":"4","last_reported":1699254429,"current_range_meters":31600,"station_id":"ce4bgth2rcd13ifvqch0","pricing_plan_id":"free"},{"bike_id":"11e725d0-001a-4076-8114-04ceff9c937c","system_id":"levelo_inurba_marseille","lat":43.317075,"lon":5.377367,"is_reserved":false,"is_disabled":false,"rental_uris":{"android":"levelo://app?vid=11e725d0-001a-4076-8114-04ceff9c937c","ios":"levelo://app?vid=11e725d0-001a-4076-8114-04ceff9c937c"},"vehicle_type_id":"4","last_reported":1699254429,"current_range_meters":31200,"station_id":"ce4bgth2rcd13ifvqch0","pricing_plan_id":"free"},{"bike_id":"b6774966-82fe-4d46-85b5-43d62fe56ec5","system_id":"levelo_inurba_marseille","lat":43.317075,"lon":5.377367,"is_reserved":false,"is_disabled":false,"rental_uris":{"android":"levelo://app?vid=b6774966-82fe-4d46-85b5-43d62fe56ec5","ios":"levelo://app?vid=b6774966-82fe-4d46-85b5-43d62fe56ec5"},"vehicle_type_id":"4","last_reported":1699254429,"current_range_meters":25200,"station_id":"ce4bgth2rcd13ifvqch0","pricing_plan_id":"free"},{"bike_id":"4ba8cee5-1bee-440d-aca9-d2013be277bd","system_id":"levelo_inurba_marseille","lat":43.317075,"lon":5.377367,"is_reserved":false,"is_disabled":false,"rental_uris":{"android":"levelo://app?vid=4ba8cee5-1bee-440d-aca9-d2013be277bd","ios":"levelo://app?vid=4ba8cee5-1bee-440d-aca9-d2013be277bd"},"vehicle_type_id":"4","last_reported":1699254429,"current_range_meters":30000,"station_id":"ce4bgth2rcd13ifvqch0","pricing_plan_id":"free"},{"bike_id":"d27de731-f759-4e5d-bd20-ad6118e39104","system_id":"levelo_inurba_marseille","lat":43.317075,"lon":5.377367,"is_reserved":false,"is_disabled":false,"rental_uris":{"android":"levelo://app?vid=d27de731-f759-4e5d-bd20-ad6118e39104","ios":"levelo://app?vid=d27de731-f759-4e5d-bd20-ad6118e39104"},"vehicle_type_id":"4","last_reported":1699254429,"current_range_meters":31200,"station_id":"ce4bgth2rcd13ifvqch0","pricing_plan_id":"free"},{"bike_id":"5b0fc9ea-2113-467d-9cf2-fe32e3bf9f55","system_id":"levelo_inurba_marseille","lat":43.30806,"lon":5.38161,"is_reserved":false,"is_disabled":false,"rental_uris":{"android":"levelo://app?vid=5b0fc9ea-2113-467d-9cf2-fe32e3bf9f55","ios":"levelo://app?vid=5b0fc9ea-2113-467d-9cf2-fe32e3bf9f55"},"vehicle_type_id":"4","last_reported":1699254429,"current_range_meters":27200,"station_id":"ce4bgt12rcd13ifvqce0","pricing_plan_id":"free"},{"bike_id":"f5fc9ca9-c605-435c-89e6-c8bb558c4836","system_id":"levelo_inurba_marseille","lat":43.308012,"lon":5.381511,"is_reserved":false,"is_disabled":false,"rental_uris":{"android":"levelo://app?vid=f5fc9ca9-c605-435c-89e6-c8bb558c4836","ios":"levelo://app?vid=f5fc9ca9-c605-435c-89e6-c8bb558c4836"},"vehicle_type_id":"4","last_reported":1699254429,"current_range_meters":30800,"station_id":"ce4bgt12rcd13ifvqce0","pricing_plan_id":"free"},{"bike_id":"d1002f11-1204-412f-996c-e1d6e320edef","system_id":"levelo_inurba_marseille","lat":43.304606,"lon":5.379026,"is_reserved":false,"is_disabled":false,"rental_uris":{"android":"levelo://app?vid=d1002f11-1204-412f-996c-e1d6e320edef","ios":"levelo://app?vid=d1002f11-1204-412f-996c-e1d6e320edef"},"vehicle_type_id":"4","last_reported":1699254429,"current_range_meters":22000,"station_id":"ce4bgup2rcd13ifvqcn0","pricing_plan_id":"free"},{"bike_id":"db7c7092-6eee-45b9-b199-c579e0e8ba4d","system_id":"levelo_inurba_marseille","lat":43.304606,"lon":5.379026,"is_reserved":false,"is_disabled":false,"rental_uris":{"android":"levelo://app?vid=db7c7092-6eee-45b9-b199-c579e0e8ba4d","ios":"levelo://app?vid=db7c7092-6eee-45b9-b199-c579e0e8ba4d"},"vehicle_type_id":"4","last_reported":1699254429,"current_range_meters":16800,"station_id":"ce4bgup2rcd13ifvqcn0","pricing_plan_id":"free"},{"bike_id":"4417582d-c2ca-40fe-a249-37e4da6d0b93","system_id":"levelo_inurba_marseille","lat":43.304606,"lon":5.379026,"is_reserved":false,"is_disabled":false,"rental_uris":{"android":"levelo://app?vid=4417582d-c2ca-40fe-a249-37e4da6d0b93","ios":"levelo://app?vid=4417582d-c2ca-40fe-a249-37e4da6d0b93"},"vehicle_type_id":"4","last_reported":1699254429,"current_range_meters":29600,"station_id":"ce4bgup2rcd13ifvqcn0","pricing_plan_id":"free"},{"bike_id":"c2afb6e1-a803-4378-9bd7-e148a90bbbb0","system_id":"levelo_inurba_marseille","lat":43.304606,"lon":5.379026,"is_reserved":false,"is_disabled":false,"rental_uris":{"android":"levelo://app?vid=c2afb6e1-a803-4378-9bd7-e148a90bbbb0","ios":"levelo://app?vid=c2afb6e1-a803-4378-9bd7-e148a90bbbb0"},"vehicle_type_id":"4","last_reported":1699254429,"current_range_meters":28000,"station_id":"ce4bgup2rcd13ifvqcn0","pricing_plan_id":"free"},{"bike_id":"eea628bf-fb54-42bc-b4f3-3abb1af00b71","system_id":"levelo_inurba_marseille","lat":43.304606,"lon":5.379026,"is_reserved":false,"is_disabled":false,"rental_uris":{"android":"levelo://app?vid=eea628bf-fb54-42bc-b4f3-3abb1af00b71","ios":"levelo://app?vid=eea628bf-fb54-42bc-b4f3-3abb1af00b71"},"vehicle_type_id":"4","last_reported":1699254429,"current_range_meters":26400,"station_id":"ce4bgup2rcd13ifvqcn0","pricing_plan_id":"free"},{"bike_id":"149d2a03-850b-4a4d-87fd-cdcc9695491c","system_id":"levelo_inurba_marseille","lat":43.30469,"lon":5.37907,"is_reserved":false,"is_disabled":false,"rental_uris":{"android":"levelo://app?vid=149d2a03-850b-4a4d-87fd-cdcc9695491c","ios":"levelo://app?vid=149d2a03-850b-4a4d-87fd-cdcc9695491c"},"vehicle_type_id":"4","last_reported":1699254429,"current_range_meters":27200,"station_id":"ce4bgup2rcd13ifvqcn0","pricing_plan_id":"free"},{"bike_id":"e18d5fa0-02fd-4431-881b-745654ceefc6","system_id":"levelo_inurba_marseille","lat":43.304606,"lon":5.379026,"is_reserved":false,"is_disabled":false,"rental_uris":{"android":"levelo://app?vid=e18d5fa0-02fd-4431-881b-745654ceefc6","ios":"levelo://app?vid=e18d5fa0-02fd-4431-881b-745654ceefc6"},"vehicle_type_id":"4","last_reported":1699254429,"current_range_meters":31600,"station_id":"ce4bgup2rcd13ifvqcn0","pricing_plan_id":"free"},{"bike_id":"31612d94-0968-477f-8dc4-81a0f55335f1","system_id":"levelo_inurba_marseille","lat":43.304606,"lon":5.379026,"is_reserved":false,"is_disabled":false,"rental_uris":{"android":"levelo://app?vid=31612d94-0968-477f-8dc4-81a0f55335f1","ios":"levelo://app?vid=31612d94-0968-477f-8dc4-81a0f55335f1"},"vehicle_type_id":"4","last_reported":1699254429,"current_range_meters":15200,"station_id":"ce4bgup2rcd13ifvqcn0","pricing_plan_id":"free"},{"bike_id":"e829def2-7cd7-4b90-b8f7-44b0308ad616","system_id":"levelo_inurba_marseille","lat":43.304606,"lon":5.379026,"is_reserved":false,"is_disabled":false,"rental_uris":{"android":"levelo://app?vid=e829def2-7cd7-4b90-b8f7-44b0308ad616","ios":"levelo://app?vid=e829def2-7cd7-4b90-b8f7-44b0308ad616"},"vehicle_type_id":"4","last_reported":1699254429,"current_range_meters":6000,"station_id":"ce4bgup2rcd13ifvqcn0","pricing_plan_id":"free"},{"bike_id":"cb07c21a-5601-4256-a4c2-be3c089c1d20","system_id":"levelo_inurba_marseille","lat":43.304606,"lon":5.379026,"is_reserved":false,"is_disabled":false,"rental_uris":{"android":"levelo://app?vid=cb07c21a-5601-4256-a4c2-be3c089c1d20","ios":"levelo://app?vid=cb07c21a-5601-4256-a4c2-be3c089c1d20"},"vehicle_type_id":"4","last_reported":1699254429,"current_range_meters":24400,"station_id":"ce4bgup2rcd13ifvqcn0","pricing_plan_id":"free"},{"bike_id":"d7589f0e-3dbd-484a-aa80-85f8be0461cc","system_id":"levelo_inurba_marseille","lat":43.304606,"lon":5.379026,"is_reserved":false,"is_disabled":false,"rental_uris":{"android":"levelo://app?vid=d7589f0e-3dbd-484a-aa80-85f8be0461cc","ios":"levelo://app?vid=d7589f0e-3dbd-484a-aa80-85f8be0461cc"},"vehicle_type_id":"4","last_reported":1699254429,"current_range_meters":30800,"station_id":"ce4bgup2rcd13ifvqcn0","pricing_plan_id":"free"},{"bike_id":"6ae52c6b-203f-48d2-92f1-ed4cc0198b90","system_id":"levelo_inurba_marseille","lat":43.304606,"lon":5.379026,"is_reserved":false,"is_disabled":false,"rental_uris":{"android":"levelo://app?vid=6ae52c6b-203f-48d2-92f1-ed4cc0198b90","ios":"levelo://app?vid=6ae52c6b-203f-48d2-92f1-ed4cc0198b90"},"vehicle_type_id":"4","last_reported":1699254429,"current_range_meters":20400,"station_id":"ce4bgup2rcd13ifvqcn0","pricing_plan_id":"free"},{"bike_id":"12258d63-33f7-4f7f-b59c-2eb90ca8481d","system_id":"levelo_inurba_marseille","lat":43.304606,"lon":5.379026,"is_reserved":false,"is_disabled":false,"rental_uris":{"android":"levelo://app?vid=12258d63-33f7-4f7f-b59c-2eb90ca8481d","ios":"levelo://app?vid=12258d63-33f7-4f7f-b59c-2eb90ca8481d"},"vehicle_type_id":"4","last_reported":1699254429,"current_range_meters":30000,"station_id":"ce4bgup2rcd13ifvqcn0","pricing_plan_id":"free"},{"bike_id":"bdd96c88-bd16-4d56-91ac-f0794e72231c","system_id":"levelo_inurba_marseille","lat":43.304606,"lon":5.379026,"is_reserved":false,"is_disabled":false,"rental_uris":{"android":"levelo://app?vid=bdd96c88-bd16-4d56-91ac-f0794e72231c","ios":"levelo://app?vid=bdd96c88-bd16-4d56-91ac-f0794e72231c"},"vehicle_type_id":"4","last_reported":1699254429,"current_range_meters":27200,"station_id":"ce4bgup2rcd13ifvqcn0","pricing_plan_id":"free"},{"bike_id":"54f19cf6-eeb2-43c8-b045-df39a56def5e","system_id":"levelo_inurba_marseille","lat":43.304606,"lon":5.379026,"is_reserved":false,"is_disabled":false,"rental_uris":{"android":"levelo://app?vid=54f19cf6-eeb2-43c8-b045-df39a56def5e","ios":"levelo://app?vid=54f19cf6-eeb2-43c8-b045-df39a56def5e"},"vehicle_type_id":"4","last_reported":1699254429,"current_range_meters":24800,"station_id":"ce4bgup2rcd13ifvqcn0","pricing_plan_id":"free"},{"bike_id":"1eab5568-cb49-478e-9b04-7b05ecee3ff9","system_id":"levelo_inurba_marseille","lat":43.304606,"lon":5.379026,"is_reserved":false,"is_disabled":false,"rental_uris":{"android":"levelo://app?vid=1eab5568-cb49-478e-9b04-7b05ecee3ff9","ios":"levelo://app?vid=1eab5568-cb49-478e-9b04-7b05ecee3ff9"},"vehicle_type_id":"4","last_reported":1699254429,"current_range_meters":12000,"station_id":"ce4bgup2rcd13ifvqcn0","pricing_plan_id":"free"},{"bike_id":"eaf20a26-b7f1-4374-bd2f-95e2f6936b8f","system_id":"levelo_inurba_marseille","lat":43.304606,"lon":5.379026,"is_reserved":false,"is_disabled":false,"rental_uris":{"android":"levelo://app?vid=eaf20a26-b7f1-4374-bd2f-95e2f6936b8f","ios":"levelo://app?vid=eaf20a26-b7f1-4374-bd2f-95e2f6936b8f"},"vehicle_type_id":"4","last_reported":1699254429,"current_range_meters":28800,"station_id":"ce4bgup2rcd13ifvqcn0","pricing_plan_id":"free"},{"bike_id":"ce505b9a-c6af-45f4-811e-e85b941ac3c2","system_id":"levelo_inurba_marseille","lat":43.304606,"lon":5.379026,"is_reserved":false,"is_disabled":false,"rental_uris":{"android":"levelo://app?vid=ce505b9a-c6af-45f4-811e-e85b941ac3c2","ios":"levelo://app?vid=ce505b9a-c6af-45f4-811e-e85b941ac3c2"},"vehicle_type_id":"4","last_reported":1699254429,"current_range_meters":21200,"station_id":"ce4bgup2rcd13ifvqcn0","pricing_plan_id":"free"},{"bike_id":"516f6c0f-f8e7-4d93-84f6-09cf031b25ec","system_id":"levelo_inurba_marseille","lat":43.304606,"lon":5.379026,"is_reserved":false,"is_disabled":false,"rental_uris":{"android":"levelo://app?vid=516f6c0f-f8e7-4d93-84f6-09cf031b25ec","ios":"levelo://app?vid=516f6c0f-f8e7-4d93-84f6-09cf031b25ec"},"vehicle_type_id":"4","last_reported":1699254429,"current_range_meters":19600,"station_id":"ce4bgup2rcd13ifvqcn0","pricing_plan_id":"free"},{"bike_id":"a5ac7a1f-101b-4502-87fc-6c3462d3ed2c","system_id":"levelo_inurba_marseille","lat":43.304606,"lon":5.379026,"is_reserved":false,"is_disabled":false,"rental_uris":{"android":"levelo://app?vid=a5ac7a1f-101b-4502-87fc-6c3462d3ed2c","ios":"levelo://app?vid=a5ac7a1f-101b-4502-87fc-6c3462d3ed2c"},"vehicle_type_id":"4","last_reported":1699254429,"current_range_meters":24400,"station_id":"ce4bgup2rcd13ifvqcn0","pricing_plan_id":"free"},{"bike_id":"dafdb51f-1493-4a6f-bfa3-da01f7ac6698","system_id":"levelo_inurba_marseille","lat":43.304606,"lon":5.379026,"is_reserved":false,"is_disabled":false,"rental_uris":{"android":"levelo://app?vid=dafdb51f-1493-4a6f-bfa3-da01f7ac6698","ios":"levelo://app?vid=dafdb51f-1493-4a6f-bfa3-da01f7ac6698"},"vehicle_type_id":"4","last_reported":1699254429,"current_range_meters":30000,"station_id":"ce4bgup2rcd13ifvqcn0","pricing_plan_id":"free"},{"bike_id":"c9fca903-e270-4c60-b825-4d690f8532ca","system_id":"levelo_inurba_marseille","lat":43.304606,"lon":5.379026,"is_reserved":false,"is_disabled":false,"rental_uris":{"android":"levelo://app?vid=c9fca903-e270-4c60-b825-4d690f8532ca","ios":"levelo://app?vid=c9fca903-e270-4c60-b825-4d690f8532ca"},"vehicle_type_id":"4","last_reported":1699254429,"current_range_meters":22400,"station_id":"ce4bgup2rcd13ifvqcn0","pricing_plan_id":"free"},{"bike_id":"5d6f59cb-fdb2-444b-96b7-47168cd4db0d","system_id":"levelo_inurba_marseille","lat":43.304606,"lon":5.379026,"is_reserved":false,"is_disabled":false,"rental_uris":{"android":"levelo://app?vid=5d6f59cb-fdb2-444b-96b7-47168cd4db0d","ios":"levelo://app?vid=5d6f59cb-fdb2-444b-96b7-47168cd4db0d"},"vehicle_type_id":"4","last_reported":1699254429,"current_range_meters":28800,"station_id":"ce4bgup2rcd13ifvqcn0","pricing_plan_id":"free"},{"bike_id":"cddeba11-2042-4513-981d-e42f1ee4a9ac","system_id":"levelo_inurba_marseille","lat":43.304606,"lon":5.379026,"is_reserved":false,"is_disabled":false,"rental_uris":{"android":"levelo://app?vid=cddeba11-2042-4513-981d-e42f1ee4a9ac","ios":"levelo://app?vid=cddeba11-2042-4513-981d-e42f1ee4a9ac"},"vehicle_type_id":"4","last_reported":1699254429,"current_range_meters":30400,"station_id":"ce4bgup2rcd13ifvqcn0","pricing_plan_id":"free"},{"bike_id":"5b4bc8b8-5572-4f08-b8dc-70588e8030ce","system_id":"levelo_inurba_marseille","lat":43.304606,"lon":5.379026,"is_reserved":false,"is_disabled":false,"rental_uris":{"android":"levelo://app?vid=5b4bc8b8-5572-4f08-b8dc-70588e8030ce","ios":"levelo://app?vid=5b4bc8b8-5572-4f08-b8dc-70588e8030ce"},"vehicle_type_id":"4","last_reported":1699254429,"current_range_meters":3600,"station_id":"ce4bgup2rcd13ifvqcn0","pricing_plan_id":"free"},{"bike_id":"450d4de7-214f-4f22-9d89-27ec7a50a999","system_id":"levelo_inurba_marseille","lat":43.304606,"lon":5.379026,"is_reserved":false,"is_disabled":false,"rental_uris":{"android":"levelo://app?vid=450d4de7-214f-4f22-9d89-27ec7a50a999","ios":"levelo://app?vid=450d4de7-214f-4f22-9d89-27ec7a50a999"},"vehicle_type_id":"4","last_reported":1699254429,"current_range_meters":7600,"station_id":"ce4bgup2rcd13ifvqcn0","pricing_plan_id":"free"},{"bike_id":"5bef2c2c-84ef-496f-8074-28bd17a11dbb","system_id":"levelo_inurba_marseille","lat":43.304606,"lon":5.379026,"is_reserved":false,"is_disabled":false,"rental_uris":{"android":"levelo://app?vid=5bef2c2c-84ef-496f-8074-28bd17a11dbb","ios":"levelo://app?vid=5bef2c2c-84ef-496f-8074-28bd17a11dbb"},"vehicle_type_id":"4","last_reported":1699254429,"current_range_meters":26800,"station_id":"ce4bgup2rcd13ifvqcn0","pricing_plan_id":"free"},{"bike_id":"167f2841-a260-42a6-b318-caf6d49b3cda","system_id":"levelo_inurba_marseille","lat":43.304606,"lon":5.379026,"is_reserved":false,"is_disabled":false,"rental_uris":{"android":"levelo://app?vid=167f2841-a260-42a6-b318-caf6d49b3cda","ios":"levelo://app?vid=167f2841-a260-42a6-b318-caf6d49b3cda"},"vehicle_type_id":"4","last_reported":1699254429,"current_range_meters":23600,"station_id":"ce4bgup2rcd13ifvqcn0","pricing_plan_id":"free"},{"bike_id":"9ec35a72-3458-4e19-9284-d527761a12ee","system_id":"levelo_inurba_marseille","lat":43.304606,"lon":5.379026,"is_reserved":false,"is_disabled":false,"rental_uris":{"android":"levelo://app?vid=9ec35a72-3458-4e19-9284-d527761a12ee","ios":"levelo://app?vid=9ec35a72-3458-4e19-9284-d527761a12ee"},"vehicle_type_id":"4","last_reported":1699254429,"current_range_meters":17200,"station_id":"ce4bgup2rcd13ifvqcn0","pricing_plan_id":"free"},{"bike_id":"779c61d2-19b9-44f9-b319-6e3ec050fa47","system_id":"levelo_inurba_marseille","lat":43.304606,"lon":5.379026,"is_reserved":false,"is_disabled":false,"rental_uris":{"android":"levelo://app?vid=779c61d2-19b9-44f9-b319-6e3ec050fa47","ios":"levelo://app?vid=779c61d2-19b9-44f9-b319-6e3ec050fa47"},"vehicle_type_id":"4","last_reported":1699254429,"current_range_meters":31600,"station_id":"ce4bgup2rcd13ifvqcn0","pricing_plan_id":"free"},{"bike_id":"e8584f7f-3a22-4191-9ecd-5314ed574e4e","system_id":"levelo_inurba_marseille","lat":43.303586,"lon":5.377754,"is_reserved":false,"is_disabled":false,"rental_uris":{"android":"levelo://app?vid=e8584f7f-3a22-4191-9ecd-5314ed574e4e","ios":"levelo://app?vid=e8584f7f-3a22-4191-9ecd-5314ed574e4e"},"vehicle_type_id":"4","last_reported":1699254429,"current_range_meters":18000,"station_id":"","pricing_plan_id":"free"},{"bike_id":"c284c5ee-c9d2-49c0-ae3a-da91063f7155","system_id":"levelo_inurba_marseille","lat":43.324794,"lon":5.365676,"is_reserved":false,"is_disabled":false,"rental_uris":{"android":"levelo://app?vid=c284c5ee-c9d2-49c0-ae3a-da91063f7155","ios":"levelo://app?vid=c284c5ee-c9d2-49c0-ae3a-da91063f7155"},"vehicle_type_id":"4","last_reported":1699254429,"current_range_meters":0,"station_id":"ce4bhs12rcd13ifvqhvg","pricing_plan_id":"free"},{"bike_id":"438799ef-4578-4582-966f-6e136cfa9f88","system_id":"levelo_inurba_marseille","lat":43.304606,"lon":5.379026,"is_reserved":false,"is_disabled":false,"rental_uris":{"android":"levelo://app?vid=438799ef-4578-4582-966f-6e136cfa9f88","ios":"levelo://app?vid=438799ef-4578-4582-966f-6e136cfa9f88"},"vehicle_type_id":"4","last_reported":1699254429,"current_range_meters":31200,"station_id":"ce4bgup2rcd13ifvqcn0","pricing_plan_id":"free"},{"bike_id":"977469cb-6830-4b11-9e1b-3a38ef26233a","system_id":"levelo_inurba_marseille","lat":43.304606,"lon":5.379026,"is_reserved":false,"is_disabled":false,"rental_uris":{"android":"levelo://app?vid=977469cb-6830-4b11-9e1b-3a38ef26233a","ios":"levelo://app?vid=977469cb-6830-4b11-9e1b-3a38ef26233a"},"vehicle_type_id":"4","last_reported":1699254429,"current_range_meters":20000,"station_id":"ce4bgup2rcd13ifvqcn0","pricing_plan_id":"free"},{"bike_id":"5bdd2bab-126d-4c01-9a1a-5df655c7e0a7","system_id":"levelo_inurba_marseille","lat":43.304606,"lon":5.379026,"is_reserved":false,"is_disabled":false,"rental_uris":{"android":"levelo://app?vid=5bdd2bab-126d-4c01-9a1a-5df655c7e0a7","ios":"levelo://app?vid=5bdd2bab-126d-4c01-9a1a-5df655c7e0a7"},"vehicle_type_id":"4","last_reported":1699254429,"current_range_meters":9600,"station_id":"ce4bgup2rcd13ifvqcn0","pricing_plan_id":"free"},{"bike_id":"96d14b6c-0ba0-4737-a3dc-fa5aab395f68","system_id":"levelo_inurba_marseille","lat":43.301429,"lon":5.37413,"is_reserved":false,"is_disabled":false,"rental_uris":{"android":"levelo://app?vid=96d14b6c-0ba0-4737-a3dc-fa5aab395f68","ios":"levelo://app?vid=96d14b6c-0ba0-4737-a3dc-fa5aab395f68"},"vehicle_type_id":"4","last_reported":1699254429,"current_range_meters":24000,"station_id":"ce4bgs92rcd13ifvqcc0","pricing_plan_id":"free"},{"bike_id":"300ac4ca-978a-4717-a4a1-7100e9e4f63f","system_id":"levelo_inurba_marseille","lat":43.30143,"lon":5.37413,"is_reserved":false,"is_disabled":false,"rental_uris":{"android":"levelo://app?vid=300ac4ca-978a-4717-a4a1-7100e9e4f63f","ios":"levelo://app?vid=300ac4ca-978a-4717-a4a1-7100e9e4f63f"},"vehicle_type_id":"4","last_reported":1699254429,"current_range_meters":11200,"station_id":"ce4bgs92rcd13ifvqcc0","pricing_plan_id":"free"},{"bike_id":"cde09343-cb34-42b4-bd82-ba3dc99ca7a9","system_id":"levelo_inurba_marseille","lat":43.31541,"lon":5.38404,"is_reserved":false,"is_disabled":false,"rental_uris":{"android":"levelo://app?vid=cde09343-cb34-42b4-bd82-ba3dc99ca7a9","ios":"levelo://app?vid=cde09343-cb34-42b4-bd82-ba3dc99ca7a9"},"vehicle_type_id":"4","last_reported":1699254429,"current_range_meters":5600,"station_id":"","pricing_plan_id":"free"},{"bike_id":"1b31aa16-f60a-45f7-a98c-3661756ec854","system_id":"levelo_inurba_marseille","lat":43.319935,"lon":5.381699,"is_reserved":false,"is_disabled":false,"rental_uris":{"android":"levelo://app?vid=1b31aa16-f60a-45f7-a98c-3661756ec854","ios":"levelo://app?vid=1b31aa16-f60a-45f7-a98c-3661756ec854"},"vehicle_type_id":"4","last_reported":1699254429,"current_range_meters":12800,"station_id":"ce4bhr12rcd13ifvqhpg","pricing_plan_id":"free"},{"bike_id":"3f2c2093-4a23-4121-b50d-71f37016ef76","system_id":"levelo_inurba_marseille","lat":43.314811,"lon":5.373103,"is_reserved":false,"is_disabled":false,"rental_uris":{"android":"levelo://app?vid=3f2c2093-4a23-4121-b50d-71f37016ef76","ios":"levelo://app?vid=3f2c2093-4a23-4121-b50d-71f37016ef76"},"vehicle_type_id":"4","last_reported":1699254429,"current_range_meters":16800,"station_id":"ce4bgt12rcd13ifvqcd0","pricing_plan_id":"free"},{"bike_id":"d32f49af-52e3-48b5-8755-da133bfda09c","system_id":"levelo_inurba_marseille","lat":43.320039,"lon":5.381508,"is_reserved":false,"is_disabled":false,"rental_uris":{"android":"levelo://app?vid=d32f49af-52e3-48b5-8755-da133bfda09c","ios":"levelo://app?vid=d32f49af-52e3-48b5-8755-da133bfda09c"},"vehicle_type_id":"4","last_reported":1699254429,"current_range_meters":22000,"station_id":"","pricing_plan_id":"free"},{"bike_id":"3cf1dd7e-d4e9-487e-9b09-d3e6e80a8d3c","system_id":"levelo_inurba_marseille","lat":43.319935,"lon":5.381699,"is_reserved":false,"is_disabled":false,"rental_uris":{"android":"levelo://app?vid=3cf1dd7e-d4e9-487e-9b09-d3e6e80a8d3c","ios":"levelo://app?vid=3cf1dd7e-d4e9-487e-9b09-d3e6e80a8d3c"},"vehicle_type_id":"4","last_reported":1699254429,"current_range_meters":24400,"station_id":"ce4bhr12rcd13ifvqhpg","pricing_plan_id":"free"},{"bike_id":"5599b3d0-1d0a-407c-b018-9c4e7659b1a6","system_id":"levelo_inurba_marseille","lat":43.299426,"lon":5.36541,"is_reserved":false,"is_disabled":false,"rental_uris":{"android":"levelo://app?vid=5599b3d0-1d0a-407c-b018-9c4e7659b1a6","ios":"levelo://app?vid=5599b3d0-1d0a-407c-b018-9c4e7659b1a6"},"vehicle_type_id":"4","last_reported":1699254429,"current_range_meters":29600,"station_id":"ce4bgm92rcd13ifvqbr0","pricing_plan_id":"free"},{"bike_id":"21912deb-4a42-4415-afc9-609b496461cd","system_id":"levelo_inurba_marseille","lat":43.299315,"lon":5.365483,"is_reserved":false,"is_disabled":false,"rental_uris":{"android":"levelo://app?vid=21912deb-4a42-4415-afc9-609b496461cd","ios":"levelo://app?vid=21912deb-4a42-4415-afc9-609b496461cd"},"vehicle_type_id":"4","last_reported":1699254429,"current_range_meters":29600,"station_id":"ce4bgm92rcd13ifvqbr0","pricing_plan_id":"free"},{"bike_id":"1c2c73ff-4601-4f33-b97f-da95bc589609","system_id":"levelo_inurba_marseille","lat":43.32148,"lon":5.38202,"is_reserved":false,"is_disabled":false,"rental_uris":{"android":"levelo://app?vid=1c2c73ff-4601-4f33-b97f-da95bc589609","ios":"levelo://app?vid=1c2c73ff-4601-4f33-b97f-da95bc589609"},"vehicle_type_id":"4","last_reported":1699254429,"current_range_meters":14400,"station_id":"","pricing_plan_id":"free"},{"bike_id":"cffe800b-8e46-4367-92e9-d9a0f2cba0f2","system_id":"levelo_inurba_marseille","lat":43.299626,"lon":5.375372,"is_reserved":false,"is_disabled":false,"rental_uris":{"android":"levelo://app?vid=cffe800b-8e46-4367-92e9-d9a0f2cba0f2","ios":"levelo://app?vid=cffe800b-8e46-4367-92e9-d9a0f2cba0f2"},"vehicle_type_id":"4","last_reported":1699254429,"current_range_meters":19600,"station_id":"ce4bgjh2rcd13ifvqbg0","pricing_plan_id":"free"},{"bike_id":"6200df51-3e85-4f07-9609-15f53d88fe27","system_id":"levelo_inurba_marseille","lat":43.298433,"lon":5.362774,"is_reserved":false,"is_disabled":false,"rental_uris":{"android":"levelo://app?vid=6200df51-3e85-4f07-9609-15f53d88fe27","ios":"levelo://app?vid=6200df51-3e85-4f07-9609-15f53d88fe27"},"vehicle_type_id":"4","last_reported":1699254429,"current_range_meters":31200,"station_id":"ce4bgpp2rcd13ifvqc3g","pricing_plan_id":"free"},{"bike_id":"72e833f5-f271-4277-a5b8-f3aa7e0d7da6","system_id":"levelo_inurba_marseille","lat":43.305364,"lon":5.384119,"is_reserved":false,"is_disabled":false,"rental_uris":{"android":"levelo://app?vid=72e833f5-f271-4277-a5b8-f3aa7e0d7da6","ios":"levelo://app?vid=72e833f5-f271-4277-a5b8-f3aa7e0d7da6"},"vehicle_type_id":"4","last_reported":1699254429,"current_range_meters":30000,"station_id":"ce4bgg92rcd13ifvqb30","pricing_plan_id":"free"},{"bike_id":"ee04e5cc-451d-44b6-bca0-cfc749a45964","system_id":"levelo_inurba_marseille","lat":43.322882,"lon":5.382639,"is_reserved":false,"is_disabled":false,"rental_uris":{"android":"levelo://app?vid=ee04e5cc-451d-44b6-bca0-cfc749a45964","ios":"levelo://app?vid=ee04e5cc-451d-44b6-bca0-cfc749a45964"},"vehicle_type_id":"4","last_reported":1699254429,"current_range_meters":28400,"station_id":"ce4bhr12rcd13ifvqhqg","pricing_plan_id":"free"},{"bike_id":"fc364df6-92a6-432e-b5f4-c197416f53b8","system_id":"levelo_inurba_marseille","lat":43.322856,"lon":5.382791,"is_reserved":false,"is_disabled":false,"rental_uris":{"android":"levelo://app?vid=fc364df6-92a6-432e-b5f4-c197416f53b8","ios":"levelo://app?vid=fc364df6-92a6-432e-b5f4-c197416f53b8"},"vehicle_type_id":"4","last_reported":1699254429,"current_range_meters":26000,"station_id":"ce4bhr12rcd13ifvqhqg","pricing_plan_id":"free"},{"bike_id":"c9428514-9197-4976-812b-d61139ef9187","system_id":"levelo_inurba_marseille","lat":43.318846,"lon":5.386473,"is_reserved":false,"is_disabled":false,"rental_uris":{"android":"levelo://app?vid=c9428514-9197-4976-812b-d61139ef9187","ios":"levelo://app?vid=c9428514-9197-4976-812b-d61139ef9187"},"vehicle_type_id":"4","last_reported":1699254429,"current_range_meters":2400,"station_id":"","pricing_plan_id":"free"},{"bike_id":"924b4db8-1056-4db8-aed0-805d18ef265f","system_id":"levelo_inurba_marseille","lat":43.297904,"lon":5.36067,"is_reserved":false,"is_disabled":false,"rental_uris":{"android":"levelo://app?vid=924b4db8-1056-4db8-aed0-805d18ef265f","ios":"levelo://app?vid=924b4db8-1056-4db8-aed0-805d18ef265f"},"vehicle_type_id":"4","last_reported":1699254429,"current_range_meters":3200,"station_id":"","pricing_plan_id":"free"},{"bike_id":"ebe19fac-de99-4d55-995c-bccf254520dc","system_id":"levelo_inurba_marseille","lat":43.328371,"lon":5.366909,"is_reserved":false,"is_disabled":false,"rental_uris":{"android":"levelo://app?vid=ebe19fac-de99-4d55-995c-bccf254520dc","ios":"levelo://app?vid=ebe19fac-de99-4d55-995c-bccf254520dc"},"vehicle_type_id":"4","last_reported":1699254429,"current_range_meters":23600,"station_id":"ce4bhs92rcd13ifvqi0g","pricing_plan_id":"free"},{"bike_id":"db0f48f6-a753-4c99-8cc1-5204a4a809ca","system_id":"levelo_inurba_marseille","lat":43.297117,"lon":5.366213,"is_reserved":false,"is_disabled":false,"rental_uris":{"android":"levelo://app?vid=db0f48f6-a753-4c99-8cc1-5204a4a809ca","ios":"levelo://app?vid=db0f48f6-a753-4c99-8cc1-5204a4a809ca"},"vehicle_type_id":"4","last_reported":1699254429,"current_range_meters":31200,"station_id":"ce4bgn12rcd13ifvqbt0","pricing_plan_id":"free"},{"bike_id":"6600f0b0-be56-4468-946a-fd4bc154bfd9","system_id":"levelo_inurba_marseille","lat":43.297163,"lon":5.365866,"is_reserved":false,"is_disabled":false,"rental_uris":{"android":"levelo://app?vid=6600f0b0-be56-4468-946a-fd4bc154bfd9","ios":"levelo://app?vid=6600f0b0-be56-4468-946a-fd4bc154bfd9"},"vehicle_type_id":"4","last_reported":1699254429,"current_range_meters":27200,"station_id":"ce4bgn12rcd13ifvqbt0","pricing_plan_id":"free"},{"bike_id":"67bb7dbe-50ea-4249-bc98-d0ad4814b4a6","system_id":"levelo_inurba_marseille","lat":43.321453,"lon":5.385595,"is_reserved":false,"is_disabled":false,"rental_uris":{"android":"levelo://app?vid=67bb7dbe-50ea-4249-bc98-d0ad4814b4a6","ios":"levelo://app?vid=67bb7dbe-50ea-4249-bc98-d0ad4814b4a6"},"vehicle_type_id":"4","last_reported":1699254429,"current_range_meters":12000,"station_id":"","pricing_plan_id":"free"},{"bike_id":"ac64cfce-5505-455a-9537-62af5dd3a90a","system_id":"levelo_inurba_marseille","lat":43.32355,"lon":5.38416,"is_reserved":false,"is_disabled":false,"rental_uris":{"android":"levelo://app?vid=ac64cfce-5505-455a-9537-62af5dd3a90a","ios":"levelo://app?vid=ac64cfce-5505-455a-9537-62af5dd3a90a"},"vehicle_type_id":"4","last_reported":1699254429,"current_range_meters":13600,"station_id":"","pricing_plan_id":"free"},{"bike_id":"68e6a307-cd25-4acd-b089-3362875a7eba","system_id":"levelo_inurba_marseille","lat":43.29624,"lon":5.37152,"is_reserved":false,"is_disabled":false,"rental_uris":{"android":"levelo://app?vid=68e6a307-cd25-4acd-b089-3362875a7eba","ios":"levelo://app?vid=68e6a307-cd25-4acd-b089-3362875a7eba"},"vehicle_type_id":"4","last_reported":1699254429,"current_range_meters":4400,"station_id":"ce4bgnh2rcd13ifvqc0g","pricing_plan_id":"free"},{"bike_id":"077027cb-e273-4184-aefb-719a7d60f326","system_id":"levelo_inurba_marseille","lat":43.29623,"lon":5.37155,"is_reserved":false,"is_disabled":false,"rental_uris":{"android":"levelo://app?vid=077027cb-e273-4184-aefb-719a7d60f326","ios":"levelo://app?vid=077027cb-e273-4184-aefb-719a7d60f326"},"vehicle_type_id":"4","last_reported":1699254429,"current_range_meters":28800,"station_id":"ce4bgnh2rcd13ifvqc0g","pricing_plan_id":"free"},{"bike_id":"5a3e4389-a6dc-483b-abd6-709292f6e071","system_id":"levelo_inurba_marseille","lat":43.295888,"lon":5.367133,"is_reserved":false,"is_disabled":false,"rental_uris":{"android":"levelo://app?vid=5a3e4389-a6dc-483b-abd6-709292f6e071","ios":"levelo://app?vid=5a3e4389-a6dc-483b-abd6-709292f6e071"},"vehicle_type_id":"4","last_reported":1699254429,"current_range_meters":8000,"station_id":"ce4bgph2rcd13ifvqc2g","pricing_plan_id":"free"},{"bike_id":"ce78bd63-ac0b-4cc6-bfe8-c624e1eef97e","system_id":"levelo_inurba_marseille","lat":43.29619,"lon":5.37152,"is_reserved":false,"is_disabled":false,"rental_uris":{"android":"levelo://app?vid=ce78bd63-ac0b-4cc6-bfe8-c624e1eef97e","ios":"levelo://app?vid=ce78bd63-ac0b-4cc6-bfe8-c624e1eef97e"},"vehicle_type_id":"4","last_reported":1699254429,"current_range_meters":30400,"station_id":"ce4bgnh2rcd13ifvqc0g","pricing_plan_id":"free"},{"bike_id":"28c92d7f-19a0-4bc3-8b33-372afc62084d","system_id":"levelo_inurba_marseille","lat":43.299028,"lon":5.381509,"is_reserved":false,"is_disabled":false,"rental_uris":{"android":"levelo://app?vid=28c92d7f-19a0-4bc3-8b33-372afc62084d","ios":"levelo://app?vid=28c92d7f-19a0-4bc3-8b33-372afc62084d"},"vehicle_type_id":"4","last_reported":1699254429,"current_range_meters":24000,"station_id":"ce4bgj12rcd13ifvqbc0","pricing_plan_id":"free"},{"bike_id":"2d896c11-778f-4cd6-8eb9-60af861b6115","system_id":"levelo_inurba_marseille","lat":43.299028,"lon":5.381509,"is_reserved":false,"is_disabled":false,"rental_uris":{"android":"levelo://app?vid=2d896c11-778f-4cd6-8eb9-60af861b6115","ios":"levelo://app?vid=2d896c11-778f-4cd6-8eb9-60af861b6115"},"vehicle_type_id":"4","last_reported":1699254429,"current_range_meters":20000,"station_id":"ce4bgj12rcd13ifvqbc0","pricing_plan_id":"free"},{"bike_id":"5ce9c0bf-e282-457b-bf1a-55835fccaa74","system_id":"levelo_inurba_marseille","lat":43.299028,"lon":5.381509,"is_reserved":false,"is_disabled":false,"rental_uris":{"android":"levelo://app?vid=5ce9c0bf-e282-457b-bf1a-55835fccaa74","ios":"levelo://app?vid=5ce9c0bf-e282-457b-bf1a-55835fccaa74"},"vehicle_type_id":"4","last_reported":1699254429,"current_range_meters":30000,"station_id":"ce4bgj12rcd13ifvqbc0","pricing_plan_id":"free"},{"bike_id":"15b45fb9-398d-4cc0-b250-405ba58614d9","system_id":"levelo_inurba_marseille","lat":43.296921,"lon":5.376579,"is_reserved":false,"is_disabled":false,"rental_uris":{"android":"levelo://app?vid=15b45fb9-398d-4cc0-b250-405ba58614d9","ios":"levelo://app?vid=15b45fb9-398d-4cc0-b250-405ba58614d9"},"vehicle_type_id":"4","last_reported":1699254429,"current_range_meters":15600,"station_id":"ce4bgkh2rcd13ifvqbl0","pricing_plan_id":"free"},{"bike_id":"624d080a-cd03-4fa3-8b7a-04ee2eec4c9c","system_id":"levelo_inurba_marseille","lat":43.309589,"lon":5.390258,"is_reserved":false,"is_disabled":false,"rental_uris":{"android":"levelo://app?vid=624d080a-cd03-4fa3-8b7a-04ee2eec4c9c","ios":"levelo://app?vid=624d080a-cd03-4fa3-8b7a-04ee2eec4c9c"},"vehicle_type_id":"4","last_reported":1699254429,"current_range_meters":31600,"station_id":"ce4bgup2rcd13ifvqco0","pricing_plan_id":"free"},{"bike_id":"b63ba926-f997-41ee-8d1a-08c08c7678cd","system_id":"levelo_inurba_marseille","lat":43.317579,"lon":5.390228,"is_reserved":false,"is_disabled":false,"rental_uris":{"android":"levelo://app?vid=b63ba926-f997-41ee-8d1a-08c08c7678cd","ios":"levelo://app?vid=b63ba926-f997-41ee-8d1a-08c08c7678cd"},"vehicle_type_id":"4","last_reported":1699254429,"current_range_meters":26800,"station_id":"ce4bhqp2rcd13ifvqhng","pricing_plan_id":"free"},{"bike_id":"9ed286d1-07ae-479c-9351-e45a883a6bfe","system_id":"levelo_inurba_marseille","lat":43.297934,"lon":5.381176,"is_reserved":false,"is_disabled":false,"rental_uris":{"android":"levelo://app?vid=9ed286d1-07ae-479c-9351-e45a883a6bfe","ios":"levelo://app?vid=9ed286d1-07ae-479c-9351-e45a883a6bfe"},"vehicle_type_id":"4","last_reported":1699254429,"current_range_meters":28800,"station_id":"ce4bgip2rcd13ifvqbb0","pricing_plan_id":"free"},{"bike_id":"7a0a7ab2-1f05-4094-807e-9e1f884270d3","system_id":"levelo_inurba_marseille","lat":43.295748,"lon":5.37522,"is_reserved":false,"is_disabled":false,"rental_uris":{"android":"levelo://app?vid=7a0a7ab2-1f05-4094-807e-9e1f884270d3","ios":"levelo://app?vid=7a0a7ab2-1f05-4094-807e-9e1f884270d3"},"vehicle_type_id":"4","last_reported":1699254429,"current_range_meters":5200,"station_id":"ce4bgh92rcd13ifvqb50","pricing_plan_id":"free"},{"bike_id":"d061970a-c5fb-4b05-99eb-1920776f8fe0","system_id":"levelo_inurba_marseille","lat":43.295748,"lon":5.37522,"is_reserved":false,"is_disabled":false,"rental_uris":{"android":"levelo://app?vid=d061970a-c5fb-4b05-99eb-1920776f8fe0","ios":"levelo://app?vid=d061970a-c5fb-4b05-99eb-1920776f8fe0"},"vehicle_type_id":"4","last_reported":1699254429,"current_range_meters":30800,"station_id":"ce4bgh92rcd13ifvqb50","pricing_plan_id":"free"},{"bike_id":"1f580447-7b2c-4630-9a51-33e28281b372","system_id":"levelo_inurba_marseille","lat":43.329065,"lon":5.379814,"is_reserved":false,"is_disabled":false,"rental_uris":{"android":"levelo://app?vid=1f580447-7b2c-4630-9a51-33e28281b372","ios":"levelo://app?vid=1f580447-7b2c-4630-9a51-33e28281b372"},"vehicle_type_id":"4","last_reported":1699254429,"current_range_meters":9200,"station_id":"","pricing_plan_id":"free"},{"bike_id":"ecf94d7b-2238-4a61-8042-e3febbffae63","system_id":"levelo_inurba_marseille","lat":43.299323,"lon":5.385518,"is_reserved":false,"is_disabled":false,"rental_uris":{"android":"levelo://app?vid=ecf94d7b-2238-4a61-8042-e3febbffae63","ios":"levelo://app?vid=ecf94d7b-2238-4a61-8042-e3febbffae63"},"vehicle_type_id":"4","last_reported":1699254429,"current_range_meters":21200,"station_id":"","pricing_plan_id":"free"},{"bike_id":"26e01216-6989-41c0-863b-de91595ea9c3","system_id":"levelo_inurba_marseille","lat":43.32372,"lon":5.38881,"is_reserved":false,"is_disabled":false,"rental_uris":{"android":"levelo://app?vid=26e01216-6989-41c0-863b-de91595ea9c3","ios":"levelo://app?vid=26e01216-6989-41c0-863b-de91595ea9c3"},"vehicle_type_id":"4","last_reported":1699254429,"current_range_meters":18000,"station_id":"ce4bhqp2rcd13ifvqhog","pricing_plan_id":"free"},{"bike_id":"98edf203-cc30-4528-89f4-16a32bb051fc","system_id":"levelo_inurba_marseille","lat":43.32368,"lon":5.38889,"is_reserved":false,"is_disabled":false,"rental_uris":{"android":"levelo://app?vid=98edf203-cc30-4528-89f4-16a32bb051fc","ios":"levelo://app?vid=98edf203-cc30-4528-89f4-16a32bb051fc"},"vehicle_type_id":"4","last_reported":1699254429,"current_range_meters":16800,"station_id":"ce4bhqp2rcd13ifvqhog","pricing_plan_id":"free"},{"bike_id":"a1a0f5c4-2c56-424e-8434-94f0c71ab4b6","system_id":"levelo_inurba_marseille","lat":43.29601,"lon":5.381084,"is_reserved":false,"is_disabled":false,"rental_uris":{"android":"levelo://app?vid=a1a0f5c4-2c56-424e-8434-94f0c71ab4b6","ios":"levelo://app?vid=a1a0f5c4-2c56-424e-8434-94f0c71ab4b6"},"vehicle_type_id":"4","last_reported":1699254429,"current_range_meters":27600,"station_id":"ce4bgl12rcd13ifvqbo0","pricing_plan_id":"free"},{"bike_id":"0c4f63dc-4a82-44f8-a710-f38cc5146589","system_id":"levelo_inurba_marseille","lat":43.29602,"lon":5.381084,"is_reserved":false,"is_disabled":false,"rental_uris":{"android":"levelo://app?vid=0c4f63dc-4a82-44f8-a710-f38cc5146589","ios":"levelo://app?vid=0c4f63dc-4a82-44f8-a710-f38cc5146589"},"vehicle_type_id":"4","last_reported":1699254429,"current_range_meters":26400,"station_id":"ce4bgl12rcd13ifvqbo0","pricing_plan_id":"free"},{"bike_id":"2e60622c-1e1f-4a15-ad7b-bf748b706290","system_id":"levelo_inurba_marseille","lat":43.29294,"lon":5.36842,"is_reserved":false,"is_disabled":false,"rental_uris":{"android":"levelo://app?vid=2e60622c-1e1f-4a15-ad7b-bf748b706290","ios":"levelo://app?vid=2e60622c-1e1f-4a15-ad7b-bf748b706290"},"vehicle_type_id":"4","last_reported":1699254429,"current_range_meters":24800,"station_id":"ce4bhbp2rcd13ifvqesg","pricing_plan_id":"free"},{"bike_id":"542fb578-dc42-4066-b10d-4c1e500b9c6e","system_id":"levelo_inurba_marseille","lat":43.29283,"lon":5.36846,"is_reserved":false,"is_disabled":false,"rental_uris":{"android":"levelo://app?vid=542fb578-dc42-4066-b10d-4c1e500b9c6e","ios":"levelo://app?vid=542fb578-dc42-4066-b10d-4c1e500b9c6e"},"vehicle_type_id":"4","last_reported":1699254429,"current_range_meters":26800,"station_id":"ce4bhbp2rcd13ifvqesg","pricing_plan_id":"free"},{"bike_id":"b11740f6-bf1c-4caf-9923-e65748401594","system_id":"levelo_inurba_marseille","lat":43.292749,"lon":5.368402,"is_reserved":false,"is_disabled":false,"rental_uris":{"android":"levelo://app?vid=b11740f6-bf1c-4caf-9923-e65748401594","ios":"levelo://app?vid=b11740f6-bf1c-4caf-9923-e65748401594"},"vehicle_type_id":"4","last_reported":1699254429,"current_range_meters":28000,"station_id":"ce4bhbp2rcd13ifvqesg","pricing_plan_id":"free"},{"bike_id":"e876fc4a-87d3-4cbc-b964-f1ac34bac8fd","system_id":"levelo_inurba_marseille","lat":43.2928,"lon":5.36849,"is_reserved":false,"is_disabled":false,"rental_uris":{"android":"levelo://app?vid=e876fc4a-87d3-4cbc-b964-f1ac34bac8fd","ios":"levelo://app?vid=e876fc4a-87d3-4cbc-b964-f1ac34bac8fd"},"vehicle_type_id":"4","last_reported":1699254429,"current_range_meters":26400,"station_id":"ce4bhbp2rcd13ifvqesg","pricing_plan_id":"free"},{"bike_id":"aeba5c45-9952-414b-bba2-197d1195c508","system_id":"levelo_inurba_marseille","lat":43.29278,"lon":5.36835,"is_reserved":false,"is_disabled":false,"rental_uris":{"android":"levelo://app?vid=aeba5c45-9952-414b-bba2-197d1195c508","ios":"levelo://app?vid=aeba5c45-9952-414b-bba2-197d1195c508"},"vehicle_type_id":"4","last_reported":1699254429,"current_range_meters":30000,"station_id":"ce4bhbp2rcd13ifvqesg","pricing_plan_id":"free"},{"bike_id":"5f618d91-bc45-4c3e-8a3d-a9ebbb1d4190","system_id":"levelo_inurba_marseille","lat":43.292749,"lon":5.368402,"is_reserved":false,"is_disabled":false,"rental_uris":{"android":"levelo://app?vid=5f618d91-bc45-4c3e-8a3d-a9ebbb1d4190","ios":"levelo://app?vid=5f618d91-bc45-4c3e-8a3d-a9ebbb1d4190"},"vehicle_type_id":"4","last_reported":1699254429,"current_range_meters":30800,"station_id":"ce4bhbp2rcd13ifvqesg","pricing_plan_id":"free"},{"bike_id":"ca9ec40f-83b6-4306-a254-acdca41204cb","system_id":"levelo_inurba_marseille","lat":43.29602,"lon":5.381084,"is_reserved":false,"is_disabled":false,"rental_uris":{"android":"levelo://app?vid=ca9ec40f-83b6-4306-a254-acdca41204cb","ios":"levelo://app?vid=ca9ec40f-83b6-4306-a254-acdca41204cb"},"vehicle_type_id":"4","last_reported":1699254429,"current_range_meters":24800,"station_id":"ce4bgl12rcd13ifvqbo0","pricing_plan_id":"free"},{"bike_id":"8b862633-49e5-4623-aaae-7f4472366d69","system_id":"levelo_inurba_marseille","lat":43.305994,"lon":5.393687,"is_reserved":false,"is_disabled":false,"rental_uris":{"android":"levelo://app?vid=8b862633-49e5-4623-aaae-7f4472366d69","ios":"levelo://app?vid=8b862633-49e5-4623-aaae-7f4472366d69"},"vehicle_type_id":"4","last_reported":1699254429,"current_range_meters":31600,"station_id":"ce4bh0p2rcd13ifvqd80","pricing_plan_id":"free"},{"bike_id":"4bc47bce-5ee5-4b14-99eb-4c51801ae8c9","system_id":"levelo_inurba_marseille","lat":43.305994,"lon":5.393687,"is_reserved":false,"is_disabled":false,"rental_uris":{"android":"levelo://app?vid=4bc47bce-5ee5-4b14-99eb-4c51801ae8c9","ios":"levelo://app?vid=4bc47bce-5ee5-4b14-99eb-4c51801ae8c9"},"vehicle_type_id":"4","last_reported":1699254429,"current_range_meters":28400,"station_id":"ce4bh0p2rcd13ifvqd80","pricing_plan_id":"free"},{"bike_id":"b68568b2-bed7-4846-a0f2-6e1b70f233a3","system_id":"levelo_inurba_marseille","lat":43.305994,"lon":5.393687,"is_reserved":false,"is_disabled":false,"rental_uris":{"android":"levelo://app?vid=b68568b2-bed7-4846-a0f2-6e1b70f233a3","ios":"levelo://app?vid=b68568b2-bed7-4846-a0f2-6e1b70f233a3"},"vehicle_type_id":"4","last_reported":1699254429,"current_range_meters":28800,"station_id":"ce4bh0p2rcd13ifvqd80","pricing_plan_id":"free"},{"bike_id":"fb5030e1-ede6-440f-924f-37c5e53ac9d4","system_id":"levelo_inurba_marseille","lat":43.293009,"lon":5.374584,"is_reserved":false,"is_disabled":false,"rental_uris":{"android":"levelo://app?vid=fb5030e1-ede6-440f-924f-37c5e53ac9d4","ios":"levelo://app?vid=fb5030e1-ede6-440f-924f-37c5e53ac9d4"},"vehicle_type_id":"4","last_reported":1699254429,"current_range_meters":29200,"station_id":"ce4bgi12rcd13ifvqb70","pricing_plan_id":"free"},{"bike_id":"12dec46d-0d56-4ac0-84f1-db5f1f49b6df","system_id":"levelo_inurba_marseille","lat":43.30311,"lon":5.39206,"is_reserved":false,"is_disabled":false,"rental_uris":{"android":"levelo://app?vid=12dec46d-0d56-4ac0-84f1-db5f1f49b6df","ios":"levelo://app?vid=12dec46d-0d56-4ac0-84f1-db5f1f49b6df"},"vehicle_type_id":"4","last_reported":1699254429,"current_range_meters":0,"station_id":"ce4bgkh2rcd13ifvqbk0","pricing_plan_id":"free"},{"bike_id":"14aab14d-10ab-440f-882d-59127157b984","system_id":"levelo_inurba_marseille","lat":43.2936,"lon":5.37835,"is_reserved":false,"is_disabled":false,"rental_uris":{"android":"levelo://app?vid=14aab14d-10ab-440f-882d-59127157b984","ios":"levelo://app?vid=14aab14d-10ab-440f-882d-59127157b984"},"vehicle_type_id":"4","last_reported":1699254429,"current_range_meters":31600,"station_id":"ce4bgjh2rcd13ifvqbf0","pricing_plan_id":"free"},{"bike_id":"480c1765-698e-4cf8-925e-14f6e2d519c6","system_id":"levelo_inurba_marseille","lat":43.2937,"lon":5.37838,"is_reserved":false,"is_disabled":false,"rental_uris":{"android":"levelo://app?vid=480c1765-698e-4cf8-925e-14f6e2d519c6","ios":"levelo://app?vid=480c1765-698e-4cf8-925e-14f6e2d519c6"},"vehicle_type_id":"4","last_reported":1699254429,"current_range_meters":19600,"station_id":"ce4bgjh2rcd13ifvqbf0","pricing_plan_id":"free"},{"bike_id":"5ee0837d-da8e-412e-9a4d-75678ee4e28a","system_id":"levelo_inurba_marseille","lat":43.293713,"lon":5.378573,"is_reserved":false,"is_disabled":false,"rental_uris":{"android":"levelo://app?vid=5ee0837d-da8e-412e-9a4d-75678ee4e28a","ios":"levelo://app?vid=5ee0837d-da8e-412e-9a4d-75678ee4e28a"},"vehicle_type_id":"4","last_reported":1699254429,"current_range_meters":11600,"station_id":"ce4bhhp2rcd13ifvqfm0","pricing_plan_id":"free"},{"bike_id":"ecd5fcfb-e675-41c4-803e-df009ca85e60","system_id":"levelo_inurba_marseille","lat":43.309854,"lon":5.395384,"is_reserved":false,"is_disabled":false,"rental_uris":{"android":"levelo://app?vid=ecd5fcfb-e675-41c4-803e-df009ca85e60","ios":"levelo://app?vid=ecd5fcfb-e675-41c4-803e-df009ca85e60"},"vehicle_type_id":"4","last_reported":1699254429,"current_range_meters":5200,"station_id":"","pricing_plan_id":"free"},{"bike_id":"1a378c36-4be4-4948-8542-06547744d3bf","system_id":"levelo_inurba_marseille","lat":43.292311,"lon":5.360731,"is_reserved":false,"is_disabled":false,"rental_uris":{"android":"levelo://app?vid=1a378c36-4be4-4948-8542-06547744d3bf","ios":"levelo://app?vid=1a378c36-4be4-4948-8542-06547744d3bf"},"vehicle_type_id":"4","last_reported":1699254429,"current_range_meters":29600,"station_id":"ce4bhbh2rcd13ifvqeqg","pricing_plan_id":"free"},{"bike_id":"3269aa5a-6a8a-4189-a596-c8e21dae8e47","system_id":"levelo_inurba_marseille","lat":43.292311,"lon":5.360731,"is_reserved":false,"is_disabled":false,"rental_uris":{"android":"levelo://app?vid=3269aa5a-6a8a-4189-a596-c8e21dae8e47","ios":"levelo://app?vid=3269aa5a-6a8a-4189-a596-c8e21dae8e47"},"vehicle_type_id":"4","last_reported":1699254429,"current_range_meters":31200,"station_id":"ce4bhbh2rcd13ifvqeqg","pricing_plan_id":"free"},{"bike_id":"1575422b-f99f-4525-ab00-681f712b3765","system_id":"levelo_inurba_marseille","lat":43.3331,"lon":5.35949,"is_reserved":false,"is_disabled":false,"rental_uris":{"android":"levelo://app?vid=1575422b-f99f-4525-ab00-681f712b3765","ios":"levelo://app?vid=1575422b-f99f-4525-ab00-681f712b3765"},"vehicle_type_id":"4","last_reported":1699254429,"current_range_meters":6400,"station_id":"","pricing_plan_id":"free"},{"bike_id":"bb4f0fd1-6f7e-4574-9fc1-c57639401c45","system_id":"levelo_inurba_marseille","lat":43.29261,"lon":5.37612,"is_reserved":false,"is_disabled":false,"rental_uris":{"android":"levelo://app?vid=bb4f0fd1-6f7e-4574-9fc1-c57639401c45","ios":"levelo://app?vid=bb4f0fd1-6f7e-4574-9fc1-c57639401c45"},"vehicle_type_id":"4","last_reported":1699254429,"current_range_meters":30800,"station_id":"ce4bgi12rcd13ifvqb80","pricing_plan_id":"free"},{"bike_id":"dbd32c25-7c75-4d62-8396-eec777b60624","system_id":"levelo_inurba_marseille","lat":43.298764,"lon":5.388973,"is_reserved":false,"is_disabled":false,"rental_uris":{"android":"levelo://app?vid=dbd32c25-7c75-4d62-8396-eec777b60624","ios":"levelo://app?vid=dbd32c25-7c75-4d62-8396-eec777b60624"},"vehicle_type_id":"4","last_reported":1699254429,"current_range_meters":16800,"station_id":"ce4bh392rcd13ifvqdl0","pricing_plan_id":"free"},{"bike_id":"0e8233d2-0d57-470f-8c07-e9f753046a4f","system_id":"levelo_inurba_marseille","lat":43.33217,"lon":5.3788,"is_reserved":false,"is_disabled":false,"rental_uris":{"android":"levelo://app?vid=0e8233d2-0d57-470f-8c07-e9f753046a4f","ios":"levelo://app?vid=0e8233d2-0d57-470f-8c07-e9f753046a4f"},"vehicle_type_id":"4","last_reported":1699254429,"current_range_meters":6400,"station_id":"","pricing_plan_id":"free"},{"bike_id":"d797f1e6-f3ca-4ad7-8b56-5ed6191da53c","system_id":"levelo_inurba_marseille","lat":43.292663,"lon":5.376389,"is_reserved":false,"is_disabled":false,"rental_uris":{"android":"levelo://app?vid=d797f1e6-f3ca-4ad7-8b56-5ed6191da53c","ios":"levelo://app?vid=d797f1e6-f3ca-4ad7-8b56-5ed6191da53c"},"vehicle_type_id":"4","last_reported":1699254429,"current_range_meters":28800,"station_id":"ce4bgi12rcd13ifvqb80","pricing_plan_id":"free"},{"bike_id":"260c645f-b280-4251-8fb9-e89c0f995509","system_id":"levelo_inurba_marseille","lat":43.332121,"lon":5.379996,"is_reserved":false,"is_disabled":false,"rental_uris":{"android":"levelo://app?vid=260c645f-b280-4251-8fb9-e89c0f995509","ios":"levelo://app?vid=260c645f-b280-4251-8fb9-e89c0f995509"},"vehicle_type_id":"4","last_reported":1699254429,"current_range_meters":4000,"station_id":"ce4bhs92rcd13ifvqi0g","pricing_plan_id":"free"},{"bike_id":"eae89603-657a-4fc1-a9e8-19e6c50d5a3c","system_id":"levelo_inurba_marseille","lat":43.29192,"lon":5.357996,"is_reserved":false,"is_disabled":false,"rental_uris":{"android":"levelo://app?vid=eae89603-657a-4fc1-a9e8-19e6c50d5a3c","ios":"levelo://app?vid=eae89603-657a-4fc1-a9e8-19e6c50d5a3c"},"vehicle_type_id":"4","last_reported":1699254429,"current_range_meters":25600,"station_id":"ce4bhb12rcd13ifvqel0","pricing_plan_id":"free"},{"bike_id":"bbde3555-f51d-435a-ab1e-b73f54cc60af","system_id":"levelo_inurba_marseille","lat":43.29188,"lon":5.357932,"is_reserved":false,"is_disabled":false,"rental_uris":{"android":"levelo://app?vid=bbde3555-f51d-435a-ab1e-b73f54cc60af","ios":"levelo://app?vid=bbde3555-f51d-435a-ab1e-b73f54cc60af"},"vehicle_type_id":"4","last_reported":1699254429,"current_range_meters":12400,"station_id":"ce4bhb12rcd13ifvqel0","pricing_plan_id":"free"},{"bike_id":"a874e6ac-fbb8-45a6-8344-4fa3845b0166","system_id":"levelo_inurba_marseille","lat":43.309038,"lon":5.396546,"is_reserved":false,"is_disabled":false,"rental_uris":{"android":"levelo://app?vid=a874e6ac-fbb8-45a6-8344-4fa3845b0166","ios":"levelo://app?vid=a874e6ac-fbb8-45a6-8344-4fa3845b0166"},"vehicle_type_id":"4","last_reported":1699254429,"current_range_meters":15200,"station_id":"ce4bh012rcd13ifvqcv0","pricing_plan_id":"free"},{"bike_id":"21426a0d-604c-4933-9dde-aad2feebdc38","system_id":"levelo_inurba_marseille","lat":43.33274,"lon":5.37964,"is_reserved":false,"is_disabled":false,"rental_uris":{"android":"levelo://app?vid=21426a0d-604c-4933-9dde-aad2feebdc38","ios":"levelo://app?vid=21426a0d-604c-4933-9dde-aad2feebdc38"},"vehicle_type_id":"4","last_reported":1699254429,"current_range_meters":0,"station_id":"ce4bhs92rcd13ifvqi0g","pricing_plan_id":"free"},{"bike_id":"bc6a72bd-5653-471f-a819-940e17e7c663","system_id":"levelo_inurba_marseille","lat":43.30224,"lon":5.39471,"is_reserved":false,"is_disabled":false,"rental_uris":{"android":"levelo://app?vid=bc6a72bd-5653-471f-a819-940e17e7c663","ios":"levelo://app?vid=bc6a72bd-5653-471f-a819-940e17e7c663"},"vehicle_type_id":"4","last_reported":1699254429,"current_range_meters":0,"station_id":"ce4bh0p2rcd13ifvqd70","pricing_plan_id":"free"},{"bike_id":"05599c4d-f647-4550-bb88-2d643b799298","system_id":"levelo_inurba_marseille","lat":43.302008,"lon":5.394694,"is_reserved":false,"is_disabled":false,"rental_uris":{"android":"levelo://app?vid=05599c4d-f647-4550-bb88-2d643b799298","ios":"levelo://app?vid=05599c4d-f647-4550-bb88-2d643b799298"},"vehicle_type_id":"4","last_reported":1699254429,"current_range_meters":0,"station_id":"ce4bh0p2rcd13ifvqd70","pricing_plan_id":"free"},{"bike_id":"fe16ad8e-c4c3-4587-a8db-15196e972525","system_id":"levelo_inurba_marseille","lat":43.289184,"lon":5.366408,"is_reserved":false,"is_disabled":false,"rental_uris":{"android":"levelo://app?vid=fe16ad8e-c4c3-4587-a8db-15196e972525","ios":"levelo://app?vid=fe16ad8e-c4c3-4587-a8db-15196e972525"},"vehicle_type_id":"4","last_reported":1699254429,"current_range_meters":30800,"station_id":"ce4bhap2rcd13ifvqek0","pricing_plan_id":"free"},{"bike_id":"b95543a5-c53d-448c-aa72-a6152a0e790c","system_id":"levelo_inurba_marseille","lat":43.289184,"lon":5.366408,"is_reserved":false,"is_disabled":false,"rental_uris":{"android":"levelo://app?vid=b95543a5-c53d-448c-aa72-a6152a0e790c","ios":"levelo://app?vid=b95543a5-c53d-448c-aa72-a6152a0e790c"},"vehicle_type_id":"4","last_reported":1699254429,"current_range_meters":28000,"station_id":"ce4bhap2rcd13ifvqek0","pricing_plan_id":"free"},{"bike_id":"b1be7bf9-a215-4e11-88b1-6eeeb4db66c5","system_id":"levelo_inurba_marseille","lat":43.289184,"lon":5.366408,"is_reserved":false,"is_disabled":false,"rental_uris":{"android":"levelo://app?vid=b1be7bf9-a215-4e11-88b1-6eeeb4db66c5","ios":"levelo://app?vid=b1be7bf9-a215-4e11-88b1-6eeeb4db66c5"},"vehicle_type_id":"4","last_reported":1699254429,"current_range_meters":12800,"station_id":"ce4bhap2rcd13ifvqek0","pricing_plan_id":"free"},{"bike_id":"dcf44c27-c2e4-49d8-b66f-e0e22f8563ac","system_id":"levelo_inurba_marseille","lat":43.289468,"lon":5.363719,"is_reserved":false,"is_disabled":false,"rental_uris":{"android":"levelo://app?vid=dcf44c27-c2e4-49d8-b66f-e0e22f8563ac","ios":"levelo://app?vid=dcf44c27-c2e4-49d8-b66f-e0e22f8563ac"},"vehicle_type_id":"4","last_reported":1699254429,"current_range_meters":8800,"station_id":"ce4bhc92rcd13ifvqetg","pricing_plan_id":"free"},{"bike_id":"5cd0b4a4-8d6b-46e0-8cc6-18993943fc7b","system_id":"levelo_inurba_marseille","lat":43.289468,"lon":5.363719,"is_reserved":false,"is_disabled":false,"rental_uris":{"android":"levelo://app?vid=5cd0b4a4-8d6b-46e0-8cc6-18993943fc7b","ios":"levelo://app?vid=5cd0b4a4-8d6b-46e0-8cc6-18993943fc7b"},"vehicle_type_id":"4","last_reported":1699254429,"current_range_meters":22800,"station_id":"ce4bhc92rcd13ifvqetg","pricing_plan_id":"free"},{"bike_id":"cc12affb-82fb-4e42-9d35-e69a84e3442b","system_id":"levelo_inurba_marseille","lat":43.289184,"lon":5.366408,"is_reserved":false,"is_disabled":false,"rental_uris":{"android":"levelo://app?vid=cc12affb-82fb-4e42-9d35-e69a84e3442b","ios":"levelo://app?vid=cc12affb-82fb-4e42-9d35-e69a84e3442b"},"vehicle_type_id":"4","last_reported":1699254429,"current_range_meters":31600,"station_id":"ce4bhap2rcd13ifvqek0","pricing_plan_id":"free"},{"bike_id":"fb050d4e-b387-419f-a796-815a95c9bd16","system_id":"levelo_inurba_marseille","lat":43.289184,"lon":5.366408,"is_reserved":false,"is_disabled":false,"rental_uris":{"android":"levelo://app?vid=fb050d4e-b387-419f-a796-815a95c9bd16","ios":"levelo://app?vid=fb050d4e-b387-419f-a796-815a95c9bd16"},"vehicle_type_id":"4","last_reported":1699254429,"current_range_meters":1600,"station_id":"ce4bhap2rcd13ifvqek0","pricing_plan_id":"free"},{"bike_id":"7b612da1-6e95-4fd8-a53d-863d89a5db0b","system_id":"levelo_inurba_marseille","lat":43.289468,"lon":5.363719,"is_reserved":false,"is_disabled":false,"rental_uris":{"android":"levelo://app?vid=7b612da1-6e95-4fd8-a53d-863d89a5db0b","ios":"levelo://app?vid=7b612da1-6e95-4fd8-a53d-863d89a5db0b"},"vehicle_type_id":"4","last_reported":1699254429,"current_range_meters":0,"station_id":"ce4bhc92rcd13ifvqetg","pricing_plan_id":"free"},{"bike_id":"c65e0958-891c-4139-81bb-08ccdb3fa1d3","system_id":"levelo_inurba_marseille","lat":43.2894,"lon":5.36375,"is_reserved":false,"is_disabled":false,"rental_uris":{"android":"levelo://app?vid=c65e0958-891c-4139-81bb-08ccdb3fa1d3","ios":"levelo://app?vid=c65e0958-891c-4139-81bb-08ccdb3fa1d3"},"vehicle_type_id":"4","last_reported":1699254429,"current_range_meters":22400,"station_id":"ce4bhc92rcd13ifvqetg","pricing_plan_id":"free"},{"bike_id":"5b6da57e-d514-4540-9c86-1851270b4e02","system_id":"levelo_inurba_marseille","lat":43.289468,"lon":5.363719,"is_reserved":false,"is_disabled":false,"rental_uris":{"android":"levelo://app?vid=5b6da57e-d514-4540-9c86-1851270b4e02","ios":"levelo://app?vid=5b6da57e-d514-4540-9c86-1851270b4e02"},"vehicle_type_id":"4","last_reported":1699254429,"current_range_meters":31600,"station_id":"ce4bhc92rcd13ifvqetg","pricing_plan_id":"free"},{"bike_id":"37e4a033-7be5-465b-b88e-8fa5b2e39288","system_id":"levelo_inurba_marseille","lat":43.289468,"lon":5.363719,"is_reserved":false,"is_disabled":false,"rental_uris":{"android":"levelo://app?vid=37e4a033-7be5-465b-b88e-8fa5b2e39288","ios":"levelo://app?vid=37e4a033-7be5-465b-b88e-8fa5b2e39288"},"vehicle_type_id":"4","last_reported":1699254429,"current_range_meters":31600,"station_id":"ce4bhc92rcd13ifvqetg","pricing_plan_id":"free"},{"bike_id":"fc4dc8ce-c0fa-432a-ba61-b2c4eaa232a5","system_id":"levelo_inurba_marseille","lat":43.290995,"lon":5.381361,"is_reserved":false,"is_disabled":false,"rental_uris":{"android":"levelo://app?vid=fc4dc8ce-c0fa-432a-ba61-b2c4eaa232a5","ios":"levelo://app?vid=fc4dc8ce-c0fa-432a-ba61-b2c4eaa232a5"},"vehicle_type_id":"4","last_reported":1699254429,"current_range_meters":29200,"station_id":"ce4bh512rcd13ifvqe2g","pricing_plan_id":"free"},{"bike_id":"dca3fe7b-a302-4a4d-b6e5-43693ae8e5f9","system_id":"levelo_inurba_marseille","lat":43.290995,"lon":5.381361,"is_reserved":false,"is_disabled":false,"rental_uris":{"android":"levelo://app?vid=dca3fe7b-a302-4a4d-b6e5-43693ae8e5f9","ios":"levelo://app?vid=dca3fe7b-a302-4a4d-b6e5-43693ae8e5f9"},"vehicle_type_id":"4","last_reported":1699254429,"current_range_meters":31600,"station_id":"ce4bh512rcd13ifvqe2g","pricing_plan_id":"free"},{"bike_id":"b9115cb7-8e66-4d71-b662-02745e966ee0","system_id":"levelo_inurba_marseille","lat":43.290995,"lon":5.381361,"is_reserved":false,"is_disabled":false,"rental_uris":{"android":"levelo://app?vid=b9115cb7-8e66-4d71-b662-02745e966ee0","ios":"levelo://app?vid=b9115cb7-8e66-4d71-b662-02745e966ee0"},"vehicle_type_id":"4","last_reported":1699254429,"current_range_meters":25200,"station_id":"ce4bh512rcd13ifvqe2g","pricing_plan_id":"free"},{"bike_id":"5d9f1478-d90b-490b-a0ad-24aa95677bf7","system_id":"levelo_inurba_marseille","lat":43.290995,"lon":5.381361,"is_reserved":false,"is_disabled":false,"rental_uris":{"android":"levelo://app?vid=5d9f1478-d90b-490b-a0ad-24aa95677bf7","ios":"levelo://app?vid=5d9f1478-d90b-490b-a0ad-24aa95677bf7"},"vehicle_type_id":"4","last_reported":1699254429,"current_range_meters":29200,"station_id":"ce4bh512rcd13ifvqe2g","pricing_plan_id":"free"},{"bike_id":"1842b804-685b-4d9b-a514-d893539c81e0","system_id":"levelo_inurba_marseille","lat":43.291004,"lon":5.381485,"is_reserved":false,"is_disabled":false,"rental_uris":{"android":"levelo://app?vid=1842b804-685b-4d9b-a514-d893539c81e0","ios":"levelo://app?vid=1842b804-685b-4d9b-a514-d893539c81e0"},"vehicle_type_id":"4","last_reported":1699254429,"current_range_meters":18800,"station_id":"ce4bh512rcd13ifvqe2g","pricing_plan_id":"free"},{"bike_id":"d7358737-cf06-41c0-922a-0b10a491deb7","system_id":"levelo_inurba_marseille","lat":43.290995,"lon":5.381361,"is_reserved":false,"is_disabled":false,"rental_uris":{"android":"levelo://app?vid=d7358737-cf06-41c0-922a-0b10a491deb7","ios":"levelo://app?vid=d7358737-cf06-41c0-922a-0b10a491deb7"},"vehicle_type_id":"4","last_reported":1699254429,"current_range_meters":6800,"station_id":"ce4bh512rcd13ifvqe2g","pricing_plan_id":"free"},{"bike_id":"389c9f27-31fa-45d5-afa0-15ec10cedfde","system_id":"levelo_inurba_marseille","lat":43.290995,"lon":5.381361,"is_reserved":false,"is_disabled":false,"rental_uris":{"android":"levelo://app?vid=389c9f27-31fa-45d5-afa0-15ec10cedfde","ios":"levelo://app?vid=389c9f27-31fa-45d5-afa0-15ec10cedfde"},"vehicle_type_id":"4","last_reported":1699254429,"current_range_meters":20000,"station_id":"ce4bh512rcd13ifvqe2g","pricing_plan_id":"free"},{"bike_id":"d8db2f92-ac48-43c8-b63c-8531e4fd60a7","system_id":"levelo_inurba_marseille","lat":43.290094,"lon":5.381264,"is_reserved":false,"is_disabled":false,"rental_uris":{"android":"levelo://app?vid=d8db2f92-ac48-43c8-b63c-8531e4fd60a7","ios":"levelo://app?vid=d8db2f92-ac48-43c8-b63c-8531e4fd60a7"},"vehicle_type_id":"4","last_reported":1699254429,"current_range_meters":29200,"station_id":"ce4bh4p2rcd13ifvqe1g","pricing_plan_id":"free"},{"bike_id":"3c572c3f-cc4c-4d3a-a0f0-73ed1ad39fef","system_id":"levelo_inurba_marseille","lat":43.33031,"lon":5.392311,"is_reserved":false,"is_disabled":false,"rental_uris":{"android":"levelo://app?vid=3c572c3f-cc4c-4d3a-a0f0-73ed1ad39fef","ios":"levelo://app?vid=3c572c3f-cc4c-4d3a-a0f0-73ed1ad39fef"},"vehicle_type_id":"4","last_reported":1699254429,"current_range_meters":2800,"station_id":"","pricing_plan_id":"free"},{"bike_id":"5301f3af-9053-44e3-93e8-2e54c9d6c519","system_id":"levelo_inurba_marseille","lat":43.301323,"lon":5.398674,"is_reserved":false,"is_disabled":false,"rental_uris":{"android":"levelo://app?vid=5301f3af-9053-44e3-93e8-2e54c9d6c519","ios":"levelo://app?vid=5301f3af-9053-44e3-93e8-2e54c9d6c519"},"vehicle_type_id":"4","last_reported":1699254429,"current_range_meters":0,"station_id":"ce4bh0h2rcd13ifvqd40","pricing_plan_id":"free"},{"bike_id":"b4bd9acb-2452-4201-b080-8c04cb872e41","system_id":"levelo_inurba_marseille","lat":43.28727,"lon":5.36078,"is_reserved":false,"is_disabled":false,"rental_uris":{"android":"levelo://app?vid=b4bd9acb-2452-4201-b080-8c04cb872e41","ios":"levelo://app?vid=b4bd9acb-2452-4201-b080-8c04cb872e41"},"vehicle_type_id":"4","last_reported":1699254429,"current_range_meters":31600,"station_id":"cki0cbj6b192h4jlfktg","pricing_plan_id":"free"},{"bike_id":"803fdd0a-2d8c-4c3a-88f2-dd72036f7644","system_id":"levelo_inurba_marseille","lat":43.28727,"lon":5.36078,"is_reserved":false,"is_disabled":false,"rental_uris":{"android":"levelo://app?vid=803fdd0a-2d8c-4c3a-88f2-dd72036f7644","ios":"levelo://app?vid=803fdd0a-2d8c-4c3a-88f2-dd72036f7644"},"vehicle_type_id":"4","last_reported":1699254429,"current_range_meters":31600,"station_id":"cki0cbj6b192h4jlfktg","pricing_plan_id":"free"},{"bike_id":"e9c984c8-a16b-4881-aeaa-e76f60db522a","system_id":"levelo_inurba_marseille","lat":43.28727,"lon":5.36078,"is_reserved":false,"is_disabled":false,"rental_uris":{"android":"levelo://app?vid=e9c984c8-a16b-4881-aeaa-e76f60db522a","ios":"levelo://app?vid=e9c984c8-a16b-4881-aeaa-e76f60db522a"},"vehicle_type_id":"4","last_reported":1699254429,"current_range_meters":24400,"station_id":"cki0cbj6b192h4jlfktg","pricing_plan_id":"free"},{"bike_id":"c0aedc5d-8903-4845-930e-d3a8a73ed5da","system_id":"levelo_inurba_marseille","lat":43.28727,"lon":5.36078,"is_reserved":false,"is_disabled":false,"rental_uris":{"android":"levelo://app?vid=c0aedc5d-8903-4845-930e-d3a8a73ed5da","ios":"levelo://app?vid=c0aedc5d-8903-4845-930e-d3a8a73ed5da"},"vehicle_type_id":"4","last_reported":1699254429,"current_range_meters":28000,"station_id":"cki0cbj6b192h4jlfktg","pricing_plan_id":"free"},{"bike_id":"32fcc1e2-b1da-485c-971a-b31633ba3395","system_id":"levelo_inurba_marseille","lat":43.28727,"lon":5.36078,"is_reserved":false,"is_disabled":false,"rental_uris":{"android":"levelo://app?vid=32fcc1e2-b1da-485c-971a-b31633ba3395","ios":"levelo://app?vid=32fcc1e2-b1da-485c-971a-b31633ba3395"},"vehicle_type_id":"4","last_reported":1699254429,"current_range_meters":31600,"station_id":"cki0cbj6b192h4jlfktg","pricing_plan_id":"free"},{"bike_id":"1a9f048c-f1d7-4d5a-9fb4-965d51401b7b","system_id":"levelo_inurba_marseille","lat":43.28727,"lon":5.36078,"is_reserved":false,"is_disabled":false,"rental_uris":{"android":"levelo://app?vid=1a9f048c-f1d7-4d5a-9fb4-965d51401b7b","ios":"levelo://app?vid=1a9f048c-f1d7-4d5a-9fb4-965d51401b7b"},"vehicle_type_id":"4","last_reported":1699254429,"current_range_meters":30000,"station_id":"cki0cbj6b192h4jlfktg","pricing_plan_id":"free"},{"bike_id":"9940d61b-056f-4e7b-b15f-74c5b1d65eee","system_id":"levelo_inurba_marseille","lat":43.28727,"lon":5.36078,"is_reserved":false,"is_disabled":false,"rental_uris":{"android":"levelo://app?vid=9940d61b-056f-4e7b-b15f-74c5b1d65eee","ios":"levelo://app?vid=9940d61b-056f-4e7b-b15f-74c5b1d65eee"},"vehicle_type_id":"4","last_reported":1699254429,"current_range_meters":0,"station_id":"cki0cbj6b192h4jlfktg","pricing_plan_id":"free"},{"bike_id":"8919af14-fcba-4141-8652-9e69ebd28dfc","system_id":"levelo_inurba_marseille","lat":43.290366,"lon":5.386494,"is_reserved":false,"is_disabled":false,"rental_uris":{"android":"levelo://app?vid=8919af14-fcba-4141-8652-9e69ebd28dfc","ios":"levelo://app?vid=8919af14-fcba-4141-8652-9e69ebd28dfc"},"vehicle_type_id":"4","last_reported":1699254429,"current_range_meters":14400,"station_id":"ce4bh4p2rcd13ifvqe0g","pricing_plan_id":"free"},{"bike_id":"2e280dc6-a8e9-4611-9017-801f8a1991a5","system_id":"levelo_inurba_marseille","lat":43.29035,"lon":5.38652,"is_reserved":false,"is_disabled":false,"rental_uris":{"android":"levelo://app?vid=2e280dc6-a8e9-4611-9017-801f8a1991a5","ios":"levelo://app?vid=2e280dc6-a8e9-4611-9017-801f8a1991a5"},"vehicle_type_id":"4","last_reported":1699254429,"current_range_meters":22400,"station_id":"ce4bh4p2rcd13ifvqe0g","pricing_plan_id":"free"},{"bike_id":"57e948ce-691c-4b71-b331-5c75b81099bc","system_id":"levelo_inurba_marseille","lat":43.29035,"lon":5.38654,"is_reserved":false,"is_disabled":false,"rental_uris":{"android":"levelo://app?vid=57e948ce-691c-4b71-b331-5c75b81099bc","ios":"levelo://app?vid=57e948ce-691c-4b71-b331-5c75b81099bc"},"vehicle_type_id":"4","last_reported":1699254429,"current_range_meters":23200,"station_id":"ce4bh4p2rcd13ifvqe0g","pricing_plan_id":"free"},{"bike_id":"0d5f36c4-51cf-4fbf-b193-1cfaf3057538","system_id":"levelo_inurba_marseille","lat":43.302759,"lon":5.400793,"is_reserved":false,"is_disabled":false,"rental_uris":{"android":"levelo://app?vid=0d5f36c4-51cf-4fbf-b193-1cfaf3057538","ios":"levelo://app?vid=0d5f36c4-51cf-4fbf-b193-1cfaf3057538"},"vehicle_type_id":"4","last_reported":1699254429,"current_range_meters":19600,"station_id":"ce4bgvh2rcd13ifvqcs0","pricing_plan_id":"free"},{"bike_id":"3bd11b11-0446-44c7-b0c6-b7b58fcdc5ce","system_id":"levelo_inurba_marseille","lat":43.287184,"lon":5.37937,"is_reserved":false,"is_disabled":false,"rental_uris":{"android":"levelo://app?vid=3bd11b11-0446-44c7-b0c6-b7b58fcdc5ce","ios":"levelo://app?vid=3bd11b11-0446-44c7-b0c6-b7b58fcdc5ce"},"vehicle_type_id":"4","last_reported":1699254429,"current_range_meters":30400,"station_id":"ce4bh9p2rcd13ifvqec0","pricing_plan_id":"free"},{"bike_id":"5cd32789-800b-497f-805f-07255bbda197","system_id":"levelo_inurba_marseille","lat":43.287184,"lon":5.37937,"is_reserved":false,"is_disabled":false,"rental_uris":{"android":"levelo://app?vid=5cd32789-800b-497f-805f-07255bbda197","ios":"levelo://app?vid=5cd32789-800b-497f-805f-07255bbda197"},"vehicle_type_id":"4","last_reported":1699254429,"current_range_meters":7600,"station_id":"ce4bh9p2rcd13ifvqec0","pricing_plan_id":"free"},{"bike_id":"65091ed7-651a-460e-a728-f6f67d91bc4a","system_id":"levelo_inurba_marseille","lat":43.287185,"lon":5.379373,"is_reserved":false,"is_disabled":false,"rental_uris":{"android":"levelo://app?vid=65091ed7-651a-460e-a728-f6f67d91bc4a","ios":"levelo://app?vid=65091ed7-651a-460e-a728-f6f67d91bc4a"},"vehicle_type_id":"4","last_reported":1699254429,"current_range_meters":5600,"station_id":"ce4bh9p2rcd13ifvqec0","pricing_plan_id":"free"},{"bike_id":"b7b11daa-86ce-4be7-b4fa-b1ce825b7418","system_id":"levelo_inurba_marseille","lat":43.287185,"lon":5.379373,"is_reserved":false,"is_disabled":false,"rental_uris":{"android":"levelo://app?vid=b7b11daa-86ce-4be7-b4fa-b1ce825b7418","ios":"levelo://app?vid=b7b11daa-86ce-4be7-b4fa-b1ce825b7418"},"vehicle_type_id":"4","last_reported":1699254429,"current_range_meters":29600,"station_id":"ce4bh9p2rcd13ifvqec0","pricing_plan_id":"free"},{"bike_id":"65e52374-bdcf-4407-93c8-8a59651ca131","system_id":"levelo_inurba_marseille","lat":43.287185,"lon":5.379373,"is_reserved":false,"is_disabled":false,"rental_uris":{"android":"levelo://app?vid=65e52374-bdcf-4407-93c8-8a59651ca131","ios":"levelo://app?vid=65e52374-bdcf-4407-93c8-8a59651ca131"},"vehicle_type_id":"4","last_reported":1699254429,"current_range_meters":30000,"station_id":"ce4bh9p2rcd13ifvqec0","pricing_plan_id":"free"},{"bike_id":"a70a657f-eb77-4124-b3cc-4e589345e604","system_id":"levelo_inurba_marseille","lat":43.3165,"lon":5.40431,"is_reserved":false,"is_disabled":false,"rental_uris":{"android":"levelo://app?vid=a70a657f-eb77-4124-b3cc-4e589345e604","ios":"levelo://app?vid=a70a657f-eb77-4124-b3cc-4e589345e604"},"vehicle_type_id":"4","last_reported":1699254429,"current_range_meters":30400,"station_id":"ce4bh012rcd13ifvqd00","pricing_plan_id":"free"},{"bike_id":"ccb8c974-7f1d-488e-ad6f-b8694d5c2aba","system_id":"levelo_inurba_marseille","lat":43.328576,"lon":5.398841,"is_reserved":false,"is_disabled":false,"rental_uris":{"android":"levelo://app?vid=ccb8c974-7f1d-488e-ad6f-b8694d5c2aba","ios":"levelo://app?vid=ccb8c974-7f1d-488e-ad6f-b8694d5c2aba"},"vehicle_type_id":"4","last_reported":1699254429,"current_range_meters":28400,"station_id":"","pricing_plan_id":"free"},{"bike_id":"e9b7696b-da01-48d8-830c-2d426dfb8eff","system_id":"levelo_inurba_marseille","lat":43.28617,"lon":5.351042,"is_reserved":false,"is_disabled":false,"rental_uris":{"android":"levelo://app?vid=e9b7696b-da01-48d8-830c-2d426dfb8eff","ios":"levelo://app?vid=e9b7696b-da01-48d8-830c-2d426dfb8eff"},"vehicle_type_id":"4","last_reported":1699254429,"current_range_meters":0,"station_id":"ce4bhch2rcd13ifvqeug","pricing_plan_id":"free"},{"bike_id":"8bd2d0aa-9d97-4770-96ea-01b1ee8ab0fe","system_id":"levelo_inurba_marseille","lat":43.28412,"lon":5.375147,"is_reserved":false,"is_disabled":false,"rental_uris":{"android":"levelo://app?vid=8bd2d0aa-9d97-4770-96ea-01b1ee8ab0fe","ios":"levelo://app?vid=8bd2d0aa-9d97-4770-96ea-01b1ee8ab0fe"},"vehicle_type_id":"4","last_reported":1699254429,"current_range_meters":30000,"station_id":"ce4bh412rcd13ifvqds0","pricing_plan_id":"free"},{"bike_id":"9b5a6021-6f53-4625-a1e8-fc69177d6b38","system_id":"levelo_inurba_marseille","lat":43.295694,"lon":5.399588,"is_reserved":false,"is_disabled":false,"rental_uris":{"android":"levelo://app?vid=9b5a6021-6f53-4625-a1e8-fc69177d6b38","ios":"levelo://app?vid=9b5a6021-6f53-4625-a1e8-fc69177d6b38"},"vehicle_type_id":"4","last_reported":1699254429,"current_range_meters":2800,"station_id":"ce4bh312rcd13ifvqdj0","pricing_plan_id":"free"},{"bike_id":"4cbdc5e5-aa04-417f-8326-347d5c0b0173","system_id":"levelo_inurba_marseille","lat":43.295713,"lon":5.399639,"is_reserved":false,"is_disabled":false,"rental_uris":{"android":"levelo://app?vid=4cbdc5e5-aa04-417f-8326-347d5c0b0173","ios":"levelo://app?vid=4cbdc5e5-aa04-417f-8326-347d5c0b0173"},"vehicle_type_id":"4","last_reported":1699254429,"current_range_meters":31200,"station_id":"ce4bh312rcd13ifvqdj0","pricing_plan_id":"free"},{"bike_id":"fd1dafa3-695d-42ce-9786-39da8bcf5d98","system_id":"levelo_inurba_marseille","lat":43.295713,"lon":5.399639,"is_reserved":false,"is_disabled":false,"rental_uris":{"android":"levelo://app?vid=fd1dafa3-695d-42ce-9786-39da8bcf5d98","ios":"levelo://app?vid=fd1dafa3-695d-42ce-9786-39da8bcf5d98"},"vehicle_type_id":"4","last_reported":1699254429,"current_range_meters":25600,"station_id":"ce4bh312rcd13ifvqdj0","pricing_plan_id":"free"},{"bike_id":"ab59d179-865e-4e16-ac33-60b0c5824bf6","system_id":"levelo_inurba_marseille","lat":43.284886,"lon":5.384209,"is_reserved":false,"is_disabled":false,"rental_uris":{"android":"levelo://app?vid=ab59d179-865e-4e16-ac33-60b0c5824bf6","ios":"levelo://app?vid=ab59d179-865e-4e16-ac33-60b0c5824bf6"},"vehicle_type_id":"4","last_reported":1699254429,"current_range_meters":0,"station_id":"ce4bh512rcd13ifvqe3g","pricing_plan_id":"free"},{"bike_id":"5305d4c7-75bc-4e40-84c4-b934b80bf99f","system_id":"levelo_inurba_marseille","lat":43.284787,"lon":5.384116,"is_reserved":false,"is_disabled":false,"rental_uris":{"android":"levelo://app?vid=5305d4c7-75bc-4e40-84c4-b934b80bf99f","ios":"levelo://app?vid=5305d4c7-75bc-4e40-84c4-b934b80bf99f"},"vehicle_type_id":"4","last_reported":1699254429,"current_range_meters":22800,"station_id":"ce4bh512rcd13ifvqe3g","pricing_plan_id":"free"},{"bike_id":"30953d8b-c94b-4361-b113-8282034cee02","system_id":"levelo_inurba_marseille","lat":43.284793,"lon":5.384113,"is_reserved":false,"is_disabled":false,"rental_uris":{"android":"levelo://app?vid=30953d8b-c94b-4361-b113-8282034cee02","ios":"levelo://app?vid=30953d8b-c94b-4361-b113-8282034cee02"},"vehicle_type_id":"4","last_reported":1699254429,"current_range_meters":29600,"station_id":"ce4bh512rcd13ifvqe3g","pricing_plan_id":"free"},{"bike_id":"07919125-d03d-43f8-a43d-a441e8724f4b","system_id":"levelo_inurba_marseille","lat":43.284793,"lon":5.384119,"is_reserved":false,"is_disabled":false,"rental_uris":{"android":"levelo://app?vid=07919125-d03d-43f8-a43d-a441e8724f4b","ios":"levelo://app?vid=07919125-d03d-43f8-a43d-a441e8724f4b"},"vehicle_type_id":"4","last_reported":1699254429,"current_range_meters":31600,"station_id":"ce4bh512rcd13ifvqe3g","pricing_plan_id":"free"},{"bike_id":"cb9e5a87-ee19-4c2b-8084-f6f9c59e9a94","system_id":"levelo_inurba_marseille","lat":43.284793,"lon":5.384113,"is_reserved":false,"is_disabled":false,"rental_uris":{"android":"levelo://app?vid=cb9e5a87-ee19-4c2b-8084-f6f9c59e9a94","ios":"levelo://app?vid=cb9e5a87-ee19-4c2b-8084-f6f9c59e9a94"},"vehicle_type_id":"4","last_reported":1699254429,"current_range_meters":27200,"station_id":"ce4bh512rcd13ifvqe3g","pricing_plan_id":"free"},{"bike_id":"15e110e9-2cd4-414a-acec-dd25ca0719e7","system_id":"levelo_inurba_marseille","lat":43.284787,"lon":5.384116,"is_reserved":false,"is_disabled":false,"rental_uris":{"android":"levelo://app?vid=15e110e9-2cd4-414a-acec-dd25ca0719e7","ios":"levelo://app?vid=15e110e9-2cd4-414a-acec-dd25ca0719e7"},"vehicle_type_id":"4","last_reported":1699254429,"current_range_meters":31600,"station_id":"ce4bh512rcd13ifvqe3g","pricing_plan_id":"free"},{"bike_id":"554a3790-f2d5-4ed5-9f0d-47467a39710a","system_id":"levelo_inurba_marseille","lat":43.284793,"lon":5.384113,"is_reserved":false,"is_disabled":false,"rental_uris":{"android":"levelo://app?vid=554a3790-f2d5-4ed5-9f0d-47467a39710a","ios":"levelo://app?vid=554a3790-f2d5-4ed5-9f0d-47467a39710a"},"vehicle_type_id":"4","last_reported":1699254429,"current_range_meters":10800,"station_id":"ce4bh512rcd13ifvqe3g","pricing_plan_id":"free"},{"bike_id":"708609b7-1638-4eaf-9226-90b4e0606799","system_id":"levelo_inurba_marseille","lat":43.28861,"lon":5.3931,"is_reserved":false,"is_disabled":false,"rental_uris":{"android":"levelo://app?vid=708609b7-1638-4eaf-9226-90b4e0606799","ios":"levelo://app?vid=708609b7-1638-4eaf-9226-90b4e0606799"},"vehicle_type_id":"4","last_reported":1699254429,"current_range_meters":30000,"station_id":"ce4bh2p2rcd13ifvqdi0","pricing_plan_id":"free"},{"bike_id":"2f1d8b31-69cf-4ae0-9023-b30ea0414244","system_id":"levelo_inurba_marseille","lat":43.288497,"lon":5.393089,"is_reserved":false,"is_disabled":false,"rental_uris":{"android":"levelo://app?vid=2f1d8b31-69cf-4ae0-9023-b30ea0414244","ios":"levelo://app?vid=2f1d8b31-69cf-4ae0-9023-b30ea0414244"},"vehicle_type_id":"4","last_reported":1699254429,"current_range_meters":27600,"station_id":"ce4bh2p2rcd13ifvqdi0","pricing_plan_id":"free"},{"bike_id":"129d62c9-eb62-400c-af88-b8c5b72da635","system_id":"levelo_inurba_marseille","lat":43.283494,"lon":5.380945,"is_reserved":false,"is_disabled":false,"rental_uris":{"android":"levelo://app?vid=129d62c9-eb62-400c-af88-b8c5b72da635","ios":"levelo://app?vid=129d62c9-eb62-400c-af88-b8c5b72da635"},"vehicle_type_id":"4","last_reported":1699254429,"current_range_meters":30400,"station_id":"ce4bh412rcd13ifvqdr0","pricing_plan_id":"free"},{"bike_id":"67814741-41d5-4f9b-a101-ba24dea452ae","system_id":"levelo_inurba_marseille","lat":43.288497,"lon":5.393089,"is_reserved":false,"is_disabled":false,"rental_uris":{"android":"levelo://app?vid=67814741-41d5-4f9b-a101-ba24dea452ae","ios":"levelo://app?vid=67814741-41d5-4f9b-a101-ba24dea452ae"},"vehicle_type_id":"4","last_reported":1699254429,"current_range_meters":18400,"station_id":"ce4bh2p2rcd13ifvqdi0","pricing_plan_id":"free"},{"bike_id":"097f74d3-c465-4631-93f2-7d1b4f3cf0f2","system_id":"levelo_inurba_marseille","lat":43.283494,"lon":5.380945,"is_reserved":false,"is_disabled":false,"rental_uris":{"android":"levelo://app?vid=097f74d3-c465-4631-93f2-7d1b4f3cf0f2","ios":"levelo://app?vid=097f74d3-c465-4631-93f2-7d1b4f3cf0f2"},"vehicle_type_id":"4","last_reported":1699254429,"current_range_meters":14800,"station_id":"ce4bh412rcd13ifvqdr0","pricing_plan_id":"free"},{"bike_id":"be10f57b-5f25-436f-ab8a-8d283bddb956","system_id":"levelo_inurba_marseille","lat":43.283494,"lon":5.380945,"is_reserved":false,"is_disabled":false,"rental_uris":{"android":"levelo://app?vid=be10f57b-5f25-436f-ab8a-8d283bddb956","ios":"levelo://app?vid=be10f57b-5f25-436f-ab8a-8d283bddb956"},"vehicle_type_id":"4","last_reported":1699254429,"current_range_meters":30800,"station_id":"ce4bh412rcd13ifvqdr0","pricing_plan_id":"free"},{"bike_id":"7ad702bf-dcb2-4f71-ac2f-5d3950fe2c1f","system_id":"levelo_inurba_marseille","lat":43.288501,"lon":5.393087,"is_reserved":false,"is_disabled":false,"rental_uris":{"android":"levelo://app?vid=7ad702bf-dcb2-4f71-ac2f-5d3950fe2c1f","ios":"levelo://app?vid=7ad702bf-dcb2-4f71-ac2f-5d3950fe2c1f"},"vehicle_type_id":"4","last_reported":1699254429,"current_range_meters":28400,"station_id":"ce4bh2p2rcd13ifvqdi0","pricing_plan_id":"free"},{"bike_id":"6788ccb6-3546-4363-a15e-55b0f624d102","system_id":"levelo_inurba_marseille","lat":43.283494,"lon":5.380945,"is_reserved":false,"is_disabled":false,"rental_uris":{"android":"levelo://app?vid=6788ccb6-3546-4363-a15e-55b0f624d102","ios":"levelo://app?vid=6788ccb6-3546-4363-a15e-55b0f624d102"},"vehicle_type_id":"4","last_reported":1699254429,"current_range_meters":22800,"station_id":"ce4bh412rcd13ifvqdr0","pricing_plan_id":"free"},{"bike_id":"dea06eee-393b-45fb-a413-0c2e157b0e7c","system_id":"levelo_inurba_marseille","lat":43.283494,"lon":5.380945,"is_reserved":false,"is_disabled":false,"rental_uris":{"android":"levelo://app?vid=dea06eee-393b-45fb-a413-0c2e157b0e7c","ios":"levelo://app?vid=dea06eee-393b-45fb-a413-0c2e157b0e7c"},"vehicle_type_id":"4","last_reported":1699254429,"current_range_meters":26800,"station_id":"ce4bh412rcd13ifvqdr0","pricing_plan_id":"free"},{"bike_id":"7d61a29d-2a7e-464d-afee-e7b3c826bc03","system_id":"levelo_inurba_marseille","lat":43.28347,"lon":5.38114,"is_reserved":false,"is_disabled":false,"rental_uris":{"android":"levelo://app?vid=7d61a29d-2a7e-464d-afee-e7b3c826bc03","ios":"levelo://app?vid=7d61a29d-2a7e-464d-afee-e7b3c826bc03"},"vehicle_type_id":"4","last_reported":1699254429,"current_range_meters":23200,"station_id":"ce4bh412rcd13ifvqdr0","pricing_plan_id":"free"},{"bike_id":"2f3d5b7d-4518-4c78-b0c8-87130428b5d5","system_id":"levelo_inurba_marseille","lat":43.289363,"lon":5.396322,"is_reserved":false,"is_disabled":false,"rental_uris":{"android":"levelo://app?vid=2f3d5b7d-4518-4c78-b0c8-87130428b5d5","ios":"levelo://app?vid=2f3d5b7d-4518-4c78-b0c8-87130428b5d5"},"vehicle_type_id":"4","last_reported":1699254429,"current_range_meters":26800,"station_id":"ce4bh3h2rcd13ifvqdn0","pricing_plan_id":"free"},{"bike_id":"6c1d3151-7b0c-4261-9ad5-0725f2ab1a66","system_id":"levelo_inurba_marseille","lat":43.289363,"lon":5.396322,"is_reserved":false,"is_disabled":false,"rental_uris":{"android":"levelo://app?vid=6c1d3151-7b0c-4261-9ad5-0725f2ab1a66","ios":"levelo://app?vid=6c1d3151-7b0c-4261-9ad5-0725f2ab1a66"},"vehicle_type_id":"4","last_reported":1699254429,"current_range_meters":28800,"station_id":"ce4bh3h2rcd13ifvqdn0","pricing_plan_id":"free"},{"bike_id":"061da395-ecfa-4010-b8e4-d2da9fb68231","system_id":"levelo_inurba_marseille","lat":43.289363,"lon":5.396322,"is_reserved":false,"is_disabled":false,"rental_uris":{"android":"levelo://app?vid=061da395-ecfa-4010-b8e4-d2da9fb68231","ios":"levelo://app?vid=061da395-ecfa-4010-b8e4-d2da9fb68231"},"vehicle_type_id":"4","last_reported":1699254429,"current_range_meters":22400,"station_id":"ce4bh3h2rcd13ifvqdn0","pricing_plan_id":"free"},{"bike_id":"10d4100b-415d-4ae6-919b-857fedfa6f0b","system_id":"levelo_inurba_marseille","lat":43.289363,"lon":5.396322,"is_reserved":false,"is_disabled":false,"rental_uris":{"android":"levelo://app?vid=10d4100b-415d-4ae6-919b-857fedfa6f0b","ios":"levelo://app?vid=10d4100b-415d-4ae6-919b-857fedfa6f0b"},"vehicle_type_id":"4","last_reported":1699254429,"current_range_meters":17200,"station_id":"ce4bh3h2rcd13ifvqdn0","pricing_plan_id":"free"},{"bike_id":"be3251d9-34c9-4b79-a5fe-6b00f3e6dfb6","system_id":"levelo_inurba_marseille","lat":43.289363,"lon":5.396322,"is_reserved":false,"is_disabled":false,"rental_uris":{"android":"levelo://app?vid=be3251d9-34c9-4b79-a5fe-6b00f3e6dfb6","ios":"levelo://app?vid=be3251d9-34c9-4b79-a5fe-6b00f3e6dfb6"},"vehicle_type_id":"4","last_reported":1699254429,"current_range_meters":30400,"station_id":"ce4bh3h2rcd13ifvqdn0","pricing_plan_id":"free"},{"bike_id":"61f335df-61e3-4c6a-9fea-a9e1eaa512d6","system_id":"levelo_inurba_marseille","lat":43.289363,"lon":5.396322,"is_reserved":false,"is_disabled":false,"rental_uris":{"android":"levelo://app?vid=61f335df-61e3-4c6a-9fea-a9e1eaa512d6","ios":"levelo://app?vid=61f335df-61e3-4c6a-9fea-a9e1eaa512d6"},"vehicle_type_id":"4","last_reported":1699254429,"current_range_meters":7600,"station_id":"ce4bh3h2rcd13ifvqdn0","pricing_plan_id":"free"},{"bike_id":"be3efcb9-bc1f-4898-9330-5b6e3e4c1931","system_id":"levelo_inurba_marseille","lat":43.324289,"lon":5.407562,"is_reserved":false,"is_disabled":false,"rental_uris":{"android":"levelo://app?vid=be3efcb9-bc1f-4898-9330-5b6e3e4c1931","ios":"levelo://app?vid=be3efcb9-bc1f-4898-9330-5b6e3e4c1931"},"vehicle_type_id":"4","last_reported":1699254429,"current_range_meters":18400,"station_id":"","pricing_plan_id":"free"},{"bike_id":"57d6af80-149e-4043-a1fc-08d835b88038","system_id":"levelo_inurba_marseille","lat":43.292724,"lon":5.401131,"is_reserved":false,"is_disabled":false,"rental_uris":{"android":"levelo://app?vid=57d6af80-149e-4043-a1fc-08d835b88038","ios":"levelo://app?vid=57d6af80-149e-4043-a1fc-08d835b88038"},"vehicle_type_id":"4","last_reported":1699254429,"current_range_meters":28000,"station_id":"ce4bh312rcd13ifvqdk0","pricing_plan_id":"free"},{"bike_id":"611d4add-b0f3-4a58-9439-5864d066fbe1","system_id":"levelo_inurba_marseille","lat":43.282754,"lon":5.350519,"is_reserved":false,"is_disabled":false,"rental_uris":{"android":"levelo://app?vid=611d4add-b0f3-4a58-9439-5864d066fbe1","ios":"levelo://app?vid=611d4add-b0f3-4a58-9439-5864d066fbe1"},"vehicle_type_id":"4","last_reported":1699254429,"current_range_meters":31600,"station_id":"ce4bhbp2rcd13ifvqerg","pricing_plan_id":"free"},{"bike_id":"27cb42eb-36f4-4c2e-a482-9308693e162f","system_id":"levelo_inurba_marseille","lat":43.282754,"lon":5.350519,"is_reserved":false,"is_disabled":false,"rental_uris":{"android":"levelo://app?vid=27cb42eb-36f4-4c2e-a482-9308693e162f","ios":"levelo://app?vid=27cb42eb-36f4-4c2e-a482-9308693e162f"},"vehicle_type_id":"4","last_reported":1699254429,"current_range_meters":31600,"station_id":"ce4bhbp2rcd13ifvqerg","pricing_plan_id":"free"},{"bike_id":"d024a9e9-1a41-400e-8a88-421cd2877de4","system_id":"levelo_inurba_marseille","lat":43.282744,"lon":5.350533,"is_reserved":false,"is_disabled":false,"rental_uris":{"android":"levelo://app?vid=d024a9e9-1a41-400e-8a88-421cd2877de4","ios":"levelo://app?vid=d024a9e9-1a41-400e-8a88-421cd2877de4"},"vehicle_type_id":"4","last_reported":1699254429,"current_range_meters":31600,"station_id":"ce4bhbp2rcd13ifvqerg","pricing_plan_id":"free"},{"bike_id":"09153fd0-8544-4d2d-bdbd-bf3e210b16b5","system_id":"levelo_inurba_marseille","lat":43.280382,"lon":5.369291,"is_reserved":false,"is_disabled":false,"rental_uris":{"android":"levelo://app?vid=09153fd0-8544-4d2d-bdbd-bf3e210b16b5","ios":"levelo://app?vid=09153fd0-8544-4d2d-bdbd-bf3e210b16b5"},"vehicle_type_id":"4","last_reported":1699254429,"current_range_meters":22800,"station_id":"ce4bha12rcd13ifvqef0","pricing_plan_id":"free"},{"bike_id":"248d8619-74fd-4d57-8fef-62a80e4acfc2","system_id":"levelo_inurba_marseille","lat":43.29043,"lon":5.3995,"is_reserved":false,"is_disabled":false,"rental_uris":{"android":"levelo://app?vid=248d8619-74fd-4d57-8fef-62a80e4acfc2","ios":"levelo://app?vid=248d8619-74fd-4d57-8fef-62a80e4acfc2"},"vehicle_type_id":"4","last_reported":1699254429,"current_range_meters":6000,"station_id":"ce4bh392rcd13ifvqdm0","pricing_plan_id":"free"},{"bike_id":"a630dc1a-8856-4c68-b71b-e1bdf0d6a230","system_id":"levelo_inurba_marseille","lat":43.29043,"lon":5.39959,"is_reserved":false,"is_disabled":false,"rental_uris":{"android":"levelo://app?vid=a630dc1a-8856-4c68-b71b-e1bdf0d6a230","ios":"levelo://app?vid=a630dc1a-8856-4c68-b71b-e1bdf0d6a230"},"vehicle_type_id":"4","last_reported":1699254429,"current_range_meters":15600,"station_id":"ce4bh392rcd13ifvqdm0","pricing_plan_id":"free"},{"bike_id":"15cdb105-1539-469c-81cc-10fd4081fa46","system_id":"levelo_inurba_marseille","lat":43.29043,"lon":5.3996,"is_reserved":false,"is_disabled":false,"rental_uris":{"android":"levelo://app?vid=15cdb105-1539-469c-81cc-10fd4081fa46","ios":"levelo://app?vid=15cdb105-1539-469c-81cc-10fd4081fa46"},"vehicle_type_id":"4","last_reported":1699254429,"current_range_meters":20000,"station_id":"ce4bh392rcd13ifvqdm0","pricing_plan_id":"free"},{"bike_id":"c027ae7e-a1a1-47d0-bcb3-0cfe7c80c6b9","system_id":"levelo_inurba_marseille","lat":43.290443,"lon":5.39962,"is_reserved":false,"is_disabled":false,"rental_uris":{"android":"levelo://app?vid=c027ae7e-a1a1-47d0-bcb3-0cfe7c80c6b9","ios":"levelo://app?vid=c027ae7e-a1a1-47d0-bcb3-0cfe7c80c6b9"},"vehicle_type_id":"4","last_reported":1699254429,"current_range_meters":10400,"station_id":"ce4bh392rcd13ifvqdm0","pricing_plan_id":"free"},{"bike_id":"514a2c53-baaa-40ee-8e7d-ab24048e8be3","system_id":"levelo_inurba_marseille","lat":43.29041,"lon":5.399634,"is_reserved":false,"is_disabled":false,"rental_uris":{"android":"levelo://app?vid=514a2c53-baaa-40ee-8e7d-ab24048e8be3","ios":"levelo://app?vid=514a2c53-baaa-40ee-8e7d-ab24048e8be3"},"vehicle_type_id":"4","last_reported":1699254429,"current_range_meters":26400,"station_id":"ce4bh392rcd13ifvqdm0","pricing_plan_id":"free"},{"bike_id":"d80f111e-6960-4308-84de-07a7f7eeb2ec","system_id":"levelo_inurba_marseille","lat":43.29041,"lon":5.399634,"is_reserved":false,"is_disabled":false,"rental_uris":{"android":"levelo://app?vid=d80f111e-6960-4308-84de-07a7f7eeb2ec","ios":"levelo://app?vid=d80f111e-6960-4308-84de-07a7f7eeb2ec"},"vehicle_type_id":"4","last_reported":1699254429,"current_range_meters":10800,"station_id":"ce4bh392rcd13ifvqdm0","pricing_plan_id":"free"},{"bike_id":"1fcd249a-e06a-437e-bcc2-ee13d0782db2","system_id":"levelo_inurba_marseille","lat":43.29046,"lon":5.3997,"is_reserved":false,"is_disabled":false,"rental_uris":{"android":"levelo://app?vid=1fcd249a-e06a-437e-bcc2-ee13d0782db2","ios":"levelo://app?vid=1fcd249a-e06a-437e-bcc2-ee13d0782db2"},"vehicle_type_id":"4","last_reported":1699254429,"current_range_meters":22000,"station_id":"ce4bh392rcd13ifvqdm0","pricing_plan_id":"free"},{"bike_id":"b8dfd662-7f93-4942-8ae2-35df1a7dfd2d","system_id":"levelo_inurba_marseille","lat":43.290412,"lon":5.399633,"is_reserved":false,"is_disabled":false,"rental_uris":{"android":"levelo://app?vid=b8dfd662-7f93-4942-8ae2-35df1a7dfd2d","ios":"levelo://app?vid=b8dfd662-7f93-4942-8ae2-35df1a7dfd2d"},"vehicle_type_id":"4","last_reported":1699254429,"current_range_meters":29600,"station_id":"ce4bh392rcd13ifvqdm0","pricing_plan_id":"free"},{"bike_id":"820dcf36-723f-401f-a966-ab130074f97f","system_id":"levelo_inurba_marseille","lat":43.2904,"lon":5.39965,"is_reserved":false,"is_disabled":false,"rental_uris":{"android":"levelo://app?vid=820dcf36-723f-401f-a966-ab130074f97f","ios":"levelo://app?vid=820dcf36-723f-401f-a966-ab130074f97f"},"vehicle_type_id":"4","last_reported":1699254429,"current_range_meters":25200,"station_id":"ce4bh392rcd13ifvqdm0","pricing_plan_id":"free"},{"bike_id":"26a697ba-4428-4afe-ac1b-9d1dfee65abf","system_id":"levelo_inurba_marseille","lat":43.29041,"lon":5.39967,"is_reserved":false,"is_disabled":false,"rental_uris":{"android":"levelo://app?vid=26a697ba-4428-4afe-ac1b-9d1dfee65abf","ios":"levelo://app?vid=26a697ba-4428-4afe-ac1b-9d1dfee65abf"},"vehicle_type_id":"4","last_reported":1699254429,"current_range_meters":20800,"station_id":"ce4bh392rcd13ifvqdm0","pricing_plan_id":"free"},{"bike_id":"371b1cee-a6cd-4cc1-b27c-3784c4d754a6","system_id":"levelo_inurba_marseille","lat":43.29041,"lon":5.39969,"is_reserved":false,"is_disabled":false,"rental_uris":{"android":"levelo://app?vid=371b1cee-a6cd-4cc1-b27c-3784c4d754a6","ios":"levelo://app?vid=371b1cee-a6cd-4cc1-b27c-3784c4d754a6"},