{"last_updated":1740344877,"ttl":60,"version":"2.2","data":{"bikes":[{"bike_id":"65222624-47e0-4410-9d3a-fc76061a0be7","system_id":"levelo_inurba_marseille","lat":43.31973,"lon":5.38884,"is_reserved":false,"is_disabled":false,"rental_uris":{"android":"levelo://app?vid=65222624-47e0-4410-9d3a-fc76061a0be7","ios":"levelo://app?vid=65222624-47e0-4410-9d3a-fc76061a0be7"},"vehicle_type_id":"4","last_reported":1740344877,"current_range_meters":2800,"station_id":"","pricing_plan_id":"cebpf4jnsgd1na2vs0mg"},{"bike_id":"fd7cd633-bdb0-402d-a497-48dfbfcb101b","system_id":"levelo_inurba_marseille","lat":43.2846,"lon":5.3589,"is_reserved":false,"is_disabled":false,"rental_uris":{"android":"levelo://app?vid=fd7cd633-bdb0-402d-a497-48dfbfcb101b","ios":"levelo://app?vid=fd7cd633-bdb0-402d-a497-48dfbfcb101b"},"vehicle_type_id":"4","last_reported":1740344877,"current_range_meters":2000,"station_id":"ce4bhah2rcd13ifvqei0","pricing_plan_id":"cebpf4jnsgd1na2vs0mg"},{"bike_id":"ab46b189-6bae-4129-a7fd-10b3ccd5a48e","system_id":"levelo_inurba_marseille","lat":43.27233,"lon":5.39995,"is_reserved":false,"is_disabled":false,"rental_uris":{"android":"levelo://app?vid=ab46b189-6bae-4129-a7fd-10b3ccd5a48e","ios":"levelo://app?vid=ab46b189-6bae-4129-a7fd-10b3ccd5a48e"},"vehicle_type_id":"4","last_reported":1740344877,"current_range_meters":3200,"station_id":"","pricing_plan_id":"cebpf4jnsgd1na2vs0mg"},{"bike_id":"30dc027b-862b-4eee-b5e9-748f55bddfeb","system_id":"levelo_inurba_marseille","lat":43.26216,"lon":5.40491,"is_reserved":false,"is_disabled":false,"rental_uris":{"android":"levelo://app?vid=30dc027b-862b-4eee-b5e9-748f55bddfeb","ios":"levelo://app?vid=30dc027b-862b-4eee-b5e9-748f55bddfeb"},"vehicle_type_id":"4","last_reported":1740344877,"current_range_meters":4000,"station_id":"ce4bhmh2rcd13ifvqgmg","pricing_plan_id":"cebpf4jnsgd1na2vs0mg"},{"bike_id":"eadf1109-247f-4ca3-b4a6-473c6e6f12a7","system_id":"levelo_inurba_marseille","lat":43.29905,"lon":5.38115,"is_reserved":false,"is_disabled":false,"rental_uris":{"android":"levelo://app?vid=eadf1109-247f-4ca3-b4a6-473c6e6f12a7","ios":"levelo://app?vid=eadf1109-247f-4ca3-b4a6-473c6e6f12a7"},"vehicle_type_id":"4","last_reported":1740344877,"current_range_meters":4800,"station_id":"ce4bgj12rcd13ifvqbc0","pricing_plan_id":"cebpf4jnsgd1na2vs0mg"},{"bike_id":"76b5e5cd-e583-4616-adb9-55c015d34f28","system_id":"levelo_inurba_marseille","lat":43.33093,"lon":5.3791,"is_reserved":false,"is_disabled":false,"rental_uris":{"android":"levelo://app?vid=76b5e5cd-e583-4616-adb9-55c015d34f28","ios":"levelo://app?vid=76b5e5cd-e583-4616-adb9-55c015d34f28"},"vehicle_type_id":"4","last_reported":1740344877,"current_range_meters":4800,"station_id":"","pricing_plan_id":"cebpf4jnsgd1na2vs0mg"},{"bike_id":"2a7165b4-60a1-4418-90cd-83d9915280e2","system_id":"levelo_inurba_marseille","lat":43.27999,"lon":5.40598,"is_reserved":false,"is_disabled":false,"rental_uris":{"android":"levelo://app?vid=2a7165b4-60a1-4418-90cd-83d9915280e2","ios":"levelo://app?vid=2a7165b4-60a1-4418-90cd-83d9915280e2"},"vehicle_type_id":"4","last_reported":1740344877,"current_range_meters":4800,"station_id":"","pricing_plan_id":"cebpf4jnsgd1na2vs0mg"},{"bike_id":"bc155c69-067d-465b-a673-045eaa7e09cd","system_id":"levelo_inurba_marseille","lat":43.28715,"lon":5.37941,"is_reserved":false,"is_disabled":false,"rental_uris":{"android":"levelo://app?vid=bc155c69-067d-465b-a673-045eaa7e09cd","ios":"levelo://app?vid=bc155c69-067d-465b-a673-045eaa7e09cd"},"vehicle_type_id":"4","last_reported":1740344877,"current_range_meters":4800,"station_id":"ce4bh9p2rcd13ifvqec0","pricing_plan_id":"cebpf4jnsgd1na2vs0mg"},{"bike_id":"0a77fe7c-559f-4c04-b696-6f35ecbccd60","system_id":"levelo_inurba_marseille","lat":43.29042,"lon":5.39972,"is_reserved":false,"is_disabled":false,"rental_uris":{"android":"levelo://app?vid=0a77fe7c-559f-4c04-b696-6f35ecbccd60","ios":"levelo://app?vid=0a77fe7c-559f-4c04-b696-6f35ecbccd60"},"vehicle_type_id":"4","last_reported":1740344877,"current_range_meters":4800,"station_id":"ce4bh392rcd13ifvqdm0","pricing_plan_id":"cebpf4jnsgd1na2vs0mg"},{"bike_id":"5be81403-e80e-49df-8f5d-218571205bc6","system_id":"levelo_inurba_marseille","lat":43.28426,"lon":5.37502,"is_reserved":false,"is_disabled":true,"rental_uris":{"android":"levelo://app?vid=5be81403-e80e-49df-8f5d-218571205bc6","ios":"levelo://app?vid=5be81403-e80e-49df-8f5d-218571205bc6"},"vehicle_type_id":"4","last_reported":1740344877,"current_range_meters":5600,"station_id":"ce4bh412rcd13ifvqds0","pricing_plan_id":"cebpf4jnsgd1na2vs0mg"},{"bike_id":"2e4d9ef6-4dd9-45eb-8687-42db3850d70a","system_id":"levelo_inurba_marseille","lat":43.27443,"lon":5.40708,"is_reserved":false,"is_disabled":false,"rental_uris":{"android":"levelo://app?vid=2e4d9ef6-4dd9-45eb-8687-42db3850d70a","ios":"levelo://app?vid=2e4d9ef6-4dd9-45eb-8687-42db3850d70a"},"vehicle_type_id":"4","last_reported":1740344877,"current_range_meters":5600,"station_id":"","pricing_plan_id":"cebpf4jnsgd1na2vs0mg"},{"bike_id":"f4c73116-43d3-41d9-88bb-9461dbbb405f","system_id":"levelo_inurba_marseille","lat":43.25451,"lon":5.41588,"is_reserved":false,"is_disabled":false,"rental_uris":{"android":"levelo://app?vid=f4c73116-43d3-41d9-88bb-9461dbbb405f","ios":"levelo://app?vid=f4c73116-43d3-41d9-88bb-9461dbbb405f"},"vehicle_type_id":"4","last_reported":1740344877,"current_range_meters":6000,"station_id":"","pricing_plan_id":"cebpf4jnsgd1na2vs0mg"},{"bike_id":"5c0a7b5b-b0a3-4437-98ab-6e412237034f","system_id":"levelo_inurba_marseille","lat":43.29416,"lon":5.38623,"is_reserved":false,"is_disabled":false,"rental_uris":{"android":"levelo://app?vid=5c0a7b5b-b0a3-4437-98ab-6e412237034f","ios":"levelo://app?vid=5c0a7b5b-b0a3-4437-98ab-6e412237034f"},"vehicle_type_id":"4","last_reported":1740344877,"current_range_meters":6400,"station_id":"ce4bh2h2rcd13ifvqdh0","pricing_plan_id":"cebpf4jnsgd1na2vs0mg"},{"bike_id":"4b89225b-abc0-4361-8aff-8c58af78dab6","system_id":"levelo_inurba_marseille","lat":43.296649,"lon":5.405393,"is_reserved":false,"is_disabled":false,"rental_uris":{"android":"levelo://app?vid=4b89225b-abc0-4361-8aff-8c58af78dab6","ios":"levelo://app?vid=4b89225b-abc0-4361-8aff-8c58af78dab6"},"vehicle_type_id":"4","last_reported":1740344877,"current_range_meters":6400,"station_id":"ce4bh0h2rcd13ifvqd60","pricing_plan_id":"cebpf4jnsgd1na2vs0mg"},{"bike_id":"1284377d-613e-4b0e-b8b9-30807af03316","system_id":"levelo_inurba_marseille","lat":43.27822,"lon":5.39195,"is_reserved":false,"is_disabled":true,"rental_uris":{"android":"levelo://app?vid=1284377d-613e-4b0e-b8b9-30807af03316","ios":"levelo://app?vid=1284377d-613e-4b0e-b8b9-30807af03316"},"vehicle_type_id":"4","last_reported":1740344877,"current_range_meters":6400,"station_id":"ce4bhjp2rcd13ifvqga0","pricing_plan_id":"cebpf4jnsgd1na2vs0mg"},{"bike_id":"7292c1e5-6964-4d8a-a212-eddc90011189","system_id":"levelo_inurba_marseille","lat":43.31106,"lon":5.37766,"is_reserved":false,"is_disabled":false,"rental_uris":{"android":"levelo://app?vid=7292c1e5-6964-4d8a-a212-eddc90011189","ios":"levelo://app?vid=7292c1e5-6964-4d8a-a212-eddc90011189"},"vehicle_type_id":"4","last_reported":1740344877,"current_range_meters":6400,"station_id":"ce4bgt92rcd13ifvqcg0","pricing_plan_id":"cebpf4jnsgd1na2vs0mg"},{"bike_id":"c48e7869-1093-4d1b-b1c9-241dee4d119b","system_id":"levelo_inurba_marseille","lat":43.31635,"lon":5.40452,"is_reserved":false,"is_disabled":false,"rental_uris":{"android":"levelo://app?vid=c48e7869-1093-4d1b-b1c9-241dee4d119b","ios":"levelo://app?vid=c48e7869-1093-4d1b-b1c9-241dee4d119b"},"vehicle_type_id":"4","last_reported":1740344877,"current_range_meters":6400,"station_id":"ce4bh012rcd13ifvqd00","pricing_plan_id":"cebpf4jnsgd1na2vs0mg"},{"bike_id":"68eaf70c-86da-4a55-b86e-08db94ec71f8","system_id":"levelo_inurba_marseille","lat":43.30888,"lon":5.39633,"is_reserved":false,"is_disabled":false,"rental_uris":{"android":"levelo://app?vid=68eaf70c-86da-4a55-b86e-08db94ec71f8","ios":"levelo://app?vid=68eaf70c-86da-4a55-b86e-08db94ec71f8"},"vehicle_type_id":"4","last_reported":1740344877,"current_range_meters":6800,"station_id":"ce4bh012rcd13ifvqcv0","pricing_plan_id":"cebpf4jnsgd1na2vs0mg"},{"bike_id":"519c0d90-c598-4074-9c80-d5e1565ff705","system_id":"levelo_inurba_marseille","lat":43.23054,"lon":5.35506,"is_reserved":false,"is_disabled":false,"rental_uris":{"android":"levelo://app?vid=519c0d90-c598-4074-9c80-d5e1565ff705","ios":"levelo://app?vid=519c0d90-c598-4074-9c80-d5e1565ff705"},"vehicle_type_id":"4","last_reported":1740344877,"current_range_meters":6800,"station_id":"cpo3342slgdg3j2ifvpg","pricing_plan_id":"cebpf4jnsgd1na2vs0mg"},{"bike_id":"108a8ab5-c1b3-47fa-9a10-bd8af5b3b3df","system_id":"levelo_inurba_marseille","lat":43.28841,"lon":5.39307,"is_reserved":false,"is_disabled":false,"rental_uris":{"android":"levelo://app?vid=108a8ab5-c1b3-47fa-9a10-bd8af5b3b3df","ios":"levelo://app?vid=108a8ab5-c1b3-47fa-9a10-bd8af5b3b3df"},"vehicle_type_id":"4","last_reported":1740344877,"current_range_meters":6800,"station_id":"ce4bh2p2rcd13ifvqdi0","pricing_plan_id":"cebpf4jnsgd1na2vs0mg"},{"bike_id":"87cd03be-0ff7-48bc-9ce2-8c3c9f1d1312","system_id":"levelo_inurba_marseille","lat":43.30881,"lon":5.3965,"is_reserved":false,"is_disabled":false,"rental_uris":{"android":"levelo://app?vid=87cd03be-0ff7-48bc-9ce2-8c3c9f1d1312","ios":"levelo://app?vid=87cd03be-0ff7-48bc-9ce2-8c3c9f1d1312"},"vehicle_type_id":"4","last_reported":1740344877,"current_range_meters":6800,"station_id":"ce4bh012rcd13ifvqcv0","pricing_plan_id":"cebpf4jnsgd1na2vs0mg"},{"bike_id":"b6c77459-26f3-43ec-baac-b2da52ec6895","system_id":"levelo_inurba_marseille","lat":43.28565,"lon":5.39506,"is_reserved":false,"is_disabled":false,"rental_uris":{"android":"levelo://app?vid=b6c77459-26f3-43ec-baac-b2da52ec6895","ios":"levelo://app?vid=b6c77459-26f3-43ec-baac-b2da52ec6895"},"vehicle_type_id":"4","last_reported":1740344877,"current_range_meters":6800,"station_id":"ce4bh292rcd13ifvqdg0","pricing_plan_id":"cebpf4jnsgd1na2vs0mg"},{"bike_id":"21c03b67-4f1c-47ef-9bf8-29d8898d16e5","system_id":"levelo_inurba_marseille","lat":43.30886,"lon":5.39657,"is_reserved":false,"is_disabled":false,"rental_uris":{"android":"levelo://app?vid=21c03b67-4f1c-47ef-9bf8-29d8898d16e5","ios":"levelo://app?vid=21c03b67-4f1c-47ef-9bf8-29d8898d16e5"},"vehicle_type_id":"4","last_reported":1740344877,"current_range_meters":7200,"station_id":"ce4bh012rcd13ifvqcv0","pricing_plan_id":"cebpf4jnsgd1na2vs0mg"},{"bike_id":"6efd5ef7-e169-48a4-811a-fed08a94d56b","system_id":"levelo_inurba_marseille","lat":43.28715,"lon":5.37946,"is_reserved":false,"is_disabled":false,"rental_uris":{"android":"levelo://app?vid=6efd5ef7-e169-48a4-811a-fed08a94d56b","ios":"levelo://app?vid=6efd5ef7-e169-48a4-811a-fed08a94d56b"},"vehicle_type_id":"4","last_reported":1740344877,"current_range_meters":7200,"station_id":"ce4bh9p2rcd13ifvqec0","pricing_plan_id":"cebpf4jnsgd1na2vs0mg"},{"bike_id":"62b86d87-378f-4635-9ca0-bb063479bb71","system_id":"levelo_inurba_marseille","lat":43.26494,"lon":5.39538,"is_reserved":false,"is_disabled":false,"rental_uris":{"android":"levelo://app?vid=62b86d87-378f-4635-9ca0-bb063479bb71","ios":"levelo://app?vid=62b86d87-378f-4635-9ca0-bb063479bb71"},"vehicle_type_id":"4","last_reported":1740344877,"current_range_meters":8000,"station_id":"ce4bhi12rcd13ifvqfq0","pricing_plan_id":"cebpf4jnsgd1na2vs0mg"},{"bike_id":"09486dc5-7654-4904-afc6-3b8a40308aeb","system_id":"levelo_inurba_marseille","lat":43.25466,"lon":5.41626,"is_reserved":false,"is_disabled":false,"rental_uris":{"android":"levelo://app?vid=09486dc5-7654-4904-afc6-3b8a40308aeb","ios":"levelo://app?vid=09486dc5-7654-4904-afc6-3b8a40308aeb"},"vehicle_type_id":"4","last_reported":1740344877,"current_range_meters":8000,"station_id":"","pricing_plan_id":"cebpf4jnsgd1na2vs0mg"},{"bike_id":"1af71967-b274-4269-9655-88715abf61c6","system_id":"levelo_inurba_marseille","lat":43.26538,"lon":5.3733,"is_reserved":false,"is_disabled":true,"rental_uris":{"android":"levelo://app?vid=1af71967-b274-4269-9655-88715abf61c6","ios":"levelo://app?vid=1af71967-b274-4269-9655-88715abf61c6"},"vehicle_type_id":"4","last_reported":1740344877,"current_range_meters":8000,"station_id":"ce4bhg12rcd13ifvqf70","pricing_plan_id":"cebpf4jnsgd1na2vs0mg"},{"bike_id":"022e8fbc-78ed-4518-8454-5d05a14e7093","system_id":"levelo_inurba_marseille","lat":43.30893,"lon":5.39641,"is_reserved":false,"is_disabled":false,"rental_uris":{"android":"levelo://app?vid=022e8fbc-78ed-4518-8454-5d05a14e7093","ios":"levelo://app?vid=022e8fbc-78ed-4518-8454-5d05a14e7093"},"vehicle_type_id":"4","last_reported":1740344877,"current_range_meters":8000,"station_id":"ce4bh012rcd13ifvqcv0","pricing_plan_id":"cebpf4jnsgd1na2vs0mg"},{"bike_id":"26a2d076-f5f2-45a7-98f5-29542790fe7d","system_id":"levelo_inurba_marseille","lat":43.32374,"lon":5.36791,"is_reserved":false,"is_disabled":false,"rental_uris":{"android":"levelo://app?vid=26a2d076-f5f2-45a7-98f5-29542790fe7d","ios":"levelo://app?vid=26a2d076-f5f2-45a7-98f5-29542790fe7d"},"vehicle_type_id":"4","last_reported":1740344877,"current_range_meters":8000,"station_id":"ce4bhsh2rcd13ifvqi2g","pricing_plan_id":"cebpf4jnsgd1na2vs0mg"},{"bike_id":"b31907e9-b1c5-4ac8-a2ef-61dd23e490d3","system_id":"levelo_inurba_marseille","lat":43.29261,"lon":5.38437,"is_reserved":false,"is_disabled":false,"rental_uris":{"android":"levelo://app?vid=b31907e9-b1c5-4ac8-a2ef-61dd23e490d3","ios":"levelo://app?vid=b31907e9-b1c5-4ac8-a2ef-61dd23e490d3"},"vehicle_type_id":"4","last_reported":1740344877,"current_range_meters":8000,"station_id":"ce4bh692rcd13ifvqea0","pricing_plan_id":"cebpf4jnsgd1na2vs0mg"},{"bike_id":"dc77dcb0-8d96-4d41-a0b2-1107c98a9048","system_id":"levelo_inurba_marseille","lat":43.31329,"lon":5.39685,"is_reserved":false,"is_disabled":false,"rental_uris":{"android":"levelo://app?vid=dc77dcb0-8d96-4d41-a0b2-1107c98a9048","ios":"levelo://app?vid=dc77dcb0-8d96-4d41-a0b2-1107c98a9048"},"vehicle_type_id":"4","last_reported":1740344877,"current_range_meters":8400,"station_id":"ce4bgvp2rcd13ifvqcu0","pricing_plan_id":"cebpf4jnsgd1na2vs0mg"},{"bike_id":"d3dc4114-38c6-48d5-81b2-55fe1924872f","system_id":"levelo_inurba_marseille","lat":43.23202,"lon":5.39951,"is_reserved":false,"is_disabled":false,"rental_uris":{"android":"levelo://app?vid=d3dc4114-38c6-48d5-81b2-55fe1924872f","ios":"levelo://app?vid=d3dc4114-38c6-48d5-81b2-55fe1924872f"},"vehicle_type_id":"4","last_reported":1740344877,"current_range_meters":8400,"station_id":"ce4bhn12rcd13ifvqgqg","pricing_plan_id":"cebpf4jnsgd1na2vs0mg"},{"bike_id":"49e1c317-c43a-4e17-be08-ea23dc8d6739","system_id":"levelo_inurba_marseille","lat":43.30189,"lon":5.39602,"is_reserved":false,"is_disabled":true,"rental_uris":{"android":"levelo://app?vid=49e1c317-c43a-4e17-be08-ea23dc8d6739","ios":"levelo://app?vid=49e1c317-c43a-4e17-be08-ea23dc8d6739"},"vehicle_type_id":"4","last_reported":1740344877,"current_range_meters":8400,"station_id":"","pricing_plan_id":"cebpf4jnsgd1na2vs0mg"},{"bike_id":"45b2e564-5e34-4a9e-846b-0d4903bf2b04","system_id":"levelo_inurba_marseille","lat":43.30797,"lon":5.38152,"is_reserved":false,"is_disabled":false,"rental_uris":{"android":"levelo://app?vid=45b2e564-5e34-4a9e-846b-0d4903bf2b04","ios":"levelo://app?vid=45b2e564-5e34-4a9e-846b-0d4903bf2b04"},"vehicle_type_id":"4","last_reported":1740344877,"current_range_meters":8400,"station_id":"ce4bgt12rcd13ifvqce0","pricing_plan_id":"cebpf4jnsgd1na2vs0mg"},{"bike_id":"1f7411cd-9379-4bab-a8bc-411b928d8602","system_id":"levelo_inurba_marseille","lat":43.27493,"lon":5.4246,"is_reserved":false,"is_disabled":false,"rental_uris":{"android":"levelo://app?vid=1f7411cd-9379-4bab-a8bc-411b928d8602","ios":"levelo://app?vid=1f7411cd-9379-4bab-a8bc-411b928d8602"},"vehicle_type_id":"4","last_reported":1740344877,"current_range_meters":8800,"station_id":"ce4bhn92rcd13ifvqgrg","pricing_plan_id":"cebpf4jnsgd1na2vs0mg"},{"bike_id":"8dc51aab-29d3-43fa-a37e-6c47cc4c2e69","system_id":"levelo_inurba_marseille","lat":43.24166,"lon":5.36405,"is_reserved":false,"is_disabled":false,"rental_uris":{"android":"levelo://app?vid=8dc51aab-29d3-43fa-a37e-6c47cc4c2e69","ios":"levelo://app?vid=8dc51aab-29d3-43fa-a37e-6c47cc4c2e69"},"vehicle_type_id":"4","last_reported":1740344877,"current_range_meters":8800,"station_id":"cpo36qri1sfpv3e86is0","pricing_plan_id":"cebpf4jnsgd1na2vs0mg"},{"bike_id":"80e30e07-59ff-4807-b06b-c6dc1a9e08e2","system_id":"levelo_inurba_marseille","lat":43.33624,"lon":5.4097,"is_reserved":false,"is_disabled":true,"rental_uris":{"android":"levelo://app?vid=80e30e07-59ff-4807-b06b-c6dc1a9e08e2","ios":"levelo://app?vid=80e30e07-59ff-4807-b06b-c6dc1a9e08e2"},"vehicle_type_id":"4","last_reported":1740344877,"current_range_meters":8800,"station_id":"ce4bhqh2rcd13ifvqhmg","pricing_plan_id":"cebpf4jnsgd1na2vs0mg"},{"bike_id":"e0c1d965-9bb5-48f6-93c4-81a00c3e7849","system_id":"levelo_inurba_marseille","lat":43.2707,"lon":5.42285,"is_reserved":false,"is_disabled":false,"rental_uris":{"android":"levelo://app?vid=e0c1d965-9bb5-48f6-93c4-81a00c3e7849","ios":"levelo://app?vid=e0c1d965-9bb5-48f6-93c4-81a00c3e7849"},"vehicle_type_id":"4","last_reported":1740344877,"current_range_meters":8800,"station_id":"ce4bhk92rcd13ifvqgb0","pricing_plan_id":"cebpf4jnsgd1na2vs0mg"},{"bike_id":"331722d8-2645-4b84-81df-6a2aef51a19e","system_id":"levelo_inurba_marseille","lat":43.25112,"lon":5.40336,"is_reserved":false,"is_disabled":false,"rental_uris":{"android":"levelo://app?vid=331722d8-2645-4b84-81df-6a2aef51a19e","ios":"levelo://app?vid=331722d8-2645-4b84-81df-6a2aef51a19e"},"vehicle_type_id":"4","last_reported":1740344877,"current_range_meters":9200,"station_id":"ce4bhlh2rcd13ifvqgig","pricing_plan_id":"cebpf4jnsgd1na2vs0mg"},{"bike_id":"fbb4b455-a4fb-4537-b50a-66738b1da71d","system_id":"levelo_inurba_marseille","lat":43.27164,"lon":5.41007,"is_reserved":false,"is_disabled":false,"rental_uris":{"android":"levelo://app?vid=fbb4b455-a4fb-4537-b50a-66738b1da71d","ios":"levelo://app?vid=fbb4b455-a4fb-4537-b50a-66738b1da71d"},"vehicle_type_id":"4","last_reported":1740344877,"current_range_meters":9200,"station_id":"ce4bhl12rcd13ifvqgf0","pricing_plan_id":"cebpf4jnsgd1na2vs0mg"},{"bike_id":"b562f71c-8ec8-40f9-a53b-da018ff4f3c0","system_id":"levelo_inurba_marseille","lat":43.30874,"lon":5.39615,"is_reserved":false,"is_disabled":false,"rental_uris":{"android":"levelo://app?vid=b562f71c-8ec8-40f9-a53b-da018ff4f3c0","ios":"levelo://app?vid=b562f71c-8ec8-40f9-a53b-da018ff4f3c0"},"vehicle_type_id":"4","last_reported":1740344877,"current_range_meters":9200,"station_id":"ce4bh012rcd13ifvqcv0","pricing_plan_id":"cebpf4jnsgd1na2vs0mg"},{"bike_id":"fee1b68d-d6e0-4e91-895b-77b6320c2434","system_id":"levelo_inurba_marseille","lat":43.30944,"lon":5.40145,"is_reserved":false,"is_disabled":false,"rental_uris":{"android":"levelo://app?vid=fee1b68d-d6e0-4e91-895b-77b6320c2434","ios":"levelo://app?vid=fee1b68d-d6e0-4e91-895b-77b6320c2434"},"vehicle_type_id":"4","last_reported":1740344877,"current_range_meters":9200,"station_id":"ce4bgvp2rcd13ifvqct0","pricing_plan_id":"cebpf4jnsgd1na2vs0mg"},{"bike_id":"f1d259fc-9177-4a5c-a847-5b547d294945","system_id":"levelo_inurba_marseille","lat":43.28348,"lon":5.38102,"is_reserved":false,"is_disabled":false,"rental_uris":{"android":"levelo://app?vid=f1d259fc-9177-4a5c-a847-5b547d294945","ios":"levelo://app?vid=f1d259fc-9177-4a5c-a847-5b547d294945"},"vehicle_type_id":"4","last_reported":1740344877,"current_range_meters":9200,"station_id":"ce4bh412rcd13ifvqdr0","pricing_plan_id":"cebpf4jnsgd1na2vs0mg"},{"bike_id":"93118f1f-618a-49ac-ac51-eb54e8c1e6da","system_id":"levelo_inurba_marseille","lat":43.29569,"lon":5.3997,"is_reserved":false,"is_disabled":false,"rental_uris":{"android":"levelo://app?vid=93118f1f-618a-49ac-ac51-eb54e8c1e6da","ios":"levelo://app?vid=93118f1f-618a-49ac-ac51-eb54e8c1e6da"},"vehicle_type_id":"4","last_reported":1740344877,"current_range_meters":9200,"station_id":"ce4bh312rcd13ifvqdj0","pricing_plan_id":"cebpf4jnsgd1na2vs0mg"},{"bike_id":"ea7e3de9-37ca-4851-8757-99555fe7bbaf","system_id":"levelo_inurba_marseille","lat":43.25109,"lon":5.39524,"is_reserved":false,"is_disabled":false,"rental_uris":{"android":"levelo://app?vid=ea7e3de9-37ca-4851-8757-99555fe7bbaf","ios":"levelo://app?vid=ea7e3de9-37ca-4851-8757-99555fe7bbaf"},"vehicle_type_id":"4","last_reported":1740344877,"current_range_meters":9200,"station_id":"ce4bhm12rcd13ifvqgkg","pricing_plan_id":"cebpf4jnsgd1na2vs0mg"},{"bike_id":"56ea01ce-cd35-4f93-9e6c-b2e5f8e6e8ca","system_id":"levelo_inurba_marseille","lat":43.28472,"lon":5.38404,"is_reserved":false,"is_disabled":false,"rental_uris":{"android":"levelo://app?vid=56ea01ce-cd35-4f93-9e6c-b2e5f8e6e8ca","ios":"levelo://app?vid=56ea01ce-cd35-4f93-9e6c-b2e5f8e6e8ca"},"vehicle_type_id":"4","last_reported":1740344877,"current_range_meters":9200,"station_id":"ce4bh512rcd13ifvqe3g","pricing_plan_id":"cebpf4jnsgd1na2vs0mg"},{"bike_id":"31bd8ab8-d5ad-485d-b095-d8b2c1490c96","system_id":"levelo_inurba_marseille","lat":43.28044,"lon":5.36938,"is_reserved":false,"is_disabled":false,"rental_uris":{"android":"levelo://app?vid=31bd8ab8-d5ad-485d-b095-d8b2c1490c96","ios":"levelo://app?vid=31bd8ab8-d5ad-485d-b095-d8b2c1490c96"},"vehicle_type_id":"4","last_reported":1740344877,"current_range_meters":9600,"station_id":"ce4bha12rcd13ifvqef0","pricing_plan_id":"cebpf4jnsgd1na2vs0mg"},{"bike_id":"095d5026-b6cb-411c-ab71-6c60703e2b2f","system_id":"levelo_inurba_marseille","lat":43.230546,"lon":5.354915,"is_reserved":false,"is_disabled":true,"rental_uris":{"android":"levelo://app?vid=095d5026-b6cb-411c-ab71-6c60703e2b2f","ios":"levelo://app?vid=095d5026-b6cb-411c-ab71-6c60703e2b2f"},"vehicle_type_id":"4","last_reported":1740344877,"current_range_meters":9600,"station_id":"cpo3342slgdg3j2ifvpg","pricing_plan_id":"cebpf4jnsgd1na2vs0mg"},{"bike_id":"c559c837-deee-406d-a844-4f877ac9626c","system_id":"levelo_inurba_marseille","lat":43.26933,"lon":5.40245,"is_reserved":false,"is_disabled":false,"rental_uris":{"android":"levelo://app?vid=c559c837-deee-406d-a844-4f877ac9626c","ios":"levelo://app?vid=c559c837-deee-406d-a844-4f877ac9626c"},"vehicle_type_id":"4","last_reported":1740344877,"current_range_meters":9600,"station_id":"cjm6bp8fraef2m0cb0m0","pricing_plan_id":"cebpf4jnsgd1na2vs0mg"},{"bike_id":"abf21030-ef22-4416-85cc-1504745febf6","system_id":"levelo_inurba_marseille","lat":43.29534,"lon":5.3853,"is_reserved":false,"is_disabled":false,"rental_uris":{"android":"levelo://app?vid=abf21030-ef22-4416-85cc-1504745febf6","ios":"levelo://app?vid=abf21030-ef22-4416-85cc-1504745febf6"},"vehicle_type_id":"4","last_reported":1740344877,"current_range_meters":9600,"station_id":"ce4bgih2rcd13ifvqba0","pricing_plan_id":"cebpf4jnsgd1na2vs0mg"},{"bike_id":"cced779a-878f-49ff-a528-3dfa519fcd56","system_id":"levelo_inurba_marseille","lat":43.28689,"lon":5.37397,"is_reserved":false,"is_disabled":false,"rental_uris":{"android":"levelo://app?vid=cced779a-878f-49ff-a528-3dfa519fcd56","ios":"levelo://app?vid=cced779a-878f-49ff-a528-3dfa519fcd56"},"vehicle_type_id":"4","last_reported":1740344877,"current_range_meters":10000,"station_id":"ce4bh3p2rcd13ifvqdq0","pricing_plan_id":"cebpf4jnsgd1na2vs0mg"},{"bike_id":"c8ab2732-97c7-4e83-a3de-581686152e68","system_id":"levelo_inurba_marseille","lat":43.24839,"lon":5.37444,"is_reserved":false,"is_disabled":true,"rental_uris":{"android":"levelo://app?vid=c8ab2732-97c7-4e83-a3de-581686152e68","ios":"levelo://app?vid=c8ab2732-97c7-4e83-a3de-581686152e68"},"vehicle_type_id":"4","last_reported":1740344877,"current_range_meters":10000,"station_id":"","pricing_plan_id":"cebpf4jnsgd1na2vs0mg"},{"bike_id":"a34024d2-bd78-4aa2-b9dd-e4711b4f4101","system_id":"levelo_inurba_marseille","lat":43.24419,"lon":5.37066,"is_reserved":false,"is_disabled":false,"rental_uris":{"android":"levelo://app?vid=a34024d2-bd78-4aa2-b9dd-e4711b4f4101","ios":"levelo://app?vid=a34024d2-bd78-4aa2-b9dd-e4711b4f4101"},"vehicle_type_id":"4","last_reported":1740344877,"current_range_meters":10000,"station_id":"ce4bhhh2rcd13ifvqfk0","pricing_plan_id":"cebpf4jnsgd1na2vs0mg"},{"bike_id":"62202325-0dc9-44aa-9739-89d11f4951da","system_id":"levelo_inurba_marseille","lat":43.31745,"lon":5.39034,"is_reserved":false,"is_disabled":false,"rental_uris":{"android":"levelo://app?vid=62202325-0dc9-44aa-9739-89d11f4951da","ios":"levelo://app?vid=62202325-0dc9-44aa-9739-89d11f4951da"},"vehicle_type_id":"4","last_reported":1740344877,"current_range_meters":10000,"station_id":"ce4bhqp2rcd13ifvqhng","pricing_plan_id":"cebpf4jnsgd1na2vs0mg"},{"bike_id":"88e36214-8ed2-4279-8508-398fd174cb25","system_id":"levelo_inurba_marseille","lat":43.26202,"lon":5.40412,"is_reserved":false,"is_disabled":false,"rental_uris":{"android":"levelo://app?vid=88e36214-8ed2-4279-8508-398fd174cb25","ios":"levelo://app?vid=88e36214-8ed2-4279-8508-398fd174cb25"},"vehicle_type_id":"4","last_reported":1740344877,"current_range_meters":10000,"station_id":"ce4bhmh2rcd13ifvqgmg","pricing_plan_id":"cebpf4jnsgd1na2vs0mg"},{"bike_id":"a08769a9-db17-4764-b342-12e301ca1da2","system_id":"levelo_inurba_marseille","lat":43.28699,"lon":5.39981,"is_reserved":false,"is_disabled":false,"rental_uris":{"android":"levelo://app?vid=a08769a9-db17-4764-b342-12e301ca1da2","ios":"levelo://app?vid=a08769a9-db17-4764-b342-12e301ca1da2"},"vehicle_type_id":"4","last_reported":1740344877,"current_range_meters":10000,"station_id":"ce4bho92rcd13ifvqh3g","pricing_plan_id":"cebpf4jnsgd1na2vs0mg"},{"bike_id":"8cd8e855-556a-49bb-858e-094e7857f894","system_id":"levelo_inurba_marseille","lat":43.29199,"lon":5.35795,"is_reserved":false,"is_disabled":true,"rental_uris":{"android":"levelo://app?vid=8cd8e855-556a-49bb-858e-094e7857f894","ios":"levelo://app?vid=8cd8e855-556a-49bb-858e-094e7857f894"},"vehicle_type_id":"4","last_reported":1740344877,"current_range_meters":10000,"station_id":"ce4bhb12rcd13ifvqel0","pricing_plan_id":"cebpf4jnsgd1na2vs0mg"},{"bike_id":"1127a561-55dc-461d-840d-fc4e71e9155a","system_id":"levelo_inurba_marseille","lat":43.29884,"lon":5.43642,"is_reserved":false,"is_disabled":false,"rental_uris":{"android":"levelo://app?vid=1127a561-55dc-461d-840d-fc4e71e9155a","ios":"levelo://app?vid=1127a561-55dc-461d-840d-fc4e71e9155a"},"vehicle_type_id":"4","last_reported":1740344877,"current_range_meters":10800,"station_id":"ce4bhpp2rcd13ifvqhfg","pricing_plan_id":"cebpf4jnsgd1na2vs0mg"},{"bike_id":"ccd21cf5-a7c7-47ce-9e1d-5d11c20e14f8","system_id":"levelo_inurba_marseille","lat":43.31326,"lon":5.39688,"is_reserved":false,"is_disabled":false,"rental_uris":{"android":"levelo://app?vid=ccd21cf5-a7c7-47ce-9e1d-5d11c20e14f8","ios":"levelo://app?vid=ccd21cf5-a7c7-47ce-9e1d-5d11c20e14f8"},"vehicle_type_id":"4","last_reported":1740344877,"current_range_meters":10800,"station_id":"ce4bgvp2rcd13ifvqcu0","pricing_plan_id":"cebpf4jnsgd1na2vs0mg"},{"bike_id":"d8fe9461-3f19-4646-9471-9345bfd53bad","system_id":"levelo_inurba_marseille","lat":43.24433,"lon":5.37026,"is_reserved":false,"is_disabled":false,"rental_uris":{"android":"levelo://app?vid=d8fe9461-3f19-4646-9471-9345bfd53bad","ios":"levelo://app?vid=d8fe9461-3f19-4646-9471-9345bfd53bad"},"vehicle_type_id":"4","last_reported":1740344877,"current_range_meters":10800,"station_id":"","pricing_plan_id":"cebpf4jnsgd1na2vs0mg"},{"bike_id":"fb44b31f-7afc-4a5c-8b14-6d56005aa669","system_id":"levelo_inurba_marseille","lat":43.29003,"lon":5.43259,"is_reserved":false,"is_disabled":false,"rental_uris":{"android":"levelo://app?vid=fb44b31f-7afc-4a5c-8b14-6d56005aa669","ios":"levelo://app?vid=fb44b31f-7afc-4a5c-8b14-6d56005aa669"},"vehicle_type_id":"4","last_reported":1740344877,"current_range_meters":10800,"station_id":"","pricing_plan_id":"cebpf4jnsgd1na2vs0mg"},{"bike_id":"618f913e-cba8-4c50-a313-a42d4485f0ce","system_id":"levelo_inurba_marseille","lat":43.30538,"lon":5.36686,"is_reserved":false,"is_disabled":true,"rental_uris":{"android":"levelo://app?vid=618f913e-cba8-4c50-a313-a42d4485f0ce","ios":"levelo://app?vid=618f913e-cba8-4c50-a313-a42d4485f0ce"},"vehicle_type_id":"4","last_reported":1740344877,"current_range_meters":10800,"station_id":"ce4bgrp2rcd13ifvqc9g","pricing_plan_id":"cebpf4jnsgd1na2vs0mg"},{"bike_id":"968c407e-2d52-4e99-9ce8-f8bcd70c274e","system_id":"levelo_inurba_marseille","lat":43.30616,"lon":5.39375,"is_reserved":false,"is_disabled":false,"rental_uris":{"android":"levelo://app?vid=968c407e-2d52-4e99-9ce8-f8bcd70c274e","ios":"levelo://app?vid=968c407e-2d52-4e99-9ce8-f8bcd70c274e"},"vehicle_type_id":"4","last_reported":1740344877,"current_range_meters":10800,"station_id":"ce4bh0p2rcd13ifvqd80","pricing_plan_id":"cebpf4jnsgd1na2vs0mg"},{"bike_id":"ab7da9df-c7ed-482b-9961-43b5cca3e34b","system_id":"levelo_inurba_marseille","lat":43.3113,"lon":5.37782,"is_reserved":false,"is_disabled":true,"rental_uris":{"android":"levelo://app?vid=ab7da9df-c7ed-482b-9961-43b5cca3e34b","ios":"levelo://app?vid=ab7da9df-c7ed-482b-9961-43b5cca3e34b"},"vehicle_type_id":"4","last_reported":1740344877,"current_range_meters":11200,"station_id":"ce4bgt92rcd13ifvqcg0","pricing_plan_id":"cebpf4jnsgd1na2vs0mg"},{"bike_id":"e61c2b74-4ece-46bf-bf8e-6ea12dcb1ec2","system_id":"levelo_inurba_marseille","lat":43.30609,"lon":5.39331,"is_reserved":false,"is_disabled":true,"rental_uris":{"android":"levelo://app?vid=e61c2b74-4ece-46bf-bf8e-6ea12dcb1ec2","ios":"levelo://app?vid=e61c2b74-4ece-46bf-bf8e-6ea12dcb1ec2"},"vehicle_type_id":"4","last_reported":1740344877,"current_range_meters":11200,"station_id":"ce4bh0p2rcd13ifvqd80","pricing_plan_id":"cebpf4jnsgd1na2vs0mg"},{"bike_id":"9ec8cc63-14ea-41e2-a32b-68a8e86d1e16","system_id":"levelo_inurba_marseille","lat":43.2872,"lon":5.37929,"is_reserved":false,"is_disabled":false,"rental_uris":{"android":"levelo://app?vid=9ec8cc63-14ea-41e2-a32b-68a8e86d1e16","ios":"levelo://app?vid=9ec8cc63-14ea-41e2-a32b-68a8e86d1e16"},"vehicle_type_id":"4","last_reported":1740344877,"current_range_meters":11200,"station_id":"ce4bh9p2rcd13ifvqec0","pricing_plan_id":"cebpf4jnsgd1na2vs0mg"},{"bike_id":"ef201908-4a57-4165-8a07-03b845a1e741","system_id":"levelo_inurba_marseille","lat":43.29569,"lon":5.39976,"is_reserved":false,"is_disabled":false,"rental_uris":{"android":"levelo://app?vid=ef201908-4a57-4165-8a07-03b845a1e741","ios":"levelo://app?vid=ef201908-4a57-4165-8a07-03b845a1e741"},"vehicle_type_id":"4","last_reported":1740344877,"current_range_meters":11200,"station_id":"ce4bh312rcd13ifvqdj0","pricing_plan_id":"cebpf4jnsgd1na2vs0mg"},{"bike_id":"0e17628e-77f1-4b2d-9900-e51a8c9f0181","system_id":"levelo_inurba_marseille","lat":43.28898,"lon":5.45004,"is_reserved":false,"is_disabled":false,"rental_uris":{"android":"levelo://app?vid=0e17628e-77f1-4b2d-9900-e51a8c9f0181","ios":"levelo://app?vid=0e17628e-77f1-4b2d-9900-e51a8c9f0181"},"vehicle_type_id":"4","last_reported":1740344877,"current_range_meters":11600,"station_id":"","pricing_plan_id":"cebpf4jnsgd1na2vs0mg"},{"bike_id":"a8dc7729-6589-4862-ac61-2b20487771e6","system_id":"levelo_inurba_marseille","lat":43.32101,"lon":5.36787,"is_reserved":false,"is_disabled":false,"rental_uris":{"android":"levelo://app?vid=a8dc7729-6589-4862-ac61-2b20487771e6","ios":"levelo://app?vid=a8dc7729-6589-4862-ac61-2b20487771e6"},"vehicle_type_id":"4","last_reported":1740344877,"current_range_meters":11600,"station_id":"ce4bhrh2rcd13ifvqhug","pricing_plan_id":"cebpf4jnsgd1na2vs0mg"},{"bike_id":"394da03c-f034-42f7-9bb7-f230019b180a","system_id":"levelo_inurba_marseille","lat":43.29541,"lon":5.38543,"is_reserved":false,"is_disabled":false,"rental_uris":{"android":"levelo://app?vid=394da03c-f034-42f7-9bb7-f230019b180a","ios":"levelo://app?vid=394da03c-f034-42f7-9bb7-f230019b180a"},"vehicle_type_id":"4","last_reported":1740344877,"current_range_meters":11600,"station_id":"ce4bgih2rcd13ifvqba0","pricing_plan_id":"cebpf4jnsgd1na2vs0mg"},{"bike_id":"a3610751-bbe4-4d3e-a717-1a0eebd2fb2a","system_id":"levelo_inurba_marseille","lat":43.30685,"lon":5.37517,"is_reserved":false,"is_disabled":false,"rental_uris":{"android":"levelo://app?vid=a3610751-bbe4-4d3e-a717-1a0eebd2fb2a","ios":"levelo://app?vid=a3610751-bbe4-4d3e-a717-1a0eebd2fb2a"},"vehicle_type_id":"4","last_reported":1740344877,"current_range_meters":11600,"station_id":"","pricing_plan_id":"cebpf4jnsgd1na2vs0mg"},{"bike_id":"61992edf-cbe1-4709-9a0b-946bba88c780","system_id":"levelo_inurba_marseille","lat":43.28722,"lon":5.36084,"is_reserved":false,"is_disabled":false,"rental_uris":{"android":"levelo://app?vid=61992edf-cbe1-4709-9a0b-946bba88c780","ios":"levelo://app?vid=61992edf-cbe1-4709-9a0b-946bba88c780"},"vehicle_type_id":"4","last_reported":1740344877,"current_range_meters":12000,"station_id":"cki0cbj6b192h4jlfktg","pricing_plan_id":"cebpf4jnsgd1na2vs0mg"},{"bike_id":"35f7fe5f-b05d-405c-a155-dda0758733e2","system_id":"levelo_inurba_marseille","lat":43.28146,"lon":5.42642,"is_reserved":false,"is_disabled":true,"rental_uris":{"android":"levelo://app?vid=35f7fe5f-b05d-405c-a155-dda0758733e2","ios":"levelo://app?vid=35f7fe5f-b05d-405c-a155-dda0758733e2"},"vehicle_type_id":"4","last_reported":1740344877,"current_range_meters":12000,"station_id":"ce4bhnh2rcd13ifvqgug","pricing_plan_id":"cebpf4jnsgd1na2vs0mg"},{"bike_id":"7ca97e69-d258-4d13-b7d3-f8a5e2d4295c","system_id":"levelo_inurba_marseille","lat":43.292085,"lon":5.39333,"is_reserved":false,"is_disabled":false,"rental_uris":{"android":"levelo://app?vid=7ca97e69-d258-4d13-b7d3-f8a5e2d4295c","ios":"levelo://app?vid=7ca97e69-d258-4d13-b7d3-f8a5e2d4295c"},"vehicle_type_id":"4","last_reported":1740344877,"current_range_meters":12000,"station_id":"ce4bh192rcd13ifvqdd0","pricing_plan_id":"cebpf4jnsgd1na2vs0mg"},{"bike_id":"a4c0cd21-d532-4b6f-8473-de05733ce764","system_id":"levelo_inurba_marseille","lat":43.2586,"lon":5.39912,"is_reserved":false,"is_disabled":false,"rental_uris":{"android":"levelo://app?vid=a4c0cd21-d532-4b6f-8473-de05733ce764","ios":"levelo://app?vid=a4c0cd21-d532-4b6f-8473-de05733ce764"},"vehicle_type_id":"4","last_reported":1740344877,"current_range_meters":12400,"station_id":"ce4bhl92rcd13ifvqghg","pricing_plan_id":"cebpf4jnsgd1na2vs0mg"},{"bike_id":"be29424e-ef5d-4d80-ad26-ba74ad9eed3b","system_id":"levelo_inurba_marseille","lat":43.28338,"lon":5.38094,"is_reserved":false,"is_disabled":false,"rental_uris":{"android":"levelo://app?vid=be29424e-ef5d-4d80-ad26-ba74ad9eed3b","ios":"levelo://app?vid=be29424e-ef5d-4d80-ad26-ba74ad9eed3b"},"vehicle_type_id":"4","last_reported":1740344877,"current_range_meters":12400,"station_id":"ce4bh412rcd13ifvqdr0","pricing_plan_id":"cebpf4jnsgd1na2vs0mg"},{"bike_id":"99336520-3ecc-4a8a-afa1-32a05d41d3c8","system_id":"levelo_inurba_marseille","lat":43.27922,"lon":5.39605,"is_reserved":false,"is_disabled":false,"rental_uris":{"android":"levelo://app?vid=99336520-3ecc-4a8a-afa1-32a05d41d3c8","ios":"levelo://app?vid=99336520-3ecc-4a8a-afa1-32a05d41d3c8"},"vehicle_type_id":"4","last_reported":1740344877,"current_range_meters":12400,"station_id":"ce4bhf92rcd13ifvqf40","pricing_plan_id":"cebpf4jnsgd1na2vs0mg"},{"bike_id":"26d9d838-7ad3-4668-83f6-9b650ee7d840","system_id":"levelo_inurba_marseille","lat":43.25115,"lon":5.40325,"is_reserved":false,"is_disabled":false,"rental_uris":{"android":"levelo://app?vid=26d9d838-7ad3-4668-83f6-9b650ee7d840","ios":"levelo://app?vid=26d9d838-7ad3-4668-83f6-9b650ee7d840"},"vehicle_type_id":"4","last_reported":1740344877,"current_range_meters":12400,"station_id":"ce4bhlh2rcd13ifvqgig","pricing_plan_id":"cebpf4jnsgd1na2vs0mg"},{"bike_id":"a5c93db5-c687-41cb-9df7-2ad4cfddcd7c","system_id":"levelo_inurba_marseille","lat":43.31322,"lon":5.39693,"is_reserved":false,"is_disabled":false,"rental_uris":{"android":"levelo://app?vid=a5c93db5-c687-41cb-9df7-2ad4cfddcd7c","ios":"levelo://app?vid=a5c93db5-c687-41cb-9df7-2ad4cfddcd7c"},"vehicle_type_id":"4","last_reported":1740344877,"current_range_meters":12400,"station_id":"ce4bgvp2rcd13ifvqcu0","pricing_plan_id":"cebpf4jnsgd1na2vs0mg"},{"bike_id":"bd3cd35d-8872-4079-b434-dfe718238ac3","system_id":"levelo_inurba_marseille","lat":43.32376,"lon":5.38866,"is_reserved":false,"is_disabled":false,"rental_uris":{"android":"levelo://app?vid=bd3cd35d-8872-4079-b434-dfe718238ac3","ios":"levelo://app?vid=bd3cd35d-8872-4079-b434-dfe718238ac3"},"vehicle_type_id":"4","last_reported":1740344877,"current_range_meters":12400,"station_id":"ce4bhqp2rcd13ifvqhog","pricing_plan_id":"cebpf4jnsgd1na2vs0mg"},{"bike_id":"7de3f6a1-24b1-4588-9fd0-243733aac689","system_id":"levelo_inurba_marseille","lat":43.281,"lon":5.37857,"is_reserved":false,"is_disabled":false,"rental_uris":{"android":"levelo://app?vid=7de3f6a1-24b1-4588-9fd0-243733aac689","ios":"levelo://app?vid=7de3f6a1-24b1-4588-9fd0-243733aac689"},"vehicle_type_id":"4","last_reported":1740344877,"current_range_meters":12400,"station_id":"ce4bha12rcd13ifvqee0","pricing_plan_id":"cebpf4jnsgd1na2vs0mg"},{"bike_id":"c4eaa5e7-8543-48da-a1c9-279db3ef9437","system_id":"levelo_inurba_marseille","lat":43.28352,"lon":5.38106,"is_reserved":false,"is_disabled":false,"rental_uris":{"android":"levelo://app?vid=c4eaa5e7-8543-48da-a1c9-279db3ef9437","ios":"levelo://app?vid=c4eaa5e7-8543-48da-a1c9-279db3ef9437"},"vehicle_type_id":"4","last_reported":1740344877,"current_range_meters":12400,"station_id":"ce4bh412rcd13ifvqdr0","pricing_plan_id":"cebpf4jnsgd1na2vs0mg"},{"bike_id":"7cbc38a5-68b9-4c0e-b227-488aa85ec6d7","system_id":"levelo_inurba_marseille","lat":43.24813,"lon":5.37453,"is_reserved":false,"is_disabled":false,"rental_uris":{"android":"levelo://app?vid=7cbc38a5-68b9-4c0e-b227-488aa85ec6d7","ios":"levelo://app?vid=7cbc38a5-68b9-4c0e-b227-488aa85ec6d7"},"vehicle_type_id":"4","last_reported":1740344877,"current_range_meters":12800,"station_id":"ce4bhgh2rcd13ifvqfb0","pricing_plan_id":"cebpf4jnsgd1na2vs0mg"},{"bike_id":"9c19ed5c-9da5-477e-a3ab-9b57c502f36e","system_id":"levelo_inurba_marseille","lat":43.24808,"lon":5.37456,"is_reserved":false,"is_disabled":false,"rental_uris":{"android":"levelo://app?vid=9c19ed5c-9da5-477e-a3ab-9b57c502f36e","ios":"levelo://app?vid=9c19ed5c-9da5-477e-a3ab-9b57c502f36e"},"vehicle_type_id":"4","last_reported":1740344877,"current_range_meters":12800,"station_id":"ce4bhgh2rcd13ifvqfb0","pricing_plan_id":"cebpf4jnsgd1na2vs0mg"},{"bike_id":"b49d5e52-ea0b-48d3-8a70-3d9ea3251436","system_id":"levelo_inurba_marseille","lat":43.30133,"lon":5.39892,"is_reserved":false,"is_disabled":true,"rental_uris":{"android":"levelo://app?vid=b49d5e52-ea0b-48d3-8a70-3d9ea3251436","ios":"levelo://app?vid=b49d5e52-ea0b-48d3-8a70-3d9ea3251436"},"vehicle_type_id":"4","last_reported":1740344877,"current_range_meters":12800,"station_id":"ce4bh0h2rcd13ifvqd40","pricing_plan_id":"cebpf4jnsgd1na2vs0mg"},{"bike_id":"0733b99c-14c1-4744-99a7-4c59b20e9afc","system_id":"levelo_inurba_marseille","lat":43.27187,"lon":5.40987,"is_reserved":false,"is_disabled":false,"rental_uris":{"android":"levelo://app?vid=0733b99c-14c1-4744-99a7-4c59b20e9afc","ios":"levelo://app?vid=0733b99c-14c1-4744-99a7-4c59b20e9afc"},"vehicle_type_id":"4","last_reported":1740344877,"current_range_meters":12800,"station_id":"ce4bhl12rcd13ifvqgf0","pricing_plan_id":"cebpf4jnsgd1na2vs0mg"},{"bike_id":"9fdc5228-e835-4793-ad30-e5834cfd975b","system_id":"levelo_inurba_marseille","lat":43.2586,"lon":5.39904,"is_reserved":false,"is_disabled":false,"rental_uris":{"android":"levelo://app?vid=9fdc5228-e835-4793-ad30-e5834cfd975b","ios":"levelo://app?vid=9fdc5228-e835-4793-ad30-e5834cfd975b"},"vehicle_type_id":"4","last_reported":1740344877,"current_range_meters":12800,"station_id":"ce4bhl92rcd13ifvqghg","pricing_plan_id":"cebpf4jnsgd1na2vs0mg"},{"bike_id":"67e779a0-306a-4450-b799-b79cc40953ca","system_id":"levelo_inurba_marseille","lat":43.29032,"lon":5.38119,"is_reserved":false,"is_disabled":false,"rental_uris":{"android":"levelo://app?vid=67e779a0-306a-4450-b799-b79cc40953ca","ios":"levelo://app?vid=67e779a0-306a-4450-b799-b79cc40953ca"},"vehicle_type_id":"4","last_reported":1740344877,"current_range_meters":12800,"station_id":"ce4bh4p2rcd13ifvqe1g","pricing_plan_id":"cebpf4jnsgd1na2vs0mg"},{"bike_id":"59cee8b2-041d-483f-9014-53e4c3fcc3d2","system_id":"levelo_inurba_marseille","lat":43.28894,"lon":5.35521,"is_reserved":false,"is_disabled":true,"rental_uris":{"android":"levelo://app?vid=59cee8b2-041d-483f-9014-53e4c3fcc3d2","ios":"levelo://app?vid=59cee8b2-041d-483f-9014-53e4c3fcc3d2"},"vehicle_type_id":"4","last_reported":1740344877,"current_range_meters":12800,"station_id":"ce4bhb92rcd13ifvqen0","pricing_plan_id":"cebpf4jnsgd1na2vs0mg"},{"bike_id":"860eff15-4aff-4d92-8690-98414ae73df2","system_id":"levelo_inurba_marseille","lat":43.26562,"lon":5.39,"is_reserved":false,"is_disabled":true,"rental_uris":{"android":"levelo://app?vid=860eff15-4aff-4d92-8690-98414ae73df2","ios":"levelo://app?vid=860eff15-4aff-4d92-8690-98414ae73df2"},"vehicle_type_id":"4","last_reported":1740344877,"current_range_meters":12800,"station_id":"ce4bhe12rcd13ifvqf30","pricing_plan_id":"cebpf4jnsgd1na2vs0mg"},{"bike_id":"5c89da34-efd7-46ec-88fb-42cf783587ce","system_id":"levelo_inurba_marseille","lat":43.2832,"lon":5.43226,"is_reserved":false,"is_disabled":false,"rental_uris":{"android":"levelo://app?vid=5c89da34-efd7-46ec-88fb-42cf783587ce","ios":"levelo://app?vid=5c89da34-efd7-46ec-88fb-42cf783587ce"},"vehicle_type_id":"4","last_reported":1740344877,"current_range_meters":12800,"station_id":"","pricing_plan_id":"cebpf4jnsgd1na2vs0mg"},{"bike_id":"f2650bc9-d908-4d06-92a0-418bc342dbc4","system_id":"levelo_inurba_marseille","lat":43.29414,"lon":5.38625,"is_reserved":false,"is_disabled":false,"rental_uris":{"android":"levelo://app?vid=f2650bc9-d908-4d06-92a0-418bc342dbc4","ios":"levelo://app?vid=f2650bc9-d908-4d06-92a0-418bc342dbc4"},"vehicle_type_id":"4","last_reported":1740344877,"current_range_meters":12800,"station_id":"ce4bh2h2rcd13ifvqdh0","pricing_plan_id":"cebpf4jnsgd1na2vs0mg"},{"bike_id":"b9f8f878-f63f-4ae4-8e0a-47e0d0977b01","system_id":"levelo_inurba_marseille","lat":43.28709,"lon":5.3741,"is_reserved":false,"is_disabled":false,"rental_uris":{"android":"levelo://app?vid=b9f8f878-f63f-4ae4-8e0a-47e0d0977b01","ios":"levelo://app?vid=b9f8f878-f63f-4ae4-8e0a-47e0d0977b01"},"vehicle_type_id":"4","last_reported":1740344877,"current_range_meters":13600,"station_id":"ce4bh3p2rcd13ifvqdq0","pricing_plan_id":"cebpf4jnsgd1na2vs0mg"},{"bike_id":"9faf844a-413f-419f-bdea-64830f7f2bfb","system_id":"levelo_inurba_marseille","lat":43.2994,"lon":5.37812,"is_reserved":false,"is_disabled":false,"rental_uris":{"android":"levelo://app?vid=9faf844a-413f-419f-bdea-64830f7f2bfb","ios":"levelo://app?vid=9faf844a-413f-419f-bdea-64830f7f2bfb"},"vehicle_type_id":"4","last_reported":1740344877,"current_range_meters":13600,"station_id":"","pricing_plan_id":"cebpf4jnsgd1na2vs0mg"},{"bike_id":"159dca48-f829-465a-b7a4-07d951c45149","system_id":"levelo_inurba_marseille","lat":43.2989,"lon":5.38923,"is_reserved":false,"is_disabled":false,"rental_uris":{"android":"levelo://app?vid=159dca48-f829-465a-b7a4-07d951c45149","ios":"levelo://app?vid=159dca48-f829-465a-b7a4-07d951c45149"},"vehicle_type_id":"4","last_reported":1740344877,"current_range_meters":13600,"station_id":"ce4bh392rcd13ifvqdl0","pricing_plan_id":"cebpf4jnsgd1na2vs0mg"},{"bike_id":"a519fa81-8f7e-45c5-a206-ee3032173aa9","system_id":"levelo_inurba_marseille","lat":43.25086,"lon":5.39505,"is_reserved":false,"is_disabled":false,"rental_uris":{"android":"levelo://app?vid=a519fa81-8f7e-45c5-a206-ee3032173aa9","ios":"levelo://app?vid=a519fa81-8f7e-45c5-a206-ee3032173aa9"},"vehicle_type_id":"4","last_reported":1740344877,"current_range_meters":13600,"station_id":"ce4bhm12rcd13ifvqgkg","pricing_plan_id":"cebpf4jnsgd1na2vs0mg"},{"bike_id":"08a857f9-1e70-4c25-b8ff-b099ad0d8bf9","system_id":"levelo_inurba_marseille","lat":43.3043,"lon":5.39739,"is_reserved":false,"is_disabled":false,"rental_uris":{"android":"levelo://app?vid=08a857f9-1e70-4c25-b8ff-b099ad0d8bf9","ios":"levelo://app?vid=08a857f9-1e70-4c25-b8ff-b099ad0d8bf9"},"vehicle_type_id":"4","last_reported":1740344877,"current_range_meters":14000,"station_id":"ce4bh092rcd13ifvqd20","pricing_plan_id":"cebpf4jnsgd1na2vs0mg"},{"bike_id":"fa5ef085-ddb3-4ecc-a8bc-4bef34bfe151","system_id":"levelo_inurba_marseille","lat":43.2623,"lon":5.40461,"is_reserved":false,"is_disabled":false,"rental_uris":{"android":"levelo://app?vid=fa5ef085-ddb3-4ecc-a8bc-4bef34bfe151","ios":"levelo://app?vid=fa5ef085-ddb3-4ecc-a8bc-4bef34bfe151"},"vehicle_type_id":"4","last_reported":1740344877,"current_range_meters":14000,"station_id":"ce4bhmh2rcd13ifvqgmg","pricing_plan_id":"cebpf4jnsgd1na2vs0mg"},{"bike_id":"22d9f0af-6d0a-4a97-b0a4-b0db01ae57e4","system_id":"levelo_inurba_marseille","lat":43.292571,"lon":5.409071,"is_reserved":false,"is_disabled":false,"rental_uris":{"android":"levelo://app?vid=22d9f0af-6d0a-4a97-b0a4-b0db01ae57e4","ios":"levelo://app?vid=22d9f0af-6d0a-4a97-b0a4-b0db01ae57e4"},"vehicle_type_id":"4","last_reported":1740344877,"current_range_meters":14000,"station_id":"ce4bh192rcd13ifvqdc0","pricing_plan_id":"cebpf4jnsgd1na2vs0mg"},{"bike_id":"34b60e4e-03ef-486b-8103-9545ecdbc1e1","system_id":"levelo_inurba_marseille","lat":43.267795,"lon":5.39416,"is_reserved":false,"is_disabled":true,"rental_uris":{"android":"levelo://app?vid=34b60e4e-03ef-486b-8103-9545ecdbc1e1","ios":"levelo://app?vid=34b60e4e-03ef-486b-8103-9545ecdbc1e1"},"vehicle_type_id":"4","last_reported":1740344877,"current_range_meters":14000,"station_id":"ce4bhh12rcd13ifvqfg0","pricing_plan_id":"cebpf4jnsgd1na2vs0mg"},{"bike_id":"f485fe26-6083-4376-a973-f98d7f05f521","system_id":"levelo_inurba_marseille","lat":43.2842,"lon":5.37509,"is_reserved":false,"is_disabled":false,"rental_uris":{"android":"levelo://app?vid=f485fe26-6083-4376-a973-f98d7f05f521","ios":"levelo://app?vid=f485fe26-6083-4376-a973-f98d7f05f521"},"vehicle_type_id":"4","last_reported":1740344877,"current_range_meters":14000,"station_id":"ce4bh412rcd13ifvqds0","pricing_plan_id":"cebpf4jnsgd1na2vs0mg"},{"bike_id":"fc93a0cd-d658-4fe7-9e6a-52a49333f268","system_id":"levelo_inurba_marseille","lat":43.3082,"lon":5.38187,"is_reserved":false,"is_disabled":false,"rental_uris":{"android":"levelo://app?vid=fc93a0cd-d658-4fe7-9e6a-52a49333f268","ios":"levelo://app?vid=fc93a0cd-d658-4fe7-9e6a-52a49333f268"},"vehicle_type_id":"4","last_reported":1740344877,"current_range_meters":14000,"station_id":"ce4bgt12rcd13ifvqce0","pricing_plan_id":"cebpf4jnsgd1na2vs0mg"},{"bike_id":"fe7bf3ad-4f35-4114-875e-18cd8334315b","system_id":"levelo_inurba_marseille","lat":43.28573,"lon":5.39493,"is_reserved":false,"is_disabled":false,"rental_uris":{"android":"levelo://app?vid=fe7bf3ad-4f35-4114-875e-18cd8334315b","ios":"levelo://app?vid=fe7bf3ad-4f35-4114-875e-18cd8334315b"},"vehicle_type_id":"4","last_reported":1740344877,"current_range_meters":14400,"station_id":"ce4bh292rcd13ifvqdg0","pricing_plan_id":"cebpf4jnsgd1na2vs0mg"},{"bike_id":"6d3a28fb-ad8e-4099-ab7e-2f1842cf0da6","system_id":"levelo_inurba_marseille","lat":43.3199,"lon":5.3815,"is_reserved":false,"is_disabled":false,"rental_uris":{"android":"levelo://app?vid=6d3a28fb-ad8e-4099-ab7e-2f1842cf0da6","ios":"levelo://app?vid=6d3a28fb-ad8e-4099-ab7e-2f1842cf0da6"},"vehicle_type_id":"4","last_reported":1740344877,"current_range_meters":14400,"station_id":"ce4bhr12rcd13ifvqhpg","pricing_plan_id":"cebpf4jnsgd1na2vs0mg"},{"bike_id":"f00e595a-27c1-41da-a73e-d1cf61c851f4","system_id":"levelo_inurba_marseille","lat":43.29545,"lon":5.38539,"is_reserved":false,"is_disabled":false,"rental_uris":{"android":"levelo://app?vid=f00e595a-27c1-41da-a73e-d1cf61c851f4","ios":"levelo://app?vid=f00e595a-27c1-41da-a73e-d1cf61c851f4"},"vehicle_type_id":"4","last_reported":1740344877,"current_range_meters":14400,"station_id":"ce4bgih2rcd13ifvqba0","pricing_plan_id":"cebpf4jnsgd1na2vs0mg"},{"bike_id":"68c1cb49-7da1-4934-a025-4e78e338d091","system_id":"levelo_inurba_marseille","lat":43.337638,"lon":5.374412,"is_reserved":false,"is_disabled":false,"rental_uris":{"android":"levelo://app?vid=68c1cb49-7da1-4934-a025-4e78e338d091","ios":"levelo://app?vid=68c1cb49-7da1-4934-a025-4e78e338d091"},"vehicle_type_id":"4","last_reported":1740344877,"current_range_meters":14400,"station_id":"","pricing_plan_id":"cebpf4jnsgd1na2vs0mg"},{"bike_id":"4b3c37b4-4ecb-427b-ab00-75e6bfe73d89","system_id":"levelo_inurba_marseille","lat":43.281046,"lon":5.378605,"is_reserved":false,"is_disabled":false,"rental_uris":{"android":"levelo://app?vid=4b3c37b4-4ecb-427b-ab00-75e6bfe73d89","ios":"levelo://app?vid=4b3c37b4-4ecb-427b-ab00-75e6bfe73d89"},"vehicle_type_id":"4","last_reported":1740344877,"current_range_meters":14800,"station_id":"ce4bha12rcd13ifvqee0","pricing_plan_id":"cebpf4jnsgd1na2vs0mg"},{"bike_id":"feb8e794-9d25-41f0-a4ed-f0c1bd8ae954","system_id":"levelo_inurba_marseille","lat":43.26193,"lon":5.37449,"is_reserved":false,"is_disabled":false,"rental_uris":{"android":"levelo://app?vid=feb8e794-9d25-41f0-a4ed-f0c1bd8ae954","ios":"levelo://app?vid=feb8e794-9d25-41f0-a4ed-f0c1bd8ae954"},"vehicle_type_id":"4","last_reported":1740344877,"current_range_meters":14800,"station_id":"ce4bhgp2rcd13ifvqfc0","pricing_plan_id":"cebpf4jnsgd1na2vs0mg"},{"bike_id":"a85dea3d-d4f1-4002-bf3e-2b6ec1fa25b3","system_id":"levelo_inurba_marseille","lat":43.26268,"lon":5.40442,"is_reserved":false,"is_disabled":false,"rental_uris":{"android":"levelo://app?vid=a85dea3d-d4f1-4002-bf3e-2b6ec1fa25b3","ios":"levelo://app?vid=a85dea3d-d4f1-4002-bf3e-2b6ec1fa25b3"},"vehicle_type_id":"4","last_reported":1740344877,"current_range_meters":14800,"station_id":"ce4bhmh2rcd13ifvqgmg","pricing_plan_id":"cebpf4jnsgd1na2vs0mg"},{"bike_id":"38d4b5b8-d8a2-46ef-87ba-e5cf58e153b6","system_id":"levelo_inurba_marseille","lat":43.30385,"lon":5.41896,"is_reserved":false,"is_disabled":false,"rental_uris":{"android":"levelo://app?vid=38d4b5b8-d8a2-46ef-87ba-e5cf58e153b6","ios":"levelo://app?vid=38d4b5b8-d8a2-46ef-87ba-e5cf58e153b6"},"vehicle_type_id":"4","last_reported":1740344877,"current_range_meters":14800,"station_id":"ce4bhop2rcd13ifvqh7g","pricing_plan_id":"cebpf4jnsgd1na2vs0mg"},{"bike_id":"9a2aa4dd-64da-4ff9-80ee-f00c626d69dc","system_id":"levelo_inurba_marseille","lat":43.32359,"lon":5.38895,"is_reserved":false,"is_disabled":false,"rental_uris":{"android":"levelo://app?vid=9a2aa4dd-64da-4ff9-80ee-f00c626d69dc","ios":"levelo://app?vid=9a2aa4dd-64da-4ff9-80ee-f00c626d69dc"},"vehicle_type_id":"4","last_reported":1740344877,"current_range_meters":14800,"station_id":"ce4bhqp2rcd13ifvqhog","pricing_plan_id":"cebpf4jnsgd1na2vs0mg"},{"bike_id":"3414b944-a9b7-4b1e-b288-cbf493bce065","system_id":"levelo_inurba_marseille","lat":43.29867,"lon":5.38871,"is_reserved":false,"is_disabled":false,"rental_uris":{"android":"levelo://app?vid=3414b944-a9b7-4b1e-b288-cbf493bce065","ios":"levelo://app?vid=3414b944-a9b7-4b1e-b288-cbf493bce065"},"vehicle_type_id":"4","last_reported":1740344877,"current_range_meters":15200,"station_id":"ce4bh392rcd13ifvqdl0","pricing_plan_id":"cebpf4jnsgd1na2vs0mg"},{"bike_id":"3b0cd999-031e-4d8d-a002-b457d9ec7442","system_id":"levelo_inurba_marseille","lat":43.30917,"lon":5.36846,"is_reserved":false,"is_disabled":false,"rental_uris":{"android":"levelo://app?vid=3b0cd999-031e-4d8d-a002-b457d9ec7442","ios":"levelo://app?vid=3b0cd999-031e-4d8d-a002-b457d9ec7442"},"vehicle_type_id":"4","last_reported":1740344877,"current_range_meters":15200,"station_id":"ce4bgn92rcd13ifvqbvg","pricing_plan_id":"cebpf4jnsgd1na2vs0mg"},{"bike_id":"a7d79b08-9075-402a-abbd-5679cd523a69","system_id":"levelo_inurba_marseille","lat":43.26493,"lon":5.39548,"is_reserved":false,"is_disabled":false,"rental_uris":{"android":"levelo://app?vid=a7d79b08-9075-402a-abbd-5679cd523a69","ios":"levelo://app?vid=a7d79b08-9075-402a-abbd-5679cd523a69"},"vehicle_type_id":"4","last_reported":1740344877,"current_range_meters":16000,"station_id":"ce4bhi12rcd13ifvqfq0","pricing_plan_id":"cebpf4jnsgd1na2vs0mg"},{"bike_id":"51c7c09f-82e9-4a4b-a201-54869c0fba8f","system_id":"levelo_inurba_marseille","lat":43.25104,"lon":5.39502,"is_reserved":false,"is_disabled":true,"rental_uris":{"android":"levelo://app?vid=51c7c09f-82e9-4a4b-a201-54869c0fba8f","ios":"levelo://app?vid=51c7c09f-82e9-4a4b-a201-54869c0fba8f"},"vehicle_type_id":"4","last_reported":1740344877,"current_range_meters":16000,"station_id":"ce4bhm12rcd13ifvqgkg","pricing_plan_id":"cebpf4jnsgd1na2vs0mg"},{"bike_id":"87c93845-143c-4613-9a0d-08836448a26d","system_id":"levelo_inurba_marseille","lat":43.23955,"lon":5.36643,"is_reserved":false,"is_disabled":false,"rental_uris":{"android":"levelo://app?vid=87c93845-143c-4613-9a0d-08836448a26d","ios":"levelo://app?vid=87c93845-143c-4613-9a0d-08836448a26d"},"vehicle_type_id":"4","last_reported":1740344877,"current_range_meters":16000,"station_id":"ce4bhi12rcd13ifvqfp0","pricing_plan_id":"cebpf4jnsgd1na2vs0mg"},{"bike_id":"cf72142b-ace4-4a3c-a3c9-c81090086bf2","system_id":"levelo_inurba_marseille","lat":43.28718,"lon":5.37937,"is_reserved":false,"is_disabled":false,"rental_uris":{"android":"levelo://app?vid=cf72142b-ace4-4a3c-a3c9-c81090086bf2","ios":"levelo://app?vid=cf72142b-ace4-4a3c-a3c9-c81090086bf2"},"vehicle_type_id":"4","last_reported":1740344877,"current_range_meters":16000,"station_id":"ce4bh9p2rcd13ifvqec0","pricing_plan_id":"cebpf4jnsgd1na2vs0mg"},{"bike_id":"8144d768-d95e-483c-8771-5a5a78fc17ce","system_id":"levelo_inurba_marseille","lat":43.24665,"lon":5.38134,"is_reserved":false,"is_disabled":false,"rental_uris":{"android":"levelo://app?vid=8144d768-d95e-483c-8771-5a5a78fc17ce","ios":"levelo://app?vid=8144d768-d95e-483c-8771-5a5a78fc17ce"},"vehicle_type_id":"4","last_reported":1740344877,"current_range_meters":16800,"station_id":"ce4bhih2rcd13ifvqfr0","pricing_plan_id":"cebpf4jnsgd1na2vs0mg"},{"bike_id":"470f98cd-8647-49a8-afe8-e9668886a2db","system_id":"levelo_inurba_marseille","lat":43.27945,"lon":5.41049,"is_reserved":false,"is_disabled":false,"rental_uris":{"android":"levelo://app?vid=470f98cd-8647-49a8-afe8-e9668886a2db","ios":"levelo://app?vid=470f98cd-8647-49a8-afe8-e9668886a2db"},"vehicle_type_id":"4","last_reported":1740344877,"current_range_meters":16400,"station_id":"ce4bhnp2rcd13ifvqh0g","pricing_plan_id":"cebpf4jnsgd1na2vs0mg"},{"bike_id":"7fe0996e-2e24-4a3a-b975-03a2a20f6506","system_id":"levelo_inurba_marseille","lat":43.32379,"lon":5.36781,"is_reserved":false,"is_disabled":false,"rental_uris":{"android":"levelo://app?vid=7fe0996e-2e24-4a3a-b975-03a2a20f6506","ios":"levelo://app?vid=7fe0996e-2e24-4a3a-b975-03a2a20f6506"},"vehicle_type_id":"4","last_reported":1740344877,"current_range_meters":16400,"station_id":"ce4bhsh2rcd13ifvqi2g","pricing_plan_id":"cebpf4jnsgd1na2vs0mg"},{"bike_id":"14ffb6e4-664c-4b2b-9ade-80857a77e357","system_id":"levelo_inurba_marseille","lat":43.28936,"lon":5.36621,"is_reserved":false,"is_disabled":false,"rental_uris":{"android":"levelo://app?vid=14ffb6e4-664c-4b2b-9ade-80857a77e357","ios":"levelo://app?vid=14ffb6e4-664c-4b2b-9ade-80857a77e357"},"vehicle_type_id":"4","last_reported":1740344877,"current_range_meters":16400,"station_id":"ce4bhap2rcd13ifvqek0","pricing_plan_id":"cebpf4jnsgd1na2vs0mg"},{"bike_id":"bfee4918-65bc-4430-8c1c-387fa672d48d","system_id":"levelo_inurba_marseille","lat":43.28716,"lon":5.39996,"is_reserved":false,"is_disabled":false,"rental_uris":{"android":"levelo://app?vid=bfee4918-65bc-4430-8c1c-387fa672d48d","ios":"levelo://app?vid=bfee4918-65bc-4430-8c1c-387fa672d48d"},"vehicle_type_id":"4","last_reported":1740344877,"current_range_meters":16400,"station_id":"ce4bho92rcd13ifvqh3g","pricing_plan_id":"cebpf4jnsgd1na2vs0mg"},{"bike_id":"570d61fd-97de-42d1-a684-577872e9605a","system_id":"levelo_inurba_marseille","lat":43.28058,"lon":5.36962,"is_reserved":false,"is_disabled":false,"rental_uris":{"android":"levelo://app?vid=570d61fd-97de-42d1-a684-577872e9605a","ios":"levelo://app?vid=570d61fd-97de-42d1-a684-577872e9605a"},"vehicle_type_id":"4","last_reported":1740344877,"current_range_meters":16400,"station_id":"ce4bha12rcd13ifvqef0","pricing_plan_id":"cebpf4jnsgd1na2vs0mg"},{"bike_id":"d5259184-ba3a-4ef8-baa9-a623b2d430bd","system_id":"levelo_inurba_marseille","lat":43.2925,"lon":5.4089,"is_reserved":false,"is_disabled":false,"rental_uris":{"android":"levelo://app?vid=d5259184-ba3a-4ef8-baa9-a623b2d430bd","ios":"levelo://app?vid=d5259184-ba3a-4ef8-baa9-a623b2d430bd"},"vehicle_type_id":"4","last_reported":1740344877,"current_range_meters":16400,"station_id":"ce4bh192rcd13ifvqdc0","pricing_plan_id":"cebpf4jnsgd1na2vs0mg"},{"bike_id":"1ef41376-cd3a-40a3-ae4a-f23a2a34fc30","system_id":"levelo_inurba_marseille","lat":43.27686,"lon":5.39041,"is_reserved":false,"is_disabled":true,"rental_uris":{"android":"levelo://app?vid=1ef41376-cd3a-40a3-ae4a-f23a2a34fc30","ios":"levelo://app?vid=1ef41376-cd3a-40a3-ae4a-f23a2a34fc30"},"vehicle_type_id":"4","last_reported":1740344877,"current_range_meters":16800,"station_id":"ce4bhi12rcd13ifvqfo0","pricing_plan_id":"cebpf4jnsgd1na2vs0mg"},{"bike_id":"58c017b3-c918-492e-b98a-e3b9347f193c","system_id":"levelo_inurba_marseille","lat":43.29196,"lon":5.39317,"is_reserved":false,"is_disabled":false,"rental_uris":{"android":"levelo://app?vid=58c017b3-c918-492e-b98a-e3b9347f193c","ios":"levelo://app?vid=58c017b3-c918-492e-b98a-e3b9347f193c"},"vehicle_type_id":"4","last_reported":1740344877,"current_range_meters":16800,"station_id":"ce4bh192rcd13ifvqdd0","pricing_plan_id":"cebpf4jnsgd1na2vs0mg"},{"bike_id":"a2d6ae3f-66f4-4649-ba0a-99967149441d","system_id":"levelo_inurba_marseille","lat":43.29539,"lon":5.36146,"is_reserved":false,"is_disabled":false,"rental_uris":{"android":"levelo://app?vid=a2d6ae3f-66f4-4649-ba0a-99967149441d","ios":"levelo://app?vid=a2d6ae3f-66f4-4649-ba0a-99967149441d"},"vehicle_type_id":"4","last_reported":1740344877,"current_range_meters":16800,"station_id":"","pricing_plan_id":"cebpf4jnsgd1na2vs0mg"},{"bike_id":"26f95a8e-e924-4f75-aae3-87c39653316c","system_id":"levelo_inurba_marseille","lat":43.29985,"lon":5.38495,"is_reserved":false,"is_disabled":false,"rental_uris":{"android":"levelo://app?vid=26f95a8e-e924-4f75-aae3-87c39653316c","ios":"levelo://app?vid=26f95a8e-e924-4f75-aae3-87c39653316c"},"vehicle_type_id":"4","last_reported":1740344877,"current_range_meters":16800,"station_id":"ce4bgj92rcd13ifvqbd0","pricing_plan_id":"cebpf4jnsgd1na2vs0mg"},{"bike_id":"e16ee71e-faf5-40b7-add7-026329d923cf","system_id":"levelo_inurba_marseille","lat":43.27978,"lon":5.41646,"is_reserved":false,"is_disabled":false,"rental_uris":{"android":"levelo://app?vid=e16ee71e-faf5-40b7-add7-026329d923cf","ios":"levelo://app?vid=e16ee71e-faf5-40b7-add7-026329d923cf"},"vehicle_type_id":"4","last_reported":1740344877,"current_range_meters":16800,"station_id":"ce4bho12rcd13ifvqh1g","pricing_plan_id":"cebpf4jnsgd1na2vs0mg"},{"bike_id":"738d7062-e684-48a6-b108-52fbc1509e4e","system_id":"levelo_inurba_marseille","lat":43.292111,"lon":5.393291,"is_reserved":false,"is_disabled":false,"rental_uris":{"android":"levelo://app?vid=738d7062-e684-48a6-b108-52fbc1509e4e","ios":"levelo://app?vid=738d7062-e684-48a6-b108-52fbc1509e4e"},"vehicle_type_id":"4","last_reported":1740344877,"current_range_meters":16800,"station_id":"ce4bh192rcd13ifvqdd0","pricing_plan_id":"cebpf4jnsgd1na2vs0mg"},{"bike_id":"fbf68de0-1719-414c-9a6e-a36a5884f5e5","system_id":"levelo_inurba_marseille","lat":43.26955,"lon":5.386395,"is_reserved":false,"is_disabled":false,"rental_uris":{"android":"levelo://app?vid=fbf68de0-1719-414c-9a6e-a36a5884f5e5","ios":"levelo://app?vid=fbf68de0-1719-414c-9a6e-a36a5884f5e5"},"vehicle_type_id":"4","last_reported":1740344877,"current_range_meters":17200,"station_id":"ce4bhh92rcd13ifvqfh0","pricing_plan_id":"cebpf4jnsgd1na2vs0mg"},{"bike_id":"3e28a292-cbf7-4558-9a5f-4bc7b4a80e33","system_id":"levelo_inurba_marseille","lat":43.29421,"lon":5.38608,"is_reserved":false,"is_disabled":false,"rental_uris":{"android":"levelo://app?vid=3e28a292-cbf7-4558-9a5f-4bc7b4a80e33","ios":"levelo://app?vid=3e28a292-cbf7-4558-9a5f-4bc7b4a80e33"},"vehicle_type_id":"4","last_reported":1740344877,"current_range_meters":17200,"station_id":"ce4bh2h2rcd13ifvqdh0","pricing_plan_id":"cebpf4jnsgd1na2vs0mg"},{"bike_id":"34168c40-3b8d-4627-9191-5e845802f26a","system_id":"levelo_inurba_marseille","lat":43.32788,"lon":5.39251,"is_reserved":false,"is_disabled":false,"rental_uris":{"android":"levelo://app?vid=34168c40-3b8d-4627-9191-5e845802f26a","ios":"levelo://app?vid=34168c40-3b8d-4627-9191-5e845802f26a"},"vehicle_type_id":"4","last_reported":1740344877,"current_range_meters":17200,"station_id":"","pricing_plan_id":"cebpf4jnsgd1na2vs0mg"},{"bike_id":"da805173-c32f-4615-b8c5-69bdaf0f2e7f","system_id":"levelo_inurba_marseille","lat":43.29009,"lon":5.35619,"is_reserved":false,"is_disabled":true,"rental_uris":{"android":"levelo://app?vid=da805173-c32f-4615-b8c5-69bdaf0f2e7f","ios":"levelo://app?vid=da805173-c32f-4615-b8c5-69bdaf0f2e7f"},"vehicle_type_id":"4","last_reported":1740344877,"current_range_meters":17200,"station_id":"ce4bhb92rcd13ifvqen0","pricing_plan_id":"cebpf4jnsgd1na2vs0mg"},{"bike_id":"11d2fe39-d9d4-48dc-add1-83528bf8cf2e","system_id":"levelo_inurba_marseille","lat":43.23222,"lon":5.40016,"is_reserved":false,"is_disabled":false,"rental_uris":{"android":"levelo://app?vid=11d2fe39-d9d4-48dc-add1-83528bf8cf2e","ios":"levelo://app?vid=11d2fe39-d9d4-48dc-add1-83528bf8cf2e"},"vehicle_type_id":"4","last_reported":1740344877,"current_range_meters":17200,"station_id":"ce4bhn12rcd13ifvqgqg","pricing_plan_id":"cebpf4jnsgd1na2vs0mg"},{"bike_id":"b5a1d484-9e63-43b3-9bbc-06f2df1a2c91","system_id":"levelo_inurba_marseille","lat":43.292101,"lon":5.393133,"is_reserved":false,"is_disabled":false,"rental_uris":{"android":"levelo://app?vid=b5a1d484-9e63-43b3-9bbc-06f2df1a2c91","ios":"levelo://app?vid=b5a1d484-9e63-43b3-9bbc-06f2df1a2c91"},"vehicle_type_id":"4","last_reported":1740344877,"current_range_meters":17600,"station_id":"ce4bh192rcd13ifvqdd0","pricing_plan_id":"cebpf4jnsgd1na2vs0mg"},{"bike_id":"9722404f-fe53-4cca-a8f9-6c587b8c420d","system_id":"levelo_inurba_marseille","lat":43.29528,"lon":5.39408,"is_reserved":false,"is_disabled":false,"rental_uris":{"android":"levelo://app?vid=9722404f-fe53-4cca-a8f9-6c587b8c420d","ios":"levelo://app?vid=9722404f-fe53-4cca-a8f9-6c587b8c420d"},"vehicle_type_id":"4","last_reported":1740344877,"current_range_meters":17600,"station_id":"ce4bh292rcd13ifvqdf0","pricing_plan_id":"cebpf4jnsgd1na2vs0mg"},{"bike_id":"41a2216f-8b22-4f4f-9eac-5e2283bcdb4b","system_id":"levelo_inurba_marseille","lat":43.28138,"lon":5.42652,"is_reserved":false,"is_disabled":true,"rental_uris":{"android":"levelo://app?vid=41a2216f-8b22-4f4f-9eac-5e2283bcdb4b","ios":"levelo://app?vid=41a2216f-8b22-4f4f-9eac-5e2283bcdb4b"},"vehicle_type_id":"4","last_reported":1740344877,"current_range_meters":17600,"station_id":"ce4bhnh2rcd13ifvqgug","pricing_plan_id":"cebpf4jnsgd1na2vs0mg"},{"bike_id":"c213e0a6-e14e-4151-b2c4-5d18f4bd0f28","system_id":"levelo_inurba_marseille","lat":43.313906,"lon":5.379961,"is_reserved":false,"is_disabled":false,"rental_uris":{"android":"levelo://app?vid=c213e0a6-e14e-4151-b2c4-5d18f4bd0f28","ios":"levelo://app?vid=c213e0a6-e14e-4151-b2c4-5d18f4bd0f28"},"vehicle_type_id":"4","last_reported":1740344877,"current_range_meters":17600,"station_id":"ce4bhsp2rcd13ifvqi50","pricing_plan_id":"cebpf4jnsgd1na2vs0mg"},{"bike_id":"2c226df1-fd18-49fa-937a-6cfcc5f50412","system_id":"levelo_inurba_marseille","lat":43.28708,"lon":5.39987,"is_reserved":false,"is_disabled":false,"rental_uris":{"android":"levelo://app?vid=2c226df1-fd18-49fa-937a-6cfcc5f50412","ios":"levelo://app?vid=2c226df1-fd18-49fa-937a-6cfcc5f50412"},"vehicle_type_id":"4","last_reported":1740344877,"current_range_meters":17600,"station_id":"ce4bho92rcd13ifvqh3g","pricing_plan_id":"cebpf4jnsgd1na2vs0mg"},{"bike_id":"44596fc7-cbb0-4304-ba4f-9b2b31b44263","system_id":"levelo_inurba_marseille","lat":43.28649,"lon":5.38654,"is_reserved":false,"is_disabled":false,"rental_uris":{"android":"levelo://app?vid=44596fc7-cbb0-4304-ba4f-9b2b31b44263","ios":"levelo://app?vid=44596fc7-cbb0-4304-ba4f-9b2b31b44263"},"vehicle_type_id":"4","last_reported":1740344877,"current_range_meters":17600,"station_id":"ce4bh492rcd13ifvqdug","pricing_plan_id":"cebpf4jnsgd1na2vs0mg"},{"bike_id":"9ec80d5d-5365-4fe8-b1b8-741c81741c1c","system_id":"levelo_inurba_marseille","lat":43.27705,"lon":5.40805,"is_reserved":false,"is_disabled":false,"rental_uris":{"android":"levelo://app?vid=9ec80d5d-5365-4fe8-b1b8-741c81741c1c","ios":"levelo://app?vid=9ec80d5d-5365-4fe8-b1b8-741c81741c1c"},"vehicle_type_id":"4","last_reported":1740344877,"current_range_meters":17600,"station_id":"","pricing_plan_id":"cebpf4jnsgd1na2vs0mg"},{"bike_id":"4cac3644-ba79-4f6c-94d4-64f3503d5237","system_id":"levelo_inurba_marseille","lat":43.2959,"lon":5.39995,"is_reserved":false,"is_disabled":false,"rental_uris":{"android":"levelo://app?vid=4cac3644-ba79-4f6c-94d4-64f3503d5237","ios":"levelo://app?vid=4cac3644-ba79-4f6c-94d4-64f3503d5237"},"vehicle_type_id":"4","last_reported":1740344877,"current_range_meters":17600,"station_id":"ce4bh312rcd13ifvqdj0","pricing_plan_id":"cebpf4jnsgd1na2vs0mg"},{"bike_id":"b6c67d47-6b6c-433b-9cf7-69638e23cd88","system_id":"levelo_inurba_marseille","lat":43.28432,"lon":5.37514,"is_reserved":false,"is_disabled":false,"rental_uris":{"android":"levelo://app?vid=b6c67d47-6b6c-433b-9cf7-69638e23cd88","ios":"levelo://app?vid=b6c67d47-6b6c-433b-9cf7-69638e23cd88"},"vehicle_type_id":"4","last_reported":1740344877,"current_range_meters":17600,"station_id":"ce4bh412rcd13ifvqds0","pricing_plan_id":"cebpf4jnsgd1na2vs0mg"},{"bike_id":"f2a2c8a0-f576-4727-8589-25e78d5b4e2c","system_id":"levelo_inurba_marseille","lat":43.29505,"lon":5.3762,"is_reserved":false,"is_disabled":false,"rental_uris":{"android":"levelo://app?vid=f2a2c8a0-f576-4727-8589-25e78d5b4e2c","ios":"levelo://app?vid=f2a2c8a0-f576-4727-8589-25e78d5b4e2c"},"vehicle_type_id":"4","last_reported":1740344877,"current_range_meters":17600,"station_id":"ce4bh9p2rcd13ifvqec0","pricing_plan_id":"cebpf4jnsgd1na2vs0mg"},{"bike_id":"c0553ce2-1e21-4424-ae14-30f158e9755d","system_id":"levelo_inurba_marseille","lat":43.29877,"lon":5.38902,"is_reserved":false,"is_disabled":true,"rental_uris":{"android":"levelo://app?vid=c0553ce2-1e21-4424-ae14-30f158e9755d","ios":"levelo://app?vid=c0553ce2-1e21-4424-ae14-30f158e9755d"},"vehicle_type_id":"4","last_reported":1740344877,"current_range_meters":17600,"station_id":"ce4bh392rcd13ifvqdl0","pricing_plan_id":"cebpf4jnsgd1na2vs0mg"},{"bike_id":"eea472cb-2671-45b0-b045-98192029998b","system_id":"levelo_inurba_marseille","lat":43.28363,"lon":5.38099,"is_reserved":false,"is_disabled":false,"rental_uris":{"android":"levelo://app?vid=eea472cb-2671-45b0-b045-98192029998b","ios":"levelo://app?vid=eea472cb-2671-45b0-b045-98192029998b"},"vehicle_type_id":"4","last_reported":1740344877,"current_range_meters":18000,"station_id":"ce4bh412rcd13ifvqdr0","pricing_plan_id":"cebpf4jnsgd1na2vs0mg"},{"bike_id":"c97f5ab1-20b5-4c00-b657-8a7a3dfc639d","system_id":"levelo_inurba_marseille","lat":43.31232,"lon":5.37222,"is_reserved":false,"is_disabled":false,"rental_uris":{"android":"levelo://app?vid=c97f5ab1-20b5-4c00-b657-8a7a3dfc639d","ios":"levelo://app?vid=c97f5ab1-20b5-4c00-b657-8a7a3dfc639d"},"vehicle_type_id":"4","last_reported":1740344877,"current_range_meters":18000,"station_id":"","pricing_plan_id":"cebpf4jnsgd1na2vs0mg"},{"bike_id":"8c01ba56-9447-4bdf-a2e9-1e3086231453","system_id":"levelo_inurba_marseille","lat":43.23184,"lon":5.39993,"is_reserved":false,"is_disabled":false,"rental_uris":{"android":"levelo://app?vid=8c01ba56-9447-4bdf-a2e9-1e3086231453","ios":"levelo://app?vid=8c01ba56-9447-4bdf-a2e9-1e3086231453"},"vehicle_type_id":"4","last_reported":1740344877,"current_range_meters":18000,"station_id":"ce4bhn12rcd13ifvqgqg","pricing_plan_id":"cebpf4jnsgd1na2vs0mg"},{"bike_id":"15dccaeb-8ea1-4d90-9fad-8997dd8b2717","system_id":"levelo_inurba_marseille","lat":43.25995,"lon":5.39548,"is_reserved":false,"is_disabled":false,"rental_uris":{"android":"levelo://app?vid=15dccaeb-8ea1-4d90-9fad-8997dd8b2717","ios":"levelo://app?vid=15dccaeb-8ea1-4d90-9fad-8997dd8b2717"},"vehicle_type_id":"4","last_reported":1740344877,"current_range_meters":18000,"station_id":"ce4bhi12rcd13ifvqfq0","pricing_plan_id":"cebpf4jnsgd1na2vs0mg"},{"bike_id":"34953fce-97d9-4ccf-8eef-5fbc7fb03376","system_id":"levelo_inurba_marseille","lat":43.25162,"lon":5.40894,"is_reserved":false,"is_disabled":false,"rental_uris":{"android":"levelo://app?vid=34953fce-97d9-4ccf-8eef-5fbc7fb03376","ios":"levelo://app?vid=34953fce-97d9-4ccf-8eef-5fbc7fb03376"},"vehicle_type_id":"4","last_reported":1740344877,"current_range_meters":18000,"station_id":"ce4bhkp2rcd13ifvqgd0","pricing_plan_id":"cebpf4jnsgd1na2vs0mg"},{"bike_id":"e246fc99-9212-4ef5-9f0f-b01fedd5f17a","system_id":"levelo_inurba_marseille","lat":43.287,"lon":5.39983,"is_reserved":false,"is_disabled":false,"rental_uris":{"android":"levelo://app?vid=e246fc99-9212-4ef5-9f0f-b01fedd5f17a","ios":"levelo://app?vid=e246fc99-9212-4ef5-9f0f-b01fedd5f17a"},"vehicle_type_id":"4","last_reported":1740344877,"current_range_meters":18000,"station_id":"ce4bho92rcd13ifvqh3g","pricing_plan_id":"cebpf4jnsgd1na2vs0mg"},{"bike_id":"2ae52bcd-1f15-49a3-892b-2115e0df7519","system_id":"levelo_inurba_marseille","lat":43.27493,"lon":5.43525,"is_reserved":false,"is_disabled":false,"rental_uris":{"android":"levelo://app?vid=2ae52bcd-1f15-49a3-892b-2115e0df7519","ios":"levelo://app?vid=2ae52bcd-1f15-49a3-892b-2115e0df7519"},"vehicle_type_id":"4","last_reported":1740344877,"current_range_meters":18000,"station_id":"","pricing_plan_id":"cebpf4jnsgd1na2vs0mg"},{"bike_id":"2cb3f284-7b8f-46db-a012-ff6c476270a8","system_id":"levelo_inurba_marseille","lat":43.23187,"lon":5.35559,"is_reserved":false,"is_disabled":false,"rental_uris":{"android":"levelo://app?vid=2cb3f284-7b8f-46db-a012-ff6c476270a8","ios":"levelo://app?vid=2cb3f284-7b8f-46db-a012-ff6c476270a8"},"vehicle_type_id":"4","last_reported":1740344877,"current_range_meters":18000,"station_id":"ce4bhu92rcd13ifvqi70","pricing_plan_id":"cebpf4jnsgd1na2vs0mg"},{"bike_id":"e635de05-4efb-4b34-8abf-ae671d27753c","system_id":"levelo_inurba_marseille","lat":43.3154,"lon":5.38038,"is_reserved":false,"is_disabled":false,"rental_uris":{"android":"levelo://app?vid=e635de05-4efb-4b34-8abf-ae671d27753c","ios":"levelo://app?vid=e635de05-4efb-4b34-8abf-ae671d27753c"},"vehicle_type_id":"4","last_reported":1740344877,"current_range_meters":18000,"station_id":"ce4bhsp2rcd13ifvqi50","pricing_plan_id":"cebpf4jnsgd1na2vs0mg"},{"bike_id":"615a02a6-6646-4df1-8ade-8686d89d8747","system_id":"levelo_inurba_marseille","lat":43.3114,"lon":5.39981,"is_reserved":false,"is_disabled":true,"rental_uris":{"android":"levelo://app?vid=615a02a6-6646-4df1-8ade-8686d89d8747","ios":"levelo://app?vid=615a02a6-6646-4df1-8ade-8686d89d8747"},"vehicle_type_id":"4","last_reported":1740344877,"current_range_meters":18000,"station_id":"ce4bgvp2rcd13ifvqcu0","pricing_plan_id":"cebpf4jnsgd1na2vs0mg"},{"bike_id":"127e0568-389e-4fc3-a022-60dc9efdcb54","system_id":"levelo_inurba_marseille","lat":43.30903,"lon":5.36836,"is_reserved":false,"is_disabled":false,"rental_uris":{"android":"levelo://app?vid=127e0568-389e-4fc3-a022-60dc9efdcb54","ios":"levelo://app?vid=127e0568-389e-4fc3-a022-60dc9efdcb54"},"vehicle_type_id":"4","last_reported":1740344877,"current_range_meters":17600,"station_id":"ce4bgn92rcd13ifvqbvg","pricing_plan_id":"cebpf4jnsgd1na2vs0mg"},{"bike_id":"820eabd5-d824-4434-99d7-9fbd6fd66758","system_id":"levelo_inurba_marseille","lat":43.32759,"lon":5.39264,"is_reserved":false,"is_disabled":false,"rental_uris":{"android":"levelo://app?vid=820eabd5-d824-4434-99d7-9fbd6fd66758","ios":"levelo://app?vid=820eabd5-d824-4434-99d7-9fbd6fd66758"},"vehicle_type_id":"4","last_reported":1740344877,"current_range_meters":18800,"station_id":"","pricing_plan_id":"cebpf4jnsgd1na2vs0mg"},{"bike_id":"600b91b9-5163-4bda-9707-69bb01539f3e","system_id":"levelo_inurba_marseille","lat":43.31312,"lon":5.40736,"is_reserved":false,"is_disabled":false,"rental_uris":{"android":"levelo://app?vid=600b91b9-5163-4bda-9707-69bb01539f3e","ios":"levelo://app?vid=600b91b9-5163-4bda-9707-69bb01539f3e"},"vehicle_type_id":"4","last_reported":1740344877,"current_range_meters":18800,"station_id":"ce4bh012rcd13ifvqd00","pricing_plan_id":"cebpf4jnsgd1na2vs0mg"},{"bike_id":"bb551b4b-0943-48a9-b883-ecd47f7a92f8","system_id":"levelo_inurba_marseille","lat":43.24074,"lon":5.37762,"is_reserved":false,"is_disabled":false,"rental_uris":{"android":"levelo://app?vid=bb551b4b-0943-48a9-b883-ecd47f7a92f8","ios":"levelo://app?vid=bb551b4b-0943-48a9-b883-ecd47f7a92f8"},"vehicle_type_id":"4","last_reported":1740344877,"current_range_meters":18800,"station_id":"ce4bhnp2rcd13ifvqgvg","pricing_plan_id":"cebpf4jnsgd1na2vs0mg"},{"bike_id":"41b8905f-5d71-47d2-981b-cd5802ac227d","system_id":"levelo_inurba_marseille","lat":43.28158,"lon":5.42642,"is_reserved":false,"is_disabled":false,"rental_uris":{"android":"levelo://app?vid=41b8905f-5d71-47d2-981b-cd5802ac227d","ios":"levelo://app?vid=41b8905f-5d71-47d2-981b-cd5802ac227d"},"vehicle_type_id":"4","last_reported":1740344877,"current_range_meters":18800,"station_id":"ce4bhnh2rcd13ifvqgug","pricing_plan_id":"cebpf4jnsgd1na2vs0mg"},{"bike_id":"cec8b2cb-c0be-4285-ae05-73f30f35b61d","system_id":"levelo_inurba_marseille","lat":43.2992,"lon":5.39787,"is_reserved":false,"is_disabled":false,"rental_uris":{"android":"levelo://app?vid=cec8b2cb-c0be-4285-ae05-73f30f35b61d","ios":"levelo://app?vid=cec8b2cb-c0be-4285-ae05-73f30f35b61d"},"vehicle_type_id":"4","last_reported":1740344877,"current_range_meters":18800,"station_id":"ce4bh0h2rcd13ifvqd50","pricing_plan_id":"cebpf4jnsgd1na2vs0mg"},{"bike_id":"4aa4cee4-66eb-499e-a577-f94115d30093","system_id":"levelo_inurba_marseille","lat":43.29297,"lon":5.40128,"is_reserved":false,"is_disabled":false,"rental_uris":{"android":"levelo://app?vid=4aa4cee4-66eb-499e-a577-f94115d30093","ios":"levelo://app?vid=4aa4cee4-66eb-499e-a577-f94115d30093"},"vehicle_type_id":"4","last_reported":1740344877,"current_range_meters":18800,"station_id":"ce4bh312rcd13ifvqdk0","pricing_plan_id":"cebpf4jnsgd1na2vs0mg"},{"bike_id":"035c237b-16c5-4c4f-94e9-8a6ba9d28779","system_id":"levelo_inurba_marseille","lat":43.28459,"lon":5.37556,"is_reserved":false,"is_disabled":false,"rental_uris":{"android":"levelo://app?vid=035c237b-16c5-4c4f-94e9-8a6ba9d28779","ios":"levelo://app?vid=035c237b-16c5-4c4f-94e9-8a6ba9d28779"},"vehicle_type_id":"4","last_reported":1740344877,"current_range_meters":18800,"station_id":"","pricing_plan_id":"cebpf4jnsgd1na2vs0mg"},{"bike_id":"c7cc387c-023d-4c68-a570-ad56853a323d","system_id":"levelo_inurba_marseille","lat":43.28719,"lon":5.37979,"is_reserved":false,"is_disabled":false,"rental_uris":{"android":"levelo://app?vid=c7cc387c-023d-4c68-a570-ad56853a323d","ios":"levelo://app?vid=c7cc387c-023d-4c68-a570-ad56853a323d"},"vehicle_type_id":"4","last_reported":1740344877,"current_range_meters":18800,"station_id":"ce4bh9p2rcd13ifvqec0","pricing_plan_id":"cebpf4jnsgd1na2vs0mg"},{"bike_id":"5684b800-be3f-427a-a4f6-29b35eadfeb6","system_id":"levelo_inurba_marseille","lat":43.29297,"lon":5.40137,"is_reserved":false,"is_disabled":false,"rental_uris":{"android":"levelo://app?vid=5684b800-be3f-427a-a4f6-29b35eadfeb6","ios":"levelo://app?vid=5684b800-be3f-427a-a4f6-29b35eadfeb6"},"vehicle_type_id":"4","last_reported":1740344877,"current_range_meters":19200,"station_id":"ce4bh312rcd13ifvqdk0","pricing_plan_id":"cebpf4jnsgd1na2vs0mg"},{"bike_id":"a9a55c89-f69a-400d-a9be-80560614ceee","system_id":"levelo_inurba_marseille","lat":43.29625,"lon":5.37154,"is_reserved":false,"is_disabled":false,"rental_uris":{"android":"levelo://app?vid=a9a55c89-f69a-400d-a9be-80560614ceee","ios":"levelo://app?vid=a9a55c89-f69a-400d-a9be-80560614ceee"},"vehicle_type_id":"4","last_reported":1740344877,"current_range_meters":19200,"station_id":"ce4bgnh2rcd13ifvqc0g","pricing_plan_id":"cebpf4jnsgd1na2vs0mg"},{"bike_id":"44475497-a899-45ed-8bf3-abd1a45672e8","system_id":"levelo_inurba_marseille","lat":43.31329,"lon":5.39691,"is_reserved":false,"is_disabled":false,"rental_uris":{"android":"levelo://app?vid=44475497-a899-45ed-8bf3-abd1a45672e8","ios":"levelo://app?vid=44475497-a899-45ed-8bf3-abd1a45672e8"},"vehicle_type_id":"4","last_reported":1740344877,"current_range_meters":19200,"station_id":"ce4bgvp2rcd13ifvqcu0","pricing_plan_id":"cebpf4jnsgd1na2vs0mg"},{"bike_id":"d4730943-c8a0-45ac-a541-8183607370d1","system_id":"levelo_inurba_marseille","lat":43.25011,"lon":5.38911,"is_reserved":false,"is_disabled":false,"rental_uris":{"android":"levelo://app?vid=d4730943-c8a0-45ac-a541-8183607370d1","ios":"levelo://app?vid=d4730943-c8a0-45ac-a541-8183607370d1"},"vehicle_type_id":"4","last_reported":1740344877,"current_range_meters":19200,"station_id":"ce4bhgp2rcd13ifvqfd0","pricing_plan_id":"cebpf4jnsgd1na2vs0mg"},{"bike_id":"cdf89f84-1d45-4ce1-b985-6a2c8b69ccf3","system_id":"levelo_inurba_marseille","lat":43.30541,"lon":5.36533,"is_reserved":false,"is_disabled":true,"rental_uris":{"android":"levelo://app?vid=cdf89f84-1d45-4ce1-b985-6a2c8b69ccf3","ios":"levelo://app?vid=cdf89f84-1d45-4ce1-b985-6a2c8b69ccf3"},"vehicle_type_id":"4","last_reported":1740344877,"current_range_meters":19200,"station_id":"ce4bgs12rcd13ifvqcag","pricing_plan_id":"cebpf4jnsgd1na2vs0mg"},{"bike_id":"ebbf6217-465f-4269-8ee4-4515a862b241","system_id":"levelo_inurba_marseille","lat":43.29876,"lon":5.389,"is_reserved":false,"is_disabled":true,"rental_uris":{"android":"levelo://app?vid=ebbf6217-465f-4269-8ee4-4515a862b241","ios":"levelo://app?vid=ebbf6217-465f-4269-8ee4-4515a862b241"},"vehicle_type_id":"4","last_reported":1740344877,"current_range_meters":19200,"station_id":"ce4bh392rcd13ifvqdl0","pricing_plan_id":"cebpf4jnsgd1na2vs0mg"},{"bike_id":"0b6d725b-3efa-4e40-bee6-9c642da1aca7","system_id":"levelo_inurba_marseille","lat":43.3091,"lon":5.36842,"is_reserved":false,"is_disabled":false,"rental_uris":{"android":"levelo://app?vid=0b6d725b-3efa-4e40-bee6-9c642da1aca7","ios":"levelo://app?vid=0b6d725b-3efa-4e40-bee6-9c642da1aca7"},"vehicle_type_id":"4","last_reported":1740344877,"current_range_meters":19200,"station_id":"ce4bgn92rcd13ifvqbvg","pricing_plan_id":"cebpf4jnsgd1na2vs0mg"},{"bike_id":"c03d9842-7a68-4abf-841f-0947805ffbd4","system_id":"levelo_inurba_marseille","lat":43.28518,"lon":5.38425,"is_reserved":false,"is_disabled":false,"rental_uris":{"android":"levelo://app?vid=c03d9842-7a68-4abf-841f-0947805ffbd4","ios":"levelo://app?vid=c03d9842-7a68-4abf-841f-0947805ffbd4"},"vehicle_type_id":"4","last_reported":1740344877,"current_range_meters":19200,"station_id":"ce4bh512rcd13ifvqe3g","pricing_plan_id":"cebpf4jnsgd1na2vs0mg"},{"bike_id":"5338db7e-8ad7-4df1-8ad3-76f357f14cd2","system_id":"levelo_inurba_marseille","lat":43.29262,"lon":5.38443,"is_reserved":false,"is_disabled":false,"rental_uris":{"android":"levelo://app?vid=5338db7e-8ad7-4df1-8ad3-76f357f14cd2","ios":"levelo://app?vid=5338db7e-8ad7-4df1-8ad3-76f357f14cd2"},"vehicle_type_id":"4","last_reported":1740344877,"current_range_meters":19200,"station_id":"ce4bh692rcd13ifvqea0","pricing_plan_id":"cebpf4jnsgd1na2vs0mg"},{"bike_id":"8e18b074-d96c-447a-8fb6-093da4b1ea48","system_id":"levelo_inurba_marseille","lat":43.298831,"lon":5.389119,"is_reserved":false,"is_disabled":false,"rental_uris":{"android":"levelo://app?vid=8e18b074-d96c-447a-8fb6-093da4b1ea48","ios":"levelo://app?vid=8e18b074-d96c-447a-8fb6-093da4b1ea48"},"vehicle_type_id":"4","last_reported":1740344877,"current_range_meters":19600,"station_id":"ce4bh392rcd13ifvqdl0","pricing_plan_id":"cebpf4jnsgd1na2vs0mg"},{"bike_id":"53899e2c-901f-4684-921b-47370fcd206b","system_id":"levelo_inurba_marseille","lat":43.301022,"lon":5.390904,"is_reserved":false,"is_disabled":true,"rental_uris":{"android":"levelo://app?vid=53899e2c-901f-4684-921b-47370fcd206b","ios":"levelo://app?vid=53899e2c-901f-4684-921b-47370fcd206b"},"vehicle_type_id":"4","last_reported":1740344877,"current_range_meters":19600,"station_id":"ce4bh192rcd13ifvqdb0","pricing_plan_id":"cebpf4jnsgd1na2vs0mg"},{"bike_id":"ec6547c1-b07c-4c37-a061-60796a7363ff","system_id":"levelo_inurba_marseille","lat":43.29223,"lon":5.36067,"is_reserved":false,"is_disabled":false,"rental_uris":{"android":"levelo://app?vid=ec6547c1-b07c-4c37-a061-60796a7363ff","ios":"levelo://app?vid=ec6547c1-b07c-4c37-a061-60796a7363ff"},"vehicle_type_id":"4","last_reported":1740344877,"current_range_meters":19600,"station_id":"ce4bhbh2rcd13ifvqeqg","pricing_plan_id":"cebpf4jnsgd1na2vs0mg"},{"bike_id":"8082285a-efb7-455c-8588-c1d5aa8ea659","system_id":"levelo_inurba_marseille","lat":43.3011,"lon":5.39083,"is_reserved":false,"is_disabled":false,"rental_uris":{"android":"levelo://app?vid=8082285a-efb7-455c-8588-c1d5aa8ea659","ios":"levelo://app?vid=8082285a-efb7-455c-8588-c1d5aa8ea659"},"vehicle_type_id":"4","last_reported":1740344877,"current_range_meters":19600,"station_id":"ce4bh192rcd13ifvqdb0","pricing_plan_id":"cebpf4jnsgd1na2vs0mg"},{"bike_id":"a01f5c6f-5aea-4ddc-8287-05dfd53152b4","system_id":"levelo_inurba_marseille","lat":43.292081,"lon":5.393116,"is_reserved":false,"is_disabled":false,"rental_uris":{"android":"levelo://app?vid=a01f5c6f-5aea-4ddc-8287-05dfd53152b4","ios":"levelo://app?vid=a01f5c6f-5aea-4ddc-8287-05dfd53152b4"},"vehicle_type_id":"4","last_reported":1740344877,"current_range_meters":19600,"station_id":"ce4bh192rcd13ifvqdd0","pricing_plan_id":"cebpf4jnsgd1na2vs0mg"},{"bike_id":"18539954-6908-477a-aea1-4d27c076f1e9","system_id":"levelo_inurba_marseille","lat":43.30208,"lon":5.39463,"is_reserved":false,"is_disabled":false,"rental_uris":{"android":"levelo://app?vid=18539954-6908-477a-aea1-4d27c076f1e9","ios":"levelo://app?vid=18539954-6908-477a-aea1-4d27c076f1e9"},"vehicle_type_id":"4","last_reported":1740344877,"current_range_meters":20000,"station_id":"ce4bh0p2rcd13ifvqd70","pricing_plan_id":"cebpf4jnsgd1na2vs0mg"},{"bike_id":"67b8b3f6-1135-41e1-9b4f-c98e6799dec8","system_id":"levelo_inurba_marseille","lat":43.30799,"lon":5.43529,"is_reserved":false,"is_disabled":false,"rental_uris":{"android":"levelo://app?vid=67b8b3f6-1135-41e1-9b4f-c98e6799dec8","ios":"levelo://app?vid=67b8b3f6-1135-41e1-9b4f-c98e6799dec8"},"vehicle_type_id":"4","last_reported":1740344877,"current_range_meters":20000,"station_id":"ce4bhph2rcd13ifvqheg","pricing_plan_id":"cebpf4jnsgd1na2vs0mg"},{"bike_id":"e5d4cffd-6065-4fe9-a90f-fe11905e624b","system_id":"levelo_inurba_marseille","lat":43.31327,"lon":5.39691,"is_reserved":false,"is_disabled":false,"rental_uris":{"android":"levelo://app?vid=e5d4cffd-6065-4fe9-a90f-fe11905e624b","ios":"levelo://app?vid=e5d4cffd-6065-4fe9-a90f-fe11905e624b"},"vehicle_type_id":"4","last_reported":1740344877,"current_range_meters":20000,"station_id":"ce4bgvp2rcd13ifvqcu0","pricing_plan_id":"cebpf4jnsgd1na2vs0mg"},{"bike_id":"67350e3b-ced3-434f-8df5-0f50029c572e","system_id":"levelo_inurba_marseille","lat":43.231839,"lon":5.355705,"is_reserved":false,"is_disabled":false,"rental_uris":{"android":"levelo://app?vid=67350e3b-ced3-434f-8df5-0f50029c572e","ios":"levelo://app?vid=67350e3b-ced3-434f-8df5-0f50029c572e"},"vehicle_type_id":"4","last_reported":1740344877,"current_range_meters":20000,"station_id":"ce4bhu92rcd13ifvqi70","pricing_plan_id":"cebpf4jnsgd1na2vs0mg"},{"bike_id":"a048c1a4-bfee-4fa4-897a-2a4d79aadb6f","system_id":"levelo_inurba_marseille","lat":43.28271,"lon":5.35065,"is_reserved":false,"is_disabled":false,"rental_uris":{"android":"levelo://app?vid=a048c1a4-bfee-4fa4-897a-2a4d79aadb6f","ios":"levelo://app?vid=a048c1a4-bfee-4fa4-897a-2a4d79aadb6f"},"vehicle_type_id":"4","last_reported":1740344877,"current_range_meters":19600,"station_id":"ce4bhbp2rcd13ifvqerg","pricing_plan_id":"cebpf4jnsgd1na2vs0mg"},{"bike_id":"5a7981bd-3677-4148-b39e-11b4042f0966","system_id":"levelo_inurba_marseille","lat":43.3061,"lon":5.37214,"is_reserved":false,"is_disabled":false,"rental_uris":{"android":"levelo://app?vid=5a7981bd-3677-4148-b39e-11b4042f0966","ios":"levelo://app?vid=5a7981bd-3677-4148-b39e-11b4042f0966"},"vehicle_type_id":"4","last_reported":1740344877,"current_range_meters":19600,"station_id":"ce4bgqh2rcd13ifvqc4g","pricing_plan_id":"cebpf4jnsgd1na2vs0mg"},{"bike_id":"86669f33-8519-423e-9dec-1b624217baeb","system_id":"levelo_inurba_marseille","lat":43.2506,"lon":5.39567,"is_reserved":false,"is_disabled":true,"rental_uris":{"android":"levelo://app?vid=86669f33-8519-423e-9dec-1b624217baeb","ios":"levelo://app?vid=86669f33-8519-423e-9dec-1b624217baeb"},"vehicle_type_id":"4","last_reported":1740344877,"current_range_meters":20000,"station_id":"ce4bhm12rcd13ifvqgkg","pricing_plan_id":"cebpf4jnsgd1na2vs0mg"},{"bike_id":"073518a5-4dc0-447e-9477-a67f73b2a5a2","system_id":"levelo_inurba_marseille","lat":43.32377,"lon":5.36783,"is_reserved":false,"is_disabled":false,"rental_uris":{"android":"levelo://app?vid=073518a5-4dc0-447e-9477-a67f73b2a5a2","ios":"levelo://app?vid=073518a5-4dc0-447e-9477-a67f73b2a5a2"},"vehicle_type_id":"4","last_reported":1740344877,"current_range_meters":20000,"station_id":"ce4bhsh2rcd13ifvqi2g","pricing_plan_id":"cebpf4jnsgd1na2vs0mg"},{"bike_id":"af21426d-9c02-410c-aee2-c3fdb7db06af","system_id":"levelo_inurba_marseille","lat":43.24817,"lon":5.37439,"is_reserved":false,"is_disabled":false,"rental_uris":{"android":"levelo://app?vid=af21426d-9c02-410c-aee2-c3fdb7db06af","ios":"levelo://app?vid=af21426d-9c02-410c-aee2-c3fdb7db06af"},"vehicle_type_id":"4","last_reported":1740344877,"current_range_meters":20000,"station_id":"ce4bhgh2rcd13ifvqfb0","pricing_plan_id":"cebpf4jnsgd1na2vs0mg"},{"bike_id":"6ecefc8b-8ad5-4cef-a47d-d4d4e9a483d8","system_id":"levelo_inurba_marseille","lat":43.30893,"lon":5.39661,"is_reserved":false,"is_disabled":false,"rental_uris":{"android":"levelo://app?vid=6ecefc8b-8ad5-4cef-a47d-d4d4e9a483d8","ios":"levelo://app?vid=6ecefc8b-8ad5-4cef-a47d-d4d4e9a483d8"},"vehicle_type_id":"4","last_reported":1740344877,"current_range_meters":20000,"station_id":"ce4bh012rcd13ifvqcv0","pricing_plan_id":"cebpf4jnsgd1na2vs0mg"},{"bike_id":"b8366b34-dcae-4fc1-b284-d4d6c5a42a84","system_id":"levelo_inurba_marseille","lat":43.29419,"lon":5.38624,"is_reserved":false,"is_disabled":false,"rental_uris":{"android":"levelo://app?vid=b8366b34-dcae-4fc1-b284-d4d6c5a42a84","ios":"levelo://app?vid=b8366b34-dcae-4fc1-b284-d4d6c5a42a84"},"vehicle_type_id":"4","last_reported":1740344877,"current_range_meters":20400,"station_id":"ce4bh2h2rcd13ifvqdh0","pricing_plan_id":"cebpf4jnsgd1na2vs0mg"},{"bike_id":"876aa59c-c91a-4ffc-81c7-21dd319d2cb2","system_id":"levelo_inurba_marseille","lat":43.29265,"lon":5.4051,"is_reserved":false,"is_disabled":false,"rental_uris":{"android":"levelo://app?vid=876aa59c-c91a-4ffc-81c7-21dd319d2cb2","ios":"levelo://app?vid=876aa59c-c91a-4ffc-81c7-21dd319d2cb2"},"vehicle_type_id":"4","last_reported":1740344877,"current_range_meters":20400,"station_id":"","pricing_plan_id":"cebpf4jnsgd1na2vs0mg"},{"bike_id":"7a77d093-66c2-4697-b915-942a88c318bb","system_id":"levelo_inurba_marseille","lat":43.31985,"lon":5.38135,"is_reserved":false,"is_disabled":false,"rental_uris":{"android":"levelo://app?vid=7a77d093-66c2-4697-b915-942a88c318bb","ios":"levelo://app?vid=7a77d093-66c2-4697-b915-942a88c318bb"},"vehicle_type_id":"4","last_reported":1740344877,"current_range_meters":20400,"station_id":"ce4bhr12rcd13ifvqhpg","pricing_plan_id":"cebpf4jnsgd1na2vs0mg"},{"bike_id":"c51fbff7-6a2a-4b56-8c2e-57a8978764b4","system_id":"levelo_inurba_marseille","lat":43.27986,"lon":5.4001,"is_reserved":false,"is_disabled":true,"rental_uris":{"android":"levelo://app?vid=c51fbff7-6a2a-4b56-8c2e-57a8978764b4","ios":"levelo://app?vid=c51fbff7-6a2a-4b56-8c2e-57a8978764b4"},"vehicle_type_id":"4","last_reported":1740344877,"current_range_meters":20800,"station_id":"ce4bho92rcd13ifvqh4g","pricing_plan_id":"cebpf4jnsgd1na2vs0mg"},{"bike_id":"306c8afe-27f2-42dd-9d3c-74d43bc1f2cb","system_id":"levelo_inurba_marseille","lat":43.2748,"lon":5.4246,"is_reserved":false,"is_disabled":false,"rental_uris":{"android":"levelo://app?vid=306c8afe-27f2-42dd-9d3c-74d43bc1f2cb","ios":"levelo://app?vid=306c8afe-27f2-42dd-9d3c-74d43bc1f2cb"},"vehicle_type_id":"4","last_reported":1740344877,"current_range_meters":20800,"station_id":"ce4bhn92rcd13ifvqgrg","pricing_plan_id":"cebpf4jnsgd1na2vs0mg"},{"bike_id":"e813f92c-4fd3-41c9-ae0a-6879c319e323","system_id":"levelo_inurba_marseille","lat":43.2964,"lon":5.37168,"is_reserved":false,"is_disabled":false,"rental_uris":{"android":"levelo://app?vid=e813f92c-4fd3-41c9-ae0a-6879c319e323","ios":"levelo://app?vid=e813f92c-4fd3-41c9-ae0a-6879c319e323"},"vehicle_type_id":"4","last_reported":1740344877,"current_range_meters":20800,"station_id":"ce4bgnh2rcd13ifvqc0g","pricing_plan_id":"cebpf4jnsgd1na2vs0mg"},{"bike_id":"e0a974b6-ebb6-4643-b3b6-b282d529bc0a","system_id":"levelo_inurba_marseille","lat":43.31754,"lon":5.43726,"is_reserved":false,"is_disabled":true,"rental_uris":{"android":"levelo://app?vid=e0a974b6-ebb6-4643-b3b6-b282d529bc0a","ios":"levelo://app?vid=e0a974b6-ebb6-4643-b3b6-b282d529bc0a"},"vehicle_type_id":"4","last_reported":1740344877,"current_range_meters":20800,"station_id":"ce4bhp92rcd13ifvqhcg","pricing_plan_id":"cebpf4jnsgd1na2vs0mg"},{"bike_id":"eaa1388a-0c28-4c03-9ca7-7cebecbc365f","system_id":"levelo_inurba_marseille","lat":43.30328,"lon":5.4043,"is_reserved":false,"is_disabled":false,"rental_uris":{"android":"levelo://app?vid=eaa1388a-0c28-4c03-9ca7-7cebecbc365f","ios":"levelo://app?vid=eaa1388a-0c28-4c03-9ca7-7cebecbc365f"},"vehicle_type_id":"4","last_reported":1740344877,"current_range_meters":20800,"station_id":"ce4bh012rcd13ifvqd10","pricing_plan_id":"cebpf4jnsgd1na2vs0mg"},{"bike_id":"662dc425-3751-4011-b6bd-579966560590","system_id":"levelo_inurba_marseille","lat":43.27422,"lon":5.39418,"is_reserved":false,"is_disabled":false,"rental_uris":{"android":"levelo://app?vid=662dc425-3751-4011-b6bd-579966560590","ios":"levelo://app?vid=662dc425-3751-4011-b6bd-579966560590"},"vehicle_type_id":"4","last_reported":1740344877,"current_range_meters":20800,"station_id":"ce4bhdp2rcd13ifvqf20","pricing_plan_id":"cebpf4jnsgd1na2vs0mg"},{"bike_id":"9fabdfa7-a0ef-44ff-b626-33a9b5d52aad","system_id":"levelo_inurba_marseille","lat":43.30158,"lon":5.38797,"is_reserved":false,"is_disabled":true,"rental_uris":{"android":"levelo://app?vid=9fabdfa7-a0ef-44ff-b626-33a9b5d52aad","ios":"levelo://app?vid=9fabdfa7-a0ef-44ff-b626-33a9b5d52aad"},"vehicle_type_id":"4","last_reported":1740344877,"current_range_meters":20800,"station_id":"ce4bghh2rcd13ifvqb60","pricing_plan_id":"cebpf4jnsgd1na2vs0mg"},{"bike_id":"67353ec5-ce91-46f3-8df8-86128e85fd44","system_id":"levelo_inurba_marseille","lat":43.28152,"lon":5.42648,"is_reserved":false,"is_disabled":true,"rental_uris":{"android":"levelo://app?vid=67353ec5-ce91-46f3-8df8-86128e85fd44","ios":"levelo://app?vid=67353ec5-ce91-46f3-8df8-86128e85fd44"},"vehicle_type_id":"4","last_reported":1740344877,"current_range_meters":20800,"station_id":"ce4bhnh2rcd13ifvqgug","pricing_plan_id":"cebpf4jnsgd1na2vs0mg"},{"bike_id":"181e14ed-4e9f-4874-8710-1b5c1fed90a1","system_id":"levelo_inurba_marseille","lat":43.25825,"lon":5.3942,"is_reserved":false,"is_disabled":false,"rental_uris":{"android":"levelo://app?vid=181e14ed-4e9f-4874-8710-1b5c1fed90a1","ios":"levelo://app?vid=181e14ed-4e9f-4874-8710-1b5c1fed90a1"},"vehicle_type_id":"4","last_reported":1740344877,"current_range_meters":21600,"station_id":"ce4bhip2rcd13ifvqft0","pricing_plan_id":"cebpf4jnsgd1na2vs0mg"},{"bike_id":"82851fbe-f880-44f7-a72a-9bf4bddb2008","system_id":"levelo_inurba_marseille","lat":43.30896,"lon":5.39646,"is_reserved":false,"is_disabled":false,"rental_uris":{"android":"levelo://app?vid=82851fbe-f880-44f7-a72a-9bf4bddb2008","ios":"levelo://app?vid=82851fbe-f880-44f7-a72a-9bf4bddb2008"},"vehicle_type_id":"4","last_reported":1740344877,"current_range_meters":21600,"station_id":"ce4bh012rcd13ifvqcv0","pricing_plan_id":"cebpf4jnsgd1na2vs0mg"},{"bike_id":"f244c07b-dc13-4f61-8c44-efe86de82881","system_id":"levelo_inurba_marseille","lat":43.29628,"lon":5.40589,"is_reserved":false,"is_disabled":true,"rental_uris":{"android":"levelo://app?vid=f244c07b-dc13-4f61-8c44-efe86de82881","ios":"levelo://app?vid=f244c07b-dc13-4f61-8c44-efe86de82881"},"vehicle_type_id":"4","last_reported":1740344877,"current_range_meters":21600,"station_id":"ce4bh0h2rcd13ifvqd60","pricing_plan_id":"cebpf4jnsgd1na2vs0mg"},{"bike_id":"a437ce3e-94c1-4d80-949a-3eb291854603","system_id":"levelo_inurba_marseille","lat":43.30938,"lon":5.40111,"is_reserved":false,"is_disabled":true,"rental_uris":{"android":"levelo://app?vid=a437ce3e-94c1-4d80-949a-3eb291854603","ios":"levelo://app?vid=a437ce3e-94c1-4d80-949a-3eb291854603"},"vehicle_type_id":"4","last_reported":1740344877,"current_range_meters":21600,"station_id":"ce4bgvp2rcd13ifvqct0","pricing_plan_id":"cebpf4jnsgd1na2vs0mg"},{"bike_id":"c3fd81b8-dcea-46a9-93b2-916e92ea9626","system_id":"levelo_inurba_marseille","lat":43.303183,"lon":5.369001,"is_reserved":false,"is_disabled":false,"rental_uris":{"android":"levelo://app?vid=c3fd81b8-dcea-46a9-93b2-916e92ea9626","ios":"levelo://app?vid=c3fd81b8-dcea-46a9-93b2-916e92ea9626"},"vehicle_type_id":"4","last_reported":1740344877,"current_range_meters":21600,"station_id":"ce4bgqh2rcd13ifvqc5g","pricing_plan_id":"cebpf4jnsgd1na2vs0mg"},{"bike_id":"cdd126f3-07bf-425b-9832-43285d696b15","system_id":"levelo_inurba_marseille","lat":43.28845,"lon":5.39328,"is_reserved":false,"is_disabled":false,"rental_uris":{"android":"levelo://app?vid=cdd126f3-07bf-425b-9832-43285d696b15","ios":"levelo://app?vid=cdd126f3-07bf-425b-9832-43285d696b15"},"vehicle_type_id":"4","last_reported":1740344877,"current_range_meters":22000,"station_id":"ce4bh2p2rcd13ifvqdi0","pricing_plan_id":"cebpf4jnsgd1na2vs0mg"},{"bike_id":"4990227f-b486-4336-9fc6-2f188fa2f25e","system_id":"levelo_inurba_marseille","lat":43.28695,"lon":5.37395,"is_reserved":false,"is_disabled":false,"rental_uris":{"android":"levelo://app?vid=4990227f-b486-4336-9fc6-2f188fa2f25e","ios":"levelo://app?vid=4990227f-b486-4336-9fc6-2f188fa2f25e"},"vehicle_type_id":"4","last_reported":1740344877,"current_range_meters":22000,"station_id":"ce4bh3p2rcd13ifvqdq0","pricing_plan_id":"cebpf4jnsgd1na2vs0mg"},{"bike_id":"619725b6-3641-4718-b85c-896d33843eae","system_id":"levelo_inurba_marseille","lat":43.25099,"lon":5.40257,"is_reserved":false,"is_disabled":false,"rental_uris":{"android":"levelo://app?vid=619725b6-3641-4718-b85c-896d33843eae","ios":"levelo://app?vid=619725b6-3641-4718-b85c-896d33843eae"},"vehicle_type_id":"4","last_reported":1740344877,"current_range_meters":22000,"station_id":"ce4bhlh2rcd13ifvqgig","pricing_plan_id":"cebpf4jnsgd1na2vs0mg"},{"bike_id":"7075c287-eac8-4b9f-b2d8-2b84a3a64b34","system_id":"levelo_inurba_marseille","lat":43.27431,"lon":5.394234,"is_reserved":false,"is_disabled":false,"rental_uris":{"android":"levelo://app?vid=7075c287-eac8-4b9f-b2d8-2b84a3a64b34","ios":"levelo://app?vid=7075c287-eac8-4b9f-b2d8-2b84a3a64b34"},"vehicle_type_id":"4","last_reported":1740344877,"current_range_meters":21600,"station_id":"ce4bhdp2rcd13ifvqf20","pricing_plan_id":"cebpf4jnsgd1na2vs0mg"},{"bike_id":"2096dd32-b2f1-40be-af82-6f0ca2f96ac9","system_id":"levelo_inurba_marseille","lat":43.29877,"lon":5.38888,"is_reserved":false,"is_disabled":false,"rental_uris":{"android":"levelo://app?vid=2096dd32-b2f1-40be-af82-6f0ca2f96ac9","ios":"levelo://app?vid=2096dd32-b2f1-40be-af82-6f0ca2f96ac9"},"vehicle_type_id":"4","last_reported":1740344877,"current_range_meters":22000,"station_id":"ce4bh392rcd13ifvqdl0","pricing_plan_id":"cebpf4jnsgd1na2vs0mg"},{"bike_id":"211be629-2220-47cb-9a4b-2fb4e583b534","system_id":"levelo_inurba_marseille","lat":43.27551,"lon":5.38411,"is_reserved":false,"is_disabled":false,"rental_uris":{"android":"levelo://app?vid=211be629-2220-47cb-9a4b-2fb4e583b534","ios":"levelo://app?vid=211be629-2220-47cb-9a4b-2fb4e583b534"},"vehicle_type_id":"4","last_reported":1740344877,"current_range_meters":22400,"station_id":"ce4bhh92rcd13ifvqfi0","pricing_plan_id":"cebpf4jnsgd1na2vs0mg"},{"bike_id":"6c26ffa3-6cff-40e3-af14-b78696717b7d","system_id":"levelo_inurba_marseille","lat":43.29509,"lon":5.38515,"is_reserved":false,"is_disabled":false,"rental_uris":{"android":"levelo://app?vid=6c26ffa3-6cff-40e3-af14-b78696717b7d","ios":"levelo://app?vid=6c26ffa3-6cff-40e3-af14-b78696717b7d"},"vehicle_type_id":"4","last_reported":1740344877,"current_range_meters":22400,"station_id":"ce4bgih2rcd13ifvqba0","pricing_plan_id":"cebpf4jnsgd1na2vs0mg"},{"bike_id":"cae5183b-e04c-488b-bbc2-8a88557ef0cd","system_id":"levelo_inurba_marseille","lat":43.30107,"lon":5.39093,"is_reserved":false,"is_disabled":true,"rental_uris":{"android":"levelo://app?vid=cae5183b-e04c-488b-bbc2-8a88557ef0cd","ios":"levelo://app?vid=cae5183b-e04c-488b-bbc2-8a88557ef0cd"},"vehicle_type_id":"4","last_reported":1740344877,"current_range_meters":22400,"station_id":"ce4bh192rcd13ifvqdb0","pricing_plan_id":"cebpf4jnsgd1na2vs0mg"},{"bike_id":"56a0cb01-fc13-42c8-94be-4f8cad837efb","system_id":"levelo_inurba_marseille","lat":43.30294,"lon":5.36904,"is_reserved":false,"is_disabled":true,"rental_uris":{"android":"levelo://app?vid=56a0cb01-fc13-42c8-94be-4f8cad837efb","ios":"levelo://app?vid=56a0cb01-fc13-42c8-94be-4f8cad837efb"},"vehicle_type_id":"4","last_reported":1740344877,"current_range_meters":22400,"station_id":"ce4bgqh2rcd13ifvqc5g","pricing_plan_id":"cebpf4jnsgd1na2vs0mg"},{"bike_id":"21d1aa25-af5b-4bd9-a5f7-b8d7de10b55d","system_id":"levelo_inurba_marseille","lat":43.30651,"lon":5.40089,"is_reserved":false,"is_disabled":false,"rental_uris":{"android":"levelo://app?vid=21d1aa25-af5b-4bd9-a5f7-b8d7de10b55d","ios":"levelo://app?vid=21d1aa25-af5b-4bd9-a5f7-b8d7de10b55d"},"vehicle_type_id":"4","last_reported":1740344877,"current_range_meters":22400,"station_id":"ce4bh112rcd13ifvqda0","pricing_plan_id":"cebpf4jnsgd1na2vs0mg"},{"bike_id":"a0f40846-6cee-405d-8e1e-51fc52ce1647","system_id":"levelo_inurba_marseille","lat":43.29884,"lon":5.38918,"is_reserved":false,"is_disabled":false,"rental_uris":{"android":"levelo://app?vid=a0f40846-6cee-405d-8e1e-51fc52ce1647","ios":"levelo://app?vid=a0f40846-6cee-405d-8e1e-51fc52ce1647"},"vehicle_type_id":"4","last_reported":1740344877,"current_range_meters":22400,"station_id":"ce4bh392rcd13ifvqdl0","pricing_plan_id":"cebpf4jnsgd1na2vs0mg"},{"bike_id":"e29acea8-3a0d-40b4-848e-64609df2fef5","system_id":"levelo_inurba_marseille","lat":43.29439,"lon":5.38606,"is_reserved":false,"is_disabled":false,"rental_uris":{"android":"levelo://app?vid=e29acea8-3a0d-40b4-848e-64609df2fef5","ios":"levelo://app?vid=e29acea8-3a0d-40b4-848e-64609df2fef5"},"vehicle_type_id":"4","last_reported":1740344877,"current_range_meters":22000,"station_id":"ce4bgup2rcd13ifvqco0","pricing_plan_id":"cebpf4jnsgd1na2vs0mg"},{"bike_id":"9e106413-6843-4cd1-b384-550802c26cbe","system_id":"levelo_inurba_marseille","lat":43.30888,"lon":5.39666,"is_reserved":false,"is_disabled":false,"rental_uris":{"android":"levelo://app?vid=9e106413-6843-4cd1-b384-550802c26cbe","ios":"levelo://app?vid=9e106413-6843-4cd1-b384-550802c26cbe"},"vehicle_type_id":"4","last_reported":1740344877,"current_range_meters":22400,"station_id":"ce4bh012rcd13ifvqcv0","pricing_plan_id":"cebpf4jnsgd1na2vs0mg"},{"bike_id":"c0b8b5d3-fa1c-4ee8-b85b-6abb9326864d","system_id":"levelo_inurba_marseille","lat":43.2937,"lon":5.37843,"is_reserved":false,"is_disabled":false,"rental_uris":{"android":"levelo://app?vid=c0b8b5d3-fa1c-4ee8-b85b-6abb9326864d","ios":"levelo://app?vid=c0b8b5d3-fa1c-4ee8-b85b-6abb9326864d"},"vehicle_type_id":"4","last_reported":1740344877,"current_range_meters":22800,"station_id":"ce4bgjh2rcd13ifvqbf0","pricing_plan_id":"cebpf4jnsgd1na2vs0mg"},{"bike_id":"7ee7f826-dc37-4344-ad19-a7d227aa9e57","system_id":"levelo_inurba_marseille","lat":43.3342,"lon":5.4411,"is_reserved":false,"is_disabled":false,"rental_uris":{"android":"levelo://app?vid=7ee7f826-dc37-4344-ad19-a7d227aa9e57","ios":"levelo://app?vid=7ee7f826-dc37-4344-ad19-a7d227aa9e57"},