{"last_updated":1727446121,"ttl":60,"version":"2.2","data":{"bikes":[{"bike_id":"69eef137-bcd1-49b7-bdc7-0a6af19c4431","system_id":"levelo_inurba_marseille","lat":43.30332,"lon":5.40438,"is_reserved":false,"is_disabled":false,"rental_uris":{"android":"levelo://app?vid=69eef137-bcd1-49b7-bdc7-0a6af19c4431","ios":"levelo://app?vid=69eef137-bcd1-49b7-bdc7-0a6af19c4431"},"vehicle_type_id":"4","last_reported":1727446121,"current_range_meters":34000,"station_id":"ce4bh012rcd13ifvqd10","pricing_plan_id":"cebpf4jnsgd1na2vs0mg"},{"bike_id":"8e908581-df2e-4c6b-82ed-e43d6a991af5","system_id":"levelo_inurba_marseille","lat":43.27921,"lon":5.3957,"is_reserved":false,"is_disabled":false,"rental_uris":{"android":"levelo://app?vid=8e908581-df2e-4c6b-82ed-e43d6a991af5","ios":"levelo://app?vid=8e908581-df2e-4c6b-82ed-e43d6a991af5"},"vehicle_type_id":"4","last_reported":1727446121,"current_range_meters":33200,"station_id":"ce4bhf92rcd13ifvqf40","pricing_plan_id":"cebpf4jnsgd1na2vs0mg"},{"bike_id":"fb3aca4d-d848-4714-ab28-228327ab220e","system_id":"levelo_inurba_marseille","lat":43.23148,"lon":5.43704,"is_reserved":false,"is_disabled":false,"rental_uris":{"android":"levelo://app?vid=fb3aca4d-d848-4714-ab28-228327ab220e","ios":"levelo://app?vid=fb3aca4d-d848-4714-ab28-228327ab220e"},"vehicle_type_id":"4","last_reported":1727446121,"current_range_meters":14400,"station_id":"ce4bhmp2rcd13ifvqgog","pricing_plan_id":"cebpf4jnsgd1na2vs0mg"},{"bike_id":"1c025657-d8da-4e0f-9c6f-61359caa6296","system_id":"levelo_inurba_marseille","lat":43.23195,"lon":5.39978,"is_reserved":false,"is_disabled":false,"rental_uris":{"android":"levelo://app?vid=1c025657-d8da-4e0f-9c6f-61359caa6296","ios":"levelo://app?vid=1c025657-d8da-4e0f-9c6f-61359caa6296"},"vehicle_type_id":"4","last_reported":1727446121,"current_range_meters":28000,"station_id":"ce4bhn12rcd13ifvqgqg","pricing_plan_id":"cebpf4jnsgd1na2vs0mg"},{"bike_id":"cfa4729b-11cd-4490-ad71-b5137388f2a4","system_id":"levelo_inurba_marseille","lat":43.29721,"lon":5.37707,"is_reserved":false,"is_disabled":false,"rental_uris":{"android":"levelo://app?vid=cfa4729b-11cd-4490-ad71-b5137388f2a4","ios":"levelo://app?vid=cfa4729b-11cd-4490-ad71-b5137388f2a4"},"vehicle_type_id":"4","last_reported":1727446121,"current_range_meters":38800,"station_id":"ce4bgkh2rcd13ifvqbl0","pricing_plan_id":"cebpf4jnsgd1na2vs0mg"},{"bike_id":"bf0a8175-a025-491a-bcb4-636e8cda4535","system_id":"levelo_inurba_marseille","lat":43.29785,"lon":5.39351,"is_reserved":false,"is_disabled":false,"rental_uris":{"android":"levelo://app?vid=bf0a8175-a025-491a-bcb4-636e8cda4535","ios":"levelo://app?vid=bf0a8175-a025-491a-bcb4-636e8cda4535"},"vehicle_type_id":"4","last_reported":1727446121,"current_range_meters":17200,"station_id":"chh1huq6cuj3fo74tm60","pricing_plan_id":"cebpf4jnsgd1na2vs0mg"},{"bike_id":"14f1ee57-fa04-422f-9256-6a95d52f90cc","system_id":"levelo_inurba_marseille","lat":43.32479,"lon":5.36561,"is_reserved":false,"is_disabled":false,"rental_uris":{"android":"levelo://app?vid=14f1ee57-fa04-422f-9256-6a95d52f90cc","ios":"levelo://app?vid=14f1ee57-fa04-422f-9256-6a95d52f90cc"},"vehicle_type_id":"4","last_reported":1727446121,"current_range_meters":26800,"station_id":"ce4bhs12rcd13ifvqhvg","pricing_plan_id":"cebpf4jnsgd1na2vs0mg"},{"bike_id":"9caaba7b-365b-40d9-8cf1-bc414769591a","system_id":"levelo_inurba_marseille","lat":43.29925,"lon":5.37475,"is_reserved":false,"is_disabled":false,"rental_uris":{"android":"levelo://app?vid=9caaba7b-365b-40d9-8cf1-bc414769591a","ios":"levelo://app?vid=9caaba7b-365b-40d9-8cf1-bc414769591a"},"vehicle_type_id":"4","last_reported":1727446121,"current_range_meters":24000,"station_id":"ce4bgjh2rcd13ifvqbg0","pricing_plan_id":"cebpf4jnsgd1na2vs0mg"},{"bike_id":"0483417d-996a-4b1c-a65e-b8e240943390","system_id":"levelo_inurba_marseille","lat":43.30261,"lon":5.40082,"is_reserved":false,"is_disabled":false,"rental_uris":{"android":"levelo://app?vid=0483417d-996a-4b1c-a65e-b8e240943390","ios":"levelo://app?vid=0483417d-996a-4b1c-a65e-b8e240943390"},"vehicle_type_id":"4","last_reported":1727446121,"current_range_meters":12000,"station_id":"ce4bgvh2rcd13ifvqcs0","pricing_plan_id":"cebpf4jnsgd1na2vs0mg"},{"bike_id":"88c96776-6e23-4af1-827b-eccfb462378e","system_id":"levelo_inurba_marseille","lat":43.22929,"lon":5.35377,"is_reserved":false,"is_disabled":false,"rental_uris":{"android":"levelo://app?vid=88c96776-6e23-4af1-827b-eccfb462378e","ios":"levelo://app?vid=88c96776-6e23-4af1-827b-eccfb462378e"},"vehicle_type_id":"4","last_reported":1727446121,"current_range_meters":35600,"station_id":"cpo3532slgdg3j2ikp40","pricing_plan_id":"cebpf4jnsgd1na2vs0mg"},{"bike_id":"a3497ca5-b067-48ca-b26c-982b2e8c03d6","system_id":"levelo_inurba_marseille","lat":43.32663,"lon":5.40978,"is_reserved":false,"is_disabled":false,"rental_uris":{"android":"levelo://app?vid=a3497ca5-b067-48ca-b26c-982b2e8c03d6","ios":"levelo://app?vid=a3497ca5-b067-48ca-b26c-982b2e8c03d6"},"vehicle_type_id":"4","last_reported":1727446121,"current_range_meters":30800,"station_id":"ce4bhpp2rcd13ifvqhgg","pricing_plan_id":"cebpf4jnsgd1na2vs0mg"},{"bike_id":"ff898923-aef3-4906-8438-c29ca281f1ef","system_id":"levelo_inurba_marseille","lat":43.231567,"lon":5.437063,"is_reserved":false,"is_disabled":false,"rental_uris":{"android":"levelo://app?vid=ff898923-aef3-4906-8438-c29ca281f1ef","ios":"levelo://app?vid=ff898923-aef3-4906-8438-c29ca281f1ef"},"vehicle_type_id":"4","last_reported":1727446121,"current_range_meters":8400,"station_id":"ce4bhmp2rcd13ifvqgog","pricing_plan_id":"cebpf4jnsgd1na2vs0mg"},{"bike_id":"5f77abbf-f42f-4a1e-bd9c-62a71cfa80a4","system_id":"levelo_inurba_marseille","lat":43.29198,"lon":5.39316,"is_reserved":false,"is_disabled":false,"rental_uris":{"android":"levelo://app?vid=5f77abbf-f42f-4a1e-bd9c-62a71cfa80a4","ios":"levelo://app?vid=5f77abbf-f42f-4a1e-bd9c-62a71cfa80a4"},"vehicle_type_id":"4","last_reported":1727446121,"current_range_meters":2000,"station_id":"ce4bh192rcd13ifvqdd0","pricing_plan_id":"cebpf4jnsgd1na2vs0mg"},{"bike_id":"5855dc20-c9c7-49cc-9b49-012654d23578","system_id":"levelo_inurba_marseille","lat":43.22936,"lon":5.35375,"is_reserved":false,"is_disabled":false,"rental_uris":{"android":"levelo://app?vid=5855dc20-c9c7-49cc-9b49-012654d23578","ios":"levelo://app?vid=5855dc20-c9c7-49cc-9b49-012654d23578"},"vehicle_type_id":"4","last_reported":1727446121,"current_range_meters":8800,"station_id":"cpo3532slgdg3j2ikp40","pricing_plan_id":"cebpf4jnsgd1na2vs0mg"},{"bike_id":"6c401f9e-f1d1-4949-89dc-4c68855d6df5","system_id":"levelo_inurba_marseille","lat":43.3042,"lon":5.41285,"is_reserved":false,"is_disabled":false,"rental_uris":{"android":"levelo://app?vid=6c401f9e-f1d1-4949-89dc-4c68855d6df5","ios":"levelo://app?vid=6c401f9e-f1d1-4949-89dc-4c68855d6df5"},"vehicle_type_id":"4","last_reported":1727446121,"current_range_meters":11200,"station_id":"ce4bhop2rcd13ifvqh8g","pricing_plan_id":"cebpf4jnsgd1na2vs0mg"},{"bike_id":"b7c30e28-d541-4894-ba21-763982799099","system_id":"levelo_inurba_marseille","lat":43.29812,"lon":5.38092,"is_reserved":false,"is_disabled":false,"rental_uris":{"android":"levelo://app?vid=b7c30e28-d541-4894-ba21-763982799099","ios":"levelo://app?vid=b7c30e28-d541-4894-ba21-763982799099"},"vehicle_type_id":"4","last_reported":1727446121,"current_range_meters":38400,"station_id":"ce4bgip2rcd13ifvqbb0","pricing_plan_id":"cebpf4jnsgd1na2vs0mg"},{"bike_id":"bc588afc-4580-4e6a-b4f6-f9798baa28c0","system_id":"levelo_inurba_marseille","lat":43.3016,"lon":5.38093,"is_reserved":false,"is_disabled":false,"rental_uris":{"android":"levelo://app?vid=bc588afc-4580-4e6a-b4f6-f9798baa28c0","ios":"levelo://app?vid=bc588afc-4580-4e6a-b4f6-f9798baa28c0"},"vehicle_type_id":"4","last_reported":1727446121,"current_range_meters":18800,"station_id":"ce4bgjp2rcd13ifvqbh0","pricing_plan_id":"cebpf4jnsgd1na2vs0mg"},{"bike_id":"a182660b-70f9-493f-9781-37fe533ccb82","system_id":"levelo_inurba_marseille","lat":43.2842,"lon":5.34972,"is_reserved":false,"is_disabled":false,"rental_uris":{"android":"levelo://app?vid=a182660b-70f9-493f-9781-37fe533ccb82","ios":"levelo://app?vid=a182660b-70f9-493f-9781-37fe533ccb82"},"vehicle_type_id":"4","last_reported":1727446121,"current_range_meters":22000,"station_id":"ce4bhbh2rcd13ifvqepg","pricing_plan_id":"cebpf4jnsgd1na2vs0mg"},{"bike_id":"29442083-8ea7-45b8-890c-9435a4908ad4","system_id":"levelo_inurba_marseille","lat":43.27626,"lon":5.36112,"is_reserved":false,"is_disabled":false,"rental_uris":{"android":"levelo://app?vid=29442083-8ea7-45b8-890c-9435a4908ad4","ios":"levelo://app?vid=29442083-8ea7-45b8-890c-9435a4908ad4"},"vehicle_type_id":"4","last_reported":1727446121,"current_range_meters":24800,"station_id":"ce4bgj92rcd13ifvqbe0","pricing_plan_id":"cebpf4jnsgd1na2vs0mg"},{"bike_id":"990ed37d-c44e-4562-a752-7b441127cd90","system_id":"levelo_inurba_marseille","lat":43.2682,"lon":5.402735,"is_reserved":false,"is_disabled":false,"rental_uris":{"android":"levelo://app?vid=990ed37d-c44e-4562-a752-7b441127cd90","ios":"levelo://app?vid=990ed37d-c44e-4562-a752-7b441127cd90"},"vehicle_type_id":"4","last_reported":1727446121,"current_range_meters":19200,"station_id":"ce501612rcd8frsf0b60","pricing_plan_id":"cebpf4jnsgd1na2vs0mg"},{"bike_id":"5934e212-309c-4eb8-8f8c-36e45cc14718","system_id":"levelo_inurba_marseille","lat":43.27172,"lon":5.4099,"is_reserved":false,"is_disabled":false,"rental_uris":{"android":"levelo://app?vid=5934e212-309c-4eb8-8f8c-36e45cc14718","ios":"levelo://app?vid=5934e212-309c-4eb8-8f8c-36e45cc14718"},"vehicle_type_id":"4","last_reported":1727446121,"current_range_meters":34000,"station_id":"ce4bhl12rcd13ifvqgf0","pricing_plan_id":"cebpf4jnsgd1na2vs0mg"},{"bike_id":"a59da56a-ca33-4b20-90bb-9e45754ef314","system_id":"levelo_inurba_marseille","lat":43.31759,"lon":5.39013,"is_reserved":false,"is_disabled":false,"rental_uris":{"android":"levelo://app?vid=a59da56a-ca33-4b20-90bb-9e45754ef314","ios":"levelo://app?vid=a59da56a-ca33-4b20-90bb-9e45754ef314"},"vehicle_type_id":"4","last_reported":1727446121,"current_range_meters":38800,"station_id":"ce4bhqp2rcd13ifvqhng","pricing_plan_id":"cebpf4jnsgd1na2vs0mg"},{"bike_id":"7730e404-407a-4f67-a0b4-cd826d4ff7cf","system_id":"levelo_inurba_marseille","lat":43.33611,"lon":5.41021,"is_reserved":false,"is_disabled":false,"rental_uris":{"android":"levelo://app?vid=7730e404-407a-4f67-a0b4-cd826d4ff7cf","ios":"levelo://app?vid=7730e404-407a-4f67-a0b4-cd826d4ff7cf"},"vehicle_type_id":"4","last_reported":1727446121,"current_range_meters":24800,"station_id":"ce4bhqh2rcd13ifvqhmg","pricing_plan_id":"cebpf4jnsgd1na2vs0mg"},{"bike_id":"14458370-b464-4357-b3fe-4e1300f861dc","system_id":"levelo_inurba_marseille","lat":43.2815,"lon":5.42641,"is_reserved":false,"is_disabled":false,"rental_uris":{"android":"levelo://app?vid=14458370-b464-4357-b3fe-4e1300f861dc","ios":"levelo://app?vid=14458370-b464-4357-b3fe-4e1300f861dc"},"vehicle_type_id":"4","last_reported":1727446121,"current_range_meters":32400,"station_id":"ce4bhnh2rcd13ifvqgug","pricing_plan_id":"cebpf4jnsgd1na2vs0mg"},{"bike_id":"dd842cfc-3919-4cc0-ba10-51b817d681d0","system_id":"levelo_inurba_marseille","lat":43.33021,"lon":5.39036,"is_reserved":false,"is_disabled":false,"rental_uris":{"android":"levelo://app?vid=dd842cfc-3919-4cc0-ba10-51b817d681d0","ios":"levelo://app?vid=dd842cfc-3919-4cc0-ba10-51b817d681d0"},"vehicle_type_id":"4","last_reported":1727446121,"current_range_meters":32800,"station_id":"ce4bhr92rcd13ifvqhrg","pricing_plan_id":"cebpf4jnsgd1na2vs0mg"},{"bike_id":"80fe4a40-a502-4db0-b980-a485af7c8744","system_id":"levelo_inurba_marseille","lat":43.33752,"lon":5.37361,"is_reserved":false,"is_disabled":false,"rental_uris":{"android":"levelo://app?vid=80fe4a40-a502-4db0-b980-a485af7c8744","ios":"levelo://app?vid=80fe4a40-a502-4db0-b980-a485af7c8744"},"vehicle_type_id":"4","last_reported":1727446121,"current_range_meters":26800,"station_id":"","pricing_plan_id":"cebpf4jnsgd1na2vs0mg"},{"bike_id":"75ceedd9-9b60-41f0-b187-8b3a942eedbc","system_id":"levelo_inurba_marseille","lat":43.31175,"lon":5.38715,"is_reserved":false,"is_disabled":false,"rental_uris":{"android":"levelo://app?vid=75ceedd9-9b60-41f0-b187-8b3a942eedbc","ios":"levelo://app?vid=75ceedd9-9b60-41f0-b187-8b3a942eedbc"},"vehicle_type_id":"4","last_reported":1727446121,"current_range_meters":24800,"station_id":"ce4bgv12rcd13ifvqcp0","pricing_plan_id":"cebpf4jnsgd1na2vs0mg"},{"bike_id":"fa67f505-077e-4987-848b-b450b1074e71","system_id":"levelo_inurba_marseille","lat":43.296356,"lon":5.378197,"is_reserved":false,"is_disabled":false,"rental_uris":{"android":"levelo://app?vid=fa67f505-077e-4987-848b-b450b1074e71","ios":"levelo://app?vid=fa67f505-077e-4987-848b-b450b1074e71"},"vehicle_type_id":"4","last_reported":1727446121,"current_range_meters":36800,"station_id":"ce4bhb92rcd13ifvqen0","pricing_plan_id":"cebpf4jnsgd1na2vs0mg"},{"bike_id":"3f615e86-c4c8-48b5-9d1c-4162642a9373","system_id":"levelo_inurba_marseille","lat":43.30273,"lon":5.37701,"is_reserved":false,"is_disabled":false,"rental_uris":{"android":"levelo://app?vid=3f615e86-c4c8-48b5-9d1c-4162642a9373","ios":"levelo://app?vid=3f615e86-c4c8-48b5-9d1c-4162642a9373"},"vehicle_type_id":"4","last_reported":1727446121,"current_range_meters":11600,"station_id":"ce4bguh2rcd13ifvqcj0","pricing_plan_id":"cebpf4jnsgd1na2vs0mg"},{"bike_id":"7d4351a3-387d-4a50-8a89-0dea75a751c8","system_id":"levelo_inurba_marseille","lat":43.27073,"lon":5.42273,"is_reserved":false,"is_disabled":false,"rental_uris":{"android":"levelo://app?vid=7d4351a3-387d-4a50-8a89-0dea75a751c8","ios":"levelo://app?vid=7d4351a3-387d-4a50-8a89-0dea75a751c8"},"vehicle_type_id":"4","last_reported":1727446121,"current_range_meters":15200,"station_id":"ce4bhk92rcd13ifvqgb0","pricing_plan_id":"cebpf4jnsgd1na2vs0mg"},{"bike_id":"c40e0c3a-fef8-4b24-baff-a552ed77838d","system_id":"levelo_inurba_marseille","lat":43.24165,"lon":5.36393,"is_reserved":false,"is_disabled":false,"rental_uris":{"android":"levelo://app?vid=c40e0c3a-fef8-4b24-baff-a552ed77838d","ios":"levelo://app?vid=c40e0c3a-fef8-4b24-baff-a552ed77838d"},"vehicle_type_id":"4","last_reported":1727446121,"current_range_meters":22800,"station_id":"cpo36qri1sfpv3e86is0","pricing_plan_id":"cebpf4jnsgd1na2vs0mg"},{"bike_id":"f21983c5-3265-446d-b37f-836bdc7b0f78","system_id":"levelo_inurba_marseille","lat":43.337444,"lon":5.374475,"is_reserved":false,"is_disabled":false,"rental_uris":{"android":"levelo://app?vid=f21983c5-3265-446d-b37f-836bdc7b0f78","ios":"levelo://app?vid=f21983c5-3265-446d-b37f-836bdc7b0f78"},"vehicle_type_id":"4","last_reported":1727446121,"current_range_meters":16400,"station_id":"","pricing_plan_id":"cebpf4jnsgd1na2vs0mg"},{"bike_id":"da5a9137-9416-47ba-b784-1e29cd4f466c","system_id":"levelo_inurba_marseille","lat":43.27183,"lon":5.40992,"is_reserved":false,"is_disabled":false,"rental_uris":{"android":"levelo://app?vid=da5a9137-9416-47ba-b784-1e29cd4f466c","ios":"levelo://app?vid=da5a9137-9416-47ba-b784-1e29cd4f466c"},"vehicle_type_id":"4","last_reported":1727446121,"current_range_meters":37600,"station_id":"ce4bhl12rcd13ifvqgf0","pricing_plan_id":"cebpf4jnsgd1na2vs0mg"},{"bike_id":"abb94a3c-38ae-497a-bc82-a27fd68ce79e","system_id":"levelo_inurba_marseille","lat":43.33755,"lon":5.37453,"is_reserved":false,"is_disabled":false,"rental_uris":{"android":"levelo://app?vid=abb94a3c-38ae-497a-bc82-a27fd68ce79e","ios":"levelo://app?vid=abb94a3c-38ae-497a-bc82-a27fd68ce79e"},"vehicle_type_id":"4","last_reported":1727446121,"current_range_meters":26800,"station_id":"","pricing_plan_id":"cebpf4jnsgd1na2vs0mg"},{"bike_id":"5f3d64c1-59e7-40d8-b935-d548fadc5220","system_id":"levelo_inurba_marseille","lat":43.2306,"lon":5.35495,"is_reserved":false,"is_disabled":false,"rental_uris":{"android":"levelo://app?vid=5f3d64c1-59e7-40d8-b935-d548fadc5220","ios":"levelo://app?vid=5f3d64c1-59e7-40d8-b935-d548fadc5220"},"vehicle_type_id":"4","last_reported":1727446121,"current_range_meters":36800,"station_id":"cpo3342slgdg3j2ifvpg","pricing_plan_id":"cebpf4jnsgd1na2vs0mg"},{"bike_id":"cc7d4dc8-e7d3-4d9d-a181-7a01e6a83277","system_id":"levelo_inurba_marseille","lat":43.26322,"lon":5.37727,"is_reserved":false,"is_disabled":false,"rental_uris":{"android":"levelo://app?vid=cc7d4dc8-e7d3-4d9d-a181-7a01e6a83277","ios":"levelo://app?vid=cc7d4dc8-e7d3-4d9d-a181-7a01e6a83277"},"vehicle_type_id":"4","last_reported":1727446121,"current_range_meters":10800,"station_id":"ce4bhnh2rcd13ifvqgtg","pricing_plan_id":"cebpf4jnsgd1na2vs0mg"},{"bike_id":"1630ceab-62e4-4ddb-8a1c-be0fd30ee9c7","system_id":"levelo_inurba_marseille","lat":43.29837,"lon":5.36264,"is_reserved":false,"is_disabled":false,"rental_uris":{"android":"levelo://app?vid=1630ceab-62e4-4ddb-8a1c-be0fd30ee9c7","ios":"levelo://app?vid=1630ceab-62e4-4ddb-8a1c-be0fd30ee9c7"},"vehicle_type_id":"4","last_reported":1727446121,"current_range_meters":17200,"station_id":"ce4bgpp2rcd13ifvqc3g","pricing_plan_id":"cebpf4jnsgd1na2vs0mg"},{"bike_id":"9184e0a4-665a-4985-a5d1-87187d166167","system_id":"levelo_inurba_marseille","lat":43.32,"lon":5.38147,"is_reserved":false,"is_disabled":false,"rental_uris":{"android":"levelo://app?vid=9184e0a4-665a-4985-a5d1-87187d166167","ios":"levelo://app?vid=9184e0a4-665a-4985-a5d1-87187d166167"},"vehicle_type_id":"4","last_reported":1727446121,"current_range_meters":24400,"station_id":"ce4bhr12rcd13ifvqhpg","pricing_plan_id":"cebpf4jnsgd1na2vs0mg"},{"bike_id":"9ae3f5b1-b966-4656-a962-71c1d8a34aee","system_id":"levelo_inurba_marseille","lat":43.33757,"lon":5.37446,"is_reserved":false,"is_disabled":false,"rental_uris":{"android":"levelo://app?vid=9ae3f5b1-b966-4656-a962-71c1d8a34aee","ios":"levelo://app?vid=9ae3f5b1-b966-4656-a962-71c1d8a34aee"},"vehicle_type_id":"4","last_reported":1727446121,"current_range_meters":26000,"station_id":"","pricing_plan_id":"cebpf4jnsgd1na2vs0mg"},{"bike_id":"424462c3-3d1e-42ee-b2a7-1f2a7c0c408c","system_id":"levelo_inurba_marseille","lat":43.31684,"lon":5.40467,"is_reserved":false,"is_disabled":false,"rental_uris":{"android":"levelo://app?vid=424462c3-3d1e-42ee-b2a7-1f2a7c0c408c","ios":"levelo://app?vid=424462c3-3d1e-42ee-b2a7-1f2a7c0c408c"},"vehicle_type_id":"4","last_reported":1727446121,"current_range_meters":6400,"station_id":"ce4bh012rcd13ifvqd00","pricing_plan_id":"cebpf4jnsgd1na2vs0mg"},{"bike_id":"23c2cb2e-f7f4-4d80-a69d-6d3b6bff5358","system_id":"levelo_inurba_marseille","lat":43.23179,"lon":5.39996,"is_reserved":false,"is_disabled":false,"rental_uris":{"android":"levelo://app?vid=23c2cb2e-f7f4-4d80-a69d-6d3b6bff5358","ios":"levelo://app?vid=23c2cb2e-f7f4-4d80-a69d-6d3b6bff5358"},"vehicle_type_id":"4","last_reported":1727446121,"current_range_meters":16000,"station_id":"ce4bhn12rcd13ifvqgqg","pricing_plan_id":"cebpf4jnsgd1na2vs0mg"},{"bike_id":"4a2cbfe9-f5ae-457a-bf08-7ba1aa905eed","system_id":"levelo_inurba_marseille","lat":43.31725,"lon":5.42392,"is_reserved":false,"is_disabled":false,"rental_uris":{"android":"levelo://app?vid=4a2cbfe9-f5ae-457a-bf08-7ba1aa905eed","ios":"levelo://app?vid=4a2cbfe9-f5ae-457a-bf08-7ba1aa905eed"},"vehicle_type_id":"4","last_reported":1727446121,"current_range_meters":28000,"station_id":"ce4bhp92rcd13ifvqhbg","pricing_plan_id":"cebpf4jnsgd1na2vs0mg"},{"bike_id":"737e190d-c4fe-4cdd-828e-e705ee634547","system_id":"levelo_inurba_marseille","lat":43.28436,"lon":5.39195,"is_reserved":false,"is_disabled":false,"rental_uris":{"android":"levelo://app?vid=737e190d-c4fe-4cdd-828e-e705ee634547","ios":"levelo://app?vid=737e190d-c4fe-4cdd-828e-e705ee634547"},"vehicle_type_id":"4","last_reported":1727446121,"current_range_meters":10000,"station_id":"ce4bhoh2rcd13ifvqh5g","pricing_plan_id":"cebpf4jnsgd1na2vs0mg"},{"bike_id":"761f1151-2896-4585-a6ba-2b97c7d264d4","system_id":"levelo_inurba_marseille","lat":43.32482,"lon":5.36549,"is_reserved":false,"is_disabled":false,"rental_uris":{"android":"levelo://app?vid=761f1151-2896-4585-a6ba-2b97c7d264d4","ios":"levelo://app?vid=761f1151-2896-4585-a6ba-2b97c7d264d4"},"vehicle_type_id":"4","last_reported":1727446121,"current_range_meters":39200,"station_id":"ce4bhs12rcd13ifvqhvg","pricing_plan_id":"cebpf4jnsgd1na2vs0mg"},{"bike_id":"ad2129e1-cef3-4e39-ab26-51e9eda3ab89","system_id":"levelo_inurba_marseille","lat":43.2594,"lon":5.40897,"is_reserved":false,"is_disabled":false,"rental_uris":{"android":"levelo://app?vid=ad2129e1-cef3-4e39-ab26-51e9eda3ab89","ios":"levelo://app?vid=ad2129e1-cef3-4e39-ab26-51e9eda3ab89"},"vehicle_type_id":"4","last_reported":1727446121,"current_range_meters":21600,"station_id":"ce4bhm92rcd13ifvqglg","pricing_plan_id":"cebpf4jnsgd1na2vs0mg"},{"bike_id":"d9bf6344-e840-44f6-9fc1-f04de4c3abdb","system_id":"levelo_inurba_marseille","lat":43.28426,"lon":5.34972,"is_reserved":false,"is_disabled":false,"rental_uris":{"android":"levelo://app?vid=d9bf6344-e840-44f6-9fc1-f04de4c3abdb","ios":"levelo://app?vid=d9bf6344-e840-44f6-9fc1-f04de4c3abdb"},"vehicle_type_id":"4","last_reported":1727446121,"current_range_meters":9200,"station_id":"ce4bhbh2rcd13ifvqepg","pricing_plan_id":"cebpf4jnsgd1na2vs0mg"},{"bike_id":"c5b34c79-e6a4-46bf-afee-5a7fe86c90d7","system_id":"levelo_inurba_marseille","lat":43.3015,"lon":5.38105,"is_reserved":false,"is_disabled":false,"rental_uris":{"android":"levelo://app?vid=c5b34c79-e6a4-46bf-afee-5a7fe86c90d7","ios":"levelo://app?vid=c5b34c79-e6a4-46bf-afee-5a7fe86c90d7"},"vehicle_type_id":"4","last_reported":1727446121,"current_range_meters":28800,"station_id":"ce4bgjp2rcd13ifvqbh0","pricing_plan_id":"cebpf4jnsgd1na2vs0mg"},{"bike_id":"281ce56c-b101-45b2-9b05-7e2d30cec51c","system_id":"levelo_inurba_marseille","lat":43.302185,"lon":5.39474,"is_reserved":false,"is_disabled":false,"rental_uris":{"android":"levelo://app?vid=281ce56c-b101-45b2-9b05-7e2d30cec51c","ios":"levelo://app?vid=281ce56c-b101-45b2-9b05-7e2d30cec51c"},"vehicle_type_id":"4","last_reported":1727446121,"current_range_meters":22800,"station_id":"ce4bhop2rcd13ifvqh8g","pricing_plan_id":"cebpf4jnsgd1na2vs0mg"},{"bike_id":"cc17a1a6-955e-4b03-bd3e-10467eec67f3","system_id":"levelo_inurba_marseille","lat":43.31711,"lon":5.37742,"is_reserved":false,"is_disabled":false,"rental_uris":{"android":"levelo://app?vid=cc17a1a6-955e-4b03-bd3e-10467eec67f3","ios":"levelo://app?vid=cc17a1a6-955e-4b03-bd3e-10467eec67f3"},"vehicle_type_id":"4","last_reported":1727446121,"current_range_meters":12000,"station_id":"ce4bgth2rcd13ifvqch0","pricing_plan_id":"cebpf4jnsgd1na2vs0mg"},{"bike_id":"951d9741-60c3-4f33-8372-8fdc89178e7a","system_id":"levelo_inurba_marseille","lat":43.28264,"lon":5.35064,"is_reserved":false,"is_disabled":false,"rental_uris":{"android":"levelo://app?vid=951d9741-60c3-4f33-8372-8fdc89178e7a","ios":"levelo://app?vid=951d9741-60c3-4f33-8372-8fdc89178e7a"},"vehicle_type_id":"4","last_reported":1727446121,"current_range_meters":25600,"station_id":"ce4bhbp2rcd13ifvqerg","pricing_plan_id":"cebpf4jnsgd1na2vs0mg"},{"bike_id":"81f5815f-7132-4a99-a008-494f06eec1bf","system_id":"levelo_inurba_marseille","lat":43.23194,"lon":5.35557,"is_reserved":false,"is_disabled":false,"rental_uris":{"android":"levelo://app?vid=81f5815f-7132-4a99-a008-494f06eec1bf","ios":"levelo://app?vid=81f5815f-7132-4a99-a008-494f06eec1bf"},"vehicle_type_id":"4","last_reported":1727446121,"current_range_meters":20000,"station_id":"ce4bhu92rcd13ifvqi70","pricing_plan_id":"cebpf4jnsgd1na2vs0mg"},{"bike_id":"1881593e-c20c-42c3-8818-52d055848551","system_id":"levelo_inurba_marseille","lat":43.26567,"lon":5.39002,"is_reserved":false,"is_disabled":false,"rental_uris":{"android":"levelo://app?vid=1881593e-c20c-42c3-8818-52d055848551","ios":"levelo://app?vid=1881593e-c20c-42c3-8818-52d055848551"},"vehicle_type_id":"4","last_reported":1727446121,"current_range_meters":3200,"station_id":"ce4bhe12rcd13ifvqf30","pricing_plan_id":"cebpf4jnsgd1na2vs0mg"},{"bike_id":"98bb9319-ad98-4cd0-bd80-2c315c9291a3","system_id":"levelo_inurba_marseille","lat":43.3014,"lon":5.38778,"is_reserved":false,"is_disabled":false,"rental_uris":{"android":"levelo://app?vid=98bb9319-ad98-4cd0-bd80-2c315c9291a3","ios":"levelo://app?vid=98bb9319-ad98-4cd0-bd80-2c315c9291a3"},"vehicle_type_id":"4","last_reported":1727446121,"current_range_meters":26000,"station_id":"ce4bghh2rcd13ifvqb60","pricing_plan_id":"cebpf4jnsgd1na2vs0mg"},{"bike_id":"c16a8e2b-f414-4784-b287-8164b238efb4","system_id":"levelo_inurba_marseille","lat":43.32482,"lon":5.36558,"is_reserved":false,"is_disabled":false,"rental_uris":{"android":"levelo://app?vid=c16a8e2b-f414-4784-b287-8164b238efb4","ios":"levelo://app?vid=c16a8e2b-f414-4784-b287-8164b238efb4"},"vehicle_type_id":"4","last_reported":1727446121,"current_range_meters":25600,"station_id":"ce4bhs12rcd13ifvqhvg","pricing_plan_id":"cebpf4jnsgd1na2vs0mg"},{"bike_id":"6df7c588-41fb-48d5-b5b1-a0da74a9118b","system_id":"levelo_inurba_marseille","lat":43.22934,"lon":5.35373,"is_reserved":false,"is_disabled":false,"rental_uris":{"android":"levelo://app?vid=6df7c588-41fb-48d5-b5b1-a0da74a9118b","ios":"levelo://app?vid=6df7c588-41fb-48d5-b5b1-a0da74a9118b"},"vehicle_type_id":"4","last_reported":1727446121,"current_range_meters":17600,"station_id":"cpo3532slgdg3j2ikp40","pricing_plan_id":"cebpf4jnsgd1na2vs0mg"},{"bike_id":"585a72b4-d88d-49d7-b27d-f350a9bffaf3","system_id":"levelo_inurba_marseille","lat":43.23186,"lon":5.39991,"is_reserved":false,"is_disabled":false,"rental_uris":{"android":"levelo://app?vid=585a72b4-d88d-49d7-b27d-f350a9bffaf3","ios":"levelo://app?vid=585a72b4-d88d-49d7-b27d-f350a9bffaf3"},"vehicle_type_id":"4","last_reported":1727446121,"current_range_meters":19600,"station_id":"ce4bhn12rcd13ifvqgqg","pricing_plan_id":"cebpf4jnsgd1na2vs0mg"},{"bike_id":"ce9b7c61-a09a-4c48-a619-e3c8607e458b","system_id":"levelo_inurba_marseille","lat":43.29964,"lon":5.38475,"is_reserved":false,"is_disabled":false,"rental_uris":{"android":"levelo://app?vid=ce9b7c61-a09a-4c48-a619-e3c8607e458b","ios":"levelo://app?vid=ce9b7c61-a09a-4c48-a619-e3c8607e458b"},"vehicle_type_id":"4","last_reported":1727446121,"current_range_meters":39200,"station_id":"ce4bgj92rcd13ifvqbd0","pricing_plan_id":"cebpf4jnsgd1na2vs0mg"},{"bike_id":"4b43806d-b40b-4609-b625-3b2deba7dd44","system_id":"levelo_inurba_marseille","lat":43.31711,"lon":5.37759,"is_reserved":false,"is_disabled":false,"rental_uris":{"android":"levelo://app?vid=4b43806d-b40b-4609-b625-3b2deba7dd44","ios":"levelo://app?vid=4b43806d-b40b-4609-b625-3b2deba7dd44"},"vehicle_type_id":"4","last_reported":1727446121,"current_range_meters":38800,"station_id":"ce4bgth2rcd13ifvqch0","pricing_plan_id":"cebpf4jnsgd1na2vs0mg"},{"bike_id":"68288eeb-ba48-47a6-a85e-12eb7c4f1d6d","system_id":"levelo_inurba_marseille","lat":43.27064,"lon":5.42272,"is_reserved":false,"is_disabled":false,"rental_uris":{"android":"levelo://app?vid=68288eeb-ba48-47a6-a85e-12eb7c4f1d6d","ios":"levelo://app?vid=68288eeb-ba48-47a6-a85e-12eb7c4f1d6d"},"vehicle_type_id":"4","last_reported":1727446121,"current_range_meters":20400,"station_id":"ce4bhk92rcd13ifvqgb0","pricing_plan_id":"cebpf4jnsgd1na2vs0mg"},{"bike_id":"7d16d116-5cc9-4fab-a409-a3223ba7ac51","system_id":"levelo_inurba_marseille","lat":43.29785,"lon":5.37099,"is_reserved":false,"is_disabled":false,"rental_uris":{"android":"levelo://app?vid=7d16d116-5cc9-4fab-a409-a3223ba7ac51","ios":"levelo://app?vid=7d16d116-5cc9-4fab-a409-a3223ba7ac51"},"vehicle_type_id":"4","last_reported":1727446121,"current_range_meters":36400,"station_id":"ce4bgop2rcd13ifvqc1g","pricing_plan_id":"cebpf4jnsgd1na2vs0mg"},{"bike_id":"a68583db-728b-41f1-b646-f506599edaf4","system_id":"levelo_inurba_marseille","lat":43.3379,"lon":5.37437,"is_reserved":false,"is_disabled":false,"rental_uris":{"android":"levelo://app?vid=a68583db-728b-41f1-b646-f506599edaf4","ios":"levelo://app?vid=a68583db-728b-41f1-b646-f506599edaf4"},"vehicle_type_id":"4","last_reported":1727446121,"current_range_meters":37600,"station_id":"","pricing_plan_id":"cebpf4jnsgd1na2vs0mg"},{"bike_id":"93f4762d-16d3-4705-bb4d-72b4f1e6d957","system_id":"levelo_inurba_marseille","lat":43.29839,"lon":5.36266,"is_reserved":false,"is_disabled":false,"rental_uris":{"android":"levelo://app?vid=93f4762d-16d3-4705-bb4d-72b4f1e6d957","ios":"levelo://app?vid=93f4762d-16d3-4705-bb4d-72b4f1e6d957"},"vehicle_type_id":"4","last_reported":1727446121,"current_range_meters":36000,"station_id":"ce4bgpp2rcd13ifvqc3g","pricing_plan_id":"cebpf4jnsgd1na2vs0mg"},{"bike_id":"dc81ca1f-62ec-486e-92ea-5c6be2144907","system_id":"levelo_inurba_marseille","lat":43.32369,"lon":5.38884,"is_reserved":false,"is_disabled":false,"rental_uris":{"android":"levelo://app?vid=dc81ca1f-62ec-486e-92ea-5c6be2144907","ios":"levelo://app?vid=dc81ca1f-62ec-486e-92ea-5c6be2144907"},"vehicle_type_id":"4","last_reported":1727446121,"current_range_meters":18800,"station_id":"ce4bhqp2rcd13ifvqhog","pricing_plan_id":"cebpf4jnsgd1na2vs0mg"},{"bike_id":"1e1f878c-d2bd-4e78-85de-839bd5582114","system_id":"levelo_inurba_marseille","lat":43.32656,"lon":5.40988,"is_reserved":false,"is_disabled":false,"rental_uris":{"android":"levelo://app?vid=1e1f878c-d2bd-4e78-85de-839bd5582114","ios":"levelo://app?vid=1e1f878c-d2bd-4e78-85de-839bd5582114"},"vehicle_type_id":"4","last_reported":1727446121,"current_range_meters":14000,"station_id":"ce4bhpp2rcd13ifvqhgg","pricing_plan_id":"cebpf4jnsgd1na2vs0mg"},{"bike_id":"52e46f1b-fff8-4c24-8538-6490816223be","system_id":"levelo_inurba_marseille","lat":43.29604,"lon":5.38091,"is_reserved":false,"is_disabled":false,"rental_uris":{"android":"levelo://app?vid=52e46f1b-fff8-4c24-8538-6490816223be","ios":"levelo://app?vid=52e46f1b-fff8-4c24-8538-6490816223be"},"vehicle_type_id":"4","last_reported":1727446121,"current_range_meters":28800,"station_id":"ce4bgl12rcd13ifvqbo0","pricing_plan_id":"cebpf4jnsgd1na2vs0mg"},{"bike_id":"6311615c-c08c-4b14-acd6-5627261e50a6","system_id":"levelo_inurba_marseille","lat":43.27494,"lon":5.4245,"is_reserved":false,"is_disabled":false,"rental_uris":{"android":"levelo://app?vid=6311615c-c08c-4b14-acd6-5627261e50a6","ios":"levelo://app?vid=6311615c-c08c-4b14-acd6-5627261e50a6"},"vehicle_type_id":"4","last_reported":1727446121,"current_range_meters":37600,"station_id":"ce4bhn92rcd13ifvqgrg","pricing_plan_id":"cebpf4jnsgd1na2vs0mg"},{"bike_id":"46b12b4f-8711-47fa-ad52-ef7033706d18","system_id":"levelo_inurba_marseille","lat":43.30598,"lon":5.37232,"is_reserved":false,"is_disabled":false,"rental_uris":{"android":"levelo://app?vid=46b12b4f-8711-47fa-ad52-ef7033706d18","ios":"levelo://app?vid=46b12b4f-8711-47fa-ad52-ef7033706d18"},"vehicle_type_id":"4","last_reported":1727446121,"current_range_meters":8400,"station_id":"ce4bgqh2rcd13ifvqc4g","pricing_plan_id":"cebpf4jnsgd1na2vs0mg"},{"bike_id":"d444b421-0284-4e9f-a1bd-2c1683ea00b4","system_id":"levelo_inurba_marseille","lat":43.27944,"lon":5.41044,"is_reserved":false,"is_disabled":false,"rental_uris":{"android":"levelo://app?vid=d444b421-0284-4e9f-a1bd-2c1683ea00b4","ios":"levelo://app?vid=d444b421-0284-4e9f-a1bd-2c1683ea00b4"},"vehicle_type_id":"4","last_reported":1727446121,"current_range_meters":31200,"station_id":"ce4bhnp2rcd13ifvqh0g","pricing_plan_id":"cebpf4jnsgd1na2vs0mg"},{"bike_id":"8f7d2940-3567-425b-9e70-68ab651d8508","system_id":"levelo_inurba_marseille","lat":43.32659,"lon":5.40986,"is_reserved":false,"is_disabled":false,"rental_uris":{"android":"levelo://app?vid=8f7d2940-3567-425b-9e70-68ab651d8508","ios":"levelo://app?vid=8f7d2940-3567-425b-9e70-68ab651d8508"},"vehicle_type_id":"4","last_reported":1727446121,"current_range_meters":16000,"station_id":"ce4bhpp2rcd13ifvqhgg","pricing_plan_id":"cebpf4jnsgd1na2vs0mg"},{"bike_id":"5eba6bc6-2c47-4110-a3bb-27a521e37ead","system_id":"levelo_inurba_marseille","lat":43.29849,"lon":5.36277,"is_reserved":false,"is_disabled":false,"rental_uris":{"android":"levelo://app?vid=5eba6bc6-2c47-4110-a3bb-27a521e37ead","ios":"levelo://app?vid=5eba6bc6-2c47-4110-a3bb-27a521e37ead"},"vehicle_type_id":"4","last_reported":1727446121,"current_range_meters":38800,"station_id":"ce4bgpp2rcd13ifvqc3g","pricing_plan_id":"cebpf4jnsgd1na2vs0mg"},{"bike_id":"bea626b5-1e53-403e-9dff-d763f78f3d86","system_id":"levelo_inurba_marseille","lat":43.30795,"lon":5.37644,"is_reserved":false,"is_disabled":false,"rental_uris":{"android":"levelo://app?vid=bea626b5-1e53-403e-9dff-d763f78f3d86","ios":"levelo://app?vid=bea626b5-1e53-403e-9dff-d763f78f3d86"},"vehicle_type_id":"4","last_reported":1727446121,"current_range_meters":39200,"station_id":"ce4bgv92rcd13ifvqcq0","pricing_plan_id":"cebpf4jnsgd1na2vs0mg"},{"bike_id":"eaff5abd-d4ea-46e6-86b8-478167451cb7","system_id":"levelo_inurba_marseille","lat":43.33739,"lon":5.37468,"is_reserved":false,"is_disabled":false,"rental_uris":{"android":"levelo://app?vid=eaff5abd-d4ea-46e6-86b8-478167451cb7","ios":"levelo://app?vid=eaff5abd-d4ea-46e6-86b8-478167451cb7"},"vehicle_type_id":"4","last_reported":1727446121,"current_range_meters":28800,"station_id":"","pricing_plan_id":"cebpf4jnsgd1na2vs0mg"},{"bike_id":"82d77479-5fc1-47c0-ab9f-213fba601421","system_id":"levelo_inurba_marseille","lat":43.24807,"lon":5.37457,"is_reserved":false,"is_disabled":false,"rental_uris":{"android":"levelo://app?vid=82d77479-5fc1-47c0-ab9f-213fba601421","ios":"levelo://app?vid=82d77479-5fc1-47c0-ab9f-213fba601421"},"vehicle_type_id":"4","last_reported":1727446121,"current_range_meters":28000,"station_id":"ce4bhgh2rcd13ifvqfb0","pricing_plan_id":"cebpf4jnsgd1na2vs0mg"},{"bike_id":"1144f86b-c19e-4c5e-b85b-4fd5414a0afb","system_id":"levelo_inurba_marseille","lat":43.26792,"lon":5.39408,"is_reserved":false,"is_disabled":false,"rental_uris":{"android":"levelo://app?vid=1144f86b-c19e-4c5e-b85b-4fd5414a0afb","ios":"levelo://app?vid=1144f86b-c19e-4c5e-b85b-4fd5414a0afb"},"vehicle_type_id":"4","last_reported":1727446121,"current_range_meters":33200,"station_id":"ce4bhh12rcd13ifvqfg0","pricing_plan_id":"cebpf4jnsgd1na2vs0mg"},{"bike_id":"7fd590a1-bbb2-4edd-8c0c-ea886eb47164","system_id":"levelo_inurba_marseille","lat":43.26942,"lon":5.40257,"is_reserved":false,"is_disabled":false,"rental_uris":{"android":"levelo://app?vid=7fd590a1-bbb2-4edd-8c0c-ea886eb47164","ios":"levelo://app?vid=7fd590a1-bbb2-4edd-8c0c-ea886eb47164"},"vehicle_type_id":"4","last_reported":1727446121,"current_range_meters":36400,"station_id":"cjm6bp8fraef2m0cb0m0","pricing_plan_id":"cebpf4jnsgd1na2vs0mg"},{"bike_id":"7ec83e92-471a-498a-a260-ee013635f507","system_id":"levelo_inurba_marseille","lat":43.2953,"lon":5.37504,"is_reserved":false,"is_disabled":false,"rental_uris":{"android":"levelo://app?vid=7ec83e92-471a-498a-a260-ee013635f507","ios":"levelo://app?vid=7ec83e92-471a-498a-a260-ee013635f507"},"vehicle_type_id":"4","last_reported":1727446121,"current_range_meters":24800,"station_id":"ce4bgkp2rcd13ifvqbmg","pricing_plan_id":"cebpf4jnsgd1na2vs0mg"},{"bike_id":"6721a625-25cc-4ab9-947c-559a79e353af","system_id":"levelo_inurba_marseille","lat":43.29223,"lon":5.36068,"is_reserved":false,"is_disabled":false,"rental_uris":{"android":"levelo://app?vid=6721a625-25cc-4ab9-947c-559a79e353af","ios":"levelo://app?vid=6721a625-25cc-4ab9-947c-559a79e353af"},"vehicle_type_id":"4","last_reported":1727446121,"current_range_meters":38800,"station_id":"ce4bhbh2rcd13ifvqeqg","pricing_plan_id":"cebpf4jnsgd1na2vs0mg"},{"bike_id":"e106f456-7434-4ba1-961c-63fdbe09f3f6","system_id":"levelo_inurba_marseille","lat":43.28916,"lon":5.38384,"is_reserved":false,"is_disabled":false,"rental_uris":{"android":"levelo://app?vid=e106f456-7434-4ba1-961c-63fdbe09f3f6","ios":"levelo://app?vid=e106f456-7434-4ba1-961c-63fdbe09f3f6"},"vehicle_type_id":"4","last_reported":1727446121,"current_range_meters":33600,"station_id":"ce4bh612rcd13ifvqe6g","pricing_plan_id":"cebpf4jnsgd1na2vs0mg"},{"bike_id":"d8697a4f-62ba-494e-84da-9d8b15dcfbbf","system_id":"levelo_inurba_marseille","lat":43.2481,"lon":5.37457,"is_reserved":false,"is_disabled":false,"rental_uris":{"android":"levelo://app?vid=d8697a4f-62ba-494e-84da-9d8b15dcfbbf","ios":"levelo://app?vid=d8697a4f-62ba-494e-84da-9d8b15dcfbbf"},"vehicle_type_id":"4","last_reported":1727446121,"current_range_meters":22400,"station_id":"ce4bhgh2rcd13ifvqfb0","pricing_plan_id":"cebpf4jnsgd1na2vs0mg"},{"bike_id":"df195df3-bbc0-458a-ae13-a6cf7968c4b0","system_id":"levelo_inurba_marseille","lat":43.23959,"lon":5.36613,"is_reserved":false,"is_disabled":false,"rental_uris":{"android":"levelo://app?vid=df195df3-bbc0-458a-ae13-a6cf7968c4b0","ios":"levelo://app?vid=df195df3-bbc0-458a-ae13-a6cf7968c4b0"},"vehicle_type_id":"4","last_reported":1727446121,"current_range_meters":3200,"station_id":"ce4bhi12rcd13ifvqfp0","pricing_plan_id":"cebpf4jnsgd1na2vs0mg"},{"bike_id":"0ce8a7e2-5d9b-47cf-ab83-9db6a32288e7","system_id":"levelo_inurba_marseille","lat":43.28847,"lon":5.3585,"is_reserved":false,"is_disabled":false,"rental_uris":{"android":"levelo://app?vid=0ce8a7e2-5d9b-47cf-ab83-9db6a32288e7","ios":"levelo://app?vid=0ce8a7e2-5d9b-47cf-ab83-9db6a32288e7"},"vehicle_type_id":"4","last_reported":1727446121,"current_range_meters":6400,"station_id":"ce4bhb12rcd13ifvqem0","pricing_plan_id":"cebpf4jnsgd1na2vs0mg"},{"bike_id":"5bf413b7-486b-4514-a2c3-0c44300964c0","system_id":"levelo_inurba_marseille","lat":43.32002,"lon":5.38155,"is_reserved":false,"is_disabled":false,"rental_uris":{"android":"levelo://app?vid=5bf413b7-486b-4514-a2c3-0c44300964c0","ios":"levelo://app?vid=5bf413b7-486b-4514-a2c3-0c44300964c0"},"vehicle_type_id":"4","last_reported":1727446121,"current_range_meters":35200,"station_id":"ce4bhr12rcd13ifvqhpg","pricing_plan_id":"cebpf4jnsgd1na2vs0mg"},{"bike_id":"41a2ca65-2a9f-4030-ac5f-14825ec5006a","system_id":"levelo_inurba_marseille","lat":43.33747,"lon":5.37444,"is_reserved":false,"is_disabled":false,"rental_uris":{"android":"levelo://app?vid=41a2ca65-2a9f-4030-ac5f-14825ec5006a","ios":"levelo://app?vid=41a2ca65-2a9f-4030-ac5f-14825ec5006a"},"vehicle_type_id":"4","last_reported":1727446121,"current_range_meters":36000,"station_id":"","pricing_plan_id":"cebpf4jnsgd1na2vs0mg"},{"bike_id":"36b937e4-602f-4291-beb0-30f79723fb4b","system_id":"levelo_inurba_marseille","lat":43.29843,"lon":5.36263,"is_reserved":false,"is_disabled":false,"rental_uris":{"android":"levelo://app?vid=36b937e4-602f-4291-beb0-30f79723fb4b","ios":"levelo://app?vid=36b937e4-602f-4291-beb0-30f79723fb4b"},"vehicle_type_id":"4","last_reported":1727446121,"current_range_meters":28000,"station_id":"ce4bgpp2rcd13ifvqc3g","pricing_plan_id":"cebpf4jnsgd1na2vs0mg"},{"bike_id":"69486961-0aca-4045-8a20-db82fcaa80d3","system_id":"levelo_inurba_marseille","lat":43.28461,"lon":5.35883,"is_reserved":false,"is_disabled":false,"rental_uris":{"android":"levelo://app?vid=69486961-0aca-4045-8a20-db82fcaa80d3","ios":"levelo://app?vid=69486961-0aca-4045-8a20-db82fcaa80d3"},"vehicle_type_id":"4","last_reported":1727446121,"current_range_meters":17600,"station_id":"ce4bhah2rcd13ifvqei0","pricing_plan_id":"cebpf4jnsgd1na2vs0mg"},{"bike_id":"f7e64263-dd57-495d-a020-06244cd5c3d5","system_id":"levelo_inurba_marseille","lat":43.33775,"lon":5.37441,"is_reserved":false,"is_disabled":false,"rental_uris":{"android":"levelo://app?vid=f7e64263-dd57-495d-a020-06244cd5c3d5","ios":"levelo://app?vid=f7e64263-dd57-495d-a020-06244cd5c3d5"},"vehicle_type_id":"4","last_reported":1727446121,"current_range_meters":2800,"station_id":"","pricing_plan_id":"cebpf4jnsgd1na2vs0mg"},{"bike_id":"925f3523-b108-4561-b8d7-2b6b151a3a09","system_id":"levelo_inurba_marseille","lat":43.31723,"lon":5.42393,"is_reserved":false,"is_disabled":false,"rental_uris":{"android":"levelo://app?vid=925f3523-b108-4561-b8d7-2b6b151a3a09","ios":"levelo://app?vid=925f3523-b108-4561-b8d7-2b6b151a3a09"},"vehicle_type_id":"4","last_reported":1727446121,"current_range_meters":32400,"station_id":"ce4bhp92rcd13ifvqhbg","pricing_plan_id":"cebpf4jnsgd1na2vs0mg"},{"bike_id":"4765e85c-0189-42cf-ab42-5637d8cc8d66","system_id":"levelo_inurba_marseille","lat":43.28418,"lon":5.34967,"is_reserved":false,"is_disabled":false,"rental_uris":{"android":"levelo://app?vid=4765e85c-0189-42cf-ab42-5637d8cc8d66","ios":"levelo://app?vid=4765e85c-0189-42cf-ab42-5637d8cc8d66"},"vehicle_type_id":"4","last_reported":1727446121,"current_range_meters":38800,"station_id":"ce4bhbh2rcd13ifvqepg","pricing_plan_id":"cebpf4jnsgd1na2vs0mg"},{"bike_id":"ee1d827b-b072-4d5f-b92e-9bafc45e801d","system_id":"levelo_inurba_marseille","lat":43.26198,"lon":5.37932,"is_reserved":false,"is_disabled":false,"rental_uris":{"android":"levelo://app?vid=ee1d827b-b072-4d5f-b92e-9bafc45e801d","ios":"levelo://app?vid=ee1d827b-b072-4d5f-b92e-9bafc45e801d"},"vehicle_type_id":"4","last_reported":1727446121,"current_range_meters":27200,"station_id":"ce4bhjp2rcd13ifvqg90","pricing_plan_id":"cebpf4jnsgd1na2vs0mg"},{"bike_id":"5630fdcf-666f-4470-b0f0-cbee7764988e","system_id":"levelo_inurba_marseille","lat":43.28925,"lon":5.38381,"is_reserved":false,"is_disabled":false,"rental_uris":{"android":"levelo://app?vid=5630fdcf-666f-4470-b0f0-cbee7764988e","ios":"levelo://app?vid=5630fdcf-666f-4470-b0f0-cbee7764988e"},"vehicle_type_id":"4","last_reported":1727446121,"current_range_meters":12000,"station_id":"ce4bh612rcd13ifvqe6g","pricing_plan_id":"cebpf4jnsgd1na2vs0mg"},{"bike_id":"98bc40f3-d581-4aea-99ff-5523d2b955e3","system_id":"levelo_inurba_marseille","lat":43.29791,"lon":5.37098,"is_reserved":false,"is_disabled":false,"rental_uris":{"android":"levelo://app?vid=98bc40f3-d581-4aea-99ff-5523d2b955e3","ios":"levelo://app?vid=98bc40f3-d581-4aea-99ff-5523d2b955e3"},"vehicle_type_id":"4","last_reported":1727446121,"current_range_meters":38800,"station_id":"ce4bgop2rcd13ifvqc1g","pricing_plan_id":"cebpf4jnsgd1na2vs0mg"},{"bike_id":"dfe0d90c-f8f9-4977-97a0-d6c3010c5071","system_id":"levelo_inurba_marseille","lat":43.26214,"lon":5.37437,"is_reserved":false,"is_disabled":false,"rental_uris":{"android":"levelo://app?vid=dfe0d90c-f8f9-4977-97a0-d6c3010c5071","ios":"levelo://app?vid=dfe0d90c-f8f9-4977-97a0-d6c3010c5071"},"vehicle_type_id":"4","last_reported":1727446121,"current_range_meters":9200,"station_id":"ce4bhgp2rcd13ifvqfc0","pricing_plan_id":"cebpf4jnsgd1na2vs0mg"},{"bike_id":"ce532c85-3e81-4b49-9199-919d7bda82e9","system_id":"levelo_inurba_marseille","lat":43.26028,"lon":5.37547,"is_reserved":false,"is_disabled":false,"rental_uris":{"android":"levelo://app?vid=ce532c85-3e81-4b49-9199-919d7bda82e9","ios":"levelo://app?vid=ce532c85-3e81-4b49-9199-919d7bda82e9"},"vehicle_type_id":"4","last_reported":1727446121,"current_range_meters":27600,"station_id":"ce4bhgh2rcd13ifvqfa0","pricing_plan_id":"cebpf4jnsgd1na2vs0mg"},{"bike_id":"5e20d158-bea3-40bd-8897-92a540cd5ccc","system_id":"levelo_inurba_marseille","lat":43.23195,"lon":5.35546,"is_reserved":false,"is_disabled":false,"rental_uris":{"android":"levelo://app?vid=5e20d158-bea3-40bd-8897-92a540cd5ccc","ios":"levelo://app?vid=5e20d158-bea3-40bd-8897-92a540cd5ccc"},"vehicle_type_id":"4","last_reported":1727446121,"current_range_meters":28000,"station_id":"ce4bhu92rcd13ifvqi70","pricing_plan_id":"cebpf4jnsgd1na2vs0mg"},{"bike_id":"40f876c2-0ea1-4fd6-9a43-261de586a225","system_id":"levelo_inurba_marseille","lat":43.29631,"lon":5.37149,"is_reserved":false,"is_disabled":false,"rental_uris":{"android":"levelo://app?vid=40f876c2-0ea1-4fd6-9a43-261de586a225","ios":"levelo://app?vid=40f876c2-0ea1-4fd6-9a43-261de586a225"},"vehicle_type_id":"4","last_reported":1727446121,"current_range_meters":27600,"station_id":"ce4bgnh2rcd13ifvqc0g","pricing_plan_id":"cebpf4jnsgd1na2vs0mg"},{"bike_id":"6b57aa8e-d7f2-41a0-a878-85235bbfe481","system_id":"levelo_inurba_marseille","lat":43.27379,"lon":5.36253,"is_reserved":false,"is_disabled":false,"rental_uris":{"android":"levelo://app?vid=6b57aa8e-d7f2-41a0-a878-85235bbfe481","ios":"levelo://app?vid=6b57aa8e-d7f2-41a0-a878-85235bbfe481"},"vehicle_type_id":"4","last_reported":1727446121,"current_range_meters":10000,"station_id":"ce4bhbh2rcd13ifvqeo0","pricing_plan_id":"cebpf4jnsgd1na2vs0mg"},{"bike_id":"1a777850-0c11-4461-b4eb-36846f4d8e78","system_id":"levelo_inurba_marseille","lat":43.31168,"lon":5.38716,"is_reserved":false,"is_disabled":false,"rental_uris":{"android":"levelo://app?vid=1a777850-0c11-4461-b4eb-36846f4d8e78","ios":"levelo://app?vid=1a777850-0c11-4461-b4eb-36846f4d8e78"},"vehicle_type_id":"4","last_reported":1727446121,"current_range_meters":19200,"station_id":"ce4bgv12rcd13ifvqcp0","pricing_plan_id":"cebpf4jnsgd1na2vs0mg"},{"bike_id":"4749f597-e42c-4da5-b3d8-6fbe925d9e8c","system_id":"levelo_inurba_marseille","lat":43.3199,"lon":5.38148,"is_reserved":false,"is_disabled":false,"rental_uris":{"android":"levelo://app?vid=4749f597-e42c-4da5-b3d8-6fbe925d9e8c","ios":"levelo://app?vid=4749f597-e42c-4da5-b3d8-6fbe925d9e8c"},"vehicle_type_id":"4","last_reported":1727446121,"current_range_meters":39200,"station_id":"ce4bhr12rcd13ifvqhpg","pricing_plan_id":"cebpf4jnsgd1na2vs0mg"},{"bike_id":"4e55c7e1-ef31-44c5-af82-a82ee734f2bb","system_id":"levelo_inurba_marseille","lat":43.28432,"lon":5.39201,"is_reserved":false,"is_disabled":false,"rental_uris":{"android":"levelo://app?vid=4e55c7e1-ef31-44c5-af82-a82ee734f2bb","ios":"levelo://app?vid=4e55c7e1-ef31-44c5-af82-a82ee734f2bb"},"vehicle_type_id":"4","last_reported":1727446121,"current_range_meters":16800,"station_id":"ce4bhoh2rcd13ifvqh5g","pricing_plan_id":"cebpf4jnsgd1na2vs0mg"},{"bike_id":"fd503a45-bcbc-498b-8063-6a590e7be839","system_id":"levelo_inurba_marseille","lat":43.30466,"lon":5.37901,"is_reserved":false,"is_disabled":false,"rental_uris":{"android":"levelo://app?vid=fd503a45-bcbc-498b-8063-6a590e7be839","ios":"levelo://app?vid=fd503a45-bcbc-498b-8063-6a590e7be839"},"vehicle_type_id":"4","last_reported":1727446121,"current_range_meters":22400,"station_id":"ce4bgup2rcd13ifvqcn0","pricing_plan_id":"cebpf4jnsgd1na2vs0mg"},{"bike_id":"8b306f2d-4e3c-4ad6-b5c6-c38955a25e00","system_id":"levelo_inurba_marseille","lat":43.26557,"lon":5.37283,"is_reserved":false,"is_disabled":false,"rental_uris":{"android":"levelo://app?vid=8b306f2d-4e3c-4ad6-b5c6-c38955a25e00","ios":"levelo://app?vid=8b306f2d-4e3c-4ad6-b5c6-c38955a25e00"},"vehicle_type_id":"4","last_reported":1727446121,"current_range_meters":11600,"station_id":"ce4bhg12rcd13ifvqf70","pricing_plan_id":"cebpf4jnsgd1na2vs0mg"},{"bike_id":"0ff38679-ea37-447e-a818-3fe4e9db7d83","system_id":"levelo_inurba_marseille","lat":43.31864,"lon":5.42892,"is_reserved":false,"is_disabled":false,"rental_uris":{"android":"levelo://app?vid=0ff38679-ea37-447e-a818-3fe4e9db7d83","ios":"levelo://app?vid=0ff38679-ea37-447e-a818-3fe4e9db7d83"},"vehicle_type_id":"4","last_reported":1727446121,"current_range_meters":19600,"station_id":"ce4bhp92rcd13ifvqhcg","pricing_plan_id":"cebpf4jnsgd1na2vs0mg"},{"bike_id":"202d0f96-9b89-45a2-b019-3507273a30d5","system_id":"levelo_inurba_marseille","lat":43.23188,"lon":5.39992,"is_reserved":false,"is_disabled":false,"rental_uris":{"android":"levelo://app?vid=202d0f96-9b89-45a2-b019-3507273a30d5","ios":"levelo://app?vid=202d0f96-9b89-45a2-b019-3507273a30d5"},"vehicle_type_id":"4","last_reported":1727446121,"current_range_meters":6400,"station_id":"ce4bhn12rcd13ifvqgqg","pricing_plan_id":"cebpf4jnsgd1na2vs0mg"},{"bike_id":"04ae3121-02c5-4001-bc92-81871e5c37a5","system_id":"levelo_inurba_marseille","lat":43.23969,"lon":5.36633,"is_reserved":false,"is_disabled":false,"rental_uris":{"android":"levelo://app?vid=04ae3121-02c5-4001-bc92-81871e5c37a5","ios":"levelo://app?vid=04ae3121-02c5-4001-bc92-81871e5c37a5"},"vehicle_type_id":"4","last_reported":1727446121,"current_range_meters":30400,"station_id":"ce4bhi12rcd13ifvqfp0","pricing_plan_id":"cebpf4jnsgd1na2vs0mg"},{"bike_id":"c4ea8be3-cc4d-4ccd-a28b-dd7f7b9007d1","system_id":"levelo_inurba_marseille","lat":43.31686,"lon":5.404725,"is_reserved":false,"is_disabled":false,"rental_uris":{"android":"levelo://app?vid=c4ea8be3-cc4d-4ccd-a28b-dd7f7b9007d1","ios":"levelo://app?vid=c4ea8be3-cc4d-4ccd-a28b-dd7f7b9007d1"},"vehicle_type_id":"4","last_reported":1727446121,"current_range_meters":9200,"station_id":"ce4bh012rcd13ifvqd00","pricing_plan_id":"cebpf4jnsgd1na2vs0mg"},{"bike_id":"a3f0d2b8-11f2-4dcf-9569-2e85bdfd554d","system_id":"levelo_inurba_marseille","lat":43.282712,"lon":5.350501,"is_reserved":false,"is_disabled":false,"rental_uris":{"android":"levelo://app?vid=a3f0d2b8-11f2-4dcf-9569-2e85bdfd554d","ios":"levelo://app?vid=a3f0d2b8-11f2-4dcf-9569-2e85bdfd554d"},"vehicle_type_id":"4","last_reported":1727446121,"current_range_meters":38800,"station_id":"ce4bhbp2rcd13ifvqerg","pricing_plan_id":"cebpf4jnsgd1na2vs0mg"},{"bike_id":"48fdbc21-1a8a-415b-9f42-61026d8303c5","system_id":"levelo_inurba_marseille","lat":43.28439,"lon":5.38461,"is_reserved":false,"is_disabled":false,"rental_uris":{"android":"levelo://app?vid=48fdbc21-1a8a-415b-9f42-61026d8303c5","ios":"levelo://app?vid=48fdbc21-1a8a-415b-9f42-61026d8303c5"},"vehicle_type_id":"4","last_reported":1727446121,"current_range_meters":11600,"station_id":"ce4bh512rcd13ifvqe3g","pricing_plan_id":"cebpf4jnsgd1na2vs0mg"},{"bike_id":"1926ecb3-351f-45fd-af40-afbf66771ed1","system_id":"levelo_inurba_marseille","lat":43.28849,"lon":5.35848,"is_reserved":false,"is_disabled":false,"rental_uris":{"android":"levelo://app?vid=1926ecb3-351f-45fd-af40-afbf66771ed1","ios":"levelo://app?vid=1926ecb3-351f-45fd-af40-afbf66771ed1"},"vehicle_type_id":"4","last_reported":1727446121,"current_range_meters":18800,"station_id":"ce4bhb12rcd13ifvqem0","pricing_plan_id":"cebpf4jnsgd1na2vs0mg"},{"bike_id":"74a91e12-c903-45cc-9391-c9e93e5f12f8","system_id":"levelo_inurba_marseille","lat":43.23158,"lon":5.43696,"is_reserved":false,"is_disabled":false,"rental_uris":{"android":"levelo://app?vid=74a91e12-c903-45cc-9391-c9e93e5f12f8","ios":"levelo://app?vid=74a91e12-c903-45cc-9391-c9e93e5f12f8"},"vehicle_type_id":"4","last_reported":1727446121,"current_range_meters":6400,"station_id":"ce4bhmp2rcd13ifvqgog","pricing_plan_id":"cebpf4jnsgd1na2vs0mg"},{"bike_id":"0245680a-18ab-4fc9-92d5-a1d5b76bbd81","system_id":"levelo_inurba_marseille","lat":43.29872,"lon":5.39731,"is_reserved":false,"is_disabled":false,"rental_uris":{"android":"levelo://app?vid=0245680a-18ab-4fc9-92d5-a1d5b76bbd81","ios":"levelo://app?vid=0245680a-18ab-4fc9-92d5-a1d5b76bbd81"},"vehicle_type_id":"4","last_reported":1727446121,"current_range_meters":38000,"station_id":"ce4bh0h2rcd13ifvqd50","pricing_plan_id":"cebpf4jnsgd1na2vs0mg"},{"bike_id":"52bbfc2d-b7e4-4ba5-99b7-022961b4ee60","system_id":"levelo_inurba_marseille","lat":43.29041,"lon":5.35902,"is_reserved":false,"is_disabled":false,"rental_uris":{"android":"levelo://app?vid=52bbfc2d-b7e4-4ba5-99b7-022961b4ee60","ios":"levelo://app?vid=52bbfc2d-b7e4-4ba5-99b7-022961b4ee60"},"vehicle_type_id":"4","last_reported":1727446121,"current_range_meters":34000,"station_id":"ce4bha92rcd13ifvqeg0","pricing_plan_id":"cebpf4jnsgd1na2vs0mg"},{"bike_id":"080829d2-2bc7-4e97-a3bd-49b7d747d19a","system_id":"levelo_inurba_marseille","lat":43.29192,"lon":5.35794,"is_reserved":false,"is_disabled":false,"rental_uris":{"android":"levelo://app?vid=080829d2-2bc7-4e97-a3bd-49b7d747d19a","ios":"levelo://app?vid=080829d2-2bc7-4e97-a3bd-49b7d747d19a"},"vehicle_type_id":"4","last_reported":1727446121,"current_range_meters":16000,"station_id":"ce4bhb12rcd13ifvqel0","pricing_plan_id":"cebpf4jnsgd1na2vs0mg"},{"bike_id":"15571659-d5da-488d-b3be-bf88d03e8628","system_id":"levelo_inurba_marseille","lat":43.33752,"lon":5.37459,"is_reserved":false,"is_disabled":false,"rental_uris":{"android":"levelo://app?vid=15571659-d5da-488d-b3be-bf88d03e8628","ios":"levelo://app?vid=15571659-d5da-488d-b3be-bf88d03e8628"},"vehicle_type_id":"4","last_reported":1727446121,"current_range_meters":25200,"station_id":"","pricing_plan_id":"cebpf4jnsgd1na2vs0mg"},{"bike_id":"b3917098-5f32-41a4-869e-b4aacfb73554","system_id":"levelo_inurba_marseille","lat":43.30152,"lon":5.38084,"is_reserved":false,"is_disabled":false,"rental_uris":{"android":"levelo://app?vid=b3917098-5f32-41a4-869e-b4aacfb73554","ios":"levelo://app?vid=b3917098-5f32-41a4-869e-b4aacfb73554"},"vehicle_type_id":"4","last_reported":1727446121,"current_range_meters":24000,"station_id":"ce4bgjp2rcd13ifvqbh0","pricing_plan_id":"cebpf4jnsgd1na2vs0mg"},{"bike_id":"5dabb407-f060-4342-8ceb-c5755de887b1","system_id":"levelo_inurba_marseille","lat":43.29808,"lon":5.38109,"is_reserved":false,"is_disabled":false,"rental_uris":{"android":"levelo://app?vid=5dabb407-f060-4342-8ceb-c5755de887b1","ios":"levelo://app?vid=5dabb407-f060-4342-8ceb-c5755de887b1"},"vehicle_type_id":"4","last_reported":1727446121,"current_range_meters":28400,"station_id":"ce4bgip2rcd13ifvqbb0","pricing_plan_id":"cebpf4jnsgd1na2vs0mg"},{"bike_id":"2a0d1acf-c3be-4bf9-823a-101e9d83e939","system_id":"levelo_inurba_marseille","lat":43.22927,"lon":5.35378,"is_reserved":false,"is_disabled":false,"rental_uris":{"android":"levelo://app?vid=2a0d1acf-c3be-4bf9-823a-101e9d83e939","ios":"levelo://app?vid=2a0d1acf-c3be-4bf9-823a-101e9d83e939"},"vehicle_type_id":"4","last_reported":1727446121,"current_range_meters":10000,"station_id":"cpo3532slgdg3j2ikp40","pricing_plan_id":"cebpf4jnsgd1na2vs0mg"},{"bike_id":"3cbd69eb-ed19-4613-b704-5da33f1f683f","system_id":"levelo_inurba_marseille","lat":43.30242,"lon":5.40057,"is_reserved":false,"is_disabled":false,"rental_uris":{"android":"levelo://app?vid=3cbd69eb-ed19-4613-b704-5da33f1f683f","ios":"levelo://app?vid=3cbd69eb-ed19-4613-b704-5da33f1f683f"},"vehicle_type_id":"4","last_reported":1727446121,"current_range_meters":20800,"station_id":"ce4bgvh2rcd13ifvqcs0","pricing_plan_id":"cebpf4jnsgd1na2vs0mg"},{"bike_id":"1c5da6d9-ccf7-4606-8ae6-176a4c150448","system_id":"levelo_inurba_marseille","lat":43.29982,"lon":5.37172,"is_reserved":false,"is_disabled":false,"rental_uris":{"android":"levelo://app?vid=1c5da6d9-ccf7-4606-8ae6-176a4c150448","ios":"levelo://app?vid=1c5da6d9-ccf7-4606-8ae6-176a4c150448"},"vehicle_type_id":"4","last_reported":1727446121,"current_range_meters":8400,"station_id":"ce4bgr92rcd13ifvqc7g","pricing_plan_id":"cebpf4jnsgd1na2vs0mg"},{"bike_id":"e279795d-e0fe-4e23-bf6d-7e56e9a00621","system_id":"levelo_inurba_marseille","lat":43.30152,"lon":5.38082,"is_reserved":false,"is_disabled":false,"rental_uris":{"android":"levelo://app?vid=e279795d-e0fe-4e23-bf6d-7e56e9a00621","ios":"levelo://app?vid=e279795d-e0fe-4e23-bf6d-7e56e9a00621"},"vehicle_type_id":"4","last_reported":1727446121,"current_range_meters":24400,"station_id":"ce4bgjp2rcd13ifvqbh0","pricing_plan_id":"cebpf4jnsgd1na2vs0mg"},{"bike_id":"d91fe40d-e5f8-4b5c-a1c0-d151dfc4039a","system_id":"levelo_inurba_marseille","lat":43.23153,"lon":5.43702,"is_reserved":false,"is_disabled":false,"rental_uris":{"android":"levelo://app?vid=d91fe40d-e5f8-4b5c-a1c0-d151dfc4039a","ios":"levelo://app?vid=d91fe40d-e5f8-4b5c-a1c0-d151dfc4039a"},"vehicle_type_id":"4","last_reported":1727446121,"current_range_meters":16400,"station_id":"ce4bhmp2rcd13ifvqgog","pricing_plan_id":"cebpf4jnsgd1na2vs0mg"},{"bike_id":"311d3c45-027a-4a13-bf2e-7cc342bf9772","system_id":"levelo_inurba_marseille","lat":43.24546,"lon":5.39517,"is_reserved":false,"is_disabled":false,"rental_uris":{"android":"levelo://app?vid=311d3c45-027a-4a13-bf2e-7cc342bf9772","ios":"levelo://app?vid=311d3c45-027a-4a13-bf2e-7cc342bf9772"},"vehicle_type_id":"4","last_reported":1727446121,"current_range_meters":24000,"station_id":"ce4bhlp2rcd13ifvqgjg","pricing_plan_id":"cebpf4jnsgd1na2vs0mg"},{"bike_id":"1920b3bd-caf9-4ba1-857a-c26cf03141b9","system_id":"levelo_inurba_marseille","lat":43.29934,"lon":5.36532,"is_reserved":false,"is_disabled":false,"rental_uris":{"android":"levelo://app?vid=1920b3bd-caf9-4ba1-857a-c26cf03141b9","ios":"levelo://app?vid=1920b3bd-caf9-4ba1-857a-c26cf03141b9"},"vehicle_type_id":"4","last_reported":1727446121,"current_range_meters":30000,"station_id":"ce4bgm92rcd13ifvqbr0","pricing_plan_id":"cebpf4jnsgd1na2vs0mg"},{"bike_id":"4999feb8-2ff5-4b50-976e-415f9925ce60","system_id":"levelo_inurba_marseille","lat":43.30798,"lon":5.38141,"is_reserved":false,"is_disabled":false,"rental_uris":{"android":"levelo://app?vid=4999feb8-2ff5-4b50-976e-415f9925ce60","ios":"levelo://app?vid=4999feb8-2ff5-4b50-976e-415f9925ce60"},"vehicle_type_id":"4","last_reported":1727446121,"current_range_meters":12800,"station_id":"ce4bgt12rcd13ifvqce0","pricing_plan_id":"cebpf4jnsgd1na2vs0mg"},{"bike_id":"027f9b52-664c-4cf2-bd21-af70ad56c49c","system_id":"levelo_inurba_marseille","lat":43.29191,"lon":5.35795,"is_reserved":false,"is_disabled":false,"rental_uris":{"android":"levelo://app?vid=027f9b52-664c-4cf2-bd21-af70ad56c49c","ios":"levelo://app?vid=027f9b52-664c-4cf2-bd21-af70ad56c49c"},"vehicle_type_id":"4","last_reported":1727446121,"current_range_meters":38000,"station_id":"ce4bhb12rcd13ifvqel0","pricing_plan_id":"cebpf4jnsgd1na2vs0mg"},{"bike_id":"62366d2f-4870-4799-a328-c4b5024dfdab","system_id":"levelo_inurba_marseille","lat":43.29007,"lon":5.35603,"is_reserved":false,"is_disabled":false,"rental_uris":{"android":"levelo://app?vid=62366d2f-4870-4799-a328-c4b5024dfdab","ios":"levelo://app?vid=62366d2f-4870-4799-a328-c4b5024dfdab"},"vehicle_type_id":"4","last_reported":1727446121,"current_range_meters":12000,"station_id":"ce4bhb92rcd13ifvqen0","pricing_plan_id":"cebpf4jnsgd1na2vs0mg"},{"bike_id":"1aeff45a-2a5c-4746-be15-e259f1f51176","system_id":"levelo_inurba_marseille","lat":43.266823,"lon":5.382683,"is_reserved":false,"is_disabled":false,"rental_uris":{"android":"levelo://app?vid=1aeff45a-2a5c-4746-be15-e259f1f51176","ios":"levelo://app?vid=1aeff45a-2a5c-4746-be15-e259f1f51176"},"vehicle_type_id":"4","last_reported":1727446121,"current_range_meters":8000,"station_id":"ce4bhg92rcd13ifvqf90","pricing_plan_id":"cebpf4jnsgd1na2vs0mg"},{"bike_id":"28514a14-20fd-4eb7-8ae6-ea8c070cc5de","system_id":"levelo_inurba_marseille","lat":43.29583,"lon":5.36728,"is_reserved":false,"is_disabled":false,"rental_uris":{"android":"levelo://app?vid=28514a14-20fd-4eb7-8ae6-ea8c070cc5de","ios":"levelo://app?vid=28514a14-20fd-4eb7-8ae6-ea8c070cc5de"},"vehicle_type_id":"4","last_reported":1727446121,"current_range_meters":11600,"station_id":"ce4bgph2rcd13ifvqc2g","pricing_plan_id":"cebpf4jnsgd1na2vs0mg"},{"bike_id":"e5825e2a-77e9-4abf-bde2-2036abe47d89","system_id":"levelo_inurba_marseille","lat":43.2694,"lon":5.40246,"is_reserved":false,"is_disabled":false,"rental_uris":{"android":"levelo://app?vid=e5825e2a-77e9-4abf-bde2-2036abe47d89","ios":"levelo://app?vid=e5825e2a-77e9-4abf-bde2-2036abe47d89"},"vehicle_type_id":"4","last_reported":1727446121,"current_range_meters":27600,"station_id":"cjm6bp8fraef2m0cb0m0","pricing_plan_id":"cebpf4jnsgd1na2vs0mg"},{"bike_id":"61411c48-7b72-48b0-9f88-9491fb9fae5f","system_id":"levelo_inurba_marseille","lat":43.27946,"lon":5.41047,"is_reserved":false,"is_disabled":false,"rental_uris":{"android":"levelo://app?vid=61411c48-7b72-48b0-9f88-9491fb9fae5f","ios":"levelo://app?vid=61411c48-7b72-48b0-9f88-9491fb9fae5f"},"vehicle_type_id":"4","last_reported":1727446121,"current_range_meters":30400,"station_id":"ce4bhnp2rcd13ifvqh0g","pricing_plan_id":"cebpf4jnsgd1na2vs0mg"},{"bike_id":"f15a99f2-6721-4698-a842-d36d9cfe7d43","system_id":"levelo_inurba_marseille","lat":43.31068,"lon":5.38357,"is_reserved":false,"is_disabled":false,"rental_uris":{"android":"levelo://app?vid=f15a99f2-6721-4698-a842-d36d9cfe7d43","ios":"levelo://app?vid=f15a99f2-6721-4698-a842-d36d9cfe7d43"},"vehicle_type_id":"4","last_reported":1727446121,"current_range_meters":22400,"station_id":"ce4bgv92rcd13ifvqcr0","pricing_plan_id":"cebpf4jnsgd1na2vs0mg"},{"bike_id":"8d7f4efa-c216-4130-aa15-6683d5fc3870","system_id":"levelo_inurba_marseille","lat":43.2319,"lon":5.35544,"is_reserved":false,"is_disabled":false,"rental_uris":{"android":"levelo://app?vid=8d7f4efa-c216-4130-aa15-6683d5fc3870","ios":"levelo://app?vid=8d7f4efa-c216-4130-aa15-6683d5fc3870"},"vehicle_type_id":"4","last_reported":1727446121,"current_range_meters":14800,"station_id":"ce4bhu92rcd13ifvqi70","pricing_plan_id":"cebpf4jnsgd1na2vs0mg"},{"bike_id":"0001ee84-c690-41e3-8e58-ecbc8d09e96a","system_id":"levelo_inurba_marseille","lat":43.2718,"lon":5.4099,"is_reserved":false,"is_disabled":false,"rental_uris":{"android":"levelo://app?vid=0001ee84-c690-41e3-8e58-ecbc8d09e96a","ios":"levelo://app?vid=0001ee84-c690-41e3-8e58-ecbc8d09e96a"},"vehicle_type_id":"4","last_reported":1727446121,"current_range_meters":39200,"station_id":"ce4bhl12rcd13ifvqgf0","pricing_plan_id":"cebpf4jnsgd1na2vs0mg"},{"bike_id":"e675d4da-e88d-4e11-acb7-63f244b613e3","system_id":"levelo_inurba_marseille","lat":43.27629,"lon":5.36109,"is_reserved":false,"is_disabled":false,"rental_uris":{"android":"levelo://app?vid=e675d4da-e88d-4e11-acb7-63f244b613e3","ios":"levelo://app?vid=e675d4da-e88d-4e11-acb7-63f244b613e3"},"vehicle_type_id":"4","last_reported":1727446121,"current_range_meters":39200,"station_id":"ce4bgj92rcd13ifvqbe0","pricing_plan_id":"cebpf4jnsgd1na2vs0mg"},{"bike_id":"14a098ea-8f2f-4557-adc5-336d5a96d6ab","system_id":"levelo_inurba_marseille","lat":43.29379,"lon":5.37844,"is_reserved":false,"is_disabled":false,"rental_uris":{"android":"levelo://app?vid=14a098ea-8f2f-4557-adc5-336d5a96d6ab","ios":"levelo://app?vid=14a098ea-8f2f-4557-adc5-336d5a96d6ab"},"vehicle_type_id":"4","last_reported":1727446121,"current_range_meters":7200,"station_id":"ce4bgjh2rcd13ifvqbf0","pricing_plan_id":"cebpf4jnsgd1na2vs0mg"},{"bike_id":"edb8a5c6-8701-4c78-b17d-408cb8d5b38d","system_id":"levelo_inurba_marseille","lat":43.2694,"lon":5.40266,"is_reserved":false,"is_disabled":false,"rental_uris":{"android":"levelo://app?vid=edb8a5c6-8701-4c78-b17d-408cb8d5b38d","ios":"levelo://app?vid=edb8a5c6-8701-4c78-b17d-408cb8d5b38d"},"vehicle_type_id":"4","last_reported":1727446121,"current_range_meters":22800,"station_id":"cjm6bp8fraef2m0cb0m0","pricing_plan_id":"cebpf4jnsgd1na2vs0mg"},{"bike_id":"7131ea41-54c7-4bf4-ad73-fcb1f71dfedb","system_id":"levelo_inurba_marseille","lat":43.28081,"lon":5.39661,"is_reserved":false,"is_disabled":false,"rental_uris":{"android":"levelo://app?vid=7131ea41-54c7-4bf4-ad73-fcb1f71dfedb","ios":"levelo://app?vid=7131ea41-54c7-4bf4-ad73-fcb1f71dfedb"},"vehicle_type_id":"4","last_reported":1727446121,"current_range_meters":18800,"station_id":"ce4bho12rcd13ifvqh2g","pricing_plan_id":"cebpf4jnsgd1na2vs0mg"},{"bike_id":"a93ed487-121d-4ead-9d6e-de68e81f444f","system_id":"levelo_inurba_marseille","lat":43.31993,"lon":5.38147,"is_reserved":false,"is_disabled":false,"rental_uris":{"android":"levelo://app?vid=a93ed487-121d-4ead-9d6e-de68e81f444f","ios":"levelo://app?vid=a93ed487-121d-4ead-9d6e-de68e81f444f"},"vehicle_type_id":"4","last_reported":1727446121,"current_range_meters":27200,"station_id":"ce4bhr12rcd13ifvqhpg","pricing_plan_id":"cebpf4jnsgd1na2vs0mg"},{"bike_id":"1372645c-30c0-4619-ace4-9d92b2e8b363","system_id":"levelo_inurba_marseille","lat":43.32486,"lon":5.36576,"is_reserved":false,"is_disabled":false,"rental_uris":{"android":"levelo://app?vid=1372645c-30c0-4619-ace4-9d92b2e8b363","ios":"levelo://app?vid=1372645c-30c0-4619-ace4-9d92b2e8b363"},"vehicle_type_id":"4","last_reported":1727446121,"current_range_meters":38800,"station_id":"ce4bhs12rcd13ifvqhvg","pricing_plan_id":"cebpf4jnsgd1na2vs0mg"},{"bike_id":"c9656059-b28e-4b64-b742-b3daf1e4b552","system_id":"levelo_inurba_marseille","lat":43.29002,"lon":5.37588,"is_reserved":false,"is_disabled":false,"rental_uris":{"android":"levelo://app?vid=c9656059-b28e-4b64-b742-b3daf1e4b552","ios":"levelo://app?vid=c9656059-b28e-4b64-b742-b3daf1e4b552"},"vehicle_type_id":"4","last_reported":1727446121,"current_range_meters":33200,"station_id":"ce4bh692rcd13ifvqe90","pricing_plan_id":"cebpf4jnsgd1na2vs0mg"},{"bike_id":"c2b26949-f466-4e45-a198-11ba878cbfe3","system_id":"levelo_inurba_marseille","lat":43.23186,"lon":5.39981,"is_reserved":false,"is_disabled":false,"rental_uris":{"android":"levelo://app?vid=c2b26949-f466-4e45-a198-11ba878cbfe3","ios":"levelo://app?vid=c2b26949-f466-4e45-a198-11ba878cbfe3"},"vehicle_type_id":"4","last_reported":1727446121,"current_range_meters":28800,"station_id":"ce4bhn12rcd13ifvqgqg","pricing_plan_id":"cebpf4jnsgd1na2vs0mg"},{"bike_id":"f56563fa-78ee-407f-a071-4b5f18b12886","system_id":"levelo_inurba_marseille","lat":43.28877,"lon":5.35966,"is_reserved":false,"is_disabled":false,"rental_uris":{"android":"levelo://app?vid=f56563fa-78ee-407f-a071-4b5f18b12886","ios":"levelo://app?vid=f56563fa-78ee-407f-a071-4b5f18b12886"},"vehicle_type_id":"4","last_reported":1727446121,"current_range_meters":36800,"station_id":"ce4bhap2rcd13ifvqek0","pricing_plan_id":"cebpf4jnsgd1na2vs0mg"},{"bike_id":"a2d63172-f990-41bd-9aa2-b8315c70df55","system_id":"levelo_inurba_marseille","lat":43.29945,"lon":5.36544,"is_reserved":false,"is_disabled":false,"rental_uris":{"android":"levelo://app?vid=a2d63172-f990-41bd-9aa2-b8315c70df55","ios":"levelo://app?vid=a2d63172-f990-41bd-9aa2-b8315c70df55"},"vehicle_type_id":"4","last_reported":1727446121,"current_range_meters":17600,"station_id":"ce4bgm92rcd13ifvqbr0","pricing_plan_id":"cebpf4jnsgd1na2vs0mg"},{"bike_id":"4e7594fd-a941-42d9-b145-64987de58f26","system_id":"levelo_inurba_marseille","lat":43.29603,"lon":5.37732,"is_reserved":false,"is_disabled":false,"rental_uris":{"android":"levelo://app?vid=4e7594fd-a941-42d9-b145-64987de58f26","ios":"levelo://app?vid=4e7594fd-a941-42d9-b145-64987de58f26"},"vehicle_type_id":"4","last_reported":1727446121,"current_range_meters":21600,"station_id":"","pricing_plan_id":"cebpf4jnsgd1na2vs0mg"},{"bike_id":"09f38f1a-d274-4648-a9d3-4a3ca0d6b225","system_id":"levelo_inurba_marseille","lat":43.29026,"lon":5.38641,"is_reserved":false,"is_disabled":false,"rental_uris":{"android":"levelo://app?vid=09f38f1a-d274-4648-a9d3-4a3ca0d6b225","ios":"levelo://app?vid=09f38f1a-d274-4648-a9d3-4a3ca0d6b225"},"vehicle_type_id":"4","last_reported":1727446121,"current_range_meters":8400,"station_id":"ce4bh4p2rcd13ifvqe0g","pricing_plan_id":"cebpf4jnsgd1na2vs0mg"},{"bike_id":"ea76eb47-d474-4dad-b69b-0440318225ce","system_id":"levelo_inurba_marseille","lat":43.2586,"lon":5.39901,"is_reserved":false,"is_disabled":false,"rental_uris":{"android":"levelo://app?vid=ea76eb47-d474-4dad-b69b-0440318225ce","ios":"levelo://app?vid=ea76eb47-d474-4dad-b69b-0440318225ce"},"vehicle_type_id":"4","last_reported":1727446121,"current_range_meters":9200,"station_id":"ce4bhl92rcd13ifvqghg","pricing_plan_id":"cebpf4jnsgd1na2vs0mg"},{"bike_id":"5a87da7a-b5c4-4d2e-b4ad-8df219c9f6e3","system_id":"levelo_inurba_marseille","lat":43.26797,"lon":5.39415,"is_reserved":false,"is_disabled":false,"rental_uris":{"android":"levelo://app?vid=5a87da7a-b5c4-4d2e-b4ad-8df219c9f6e3","ios":"levelo://app?vid=5a87da7a-b5c4-4d2e-b4ad-8df219c9f6e3"},"vehicle_type_id":"4","last_reported":1727446121,"current_range_meters":38800,"station_id":"ce4bhh12rcd13ifvqfg0","pricing_plan_id":"cebpf4jnsgd1na2vs0mg"},{"bike_id":"565fc1ef-be7a-4b2a-a606-a14051838b1f","system_id":"levelo_inurba_marseille","lat":43.303781,"lon":5.397067,"is_reserved":false,"is_disabled":false,"rental_uris":{"android":"levelo://app?vid=565fc1ef-be7a-4b2a-a606-a14051838b1f","ios":"levelo://app?vid=565fc1ef-be7a-4b2a-a606-a14051838b1f"},"vehicle_type_id":"4","last_reported":1727446121,"current_range_meters":12400,"station_id":"ce4bh092rcd13ifvqd20","pricing_plan_id":"cebpf4jnsgd1na2vs0mg"},{"bike_id":"f8be74f1-d5d0-4220-9788-aa87007fef28","system_id":"levelo_inurba_marseille","lat":43.26803,"lon":5.40269,"is_reserved":false,"is_disabled":false,"rental_uris":{"android":"levelo://app?vid=f8be74f1-d5d0-4220-9788-aa87007fef28","ios":"levelo://app?vid=f8be74f1-d5d0-4220-9788-aa87007fef28"},"vehicle_type_id":"4","last_reported":1727446121,"current_range_meters":9600,"station_id":"ce501612rcd8frsf0b60","pricing_plan_id":"cebpf4jnsgd1na2vs0mg"},{"bike_id":"1535a10d-d92a-499b-a9f9-bd711475c45b","system_id":"levelo_inurba_marseille","lat":43.29785,"lon":5.37098,"is_reserved":false,"is_disabled":false,"rental_uris":{"android":"levelo://app?vid=1535a10d-d92a-499b-a9f9-bd711475c45b","ios":"levelo://app?vid=1535a10d-d92a-499b-a9f9-bd711475c45b"},"vehicle_type_id":"4","last_reported":1727446121,"current_range_meters":36000,"station_id":"ce4bgop2rcd13ifvqc1g","pricing_plan_id":"cebpf4jnsgd1na2vs0mg"},{"bike_id":"52f0922b-efa3-4d15-8e47-f2c5afca9139","system_id":"levelo_inurba_marseille","lat":43.29978,"lon":5.38484,"is_reserved":false,"is_disabled":false,"rental_uris":{"android":"levelo://app?vid=52f0922b-efa3-4d15-8e47-f2c5afca9139","ios":"levelo://app?vid=52f0922b-efa3-4d15-8e47-f2c5afca9139"},"vehicle_type_id":"4","last_reported":1727446121,"current_range_meters":28400,"station_id":"ce4bgj92rcd13ifvqbd0","pricing_plan_id":"cebpf4jnsgd1na2vs0mg"},{"bike_id":"eddb27ac-c064-4b95-9750-0df3ded14b68","system_id":"levelo_inurba_marseille","lat":43.26219,"lon":5.3744,"is_reserved":false,"is_disabled":false,"rental_uris":{"android":"levelo://app?vid=eddb27ac-c064-4b95-9750-0df3ded14b68","ios":"levelo://app?vid=eddb27ac-c064-4b95-9750-0df3ded14b68"},"vehicle_type_id":"4","last_reported":1727446121,"current_range_meters":36000,"station_id":"ce4bhgp2rcd13ifvqfc0","pricing_plan_id":"cebpf4jnsgd1na2vs0mg"},{"bike_id":"b859303a-e677-49a7-9a1a-67f61f96fc40","system_id":"levelo_inurba_marseille","lat":43.29973,"lon":5.3849,"is_reserved":false,"is_disabled":false,"rental_uris":{"android":"levelo://app?vid=b859303a-e677-49a7-9a1a-67f61f96fc40","ios":"levelo://app?vid=b859303a-e677-49a7-9a1a-67f61f96fc40"},"vehicle_type_id":"4","last_reported":1727446121,"current_range_meters":39200,"station_id":"ce4bgj92rcd13ifvqbd0","pricing_plan_id":"cebpf4jnsgd1na2vs0mg"},{"bike_id":"84e91030-21f6-4737-b5c1-37d05d2a9806","system_id":"levelo_inurba_marseille","lat":43.30863,"lon":5.3685,"is_reserved":false,"is_disabled":false,"rental_uris":{"android":"levelo://app?vid=84e91030-21f6-4737-b5c1-37d05d2a9806","ios":"levelo://app?vid=84e91030-21f6-4737-b5c1-37d05d2a9806"},"vehicle_type_id":"4","last_reported":1727446121,"current_range_meters":16000,"station_id":"ce4bgn92rcd13ifvqbvg","pricing_plan_id":"cebpf4jnsgd1na2vs0mg"},{"bike_id":"ed8e4580-269a-4463-8433-87c59a78b9c6","system_id":"levelo_inurba_marseille","lat":43.2417,"lon":5.36394,"is_reserved":false,"is_disabled":false,"rental_uris":{"android":"levelo://app?vid=ed8e4580-269a-4463-8433-87c59a78b9c6","ios":"levelo://app?vid=ed8e4580-269a-4463-8433-87c59a78b9c6"},"vehicle_type_id":"4","last_reported":1727446121,"current_range_meters":24400,"station_id":"cpo36qri1sfpv3e86is0","pricing_plan_id":"cebpf4jnsgd1na2vs0mg"},{"bike_id":"bce6a1b2-4354-4d79-bdbd-b1dd00ec190c","system_id":"levelo_inurba_marseille","lat":43.29291,"lon":5.3724,"is_reserved":false,"is_disabled":false,"rental_uris":{"android":"levelo://app?vid=bce6a1b2-4354-4d79-bdbd-b1dd00ec190c","ios":"levelo://app?vid=bce6a1b2-4354-4d79-bdbd-b1dd00ec190c"},"vehicle_type_id":"4","last_reported":1727446121,"current_range_meters":12000,"station_id":"","pricing_plan_id":"cebpf4jnsgd1na2vs0mg"},{"bike_id":"78bef33d-d89a-453e-bbd3-836735dcc646","system_id":"levelo_inurba_marseille","lat":43.2963,"lon":5.40588,"is_reserved":false,"is_disabled":false,"rental_uris":{"android":"levelo://app?vid=78bef33d-d89a-453e-bbd3-836735dcc646","ios":"levelo://app?vid=78bef33d-d89a-453e-bbd3-836735dcc646"},"vehicle_type_id":"4","last_reported":1727446121,"current_range_meters":4400,"station_id":"ce4bh0h2rcd13ifvqd60","pricing_plan_id":"cebpf4jnsgd1na2vs0mg"},{"bike_id":"34754872-c879-4f2c-932b-5e4f7338c21e","system_id":"levelo_inurba_marseille","lat":43.29802,"lon":5.38117,"is_reserved":false,"is_disabled":false,"rental_uris":{"android":"levelo://app?vid=34754872-c879-4f2c-932b-5e4f7338c21e","ios":"levelo://app?vid=34754872-c879-4f2c-932b-5e4f7338c21e"},"vehicle_type_id":"4","last_reported":1727446121,"current_range_meters":4400,"station_id":"ce4bgip2rcd13ifvqbb0","pricing_plan_id":"cebpf4jnsgd1na2vs0mg"},{"bike_id":"27241e66-b7be-44af-8c59-85fc93355d2a","system_id":"levelo_inurba_marseille","lat":43.29804,"lon":5.38112,"is_reserved":false,"is_disabled":false,"rental_uris":{"android":"levelo://app?vid=27241e66-b7be-44af-8c59-85fc93355d2a","ios":"levelo://app?vid=27241e66-b7be-44af-8c59-85fc93355d2a"},"vehicle_type_id":"4","last_reported":1727446121,"current_range_meters":18800,"station_id":"ce4bgip2rcd13ifvqbb0","pricing_plan_id":"cebpf4jnsgd1na2vs0mg"},{"bike_id":"9046eec4-c40b-4b18-871d-11bbf7e30106","system_id":"levelo_inurba_marseille","lat":43.29888,"lon":5.389,"is_reserved":false,"is_disabled":false,"rental_uris":{"android":"levelo://app?vid=9046eec4-c40b-4b18-871d-11bbf7e30106","ios":"levelo://app?vid=9046eec4-c40b-4b18-871d-11bbf7e30106"},"vehicle_type_id":"4","last_reported":1727446121,"current_range_meters":34000,"station_id":"ce4bh392rcd13ifvqdl0","pricing_plan_id":"cebpf4jnsgd1na2vs0mg"},{"bike_id":"6c186c1e-b9b0-4336-ac17-7142822ced41","system_id":"levelo_inurba_marseille","lat":43.27064,"lon":5.40256,"is_reserved":false,"is_disabled":false,"rental_uris":{"android":"levelo://app?vid=6c186c1e-b9b0-4336-ac17-7142822ced41","ios":"levelo://app?vid=6c186c1e-b9b0-4336-ac17-7142822ced41"},"vehicle_type_id":"4","last_reported":1727446121,"current_range_meters":31200,"station_id":"ce4bhk92rcd13ifvqgc0","pricing_plan_id":"cebpf4jnsgd1na2vs0mg"},{"bike_id":"39a71ff9-a496-4a67-8674-6cfc7eaf8af5","system_id":"levelo_inurba_marseille","lat":43.318766,"lon":5.407347,"is_reserved":false,"is_disabled":false,"rental_uris":{"android":"levelo://app?vid=39a71ff9-a496-4a67-8674-6cfc7eaf8af5","ios":"levelo://app?vid=39a71ff9-a496-4a67-8674-6cfc7eaf8af5"},"vehicle_type_id":"4","last_reported":1727446121,"current_range_meters":26800,"station_id":"ce4bhq12rcd13ifvqhig","pricing_plan_id":"cebpf4jnsgd1na2vs0mg"},{"bike_id":"a087972b-597a-4182-9eaf-7c134fc80c43","system_id":"levelo_inurba_marseille","lat":43.24806,"lon":5.37459,"is_reserved":false,"is_disabled":false,"rental_uris":{"android":"levelo://app?vid=a087972b-597a-4182-9eaf-7c134fc80c43","ios":"levelo://app?vid=a087972b-597a-4182-9eaf-7c134fc80c43"},"vehicle_type_id":"4","last_reported":1727446121,"current_range_meters":19600,"station_id":"ce4bhgh2rcd13ifvqfb0","pricing_plan_id":"cebpf4jnsgd1na2vs0mg"},{"bike_id":"11c2c851-05c7-4453-9a0a-7680bcd89cd5","system_id":"levelo_inurba_marseille","lat":43.30552,"lon":5.3656,"is_reserved":false,"is_disabled":false,"rental_uris":{"android":"levelo://app?vid=11c2c851-05c7-4453-9a0a-7680bcd89cd5","ios":"levelo://app?vid=11c2c851-05c7-4453-9a0a-7680bcd89cd5"},"vehicle_type_id":"4","last_reported":1727446121,"current_range_meters":24800,"station_id":"ce4bgs12rcd13ifvqcag","pricing_plan_id":"cebpf4jnsgd1na2vs0mg"},{"bike_id":"14eb30a7-cbc6-4c6c-8373-a6cb04d694f3","system_id":"levelo_inurba_marseille","lat":43.30161,"lon":5.38087,"is_reserved":false,"is_disabled":false,"rental_uris":{"android":"levelo://app?vid=14eb30a7-cbc6-4c6c-8373-a6cb04d694f3","ios":"levelo://app?vid=14eb30a7-cbc6-4c6c-8373-a6cb04d694f3"},"vehicle_type_id":"4","last_reported":1727446121,"current_range_meters":16800,"station_id":"ce4bgjp2rcd13ifvqbh0","pricing_plan_id":"cebpf4jnsgd1na2vs0mg"},{"bike_id":"2b88fabe-ecde-4d95-ab66-512f3f129ca9","system_id":"levelo_inurba_marseille","lat":43.27208,"lon":5.3918,"is_reserved":false,"is_disabled":false,"rental_uris":{"android":"levelo://app?vid=2b88fabe-ecde-4d95-ab66-512f3f129ca9","ios":"levelo://app?vid=2b88fabe-ecde-4d95-ab66-512f3f129ca9"},"vehicle_type_id":"4","last_reported":1727446121,"current_range_meters":8400,"station_id":"ce4bhhp2rcd13ifvqfm0","pricing_plan_id":"cebpf4jnsgd1na2vs0mg"},{"bike_id":"2c279ecb-4c3b-4015-af84-4592221a9416","system_id":"levelo_inurba_marseille","lat":43.28412,"lon":5.34984,"is_reserved":false,"is_disabled":false,"rental_uris":{"android":"levelo://app?vid=2c279ecb-4c3b-4015-af84-4592221a9416","ios":"levelo://app?vid=2c279ecb-4c3b-4015-af84-4592221a9416"},"vehicle_type_id":"4","last_reported":1727446121,"current_range_meters":30800,"station_id":"ce4bhbh2rcd13ifvqepg","pricing_plan_id":"cebpf4jnsgd1na2vs0mg"},{"bike_id":"f6ce05da-9094-4950-8cc9-4747a299d069","system_id":"levelo_inurba_marseille","lat":43.29556,"lon":5.4229,"is_reserved":false,"is_disabled":false,"rental_uris":{"android":"levelo://app?vid=f6ce05da-9094-4950-8cc9-4747a299d069","ios":"levelo://app?vid=f6ce05da-9094-4950-8cc9-4747a299d069"},"vehicle_type_id":"4","last_reported":1727446121,"current_range_meters":16800,"station_id":"ce4bhph2rcd13ifvqhdg","pricing_plan_id":"cebpf4jnsgd1na2vs0mg"},{"bike_id":"43c0c15c-7c74-4c12-b23e-4393ebb911d0","system_id":"levelo_inurba_marseille","lat":43.32297,"lon":5.38266,"is_reserved":false,"is_disabled":false,"rental_uris":{"android":"levelo://app?vid=43c0c15c-7c74-4c12-b23e-4393ebb911d0","ios":"levelo://app?vid=43c0c15c-7c74-4c12-b23e-4393ebb911d0"},"vehicle_type_id":"4","last_reported":1727446121,"current_range_meters":32400,"station_id":"ce4bhr12rcd13ifvqhqg","pricing_plan_id":"cebpf4jnsgd1na2vs0mg"},{"bike_id":"2cacbbf1-9463-4b23-92b0-2d45d777be4e","system_id":"levelo_inurba_marseille","lat":43.28421,"lon":5.34984,"is_reserved":false,"is_disabled":false,"rental_uris":{"android":"levelo://app?vid=2cacbbf1-9463-4b23-92b0-2d45d777be4e","ios":"levelo://app?vid=2cacbbf1-9463-4b23-92b0-2d45d777be4e"},"vehicle_type_id":"4","last_reported":1727446121,"current_range_meters":30000,"station_id":"ce4bhbh2rcd13ifvqepg","pricing_plan_id":"cebpf4jnsgd1na2vs0mg"},{"bike_id":"d5b74c70-a66b-4f2c-810d-2594b9a0ef51","system_id":"levelo_inurba_marseille","lat":43.29895,"lon":5.43662,"is_reserved":false,"is_disabled":false,"rental_uris":{"android":"levelo://app?vid=d5b74c70-a66b-4f2c-810d-2594b9a0ef51","ios":"levelo://app?vid=d5b74c70-a66b-4f2c-810d-2594b9a0ef51"},"vehicle_type_id":"4","last_reported":1727446121,"current_range_meters":34800,"station_id":"ce4bhpp2rcd13ifvqhfg","pricing_plan_id":"cebpf4jnsgd1na2vs0mg"},{"bike_id":"b579715c-20e2-4755-8fdf-8d2fd1b7b809","system_id":"levelo_inurba_marseille","lat":43.337444,"lon":5.374475,"is_reserved":false,"is_disabled":false,"rental_uris":{"android":"levelo://app?vid=b579715c-20e2-4755-8fdf-8d2fd1b7b809","ios":"levelo://app?vid=b579715c-20e2-4755-8fdf-8d2fd1b7b809"},"vehicle_type_id":"4","last_reported":1727446121,"current_range_meters":35200,"station_id":"","pricing_plan_id":"cebpf4jnsgd1na2vs0mg"},{"bike_id":"ba790139-e2a3-423a-b688-f77bdc3eea2b","system_id":"levelo_inurba_marseille","lat":43.24214,"lon":5.3843,"is_reserved":false,"is_disabled":false,"rental_uris":{"android":"levelo://app?vid=ba790139-e2a3-423a-b688-f77bdc3eea2b","ios":"levelo://app?vid=ba790139-e2a3-423a-b688-f77bdc3eea2b"},"vehicle_type_id":"4","last_reported":1727446121,"current_range_meters":2000,"station_id":"","pricing_plan_id":"cebpf4jnsgd1na2vs0mg"},{"bike_id":"00f44831-083c-413c-bfc7-58fbd629c98d","system_id":"levelo_inurba_marseille","lat":43.306,"lon":5.37221,"is_reserved":false,"is_disabled":false,"rental_uris":{"android":"levelo://app?vid=00f44831-083c-413c-bfc7-58fbd629c98d","ios":"levelo://app?vid=00f44831-083c-413c-bfc7-58fbd629c98d"},"vehicle_type_id":"4","last_reported":1727446121,"current_range_meters":28400,"station_id":"ce4bgqh2rcd13ifvqc4g","pricing_plan_id":"cebpf4jnsgd1na2vs0mg"},{"bike_id":"a74e5f59-b9b4-4be5-9e3a-53ae56549cbe","system_id":"levelo_inurba_marseille","lat":43.2827,"lon":5.35059,"is_reserved":false,"is_disabled":false,"rental_uris":{"android":"levelo://app?vid=a74e5f59-b9b4-4be5-9e3a-53ae56549cbe","ios":"levelo://app?vid=a74e5f59-b9b4-4be5-9e3a-53ae56549cbe"},"vehicle_type_id":"4","last_reported":1727446121,"current_range_meters":29600,"station_id":"ce4bhbp2rcd13ifvqerg","pricing_plan_id":"cebpf4jnsgd1na2vs0mg"},{"bike_id":"28e420c8-2e70-4395-b623-87fdeee77ed6","system_id":"levelo_inurba_marseille","lat":43.24174,"lon":5.39725,"is_reserved":false,"is_disabled":false,"rental_uris":{"android":"levelo://app?vid=28e420c8-2e70-4395-b623-87fdeee77ed6","ios":"levelo://app?vid=28e420c8-2e70-4395-b623-87fdeee77ed6"},"vehicle_type_id":"4","last_reported":1727446121,"current_range_meters":25200,"station_id":"ce4bhn12rcd13ifvqgpg","pricing_plan_id":"cebpf4jnsgd1na2vs0mg"},{"bike_id":"b8e0d423-8a9c-4662-845f-f0784461841e","system_id":"levelo_inurba_marseille","lat":43.286682,"lon":5.385865,"is_reserved":false,"is_disabled":false,"rental_uris":{"android":"levelo://app?vid=b8e0d423-8a9c-4662-845f-f0784461841e","ios":"levelo://app?vid=b8e0d423-8a9c-4662-845f-f0784461841e"},"vehicle_type_id":"4","last_reported":1727446121,"current_range_meters":21600,"station_id":"ce4bh492rcd13ifvqdug","pricing_plan_id":"cebpf4jnsgd1na2vs0mg"},{"bike_id":"ba9ae0f8-3391-4319-8fe7-38e08855dbaa","system_id":"levelo_inurba_marseille","lat":43.31484,"lon":5.37302,"is_reserved":false,"is_disabled":false,"rental_uris":{"android":"levelo://app?vid=ba9ae0f8-3391-4319-8fe7-38e08855dbaa","ios":"levelo://app?vid=ba9ae0f8-3391-4319-8fe7-38e08855dbaa"},"vehicle_type_id":"4","last_reported":1727446121,"current_range_meters":9200,"station_id":"ce4bgt12rcd13ifvqcd0","pricing_plan_id":"cebpf4jnsgd1na2vs0mg"},{"bike_id":"236e7091-c34b-4ff8-85dd-dfc5fbe08388","system_id":"levelo_inurba_marseille","lat":43.29094,"lon":5.38106,"is_reserved":false,"is_disabled":false,"rental_uris":{"android":"levelo://app?vid=236e7091-c34b-4ff8-85dd-dfc5fbe08388","ios":"levelo://app?vid=236e7091-c34b-4ff8-85dd-dfc5fbe08388"},"vehicle_type_id":"4","last_reported":1727446121,"current_range_meters":11600,"station_id":"ce4bh512rcd13ifvqe2g","pricing_plan_id":"cebpf4jnsgd1na2vs0mg"},{"bike_id":"eefd7d17-e6f5-45c6-9f07-d7e16f3f23ad","system_id":"levelo_inurba_marseille","lat":43.28359,"lon":5.38624,"is_reserved":false,"is_disabled":false,"rental_uris":{"android":"levelo://app?vid=eefd7d17-e6f5-45c6-9f07-d7e16f3f23ad","ios":"levelo://app?vid=eefd7d17-e6f5-45c6-9f07-d7e16f3f23ad"},"vehicle_type_id":"4","last_reported":1727446121,"current_range_meters":4800,"station_id":"ce4bh492rcd13ifvqdvg","pricing_plan_id":"cebpf4jnsgd1na2vs0mg"},{"bike_id":"6a3102cc-e255-46c2-a2dd-69819d1fdd6f","system_id":"levelo_inurba_marseille","lat":43.23194,"lon":5.35551,"is_reserved":false,"is_disabled":false,"rental_uris":{"android":"levelo://app?vid=6a3102cc-e255-46c2-a2dd-69819d1fdd6f","ios":"levelo://app?vid=6a3102cc-e255-46c2-a2dd-69819d1fdd6f"},"vehicle_type_id":"4","last_reported":1727446121,"current_range_meters":17200,"station_id":"ce4bhu92rcd13ifvqi70","pricing_plan_id":"cebpf4jnsgd1na2vs0mg"},{"bike_id":"a8ad96dc-e0f4-4a3f-9725-4f83b8c05346","system_id":"levelo_inurba_marseille","lat":43.23188,"lon":5.3998,"is_reserved":false,"is_disabled":false,"rental_uris":{"android":"levelo://app?vid=a8ad96dc-e0f4-4a3f-9725-4f83b8c05346","ios":"levelo://app?vid=a8ad96dc-e0f4-4a3f-9725-4f83b8c05346"},"vehicle_type_id":"4","last_reported":1727446121,"current_range_meters":20800,"station_id":"ce4bhn12rcd13ifvqgqg","pricing_plan_id":"cebpf4jnsgd1na2vs0mg"},{"bike_id":"675019da-1e89-4742-8a65-a5942fb38616","system_id":"levelo_inurba_marseille","lat":43.23151,"lon":5.43704,"is_reserved":false,"is_disabled":false,"rental_uris":{"android":"levelo://app?vid=675019da-1e89-4742-8a65-a5942fb38616","ios":"levelo://app?vid=675019da-1e89-4742-8a65-a5942fb38616"},"vehicle_type_id":"4","last_reported":1727446121,"current_range_meters":37600,"station_id":"ce4bhmp2rcd13ifvqgog","pricing_plan_id":"cebpf4jnsgd1na2vs0mg"},{"bike_id":"fd6e197d-3ea4-491e-be63-35531aa72442","system_id":"levelo_inurba_marseille","lat":43.30609,"lon":5.37143,"is_reserved":false,"is_disabled":false,"rental_uris":{"android":"levelo://app?vid=fd6e197d-3ea4-491e-be63-35531aa72442","ios":"levelo://app?vid=fd6e197d-3ea4-491e-be63-35531aa72442"},"vehicle_type_id":"4","last_reported":1727446121,"current_range_meters":10000,"station_id":"","pricing_plan_id":"cebpf4jnsgd1na2vs0mg"},{"bike_id":"a13603a8-2cb7-48a2-b881-f9720349bdb0","system_id":"levelo_inurba_marseille","lat":43.30182,"lon":5.36612,"is_reserved":false,"is_disabled":false,"rental_uris":{"android":"levelo://app?vid=a13603a8-2cb7-48a2-b881-f9720349bdb0","ios":"levelo://app?vid=a13603a8-2cb7-48a2-b881-f9720349bdb0"},"vehicle_type_id":"4","last_reported":1727446121,"current_range_meters":38800,"station_id":"ce4bgrh2rcd13ifvqc8g","pricing_plan_id":"cebpf4jnsgd1na2vs0mg"},{"bike_id":"d1721c2f-3986-4b19-9cf9-b2bfdb978ae6","system_id":"levelo_inurba_marseille","lat":43.33753,"lon":5.37424,"is_reserved":false,"is_disabled":false,"rental_uris":{"android":"levelo://app?vid=d1721c2f-3986-4b19-9cf9-b2bfdb978ae6","ios":"levelo://app?vid=d1721c2f-3986-4b19-9cf9-b2bfdb978ae6"},"vehicle_type_id":"4","last_reported":1727446121,"current_range_meters":28000,"station_id":"","pricing_plan_id":"cebpf4jnsgd1na2vs0mg"},{"bike_id":"e3081d30-a933-4566-81bd-b60b998dd6fd","system_id":"levelo_inurba_marseille","lat":43.27374,"lon":5.36257,"is_reserved":false,"is_disabled":false,"rental_uris":{"android":"levelo://app?vid=e3081d30-a933-4566-81bd-b60b998dd6fd","ios":"levelo://app?vid=e3081d30-a933-4566-81bd-b60b998dd6fd"},"vehicle_type_id":"4","last_reported":1727446121,"current_range_meters":26800,"station_id":"ce4bhbh2rcd13ifvqeo0","pricing_plan_id":"cebpf4jnsgd1na2vs0mg"},{"bike_id":"9b3c27e2-c335-4a9a-bade-7e68d357b1d1","system_id":"levelo_inurba_marseille","lat":43.30421,"lon":5.41282,"is_reserved":false,"is_disabled":false,"rental_uris":{"android":"levelo://app?vid=9b3c27e2-c335-4a9a-bade-7e68d357b1d1","ios":"levelo://app?vid=9b3c27e2-c335-4a9a-bade-7e68d357b1d1"},"vehicle_type_id":"4","last_reported":1727446121,"current_range_meters":7200,"station_id":"ce4bhop2rcd13ifvqh8g","pricing_plan_id":"cebpf4jnsgd1na2vs0mg"},{"bike_id":"4d142385-1695-410b-acad-08c958e8a90f","system_id":"levelo_inurba_marseille","lat":43.3415,"lon":5.40904,"is_reserved":false,"is_disabled":false,"rental_uris":{"android":"levelo://app?vid=4d142385-1695-410b-acad-08c958e8a90f","ios":"levelo://app?vid=4d142385-1695-410b-acad-08c958e8a90f"},"vehicle_type_id":"4","last_reported":1727446121,"current_range_meters":26800,"station_id":"ce4bhqh2rcd13ifvqhlg","pricing_plan_id":"cebpf4jnsgd1na2vs0mg"},{"bike_id":"c40f2b99-ce97-4b03-933a-e2ed32b4fcfc","system_id":"levelo_inurba_marseille","lat":43.31365,"lon":5.38491,"is_reserved":false,"is_disabled":false,"rental_uris":{"android":"levelo://app?vid=c40f2b99-ce97-4b03-933a-e2ed32b4fcfc","ios":"levelo://app?vid=c40f2b99-ce97-4b03-933a-e2ed32b4fcfc"},"vehicle_type_id":"4","last_reported":1727446121,"current_range_meters":37600,"station_id":"ce4bgt92rcd13ifvqcf0","pricing_plan_id":"cebpf4jnsgd1na2vs0mg"},{"bike_id":"711c0f55-39a2-4e52-a839-d58341cadaa0","system_id":"levelo_inurba_marseille","lat":43.301297,"lon":5.398425,"is_reserved":false,"is_disabled":false,"rental_uris":{"android":"levelo://app?vid=711c0f55-39a2-4e52-a839-d58341cadaa0","ios":"levelo://app?vid=711c0f55-39a2-4e52-a839-d58341cadaa0"},"vehicle_type_id":"4","last_reported":1727446121,"current_range_meters":4400,"station_id":"ce4bh0h2rcd13ifvqd40","pricing_plan_id":"cebpf4jnsgd1na2vs0mg"},{"bike_id":"e209b1d7-f07a-4be6-8bbe-71d9f5ee3333","system_id":"levelo_inurba_marseille","lat":43.28568,"lon":5.39495,"is_reserved":false,"is_disabled":false,"rental_uris":{"android":"levelo://app?vid=e209b1d7-f07a-4be6-8bbe-71d9f5ee3333","ios":"levelo://app?vid=e209b1d7-f07a-4be6-8bbe-71d9f5ee3333"},"vehicle_type_id":"4","last_reported":1727446121,"current_range_meters":14400,"station_id":"ce4bh292rcd13ifvqdg0","pricing_plan_id":"cebpf4jnsgd1na2vs0mg"},{"bike_id":"e30e3270-02fc-433c-8153-efd48664b8fd","system_id":"levelo_inurba_marseille","lat":43.31359,"lon":5.38489,"is_reserved":false,"is_disabled":false,"rental_uris":{"android":"levelo://app?vid=e30e3270-02fc-433c-8153-efd48664b8fd","ios":"levelo://app?vid=e30e3270-02fc-433c-8153-efd48664b8fd"},"vehicle_type_id":"4","last_reported":1727446121,"current_range_meters":36800,"station_id":"ce4bgt92rcd13ifvqcf0","pricing_plan_id":"cebpf4jnsgd1na2vs0mg"},{"bike_id":"a4ddcb9c-280e-4513-a113-7aefbc95b743","system_id":"levelo_inurba_marseille","lat":43.32482,"lon":5.36563,"is_reserved":false,"is_disabled":false,"rental_uris":{"android":"levelo://app?vid=a4ddcb9c-280e-4513-a113-7aefbc95b743","ios":"levelo://app?vid=a4ddcb9c-280e-4513-a113-7aefbc95b743"},"vehicle_type_id":"4","last_reported":1727446121,"current_range_meters":33600,"station_id":"ce4bhs12rcd13ifvqhvg","pricing_plan_id":"cebpf4jnsgd1na2vs0mg"},{"bike_id":"7bf6871c-a92b-4596-9011-8f1d8c229d8e","system_id":"levelo_inurba_marseille","lat":43.25847,"lon":5.38868,"is_reserved":false,"is_disabled":false,"rental_uris":{"android":"levelo://app?vid=7bf6871c-a92b-4596-9011-8f1d8c229d8e","ios":"levelo://app?vid=7bf6871c-a92b-4596-9011-8f1d8c229d8e"},"vehicle_type_id":"4","last_reported":1727446121,"current_range_meters":36400,"station_id":"","pricing_plan_id":"cebpf4jnsgd1na2vs0mg"},{"bike_id":"f773ff7a-57ec-44a4-a08b-e07c6f07024f","system_id":"levelo_inurba_marseille","lat":43.29263,"lon":5.40911,"is_reserved":false,"is_disabled":false,"rental_uris":{"android":"levelo://app?vid=f773ff7a-57ec-44a4-a08b-e07c6f07024f","ios":"levelo://app?vid=f773ff7a-57ec-44a4-a08b-e07c6f07024f"},"vehicle_type_id":"4","last_reported":1727446121,"current_range_meters":22800,"station_id":"ce4bh192rcd13ifvqdc0","pricing_plan_id":"cebpf4jnsgd1na2vs0mg"},{"bike_id":"d52ce80a-6754-4f66-9dca-0924fdf30b44","system_id":"levelo_inurba_marseille","lat":43.29913,"lon":5.37473,"is_reserved":false,"is_disabled":false,"rental_uris":{"android":"levelo://app?vid=d52ce80a-6754-4f66-9dca-0924fdf30b44","ios":"levelo://app?vid=d52ce80a-6754-4f66-9dca-0924fdf30b44"},"vehicle_type_id":"4","last_reported":1727446121,"current_range_meters":38800,"station_id":"ce4bgjh2rcd13ifvqbg0","pricing_plan_id":"cebpf4jnsgd1na2vs0mg"},{"bike_id":"4ebbc4df-b6c5-40b1-9b77-0a6f9fe7579f","system_id":"levelo_inurba_marseille","lat":43.23064,"lon":5.35487,"is_reserved":false,"is_disabled":false,"rental_uris":{"android":"levelo://app?vid=4ebbc4df-b6c5-40b1-9b77-0a6f9fe7579f","ios":"levelo://app?vid=4ebbc4df-b6c5-40b1-9b77-0a6f9fe7579f"},"vehicle_type_id":"4","last_reported":1727446121,"current_range_meters":36400,"station_id":"cpo3342slgdg3j2ifvpg","pricing_plan_id":"cebpf4jnsgd1na2vs0mg"},{"bike_id":"e7e698e2-cb4e-4282-99f5-bfdf9854fb4a","system_id":"levelo_inurba_marseille","lat":43.30322,"lon":5.40426,"is_reserved":false,"is_disabled":false,"rental_uris":{"android":"levelo://app?vid=e7e698e2-cb4e-4282-99f5-bfdf9854fb4a","ios":"levelo://app?vid=e7e698e2-cb4e-4282-99f5-bfdf9854fb4a"},"vehicle_type_id":"4","last_reported":1727446121,"current_range_meters":38800,"station_id":"ce4bh012rcd13ifvqd10","pricing_plan_id":"cebpf4jnsgd1na2vs0mg"},{"bike_id":"e9c368c4-2f0e-42b3-a493-722201ec7db7","system_id":"levelo_inurba_marseille","lat":43.31495,"lon":5.37306,"is_reserved":false,"is_disabled":false,"rental_uris":{"android":"levelo://app?vid=e9c368c4-2f0e-42b3-a493-722201ec7db7","ios":"levelo://app?vid=e9c368c4-2f0e-42b3-a493-722201ec7db7"},"vehicle_type_id":"4","last_reported":1727446121,"current_range_meters":9200,"station_id":"ce4bgt12rcd13ifvqcd0","pricing_plan_id":"cebpf4jnsgd1na2vs0mg"},{"bike_id":"92938374-9127-4b32-b0bf-c4b26091f2b4","system_id":"levelo_inurba_marseille","lat":43.30432,"lon":5.38881,"is_reserved":false,"is_disabled":false,"rental_uris":{"android":"levelo://app?vid=92938374-9127-4b32-b0bf-c4b26091f2b4","ios":"levelo://app?vid=92938374-9127-4b32-b0bf-c4b26091f2b4"},"vehicle_type_id":"4","last_reported":1727446121,"current_range_meters":3200,"station_id":"ce4bgk12rcd13ifvqbi0","pricing_plan_id":"cebpf4jnsgd1na2vs0mg"},{"bike_id":"762f70fd-3763-4d9c-a23b-c7e0ae013dcc","system_id":"levelo_inurba_marseille","lat":43.31754,"lon":5.39011,"is_reserved":false,"is_disabled":false,"rental_uris":{"android":"levelo://app?vid=762f70fd-3763-4d9c-a23b-c7e0ae013dcc","ios":"levelo://app?vid=762f70fd-3763-4d9c-a23b-c7e0ae013dcc"},"vehicle_type_id":"4","last_reported":1727446121,"current_range_meters":17600,"station_id":"ce4bhqp2rcd13ifvqhng","pricing_plan_id":"cebpf4jnsgd1na2vs0mg"},{"bike_id":"f98c2ead-9181-46cb-9d8a-6612de887e5e","system_id":"levelo_inurba_marseille","lat":43.26793,"lon":5.39409,"is_reserved":false,"is_disabled":false,"rental_uris":{"android":"levelo://app?vid=f98c2ead-9181-46cb-9d8a-6612de887e5e","ios":"levelo://app?vid=f98c2ead-9181-46cb-9d8a-6612de887e5e"},"vehicle_type_id":"4","last_reported":1727446121,"current_range_meters":22800,"station_id":"ce4bhh12rcd13ifvqfg0","pricing_plan_id":"cebpf4jnsgd1na2vs0mg"},{"bike_id":"7b7681cb-62bd-4157-bf73-d22f839cfb52","system_id":"levelo_inurba_marseille","lat":43.2319,"lon":5.35554,"is_reserved":false,"is_disabled":false,"rental_uris":{"android":"levelo://app?vid=7b7681cb-62bd-4157-bf73-d22f839cfb52","ios":"levelo://app?vid=7b7681cb-62bd-4157-bf73-d22f839cfb52"},"vehicle_type_id":"4","last_reported":1727446121,"current_range_meters":25600,"station_id":"ce4bhu92rcd13ifvqi70","pricing_plan_id":"cebpf4jnsgd1na2vs0mg"},{"bike_id":"5a1515c2-c4a0-426e-bcdd-5d88297e214e","system_id":"levelo_inurba_marseille","lat":43.29897,"lon":5.43666,"is_reserved":false,"is_disabled":false,"rental_uris":{"android":"levelo://app?vid=5a1515c2-c4a0-426e-bcdd-5d88297e214e","ios":"levelo://app?vid=5a1515c2-c4a0-426e-bcdd-5d88297e214e"},"vehicle_type_id":"4","last_reported":1727446121,"current_range_meters":17600,"station_id":"ce4bhpp2rcd13ifvqhfg","pricing_plan_id":"cebpf4jnsgd1na2vs0mg"},{"bike_id":"cb07f0fe-09ef-4da3-b729-def49a7fb7f8","system_id":"levelo_inurba_marseille","lat":43.23188,"lon":5.39978,"is_reserved":false,"is_disabled":false,"rental_uris":{"android":"levelo://app?vid=cb07f0fe-09ef-4da3-b729-def49a7fb7f8","ios":"levelo://app?vid=cb07f0fe-09ef-4da3-b729-def49a7fb7f8"},"vehicle_type_id":"4","last_reported":1727446121,"current_range_meters":34800,"station_id":"ce4bhn12rcd13ifvqgqg","pricing_plan_id":"cebpf4jnsgd1na2vs0mg"},{"bike_id":"f5d7db18-b5c0-4749-bf43-f3d9c2b174d5","system_id":"levelo_inurba_marseille","lat":43.298492,"lon":5.362891,"is_reserved":false,"is_disabled":false,"rental_uris":{"android":"levelo://app?vid=f5d7db18-b5c0-4749-bf43-f3d9c2b174d5","ios":"levelo://app?vid=f5d7db18-b5c0-4749-bf43-f3d9c2b174d5"},"vehicle_type_id":"4","last_reported":1727446121,"current_range_meters":24800,"station_id":"ce4bhbh2rcd13ifvqepg","pricing_plan_id":"cebpf4jnsgd1na2vs0mg"},{"bike_id":"b793953b-a139-4255-961d-52e6b4e591d4","system_id":"levelo_inurba_marseille","lat":43.2959,"lon":5.3674,"is_reserved":false,"is_disabled":false,"rental_uris":{"android":"levelo://app?vid=b793953b-a139-4255-961d-52e6b4e591d4","ios":"levelo://app?vid=b793953b-a139-4255-961d-52e6b4e591d4"},"vehicle_type_id":"4","last_reported":1727446121,"current_range_meters":38000,"station_id":"ce4bgph2rcd13ifvqc2g","pricing_plan_id":"cebpf4jnsgd1na2vs0mg"},{"bike_id":"5d304dad-695f-4e69-a449-0a0c234ebb3e","system_id":"levelo_inurba_marseille","lat":43.28568,"lon":5.39487,"is_reserved":false,"is_disabled":false,"rental_uris":{"android":"levelo://app?vid=5d304dad-695f-4e69-a449-0a0c234ebb3e","ios":"levelo://app?vid=5d304dad-695f-4e69-a449-0a0c234ebb3e"},"vehicle_type_id":"4","last_reported":1727446121,"current_range_meters":23200,"station_id":"ce4bh292rcd13ifvqdg0","pricing_plan_id":"cebpf4jnsgd1na2vs0mg"},{"bike_id":"627622a7-e56e-4f93-a334-19f55a6af5a9","system_id":"levelo_inurba_marseille","lat":43.27669,"lon":5.38876,"is_reserved":false,"is_disabled":false,"rental_uris":{"android":"levelo://app?vid=627622a7-e56e-4f93-a334-19f55a6af5a9","ios":"levelo://app?vid=627622a7-e56e-4f93-a334-19f55a6af5a9"},"vehicle_type_id":"4","last_reported":1727446121,"current_range_meters":16000,"station_id":"ce4bhi12rcd13ifvqfo0","pricing_plan_id":"cebpf4jnsgd1na2vs0mg"},{"bike_id":"9ebd4df9-afea-4013-9210-82dfc35714f5","system_id":"levelo_inurba_marseille","lat":43.30287,"lon":5.37706,"is_reserved":false,"is_disabled":false,"rental_uris":{"android":"levelo://app?vid=9ebd4df9-afea-4013-9210-82dfc35714f5","ios":"levelo://app?vid=9ebd4df9-afea-4013-9210-82dfc35714f5"},"vehicle_type_id":"4","last_reported":1727446121,"current_range_meters":38800,"station_id":"ce4bguh2rcd13ifvqcj0","pricing_plan_id":"cebpf4jnsgd1na2vs0mg"},{"bike_id":"bc11c6e6-3a36-4925-9338-549a8c49bfbe","system_id":"levelo_inurba_marseille","lat":43.32106,"lon":5.36767,"is_reserved":false,"is_disabled":false,"rental_uris":{"android":"levelo://app?vid=bc11c6e6-3a36-4925-9338-549a8c49bfbe","ios":"levelo://app?vid=bc11c6e6-3a36-4925-9338-549a8c49bfbe"},"vehicle_type_id":"4","last_reported":1727446121,"current_range_meters":26000,"station_id":"ce4bhrh2rcd13ifvqhug","pricing_plan_id":"cebpf4jnsgd1na2vs0mg"},{"bike_id":"2cae49d6-1e77-4b4e-b74d-c0a0841a1415","system_id":"levelo_inurba_marseille","lat":43.29635,"lon":5.40586,"is_reserved":false,"is_disabled":false,"rental_uris":{"android":"levelo://app?vid=2cae49d6-1e77-4b4e-b74d-c0a0841a1415","ios":"levelo://app?vid=2cae49d6-1e77-4b4e-b74d-c0a0841a1415"},"vehicle_type_id":"4","last_reported":1727446121,"current_range_meters":11600,"station_id":"ce4bh0h2rcd13ifvqd60","pricing_plan_id":"cebpf4jnsgd1na2vs0mg"},{"bike_id":"b004422c-e0cb-4224-8563-10f029624b37","system_id":"levelo_inurba_marseille","lat":43.24544,"lon":5.39522,"is_reserved":false,"is_disabled":false,"rental_uris":{"android":"levelo://app?vid=b004422c-e0cb-4224-8563-10f029624b37","ios":"levelo://app?vid=b004422c-e0cb-4224-8563-10f029624b37"},"vehicle_type_id":"4","last_reported":1727446121,"current_range_meters":22400,"station_id":"ce4bhlp2rcd13ifvqgjg","pricing_plan_id":"cebpf4jnsgd1na2vs0mg"},{"bike_id":"f9675b5b-bc74-408a-85a1-48a8c11c2231","system_id":"levelo_inurba_marseille","lat":43.29263,"lon":5.3844,"is_reserved":false,"is_disabled":false,"rental_uris":{"android":"levelo://app?vid=f9675b5b-bc74-408a-85a1-48a8c11c2231","ios":"levelo://app?vid=f9675b5b-bc74-408a-85a1-48a8c11c2231"},"vehicle_type_id":"4","last_reported":1727446121,"current_range_meters":30400,"station_id":"ce4bh692rcd13ifvqea0","pricing_plan_id":"cebpf4jnsgd1na2vs0mg"},{"bike_id":"e9452e70-354f-4ee8-8dae-6dd38afcf116","system_id":"levelo_inurba_marseille","lat":43.29933,"lon":5.36542,"is_reserved":false,"is_disabled":false,"rental_uris":{"android":"levelo://app?vid=e9452e70-354f-4ee8-8dae-6dd38afcf116","ios":"levelo://app?vid=e9452e70-354f-4ee8-8dae-6dd38afcf116"},"vehicle_type_id":"4","last_reported":1727446121,"current_range_meters":18800,"station_id":"ce4bgm92rcd13ifvqbr0","pricing_plan_id":"cebpf4jnsgd1na2vs0mg"},{"bike_id":"13463558-4743-455b-b1d7-fc22569998a6","system_id":"levelo_inurba_marseille","lat":43.26792,"lon":5.39409,"is_reserved":false,"is_disabled":false,"rental_uris":{"android":"levelo://app?vid=13463558-4743-455b-b1d7-fc22569998a6","ios":"levelo://app?vid=13463558-4743-455b-b1d7-fc22569998a6"},"vehicle_type_id":"4","last_reported":1727446121,"current_range_meters":14000,"station_id":"ce4bhh12rcd13ifvqfg0","pricing_plan_id":"cebpf4jnsgd1na2vs0mg"},{"bike_id":"5d58fb7e-a80d-4b78-8b7e-5b83009e3e60","system_id":"levelo_inurba_marseille","lat":43.29685,"lon":5.37286,"is_reserved":false,"is_disabled":false,"rental_uris":{"android":"levelo://app?vid=5d58fb7e-a80d-4b78-8b7e-5b83009e3e60","ios":"levelo://app?vid=5d58fb7e-a80d-4b78-8b7e-5b83009e3e60"},"vehicle_type_id":"4","last_reported":1727446121,"current_range_meters":22800,"station_id":"ce4bgk12rcd13ifvqbj0","pricing_plan_id":"cebpf4jnsgd1na2vs0mg"},{"bike_id":"157307bb-71ef-4f1b-b02d-f21f25cce9e0","system_id":"levelo_inurba_marseille","lat":43.23149,"lon":5.43717,"is_reserved":false,"is_disabled":false,"rental_uris":{"android":"levelo://app?vid=157307bb-71ef-4f1b-b02d-f21f25cce9e0","ios":"levelo://app?vid=157307bb-71ef-4f1b-b02d-f21f25cce9e0"},"vehicle_type_id":"4","last_reported":1727446121,"current_range_meters":19600,"station_id":"ce4bhmp2rcd13ifvqgog","pricing_plan_id":"cebpf4jnsgd1na2vs0mg"},{"bike_id":"6c600d20-7932-48d1-be39-9e4627f9d8e0","system_id":"levelo_inurba_marseille","lat":43.23192,"lon":5.35551,"is_reserved":false,"is_disabled":false,"rental_uris":{"android":"levelo://app?vid=6c600d20-7932-48d1-be39-9e4627f9d8e0","ios":"levelo://app?vid=6c600d20-7932-48d1-be39-9e4627f9d8e0"},"vehicle_type_id":"4","last_reported":1727446121,"current_range_meters":6000,"station_id":"ce4bhu92rcd13ifvqi70","pricing_plan_id":"cebpf4jnsgd1na2vs0mg"},