{"last_updated":1731712116,"ttl":60,"version":"2.2","data":{"bikes":[{"bike_id":"2a4f068a-bf44-4be8-9720-65434032f534","system_id":"levelo_inurba_marseille","lat":43.29061,"lon":5.393712,"is_reserved":false,"is_disabled":false,"rental_uris":{"android":"levelo://app?vid=2a4f068a-bf44-4be8-9720-65434032f534","ios":"levelo://app?vid=2a4f068a-bf44-4be8-9720-65434032f534"},"vehicle_type_id":"4","last_reported":1731712117,"current_range_meters":10000,"station_id":"","pricing_plan_id":"cebpf4jnsgd1na2vs0mg"},{"bike_id":"0ced7113-db48-4671-8b7b-648b43de37ab","system_id":"levelo_inurba_marseille","lat":43.2738,"lon":5.36264,"is_reserved":false,"is_disabled":false,"rental_uris":{"android":"levelo://app?vid=0ced7113-db48-4671-8b7b-648b43de37ab","ios":"levelo://app?vid=0ced7113-db48-4671-8b7b-648b43de37ab"},"vehicle_type_id":"4","last_reported":1731712117,"current_range_meters":38800,"station_id":"ce4bhbh2rcd13ifvqeo0","pricing_plan_id":"cebpf4jnsgd1na2vs0mg"},{"bike_id":"2846c9b1-1c48-42b0-86a0-6f963b8d5df5","system_id":"levelo_inurba_marseille","lat":43.2917,"lon":5.37167,"is_reserved":false,"is_disabled":false,"rental_uris":{"android":"levelo://app?vid=2846c9b1-1c48-42b0-86a0-6f963b8d5df5","ios":"levelo://app?vid=2846c9b1-1c48-42b0-86a0-6f963b8d5df5"},"vehicle_type_id":"4","last_reported":1731712117,"current_range_meters":36400,"station_id":"ce4bha92rcd13ifvqeh0","pricing_plan_id":"cebpf4jnsgd1na2vs0mg"},{"bike_id":"6449248c-ddbe-49f8-8a86-d7347eab10b2","system_id":"levelo_inurba_marseille","lat":43.30882,"lon":5.39652,"is_reserved":false,"is_disabled":false,"rental_uris":{"android":"levelo://app?vid=6449248c-ddbe-49f8-8a86-d7347eab10b2","ios":"levelo://app?vid=6449248c-ddbe-49f8-8a86-d7347eab10b2"},"vehicle_type_id":"4","last_reported":1731712117,"current_range_meters":11600,"station_id":"ce4bh012rcd13ifvqcv0","pricing_plan_id":"cebpf4jnsgd1na2vs0mg"},{"bike_id":"5856ad94-bc0e-4f57-993d-864d7234767f","system_id":"levelo_inurba_marseille","lat":43.33763,"lon":5.37483,"is_reserved":false,"is_disabled":false,"rental_uris":{"android":"levelo://app?vid=5856ad94-bc0e-4f57-993d-864d7234767f","ios":"levelo://app?vid=5856ad94-bc0e-4f57-993d-864d7234767f"},"vehicle_type_id":"4","last_reported":1731712117,"current_range_meters":36000,"station_id":"","pricing_plan_id":"cebpf4jnsgd1na2vs0mg"},{"bike_id":"a1e48a91-33e6-499b-8713-a0268cd7842f","system_id":"levelo_inurba_marseille","lat":43.28478,"lon":5.35887,"is_reserved":false,"is_disabled":false,"rental_uris":{"android":"levelo://app?vid=a1e48a91-33e6-499b-8713-a0268cd7842f","ios":"levelo://app?vid=a1e48a91-33e6-499b-8713-a0268cd7842f"},"vehicle_type_id":"4","last_reported":1731712117,"current_range_meters":38800,"station_id":"ce4bhah2rcd13ifvqei0","pricing_plan_id":"cebpf4jnsgd1na2vs0mg"},{"bike_id":"31514e32-afb6-42c0-9d4e-52bc7623427d","system_id":"levelo_inurba_marseille","lat":43.31083,"lon":5.42431,"is_reserved":false,"is_disabled":false,"rental_uris":{"android":"levelo://app?vid=31514e32-afb6-42c0-9d4e-52bc7623427d","ios":"levelo://app?vid=31514e32-afb6-42c0-9d4e-52bc7623427d"},"vehicle_type_id":"4","last_reported":1731712117,"current_range_meters":34000,"station_id":"ce4bhp92rcd13ifvqhag","pricing_plan_id":"cebpf4jnsgd1na2vs0mg"},{"bike_id":"4aafe376-b9bc-4522-87a4-83d6ad5af617","system_id":"levelo_inurba_marseille","lat":43.2707,"lon":5.42275,"is_reserved":false,"is_disabled":false,"rental_uris":{"android":"levelo://app?vid=4aafe376-b9bc-4522-87a4-83d6ad5af617","ios":"levelo://app?vid=4aafe376-b9bc-4522-87a4-83d6ad5af617"},"vehicle_type_id":"4","last_reported":1731712117,"current_range_meters":36800,"station_id":"ce4bhk92rcd13ifvqgb0","pricing_plan_id":"cebpf4jnsgd1na2vs0mg"},{"bike_id":"c270d04c-d9fe-4ed7-a62f-2857d817387c","system_id":"levelo_inurba_marseille","lat":43.28465,"lon":5.3589,"is_reserved":false,"is_disabled":false,"rental_uris":{"android":"levelo://app?vid=c270d04c-d9fe-4ed7-a62f-2857d817387c","ios":"levelo://app?vid=c270d04c-d9fe-4ed7-a62f-2857d817387c"},"vehicle_type_id":"4","last_reported":1731712117,"current_range_meters":32400,"station_id":"ce4bhah2rcd13ifvqei0","pricing_plan_id":"cebpf4jnsgd1na2vs0mg"},{"bike_id":"ab7475af-76a8-4d08-b0a3-d101c57ac381","system_id":"levelo_inurba_marseille","lat":43.29581,"lon":5.36739,"is_reserved":false,"is_disabled":false,"rental_uris":{"android":"levelo://app?vid=ab7475af-76a8-4d08-b0a3-d101c57ac381","ios":"levelo://app?vid=ab7475af-76a8-4d08-b0a3-d101c57ac381"},"vehicle_type_id":"4","last_reported":1731712117,"current_range_meters":29600,"station_id":"ce4bgph2rcd13ifvqc2g","pricing_plan_id":"cebpf4jnsgd1na2vs0mg"},{"bike_id":"2a4cafe2-8507-47ae-b39f-170bc519ade2","system_id":"levelo_inurba_marseille","lat":43.28935,"lon":5.36637,"is_reserved":false,"is_disabled":false,"rental_uris":{"android":"levelo://app?vid=2a4cafe2-8507-47ae-b39f-170bc519ade2","ios":"levelo://app?vid=2a4cafe2-8507-47ae-b39f-170bc519ade2"},"vehicle_type_id":"4","last_reported":1731712117,"current_range_meters":16800,"station_id":"ce4bhap2rcd13ifvqek0","pricing_plan_id":"cebpf4jnsgd1na2vs0mg"},{"bike_id":"682b87b3-f03f-42aa-b3b7-325813b49003","system_id":"levelo_inurba_marseille","lat":43.24676,"lon":5.38122,"is_reserved":false,"is_disabled":false,"rental_uris":{"android":"levelo://app?vid=682b87b3-f03f-42aa-b3b7-325813b49003","ios":"levelo://app?vid=682b87b3-f03f-42aa-b3b7-325813b49003"},"vehicle_type_id":"4","last_reported":1731712117,"current_range_meters":16400,"station_id":"ce4bhih2rcd13ifvqfr0","pricing_plan_id":"cebpf4jnsgd1na2vs0mg"},{"bike_id":"f741c254-03e4-4b46-a1b0-9463cca3da34","system_id":"levelo_inurba_marseille","lat":43.29069,"lon":5.35911,"is_reserved":false,"is_disabled":false,"rental_uris":{"android":"levelo://app?vid=f741c254-03e4-4b46-a1b0-9463cca3da34","ios":"levelo://app?vid=f741c254-03e4-4b46-a1b0-9463cca3da34"},"vehicle_type_id":"4","last_reported":1731712117,"current_range_meters":38000,"station_id":"ce4bha92rcd13ifvqeg0","pricing_plan_id":"cebpf4jnsgd1na2vs0mg"},{"bike_id":"2b0a7153-8b33-4b27-835a-298e284f7de3","system_id":"levelo_inurba_marseille","lat":43.28702,"lon":5.37393,"is_reserved":false,"is_disabled":false,"rental_uris":{"android":"levelo://app?vid=2b0a7153-8b33-4b27-835a-298e284f7de3","ios":"levelo://app?vid=2b0a7153-8b33-4b27-835a-298e284f7de3"},"vehicle_type_id":"4","last_reported":1731712117,"current_range_meters":36800,"station_id":"ce4bh3p2rcd13ifvqdq0","pricing_plan_id":"cebpf4jnsgd1na2vs0mg"},{"bike_id":"afdf1439-fafc-4de8-9740-b252f0197574","system_id":"levelo_inurba_marseille","lat":43.2798,"lon":5.38749,"is_reserved":false,"is_disabled":false,"rental_uris":{"android":"levelo://app?vid=afdf1439-fafc-4de8-9740-b252f0197574","ios":"levelo://app?vid=afdf1439-fafc-4de8-9740-b252f0197574"},"vehicle_type_id":"4","last_reported":1731712117,"current_range_meters":9200,"station_id":"ce4bhg12rcd13ifvqf80","pricing_plan_id":"cebpf4jnsgd1na2vs0mg"},{"bike_id":"57d225a4-56ba-48aa-b34b-fb1ad1c6c19a","system_id":"levelo_inurba_marseille","lat":43.29198,"lon":5.39316,"is_reserved":false,"is_disabled":false,"rental_uris":{"android":"levelo://app?vid=57d225a4-56ba-48aa-b34b-fb1ad1c6c19a","ios":"levelo://app?vid=57d225a4-56ba-48aa-b34b-fb1ad1c6c19a"},"vehicle_type_id":"4","last_reported":1731712117,"current_range_meters":38400,"station_id":"ce4bh192rcd13ifvqdd0","pricing_plan_id":"cebpf4jnsgd1na2vs0mg"},{"bike_id":"740b90b4-6ad0-444c-aff6-4d2bc606c67d","system_id":"levelo_inurba_marseille","lat":43.29524,"lon":5.39048,"is_reserved":false,"is_disabled":false,"rental_uris":{"android":"levelo://app?vid=740b90b4-6ad0-444c-aff6-4d2bc606c67d","ios":"levelo://app?vid=740b90b4-6ad0-444c-aff6-4d2bc606c67d"},"vehicle_type_id":"4","last_reported":1731712117,"current_range_meters":32000,"station_id":"ce4bh3p2rcd13ifvqdp0","pricing_plan_id":"cebpf4jnsgd1na2vs0mg"},{"bike_id":"27473974-a8f9-4698-9a62-0f5501087c82","system_id":"levelo_inurba_marseille","lat":43.28274,"lon":5.35072,"is_reserved":false,"is_disabled":false,"rental_uris":{"android":"levelo://app?vid=27473974-a8f9-4698-9a62-0f5501087c82","ios":"levelo://app?vid=27473974-a8f9-4698-9a62-0f5501087c82"},"vehicle_type_id":"4","last_reported":1731712117,"current_range_meters":22800,"station_id":"ce4bhbp2rcd13ifvqerg","pricing_plan_id":"cebpf4jnsgd1na2vs0mg"},{"bike_id":"0b995606-4707-45f4-85a4-3e178ef5e44c","system_id":"levelo_inurba_marseille","lat":43.284101,"lon":5.378007,"is_reserved":false,"is_disabled":false,"rental_uris":{"android":"levelo://app?vid=0b995606-4707-45f4-85a4-3e178ef5e44c","ios":"levelo://app?vid=0b995606-4707-45f4-85a4-3e178ef5e44c"},"vehicle_type_id":"4","last_reported":1731712117,"current_range_meters":19200,"station_id":"ce4bha12rcd13ifvqee0","pricing_plan_id":"cebpf4jnsgd1na2vs0mg"},{"bike_id":"56f1156f-10e4-4ce2-958d-81f6571929b7","system_id":"levelo_inurba_marseille","lat":43.2867,"lon":5.36347,"is_reserved":false,"is_disabled":false,"rental_uris":{"android":"levelo://app?vid=56f1156f-10e4-4ce2-958d-81f6571929b7","ios":"levelo://app?vid=56f1156f-10e4-4ce2-958d-81f6571929b7"},"vehicle_type_id":"4","last_reported":1731712117,"current_range_meters":22800,"station_id":"ce4bhah2rcd13ifvqej0","pricing_plan_id":"cebpf4jnsgd1na2vs0mg"},{"bike_id":"906347f7-b857-4677-b3f3-7720e8dfadfc","system_id":"levelo_inurba_marseille","lat":43.26929,"lon":5.40254,"is_reserved":false,"is_disabled":false,"rental_uris":{"android":"levelo://app?vid=906347f7-b857-4677-b3f3-7720e8dfadfc","ios":"levelo://app?vid=906347f7-b857-4677-b3f3-7720e8dfadfc"},"vehicle_type_id":"4","last_reported":1731712117,"current_range_meters":38400,"station_id":"cjm6bp8fraef2m0cb0m0","pricing_plan_id":"cebpf4jnsgd1na2vs0mg"},{"bike_id":"da654e01-cf19-4a8e-8916-b7c5e50561a1","system_id":"levelo_inurba_marseille","lat":43.30914,"lon":5.3685,"is_reserved":false,"is_disabled":false,"rental_uris":{"android":"levelo://app?vid=da654e01-cf19-4a8e-8916-b7c5e50561a1","ios":"levelo://app?vid=da654e01-cf19-4a8e-8916-b7c5e50561a1"},"vehicle_type_id":"4","last_reported":1731712117,"current_range_meters":38800,"station_id":"ce4bgn92rcd13ifvqbvg","pricing_plan_id":"cebpf4jnsgd1na2vs0mg"},{"bike_id":"6b0ea79e-cb12-4a50-9845-e4686b3cacc8","system_id":"levelo_inurba_marseille","lat":43.295751,"lon":5.399791,"is_reserved":false,"is_disabled":false,"rental_uris":{"android":"levelo://app?vid=6b0ea79e-cb12-4a50-9845-e4686b3cacc8","ios":"levelo://app?vid=6b0ea79e-cb12-4a50-9845-e4686b3cacc8"},"vehicle_type_id":"4","last_reported":1731712117,"current_range_meters":16800,"station_id":"","pricing_plan_id":"cebpf4jnsgd1na2vs0mg"},{"bike_id":"d1658b93-d7f7-40d5-8254-375e20319a01","system_id":"levelo_inurba_marseille","lat":43.28931,"lon":5.36394,"is_reserved":false,"is_disabled":false,"rental_uris":{"android":"levelo://app?vid=d1658b93-d7f7-40d5-8254-375e20319a01","ios":"levelo://app?vid=d1658b93-d7f7-40d5-8254-375e20319a01"},"vehicle_type_id":"4","last_reported":1731712117,"current_range_meters":38400,"station_id":"ce4bhc92rcd13ifvqetg","pricing_plan_id":"cebpf4jnsgd1na2vs0mg"},{"bike_id":"aec4b7ba-b189-4c3e-aabc-e8a22443527b","system_id":"levelo_inurba_marseille","lat":43.31711,"lon":5.4371,"is_reserved":false,"is_disabled":false,"rental_uris":{"android":"levelo://app?vid=aec4b7ba-b189-4c3e-aabc-e8a22443527b","ios":"levelo://app?vid=aec4b7ba-b189-4c3e-aabc-e8a22443527b"},"vehicle_type_id":"4","last_reported":1731712117,"current_range_meters":9600,"station_id":"ce4bhp92rcd13ifvqhcg","pricing_plan_id":"cebpf4jnsgd1na2vs0mg"},{"bike_id":"4a74f469-1d99-48ee-a8ca-9199898c00a4","system_id":"levelo_inurba_marseille","lat":43.232,"lon":5.35555,"is_reserved":false,"is_disabled":false,"rental_uris":{"android":"levelo://app?vid=4a74f469-1d99-48ee-a8ca-9199898c00a4","ios":"levelo://app?vid=4a74f469-1d99-48ee-a8ca-9199898c00a4"},"vehicle_type_id":"4","last_reported":1731712117,"current_range_meters":12000,"station_id":"ce4bhu92rcd13ifvqi70","pricing_plan_id":"cebpf4jnsgd1na2vs0mg"},{"bike_id":"1f43be81-f60b-4996-89e7-99986d734131","system_id":"levelo_inurba_marseille","lat":43.31174,"lon":5.38703,"is_reserved":false,"is_disabled":false,"rental_uris":{"android":"levelo://app?vid=1f43be81-f60b-4996-89e7-99986d734131","ios":"levelo://app?vid=1f43be81-f60b-4996-89e7-99986d734131"},"vehicle_type_id":"4","last_reported":1731712117,"current_range_meters":38800,"station_id":"ce4bgv12rcd13ifvqcp0","pricing_plan_id":"cebpf4jnsgd1na2vs0mg"},{"bike_id":"a447bca4-6d0f-4c9c-9947-49b68c9501c3","system_id":"levelo_inurba_marseille","lat":43.28361,"lon":5.38629,"is_reserved":false,"is_disabled":false,"rental_uris":{"android":"levelo://app?vid=a447bca4-6d0f-4c9c-9947-49b68c9501c3","ios":"levelo://app?vid=a447bca4-6d0f-4c9c-9947-49b68c9501c3"},"vehicle_type_id":"4","last_reported":1731712117,"current_range_meters":4800,"station_id":"ce4bh492rcd13ifvqdvg","pricing_plan_id":"cebpf4jnsgd1na2vs0mg"},{"bike_id":"c478ff06-0baa-4687-ac70-3188bd2aae0c","system_id":"levelo_inurba_marseille","lat":43.27621,"lon":5.36113,"is_reserved":false,"is_disabled":false,"rental_uris":{"android":"levelo://app?vid=c478ff06-0baa-4687-ac70-3188bd2aae0c","ios":"levelo://app?vid=c478ff06-0baa-4687-ac70-3188bd2aae0c"},"vehicle_type_id":"4","last_reported":1731712117,"current_range_meters":11600,"station_id":"ce4bgj92rcd13ifvqbe0","pricing_plan_id":"cebpf4jnsgd1na2vs0mg"},{"bike_id":"d78d7d44-876d-4db4-88b6-0363c3056c76","system_id":"levelo_inurba_marseille","lat":43.29734,"lon":5.37678,"is_reserved":false,"is_disabled":false,"rental_uris":{"android":"levelo://app?vid=d78d7d44-876d-4db4-88b6-0363c3056c76","ios":"levelo://app?vid=d78d7d44-876d-4db4-88b6-0363c3056c76"},"vehicle_type_id":"4","last_reported":1731712117,"current_range_meters":36800,"station_id":"ce4bgkh2rcd13ifvqbl0","pricing_plan_id":"cebpf4jnsgd1na2vs0mg"},{"bike_id":"e4bacf1b-dac0-429e-8969-b352e374e880","system_id":"levelo_inurba_marseille","lat":43.28669,"lon":5.36359,"is_reserved":false,"is_disabled":false,"rental_uris":{"android":"levelo://app?vid=e4bacf1b-dac0-429e-8969-b352e374e880","ios":"levelo://app?vid=e4bacf1b-dac0-429e-8969-b352e374e880"},"vehicle_type_id":"4","last_reported":1731712117,"current_range_meters":17600,"station_id":"ce4bhah2rcd13ifvqej0","pricing_plan_id":"cebpf4jnsgd1na2vs0mg"},{"bike_id":"636911fc-0e5c-474a-9461-ec702ce7b87f","system_id":"levelo_inurba_marseille","lat":43.30188,"lon":5.36625,"is_reserved":false,"is_disabled":false,"rental_uris":{"android":"levelo://app?vid=636911fc-0e5c-474a-9461-ec702ce7b87f","ios":"levelo://app?vid=636911fc-0e5c-474a-9461-ec702ce7b87f"},"vehicle_type_id":"4","last_reported":1731712117,"current_range_meters":38800,"station_id":"ce4bgrh2rcd13ifvqc8g","pricing_plan_id":"cebpf4jnsgd1na2vs0mg"},{"bike_id":"57810485-8047-41f3-a695-a9d3cfe854fa","system_id":"levelo_inurba_marseille","lat":43.30885,"lon":5.3719,"is_reserved":false,"is_disabled":false,"rental_uris":{"android":"levelo://app?vid=57810485-8047-41f3-a695-a9d3cfe854fa","ios":"levelo://app?vid=57810485-8047-41f3-a695-a9d3cfe854fa"},"vehicle_type_id":"4","last_reported":1731712117,"current_range_meters":38400,"station_id":"ce4bguh2rcd13ifvqckg","pricing_plan_id":"cebpf4jnsgd1na2vs0mg"},{"bike_id":"66078488-c679-41b3-b351-356700d7b06f","system_id":"levelo_inurba_marseille","lat":43.30187,"lon":5.36627,"is_reserved":false,"is_disabled":false,"rental_uris":{"android":"levelo://app?vid=66078488-c679-41b3-b351-356700d7b06f","ios":"levelo://app?vid=66078488-c679-41b3-b351-356700d7b06f"},"vehicle_type_id":"4","last_reported":1731712117,"current_range_meters":38000,"station_id":"ce4bgrh2rcd13ifvqc8g","pricing_plan_id":"cebpf4jnsgd1na2vs0mg"},{"bike_id":"61dc5a72-902e-4195-9647-849b2eaa5d03","system_id":"levelo_inurba_marseille","lat":43.24671,"lon":5.38157,"is_reserved":false,"is_disabled":false,"rental_uris":{"android":"levelo://app?vid=61dc5a72-902e-4195-9647-849b2eaa5d03","ios":"levelo://app?vid=61dc5a72-902e-4195-9647-849b2eaa5d03"},"vehicle_type_id":"4","last_reported":1731712117,"current_range_meters":38800,"station_id":"ce4bhih2rcd13ifvqfr0","pricing_plan_id":"cebpf4jnsgd1na2vs0mg"},{"bike_id":"11868e51-bc6b-4493-9134-a2492745031a","system_id":"levelo_inurba_marseille","lat":43.29983,"lon":5.3719,"is_reserved":false,"is_disabled":false,"rental_uris":{"android":"levelo://app?vid=11868e51-bc6b-4493-9134-a2492745031a","ios":"levelo://app?vid=11868e51-bc6b-4493-9134-a2492745031a"},"vehicle_type_id":"4","last_reported":1731712117,"current_range_meters":18800,"station_id":"ce4bgr92rcd13ifvqc7g","pricing_plan_id":"cebpf4jnsgd1na2vs0mg"},{"bike_id":"75fa4f2b-b147-40fd-a78a-0263ad21e532","system_id":"levelo_inurba_marseille","lat":43.28467,"lon":5.35895,"is_reserved":false,"is_disabled":false,"rental_uris":{"android":"levelo://app?vid=75fa4f2b-b147-40fd-a78a-0263ad21e532","ios":"levelo://app?vid=75fa4f2b-b147-40fd-a78a-0263ad21e532"},"vehicle_type_id":"4","last_reported":1731712117,"current_range_meters":34800,"station_id":"ce4bhah2rcd13ifvqei0","pricing_plan_id":"cebpf4jnsgd1na2vs0mg"},{"bike_id":"c55c6903-f045-4268-8b5d-0b4b7a49b1be","system_id":"levelo_inurba_marseille","lat":43.255192,"lon":5.374424,"is_reserved":false,"is_disabled":false,"rental_uris":{"android":"levelo://app?vid=c55c6903-f045-4268-8b5d-0b4b7a49b1be","ios":"levelo://app?vid=c55c6903-f045-4268-8b5d-0b4b7a49b1be"},"vehicle_type_id":"4","last_reported":1731712117,"current_range_meters":24800,"station_id":"ce4bhl92rcd13ifvqghg","pricing_plan_id":"cebpf4jnsgd1na2vs0mg"},{"bike_id":"3a5c727a-f97e-4342-8103-0f097bd1d6f6","system_id":"levelo_inurba_marseille","lat":43.30253,"lon":5.40076,"is_reserved":false,"is_disabled":false,"rental_uris":{"android":"levelo://app?vid=3a5c727a-f97e-4342-8103-0f097bd1d6f6","ios":"levelo://app?vid=3a5c727a-f97e-4342-8103-0f097bd1d6f6"},"vehicle_type_id":"4","last_reported":1731712117,"current_range_meters":2000,"station_id":"ce4bgvh2rcd13ifvqcs0","pricing_plan_id":"cebpf4jnsgd1na2vs0mg"},{"bike_id":"e0595c4c-1699-4a14-a62f-9e4ee170569b","system_id":"levelo_inurba_marseille","lat":43.29277,"lon":5.4012,"is_reserved":false,"is_disabled":false,"rental_uris":{"android":"levelo://app?vid=e0595c4c-1699-4a14-a62f-9e4ee170569b","ios":"levelo://app?vid=e0595c4c-1699-4a14-a62f-9e4ee170569b"},"vehicle_type_id":"4","last_reported":1731712117,"current_range_meters":38800,"station_id":"ce4bh312rcd13ifvqdk0","pricing_plan_id":"cebpf4jnsgd1na2vs0mg"},{"bike_id":"6875c373-3a3e-464e-8826-15cf173d3295","system_id":"levelo_inurba_marseille","lat":43.24172,"lon":5.36392,"is_reserved":false,"is_disabled":false,"rental_uris":{"android":"levelo://app?vid=6875c373-3a3e-464e-8826-15cf173d3295","ios":"levelo://app?vid=6875c373-3a3e-464e-8826-15cf173d3295"},"vehicle_type_id":"4","last_reported":1731712117,"current_range_meters":38800,"station_id":"cpo36qri1sfpv3e86is0","pricing_plan_id":"cebpf4jnsgd1na2vs0mg"},{"bike_id":"db1eaab7-06a8-4c94-8b10-64e2d083d30f","system_id":"levelo_inurba_marseille","lat":43.30099,"lon":5.39088,"is_reserved":false,"is_disabled":false,"rental_uris":{"android":"levelo://app?vid=db1eaab7-06a8-4c94-8b10-64e2d083d30f","ios":"levelo://app?vid=db1eaab7-06a8-4c94-8b10-64e2d083d30f"},"vehicle_type_id":"4","last_reported":1731712117,"current_range_meters":20800,"station_id":"ce4bh192rcd13ifvqdb0","pricing_plan_id":"cebpf4jnsgd1na2vs0mg"},{"bike_id":"23c6735a-3b87-4602-8ef4-49451ad82108","system_id":"levelo_inurba_marseille","lat":43.296006,"lon":5.367938,"is_reserved":false,"is_disabled":false,"rental_uris":{"android":"levelo://app?vid=23c6735a-3b87-4602-8ef4-49451ad82108","ios":"levelo://app?vid=23c6735a-3b87-4602-8ef4-49451ad82108"},"vehicle_type_id":"4","last_reported":1731712117,"current_range_meters":11200,"station_id":"","pricing_plan_id":"cebpf4jnsgd1na2vs0mg"},{"bike_id":"f1be1b21-bb29-4fee-996b-7e208af1ea1c","system_id":"levelo_inurba_marseille","lat":43.32335,"lon":5.4062,"is_reserved":false,"is_disabled":false,"rental_uris":{"android":"levelo://app?vid=f1be1b21-bb29-4fee-996b-7e208af1ea1c","ios":"levelo://app?vid=f1be1b21-bb29-4fee-996b-7e208af1ea1c"},"vehicle_type_id":"4","last_reported":1731712117,"current_range_meters":16800,"station_id":"ce4bhq92rcd13ifvqhjg","pricing_plan_id":"cebpf4jnsgd1na2vs0mg"},{"bike_id":"79fb7f84-6342-4e15-8645-c2407f8a49e3","system_id":"levelo_inurba_marseille","lat":43.28163,"lon":5.42655,"is_reserved":false,"is_disabled":false,"rental_uris":{"android":"levelo://app?vid=79fb7f84-6342-4e15-8645-c2407f8a49e3","ios":"levelo://app?vid=79fb7f84-6342-4e15-8645-c2407f8a49e3"},"vehicle_type_id":"4","last_reported":1731712117,"current_range_meters":28800,"station_id":"ce4bhnh2rcd13ifvqgug","pricing_plan_id":"cebpf4jnsgd1na2vs0mg"},{"bike_id":"792ba918-f0aa-452f-8f68-1a7a13f87316","system_id":"levelo_inurba_marseille","lat":43.24666,"lon":5.38155,"is_reserved":false,"is_disabled":false,"rental_uris":{"android":"levelo://app?vid=792ba918-f0aa-452f-8f68-1a7a13f87316","ios":"levelo://app?vid=792ba918-f0aa-452f-8f68-1a7a13f87316"},"vehicle_type_id":"4","last_reported":1731712117,"current_range_meters":24400,"station_id":"ce4bhih2rcd13ifvqfr0","pricing_plan_id":"cebpf4jnsgd1na2vs0mg"},{"bike_id":"2ae352a7-6c66-411e-a75e-1c03ff1eaa7b","system_id":"levelo_inurba_marseille","lat":43.29373,"lon":5.37847,"is_reserved":false,"is_disabled":false,"rental_uris":{"android":"levelo://app?vid=2ae352a7-6c66-411e-a75e-1c03ff1eaa7b","ios":"levelo://app?vid=2ae352a7-6c66-411e-a75e-1c03ff1eaa7b"},"vehicle_type_id":"4","last_reported":1731712117,"current_range_meters":16400,"station_id":"ce4bgjh2rcd13ifvqbf0","pricing_plan_id":"cebpf4jnsgd1na2vs0mg"},{"bike_id":"f271f6e7-a7ba-4b0d-942d-cc1907bed849","system_id":"levelo_inurba_marseille","lat":43.282,"lon":5.37916,"is_reserved":false,"is_disabled":false,"rental_uris":{"android":"levelo://app?vid=f271f6e7-a7ba-4b0d-942d-cc1907bed849","ios":"levelo://app?vid=f271f6e7-a7ba-4b0d-942d-cc1907bed849"},"vehicle_type_id":"4","last_reported":1731712117,"current_range_meters":14400,"station_id":"","pricing_plan_id":"cebpf4jnsgd1na2vs0mg"},{"bike_id":"3c73d166-5ce6-4393-8055-ff26b50e3f91","system_id":"levelo_inurba_marseille","lat":43.28709,"lon":5.39994,"is_reserved":false,"is_disabled":false,"rental_uris":{"android":"levelo://app?vid=3c73d166-5ce6-4393-8055-ff26b50e3f91","ios":"levelo://app?vid=3c73d166-5ce6-4393-8055-ff26b50e3f91"},"vehicle_type_id":"4","last_reported":1731712117,"current_range_meters":25200,"station_id":"ce4bho92rcd13ifvqh3g","pricing_plan_id":"cebpf4jnsgd1na2vs0mg"},{"bike_id":"ae0491f3-5d70-441c-acf0-3d1e976bcd0a","system_id":"levelo_inurba_marseille","lat":43.31627,"lon":5.37861,"is_reserved":false,"is_disabled":false,"rental_uris":{"android":"levelo://app?vid=ae0491f3-5d70-441c-acf0-3d1e976bcd0a","ios":"levelo://app?vid=ae0491f3-5d70-441c-acf0-3d1e976bcd0a"},"vehicle_type_id":"4","last_reported":1731712117,"current_range_meters":9600,"station_id":"","pricing_plan_id":"cebpf4jnsgd1na2vs0mg"},{"bike_id":"286d49fb-bfb0-4d11-b8a3-05db5ab4ea6b","system_id":"levelo_inurba_marseille","lat":43.27811,"lon":5.40713,"is_reserved":false,"is_disabled":false,"rental_uris":{"android":"levelo://app?vid=286d49fb-bfb0-4d11-b8a3-05db5ab4ea6b","ios":"levelo://app?vid=286d49fb-bfb0-4d11-b8a3-05db5ab4ea6b"},"vehicle_type_id":"4","last_reported":1731712117,"current_range_meters":15200,"station_id":"ce4bhnh2rcd13ifvqgtg","pricing_plan_id":"cebpf4jnsgd1na2vs0mg"},{"bike_id":"292ec6b9-529d-4ec1-b4f8-d3df413f2923","system_id":"levelo_inurba_marseille","lat":43.31714,"lon":5.43711,"is_reserved":false,"is_disabled":false,"rental_uris":{"android":"levelo://app?vid=292ec6b9-529d-4ec1-b4f8-d3df413f2923","ios":"levelo://app?vid=292ec6b9-529d-4ec1-b4f8-d3df413f2923"},"vehicle_type_id":"4","last_reported":1731712117,"current_range_meters":22800,"station_id":"ce4bhp92rcd13ifvqhcg","pricing_plan_id":"cebpf4jnsgd1na2vs0mg"},{"bike_id":"4cbd7226-43bc-4a1c-b31a-f299d9bf5ede","system_id":"levelo_inurba_marseille","lat":43.25504,"lon":5.37648,"is_reserved":false,"is_disabled":false,"rental_uris":{"android":"levelo://app?vid=4cbd7226-43bc-4a1c-b31a-f299d9bf5ede","ios":"levelo://app?vid=4cbd7226-43bc-4a1c-b31a-f299d9bf5ede"},"vehicle_type_id":"4","last_reported":1731712117,"current_range_meters":38400,"station_id":"ce4bhh12rcd13ifvqff0","pricing_plan_id":"cebpf4jnsgd1na2vs0mg"},{"bike_id":"76ada99b-13e5-4bb8-a67a-8c73c57f3f01","system_id":"levelo_inurba_marseille","lat":43.320498,"lon":5.415608,"is_reserved":false,"is_disabled":false,"rental_uris":{"android":"levelo://app?vid=76ada99b-13e5-4bb8-a67a-8c73c57f3f01","ios":"levelo://app?vid=76ada99b-13e5-4bb8-a67a-8c73c57f3f01"},"vehicle_type_id":"4","last_reported":1731712117,"current_range_meters":38800,"station_id":"ce4bhq92rcd13ifvqhkg","pricing_plan_id":"cebpf4jnsgd1na2vs0mg"},{"bike_id":"bd74c768-f897-4f47-bb3a-190339cad145","system_id":"levelo_inurba_marseille","lat":43.30317,"lon":5.36894,"is_reserved":false,"is_disabled":false,"rental_uris":{"android":"levelo://app?vid=bd74c768-f897-4f47-bb3a-190339cad145","ios":"levelo://app?vid=bd74c768-f897-4f47-bb3a-190339cad145"},"vehicle_type_id":"4","last_reported":1731712117,"current_range_meters":38800,"station_id":"ce4bgqh2rcd13ifvqc5g","pricing_plan_id":"cebpf4jnsgd1na2vs0mg"},{"bike_id":"fcd3e0a7-bbac-46f7-82d9-70244351bb5a","system_id":"levelo_inurba_marseille","lat":43.29203,"lon":5.39318,"is_reserved":false,"is_disabled":false,"rental_uris":{"android":"levelo://app?vid=fcd3e0a7-bbac-46f7-82d9-70244351bb5a","ios":"levelo://app?vid=fcd3e0a7-bbac-46f7-82d9-70244351bb5a"},"vehicle_type_id":"4","last_reported":1731712117,"current_range_meters":23200,"station_id":"ce4bh192rcd13ifvqdd0","pricing_plan_id":"cebpf4jnsgd1na2vs0mg"},{"bike_id":"66dc1b0d-bf05-41ad-a252-39b78074f07a","system_id":"levelo_inurba_marseille","lat":43.30333,"lon":5.40436,"is_reserved":false,"is_disabled":false,"rental_uris":{"android":"levelo://app?vid=66dc1b0d-bf05-41ad-a252-39b78074f07a","ios":"levelo://app?vid=66dc1b0d-bf05-41ad-a252-39b78074f07a"},"vehicle_type_id":"4","last_reported":1731712117,"current_range_meters":30800,"station_id":"ce4bh012rcd13ifvqd10","pricing_plan_id":"cebpf4jnsgd1na2vs0mg"},{"bike_id":"82588854-e185-482e-a51c-801099d30d24","system_id":"levelo_inurba_marseille","lat":43.24672,"lon":5.38161,"is_reserved":false,"is_disabled":false,"rental_uris":{"android":"levelo://app?vid=82588854-e185-482e-a51c-801099d30d24","ios":"levelo://app?vid=82588854-e185-482e-a51c-801099d30d24"},"vehicle_type_id":"4","last_reported":1731712117,"current_range_meters":12800,"station_id":"ce4bhih2rcd13ifvqfr0","pricing_plan_id":"cebpf4jnsgd1na2vs0mg"},{"bike_id":"6b8eba9e-251e-401f-9b82-4a96d08ef40f","system_id":"levelo_inurba_marseille","lat":43.33015,"lon":5.39043,"is_reserved":false,"is_disabled":false,"rental_uris":{"android":"levelo://app?vid=6b8eba9e-251e-401f-9b82-4a96d08ef40f","ios":"levelo://app?vid=6b8eba9e-251e-401f-9b82-4a96d08ef40f"},"vehicle_type_id":"4","last_reported":1731712117,"current_range_meters":20800,"station_id":"ce4bhr92rcd13ifvqhrg","pricing_plan_id":"cebpf4jnsgd1na2vs0mg"},{"bike_id":"90911b25-e963-4eb6-94d7-5f6e3c4092c6","system_id":"levelo_inurba_marseille","lat":43.314303,"lon":5.37986,"is_reserved":false,"is_disabled":false,"rental_uris":{"android":"levelo://app?vid=90911b25-e963-4eb6-94d7-5f6e3c4092c6","ios":"levelo://app?vid=90911b25-e963-4eb6-94d7-5f6e3c4092c6"},"vehicle_type_id":"4","last_reported":1731712117,"current_range_meters":26000,"station_id":"ce4bhsp2rcd13ifvqi50","pricing_plan_id":"cebpf4jnsgd1na2vs0mg"},{"bike_id":"ebe07550-37ca-48d8-83ce-105ce1b1621c","system_id":"levelo_inurba_marseille","lat":43.30145,"lon":5.39875,"is_reserved":false,"is_disabled":false,"rental_uris":{"android":"levelo://app?vid=ebe07550-37ca-48d8-83ce-105ce1b1621c","ios":"levelo://app?vid=ebe07550-37ca-48d8-83ce-105ce1b1621c"},"vehicle_type_id":"4","last_reported":1731712117,"current_range_meters":38800,"station_id":"ce4bh0h2rcd13ifvqd40","pricing_plan_id":"cebpf4jnsgd1na2vs0mg"},{"bike_id":"15bb5149-5b9a-4368-91e4-03cb68135cfa","system_id":"levelo_inurba_marseille","lat":43.30601,"lon":5.3936,"is_reserved":false,"is_disabled":false,"rental_uris":{"android":"levelo://app?vid=15bb5149-5b9a-4368-91e4-03cb68135cfa","ios":"levelo://app?vid=15bb5149-5b9a-4368-91e4-03cb68135cfa"},"vehicle_type_id":"4","last_reported":1731712117,"current_range_meters":33600,"station_id":"ce4bh0p2rcd13ifvqd80","pricing_plan_id":"cebpf4jnsgd1na2vs0mg"},{"bike_id":"54c23ecf-b3a5-4ba1-a38d-1fdfb570a8db","system_id":"levelo_inurba_marseille","lat":43.30153,"lon":5.38768,"is_reserved":false,"is_disabled":false,"rental_uris":{"android":"levelo://app?vid=54c23ecf-b3a5-4ba1-a38d-1fdfb570a8db","ios":"levelo://app?vid=54c23ecf-b3a5-4ba1-a38d-1fdfb570a8db"},"vehicle_type_id":"4","last_reported":1731712117,"current_range_meters":29600,"station_id":"ce4bghh2rcd13ifvqb60","pricing_plan_id":"cebpf4jnsgd1na2vs0mg"},{"bike_id":"c974cc8b-299b-4d52-81c8-4e50a91b9225","system_id":"levelo_inurba_marseille","lat":43.33745,"lon":5.37487,"is_reserved":false,"is_disabled":false,"rental_uris":{"android":"levelo://app?vid=c974cc8b-299b-4d52-81c8-4e50a91b9225","ios":"levelo://app?vid=c974cc8b-299b-4d52-81c8-4e50a91b9225"},"vehicle_type_id":"4","last_reported":1731712117,"current_range_meters":36800,"station_id":"","pricing_plan_id":"cebpf4jnsgd1na2vs0mg"},{"bike_id":"f86a601e-26e3-440e-a7e5-894f75bad9f4","system_id":"levelo_inurba_marseille","lat":43.337444,"lon":5.374475,"is_reserved":false,"is_disabled":false,"rental_uris":{"android":"levelo://app?vid=f86a601e-26e3-440e-a7e5-894f75bad9f4","ios":"levelo://app?vid=f86a601e-26e3-440e-a7e5-894f75bad9f4"},"vehicle_type_id":"4","last_reported":1731712117,"current_range_meters":22000,"station_id":"","pricing_plan_id":"cebpf4jnsgd1na2vs0mg"},{"bike_id":"b02cad58-3de4-410a-a29d-78e174a9d94a","system_id":"levelo_inurba_marseille","lat":43.23194,"lon":5.35549,"is_reserved":false,"is_disabled":false,"rental_uris":{"android":"levelo://app?vid=b02cad58-3de4-410a-a29d-78e174a9d94a","ios":"levelo://app?vid=b02cad58-3de4-410a-a29d-78e174a9d94a"},"vehicle_type_id":"4","last_reported":1731712117,"current_range_meters":38800,"station_id":"ce4bhu92rcd13ifvqi70","pricing_plan_id":"cebpf4jnsgd1na2vs0mg"},{"bike_id":"71e2b5c9-4a97-4dfb-8697-0788995059d4","system_id":"levelo_inurba_marseille","lat":43.31177,"lon":5.3872,"is_reserved":false,"is_disabled":false,"rental_uris":{"android":"levelo://app?vid=71e2b5c9-4a97-4dfb-8697-0788995059d4","ios":"levelo://app?vid=71e2b5c9-4a97-4dfb-8697-0788995059d4"},"vehicle_type_id":"4","last_reported":1731712117,"current_range_meters":2800,"station_id":"ce4bgv12rcd13ifvqcp0","pricing_plan_id":"cebpf4jnsgd1na2vs0mg"},{"bike_id":"980c2b64-5ae6-4e8e-ac4f-88eb697394b6","system_id":"levelo_inurba_marseille","lat":43.25934,"lon":5.40913,"is_reserved":false,"is_disabled":false,"rental_uris":{"android":"levelo://app?vid=980c2b64-5ae6-4e8e-ac4f-88eb697394b6","ios":"levelo://app?vid=980c2b64-5ae6-4e8e-ac4f-88eb697394b6"},"vehicle_type_id":"4","last_reported":1731712117,"current_range_meters":5600,"station_id":"ce4bhm92rcd13ifvqglg","pricing_plan_id":"cebpf4jnsgd1na2vs0mg"},{"bike_id":"00beb359-3cf2-4e01-938f-2c11b6efaf51","system_id":"levelo_inurba_marseille","lat":43.25108,"lon":5.40334,"is_reserved":false,"is_disabled":false,"rental_uris":{"android":"levelo://app?vid=00beb359-3cf2-4e01-938f-2c11b6efaf51","ios":"levelo://app?vid=00beb359-3cf2-4e01-938f-2c11b6efaf51"},"vehicle_type_id":"4","last_reported":1731712117,"current_range_meters":38800,"station_id":"ce4bhlh2rcd13ifvqgig","pricing_plan_id":"cebpf4jnsgd1na2vs0mg"},{"bike_id":"0f408f9e-3725-4214-9270-2801c64844e7","system_id":"levelo_inurba_marseille","lat":43.30134,"lon":5.38779,"is_reserved":false,"is_disabled":false,"rental_uris":{"android":"levelo://app?vid=0f408f9e-3725-4214-9270-2801c64844e7","ios":"levelo://app?vid=0f408f9e-3725-4214-9270-2801c64844e7"},"vehicle_type_id":"4","last_reported":1731712117,"current_range_meters":36000,"station_id":"ce4bghh2rcd13ifvqb60","pricing_plan_id":"cebpf4jnsgd1na2vs0mg"},{"bike_id":"8a32b09b-7036-46a9-957f-6cd7abf08180","system_id":"levelo_inurba_marseille","lat":43.30924,"lon":5.36846,"is_reserved":false,"is_disabled":false,"rental_uris":{"android":"levelo://app?vid=8a32b09b-7036-46a9-957f-6cd7abf08180","ios":"levelo://app?vid=8a32b09b-7036-46a9-957f-6cd7abf08180"},"vehicle_type_id":"4","last_reported":1731712117,"current_range_meters":12400,"station_id":"ce4bgn92rcd13ifvqbvg","pricing_plan_id":"cebpf4jnsgd1na2vs0mg"},{"bike_id":"a0ef8922-244f-4057-b694-c3a9f15d0826","system_id":"levelo_inurba_marseille","lat":43.29022,"lon":5.35921,"is_reserved":false,"is_disabled":false,"rental_uris":{"android":"levelo://app?vid=a0ef8922-244f-4057-b694-c3a9f15d0826","ios":"levelo://app?vid=a0ef8922-244f-4057-b694-c3a9f15d0826"},"vehicle_type_id":"4","last_reported":1731712117,"current_range_meters":17600,"station_id":"ce4bha92rcd13ifvqeg0","pricing_plan_id":"cebpf4jnsgd1na2vs0mg"},{"bike_id":"d94748f8-40ee-4468-9ec9-f30930775c57","system_id":"levelo_inurba_marseille","lat":43.27172,"lon":5.4099,"is_reserved":false,"is_disabled":false,"rental_uris":{"android":"levelo://app?vid=d94748f8-40ee-4468-9ec9-f30930775c57","ios":"levelo://app?vid=d94748f8-40ee-4468-9ec9-f30930775c57"},"vehicle_type_id":"4","last_reported":1731712117,"current_range_meters":38800,"station_id":"ce4bhl12rcd13ifvqgf0","pricing_plan_id":"cebpf4jnsgd1na2vs0mg"},{"bike_id":"baf948ad-adf3-41b6-8605-0b0f6b24354d","system_id":"levelo_inurba_marseille","lat":43.27892,"lon":5.36912,"is_reserved":false,"is_disabled":false,"rental_uris":{"android":"levelo://app?vid=baf948ad-adf3-41b6-8605-0b0f6b24354d","ios":"levelo://app?vid=baf948ad-adf3-41b6-8605-0b0f6b24354d"},"vehicle_type_id":"4","last_reported":1731712117,"current_range_meters":3600,"station_id":"","pricing_plan_id":"cebpf4jnsgd1na2vs0mg"},{"bike_id":"64121eb1-1cd1-4b91-ae8d-ec5240440754","system_id":"levelo_inurba_marseille","lat":43.2781,"lon":5.40709,"is_reserved":false,"is_disabled":false,"rental_uris":{"android":"levelo://app?vid=64121eb1-1cd1-4b91-ae8d-ec5240440754","ios":"levelo://app?vid=64121eb1-1cd1-4b91-ae8d-ec5240440754"},"vehicle_type_id":"4","last_reported":1731712117,"current_range_meters":12400,"station_id":"ce4bhnh2rcd13ifvqgtg","pricing_plan_id":"cebpf4jnsgd1na2vs0mg"},{"bike_id":"671a727f-99bc-4bae-8e7d-fbb39a0b8ea0","system_id":"levelo_inurba_marseille","lat":43.27995,"lon":5.41664,"is_reserved":false,"is_disabled":false,"rental_uris":{"android":"levelo://app?vid=671a727f-99bc-4bae-8e7d-fbb39a0b8ea0","ios":"levelo://app?vid=671a727f-99bc-4bae-8e7d-fbb39a0b8ea0"},"vehicle_type_id":"4","last_reported":1731712117,"current_range_meters":12000,"station_id":"ce4bho12rcd13ifvqh1g","pricing_plan_id":"cebpf4jnsgd1na2vs0mg"},{"bike_id":"c7ad3112-6fa1-480b-b6f6-f0b1dce495ed","system_id":"levelo_inurba_marseille","lat":43.2738,"lon":5.36251,"is_reserved":false,"is_disabled":false,"rental_uris":{"android":"levelo://app?vid=c7ad3112-6fa1-480b-b6f6-f0b1dce495ed","ios":"levelo://app?vid=c7ad3112-6fa1-480b-b6f6-f0b1dce495ed"},"vehicle_type_id":"4","last_reported":1731712117,"current_range_meters":38800,"station_id":"ce4bhbh2rcd13ifvqeo0","pricing_plan_id":"cebpf4jnsgd1na2vs0mg"},{"bike_id":"02b2e806-f54e-47af-9af3-817f9e684f62","system_id":"levelo_inurba_marseille","lat":43.33029,"lon":5.39045,"is_reserved":false,"is_disabled":false,"rental_uris":{"android":"levelo://app?vid=02b2e806-f54e-47af-9af3-817f9e684f62","ios":"levelo://app?vid=02b2e806-f54e-47af-9af3-817f9e684f62"},"vehicle_type_id":"4","last_reported":1731712117,"current_range_meters":24400,"station_id":"ce4bhr92rcd13ifvqhrg","pricing_plan_id":"cebpf4jnsgd1na2vs0mg"},{"bike_id":"d7c640cb-2a84-4400-9766-128530948093","system_id":"levelo_inurba_marseille","lat":43.31537,"lon":5.38027,"is_reserved":false,"is_disabled":false,"rental_uris":{"android":"levelo://app?vid=d7c640cb-2a84-4400-9766-128530948093","ios":"levelo://app?vid=d7c640cb-2a84-4400-9766-128530948093"},"vehicle_type_id":"4","last_reported":1731712117,"current_range_meters":37600,"station_id":"ce4bhsp2rcd13ifvqi50","pricing_plan_id":"cebpf4jnsgd1na2vs0mg"},{"bike_id":"5c28af49-1311-42ec-956b-05a6cb87cb8d","system_id":"levelo_inurba_marseille","lat":43.2795,"lon":5.41051,"is_reserved":false,"is_disabled":false,"rental_uris":{"android":"levelo://app?vid=5c28af49-1311-42ec-956b-05a6cb87cb8d","ios":"levelo://app?vid=5c28af49-1311-42ec-956b-05a6cb87cb8d"},"vehicle_type_id":"4","last_reported":1731712117,"current_range_meters":38800,"station_id":"ce4bhnp2rcd13ifvqh0g","pricing_plan_id":"cebpf4jnsgd1na2vs0mg"},{"bike_id":"bc0d10e0-28a9-494f-accd-c09bd01bda0d","system_id":"levelo_inurba_marseille","lat":43.30321,"lon":5.40446,"is_reserved":false,"is_disabled":false,"rental_uris":{"android":"levelo://app?vid=bc0d10e0-28a9-494f-accd-c09bd01bda0d","ios":"levelo://app?vid=bc0d10e0-28a9-494f-accd-c09bd01bda0d"},"vehicle_type_id":"4","last_reported":1731712117,"current_range_meters":18000,"station_id":"ce4bh012rcd13ifvqd10","pricing_plan_id":"cebpf4jnsgd1na2vs0mg"},{"bike_id":"3b8a9d42-92ed-4699-ad46-4a348251fa0b","system_id":"levelo_inurba_marseille","lat":43.25722,"lon":5.41116,"is_reserved":false,"is_disabled":false,"rental_uris":{"android":"levelo://app?vid=3b8a9d42-92ed-4699-ad46-4a348251fa0b","ios":"levelo://app?vid=3b8a9d42-92ed-4699-ad46-4a348251fa0b"},"vehicle_type_id":"4","last_reported":1731712117,"current_range_meters":19200,"station_id":"ce4bhkp2rcd13ifvqgd0","pricing_plan_id":"cebpf4jnsgd1na2vs0mg"},{"bike_id":"46632805-d598-46ca-8978-4f5e71b702c6","system_id":"levelo_inurba_marseille","lat":43.28155,"lon":5.42639,"is_reserved":false,"is_disabled":false,"rental_uris":{"android":"levelo://app?vid=46632805-d598-46ca-8978-4f5e71b702c6","ios":"levelo://app?vid=46632805-d598-46ca-8978-4f5e71b702c6"},"vehicle_type_id":"4","last_reported":1731712117,"current_range_meters":38800,"station_id":"ce4bhnh2rcd13ifvqgug","pricing_plan_id":"cebpf4jnsgd1na2vs0mg"},{"bike_id":"391063d8-dc1c-467e-964d-5da9d70299d6","system_id":"levelo_inurba_marseille","lat":43.3033,"lon":5.40438,"is_reserved":false,"is_disabled":false,"rental_uris":{"android":"levelo://app?vid=391063d8-dc1c-467e-964d-5da9d70299d6","ios":"levelo://app?vid=391063d8-dc1c-467e-964d-5da9d70299d6"},"vehicle_type_id":"4","last_reported":1731712117,"current_range_meters":26000,"station_id":"ce4bh012rcd13ifvqd10","pricing_plan_id":"cebpf4jnsgd1na2vs0mg"},{"bike_id":"bff2b802-22fb-4440-9ddd-c6e48a3f3504","system_id":"levelo_inurba_marseille","lat":43.32337,"lon":5.4062,"is_reserved":false,"is_disabled":false,"rental_uris":{"android":"levelo://app?vid=bff2b802-22fb-4440-9ddd-c6e48a3f3504","ios":"levelo://app?vid=bff2b802-22fb-4440-9ddd-c6e48a3f3504"},"vehicle_type_id":"4","last_reported":1731712117,"current_range_meters":27600,"station_id":"ce4bhq92rcd13ifvqhjg","pricing_plan_id":"cebpf4jnsgd1na2vs0mg"},{"bike_id":"d01dca5e-5b16-48ef-9899-62a24cb1091b","system_id":"levelo_inurba_marseille","lat":43.306,"lon":5.37247,"is_reserved":false,"is_disabled":false,"rental_uris":{"android":"levelo://app?vid=d01dca5e-5b16-48ef-9899-62a24cb1091b","ios":"levelo://app?vid=d01dca5e-5b16-48ef-9899-62a24cb1091b"},"vehicle_type_id":"4","last_reported":1731712117,"current_range_meters":33600,"station_id":"ce4bgqh2rcd13ifvqc4g","pricing_plan_id":"cebpf4jnsgd1na2vs0mg"},{"bike_id":"5d86f886-5d1c-4480-89a6-7c110eb1a4a5","system_id":"levelo_inurba_marseille","lat":43.295348,"lon":5.385405,"is_reserved":false,"is_disabled":false,"rental_uris":{"android":"levelo://app?vid=5d86f886-5d1c-4480-89a6-7c110eb1a4a5","ios":"levelo://app?vid=5d86f886-5d1c-4480-89a6-7c110eb1a4a5"},"vehicle_type_id":"4","last_reported":1731712117,"current_range_meters":30000,"station_id":"ce4bgih2rcd13ifvqba0","pricing_plan_id":"cebpf4jnsgd1na2vs0mg"},{"bike_id":"a7759f52-43d8-4392-a4d7-50c3610b64f4","system_id":"levelo_inurba_marseille","lat":43.32481,"lon":5.36572,"is_reserved":false,"is_disabled":false,"rental_uris":{"android":"levelo://app?vid=a7759f52-43d8-4392-a4d7-50c3610b64f4","ios":"levelo://app?vid=a7759f52-43d8-4392-a4d7-50c3610b64f4"},"vehicle_type_id":"4","last_reported":1731712117,"current_range_meters":35200,"station_id":"ce4bhs12rcd13ifvqhvg","pricing_plan_id":"cebpf4jnsgd1na2vs0mg"},{"bike_id":"2c7da520-bf3f-4579-bbaf-d8bed38515fb","system_id":"levelo_inurba_marseille","lat":43.24652,"lon":5.38897,"is_reserved":false,"is_disabled":false,"rental_uris":{"android":"levelo://app?vid=2c7da520-bf3f-4579-bbaf-d8bed38515fb","ios":"levelo://app?vid=2c7da520-bf3f-4579-bbaf-d8bed38515fb"},"vehicle_type_id":"4","last_reported":1731712117,"current_range_meters":38800,"station_id":"ce4bhg12rcd13ifvqf60","pricing_plan_id":"cebpf4jnsgd1na2vs0mg"},{"bike_id":"f977c5f6-0664-4a1f-98cb-06e11ab740ff","system_id":"levelo_inurba_marseille","lat":43.274977,"lon":5.424651,"is_reserved":false,"is_disabled":false,"rental_uris":{"android":"levelo://app?vid=f977c5f6-0664-4a1f-98cb-06e11ab740ff","ios":"levelo://app?vid=f977c5f6-0664-4a1f-98cb-06e11ab740ff"},"vehicle_type_id":"4","last_reported":1731712117,"current_range_meters":34000,"station_id":"ce4bhn92rcd13ifvqgrg","pricing_plan_id":"cebpf4jnsgd1na2vs0mg"},{"bike_id":"b8e0adfd-dc7d-42dd-a2e4-574f06410f3c","system_id":"levelo_inurba_marseille","lat":43.27816,"lon":5.40711,"is_reserved":false,"is_disabled":false,"rental_uris":{"android":"levelo://app?vid=b8e0adfd-dc7d-42dd-a2e4-574f06410f3c","ios":"levelo://app?vid=b8e0adfd-dc7d-42dd-a2e4-574f06410f3c"},"vehicle_type_id":"4","last_reported":1731712117,"current_range_meters":8800,"station_id":"ce4bhnh2rcd13ifvqgtg","pricing_plan_id":"cebpf4jnsgd1na2vs0mg"},{"bike_id":"60346686-846e-43e0-b1f0-095f872d71c2","system_id":"levelo_inurba_marseille","lat":43.337444,"lon":5.374475,"is_reserved":false,"is_disabled":false,"rental_uris":{"android":"levelo://app?vid=60346686-846e-43e0-b1f0-095f872d71c2","ios":"levelo://app?vid=60346686-846e-43e0-b1f0-095f872d71c2"},"vehicle_type_id":"4","last_reported":1731712117,"current_range_meters":37600,"station_id":"","pricing_plan_id":"cebpf4jnsgd1na2vs0mg"},{"bike_id":"d48d82d5-aecb-4fcc-9d67-53e0a2b37e92","system_id":"levelo_inurba_marseille","lat":43.31715,"lon":5.37744,"is_reserved":false,"is_disabled":false,"rental_uris":{"android":"levelo://app?vid=d48d82d5-aecb-4fcc-9d67-53e0a2b37e92","ios":"levelo://app?vid=d48d82d5-aecb-4fcc-9d67-53e0a2b37e92"},"vehicle_type_id":"4","last_reported":1731712117,"current_range_meters":38800,"station_id":"ce4bgth2rcd13ifvqch0","pricing_plan_id":"cebpf4jnsgd1na2vs0mg"},{"bike_id":"a65a2419-69e6-4d19-b1e3-3abe61fd327b","system_id":"levelo_inurba_marseille","lat":43.24813,"lon":5.37463,"is_reserved":false,"is_disabled":false,"rental_uris":{"android":"levelo://app?vid=a65a2419-69e6-4d19-b1e3-3abe61fd327b","ios":"levelo://app?vid=a65a2419-69e6-4d19-b1e3-3abe61fd327b"},"vehicle_type_id":"4","last_reported":1731712117,"current_range_meters":38000,"station_id":"ce4bhgh2rcd13ifvqfb0","pricing_plan_id":"cebpf4jnsgd1na2vs0mg"},{"bike_id":"d206d41a-8ea1-48b7-8dea-76f005b54e28","system_id":"levelo_inurba_marseille","lat":43.337444,"lon":5.374475,"is_reserved":false,"is_disabled":false,"rental_uris":{"android":"levelo://app?vid=d206d41a-8ea1-48b7-8dea-76f005b54e28","ios":"levelo://app?vid=d206d41a-8ea1-48b7-8dea-76f005b54e28"},"vehicle_type_id":"4","last_reported":1731712117,"current_range_meters":25600,"station_id":"","pricing_plan_id":"cebpf4jnsgd1na2vs0mg"},{"bike_id":"7386319e-0d6c-493a-904a-1c5207db3d50","system_id":"levelo_inurba_marseille","lat":43.23192,"lon":5.39991,"is_reserved":false,"is_disabled":false,"rental_uris":{"android":"levelo://app?vid=7386319e-0d6c-493a-904a-1c5207db3d50","ios":"levelo://app?vid=7386319e-0d6c-493a-904a-1c5207db3d50"},"vehicle_type_id":"4","last_reported":1731712117,"current_range_meters":20800,"station_id":"ce4bhn12rcd13ifvqgqg","pricing_plan_id":"cebpf4jnsgd1na2vs0mg"},{"bike_id":"833e03e1-4c2a-4d48-b02a-e51996b7b259","system_id":"levelo_inurba_marseille","lat":43.26496,"lon":5.39549,"is_reserved":false,"is_disabled":false,"rental_uris":{"android":"levelo://app?vid=833e03e1-4c2a-4d48-b02a-e51996b7b259","ios":"levelo://app?vid=833e03e1-4c2a-4d48-b02a-e51996b7b259"},"vehicle_type_id":"4","last_reported":1731712117,"current_range_meters":6000,"station_id":"ce4bhi12rcd13ifvqfq0","pricing_plan_id":"cebpf4jnsgd1na2vs0mg"},{"bike_id":"ade60102-ea9d-4679-8d9d-2d7399f3cbd8","system_id":"levelo_inurba_marseille","lat":43.30339,"lon":5.40458,"is_reserved":false,"is_disabled":false,"rental_uris":{"android":"levelo://app?vid=ade60102-ea9d-4679-8d9d-2d7399f3cbd8","ios":"levelo://app?vid=ade60102-ea9d-4679-8d9d-2d7399f3cbd8"},"vehicle_type_id":"4","last_reported":1731712117,"current_range_meters":38000,"station_id":"ce4bh012rcd13ifvqd10","pricing_plan_id":"cebpf4jnsgd1na2vs0mg"},{"bike_id":"480bf871-2030-48de-883c-9bee34b10631","system_id":"levelo_inurba_marseille","lat":43.30538,"lon":5.38435,"is_reserved":false,"is_disabled":false,"rental_uris":{"android":"levelo://app?vid=480bf871-2030-48de-883c-9bee34b10631","ios":"levelo://app?vid=480bf871-2030-48de-883c-9bee34b10631"},"vehicle_type_id":"4","last_reported":1731712117,"current_range_meters":16400,"station_id":"ce4bgg92rcd13ifvqb30","pricing_plan_id":"cebpf4jnsgd1na2vs0mg"},{"bike_id":"0bcd71bc-5f6c-4af6-961a-76f94ceb8ff4","system_id":"levelo_inurba_marseille","lat":43.28417,"lon":5.37513,"is_reserved":false,"is_disabled":false,"rental_uris":{"android":"levelo://app?vid=0bcd71bc-5f6c-4af6-961a-76f94ceb8ff4","ios":"levelo://app?vid=0bcd71bc-5f6c-4af6-961a-76f94ceb8ff4"},"vehicle_type_id":"4","last_reported":1731712117,"current_range_meters":33600,"station_id":"ce4bh412rcd13ifvqds0","pricing_plan_id":"cebpf4jnsgd1na2vs0mg"},{"bike_id":"963e5493-1e1e-4e84-8dcb-e5db09ee7ae9","system_id":"levelo_inurba_marseille","lat":43.26214,"lon":5.37437,"is_reserved":false,"is_disabled":false,"rental_uris":{"android":"levelo://app?vid=963e5493-1e1e-4e84-8dcb-e5db09ee7ae9","ios":"levelo://app?vid=963e5493-1e1e-4e84-8dcb-e5db09ee7ae9"},"vehicle_type_id":"4","last_reported":1731712117,"current_range_meters":36000,"station_id":"ce4bhgp2rcd13ifvqfc0","pricing_plan_id":"cebpf4jnsgd1na2vs0mg"},{"bike_id":"9b79faf8-de95-4c40-8325-d13e1100eff0","system_id":"levelo_inurba_marseille","lat":43.290039,"lon":5.367371,"is_reserved":false,"is_disabled":false,"rental_uris":{"android":"levelo://app?vid=9b79faf8-de95-4c40-8325-d13e1100eff0","ios":"levelo://app?vid=9b79faf8-de95-4c40-8325-d13e1100eff0"},"vehicle_type_id":"4","last_reported":1731712117,"current_range_meters":27600,"station_id":"ce4bhap2rcd13ifvqek0","pricing_plan_id":"cebpf4jnsgd1na2vs0mg"},{"bike_id":"74a565d5-8e48-40f7-859a-4d7e07a82f28","system_id":"levelo_inurba_marseille","lat":43.24077,"lon":5.37763,"is_reserved":false,"is_disabled":false,"rental_uris":{"android":"levelo://app?vid=74a565d5-8e48-40f7-859a-4d7e07a82f28","ios":"levelo://app?vid=74a565d5-8e48-40f7-859a-4d7e07a82f28"},"vehicle_type_id":"4","last_reported":1731712117,"current_range_meters":38800,"station_id":"ce4bhnp2rcd13ifvqgvg","pricing_plan_id":"cebpf4jnsgd1na2vs0mg"},{"bike_id":"b4d07a3b-ede1-4f23-a41f-63f02cc91458","system_id":"levelo_inurba_marseille","lat":43.29447,"lon":5.3974,"is_reserved":false,"is_disabled":false,"rental_uris":{"android":"levelo://app?vid=b4d07a3b-ede1-4f23-a41f-63f02cc91458","ios":"levelo://app?vid=b4d07a3b-ede1-4f23-a41f-63f02cc91458"},"vehicle_type_id":"4","last_reported":1731712117,"current_range_meters":38400,"station_id":"ce4bh3h2rcd13ifvqdo0","pricing_plan_id":"cebpf4jnsgd1na2vs0mg"},{"bike_id":"f9974bbc-091d-44b4-ab8a-31a80f3ec0de","system_id":"levelo_inurba_marseille","lat":43.30898,"lon":5.36867,"is_reserved":false,"is_disabled":false,"rental_uris":{"android":"levelo://app?vid=f9974bbc-091d-44b4-ab8a-31a80f3ec0de","ios":"levelo://app?vid=f9974bbc-091d-44b4-ab8a-31a80f3ec0de"},"vehicle_type_id":"4","last_reported":1731712117,"current_range_meters":13600,"station_id":"ce4bgn92rcd13ifvqbvg","pricing_plan_id":"cebpf4jnsgd1na2vs0mg"},{"bike_id":"9131ffa7-0187-491e-aef5-223b74bee0d6","system_id":"levelo_inurba_marseille","lat":43.29449,"lon":5.39747,"is_reserved":false,"is_disabled":false,"rental_uris":{"android":"levelo://app?vid=9131ffa7-0187-491e-aef5-223b74bee0d6","ios":"levelo://app?vid=9131ffa7-0187-491e-aef5-223b74bee0d6"},"vehicle_type_id":"4","last_reported":1731712117,"current_range_meters":34000,"station_id":"ce4bh3h2rcd13ifvqdo0","pricing_plan_id":"cebpf4jnsgd1na2vs0mg"},{"bike_id":"286c0ca4-df55-4e96-8081-a8e8c60469b0","system_id":"levelo_inurba_marseille","lat":43.27973,"lon":5.3873,"is_reserved":false,"is_disabled":false,"rental_uris":{"android":"levelo://app?vid=286c0ca4-df55-4e96-8081-a8e8c60469b0","ios":"levelo://app?vid=286c0ca4-df55-4e96-8081-a8e8c60469b0"},"vehicle_type_id":"4","last_reported":1731712117,"current_range_meters":30400,"station_id":"ce4bhg12rcd13ifvqf80","pricing_plan_id":"cebpf4jnsgd1na2vs0mg"},{"bike_id":"8cdbea35-8fef-495d-8852-e267a38a3329","system_id":"levelo_inurba_marseille","lat":43.28465,"lon":5.35899,"is_reserved":false,"is_disabled":false,"rental_uris":{"android":"levelo://app?vid=8cdbea35-8fef-495d-8852-e267a38a3329","ios":"levelo://app?vid=8cdbea35-8fef-495d-8852-e267a38a3329"},"vehicle_type_id":"4","last_reported":1731712117,"current_range_meters":38800,"station_id":"ce4bhah2rcd13ifvqei0","pricing_plan_id":"cebpf4jnsgd1na2vs0mg"},{"bike_id":"b9eac67c-059a-4acc-89e2-fdba07c967a1","system_id":"levelo_inurba_marseille","lat":43.3053,"lon":5.38431,"is_reserved":false,"is_disabled":false,"rental_uris":{"android":"levelo://app?vid=b9eac67c-059a-4acc-89e2-fdba07c967a1","ios":"levelo://app?vid=b9eac67c-059a-4acc-89e2-fdba07c967a1"},"vehicle_type_id":"4","last_reported":1731712117,"current_range_meters":37600,"station_id":"ce4bgg92rcd13ifvqb30","pricing_plan_id":"cebpf4jnsgd1na2vs0mg"},{"bike_id":"afcb96cc-da56-41f7-8d2b-2ed6c81711b1","system_id":"levelo_inurba_marseille","lat":43.28036,"lon":5.36955,"is_reserved":false,"is_disabled":false,"rental_uris":{"android":"levelo://app?vid=afcb96cc-da56-41f7-8d2b-2ed6c81711b1","ios":"levelo://app?vid=afcb96cc-da56-41f7-8d2b-2ed6c81711b1"},"vehicle_type_id":"4","last_reported":1731712117,"current_range_meters":14400,"station_id":"ce4bha12rcd13ifvqef0","pricing_plan_id":"cebpf4jnsgd1na2vs0mg"},{"bike_id":"e017d363-fb9a-4824-8abf-234d831a57c1","system_id":"levelo_inurba_marseille","lat":43.2847,"lon":5.3589,"is_reserved":false,"is_disabled":false,"rental_uris":{"android":"levelo://app?vid=e017d363-fb9a-4824-8abf-234d831a57c1","ios":"levelo://app?vid=e017d363-fb9a-4824-8abf-234d831a57c1"},"vehicle_type_id":"4","last_reported":1731712117,"current_range_meters":36800,"station_id":"ce4bhah2rcd13ifvqei0","pricing_plan_id":"cebpf4jnsgd1na2vs0mg"},{"bike_id":"00f01bcd-abb4-428d-a4f7-8bdd5b1341cd","system_id":"levelo_inurba_marseille","lat":43.32289,"lon":5.38274,"is_reserved":false,"is_disabled":false,"rental_uris":{"android":"levelo://app?vid=00f01bcd-abb4-428d-a4f7-8bdd5b1341cd","ios":"levelo://app?vid=00f01bcd-abb4-428d-a4f7-8bdd5b1341cd"},"vehicle_type_id":"4","last_reported":1731712117,"current_range_meters":20000,"station_id":"ce4bhr12rcd13ifvqhqg","pricing_plan_id":"cebpf4jnsgd1na2vs0mg"},{"bike_id":"87156f78-2e09-4e66-89df-0a85c184e89b","system_id":"levelo_inurba_marseille","lat":43.27942,"lon":5.41039,"is_reserved":false,"is_disabled":false,"rental_uris":{"android":"levelo://app?vid=87156f78-2e09-4e66-89df-0a85c184e89b","ios":"levelo://app?vid=87156f78-2e09-4e66-89df-0a85c184e89b"},"vehicle_type_id":"4","last_reported":1731712117,"current_range_meters":28800,"station_id":"ce4bhnp2rcd13ifvqh0g","pricing_plan_id":"cebpf4jnsgd1na2vs0mg"},{"bike_id":"1f820e15-5981-4ed6-9032-88f853e4daac","system_id":"levelo_inurba_marseille","lat":43.26211,"lon":5.37441,"is_reserved":false,"is_disabled":false,"rental_uris":{"android":"levelo://app?vid=1f820e15-5981-4ed6-9032-88f853e4daac","ios":"levelo://app?vid=1f820e15-5981-4ed6-9032-88f853e4daac"},"vehicle_type_id":"4","last_reported":1731712117,"current_range_meters":18000,"station_id":"ce4bhgp2rcd13ifvqfc0","pricing_plan_id":"cebpf4jnsgd1na2vs0mg"},{"bike_id":"7be9199b-afb6-4033-aaf6-16840ab51d79","system_id":"levelo_inurba_marseille","lat":43.30898,"lon":5.39642,"is_reserved":false,"is_disabled":false,"rental_uris":{"android":"levelo://app?vid=7be9199b-afb6-4033-aaf6-16840ab51d79","ios":"levelo://app?vid=7be9199b-afb6-4033-aaf6-16840ab51d79"},"vehicle_type_id":"4","last_reported":1731712117,"current_range_meters":30800,"station_id":"ce4bh012rcd13ifvqcv0","pricing_plan_id":"cebpf4jnsgd1na2vs0mg"},{"bike_id":"7b524c38-1bfe-4cc0-88cf-4051500bfd49","system_id":"levelo_inurba_marseille","lat":43.29983,"lon":5.37189,"is_reserved":false,"is_disabled":false,"rental_uris":{"android":"levelo://app?vid=7b524c38-1bfe-4cc0-88cf-4051500bfd49","ios":"levelo://app?vid=7b524c38-1bfe-4cc0-88cf-4051500bfd49"},"vehicle_type_id":"4","last_reported":1731712117,"current_range_meters":20400,"station_id":"ce4bgr92rcd13ifvqc7g","pricing_plan_id":"cebpf4jnsgd1na2vs0mg"},{"bike_id":"04246129-5461-4657-8b0a-917c23e4a028","system_id":"levelo_inurba_marseille","lat":43.27178,"lon":5.40994,"is_reserved":false,"is_disabled":false,"rental_uris":{"android":"levelo://app?vid=04246129-5461-4657-8b0a-917c23e4a028","ios":"levelo://app?vid=04246129-5461-4657-8b0a-917c23e4a028"},"vehicle_type_id":"4","last_reported":1731712117,"current_range_meters":38800,"station_id":"ce4bhl12rcd13ifvqgf0","pricing_plan_id":"cebpf4jnsgd1na2vs0mg"},{"bike_id":"8785a0c4-dc59-449b-ba5a-ad16666c81c8","system_id":"levelo_inurba_marseille","lat":43.294342,"lon":5.383938,"is_reserved":false,"is_disabled":false,"rental_uris":{"android":"levelo://app?vid=8785a0c4-dc59-449b-ba5a-ad16666c81c8","ios":"levelo://app?vid=8785a0c4-dc59-449b-ba5a-ad16666c81c8"},"vehicle_type_id":"4","last_reported":1731712117,"current_range_meters":19200,"station_id":"ce4bh0p2rcd13ifvqd80","pricing_plan_id":"cebpf4jnsgd1na2vs0mg"},{"bike_id":"fda17adf-97ea-438e-81e7-fd6fce640ce4","system_id":"levelo_inurba_marseille","lat":43.2756,"lon":5.38422,"is_reserved":false,"is_disabled":false,"rental_uris":{"android":"levelo://app?vid=fda17adf-97ea-438e-81e7-fd6fce640ce4","ios":"levelo://app?vid=fda17adf-97ea-438e-81e7-fd6fce640ce4"},"vehicle_type_id":"4","last_reported":1731712117,"current_range_meters":38800,"station_id":"ce4bhh92rcd13ifvqfi0","pricing_plan_id":"cebpf4jnsgd1na2vs0mg"},{"bike_id":"12bd65eb-ab77-4bdc-a30c-cad42bdba511","system_id":"levelo_inurba_marseille","lat":43.305365,"lon":5.384305,"is_reserved":false,"is_disabled":false,"rental_uris":{"android":"levelo://app?vid=12bd65eb-ab77-4bdc-a30c-cad42bdba511","ios":"levelo://app?vid=12bd65eb-ab77-4bdc-a30c-cad42bdba511"},"vehicle_type_id":"4","last_reported":1731712117,"current_range_meters":38800,"station_id":"ce4bgg92rcd13ifvqb30","pricing_plan_id":"cebpf4jnsgd1na2vs0mg"},{"bike_id":"8df63250-87c6-46c3-9eab-e7b6ded22fb2","system_id":"levelo_inurba_marseille","lat":43.3089,"lon":5.39638,"is_reserved":false,"is_disabled":false,"rental_uris":{"android":"levelo://app?vid=8df63250-87c6-46c3-9eab-e7b6ded22fb2","ios":"levelo://app?vid=8df63250-87c6-46c3-9eab-e7b6ded22fb2"},"vehicle_type_id":"4","last_reported":1731712117,"current_range_meters":10800,"station_id":"ce4bh012rcd13ifvqcv0","pricing_plan_id":"cebpf4jnsgd1na2vs0mg"},{"bike_id":"d7cad7ba-a3cf-4113-8f4d-63bd503bb522","system_id":"levelo_inurba_marseille","lat":43.27618,"lon":5.361173,"is_reserved":false,"is_disabled":false,"rental_uris":{"android":"levelo://app?vid=d7cad7ba-a3cf-4113-8f4d-63bd503bb522","ios":"levelo://app?vid=d7cad7ba-a3cf-4113-8f4d-63bd503bb522"},"vehicle_type_id":"4","last_reported":1731712117,"current_range_meters":22800,"station_id":"ce4bgj92rcd13ifvqbe0","pricing_plan_id":"cebpf4jnsgd1na2vs0mg"},{"bike_id":"b17d06d2-c9d4-430e-8c4e-4c13081ec160","system_id":"levelo_inurba_marseille","lat":43.24649,"lon":5.38888,"is_reserved":false,"is_disabled":false,"rental_uris":{"android":"levelo://app?vid=b17d06d2-c9d4-430e-8c4e-4c13081ec160","ios":"levelo://app?vid=b17d06d2-c9d4-430e-8c4e-4c13081ec160"},"vehicle_type_id":"4","last_reported":1731712117,"current_range_meters":38800,"station_id":"ce4bhg12rcd13ifvqf60","pricing_plan_id":"cebpf4jnsgd1na2vs0mg"},{"bike_id":"e0a50b92-2a41-45ff-bfbc-c6ffc781939f","system_id":"levelo_inurba_marseille","lat":43.32369,"lon":5.38884,"is_reserved":false,"is_disabled":false,"rental_uris":{"android":"levelo://app?vid=e0a50b92-2a41-45ff-bfbc-c6ffc781939f","ios":"levelo://app?vid=e0a50b92-2a41-45ff-bfbc-c6ffc781939f"},"vehicle_type_id":"4","last_reported":1731712117,"current_range_meters":38800,"station_id":"ce4bhqp2rcd13ifvqhog","pricing_plan_id":"cebpf4jnsgd1na2vs0mg"},{"bike_id":"e40acb1f-7c3b-464f-a385-d83d7c01e615","system_id":"levelo_inurba_marseille","lat":43.32292,"lon":5.38258,"is_reserved":false,"is_disabled":false,"rental_uris":{"android":"levelo://app?vid=e40acb1f-7c3b-464f-a385-d83d7c01e615","ios":"levelo://app?vid=e40acb1f-7c3b-464f-a385-d83d7c01e615"},"vehicle_type_id":"4","last_reported":1731712117,"current_range_meters":18800,"station_id":"ce4bhr12rcd13ifvqhqg","pricing_plan_id":"cebpf4jnsgd1na2vs0mg"},{"bike_id":"5ce2d086-af0a-41a9-a5f6-a8dcf6dd55a5","system_id":"levelo_inurba_marseille","lat":43.33026,"lon":5.39042,"is_reserved":false,"is_disabled":false,"rental_uris":{"android":"levelo://app?vid=5ce2d086-af0a-41a9-a5f6-a8dcf6dd55a5","ios":"levelo://app?vid=5ce2d086-af0a-41a9-a5f6-a8dcf6dd55a5"},"vehicle_type_id":"4","last_reported":1731712117,"current_range_meters":38800,"station_id":"ce4bhr92rcd13ifvqhrg","pricing_plan_id":"cebpf4jnsgd1na2vs0mg"},{"bike_id":"36502b60-4bc7-4a32-b7db-486ac5a4b9f1","system_id":"levelo_inurba_marseille","lat":43.28435,"lon":5.39184,"is_reserved":false,"is_disabled":false,"rental_uris":{"android":"levelo://app?vid=36502b60-4bc7-4a32-b7db-486ac5a4b9f1","ios":"levelo://app?vid=36502b60-4bc7-4a32-b7db-486ac5a4b9f1"},"vehicle_type_id":"4","last_reported":1731712117,"current_range_meters":33600,"station_id":"ce4bhoh2rcd13ifvqh5g","pricing_plan_id":"cebpf4jnsgd1na2vs0mg"},{"bike_id":"11f347bd-93ad-4d0b-9f37-361653834329","system_id":"levelo_inurba_marseille","lat":43.29006,"lon":5.35609,"is_reserved":false,"is_disabled":false,"rental_uris":{"android":"levelo://app?vid=11f347bd-93ad-4d0b-9f37-361653834329","ios":"levelo://app?vid=11f347bd-93ad-4d0b-9f37-361653834329"},"vehicle_type_id":"4","last_reported":1731712117,"current_range_meters":26000,"station_id":"ce4bhb92rcd13ifvqen0","pricing_plan_id":"cebpf4jnsgd1na2vs0mg"},{"bike_id":"f32976f0-d528-4261-bbc2-43c0b43887bc","system_id":"levelo_inurba_marseille","lat":43.279734,"lon":5.38744,"is_reserved":false,"is_disabled":false,"rental_uris":{"android":"levelo://app?vid=f32976f0-d528-4261-bbc2-43c0b43887bc","ios":"levelo://app?vid=f32976f0-d528-4261-bbc2-43c0b43887bc"},"vehicle_type_id":"4","last_reported":1731712117,"current_range_meters":33200,"station_id":"ce4bhg12rcd13ifvqf80","pricing_plan_id":"cebpf4jnsgd1na2vs0mg"},{"bike_id":"82a7fa7a-156a-46a6-800c-aa67acf5ce4f","system_id":"levelo_inurba_marseille","lat":43.28461,"lon":5.358843,"is_reserved":false,"is_disabled":false,"rental_uris":{"android":"levelo://app?vid=82a7fa7a-156a-46a6-800c-aa67acf5ce4f","ios":"levelo://app?vid=82a7fa7a-156a-46a6-800c-aa67acf5ce4f"},"vehicle_type_id":"4","last_reported":1731712117,"current_range_meters":24000,"station_id":"ce4bhah2rcd13ifvqei0","pricing_plan_id":"cebpf4jnsgd1na2vs0mg"},{"bike_id":"859c66eb-b143-436d-9f79-52601135bcd9","system_id":"levelo_inurba_marseille","lat":43.31076,"lon":5.38354,"is_reserved":false,"is_disabled":false,"rental_uris":{"android":"levelo://app?vid=859c66eb-b143-436d-9f79-52601135bcd9","ios":"levelo://app?vid=859c66eb-b143-436d-9f79-52601135bcd9"},"vehicle_type_id":"4","last_reported":1731712117,"current_range_meters":32000,"station_id":"ce4bgv92rcd13ifvqcr0","pricing_plan_id":"cebpf4jnsgd1na2vs0mg"},{"bike_id":"107d26bb-dbe5-4489-9be3-de922ee670da","system_id":"levelo_inurba_marseille","lat":43.32055,"lon":5.41546,"is_reserved":false,"is_disabled":false,"rental_uris":{"android":"levelo://app?vid=107d26bb-dbe5-4489-9be3-de922ee670da","ios":"levelo://app?vid=107d26bb-dbe5-4489-9be3-de922ee670da"},"vehicle_type_id":"4","last_reported":1731712117,"current_range_meters":37600,"station_id":"ce4bhq92rcd13ifvqhkg","pricing_plan_id":"cebpf4jnsgd1na2vs0mg"},{"bike_id":"3b3d662c-686a-4ba3-b7b2-3b40fe46acd2","system_id":"levelo_inurba_marseille","lat":43.28973,"lon":5.37846,"is_reserved":false,"is_disabled":false,"rental_uris":{"android":"levelo://app?vid=3b3d662c-686a-4ba3-b7b2-3b40fe46acd2","ios":"levelo://app?vid=3b3d662c-686a-4ba3-b7b2-3b40fe46acd2"},"vehicle_type_id":"4","last_reported":1731712117,"current_range_meters":38800,"station_id":"ce4bh9p2rcd13ifvqed0","pricing_plan_id":"cebpf4jnsgd1na2vs0mg"},{"bike_id":"76fda271-4bcd-4529-8397-8074a1eff7fe","system_id":"levelo_inurba_marseille","lat":43.337444,"lon":5.374475,"is_reserved":false,"is_disabled":false,"rental_uris":{"android":"levelo://app?vid=76fda271-4bcd-4529-8397-8074a1eff7fe","ios":"levelo://app?vid=76fda271-4bcd-4529-8397-8074a1eff7fe"},"vehicle_type_id":"4","last_reported":1731712117,"current_range_meters":36000,"station_id":"","pricing_plan_id":"cebpf4jnsgd1na2vs0mg"},{"bike_id":"5a0229b8-b19d-42bb-a768-44b65bc0378a","system_id":"levelo_inurba_marseille","lat":43.2944,"lon":5.39751,"is_reserved":false,"is_disabled":false,"rental_uris":{"android":"levelo://app?vid=5a0229b8-b19d-42bb-a768-44b65bc0378a","ios":"levelo://app?vid=5a0229b8-b19d-42bb-a768-44b65bc0378a"},"vehicle_type_id":"4","last_reported":1731712117,"current_range_meters":31200,"station_id":"ce4bh3h2rcd13ifvqdo0","pricing_plan_id":"cebpf4jnsgd1na2vs0mg"},{"bike_id":"7125cda5-6cac-4f0d-b24c-2d801b2955b5","system_id":"levelo_inurba_marseille","lat":43.23188,"lon":5.39992,"is_reserved":false,"is_disabled":false,"rental_uris":{"android":"levelo://app?vid=7125cda5-6cac-4f0d-b24c-2d801b2955b5","ios":"levelo://app?vid=7125cda5-6cac-4f0d-b24c-2d801b2955b5"},"vehicle_type_id":"4","last_reported":1731712117,"current_range_meters":39200,"station_id":"ce4bhn12rcd13ifvqgqg","pricing_plan_id":"cebpf4jnsgd1na2vs0mg"},{"bike_id":"86215429-cbbf-4219-9878-648fd0a498c9","system_id":"levelo_inurba_marseille","lat":43.279995,"lon":5.400145,"is_reserved":false,"is_disabled":false,"rental_uris":{"android":"levelo://app?vid=86215429-cbbf-4219-9878-648fd0a498c9","ios":"levelo://app?vid=86215429-cbbf-4219-9878-648fd0a498c9"},"vehicle_type_id":"4","last_reported":1731712117,"current_range_meters":38800,"station_id":"ce4bho92rcd13ifvqh4g","pricing_plan_id":"cebpf4jnsgd1na2vs0mg"},{"bike_id":"48329731-4f6c-41e1-a533-cc84398d0a05","system_id":"levelo_inurba_marseille","lat":43.26505,"lon":5.3956,"is_reserved":false,"is_disabled":false,"rental_uris":{"android":"levelo://app?vid=48329731-4f6c-41e1-a533-cc84398d0a05","ios":"levelo://app?vid=48329731-4f6c-41e1-a533-cc84398d0a05"},"vehicle_type_id":"4","last_reported":1731712117,"current_range_meters":36000,"station_id":"ce4bhi12rcd13ifvqfq0","pricing_plan_id":"cebpf4jnsgd1na2vs0mg"},{"bike_id":"4ee0d54c-132f-4d8b-b0da-69607d66ccc6","system_id":"levelo_inurba_marseille","lat":43.23191,"lon":5.39986,"is_reserved":false,"is_disabled":false,"rental_uris":{"android":"levelo://app?vid=4ee0d54c-132f-4d8b-b0da-69607d66ccc6","ios":"levelo://app?vid=4ee0d54c-132f-4d8b-b0da-69607d66ccc6"},"vehicle_type_id":"4","last_reported":1731712117,"current_range_meters":26000,"station_id":"ce4bhn12rcd13ifvqgqg","pricing_plan_id":"cebpf4jnsgd1na2vs0mg"},{"bike_id":"0cef4849-1655-4b1e-982b-8194256908e3","system_id":"levelo_inurba_marseille","lat":43.30259,"lon":5.4008,"is_reserved":false,"is_disabled":false,"rental_uris":{"android":"levelo://app?vid=0cef4849-1655-4b1e-982b-8194256908e3","ios":"levelo://app?vid=0cef4849-1655-4b1e-982b-8194256908e3"},"vehicle_type_id":"4","last_reported":1731712117,"current_range_meters":36000,"station_id":"ce4bgvh2rcd13ifvqcs0","pricing_plan_id":"cebpf4jnsgd1na2vs0mg"},{"bike_id":"0798270e-42c9-4323-819e-b75eb6dce35a","system_id":"levelo_inurba_marseille","lat":43.27813,"lon":5.40707,"is_reserved":false,"is_disabled":false,"rental_uris":{"android":"levelo://app?vid=0798270e-42c9-4323-819e-b75eb6dce35a","ios":"levelo://app?vid=0798270e-42c9-4323-819e-b75eb6dce35a"},"vehicle_type_id":"4","last_reported":1731712117,"current_range_meters":38800,"station_id":"ce4bhnh2rcd13ifvqgtg","pricing_plan_id":"cebpf4jnsgd1na2vs0mg"},{"bike_id":"353d9ae5-88f4-44b4-b684-0abf4ef77ea6","system_id":"levelo_inurba_marseille","lat":43.31498,"lon":5.37313,"is_reserved":false,"is_disabled":false,"rental_uris":{"android":"levelo://app?vid=353d9ae5-88f4-44b4-b684-0abf4ef77ea6","ios":"levelo://app?vid=353d9ae5-88f4-44b4-b684-0abf4ef77ea6"},"vehicle_type_id":"4","last_reported":1731712117,"current_range_meters":27200,"station_id":"ce4bgt12rcd13ifvqcd0","pricing_plan_id":"cebpf4jnsgd1na2vs0mg"},{"bike_id":"491e5eb8-c23e-4e53-9ba3-d428ee8ab793","system_id":"levelo_inurba_marseille","lat":43.31326,"lon":5.39694,"is_reserved":false,"is_disabled":false,"rental_uris":{"android":"levelo://app?vid=491e5eb8-c23e-4e53-9ba3-d428ee8ab793","ios":"levelo://app?vid=491e5eb8-c23e-4e53-9ba3-d428ee8ab793"},"vehicle_type_id":"4","last_reported":1731712117,"current_range_meters":38800,"station_id":"ce4bgvp2rcd13ifvqcu0","pricing_plan_id":"cebpf4jnsgd1na2vs0mg"},{"bike_id":"cba8a093-fa5c-4446-8004-f497b2465c63","system_id":"levelo_inurba_marseille","lat":43.28725,"lon":5.36086,"is_reserved":false,"is_disabled":false,"rental_uris":{"android":"levelo://app?vid=cba8a093-fa5c-4446-8004-f497b2465c63","ios":"levelo://app?vid=cba8a093-fa5c-4446-8004-f497b2465c63"},"vehicle_type_id":"4","last_reported":1731712117,"current_range_meters":30400,"station_id":"cki0cbj6b192h4jlfktg","pricing_plan_id":"cebpf4jnsgd1na2vs0mg"},{"bike_id":"6d757fef-4f26-43f9-ac2c-ffab39bf7dae","system_id":"levelo_inurba_marseille","lat":43.32249,"lon":5.36901,"is_reserved":false,"is_disabled":false,"rental_uris":{"android":"levelo://app?vid=6d757fef-4f26-43f9-ac2c-ffab39bf7dae","ios":"levelo://app?vid=6d757fef-4f26-43f9-ac2c-ffab39bf7dae"},"vehicle_type_id":"4","last_reported":1731712117,"current_range_meters":22400,"station_id":"","pricing_plan_id":"cebpf4jnsgd1na2vs0mg"},{"bike_id":"bf5fc513-5b16-49ac-b46e-8d1576a8b635","system_id":"levelo_inurba_marseille","lat":43.29556,"lon":5.42305,"is_reserved":false,"is_disabled":false,"rental_uris":{"android":"levelo://app?vid=bf5fc513-5b16-49ac-b46e-8d1576a8b635","ios":"levelo://app?vid=bf5fc513-5b16-49ac-b46e-8d1576a8b635"},"vehicle_type_id":"4","last_reported":1731712117,"current_range_meters":37600,"station_id":"ce4bhph2rcd13ifvqhdg","pricing_plan_id":"cebpf4jnsgd1na2vs0mg"},{"bike_id":"22d914cd-75e1-4c7a-a820-0125f5f2d2e0","system_id":"levelo_inurba_marseille","lat":43.24073,"lon":5.37762,"is_reserved":false,"is_disabled":false,"rental_uris":{"android":"levelo://app?vid=22d914cd-75e1-4c7a-a820-0125f5f2d2e0","ios":"levelo://app?vid=22d914cd-75e1-4c7a-a820-0125f5f2d2e0"},"vehicle_type_id":"4","last_reported":1731712117,"current_range_meters":29600,"station_id":"ce4bhnp2rcd13ifvqgvg","pricing_plan_id":"cebpf4jnsgd1na2vs0mg"},{"bike_id":"9ec4cdc2-710d-4e6e-ad81-5a0331b0c3dd","system_id":"levelo_inurba_marseille","lat":43.30303,"lon":5.39224,"is_reserved":false,"is_disabled":false,"rental_uris":{"android":"levelo://app?vid=9ec4cdc2-710d-4e6e-ad81-5a0331b0c3dd","ios":"levelo://app?vid=9ec4cdc2-710d-4e6e-ad81-5a0331b0c3dd"},"vehicle_type_id":"4","last_reported":1731712117,"current_range_meters":24000,"station_id":"ce4bgkh2rcd13ifvqbk0","pricing_plan_id":"cebpf4jnsgd1na2vs0mg"},{"bike_id":"0a9751da-8684-43f9-b53f-6389ddca1500","system_id":"levelo_inurba_marseille","lat":43.31893,"lon":5.40729,"is_reserved":false,"is_disabled":false,"rental_uris":{"android":"levelo://app?vid=0a9751da-8684-43f9-b53f-6389ddca1500","ios":"levelo://app?vid=0a9751da-8684-43f9-b53f-6389ddca1500"},"vehicle_type_id":"4","last_reported":1731712117,"current_range_meters":26000,"station_id":"ce4bhq12rcd13ifvqhig","pricing_plan_id":"cebpf4jnsgd1na2vs0mg"},{"bike_id":"f615be4b-256f-4c11-a66d-3ebb7e880763","system_id":"levelo_inurba_marseille","lat":43.265601,"lon":5.37289,"is_reserved":false,"is_disabled":false,"rental_uris":{"android":"levelo://app?vid=f615be4b-256f-4c11-a66d-3ebb7e880763","ios":"levelo://app?vid=f615be4b-256f-4c11-a66d-3ebb7e880763"},"vehicle_type_id":"4","last_reported":1731712117,"current_range_meters":8800,"station_id":"ce4bhoh2rcd13ifvqh5g","pricing_plan_id":"cebpf4jnsgd1na2vs0mg"},{"bike_id":"3def47d5-da07-4acb-a4a9-5e939a90a81a","system_id":"levelo_inurba_marseille","lat":43.32656,"lon":5.4099,"is_reserved":false,"is_disabled":false,"rental_uris":{"android":"levelo://app?vid=3def47d5-da07-4acb-a4a9-5e939a90a81a","ios":"levelo://app?vid=3def47d5-da07-4acb-a4a9-5e939a90a81a"},"vehicle_type_id":"4","last_reported":1731712117,"current_range_meters":38800,"station_id":"ce4bhpp2rcd13ifvqhgg","pricing_plan_id":"cebpf4jnsgd1na2vs0mg"},{"bike_id":"9a626e27-56cb-4f32-aee1-86da176828ea","system_id":"levelo_inurba_marseille","lat":43.29258,"lon":5.40911,"is_reserved":false,"is_disabled":false,"rental_uris":{"android":"levelo://app?vid=9a626e27-56cb-4f32-aee1-86da176828ea","ios":"levelo://app?vid=9a626e27-56cb-4f32-aee1-86da176828ea"},"vehicle_type_id":"4","last_reported":1731712117,"current_range_meters":38800,"station_id":"ce4bh192rcd13ifvqdc0","pricing_plan_id":"cebpf4jnsgd1na2vs0mg"},{"bike_id":"01abbd6c-f381-41f7-8eb8-f26e28bbd898","system_id":"levelo_inurba_marseille","lat":43.30891,"lon":5.37183,"is_reserved":false,"is_disabled":false,"rental_uris":{"android":"levelo://app?vid=01abbd6c-f381-41f7-8eb8-f26e28bbd898","ios":"levelo://app?vid=01abbd6c-f381-41f7-8eb8-f26e28bbd898"},"vehicle_type_id":"4","last_reported":1731712117,"current_range_meters":13600,"station_id":"ce4bguh2rcd13ifvqckg","pricing_plan_id":"cebpf4jnsgd1na2vs0mg"},{"bike_id":"d27a3475-2e52-4b6c-9dea-c67313b855a8","system_id":"levelo_inurba_marseille","lat":43.31891,"lon":5.40733,"is_reserved":false,"is_disabled":false,"rental_uris":{"android":"levelo://app?vid=d27a3475-2e52-4b6c-9dea-c67313b855a8","ios":"levelo://app?vid=d27a3475-2e52-4b6c-9dea-c67313b855a8"},"vehicle_type_id":"4","last_reported":1731712117,"current_range_meters":32000,"station_id":"ce4bhq12rcd13ifvqhig","pricing_plan_id":"cebpf4jnsgd1na2vs0mg"},{"bike_id":"bd1b0a86-a507-4508-a0b6-835f4cee5a0c","system_id":"levelo_inurba_marseille","lat":43.29449,"lon":5.39748,"is_reserved":false,"is_disabled":false,"rental_uris":{"android":"levelo://app?vid=bd1b0a86-a507-4508-a0b6-835f4cee5a0c","ios":"levelo://app?vid=bd1b0a86-a507-4508-a0b6-835f4cee5a0c"},"vehicle_type_id":"4","last_reported":1731712117,"current_range_meters":34800,"station_id":"ce4bh3h2rcd13ifvqdo0","pricing_plan_id":"cebpf4jnsgd1na2vs0mg"},{"bike_id":"2f70c9d6-b647-4dc7-9d50-b16561ca2282","system_id":"levelo_inurba_marseille","lat":43.24073,"lon":5.3776,"is_reserved":false,"is_disabled":false,"rental_uris":{"android":"levelo://app?vid=2f70c9d6-b647-4dc7-9d50-b16561ca2282","ios":"levelo://app?vid=2f70c9d6-b647-4dc7-9d50-b16561ca2282"},"vehicle_type_id":"4","last_reported":1731712117,"current_range_meters":30000,"station_id":"ce4bhnp2rcd13ifvqgvg","pricing_plan_id":"cebpf4jnsgd1na2vs0mg"},{"bike_id":"cc6dab0b-8834-4ae3-9cdd-a2d3b1edd735","system_id":"levelo_inurba_marseille","lat":43.32294,"lon":5.38271,"is_reserved":false,"is_disabled":false,"rental_uris":{"android":"levelo://app?vid=cc6dab0b-8834-4ae3-9cdd-a2d3b1edd735","ios":"levelo://app?vid=cc6dab0b-8834-4ae3-9cdd-a2d3b1edd735"},"vehicle_type_id":"4","last_reported":1731712117,"current_range_meters":38800,"station_id":"ce4bhr12rcd13ifvqhqg","pricing_plan_id":"cebpf4jnsgd1na2vs0mg"},{"bike_id":"bc25ca28-ada7-4bcd-8350-292399c65910","system_id":"levelo_inurba_marseille","lat":43.28712,"lon":5.39998,"is_reserved":false,"is_disabled":false,"rental_uris":{"android":"levelo://app?vid=bc25ca28-ada7-4bcd-8350-292399c65910","ios":"levelo://app?vid=bc25ca28-ada7-4bcd-8350-292399c65910"},"vehicle_type_id":"4","last_reported":1731712117,"current_range_meters":20800,"station_id":"ce4bho92rcd13ifvqh3g","pricing_plan_id":"cebpf4jnsgd1na2vs0mg"},{"bike_id":"c32cb617-b374-4b74-8210-e0f4e45c9111","system_id":"levelo_inurba_marseille","lat":43.2781,"lon":5.40712,"is_reserved":false,"is_disabled":false,"rental_uris":{"android":"levelo://app?vid=c32cb617-b374-4b74-8210-e0f4e45c9111","ios":"levelo://app?vid=c32cb617-b374-4b74-8210-e0f4e45c9111"},"vehicle_type_id":"4","last_reported":1731712117,"current_range_meters":38800,"station_id":"ce4bhnh2rcd13ifvqgtg","pricing_plan_id":"cebpf4jnsgd1na2vs0mg"},{"bike_id":"a3e9bb26-caf1-452d-a0cd-ee25e2c150e4","system_id":"levelo_inurba_marseille","lat":43.29367,"lon":5.37869,"is_reserved":false,"is_disabled":false,"rental_uris":{"android":"levelo://app?vid=a3e9bb26-caf1-452d-a0cd-ee25e2c150e4","ios":"levelo://app?vid=a3e9bb26-caf1-452d-a0cd-ee25e2c150e4"},"vehicle_type_id":"4","last_reported":1731712117,"current_range_meters":27200,"station_id":"ce4bgjh2rcd13ifvqbf0","pricing_plan_id":"cebpf4jnsgd1na2vs0mg"},{"bike_id":"536eb812-4b5f-41c8-bdd8-aa3a29918536","system_id":"levelo_inurba_marseille","lat":43.27975,"lon":5.38731,"is_reserved":false,"is_disabled":false,"rental_uris":{"android":"levelo://app?vid=536eb812-4b5f-41c8-bdd8-aa3a29918536","ios":"levelo://app?vid=536eb812-4b5f-41c8-bdd8-aa3a29918536"},"vehicle_type_id":"4","last_reported":1731712117,"current_range_meters":38800,"station_id":"ce4bhg12rcd13ifvqf80","pricing_plan_id":"cebpf4jnsgd1na2vs0mg"},{"bike_id":"814db09f-e3d9-4506-8531-69a5aa778948","system_id":"levelo_inurba_marseille","lat":43.27814,"lon":5.40715,"is_reserved":false,"is_disabled":false,"rental_uris":{"android":"levelo://app?vid=814db09f-e3d9-4506-8531-69a5aa778948","ios":"levelo://app?vid=814db09f-e3d9-4506-8531-69a5aa778948"},"vehicle_type_id":"4","last_reported":1731712117,"current_range_meters":35600,"station_id":"ce4bhnh2rcd13ifvqgtg","pricing_plan_id":"cebpf4jnsgd1na2vs0mg"},{"bike_id":"b6e29239-107b-4bf3-9a6d-4106d6b8d40f","system_id":"levelo_inurba_marseille","lat":43.30265,"lon":5.401,"is_reserved":false,"is_disabled":false,"rental_uris":{"android":"levelo://app?vid=b6e29239-107b-4bf3-9a6d-4106d6b8d40f","ios":"levelo://app?vid=b6e29239-107b-4bf3-9a6d-4106d6b8d40f"},"vehicle_type_id":"4","last_reported":1731712117,"current_range_meters":16800,"station_id":"ce4bgvh2rcd13ifvqcs0","pricing_plan_id":"cebpf4jnsgd1na2vs0mg"},{"bike_id":"9b576d7c-37ea-4218-8324-01ead0ea26e9","system_id":"levelo_inurba_marseille","lat":43.28931,"lon":5.38394,"is_reserved":false,"is_disabled":false,"rental_uris":{"android":"levelo://app?vid=9b576d7c-37ea-4218-8324-01ead0ea26e9","ios":"levelo://app?vid=9b576d7c-37ea-4218-8324-01ead0ea26e9"},"vehicle_type_id":"4","last_reported":1731712117,"current_range_meters":20800,"station_id":"ce4bh612rcd13ifvqe6g","pricing_plan_id":"cebpf4jnsgd1na2vs0mg"},{"bike_id":"77fde072-e064-4154-bff5-ece14991b4ea","system_id":"levelo_inurba_marseille","lat":43.28266,"lon":5.35062,"is_reserved":false,"is_disabled":false,"rental_uris":{"android":"levelo://app?vid=77fde072-e064-4154-bff5-ece14991b4ea","ios":"levelo://app?vid=77fde072-e064-4154-bff5-ece14991b4ea"},"vehicle_type_id":"4","last_reported":1731712117,"current_range_meters":12800,"station_id":"ce4bhbp2rcd13ifvqerg","pricing_plan_id":"cebpf4jnsgd1na2vs0mg"},{"bike_id":"9277528c-0b5f-481a-9d80-5a4e5662613f","system_id":"levelo_inurba_marseille","lat":43.29982,"lon":5.37192,"is_reserved":false,"is_disabled":false,"rental_uris":{"android":"levelo://app?vid=9277528c-0b5f-481a-9d80-5a4e5662613f","ios":"levelo://app?vid=9277528c-0b5f-481a-9d80-5a4e5662613f"},"vehicle_type_id":"4","last_reported":1731712117,"current_range_meters":33600,"station_id":"ce4bgr92rcd13ifvqc7g","pricing_plan_id":"cebpf4jnsgd1na2vs0mg"},{"bike_id":"83bf5cc6-5b39-4dcf-9691-a61137a67537","system_id":"levelo_inurba_marseille","lat":43.28944,"lon":5.36379,"is_reserved":false,"is_disabled":false,"rental_uris":{"android":"levelo://app?vid=83bf5cc6-5b39-4dcf-9691-a61137a67537","ios":"levelo://app?vid=83bf5cc6-5b39-4dcf-9691-a61137a67537"},"vehicle_type_id":"4","last_reported":1731712117,"current_range_meters":30800,"station_id":"ce4bhc92rcd13ifvqetg","pricing_plan_id":"cebpf4jnsgd1na2vs0mg"},{"bike_id":"f6acca44-8b3f-44bd-940e-b20e0a5ade82","system_id":"levelo_inurba_marseille","lat":43.30468,"lon":5.37902,"is_reserved":false,"is_disabled":false,"rental_uris":{"android":"levelo://app?vid=f6acca44-8b3f-44bd-940e-b20e0a5ade82","ios":"levelo://app?vid=f6acca44-8b3f-44bd-940e-b20e0a5ade82"},"vehicle_type_id":"4","last_reported":1731712117,"current_range_meters":29600,"station_id":"ce4bgup2rcd13ifvqcn0","pricing_plan_id":"cebpf4jnsgd1na2vs0mg"},{"bike_id":"08f2da3e-9a4f-4bf2-9ab5-de990ce33744","system_id":"levelo_inurba_marseille","lat":43.30668,"lon":5.36826,"is_reserved":false,"is_disabled":false,"rental_uris":{"android":"levelo://app?vid=08f2da3e-9a4f-4bf2-9ab5-de990ce33744","ios":"levelo://app?vid=08f2da3e-9a4f-4bf2-9ab5-de990ce33744"},"vehicle_type_id":"4","last_reported":1731712117,"current_range_meters":36800,"station_id":"","pricing_plan_id":"cebpf4jnsgd1na2vs0mg"},{"bike_id":"f60c889e-9678-4e71-b37f-5fd1cb1e5ab3","system_id":"levelo_inurba_marseille","lat":43.27834,"lon":5.38304,"is_reserved":false,"is_disabled":false,"rental_uris":{"android":"levelo://app?vid=f60c889e-9678-4e71-b37f-5fd1cb1e5ab3","ios":"levelo://app?vid=f60c889e-9678-4e71-b37f-5fd1cb1e5ab3"},"vehicle_type_id":"4","last_reported":1731712117,"current_range_meters":28000,"station_id":"ce4bh3p2rcd13ifvqdq0","pricing_plan_id":"cebpf4jnsgd1na2vs0mg"},{"bike_id":"337552e9-9e69-4fae-9c81-107a97262863","system_id":"levelo_inurba_marseille","lat":43.23188,"lon":5.39988,"is_reserved":false,"is_disabled":false,"rental_uris":{"android":"levelo://app?vid=337552e9-9e69-4fae-9c81-107a97262863","ios":"levelo://app?vid=337552e9-9e69-4fae-9c81-107a97262863"},"vehicle_type_id":"4","last_reported":1731712117,"current_range_meters":12800,"station_id":"ce4bhn12rcd13ifvqgqg","pricing_plan_id":"cebpf4jnsgd1na2vs0mg"},{"bike_id":"d7f79274-e640-43c4-b7dd-f4e3dad6011c","system_id":"levelo_inurba_marseille","lat":43.27997,"lon":5.41666,"is_reserved":false,"is_disabled":false,"rental_uris":{"android":"levelo://app?vid=d7f79274-e640-43c4-b7dd-f4e3dad6011c","ios":"levelo://app?vid=d7f79274-e640-43c4-b7dd-f4e3dad6011c"},"vehicle_type_id":"4","last_reported":1731712117,"current_range_meters":38800,"station_id":"ce4bho12rcd13ifvqh1g","pricing_plan_id":"cebpf4jnsgd1na2vs0mg"},{"bike_id":"f1e0f3dd-a15a-4f0c-a853-07b7313ac16b","system_id":"levelo_inurba_marseille","lat":43.31887,"lon":5.40741,"is_reserved":false,"is_disabled":false,"rental_uris":{"android":"levelo://app?vid=f1e0f3dd-a15a-4f0c-a853-07b7313ac16b","ios":"levelo://app?vid=f1e0f3dd-a15a-4f0c-a853-07b7313ac16b"},"vehicle_type_id":"4","last_reported":1731712117,"current_range_meters":37600,"station_id":"ce4bhq12rcd13ifvqhig","pricing_plan_id":"cebpf4jnsgd1na2vs0mg"},{"bike_id":"2851198b-6aeb-47b3-8567-9a867f6296f6","system_id":"levelo_inurba_marseille","lat":43.27959,"lon":5.38704,"is_reserved":false,"is_disabled":false,"rental_uris":{"android":"levelo://app?vid=2851198b-6aeb-47b3-8567-9a867f6296f6","ios":"levelo://app?vid=2851198b-6aeb-47b3-8567-9a867f6296f6"},"vehicle_type_id":"4","last_reported":1731712117,"current_range_meters":25200,"station_id":"ce4bhg12rcd13ifvqf80","pricing_plan_id":"cebpf4jnsgd1na2vs0mg"},{"bike_id":"e42ac294-c057-4943-a785-44f64042d429","system_id":"levelo_inurba_marseille","lat":43.32112,"lon":5.36765,"is_reserved":false,"is_disabled":false,"rental_uris":{"android":"levelo://app?vid=e42ac294-c057-4943-a785-44f64042d429","ios":"levelo://app?vid=e42ac294-c057-4943-a785-44f64042d429"},"vehicle_type_id":"4","last_reported":1731712117,"current_range_meters":17600,"station_id":"ce4bhrh2rcd13ifvqhug","pricing_plan_id":"cebpf4jnsgd1na2vs0mg"},{"bike_id":"b54f4471-f146-477a-ade3-58e1dea1b85e","system_id":"levelo_inurba_marseille","lat":43.337444,"lon":5.374475,"is_reserved":false,"is_disabled":false,"rental_uris":{"android":"levelo://app?vid=b54f4471-f146-477a-ade3-58e1dea1b85e","ios":"levelo://app?vid=b54f4471-f146-477a-ade3-58e1dea1b85e"},"vehicle_type_id":"4","last_reported":1731712117,"current_range_meters":35600,"station_id":"","pricing_plan_id":"cebpf4jnsgd1na2vs0mg"},{"bike_id":"ecc7fb54-d5dd-441b-b324-af1d207ef66a","system_id":"levelo_inurba_marseille","lat":43.28708,"lon":5.39981,"is_reserved":false,"is_disabled":false,"rental_uris":{"android":"levelo://app?vid=ecc7fb54-d5dd-441b-b324-af1d207ef66a","ios":"levelo://app?vid=ecc7fb54-d5dd-441b-b324-af1d207ef66a"},"vehicle_type_id":"4","last_reported":1731712117,"current_range_meters":38800,"station_id":"ce4bho92rcd13ifvqh3g","pricing_plan_id":"cebpf4jnsgd1na2vs0mg"},{"bike_id":"4041ffaa-7fb5-435c-a56d-543c2550ac52","system_id":"levelo_inurba_marseille","lat":43.30133,"lon":5.38784,"is_reserved":false,"is_disabled":false,"rental_uris":{"android":"levelo://app?vid=4041ffaa-7fb5-435c-a56d-543c2550ac52","ios":"levelo://app?vid=4041ffaa-7fb5-435c-a56d-543c2550ac52"},"vehicle_type_id":"4","last_reported":1731712117,"current_range_meters":23200,"station_id":"ce4bghh2rcd13ifvqb60","pricing_plan_id":"cebpf4jnsgd1na2vs0mg"},{"bike_id":"733b8fbc-d1e7-4659-8527-d71807ce14b7","system_id":"levelo_inurba_marseille","lat":43.270172,"lon":5.364595,"is_reserved":false,"is_disabled":false,"rental_uris":{"android":"levelo://app?vid=733b8fbc-d1e7-4659-8527-d71807ce14b7","ios":"levelo://app?vid=733b8fbc-d1e7-4659-8527-d71807ce14b7"},"vehicle_type_id":"4","last_reported":1731712117,"current_range_meters":16400,"station_id":"cjm6bp8fraef2m0cb0m0","pricing_plan_id":"cebpf4jnsgd1na2vs0mg"},{"bike_id":"492c6ee8-4920-4b44-bda9-9e5d03dff0e9","system_id":"levelo_inurba_marseille","lat":43.28083,"lon":5.39649,"is_reserved":false,"is_disabled":false,"rental_uris":{"android":"levelo://app?vid=492c6ee8-4920-4b44-bda9-9e5d03dff0e9","ios":"levelo://app?vid=492c6ee8-4920-4b44-bda9-9e5d03dff0e9"},"vehicle_type_id":"4","last_reported":1731712117,"current_range_meters":38800,"station_id":"ce4bho12rcd13ifvqh2g","pricing_plan_id":"cebpf4jnsgd1na2vs0mg"},{"bike_id":"059f2be1-c31c-467b-bc0c-d2a13b4220ea","system_id":"levelo_inurba_marseille","lat":43.292,"lon":5.35807,"is_reserved":false,"is_disabled":false,"rental_uris":{"android":"levelo://app?vid=059f2be1-c31c-467b-bc0c-d2a13b4220ea","ios":"levelo://app?vid=059f2be1-c31c-467b-bc0c-d2a13b4220ea"},"vehicle_type_id":"4","last_reported":1731712117,"current_range_meters":20000,"station_id":"ce4bhb12rcd13ifvqel0","pricing_plan_id":"cebpf4jnsgd1na2vs0mg"},{"bike_id":"805cfe6b-be44-4949-bab5-57b1ce8478a4","system_id":"levelo_inurba_marseille","lat":43.33752,"lon":5.37459,"is_reserved":false,"is_disabled":false,"rental_uris":{"android":"levelo://app?vid=805cfe6b-be44-4949-bab5-57b1ce8478a4","ios":"levelo://app?vid=805cfe6b-be44-4949-bab5-57b1ce8478a4"},"vehicle_type_id":"4","last_reported":1731712117,"current_range_meters":32000,"station_id":"","pricing_plan_id":"cebpf4jnsgd1na2vs0mg"},{"bike_id":"84a66f27-709c-422d-838d-12381554d522","system_id":"levelo_inurba_marseille","lat":43.31333,"lon":5.39693,"is_reserved":false,"is_disabled":false,"rental_uris":{"android":"levelo://app?vid=84a66f27-709c-422d-838d-12381554d522","ios":"levelo://app?vid=84a66f27-709c-422d-838d-12381554d522"},"vehicle_type_id":"4","last_reported":1731712117,"current_range_meters":33200,"station_id":"ce4bgvp2rcd13ifvqcu0","pricing_plan_id":"cebpf4jnsgd1na2vs0mg"},{"bike_id":"3cd2663d-ddea-4c47-bfe3-6f60b341aaa3","system_id":"levelo_inurba_marseille","lat":43.27816,"lon":5.40711,"is_reserved":false,"is_disabled":false,"rental_uris":{"android":"levelo://app?vid=3cd2663d-ddea-4c47-bfe3-6f60b341aaa3","ios":"levelo://app?vid=3cd2663d-ddea-4c47-bfe3-6f60b341aaa3"},"vehicle_type_id":"4","last_reported":1731712117,"current_range_meters":9600,"station_id":"ce4bhnh2rcd13ifvqgtg","pricing_plan_id":"cebpf4jnsgd1na2vs0mg"},{"bike_id":"67b74999-7562-40a9-80d6-0bf76d158375","system_id":"levelo_inurba_marseille","lat":43.25585,"lon":5.38235,"is_reserved":false,"is_disabled":false,"rental_uris":{"android":"levelo://app?vid=67b74999-7562-40a9-80d6-0bf76d158375","ios":"levelo://app?vid=67b74999-7562-40a9-80d6-0bf76d158375"},"vehicle_type_id":"4","last_reported":1731712117,"current_range_meters":31200,"station_id":"ce4bhih2rcd13ifvqfs0","pricing_plan_id":"cebpf4jnsgd1na2vs0mg"},{"bike_id":"fc4b3cf6-d718-4428-9147-f1c993899721","system_id":"levelo_inurba_marseille","lat":43.29618,"lon":5.38112,"is_reserved":false,"is_disabled":false,"rental_uris":{"android":"levelo://app?vid=fc4b3cf6-d718-4428-9147-f1c993899721","ios":"levelo://app?vid=fc4b3cf6-d718-4428-9147-f1c993899721"},"vehicle_type_id":"4","last_reported":1731712117,"current_range_meters":33600,"station_id":"ce4bgl12rcd13ifvqbo0","pricing_plan_id":"cebpf4jnsgd1na2vs0mg"},{"bike_id":"4d290e24-f8ef-46cc-8e85-56690ccf4aff","system_id":"levelo_inurba_marseille","lat":43.30892,"lon":5.39647,"is_reserved":false,"is_disabled":false,"rental_uris":{"android":"levelo://app?vid=4d290e24-f8ef-46cc-8e85-56690ccf4aff","ios":"levelo://app?vid=4d290e24-f8ef-46cc-8e85-56690ccf4aff"},"vehicle_type_id":"4","last_reported":1731712117,"current_range_meters":32000,"station_id":"ce4bh012rcd13ifvqcv0","pricing_plan_id":"cebpf4jnsgd1na2vs0mg"},{"bike_id":"f941b43b-3b57-4ea8-aee6-9223604fdbc4","system_id":"levelo_inurba_marseille","lat":43.28939,"lon":5.36643,"is_reserved":false,"is_disabled":false,"rental_uris":{"android":"levelo://app?vid=f941b43b-3b57-4ea8-aee6-9223604fdbc4","ios":"levelo://app?vid=f941b43b-3b57-4ea8-aee6-9223604fdbc4"},"vehicle_type_id":"4","last_reported":1731712117,"current_range_meters":32000,"station_id":"ce4bhap2rcd13ifvqek0","pricing_plan_id":"cebpf4jnsgd1na2vs0mg"},{"bike_id":"1cd7d493-1889-446e-ad0e-f38634beb973","system_id":"levelo_inurba_marseille","lat":43.32364,"lon":5.38881,"is_reserved":false,"is_disabled":false,"rental_uris":{"android":"levelo://app?vid=1cd7d493-1889-446e-ad0e-f38634beb973","ios":"levelo://app?vid=1cd7d493-1889-446e-ad0e-f38634beb973"},"vehicle_type_id":"4","last_reported":1731712117,"current_range_meters":38800,"station_id":"ce4bhqp2rcd13ifvqhog","pricing_plan_id":"cebpf4jnsgd1na2vs0mg"},{"bike_id":"de284d5d-1134-4324-89cd-f6160e7c5f8a","system_id":"levelo_inurba_marseille","lat":43.33032,"lon":5.39054,"is_reserved":false,"is_disabled":false,"rental_uris":{"android":"levelo://app?vid=de284d5d-1134-4324-89cd-f6160e7c5f8a","ios":"levelo://app?vid=de284d5d-1134-4324-89cd-f6160e7c5f8a"},"vehicle_type_id":"4","last_reported":1731712117,"current_range_meters":9600,"station_id":"ce4bhr92rcd13ifvqhrg","pricing_plan_id":"cebpf4jnsgd1na2vs0mg"},{"bike_id":"ca655f3b-8380-4045-b3f8-8acaa0e83ede","system_id":"levelo_inurba_marseille","lat":43.33733,"lon":5.37456,"is_reserved":false,"is_disabled":false,"rental_uris":{"android":"levelo://app?vid=ca655f3b-8380-4045-b3f8-8acaa0e83ede","ios":"levelo://app?vid=ca655f3b-8380-4045-b3f8-8acaa0e83ede"},"vehicle_type_id":"4","last_reported":1731712117,"current_range_meters":35200,"station_id":"","pricing_plan_id":"cebpf4jnsgd1na2vs0mg"},{"bike_id":"55d702b7-d90e-48f7-a2e8-3167cff0bc16","system_id":"levelo_inurba_marseille","lat":43.2999,"lon":5.37181,"is_reserved":false,"is_disabled":false,"rental_uris":{"android":"levelo://app?vid=55d702b7-d90e-48f7-a2e8-3167cff0bc16","ios":"levelo://app?vid=55d702b7-d90e-48f7-a2e8-3167cff0bc16"},"vehicle_type_id":"4","last_reported":1731712117,"current_range_meters":36800,"station_id":"ce4bgr92rcd13ifvqc7g","pricing_plan_id":"cebpf4jnsgd1na2vs0mg"},{"bike_id":"fc675dd3-ce3b-42ac-b73f-2cfc19b55384","system_id":"levelo_inurba_marseille","lat":43.32474,"lon":5.36567,"is_reserved":false,"is_disabled":false,"rental_uris":{"android":"levelo://app?vid=fc675dd3-ce3b-42ac-b73f-2cfc19b55384","ios":"levelo://app?vid=fc675dd3-ce3b-42ac-b73f-2cfc19b55384"},"vehicle_type_id":"4","last_reported":1731712117,"current_range_meters":38800,"station_id":"ce4bhs12rcd13ifvqhvg","pricing_plan_id":"cebpf4jnsgd1na2vs0mg"},{"bike_id":"a6b8c285-acc9-4039-9531-1aae39136a33","system_id":"levelo_inurba_marseille","lat":43.312042,"lon":5.367348,"is_reserved":false,"is_disabled":false,"rental_uris":{"android":"levelo://app?vid=a6b8c285-acc9-4039-9531-1aae39136a33","ios":"levelo://app?vid=a6b8c285-acc9-4039-9531-1aae39136a33"},"vehicle_type_id":"4","last_reported":1731712117,"current_range_meters":17600,"station_id":"","pricing_plan_id":"cebpf4jnsgd1na2vs0mg"},{"bike_id":"6cfedf10-538f-4084-ba68-2204fd81b98f","system_id":"levelo_inurba_marseille","lat":43.2971,"lon":5.36604,"is_reserved":false,"is_disabled":false,"rental_uris":{"android":"levelo://app?vid=6cfedf10-538f-4084-ba68-2204fd81b98f","ios":"levelo://app?vid=6cfedf10-538f-4084-ba68-2204fd81b98f"},"vehicle_type_id":"4","last_reported":1731712117,"current_range_meters":12000,"station_id":"ce4bgn12rcd13ifvqbt0","pricing_plan_id":"cebpf4jnsgd1na2vs0mg"},{"bike_id":"7533f0c2-14f7-425a-b3ed-0abe750ceb15","system_id":"levelo_inurba_marseille","lat":43.25587,"lon":5.38249,"is_reserved":false,"is_disabled":false,"rental_uris":{"android":"levelo://app?vid=7533f0c2-14f7-425a-b3ed-0abe750ceb15","ios":"levelo://app?vid=7533f0c2-14f7-425a-b3ed-0abe750ceb15"},"vehicle_type_id":"4","last_reported":1731712117,"current_range_meters":28400,"station_id":"ce4bhih2rcd13ifvqfs0","pricing_plan_id":"cebpf4jnsgd1na2vs0mg"},{"bike_id":"5c254126-8805-4ed8-9520-9f63561143b3","system_id":"levelo_inurba_marseille","lat":43.241698,"lon":5.363999,"is_reserved":false,"is_disabled":false,"rental_uris":{"android":"levelo://app?vid=5c254126-8805-4ed8-9520-9f63561143b3","ios":"levelo://app?vid=5c254126-8805-4ed8-9520-9f63561143b3"},"vehicle_type_id":"4","last_reported":1731712117,"current_range_meters":24800,"station_id":"cpo36qri1sfpv3e86is0","pricing_plan_id":"cebpf4jnsgd1na2vs0mg"},{"bike_id":"70468508-343b-4da0-a26c-5795834b9a47","system_id":"levelo_inurba_marseille","lat":43.30465,"lon":5.37905,"is_reserved":false,"is_disabled":false,"rental_uris":{"android":"levelo://app?vid=70468508-343b-4da0-a26c-5795834b9a47","ios":"levelo://app?vid=70468508-343b-4da0-a26c-5795834b9a47"},"vehicle_type_id":"4","last_reported":1731712117,"current_range_meters":6800,"station_id":"ce4bgup2rcd13ifvqcn0","pricing_plan_id":"cebpf4jnsgd1na2vs0mg"},{"bike_id":"95189523-b163-438d-9cb1-f7dc4435500d","system_id":"levelo_inurba_marseille","lat":43.32345,"lon":5.40621,"is_reserved":false,"is_disabled":false,"rental_uris":{"android":"levelo://app?vid=95189523-b163-438d-9cb1-f7dc4435500d","ios":"levelo://app?vid=95189523-b163-438d-9cb1-f7dc4435500d"},"vehicle_type_id":"4","last_reported":1731712117,"current_range_meters":38800,"station_id":"ce4bhq92rcd13ifvqhjg","pricing_plan_id":"cebpf4jnsgd1na2vs0mg"},{"bike_id":"08f855ca-4acc-4ca7-8657-6af6346308c8","system_id":"levelo_inurba_marseille","lat":43.26502,"lon":5.39541,"is_reserved":false,"is_disabled":false,"rental_uris":{"android":"levelo://app?vid=08f855ca-4acc-4ca7-8657-6af6346308c8","ios":"levelo://app?vid=08f855ca-4acc-4ca7-8657-6af6346308c8"},"vehicle_type_id":"4","last_reported":1731712117,"current_range_meters":38000,"station_id":"ce4bhi12rcd13ifvqfq0","pricing_plan_id":"cebpf4jnsgd1na2vs0mg"},{"bike_id":"50ae3ec0-9f46-43fd-819a-4c7a80c3cf46","system_id":"levelo_inurba_marseille","lat":43.28846,"lon":5.358378,"is_reserved":false,"is_disabled":false,"rental_uris":{"android":"levelo://app?vid=50ae3ec0-9f46-43fd-819a-4c7a80c3cf46","ios":"levelo://app?vid=50ae3ec0-9f46-43fd-819a-4c7a80c3cf46"},"vehicle_type_id":"4","last_reported":1731712117,"current_range_meters":37600,"station_id":"ce4bhb12rcd13ifvqem0","pricing_plan_id":"cebpf4jnsgd1na2vs0mg"},{"bike_id":"39b14d83-f70f-40fe-9cd4-ae95ef57c1b2","system_id":"levelo_inurba_marseille","lat":43.2931,"lon":5.37191,"is_reserved":false,"is_disabled":false,"rental_uris":{"android":"levelo://app?vid=39b14d83-f70f-40fe-9cd4-ae95ef57c1b2","ios":"levelo://app?vid=39b14d83-f70f-40fe-9cd4-ae95ef57c1b2"},"vehicle_type_id":"4","last_reported":1731712117,"current_range_meters":34800,"station_id":"ce4bgh92rcd13ifvqb40","pricing_plan_id":"cebpf4jnsgd1na2vs0mg"},{"bike_id":"6cb478f9-b8ec-4307-92d8-7139d356a923","system_id":"levelo_inurba_marseille","lat":43.30932,"lon":5.40134,"is_reserved":false,"is_disabled":false,"rental_uris":{"android":"levelo://app?vid=6cb478f9-b8ec-4307-92d8-7139d356a923","ios":"levelo://app?vid=6cb478f9-b8ec-4307-92d8-7139d356a923"},"vehicle_type_id":"4","last_reported":1731712117,"current_range_meters":36400,"station_id":"ce4bgvp2rcd13ifvqct0","pricing_plan_id":"cebpf4jnsgd1na2vs0mg"},{"bike_id":"6ef266d1-92eb-440d-9bcd-6ee947c0d029","system_id":"levelo_inurba_marseille","lat":43.27496,"lon":5.42447,"is_reserved":false,"is_disabled":false,"rental_uris":{"android":"levelo://app?vid=6ef266d1-92eb-440d-9bcd-6ee947c0d029","ios":"levelo://app?vid=6ef266d1-92eb-440d-9bcd-6ee947c0d029"},"vehicle_type_id":"4","last_reported":1731712117,"current_range_meters":38800,"station_id":"ce4bhn92rcd13ifvqgrg","pricing_plan_id":"cebpf4jnsgd1na2vs0mg"},{"bike_id":"6a4a82cf-46be-4c4d-bb5a-7c7e5cef9c8b","system_id":"levelo_inurba_marseille","lat":43.31324,"lon":5.39691,"is_reserved":false,"is_disabled":false,"rental_uris":{"android":"levelo://app?vid=6a4a82cf-46be-4c4d-bb5a-7c7e5cef9c8b","ios":"levelo://app?vid=6a4a82cf-46be-4c4d-bb5a-7c7e5cef9c8b"},"vehicle_type_id":"4","last_reported":1731712117,"current_range_meters":19600,"station_id":"ce4bgvp2rcd13ifvqcu0","pricing_plan_id":"cebpf4jnsgd1na2vs0mg"},{"bike_id":"1ae8fe75-00ad-479b-a755-74d45d76bfbe","system_id":"levelo_inurba_marseille","lat":43.24167,"lon":5.36392,"is_reserved":false,"is_disabled":false,"rental_uris":{"android":"levelo://app?vid=1ae8fe75-00ad-479b-a755-74d45d76bfbe","ios":"levelo://app?vid=1ae8fe75-00ad-479b-a755-74d45d76bfbe"},"vehicle_type_id":"4","last_reported":1731712117,"current_range_meters":8800,"station_id":"cpo36qri1sfpv3e86is0","pricing_plan_id":"cebpf4jnsgd1na2vs0mg"},{"bike_id":"25814bd3-d4dd-4170-aae5-5225113c94cc","system_id":"levelo_inurba_marseille","lat":43.29273,"lon":5.38545,"is_reserved":false,"is_disabled":false,"rental_uris":{"android":"levelo://app?vid=25814bd3-d4dd-4170-aae5-5225113c94cc","ios":"levelo://app?vid=25814bd3-d4dd-4170-aae5-5225113c94cc"},"vehicle_type_id":"4","last_reported":1731712117,"current_range_meters":8400,"station_id":"","pricing_plan_id":"cebpf4jnsgd1na2vs0mg"},{"bike_id":"5df34f29-1a7a-4221-97e5-c009d97a2929","system_id":"levelo_inurba_marseille","lat":43.238418,"lon":5.365328,"is_reserved":false,"is_disabled":false,"rental_uris":{"android":"levelo://app?vid=5df34f29-1a7a-4221-97e5-c009d97a2929","ios":"levelo://app?vid=5df34f29-1a7a-4221-97e5-c009d97a2929"},"vehicle_type_id":"4","last_reported":1731712117,"current_range_meters":11600,"station_id":"","pricing_plan_id":"cebpf4jnsgd1na2vs0mg"},{"bike_id":"92ac4858-87d6-4ceb-8f6e-004635a816a8","system_id":"levelo_inurba_marseille","lat":43.2779,"lon":5.4073,"is_reserved":false,"is_disabled":false,"rental_uris":{"android":"levelo://app?vid=92ac4858-87d6-4ceb-8f6e-004635a816a8","ios":"levelo://app?vid=92ac4858-87d6-4ceb-8f6e-004635a816a8"},"vehicle_type_id":"4","last_reported":1731712117,"current_range_meters":35200,"station_id":"ce4bhnh2rcd13ifvqgtg","pricing_plan_id":"cebpf4jnsgd1na2vs0mg"},{"bike_id":"4f2295d7-3587-4d90-aa10-8787d547e97e","system_id":"levelo_inurba_marseille","lat":43.26215,"lon":5.37437,"is_reserved":false,"is_disabled":false,"rental_uris":{"android":"levelo://app?vid=4f2295d7-3587-4d90-aa10-8787d547e97e","ios":"levelo://app?vid=4f2295d7-3587-4d90-aa10-8787d547e97e"},"vehicle_type_id":"4","last_reported":1731712117,"current_range_meters":8000,"station_id":"ce4bhgp2rcd13ifvqfc0","pricing_plan_id":"cebpf4jnsgd1na2vs0mg"},{"bike_id":"acccc9dd-ae8e-4182-bf16-701672e8ed55","system_id":"levelo_inurba_marseille","lat":43.25726,"lon":5.41111,"is_reserved":false,"is_disabled":false,"rental_uris":{"android":"levelo://app?vid=acccc9dd-ae8e-4182-bf16-701672e8ed55","ios":"levelo://app?vid=acccc9dd-ae8e-4182-bf16-701672e8ed55"},"vehicle_type_id":"4","last_reported":1731712117,"current_range_meters":38400,"station_id":"ce4bhkp2rcd13ifvqgd0","pricing_plan_id":"cebpf4jnsgd1na2vs0mg"},{"bike_id":"86618eb2-741f-4657-95a0-589bd8a02dd3","system_id":"levelo_inurba_marseille","lat":43.21532,"lon":5.34735,"is_reserved":false,"is_disabled":false,"rental_uris":{"android":"levelo://app?vid=86618eb2-741f-4657-95a0-589bd8a02dd3","ios":"levelo://app?vid=86618eb2-741f-4657-95a0-589bd8a02dd3"},"vehicle_type_id":"4","last_reported":1731712117,"current_range_meters":11200,"station_id":"","pricing_plan_id":"cebpf4jnsgd1na2vs0mg"},{"bike_id":"347c7842-b74d-475c-9f43-0b98799e9df1","system_id":"levelo_inurba_marseille","lat":43.32343,"lon":5.40623,"is_reserved":false,"is_disabled":false,"rental_uris":{"android":"levelo://app?vid=347c7842-b74d-475c-9f43-0b98799e9df1","ios":"levelo://app?vid=347c7842-b74d-475c-9f43-0b98799e9df1"},"vehicle_type_id":"4","last_reported":1731712117,"current_range_meters":38800,"station_id":"ce4bhq92rcd13ifvqhjg","pricing_plan_id":"cebpf4jnsgd1na2vs0mg"},{"bike_id":"87ab1a01-5b3c-4d80-a6e7-e1ea991486c9","system_id":"levelo_inurba_marseille","lat":43.30812,"lon":5.38161,"is_reserved":false,"is_disabled":false,"rental_uris":{"android":"levelo://app?vid=87ab1a01-5b3c-4d80-a6e7-e1ea991486c9","ios":"levelo://app?vid=87ab1a01-5b3c-4d80-a6e7-e1ea991486c9"},"vehicle_type_id":"4","last_reported":1731712117,"current_range_meters":38400,"station_id":"ce4bgt12rcd13ifvqce0","pricing_plan_id":"cebpf4jnsgd1na2vs0mg"},{"bike_id":"4f9bbc6b-a988-43f8-bc00-4d944c1473b5","system_id":"levelo_inurba_marseille","lat":43.29927,"lon":5.36389,"is_reserved":false,"is_disabled":false,"rental_uris":{"android":"levelo://app?vid=4f9bbc6b-a988-43f8-bc00-4d944c1473b5","ios":"levelo://app?vid=4f9bbc6b-a988-43f8-bc00-4d944c1473b5"},"vehicle_type_id":"4","last_reported":1731712117,"current_range_meters":29600,"station_id":"","pricing_plan_id":"cebpf4jnsgd1na2vs0mg"},{"bike_id":"ad656c2e-4fad-4846-99b1-c98be0ae895c","system_id":"levelo_inurba_marseille","lat":43.29306,"lon":5.37168,"is_reserved":false,"is_disabled":false,"rental_uris":{"android":"levelo://app?vid=ad656c2e-4fad-4846-99b1-c98be0ae895c","ios":"levelo://app?vid=ad656c2e-4fad-4846-99b1-c98be0ae895c"},"vehicle_type_id":"4","last_reported":1731712117,"current_range_meters":38800,"station_id":"ce4bgh92rcd13ifvqb40","pricing_plan_id":"cebpf4jnsgd1na2vs0mg"},{"bike_id":"adc7e3f5-638c-4131-8d22-3b1984a6e070","system_id":"levelo_inurba_marseille","lat":43.31369,"lon":5.38495,"is_reserved":false,"is_disabled":false,"rental_uris":{"android":"levelo://app?vid=adc7e3f5-638c-4131-8d22-3b1984a6e070","ios":"levelo://app?vid=adc7e3f5-638c-4131-8d22-3b1984a6e070"},"vehicle_type_id":"4","last_reported":1731712117,"current_range_meters":27600,"station_id":"ce4bgt92rcd13ifvqcf0","pricing_plan_id":"cebpf4jnsgd1na2vs0mg"},{"bike_id":"139d00fc-e67b-449a-9fd4-0db893561dc2","system_id":"levelo_inurba_marseille","lat":43.33756,"lon":5.37418,"is_reserved":false,"is_disabled":false,"rental_uris":{"android":"levelo://app?vid=139d00fc-e67b-449a-9fd4-0db893561dc2","ios":"levelo://app?vid=139d00fc-e67b-449a-9fd4-0db893561dc2"},"vehicle_type_id":"4","last_reported":1731712117,"current_range_meters":8000,"station_id":"","pricing_plan_id":"cebpf4jnsgd1na2vs0mg"},{"bike_id":"bdda4347-118f-4304-b506-09b4b5e15b39","system_id":"levelo_inurba_marseille","lat":43.33723,"lon":5.39186,"is_reserved":false,"is_disabled":false,"rental_uris":{"android":"levelo://app?vid=bdda4347-118f-4304-b506-09b4b5e15b39","ios":"levelo://app?vid=bdda4347-118f-4304-b506-09b4b5e15b39"},"vehicle_type_id":"4","last_reported":1731712117,"current_range_meters":17600,"station_id":"ce4bhr92rcd13ifvqhsg","pricing_plan_id":"cebpf4jnsgd1na2vs0mg"},{"bike_id":"33d11ece-d040-4857-8fd2-e02b3e60c387","system_id":"levelo_inurba_marseille","lat":43.24179,"lon":5.39725,"is_reserved":false,"is_disabled":false,"rental_uris":{"android":"levelo://app?vid=33d11ece-d040-4857-8fd2-e02b3e60c387","ios":"levelo://app?vid=33d11ece-d040-4857-8fd2-e02b3e60c387"},