{"last_updated":1771522870,"ttl":60,"version":"2.2","data":{"bikes":[{"bike_id":"99327eba-2c72-48ee-a78b-9b9a5e0f558b","system_id":"levelo_inurba_marseille","lat":43.337444,"lon":5.374475,"is_reserved":false,"is_disabled":true,"rental_uris":{"android":"levelo://app?vid=99327eba-2c72-48ee-a78b-9b9a5e0f558b","ios":"levelo://app?vid=99327eba-2c72-48ee-a78b-9b9a5e0f558b"},"vehicle_type_id":"4","last_reported":1771522871,"current_range_meters":23200,"station_id":"","pricing_plan_id":"cebpf4jnsgd1na2vs0mg"},{"bike_id":"43b98b5f-6dbd-4ec4-a093-cfba8e608803","system_id":"levelo_inurba_marseille","lat":43.33064,"lon":5.39037,"is_reserved":false,"is_disabled":false,"rental_uris":{"android":"levelo://app?vid=43b98b5f-6dbd-4ec4-a093-cfba8e608803","ios":"levelo://app?vid=43b98b5f-6dbd-4ec4-a093-cfba8e608803"},"vehicle_type_id":"4","last_reported":1771522871,"current_range_meters":38800,"station_id":"ce4bhr92rcd13ifvqhrg","pricing_plan_id":"cebpf4jnsgd1na2vs0mg"},{"bike_id":"c6c1fe69-6fb7-43a4-bbb4-c732e5fb46bf","system_id":"levelo_inurba_marseille","lat":43.3047,"lon":5.37898,"is_reserved":false,"is_disabled":false,"rental_uris":{"android":"levelo://app?vid=c6c1fe69-6fb7-43a4-bbb4-c732e5fb46bf","ios":"levelo://app?vid=c6c1fe69-6fb7-43a4-bbb4-c732e5fb46bf"},"vehicle_type_id":"4","last_reported":1771522871,"current_range_meters":34800,"station_id":"ce4bgup2rcd13ifvqcn0","pricing_plan_id":"cebpf4jnsgd1na2vs0mg"},{"bike_id":"331df1a7-f2d5-4b9d-a217-d49eb4f88a38","system_id":"levelo_inurba_marseille","lat":43.33768,"lon":5.37428,"is_reserved":false,"is_disabled":false,"rental_uris":{"android":"levelo://app?vid=331df1a7-f2d5-4b9d-a217-d49eb4f88a38","ios":"levelo://app?vid=331df1a7-f2d5-4b9d-a217-d49eb4f88a38"},"vehicle_type_id":"4","last_reported":1771522871,"current_range_meters":32800,"station_id":"","pricing_plan_id":"cebpf4jnsgd1na2vs0mg"},{"bike_id":"42fafb5c-cc9b-4e1a-81b8-c9f6a9984329","system_id":"levelo_inurba_marseille","lat":43.33773,"lon":5.37432,"is_reserved":false,"is_disabled":false,"rental_uris":{"android":"levelo://app?vid=42fafb5c-cc9b-4e1a-81b8-c9f6a9984329","ios":"levelo://app?vid=42fafb5c-cc9b-4e1a-81b8-c9f6a9984329"},"vehicle_type_id":"4","last_reported":1771522871,"current_range_meters":34800,"station_id":"","pricing_plan_id":"cebpf4jnsgd1na2vs0mg"},{"bike_id":"7a1cdecb-11bb-4f70-bf50-b6f3456f03c6","system_id":"levelo_inurba_marseille","lat":43.33023,"lon":5.39032,"is_reserved":false,"is_disabled":false,"rental_uris":{"android":"levelo://app?vid=7a1cdecb-11bb-4f70-bf50-b6f3456f03c6","ios":"levelo://app?vid=7a1cdecb-11bb-4f70-bf50-b6f3456f03c6"},"vehicle_type_id":"4","last_reported":1771522871,"current_range_meters":38800,"station_id":"ce4bhr92rcd13ifvqhrg","pricing_plan_id":"cebpf4jnsgd1na2vs0mg"},{"bike_id":"c06ad96a-8e0c-423c-9444-d0e37ffe0235","system_id":"levelo_inurba_marseille","lat":43.33759,"lon":5.37424,"is_reserved":false,"is_disabled":false,"rental_uris":{"android":"levelo://app?vid=c06ad96a-8e0c-423c-9444-d0e37ffe0235","ios":"levelo://app?vid=c06ad96a-8e0c-423c-9444-d0e37ffe0235"},"vehicle_type_id":"4","last_reported":1771522871,"current_range_meters":33600,"station_id":"","pricing_plan_id":"cebpf4jnsgd1na2vs0mg"},{"bike_id":"e915bdd2-b800-4c37-a445-23effa6bc842","system_id":"levelo_inurba_marseille","lat":43.33761,"lon":5.37441,"is_reserved":false,"is_disabled":false,"rental_uris":{"android":"levelo://app?vid=e915bdd2-b800-4c37-a445-23effa6bc842","ios":"levelo://app?vid=e915bdd2-b800-4c37-a445-23effa6bc842"},"vehicle_type_id":"4","last_reported":1771522871,"current_range_meters":34800,"station_id":"","pricing_plan_id":"cebpf4jnsgd1na2vs0mg"},{"bike_id":"4d144231-2289-496a-bc7a-fa4fa5d7e2d8","system_id":"levelo_inurba_marseille","lat":43.3302,"lon":5.39094,"is_reserved":false,"is_disabled":false,"rental_uris":{"android":"levelo://app?vid=4d144231-2289-496a-bc7a-fa4fa5d7e2d8","ios":"levelo://app?vid=4d144231-2289-496a-bc7a-fa4fa5d7e2d8"},"vehicle_type_id":"4","last_reported":1771522871,"current_range_meters":38800,"station_id":"ce4bhr92rcd13ifvqhrg","pricing_plan_id":"cebpf4jnsgd1na2vs0mg"},{"bike_id":"0516ad23-91ca-413d-b8b4-23658eb358e0","system_id":"levelo_inurba_marseille","lat":43.33028,"lon":5.39037,"is_reserved":false,"is_disabled":false,"rental_uris":{"android":"levelo://app?vid=0516ad23-91ca-413d-b8b4-23658eb358e0","ios":"levelo://app?vid=0516ad23-91ca-413d-b8b4-23658eb358e0"},"vehicle_type_id":"4","last_reported":1771522871,"current_range_meters":39200,"station_id":"ce4bhr92rcd13ifvqhrg","pricing_plan_id":"cebpf4jnsgd1na2vs0mg"},{"bike_id":"b8737371-1179-4e36-a2ae-f4b86fa93045","system_id":"levelo_inurba_marseille","lat":43.30476,"lon":5.37907,"is_reserved":false,"is_disabled":false,"rental_uris":{"android":"levelo://app?vid=b8737371-1179-4e36-a2ae-f4b86fa93045","ios":"levelo://app?vid=b8737371-1179-4e36-a2ae-f4b86fa93045"},"vehicle_type_id":"4","last_reported":1771522871,"current_range_meters":35200,"station_id":"ce4bgup2rcd13ifvqcn0","pricing_plan_id":"cebpf4jnsgd1na2vs0mg"},{"bike_id":"0c89d429-d655-4c34-a763-59cd5505b475","system_id":"levelo_inurba_marseille","lat":43.337444,"lon":5.374475,"is_reserved":false,"is_disabled":false,"rental_uris":{"android":"levelo://app?vid=0c89d429-d655-4c34-a763-59cd5505b475","ios":"levelo://app?vid=0c89d429-d655-4c34-a763-59cd5505b475"},"vehicle_type_id":"4","last_reported":1771522871,"current_range_meters":37600,"station_id":"","pricing_plan_id":"cebpf4jnsgd1na2vs0mg"},{"bike_id":"9ed0e7e9-e04f-473a-838b-6806dd8b9d00","system_id":"levelo_inurba_marseille","lat":43.33774,"lon":5.37511,"is_reserved":false,"is_disabled":false,"rental_uris":{"android":"levelo://app?vid=9ed0e7e9-e04f-473a-838b-6806dd8b9d00","ios":"levelo://app?vid=9ed0e7e9-e04f-473a-838b-6806dd8b9d00"},"vehicle_type_id":"4","last_reported":1771522871,"current_range_meters":34800,"station_id":"","pricing_plan_id":"cebpf4jnsgd1na2vs0mg"},{"bike_id":"22b847bd-e85a-493b-9dff-19c4dafe0db5","system_id":"levelo_inurba_marseille","lat":43.33768,"lon":5.37433,"is_reserved":false,"is_disabled":false,"rental_uris":{"android":"levelo://app?vid=22b847bd-e85a-493b-9dff-19c4dafe0db5","ios":"levelo://app?vid=22b847bd-e85a-493b-9dff-19c4dafe0db5"},"vehicle_type_id":"4","last_reported":1771522871,"current_range_meters":36800,"station_id":"","pricing_plan_id":"cebpf4jnsgd1na2vs0mg"},{"bike_id":"55631cb7-9c47-4efc-99f4-98f304312821","system_id":"levelo_inurba_marseille","lat":43.30468,"lon":5.37912,"is_reserved":false,"is_disabled":false,"rental_uris":{"android":"levelo://app?vid=55631cb7-9c47-4efc-99f4-98f304312821","ios":"levelo://app?vid=55631cb7-9c47-4efc-99f4-98f304312821"},"vehicle_type_id":"4","last_reported":1771522871,"current_range_meters":36800,"station_id":"ce4bgup2rcd13ifvqcn0","pricing_plan_id":"cebpf4jnsgd1na2vs0mg"},{"bike_id":"e5c151fa-415e-476f-ae6f-644cb6c66769","system_id":"levelo_inurba_marseille","lat":43.30939,"lon":5.40148,"is_reserved":false,"is_disabled":false,"rental_uris":{"android":"levelo://app?vid=e5c151fa-415e-476f-ae6f-644cb6c66769","ios":"levelo://app?vid=e5c151fa-415e-476f-ae6f-644cb6c66769"},"vehicle_type_id":"4","last_reported":1771522871,"current_range_meters":33200,"station_id":"ce4bgvp2rcd13ifvqct0","pricing_plan_id":"cebpf4jnsgd1na2vs0mg"},{"bike_id":"871d8049-bedd-4c2b-936e-e4db494d9fc1","system_id":"levelo_inurba_marseille","lat":43.29523,"lon":5.39396,"is_reserved":false,"is_disabled":false,"rental_uris":{"android":"levelo://app?vid=871d8049-bedd-4c2b-936e-e4db494d9fc1","ios":"levelo://app?vid=871d8049-bedd-4c2b-936e-e4db494d9fc1"},"vehicle_type_id":"4","last_reported":1771522871,"current_range_meters":38800,"station_id":"ce4bh292rcd13ifvqdf0","pricing_plan_id":"cebpf4jnsgd1na2vs0mg"},{"bike_id":"a3ffa9a0-b883-4b92-bb2b-18a6258f82ef","system_id":"levelo_inurba_marseille","lat":43.30928,"lon":5.40161,"is_reserved":false,"is_disabled":false,"rental_uris":{"android":"levelo://app?vid=a3ffa9a0-b883-4b92-bb2b-18a6258f82ef","ios":"levelo://app?vid=a3ffa9a0-b883-4b92-bb2b-18a6258f82ef"},"vehicle_type_id":"4","last_reported":1771522871,"current_range_meters":36800,"station_id":"ce4bgvp2rcd13ifvqct0","pricing_plan_id":"cebpf4jnsgd1na2vs0mg"},{"bike_id":"38f79e2c-23f9-4b1f-a983-fd5c0fa59887","system_id":"levelo_inurba_marseille","lat":43.29533,"lon":5.39395,"is_reserved":false,"is_disabled":false,"rental_uris":{"android":"levelo://app?vid=38f79e2c-23f9-4b1f-a983-fd5c0fa59887","ios":"levelo://app?vid=38f79e2c-23f9-4b1f-a983-fd5c0fa59887"},"vehicle_type_id":"4","last_reported":1771522871,"current_range_meters":36400,"station_id":"ce4bh292rcd13ifvqdf0","pricing_plan_id":"cebpf4jnsgd1na2vs0mg"},{"bike_id":"8134ed97-2d39-4c13-bc68-11322de2ba6c","system_id":"levelo_inurba_marseille","lat":43.33767,"lon":5.37435,"is_reserved":false,"is_disabled":false,"rental_uris":{"android":"levelo://app?vid=8134ed97-2d39-4c13-bc68-11322de2ba6c","ios":"levelo://app?vid=8134ed97-2d39-4c13-bc68-11322de2ba6c"},"vehicle_type_id":"4","last_reported":1771522871,"current_range_meters":33600,"station_id":"","pricing_plan_id":"cebpf4jnsgd1na2vs0mg"},{"bike_id":"2b14b9bc-6dae-4132-8dfc-903739e7785d","system_id":"levelo_inurba_marseille","lat":43.30459,"lon":5.38875,"is_reserved":false,"is_disabled":false,"rental_uris":{"android":"levelo://app?vid=2b14b9bc-6dae-4132-8dfc-903739e7785d","ios":"levelo://app?vid=2b14b9bc-6dae-4132-8dfc-903739e7785d"},"vehicle_type_id":"4","last_reported":1771522871,"current_range_meters":39200,"station_id":"ce4bgk12rcd13ifvqbi0","pricing_plan_id":"cebpf4jnsgd1na2vs0mg"},{"bike_id":"b6ad9b58-6e41-4083-b3b2-0e69207f7d15","system_id":"levelo_inurba_marseille","lat":43.30913,"lon":5.40172,"is_reserved":false,"is_disabled":false,"rental_uris":{"android":"levelo://app?vid=b6ad9b58-6e41-4083-b3b2-0e69207f7d15","ios":"levelo://app?vid=b6ad9b58-6e41-4083-b3b2-0e69207f7d15"},"vehicle_type_id":"4","last_reported":1771522871,"current_range_meters":34800,"station_id":"ce4bgvp2rcd13ifvqct0","pricing_plan_id":"cebpf4jnsgd1na2vs0mg"},{"bike_id":"51ca5aad-aff8-4a04-9e94-0ca3bb71db9a","system_id":"levelo_inurba_marseille","lat":43.30437,"lon":5.3888,"is_reserved":false,"is_disabled":false,"rental_uris":{"android":"levelo://app?vid=51ca5aad-aff8-4a04-9e94-0ca3bb71db9a","ios":"levelo://app?vid=51ca5aad-aff8-4a04-9e94-0ca3bb71db9a"},"vehicle_type_id":"4","last_reported":1771522871,"current_range_meters":39200,"station_id":"ce4bgk12rcd13ifvqbi0","pricing_plan_id":"cebpf4jnsgd1na2vs0mg"},{"bike_id":"26000524-2bbf-4fdd-ae6e-f447f558181e","system_id":"levelo_inurba_marseille","lat":43.30421,"lon":5.39245,"is_reserved":false,"is_disabled":false,"rental_uris":{"android":"levelo://app?vid=26000524-2bbf-4fdd-ae6e-f447f558181e","ios":"levelo://app?vid=26000524-2bbf-4fdd-ae6e-f447f558181e"},"vehicle_type_id":"4","last_reported":1771522871,"current_range_meters":39200,"station_id":"ce4bgk12rcd13ifvqbi0","pricing_plan_id":"cebpf4jnsgd1na2vs0mg"},{"bike_id":"8788cd98-1901-4bfe-b3e7-467d837d1a2f","system_id":"levelo_inurba_marseille","lat":43.30933,"lon":5.40152,"is_reserved":false,"is_disabled":false,"rental_uris":{"android":"levelo://app?vid=8788cd98-1901-4bfe-b3e7-467d837d1a2f","ios":"levelo://app?vid=8788cd98-1901-4bfe-b3e7-467d837d1a2f"},"vehicle_type_id":"4","last_reported":1771522871,"current_range_meters":34000,"station_id":"ce4bgvp2rcd13ifvqct0","pricing_plan_id":"cebpf4jnsgd1na2vs0mg"},{"bike_id":"3bde9f42-3d38-43b7-a184-a33b7f7b1ef4","system_id":"levelo_inurba_marseille","lat":43.30936,"lon":5.40159,"is_reserved":false,"is_disabled":false,"rental_uris":{"android":"levelo://app?vid=3bde9f42-3d38-43b7-a184-a33b7f7b1ef4","ios":"levelo://app?vid=3bde9f42-3d38-43b7-a184-a33b7f7b1ef4"},"vehicle_type_id":"4","last_reported":1771522871,"current_range_meters":38000,"station_id":"ce4bgvp2rcd13ifvqct0","pricing_plan_id":"cebpf4jnsgd1na2vs0mg"},{"bike_id":"288dd89e-728e-4ff8-9a79-55d446a60394","system_id":"levelo_inurba_marseille","lat":43.30935,"lon":5.40136,"is_reserved":false,"is_disabled":false,"rental_uris":{"android":"levelo://app?vid=288dd89e-728e-4ff8-9a79-55d446a60394","ios":"levelo://app?vid=288dd89e-728e-4ff8-9a79-55d446a60394"},"vehicle_type_id":"4","last_reported":1771522871,"current_range_meters":37600,"station_id":"ce4bgvp2rcd13ifvqct0","pricing_plan_id":"cebpf4jnsgd1na2vs0mg"},{"bike_id":"226f5333-02a0-445d-8e37-dce1d7b60fb5","system_id":"levelo_inurba_marseille","lat":43.309295,"lon":5.401473,"is_reserved":false,"is_disabled":false,"rental_uris":{"android":"levelo://app?vid=226f5333-02a0-445d-8e37-dce1d7b60fb5","ios":"levelo://app?vid=226f5333-02a0-445d-8e37-dce1d7b60fb5"},"vehicle_type_id":"4","last_reported":1771522871,"current_range_meters":38000,"station_id":"ce4bgvp2rcd13ifvqct0","pricing_plan_id":"cebpf4jnsgd1na2vs0mg"},{"bike_id":"92bb46c3-e80b-4026-9ab7-8d968f027904","system_id":"levelo_inurba_marseille","lat":43.30946,"lon":5.40156,"is_reserved":false,"is_disabled":false,"rental_uris":{"android":"levelo://app?vid=92bb46c3-e80b-4026-9ab7-8d968f027904","ios":"levelo://app?vid=92bb46c3-e80b-4026-9ab7-8d968f027904"},"vehicle_type_id":"4","last_reported":1771522871,"current_range_meters":21600,"station_id":"ce4bgvp2rcd13ifvqct0","pricing_plan_id":"cebpf4jnsgd1na2vs0mg"},{"bike_id":"ccfa2006-ef9a-478a-a704-426a2376a419","system_id":"levelo_inurba_marseille","lat":43.33024,"lon":5.39038,"is_reserved":false,"is_disabled":false,"rental_uris":{"android":"levelo://app?vid=ccfa2006-ef9a-478a-a704-426a2376a419","ios":"levelo://app?vid=ccfa2006-ef9a-478a-a704-426a2376a419"},"vehicle_type_id":"4","last_reported":1771522871,"current_range_meters":39200,"station_id":"ce4bhr92rcd13ifvqhrg","pricing_plan_id":"cebpf4jnsgd1na2vs0mg"},{"bike_id":"9cf09c6e-6674-4d88-9be0-f6e909b4f5c4","system_id":"levelo_inurba_marseille","lat":43.32987,"lon":5.39047,"is_reserved":false,"is_disabled":false,"rental_uris":{"android":"levelo://app?vid=9cf09c6e-6674-4d88-9be0-f6e909b4f5c4","ios":"levelo://app?vid=9cf09c6e-6674-4d88-9be0-f6e909b4f5c4"},"vehicle_type_id":"4","last_reported":1771522871,"current_range_meters":39200,"station_id":"ce4bhr92rcd13ifvqhrg","pricing_plan_id":"cebpf4jnsgd1na2vs0mg"},{"bike_id":"67684dd4-9830-4386-8d3b-50a28b8fdff3","system_id":"levelo_inurba_marseille","lat":43.33025,"lon":5.39043,"is_reserved":false,"is_disabled":false,"rental_uris":{"android":"levelo://app?vid=67684dd4-9830-4386-8d3b-50a28b8fdff3","ios":"levelo://app?vid=67684dd4-9830-4386-8d3b-50a28b8fdff3"},"vehicle_type_id":"4","last_reported":1771522871,"current_range_meters":38800,"station_id":"ce4bhr92rcd13ifvqhrg","pricing_plan_id":"cebpf4jnsgd1na2vs0mg"},{"bike_id":"28912185-5e28-4107-8772-4c477d0a18ec","system_id":"levelo_inurba_marseille","lat":43.27331,"lon":5.39102,"is_reserved":false,"is_disabled":false,"rental_uris":{"android":"levelo://app?vid=28912185-5e28-4107-8772-4c477d0a18ec","ios":"levelo://app?vid=28912185-5e28-4107-8772-4c477d0a18ec"},"vehicle_type_id":"4","last_reported":1771522871,"current_range_meters":35200,"station_id":"ce4bhgp2rcd13ifvqfe0","pricing_plan_id":"cebpf4jnsgd1na2vs0mg"},{"bike_id":"19d23579-6cc8-4678-9fe1-3aaecb2b3094","system_id":"levelo_inurba_marseille","lat":43.29295,"lon":5.36857,"is_reserved":false,"is_disabled":false,"rental_uris":{"android":"levelo://app?vid=19d23579-6cc8-4678-9fe1-3aaecb2b3094","ios":"levelo://app?vid=19d23579-6cc8-4678-9fe1-3aaecb2b3094"},"vehicle_type_id":"4","last_reported":1771522871,"current_range_meters":17600,"station_id":"ce4bhbp2rcd13ifvqesg","pricing_plan_id":"cebpf4jnsgd1na2vs0mg"},{"bike_id":"d8078990-2633-4921-9e81-c73d420fcb12","system_id":"levelo_inurba_marseille","lat":43.28408,"lon":5.37499,"is_reserved":false,"is_disabled":true,"rental_uris":{"android":"levelo://app?vid=d8078990-2633-4921-9e81-c73d420fcb12","ios":"levelo://app?vid=d8078990-2633-4921-9e81-c73d420fcb12"},"vehicle_type_id":"4","last_reported":1771522871,"current_range_meters":18000,"station_id":"ce4bh412rcd13ifvqds0","pricing_plan_id":"cebpf4jnsgd1na2vs0mg"},{"bike_id":"f56469d6-156e-4dc9-9c3e-3416ed76c4ba","system_id":"levelo_inurba_marseille","lat":43.33148,"lon":5.37725,"is_reserved":false,"is_disabled":false,"rental_uris":{"android":"levelo://app?vid=f56469d6-156e-4dc9-9c3e-3416ed76c4ba","ios":"levelo://app?vid=f56469d6-156e-4dc9-9c3e-3416ed76c4ba"},"vehicle_type_id":"4","last_reported":1771522871,"current_range_meters":22000,"station_id":"st_d46cu089ee8s73dldbu0","pricing_plan_id":"cebpf4jnsgd1na2vs0mg"},{"bike_id":"21fcee29-1f60-4b15-9570-fdb254aa265c","system_id":"levelo_inurba_marseille","lat":43.30554,"lon":5.36704,"is_reserved":false,"is_disabled":false,"rental_uris":{"android":"levelo://app?vid=21fcee29-1f60-4b15-9570-fdb254aa265c","ios":"levelo://app?vid=21fcee29-1f60-4b15-9570-fdb254aa265c"},"vehicle_type_id":"4","last_reported":1771522871,"current_range_meters":37600,"station_id":"ce4bgrp2rcd13ifvqc9g","pricing_plan_id":"cebpf4jnsgd1na2vs0mg"},{"bike_id":"5a2ea636-c0b3-4ef1-8174-a3363098f3d9","system_id":"levelo_inurba_marseille","lat":43.30422,"lon":5.39742,"is_reserved":false,"is_disabled":false,"rental_uris":{"android":"levelo://app?vid=5a2ea636-c0b3-4ef1-8174-a3363098f3d9","ios":"levelo://app?vid=5a2ea636-c0b3-4ef1-8174-a3363098f3d9"},"vehicle_type_id":"4","last_reported":1771522871,"current_range_meters":29600,"station_id":"ce4bh092rcd13ifvqd20","pricing_plan_id":"cebpf4jnsgd1na2vs0mg"},{"bike_id":"290fa5f4-0ced-4749-90ac-279bca5e7583","system_id":"levelo_inurba_marseille","lat":43.31329,"lon":5.396919,"is_reserved":false,"is_disabled":false,"rental_uris":{"android":"levelo://app?vid=290fa5f4-0ced-4749-90ac-279bca5e7583","ios":"levelo://app?vid=290fa5f4-0ced-4749-90ac-279bca5e7583"},"vehicle_type_id":"4","last_reported":1771522871,"current_range_meters":35200,"station_id":"ce4bgvp2rcd13ifvqcu0","pricing_plan_id":"cebpf4jnsgd1na2vs0mg"},{"bike_id":"37b7e444-9d5d-4c7d-ab45-e9b1c28ae4ed","system_id":"levelo_inurba_marseille","lat":43.26958,"lon":5.38622,"is_reserved":false,"is_disabled":false,"rental_uris":{"android":"levelo://app?vid=37b7e444-9d5d-4c7d-ab45-e9b1c28ae4ed","ios":"levelo://app?vid=37b7e444-9d5d-4c7d-ab45-e9b1c28ae4ed"},"vehicle_type_id":"4","last_reported":1771522871,"current_range_meters":23200,"station_id":"ce4bhh92rcd13ifvqfh0","pricing_plan_id":"cebpf4jnsgd1na2vs0mg"},{"bike_id":"d2bb17c7-6558-4b9c-ae8a-0d2292552853","system_id":"levelo_inurba_marseille","lat":43.28482,"lon":5.48395,"is_reserved":false,"is_disabled":false,"rental_uris":{"android":"levelo://app?vid=d2bb17c7-6558-4b9c-ae8a-0d2292552853","ios":"levelo://app?vid=d2bb17c7-6558-4b9c-ae8a-0d2292552853"},"vehicle_type_id":"4","last_reported":1771522871,"current_range_meters":33600,"station_id":"","pricing_plan_id":"cebpf4jnsgd1na2vs0mg"},{"bike_id":"6cb651f1-1b1c-4ba9-9a7d-da2bd4345f59","system_id":"levelo_inurba_marseille","lat":43.29751,"lon":5.3765,"is_reserved":false,"is_disabled":false,"rental_uris":{"android":"levelo://app?vid=6cb651f1-1b1c-4ba9-9a7d-da2bd4345f59","ios":"levelo://app?vid=6cb651f1-1b1c-4ba9-9a7d-da2bd4345f59"},"vehicle_type_id":"4","last_reported":1771522871,"current_range_meters":36800,"station_id":"","pricing_plan_id":"cebpf4jnsgd1na2vs0mg"},{"bike_id":"da4093a5-6673-43a8-b7ee-b4859a45cac4","system_id":"levelo_inurba_marseille","lat":43.24406,"lon":5.37047,"is_reserved":false,"is_disabled":false,"rental_uris":{"android":"levelo://app?vid=da4093a5-6673-43a8-b7ee-b4859a45cac4","ios":"levelo://app?vid=da4093a5-6673-43a8-b7ee-b4859a45cac4"},"vehicle_type_id":"4","last_reported":1771522871,"current_range_meters":6000,"station_id":"ce4bhhh2rcd13ifvqfk0","pricing_plan_id":"cebpf4jnsgd1na2vs0mg"},{"bike_id":"10baabba-427f-4b92-8fb6-7febd4348b8e","system_id":"levelo_inurba_marseille","lat":43.29033,"lon":5.3757,"is_reserved":false,"is_disabled":false,"rental_uris":{"android":"levelo://app?vid=10baabba-427f-4b92-8fb6-7febd4348b8e","ios":"levelo://app?vid=10baabba-427f-4b92-8fb6-7febd4348b8e"},"vehicle_type_id":"4","last_reported":1771522871,"current_range_meters":32400,"station_id":"ce4bh692rcd13ifvqe90","pricing_plan_id":"cebpf4jnsgd1na2vs0mg"},{"bike_id":"2ddf6fc9-3e3c-4939-8d8a-aa74e7fe75b3","system_id":"levelo_inurba_marseille","lat":43.27059,"lon":5.40248,"is_reserved":false,"is_disabled":false,"rental_uris":{"android":"levelo://app?vid=2ddf6fc9-3e3c-4939-8d8a-aa74e7fe75b3","ios":"levelo://app?vid=2ddf6fc9-3e3c-4939-8d8a-aa74e7fe75b3"},"vehicle_type_id":"4","last_reported":1771522871,"current_range_meters":36000,"station_id":"ce4bhk92rcd13ifvqgc0","pricing_plan_id":"cebpf4jnsgd1na2vs0mg"},{"bike_id":"9e1d28bc-db73-4b13-86a9-387759e1564c","system_id":"levelo_inurba_marseille","lat":43.29026,"lon":5.3812,"is_reserved":false,"is_disabled":false,"rental_uris":{"android":"levelo://app?vid=9e1d28bc-db73-4b13-86a9-387759e1564c","ios":"levelo://app?vid=9e1d28bc-db73-4b13-86a9-387759e1564c"},"vehicle_type_id":"4","last_reported":1771522871,"current_range_meters":32000,"station_id":"ce4bh4p2rcd13ifvqe1g","pricing_plan_id":"cebpf4jnsgd1na2vs0mg"},{"bike_id":"b84b6268-29b8-44a1-9287-8102d3592c80","system_id":"levelo_inurba_marseille","lat":43.28933,"lon":5.36369,"is_reserved":false,"is_disabled":false,"rental_uris":{"android":"levelo://app?vid=b84b6268-29b8-44a1-9287-8102d3592c80","ios":"levelo://app?vid=b84b6268-29b8-44a1-9287-8102d3592c80"},"vehicle_type_id":"4","last_reported":1771522871,"current_range_meters":3600,"station_id":"ce4bhc92rcd13ifvqetg","pricing_plan_id":"cebpf4jnsgd1na2vs0mg"},{"bike_id":"b06d6778-1330-4014-88d2-af64b2e0fdd6","system_id":"levelo_inurba_marseille","lat":43.29628,"lon":5.377868,"is_reserved":false,"is_disabled":false,"rental_uris":{"android":"levelo://app?vid=b06d6778-1330-4014-88d2-af64b2e0fdd6","ios":"levelo://app?vid=b06d6778-1330-4014-88d2-af64b2e0fdd6"},"vehicle_type_id":"4","last_reported":1771522871,"current_range_meters":34000,"station_id":"ce4bgi92rcd13ifvqb90","pricing_plan_id":"cebpf4jnsgd1na2vs0mg"},{"bike_id":"1c09d9bd-54fb-4be8-81ee-d9e761e8a40a","system_id":"levelo_inurba_marseille","lat":43.32452,"lon":5.40453,"is_reserved":false,"is_disabled":false,"rental_uris":{"android":"levelo://app?vid=1c09d9bd-54fb-4be8-81ee-d9e761e8a40a","ios":"levelo://app?vid=1c09d9bd-54fb-4be8-81ee-d9e761e8a40a"},"vehicle_type_id":"4","last_reported":1771522871,"current_range_meters":28000,"station_id":"","pricing_plan_id":"cebpf4jnsgd1na2vs0mg"},{"bike_id":"995dd4aa-d943-4547-aee8-c3325bdb05ae","system_id":"levelo_inurba_marseille","lat":43.31293,"lon":5.40172,"is_reserved":false,"is_disabled":true,"rental_uris":{"android":"levelo://app?vid=995dd4aa-d943-4547-aee8-c3325bdb05ae","ios":"levelo://app?vid=995dd4aa-d943-4547-aee8-c3325bdb05ae"},"vehicle_type_id":"4","last_reported":1771522871,"current_range_meters":20800,"station_id":"ce4bh092rcd13ifvqd30","pricing_plan_id":"cebpf4jnsgd1na2vs0mg"},{"bike_id":"631c16e4-4b0f-4ff0-8625-ba4eadd395df","system_id":"levelo_inurba_marseille","lat":43.29993,"lon":5.37186,"is_reserved":false,"is_disabled":false,"rental_uris":{"android":"levelo://app?vid=631c16e4-4b0f-4ff0-8625-ba4eadd395df","ios":"levelo://app?vid=631c16e4-4b0f-4ff0-8625-ba4eadd395df"},"vehicle_type_id":"4","last_reported":1771522871,"current_range_meters":29600,"station_id":"ce4bgr92rcd13ifvqc7g","pricing_plan_id":"cebpf4jnsgd1na2vs0mg"},{"bike_id":"13ea51e5-b047-4613-9ff7-94bdcd27cc08","system_id":"levelo_inurba_marseille","lat":43.30305,"lon":5.39212,"is_reserved":false,"is_disabled":false,"rental_uris":{"android":"levelo://app?vid=13ea51e5-b047-4613-9ff7-94bdcd27cc08","ios":"levelo://app?vid=13ea51e5-b047-4613-9ff7-94bdcd27cc08"},"vehicle_type_id":"4","last_reported":1771522871,"current_range_meters":16000,"station_id":"ce4bgkh2rcd13ifvqbk0","pricing_plan_id":"cebpf4jnsgd1na2vs0mg"},{"bike_id":"b22887b7-91c2-4148-bb64-f62f62c924cd","system_id":"levelo_inurba_marseille","lat":43.27926,"lon":5.3801,"is_reserved":false,"is_disabled":false,"rental_uris":{"android":"levelo://app?vid=b22887b7-91c2-4148-bb64-f62f62c924cd","ios":"levelo://app?vid=b22887b7-91c2-4148-bb64-f62f62c924cd"},"vehicle_type_id":"4","last_reported":1771522871,"current_range_meters":39200,"station_id":"ce4bhf92rcd13ifvqf50","pricing_plan_id":"cebpf4jnsgd1na2vs0mg"},{"bike_id":"41687617-a478-4857-9a5a-c9015548e544","system_id":"levelo_inurba_marseille","lat":43.29736,"lon":5.37682,"is_reserved":false,"is_disabled":false,"rental_uris":{"android":"levelo://app?vid=41687617-a478-4857-9a5a-c9015548e544","ios":"levelo://app?vid=41687617-a478-4857-9a5a-c9015548e544"},"vehicle_type_id":"4","last_reported":1771522871,"current_range_meters":20800,"station_id":"ce4bgkh2rcd13ifvqbl0","pricing_plan_id":"cebpf4jnsgd1na2vs0mg"},{"bike_id":"edfe3073-3933-4414-9dfb-84dae59b069c","system_id":"levelo_inurba_marseille","lat":43.29456,"lon":5.39774,"is_reserved":false,"is_disabled":false,"rental_uris":{"android":"levelo://app?vid=edfe3073-3933-4414-9dfb-84dae59b069c","ios":"levelo://app?vid=edfe3073-3933-4414-9dfb-84dae59b069c"},"vehicle_type_id":"4","last_reported":1771522871,"current_range_meters":37600,"station_id":"ce4bh3h2rcd13ifvqdo0","pricing_plan_id":"cebpf4jnsgd1na2vs0mg"},{"bike_id":"d0caeb2f-b726-4517-a43a-8fff04b88cb8","system_id":"levelo_inurba_marseille","lat":43.30139,"lon":5.39867,"is_reserved":false,"is_disabled":false,"rental_uris":{"android":"levelo://app?vid=d0caeb2f-b726-4517-a43a-8fff04b88cb8","ios":"levelo://app?vid=d0caeb2f-b726-4517-a43a-8fff04b88cb8"},"vehicle_type_id":"4","last_reported":1771522871,"current_range_meters":12400,"station_id":"ce4bh0h2rcd13ifvqd40","pricing_plan_id":"cebpf4jnsgd1na2vs0mg"},{"bike_id":"748e0f94-1d84-4e99-a2d8-3ed4f6188416","system_id":"levelo_inurba_marseille","lat":43.250997,"lon":5.403263,"is_reserved":false,"is_disabled":false,"rental_uris":{"android":"levelo://app?vid=748e0f94-1d84-4e99-a2d8-3ed4f6188416","ios":"levelo://app?vid=748e0f94-1d84-4e99-a2d8-3ed4f6188416"},"vehicle_type_id":"4","last_reported":1771522871,"current_range_meters":32000,"station_id":"ce4bhlh2rcd13ifvqgig","pricing_plan_id":"cebpf4jnsgd1na2vs0mg"},{"bike_id":"396bef18-c8e8-45d9-a95f-e8fe6b390700","system_id":"levelo_inurba_marseille","lat":43.263711,"lon":5.410817,"is_reserved":false,"is_disabled":false,"rental_uris":{"android":"levelo://app?vid=396bef18-c8e8-45d9-a95f-e8fe6b390700","ios":"levelo://app?vid=396bef18-c8e8-45d9-a95f-e8fe6b390700"},"vehicle_type_id":"4","last_reported":1771522871,"current_range_meters":25200,"station_id":"","pricing_plan_id":"cebpf4jnsgd1na2vs0mg"},{"bike_id":"4b2888ef-8de7-42ba-a3dd-2981254bd630","system_id":"levelo_inurba_marseille","lat":43.27431,"lon":5.39415,"is_reserved":false,"is_disabled":false,"rental_uris":{"android":"levelo://app?vid=4b2888ef-8de7-42ba-a3dd-2981254bd630","ios":"levelo://app?vid=4b2888ef-8de7-42ba-a3dd-2981254bd630"},"vehicle_type_id":"4","last_reported":1771522871,"current_range_meters":21600,"station_id":"ce4bhdp2rcd13ifvqf20","pricing_plan_id":"cebpf4jnsgd1na2vs0mg"},{"bike_id":"f2d30de6-4c83-468b-9ea0-b4022ee843f0","system_id":"levelo_inurba_marseille","lat":43.32347,"lon":5.36742,"is_reserved":false,"is_disabled":false,"rental_uris":{"android":"levelo://app?vid=f2d30de6-4c83-468b-9ea0-b4022ee843f0","ios":"levelo://app?vid=f2d30de6-4c83-468b-9ea0-b4022ee843f0"},"vehicle_type_id":"4","last_reported":1771522871,"current_range_meters":25200,"station_id":"ce4bhsh2rcd13ifvqi2g","pricing_plan_id":"cebpf4jnsgd1na2vs0mg"},{"bike_id":"6730bef9-debf-4c9c-b160-fce2d703d18c","system_id":"levelo_inurba_marseille","lat":43.29191,"lon":5.39319,"is_reserved":false,"is_disabled":true,"rental_uris":{"android":"levelo://app?vid=6730bef9-debf-4c9c-b160-fce2d703d18c","ios":"levelo://app?vid=6730bef9-debf-4c9c-b160-fce2d703d18c"},"vehicle_type_id":"4","last_reported":1771522871,"current_range_meters":26800,"station_id":"ce4bh192rcd13ifvqdd0","pricing_plan_id":"cebpf4jnsgd1na2vs0mg"},{"bike_id":"9c2890e9-222e-4840-9a57-38213f2fa5e0","system_id":"levelo_inurba_marseille","lat":43.33724,"lon":5.39182,"is_reserved":false,"is_disabled":false,"rental_uris":{"android":"levelo://app?vid=9c2890e9-222e-4840-9a57-38213f2fa5e0","ios":"levelo://app?vid=9c2890e9-222e-4840-9a57-38213f2fa5e0"},"vehicle_type_id":"4","last_reported":1771522871,"current_range_meters":31200,"station_id":"ce4bhr92rcd13ifvqhsg","pricing_plan_id":"cebpf4jnsgd1na2vs0mg"},{"bike_id":"e071cb6b-00dd-46cc-bbae-0c336769674f","system_id":"levelo_inurba_marseille","lat":43.26493,"lon":5.39547,"is_reserved":false,"is_disabled":false,"rental_uris":{"android":"levelo://app?vid=e071cb6b-00dd-46cc-bbae-0c336769674f","ios":"levelo://app?vid=e071cb6b-00dd-46cc-bbae-0c336769674f"},"vehicle_type_id":"4","last_reported":1771522871,"current_range_meters":28800,"station_id":"ce4bhi12rcd13ifvqfq0","pricing_plan_id":"cebpf4jnsgd1na2vs0mg"},{"bike_id":"99861d79-8d83-4d49-a254-7a2580419d6b","system_id":"levelo_inurba_marseille","lat":43.265,"lon":5.3954,"is_reserved":false,"is_disabled":false,"rental_uris":{"android":"levelo://app?vid=99861d79-8d83-4d49-a254-7a2580419d6b","ios":"levelo://app?vid=99861d79-8d83-4d49-a254-7a2580419d6b"},"vehicle_type_id":"4","last_reported":1771522871,"current_range_meters":36000,"station_id":"ce4bhi12rcd13ifvqfq0","pricing_plan_id":"cebpf4jnsgd1na2vs0mg"},{"bike_id":"e9c8c195-4938-4494-9005-66aa872cbce1","system_id":"levelo_inurba_marseille","lat":43.31223,"lon":5.36846,"is_reserved":false,"is_disabled":false,"rental_uris":{"android":"levelo://app?vid=e9c8c195-4938-4494-9005-66aa872cbce1","ios":"levelo://app?vid=e9c8c195-4938-4494-9005-66aa872cbce1"},"vehicle_type_id":"4","last_reported":1771522871,"current_range_meters":18800,"station_id":"ce4bgl92rcd13ifvqbq0","pricing_plan_id":"cebpf4jnsgd1na2vs0mg"},{"bike_id":"0a98a7e5-4cde-4852-9b89-30e8a6016fd8","system_id":"levelo_inurba_marseille","lat":43.29559,"lon":5.42289,"is_reserved":false,"is_disabled":false,"rental_uris":{"android":"levelo://app?vid=0a98a7e5-4cde-4852-9b89-30e8a6016fd8","ios":"levelo://app?vid=0a98a7e5-4cde-4852-9b89-30e8a6016fd8"},"vehicle_type_id":"4","last_reported":1771522871,"current_range_meters":38400,"station_id":"ce4bhph2rcd13ifvqhdg","pricing_plan_id":"cebpf4jnsgd1na2vs0mg"},{"bike_id":"85b351ee-888c-451d-9dff-5ff7aef2984a","system_id":"levelo_inurba_marseille","lat":43.30117,"lon":5.39902,"is_reserved":false,"is_disabled":false,"rental_uris":{"android":"levelo://app?vid=85b351ee-888c-451d-9dff-5ff7aef2984a","ios":"levelo://app?vid=85b351ee-888c-451d-9dff-5ff7aef2984a"},"vehicle_type_id":"4","last_reported":1771522871,"current_range_meters":32400,"station_id":"ce4bh0h2rcd13ifvqd40","pricing_plan_id":"cebpf4jnsgd1na2vs0mg"},{"bike_id":"a2aac6db-ff2a-410f-9224-52b6b4391027","system_id":"levelo_inurba_marseille","lat":43.251066,"lon":5.403281,"is_reserved":false,"is_disabled":false,"rental_uris":{"android":"levelo://app?vid=a2aac6db-ff2a-410f-9224-52b6b4391027","ios":"levelo://app?vid=a2aac6db-ff2a-410f-9224-52b6b4391027"},"vehicle_type_id":"4","last_reported":1771522871,"current_range_meters":24400,"station_id":"ce4bhlh2rcd13ifvqgig","pricing_plan_id":"cebpf4jnsgd1na2vs0mg"},{"bike_id":"04ab1faf-83f8-453d-a45d-cb0011fd9773","system_id":"levelo_inurba_marseille","lat":43.28194,"lon":5.39061,"is_reserved":false,"is_disabled":false,"rental_uris":{"android":"levelo://app?vid=04ab1faf-83f8-453d-a45d-cb0011fd9773","ios":"levelo://app?vid=04ab1faf-83f8-453d-a45d-cb0011fd9773"},"vehicle_type_id":"4","last_reported":1771522871,"current_range_meters":10000,"station_id":"ce4bhn92rcd13ifvqgsg","pricing_plan_id":"cebpf4jnsgd1na2vs0mg"},{"bike_id":"29136cdc-509b-432f-822a-1a0dcf3da18b","system_id":"levelo_inurba_marseille","lat":43.29825,"lon":5.38214,"is_reserved":false,"is_disabled":false,"rental_uris":{"android":"levelo://app?vid=29136cdc-509b-432f-822a-1a0dcf3da18b","ios":"levelo://app?vid=29136cdc-509b-432f-822a-1a0dcf3da18b"},"vehicle_type_id":"4","last_reported":1771522871,"current_range_meters":39200,"station_id":"","pricing_plan_id":"cebpf4jnsgd1na2vs0mg"},{"bike_id":"65179e1b-c85a-4939-9b60-43602bda787b","system_id":"levelo_inurba_marseille","lat":43.24394,"lon":5.37069,"is_reserved":false,"is_disabled":false,"rental_uris":{"android":"levelo://app?vid=65179e1b-c85a-4939-9b60-43602bda787b","ios":"levelo://app?vid=65179e1b-c85a-4939-9b60-43602bda787b"},"vehicle_type_id":"4","last_reported":1771522871,"current_range_meters":7200,"station_id":"ce4bhhh2rcd13ifvqfk0","pricing_plan_id":"cebpf4jnsgd1na2vs0mg"},{"bike_id":"7f21f15a-842f-4a63-b05c-532c19fa9719","system_id":"levelo_inurba_marseille","lat":43.28485,"lon":5.38567,"is_reserved":false,"is_disabled":false,"rental_uris":{"android":"levelo://app?vid=7f21f15a-842f-4a63-b05c-532c19fa9719","ios":"levelo://app?vid=7f21f15a-842f-4a63-b05c-532c19fa9719"},"vehicle_type_id":"4","last_reported":1771522871,"current_range_meters":32000,"station_id":"ce4bh8p2rcd13ifvqeb0","pricing_plan_id":"cebpf4jnsgd1na2vs0mg"},{"bike_id":"10b4454e-cf3a-4037-8b45-b811ed0c5d91","system_id":"levelo_inurba_marseille","lat":43.22549,"lon":5.34818,"is_reserved":false,"is_disabled":false,"rental_uris":{"android":"levelo://app?vid=10b4454e-cf3a-4037-8b45-b811ed0c5d91","ios":"levelo://app?vid=10b4454e-cf3a-4037-8b45-b811ed0c5d91"},"vehicle_type_id":"4","last_reported":1771522871,"current_range_meters":35200,"station_id":"st_cvj5dfep6f1abm77gieg","pricing_plan_id":"cebpf4jnsgd1na2vs0mg"},{"bike_id":"05999296-9476-4507-b736-9bcf96ba6830","system_id":"levelo_inurba_marseille","lat":43.28361,"lon":5.38103,"is_reserved":false,"is_disabled":false,"rental_uris":{"android":"levelo://app?vid=05999296-9476-4507-b736-9bcf96ba6830","ios":"levelo://app?vid=05999296-9476-4507-b736-9bcf96ba6830"},"vehicle_type_id":"4","last_reported":1771522871,"current_range_meters":13600,"station_id":"ce4bh412rcd13ifvqdr0","pricing_plan_id":"cebpf4jnsgd1na2vs0mg"},{"bike_id":"85a58be4-1aa6-4473-bece-977758e9c8ae","system_id":"levelo_inurba_marseille","lat":43.24816,"lon":5.37461,"is_reserved":false,"is_disabled":false,"rental_uris":{"android":"levelo://app?vid=85a58be4-1aa6-4473-bece-977758e9c8ae","ios":"levelo://app?vid=85a58be4-1aa6-4473-bece-977758e9c8ae"},"vehicle_type_id":"4","last_reported":1771522871,"current_range_meters":20800,"station_id":"ce4bhgh2rcd13ifvqfb0","pricing_plan_id":"cebpf4jnsgd1na2vs0mg"},{"bike_id":"bbae8adc-2a69-4740-9db0-183ea86ef4d2","system_id":"levelo_inurba_marseille","lat":43.29514,"lon":5.394,"is_reserved":false,"is_disabled":false,"rental_uris":{"android":"levelo://app?vid=bbae8adc-2a69-4740-9db0-183ea86ef4d2","ios":"levelo://app?vid=bbae8adc-2a69-4740-9db0-183ea86ef4d2"},"vehicle_type_id":"4","last_reported":1771522871,"current_range_meters":30400,"station_id":"ce4bh292rcd13ifvqdf0","pricing_plan_id":"cebpf4jnsgd1na2vs0mg"},{"bike_id":"415a59dd-0aff-41c9-85d3-895296a390d5","system_id":"levelo_inurba_marseille","lat":43.31361,"lon":5.36737,"is_reserved":false,"is_disabled":false,"rental_uris":{"android":"levelo://app?vid=415a59dd-0aff-41c9-85d3-895296a390d5","ios":"levelo://app?vid=415a59dd-0aff-41c9-85d3-895296a390d5"},"vehicle_type_id":"4","last_reported":1771522871,"current_range_meters":26000,"station_id":"ce4bgr92rcd13ifvqc6g","pricing_plan_id":"cebpf4jnsgd1na2vs0mg"},{"bike_id":"19d3787d-1c8e-4249-902d-f5e776447478","system_id":"levelo_inurba_marseille","lat":43.25517,"lon":5.37657,"is_reserved":false,"is_disabled":false,"rental_uris":{"android":"levelo://app?vid=19d3787d-1c8e-4249-902d-f5e776447478","ios":"levelo://app?vid=19d3787d-1c8e-4249-902d-f5e776447478"},"vehicle_type_id":"4","last_reported":1771522871,"current_range_meters":27200,"station_id":"ce4bhh12rcd13ifvqff0","pricing_plan_id":"cebpf4jnsgd1na2vs0mg"},{"bike_id":"5c0952e3-3469-48d1-b0ac-88596b084e30","system_id":"levelo_inurba_marseille","lat":43.33757,"lon":5.37498,"is_reserved":false,"is_disabled":false,"rental_uris":{"android":"levelo://app?vid=5c0952e3-3469-48d1-b0ac-88596b084e30","ios":"levelo://app?vid=5c0952e3-3469-48d1-b0ac-88596b084e30"},"vehicle_type_id":"4","last_reported":1771522871,"current_range_meters":36400,"station_id":"","pricing_plan_id":"cebpf4jnsgd1na2vs0mg"},{"bike_id":"35baf17e-a379-4d61-887d-d7e4596150b9","system_id":"levelo_inurba_marseille","lat":43.30211,"lon":5.39463,"is_reserved":false,"is_disabled":false,"rental_uris":{"android":"levelo://app?vid=35baf17e-a379-4d61-887d-d7e4596150b9","ios":"levelo://app?vid=35baf17e-a379-4d61-887d-d7e4596150b9"},"vehicle_type_id":"4","last_reported":1771522871,"current_range_meters":26000,"station_id":"ce4bh0p2rcd13ifvqd70","pricing_plan_id":"cebpf4jnsgd1na2vs0mg"},{"bike_id":"ccd3f4dd-465f-404a-97df-4643702c071b","system_id":"levelo_inurba_marseille","lat":43.25872,"lon":5.39894,"is_reserved":false,"is_disabled":false,"rental_uris":{"android":"levelo://app?vid=ccd3f4dd-465f-404a-97df-4643702c071b","ios":"levelo://app?vid=ccd3f4dd-465f-404a-97df-4643702c071b"},"vehicle_type_id":"4","last_reported":1771522871,"current_range_meters":9600,"station_id":"ce4bhl92rcd13ifvqghg","pricing_plan_id":"cebpf4jnsgd1na2vs0mg"},{"bike_id":"93f041f4-e8ff-42bf-9c57-4b88f5b87d58","system_id":"levelo_inurba_marseille","lat":43.30151,"lon":5.37421,"is_reserved":false,"is_disabled":false,"rental_uris":{"android":"levelo://app?vid=93f041f4-e8ff-42bf-9c57-4b88f5b87d58","ios":"levelo://app?vid=93f041f4-e8ff-42bf-9c57-4b88f5b87d58"},"vehicle_type_id":"4","last_reported":1771522871,"current_range_meters":37600,"station_id":"ce4bgs92rcd13ifvqcc0","pricing_plan_id":"cebpf4jnsgd1na2vs0mg"},{"bike_id":"80195ad9-f300-4214-9a49-beffdc843dac","system_id":"levelo_inurba_marseille","lat":43.27212,"lon":5.39178,"is_reserved":false,"is_disabled":false,"rental_uris":{"android":"levelo://app?vid=80195ad9-f300-4214-9a49-beffdc843dac","ios":"levelo://app?vid=80195ad9-f300-4214-9a49-beffdc843dac"},"vehicle_type_id":"4","last_reported":1771522871,"current_range_meters":13600,"station_id":"ce4bhhp2rcd13ifvqfm0","pricing_plan_id":"cebpf4jnsgd1na2vs0mg"},{"bike_id":"166e35c4-ba58-48ae-81a6-945bb5d753ca","system_id":"levelo_inurba_marseille","lat":43.24649,"lon":5.38887,"is_reserved":false,"is_disabled":false,"rental_uris":{"android":"levelo://app?vid=166e35c4-ba58-48ae-81a6-945bb5d753ca","ios":"levelo://app?vid=166e35c4-ba58-48ae-81a6-945bb5d753ca"},"vehicle_type_id":"4","last_reported":1771522871,"current_range_meters":27600,"station_id":"ce4bhg12rcd13ifvqf60","pricing_plan_id":"cebpf4jnsgd1na2vs0mg"},{"bike_id":"ba0a34c0-deb8-4ee4-bc0b-d4e684e61339","system_id":"levelo_inurba_marseille","lat":43.29082,"lon":5.37162,"is_reserved":false,"is_disabled":false,"rental_uris":{"android":"levelo://app?vid=ba0a34c0-deb8-4ee4-bc0b-d4e684e61339","ios":"levelo://app?vid=ba0a34c0-deb8-4ee4-bc0b-d4e684e61339"},"vehicle_type_id":"4","last_reported":1771522871,"current_range_meters":21600,"station_id":"ce4bh5p2rcd13ifvqe4g","pricing_plan_id":"cebpf4jnsgd1na2vs0mg"},{"bike_id":"74ebf587-0f48-4b3f-ad3d-925fa6d79a1d","system_id":"levelo_inurba_marseille","lat":43.27844,"lon":5.39209,"is_reserved":false,"is_disabled":false,"rental_uris":{"android":"levelo://app?vid=74ebf587-0f48-4b3f-ad3d-925fa6d79a1d","ios":"levelo://app?vid=74ebf587-0f48-4b3f-ad3d-925fa6d79a1d"},"vehicle_type_id":"4","last_reported":1771522871,"current_range_meters":40000,"station_id":"ce4bhjp2rcd13ifvqga0","pricing_plan_id":"cebpf4jnsgd1na2vs0mg"},{"bike_id":"2cbbc2f5-92a3-4c38-a0e2-181ee10ae410","system_id":"levelo_inurba_marseille","lat":43.27495,"lon":5.42472,"is_reserved":false,"is_disabled":false,"rental_uris":{"android":"levelo://app?vid=2cbbc2f5-92a3-4c38-a0e2-181ee10ae410","ios":"levelo://app?vid=2cbbc2f5-92a3-4c38-a0e2-181ee10ae410"},"vehicle_type_id":"4","last_reported":1771522871,"current_range_meters":34800,"station_id":"ce4bhn92rcd13ifvqgrg","pricing_plan_id":"cebpf4jnsgd1na2vs0mg"},{"bike_id":"77c84e28-a226-4c9d-bcc9-76b7f8c0d11c","system_id":"levelo_inurba_marseille","lat":43.24545,"lon":5.39508,"is_reserved":false,"is_disabled":false,"rental_uris":{"android":"levelo://app?vid=77c84e28-a226-4c9d-bcc9-76b7f8c0d11c","ios":"levelo://app?vid=77c84e28-a226-4c9d-bcc9-76b7f8c0d11c"},"vehicle_type_id":"4","last_reported":1771522871,"current_range_meters":34000,"station_id":"ce4bhlp2rcd13ifvqgjg","pricing_plan_id":"cebpf4jnsgd1na2vs0mg"},{"bike_id":"c9b743d2-ea19-486c-9150-6905c9d98a27","system_id":"levelo_inurba_marseille","lat":43.26516,"lon":5.40388,"is_reserved":false,"is_disabled":false,"rental_uris":{"android":"levelo://app?vid=c9b743d2-ea19-486c-9150-6905c9d98a27","ios":"levelo://app?vid=c9b743d2-ea19-486c-9150-6905c9d98a27"},"vehicle_type_id":"4","last_reported":1771522871,"current_range_meters":22000,"station_id":"","pricing_plan_id":"cebpf4jnsgd1na2vs0mg"},{"bike_id":"6ea3cace-50ba-43cb-a869-cba06ebcc5a1","system_id":"levelo_inurba_marseille","lat":43.29713,"lon":5.3661,"is_reserved":false,"is_disabled":false,"rental_uris":{"android":"levelo://app?vid=6ea3cace-50ba-43cb-a869-cba06ebcc5a1","ios":"levelo://app?vid=6ea3cace-50ba-43cb-a869-cba06ebcc5a1"},"vehicle_type_id":"4","last_reported":1771522871,"current_range_meters":26800,"station_id":"ce4bgn12rcd13ifvqbt0","pricing_plan_id":"cebpf4jnsgd1na2vs0mg"},{"bike_id":"f3c5d32f-828d-4a2a-bd02-59bb1b899498","system_id":"levelo_inurba_marseille","lat":43.265,"lon":5.39544,"is_reserved":false,"is_disabled":false,"rental_uris":{"android":"levelo://app?vid=f3c5d32f-828d-4a2a-bd02-59bb1b899498","ios":"levelo://app?vid=f3c5d32f-828d-4a2a-bd02-59bb1b899498"},"vehicle_type_id":"4","last_reported":1771522871,"current_range_meters":35200,"station_id":"ce4bhi12rcd13ifvqfq0","pricing_plan_id":"cebpf4jnsgd1na2vs0mg"},{"bike_id":"fc1aa6b8-6e5e-467f-92e9-aae02099ae9d","system_id":"levelo_inurba_marseille","lat":43.24637,"lon":5.43147,"is_reserved":false,"is_disabled":false,"rental_uris":{"android":"levelo://app?vid=fc1aa6b8-6e5e-467f-92e9-aae02099ae9d","ios":"levelo://app?vid=fc1aa6b8-6e5e-467f-92e9-aae02099ae9d"},"vehicle_type_id":"4","last_reported":1771522871,"current_range_meters":6800,"station_id":"st_d2m6c4gdas8pm72e190g","pricing_plan_id":"cebpf4jnsgd1na2vs0mg"},{"bike_id":"247929ef-06db-4867-a845-71bf576c71e1","system_id":"levelo_inurba_marseille","lat":43.28866,"lon":5.42509,"is_reserved":false,"is_disabled":false,"rental_uris":{"android":"levelo://app?vid=247929ef-06db-4867-a845-71bf576c71e1","ios":"levelo://app?vid=247929ef-06db-4867-a845-71bf576c71e1"},"vehicle_type_id":"4","last_reported":1771522871,"current_range_meters":36400,"station_id":"st_d3b462108ojc7389ooeg","pricing_plan_id":"cebpf4jnsgd1na2vs0mg"},{"bike_id":"4585df67-5569-4771-aa03-6e87fdd568df","system_id":"levelo_inurba_marseille","lat":43.231488,"lon":5.437216,"is_reserved":false,"is_disabled":false,"rental_uris":{"android":"levelo://app?vid=4585df67-5569-4771-aa03-6e87fdd568df","ios":"levelo://app?vid=4585df67-5569-4771-aa03-6e87fdd568df"},"vehicle_type_id":"4","last_reported":1771522871,"current_range_meters":26000,"station_id":"ce4bhmp2rcd13ifvqgog","pricing_plan_id":"cebpf4jnsgd1na2vs0mg"},{"bike_id":"1bdf262b-5b53-4108-b666-339efbe4431c","system_id":"levelo_inurba_marseille","lat":43.29044,"lon":5.38134,"is_reserved":false,"is_disabled":true,"rental_uris":{"android":"levelo://app?vid=1bdf262b-5b53-4108-b666-339efbe4431c","ios":"levelo://app?vid=1bdf262b-5b53-4108-b666-339efbe4431c"},"vehicle_type_id":"4","last_reported":1771522871,"current_range_meters":32400,"station_id":"ce4bh4p2rcd13ifvqe1g","pricing_plan_id":"cebpf4jnsgd1na2vs0mg"},{"bike_id":"57723f7a-061e-46b7-a0ae-b6210e118d77","system_id":"levelo_inurba_marseille","lat":43.30904,"lon":5.36851,"is_reserved":false,"is_disabled":false,"rental_uris":{"android":"levelo://app?vid=57723f7a-061e-46b7-a0ae-b6210e118d77","ios":"levelo://app?vid=57723f7a-061e-46b7-a0ae-b6210e118d77"},"vehicle_type_id":"4","last_reported":1771522871,"current_range_meters":29600,"station_id":"ce4bgn92rcd13ifvqbvg","pricing_plan_id":"cebpf4jnsgd1na2vs0mg"},{"bike_id":"c1b26ae8-8837-4bd2-b0e2-b890b8516fff","system_id":"levelo_inurba_marseille","lat":43.312366,"lon":5.368497,"is_reserved":false,"is_disabled":false,"rental_uris":{"android":"levelo://app?vid=c1b26ae8-8837-4bd2-b0e2-b890b8516fff","ios":"levelo://app?vid=c1b26ae8-8837-4bd2-b0e2-b890b8516fff"},"vehicle_type_id":"4","last_reported":1771522871,"current_range_meters":36800,"station_id":"ce4bgl92rcd13ifvqbq0","pricing_plan_id":"cebpf4jnsgd1na2vs0mg"},{"bike_id":"5d13fb13-656c-45fe-ab4e-2cc4a216a814","system_id":"levelo_inurba_marseille","lat":43.29616,"lon":5.37721,"is_reserved":false,"is_disabled":false,"rental_uris":{"android":"levelo://app?vid=5d13fb13-656c-45fe-ab4e-2cc4a216a814","ios":"levelo://app?vid=5d13fb13-656c-45fe-ab4e-2cc4a216a814"},"vehicle_type_id":"4","last_reported":1771522871,"current_range_meters":24000,"station_id":"ce4bgi92rcd13ifvqb90","pricing_plan_id":"cebpf4jnsgd1na2vs0mg"},{"bike_id":"f4b72c32-b078-47bf-bd6e-2a4cf9260d45","system_id":"levelo_inurba_marseille","lat":43.286866,"lon":5.355052,"is_reserved":false,"is_disabled":false,"rental_uris":{"android":"levelo://app?vid=f4b72c32-b078-47bf-bd6e-2a4cf9260d45","ios":"levelo://app?vid=f4b72c32-b078-47bf-bd6e-2a4cf9260d45"},"vehicle_type_id":"4","last_reported":1771522871,"current_range_meters":30800,"station_id":"","pricing_plan_id":"cebpf4jnsgd1na2vs0mg"},{"bike_id":"786db946-01e6-401d-825a-5be2365421b8","system_id":"levelo_inurba_marseille","lat":43.25576,"lon":5.3824,"is_reserved":false,"is_disabled":false,"rental_uris":{"android":"levelo://app?vid=786db946-01e6-401d-825a-5be2365421b8","ios":"levelo://app?vid=786db946-01e6-401d-825a-5be2365421b8"},"vehicle_type_id":"4","last_reported":1771522871,"current_range_meters":16800,"station_id":"ce4bhih2rcd13ifvqfs0","pricing_plan_id":"cebpf4jnsgd1na2vs0mg"},{"bike_id":"cdc99c23-84d2-4e46-9c6b-c07a65ce86fb","system_id":"levelo_inurba_marseille","lat":43.27436,"lon":5.39399,"is_reserved":false,"is_disabled":false,"rental_uris":{"android":"levelo://app?vid=cdc99c23-84d2-4e46-9c6b-c07a65ce86fb","ios":"levelo://app?vid=cdc99c23-84d2-4e46-9c6b-c07a65ce86fb"},"vehicle_type_id":"4","last_reported":1771522871,"current_range_meters":11200,"station_id":"ce4bhdp2rcd13ifvqf20","pricing_plan_id":"cebpf4jnsgd1na2vs0mg"},{"bike_id":"f5d22547-d06e-4fad-85c6-2cbbdcd29ad4","system_id":"levelo_inurba_marseille","lat":43.2921,"lon":5.37181,"is_reserved":false,"is_disabled":false,"rental_uris":{"android":"levelo://app?vid=f5d22547-d06e-4fad-85c6-2cbbdcd29ad4","ios":"levelo://app?vid=f5d22547-d06e-4fad-85c6-2cbbdcd29ad4"},"vehicle_type_id":"4","last_reported":1771522871,"current_range_meters":27600,"station_id":"","pricing_plan_id":"cebpf4jnsgd1na2vs0mg"},{"bike_id":"b7832889-4ff5-4ee2-9a8d-e7dc3953a51e","system_id":"levelo_inurba_marseille","lat":43.24809,"lon":5.37441,"is_reserved":false,"is_disabled":false,"rental_uris":{"android":"levelo://app?vid=b7832889-4ff5-4ee2-9a8d-e7dc3953a51e","ios":"levelo://app?vid=b7832889-4ff5-4ee2-9a8d-e7dc3953a51e"},"vehicle_type_id":"4","last_reported":1771522871,"current_range_meters":18000,"station_id":"ce4bhgh2rcd13ifvqfb0","pricing_plan_id":"cebpf4jnsgd1na2vs0mg"},{"bike_id":"6946a672-f062-4471-84f8-45eb3b2d6e19","system_id":"levelo_inurba_marseille","lat":43.27468,"lon":5.42454,"is_reserved":false,"is_disabled":false,"rental_uris":{"android":"levelo://app?vid=6946a672-f062-4471-84f8-45eb3b2d6e19","ios":"levelo://app?vid=6946a672-f062-4471-84f8-45eb3b2d6e19"},"vehicle_type_id":"4","last_reported":1771522871,"current_range_meters":2800,"station_id":"ce4bhn92rcd13ifvqgrg","pricing_plan_id":"cebpf4jnsgd1na2vs0mg"},{"bike_id":"d7fe06dd-5210-4348-9c79-e935e166482b","system_id":"levelo_inurba_marseille","lat":43.28703,"lon":5.37378,"is_reserved":false,"is_disabled":false,"rental_uris":{"android":"levelo://app?vid=d7fe06dd-5210-4348-9c79-e935e166482b","ios":"levelo://app?vid=d7fe06dd-5210-4348-9c79-e935e166482b"},"vehicle_type_id":"4","last_reported":1771522871,"current_range_meters":25200,"station_id":"ce4bh3p2rcd13ifvqdq0","pricing_plan_id":"cebpf4jnsgd1na2vs0mg"},{"bike_id":"193b13b5-751d-47c5-83e2-e9b1033dea79","system_id":"levelo_inurba_marseille","lat":43.28437,"lon":5.39194,"is_reserved":false,"is_disabled":false,"rental_uris":{"android":"levelo://app?vid=193b13b5-751d-47c5-83e2-e9b1033dea79","ios":"levelo://app?vid=193b13b5-751d-47c5-83e2-e9b1033dea79"},"vehicle_type_id":"4","last_reported":1771522871,"current_range_meters":40000,"station_id":"ce4bhoh2rcd13ifvqh5g","pricing_plan_id":"cebpf4jnsgd1na2vs0mg"},{"bike_id":"a2b17400-8e5c-4ea2-af80-074b6e160bbc","system_id":"levelo_inurba_marseille","lat":43.31521,"lon":5.37305,"is_reserved":false,"is_disabled":false,"rental_uris":{"android":"levelo://app?vid=a2b17400-8e5c-4ea2-af80-074b6e160bbc","ios":"levelo://app?vid=a2b17400-8e5c-4ea2-af80-074b6e160bbc"},"vehicle_type_id":"4","last_reported":1771522871,"current_range_meters":35200,"station_id":"ce4bgt12rcd13ifvqcd0","pricing_plan_id":"cebpf4jnsgd1na2vs0mg"},{"bike_id":"98ef6a7d-32f2-4972-a7e4-d0e75f178a33","system_id":"levelo_inurba_marseille","lat":43.30124,"lon":5.43115,"is_reserved":false,"is_disabled":false,"rental_uris":{"android":"levelo://app?vid=98ef6a7d-32f2-4972-a7e4-d0e75f178a33","ios":"levelo://app?vid=98ef6a7d-32f2-4972-a7e4-d0e75f178a33"},"vehicle_type_id":"4","last_reported":1771522871,"current_range_meters":33200,"station_id":"st_d3js3co5814s73ftftug","pricing_plan_id":"cebpf4jnsgd1na2vs0mg"},{"bike_id":"cdcd8c42-d26a-4e42-9873-59170e37aa87","system_id":"levelo_inurba_marseille","lat":43.2307,"lon":5.35496,"is_reserved":false,"is_disabled":false,"rental_uris":{"android":"levelo://app?vid=cdcd8c42-d26a-4e42-9873-59170e37aa87","ios":"levelo://app?vid=cdcd8c42-d26a-4e42-9873-59170e37aa87"},"vehicle_type_id":"4","last_reported":1771522871,"current_range_meters":39200,"station_id":"cpo3342slgdg3j2ifvpg","pricing_plan_id":"cebpf4jnsgd1na2vs0mg"},{"bike_id":"74f93e91-fd1e-46a3-af86-8c59b80fc809","system_id":"levelo_inurba_marseille","lat":43.26245,"lon":5.40437,"is_reserved":false,"is_disabled":false,"rental_uris":{"android":"levelo://app?vid=74f93e91-fd1e-46a3-af86-8c59b80fc809","ios":"levelo://app?vid=74f93e91-fd1e-46a3-af86-8c59b80fc809"},"vehicle_type_id":"4","last_reported":1771522871,"current_range_meters":26000,"station_id":"ce4bhmh2rcd13ifvqgmg","pricing_plan_id":"cebpf4jnsgd1na2vs0mg"},{"bike_id":"fad3df44-feeb-4aa5-939d-6a398ca4560c","system_id":"levelo_inurba_marseille","lat":43.26789,"lon":5.39433,"is_reserved":false,"is_disabled":false,"rental_uris":{"android":"levelo://app?vid=fad3df44-feeb-4aa5-939d-6a398ca4560c","ios":"levelo://app?vid=fad3df44-feeb-4aa5-939d-6a398ca4560c"},"vehicle_type_id":"4","last_reported":1771522871,"current_range_meters":37600,"station_id":"ce4bhh12rcd13ifvqfg0","pricing_plan_id":"cebpf4jnsgd1na2vs0mg"},{"bike_id":"6dc166ac-703a-41ec-a4b5-ddf06bfcc432","system_id":"levelo_inurba_marseille","lat":43.29011,"lon":5.38625,"is_reserved":false,"is_disabled":false,"rental_uris":{"android":"levelo://app?vid=6dc166ac-703a-41ec-a4b5-ddf06bfcc432","ios":"levelo://app?vid=6dc166ac-703a-41ec-a4b5-ddf06bfcc432"},"vehicle_type_id":"4","last_reported":1771522871,"current_range_meters":30400,"station_id":"ce4bh4p2rcd13ifvqe0g","pricing_plan_id":"cebpf4jnsgd1na2vs0mg"},{"bike_id":"09778be7-5cf9-4200-b612-74c2d136f19b","system_id":"levelo_inurba_marseille","lat":43.29792,"lon":5.39347,"is_reserved":false,"is_disabled":false,"rental_uris":{"android":"levelo://app?vid=09778be7-5cf9-4200-b612-74c2d136f19b","ios":"levelo://app?vid=09778be7-5cf9-4200-b612-74c2d136f19b"},"vehicle_type_id":"4","last_reported":1771522871,"current_range_meters":28000,"station_id":"chh1huq6cuj3fo74tm60","pricing_plan_id":"cebpf4jnsgd1na2vs0mg"},{"bike_id":"da5d7c02-dedd-4f24-9593-20ab64935c14","system_id":"levelo_inurba_marseille","lat":43.30441,"lon":5.3972,"is_reserved":false,"is_disabled":false,"rental_uris":{"android":"levelo://app?vid=da5d7c02-dedd-4f24-9593-20ab64935c14","ios":"levelo://app?vid=da5d7c02-dedd-4f24-9593-20ab64935c14"},"vehicle_type_id":"4","last_reported":1771522871,"current_range_meters":4800,"station_id":"ce4bh092rcd13ifvqd20","pricing_plan_id":"cebpf4jnsgd1na2vs0mg"},{"bike_id":"91f95071-cb44-4294-8d05-12a1be58ba9d","system_id":"levelo_inurba_marseille","lat":43.25146,"lon":5.40346,"is_reserved":false,"is_disabled":false,"rental_uris":{"android":"levelo://app?vid=91f95071-cb44-4294-8d05-12a1be58ba9d","ios":"levelo://app?vid=91f95071-cb44-4294-8d05-12a1be58ba9d"},"vehicle_type_id":"4","last_reported":1771522871,"current_range_meters":33200,"station_id":"","pricing_plan_id":"cebpf4jnsgd1na2vs0mg"},{"bike_id":"aed5bfec-6f6b-4d48-9743-ee9d48821171","system_id":"levelo_inurba_marseille","lat":43.28154,"lon":5.42642,"is_reserved":false,"is_disabled":false,"rental_uris":{"android":"levelo://app?vid=aed5bfec-6f6b-4d48-9743-ee9d48821171","ios":"levelo://app?vid=aed5bfec-6f6b-4d48-9743-ee9d48821171"},"vehicle_type_id":"4","last_reported":1771522871,"current_range_meters":29600,"station_id":"ce4bhnh2rcd13ifvqgug","pricing_plan_id":"cebpf4jnsgd1na2vs0mg"},{"bike_id":"ed62a73a-4bd7-49f5-ba79-79b7cfcd0252","system_id":"levelo_inurba_marseille","lat":43.2842,"lon":5.3499,"is_reserved":false,"is_disabled":true,"rental_uris":{"android":"levelo://app?vid=ed62a73a-4bd7-49f5-ba79-79b7cfcd0252","ios":"levelo://app?vid=ed62a73a-4bd7-49f5-ba79-79b7cfcd0252"},"vehicle_type_id":"4","last_reported":1771522871,"current_range_meters":26000,"station_id":"ce4bhbh2rcd13ifvqepg","pricing_plan_id":"cebpf4jnsgd1na2vs0mg"},{"bike_id":"42b6100a-41f2-4d60-944d-8dd96a15e3d1","system_id":"levelo_inurba_marseille","lat":43.31461,"lon":5.37361,"is_reserved":false,"is_disabled":false,"rental_uris":{"android":"levelo://app?vid=42b6100a-41f2-4d60-944d-8dd96a15e3d1","ios":"levelo://app?vid=42b6100a-41f2-4d60-944d-8dd96a15e3d1"},"vehicle_type_id":"4","last_reported":1771522871,"current_range_meters":8800,"station_id":"ce4bgt12rcd13ifvqcd0","pricing_plan_id":"cebpf4jnsgd1na2vs0mg"},{"bike_id":"b911d7df-7273-4680-aaa1-87b446d33b9b","system_id":"levelo_inurba_marseille","lat":43.26936,"lon":5.38919,"is_reserved":false,"is_disabled":false,"rental_uris":{"android":"levelo://app?vid=b911d7df-7273-4680-aaa1-87b446d33b9b","ios":"levelo://app?vid=b911d7df-7273-4680-aaa1-87b446d33b9b"},"vehicle_type_id":"4","last_reported":1771522871,"current_range_meters":20800,"station_id":"ce4bhhh2rcd13ifvqfl0","pricing_plan_id":"cebpf4jnsgd1na2vs0mg"},{"bike_id":"7074c830-1f49-440a-aa60-013e310fa522","system_id":"levelo_inurba_marseille","lat":43.27385,"lon":5.3627,"is_reserved":false,"is_disabled":false,"rental_uris":{"android":"levelo://app?vid=7074c830-1f49-440a-aa60-013e310fa522","ios":"levelo://app?vid=7074c830-1f49-440a-aa60-013e310fa522"},"vehicle_type_id":"4","last_reported":1771522871,"current_range_meters":12400,"station_id":"ce4bhbh2rcd13ifvqeo0","pricing_plan_id":"cebpf4jnsgd1na2vs0mg"},{"bike_id":"11c6bfff-c339-43fd-bdd1-865eec75b1f4","system_id":"levelo_inurba_marseille","lat":43.24989,"lon":5.40498,"is_reserved":false,"is_disabled":false,"rental_uris":{"android":"levelo://app?vid=11c6bfff-c339-43fd-bdd1-865eec75b1f4","ios":"levelo://app?vid=11c6bfff-c339-43fd-bdd1-865eec75b1f4"},"vehicle_type_id":"4","last_reported":1771522871,"current_range_meters":28400,"station_id":"st_d2ngiaodas8pm72gd1h0","pricing_plan_id":"cebpf4jnsgd1na2vs0mg"},{"bike_id":"99b21152-e766-4b5f-b9a3-a676677d8462","system_id":"levelo_inurba_marseille","lat":43.24389,"lon":5.3704,"is_reserved":false,"is_disabled":false,"rental_uris":{"android":"levelo://app?vid=99b21152-e766-4b5f-b9a3-a676677d8462","ios":"levelo://app?vid=99b21152-e766-4b5f-b9a3-a676677d8462"},"vehicle_type_id":"4","last_reported":1771522871,"current_range_meters":22000,"station_id":"ce4bhhh2rcd13ifvqfk0","pricing_plan_id":"cebpf4jnsgd1na2vs0mg"},{"bike_id":"ed801aba-6299-4abc-846c-98c2ac128308","system_id":"levelo_inurba_marseille","lat":43.24393,"lon":5.3707,"is_reserved":false,"is_disabled":false,"rental_uris":{"android":"levelo://app?vid=ed801aba-6299-4abc-846c-98c2ac128308","ios":"levelo://app?vid=ed801aba-6299-4abc-846c-98c2ac128308"},"vehicle_type_id":"4","last_reported":1771522871,"current_range_meters":19200,"station_id":"ce4bhhh2rcd13ifvqfk0","pricing_plan_id":"cebpf4jnsgd1na2vs0mg"},{"bike_id":"a338c969-bf95-4c60-ade2-72f3f3a8ab46","system_id":"levelo_inurba_marseille","lat":43.29619,"lon":5.38096,"is_reserved":false,"is_disabled":false,"rental_uris":{"android":"levelo://app?vid=a338c969-bf95-4c60-ade2-72f3f3a8ab46","ios":"levelo://app?vid=a338c969-bf95-4c60-ade2-72f3f3a8ab46"},"vehicle_type_id":"4","last_reported":1771522871,"current_range_meters":35600,"station_id":"ce4bgl12rcd13ifvqbo0","pricing_plan_id":"cebpf4jnsgd1na2vs0mg"},{"bike_id":"549f289b-9770-4026-802d-a4ffdc207c39","system_id":"levelo_inurba_marseille","lat":43.32367,"lon":5.38888,"is_reserved":false,"is_disabled":false,"rental_uris":{"android":"levelo://app?vid=549f289b-9770-4026-802d-a4ffdc207c39","ios":"levelo://app?vid=549f289b-9770-4026-802d-a4ffdc207c39"},"vehicle_type_id":"4","last_reported":1771522871,"current_range_meters":33600,"station_id":"ce4bhqp2rcd13ifvqhog","pricing_plan_id":"cebpf4jnsgd1na2vs0mg"},{"bike_id":"0b715417-68b9-4825-97d2-b62b2d21f609","system_id":"levelo_inurba_marseille","lat":43.29637,"lon":5.37723,"is_reserved":false,"is_disabled":false,"rental_uris":{"android":"levelo://app?vid=0b715417-68b9-4825-97d2-b62b2d21f609","ios":"levelo://app?vid=0b715417-68b9-4825-97d2-b62b2d21f609"},"vehicle_type_id":"4","last_reported":1771522871,"current_range_meters":22800,"station_id":"ce4bgi92rcd13ifvqb90","pricing_plan_id":"cebpf4jnsgd1na2vs0mg"},{"bike_id":"e59f665b-ca8e-40ab-a2ed-9455369e7fbf","system_id":"levelo_inurba_marseille","lat":43.28478,"lon":5.48396,"is_reserved":false,"is_disabled":false,"rental_uris":{"android":"levelo://app?vid=e59f665b-ca8e-40ab-a2ed-9455369e7fbf","ios":"levelo://app?vid=e59f665b-ca8e-40ab-a2ed-9455369e7fbf"},"vehicle_type_id":"4","last_reported":1771522871,"current_range_meters":24800,"station_id":"","pricing_plan_id":"cebpf4jnsgd1na2vs0mg"},{"bike_id":"17a01d90-3a19-4f99-8b4d-eccba28965ad","system_id":"levelo_inurba_marseille","lat":43.28859,"lon":5.39306,"is_reserved":false,"is_disabled":false,"rental_uris":{"android":"levelo://app?vid=17a01d90-3a19-4f99-8b4d-eccba28965ad","ios":"levelo://app?vid=17a01d90-3a19-4f99-8b4d-eccba28965ad"},"vehicle_type_id":"4","last_reported":1771522871,"current_range_meters":38000,"station_id":"ce4bh2p2rcd13ifvqdi0","pricing_plan_id":"cebpf4jnsgd1na2vs0mg"},{"bike_id":"8c21ace2-0801-4586-8cea-064ccad16c99","system_id":"levelo_inurba_marseille","lat":43.22559,"lon":5.41623,"is_reserved":false,"is_disabled":false,"rental_uris":{"android":"levelo://app?vid=8c21ace2-0801-4586-8cea-064ccad16c99","ios":"levelo://app?vid=8c21ace2-0801-4586-8cea-064ccad16c99"},"vehicle_type_id":"4","last_reported":1771522871,"current_range_meters":39200,"station_id":"st_d2o4gvlbi1j2169b742g","pricing_plan_id":"cebpf4jnsgd1na2vs0mg"},{"bike_id":"ad4eda2d-29ff-4bac-bf5f-b98fd85aff85","system_id":"levelo_inurba_marseille","lat":43.296075,"lon":5.380965,"is_reserved":false,"is_disabled":false,"rental_uris":{"android":"levelo://app?vid=ad4eda2d-29ff-4bac-bf5f-b98fd85aff85","ios":"levelo://app?vid=ad4eda2d-29ff-4bac-bf5f-b98fd85aff85"},"vehicle_type_id":"4","last_reported":1771522871,"current_range_meters":22400,"station_id":"ce4bgl12rcd13ifvqbo0","pricing_plan_id":"cebpf4jnsgd1na2vs0mg"},{"bike_id":"ae1526ac-94c0-4471-b06e-92c0bff1ac42","system_id":"levelo_inurba_marseille","lat":43.28109,"lon":5.39634,"is_reserved":false,"is_disabled":false,"rental_uris":{"android":"levelo://app?vid=ae1526ac-94c0-4471-b06e-92c0bff1ac42","ios":"levelo://app?vid=ae1526ac-94c0-4471-b06e-92c0bff1ac42"},"vehicle_type_id":"4","last_reported":1771522871,"current_range_meters":20800,"station_id":"ce4bho12rcd13ifvqh2g","pricing_plan_id":"cebpf4jnsgd1na2vs0mg"},{"bike_id":"9c73f2c7-5b50-4522-9afb-360155e111ca","system_id":"levelo_inurba_marseille","lat":43.25824,"lon":5.39427,"is_reserved":false,"is_disabled":false,"rental_uris":{"android":"levelo://app?vid=9c73f2c7-5b50-4522-9afb-360155e111ca","ios":"levelo://app?vid=9c73f2c7-5b50-4522-9afb-360155e111ca"},"vehicle_type_id":"4","last_reported":1771522871,"current_range_meters":10000,"station_id":"ce4bhip2rcd13ifvqft0","pricing_plan_id":"cebpf4jnsgd1na2vs0mg"},{"bike_id":"6a073e53-b7ba-45d5-a82b-20ab8b7b8e96","system_id":"levelo_inurba_marseille","lat":43.33543,"lon":5.37465,"is_reserved":false,"is_disabled":false,"rental_uris":{"android":"levelo://app?vid=6a073e53-b7ba-45d5-a82b-20ab8b7b8e96","ios":"levelo://app?vid=6a073e53-b7ba-45d5-a82b-20ab8b7b8e96"},"vehicle_type_id":"4","last_reported":1771522871,"current_range_meters":17200,"station_id":"st_d46tts09ee8s73dlu43g","pricing_plan_id":"cebpf4jnsgd1na2vs0mg"},{"bike_id":"27586e15-78a0-41b9-981d-e5de2751a5b3","system_id":"levelo_inurba_marseille","lat":43.30306,"lon":5.36886,"is_reserved":false,"is_disabled":false,"rental_uris":{"android":"levelo://app?vid=27586e15-78a0-41b9-981d-e5de2751a5b3","ios":"levelo://app?vid=27586e15-78a0-41b9-981d-e5de2751a5b3"},"vehicle_type_id":"4","last_reported":1771522871,"current_range_meters":14000,"station_id":"ce4bgqh2rcd13ifvqc5g","pricing_plan_id":"cebpf4jnsgd1na2vs0mg"},{"bike_id":"4e6ae03e-50eb-4e46-ad3a-b607c4b7ae2f","system_id":"levelo_inurba_marseille","lat":43.26947,"lon":5.40258,"is_reserved":false,"is_disabled":false,"rental_uris":{"android":"levelo://app?vid=4e6ae03e-50eb-4e46-ad3a-b607c4b7ae2f","ios":"levelo://app?vid=4e6ae03e-50eb-4e46-ad3a-b607c4b7ae2f"},"vehicle_type_id":"4","last_reported":1771522871,"current_range_meters":38400,"station_id":"cjm6bp8fraef2m0cb0m0","pricing_plan_id":"cebpf4jnsgd1na2vs0mg"},{"bike_id":"ef0ce076-d754-4306-9012-86f015869854","system_id":"levelo_inurba_marseille","lat":43.30569,"lon":5.36719,"is_reserved":false,"is_disabled":false,"rental_uris":{"android":"levelo://app?vid=ef0ce076-d754-4306-9012-86f015869854","ios":"levelo://app?vid=ef0ce076-d754-4306-9012-86f015869854"},"vehicle_type_id":"4","last_reported":1771522871,"current_range_meters":29600,"station_id":"ce4bgrp2rcd13ifvqc9g","pricing_plan_id":"cebpf4jnsgd1na2vs0mg"},{"bike_id":"32a08a32-d453-4bf3-ba4f-5046e32a69e4","system_id":"levelo_inurba_marseille","lat":43.30803,"lon":5.38147,"is_reserved":false,"is_disabled":false,"rental_uris":{"android":"levelo://app?vid=32a08a32-d453-4bf3-ba4f-5046e32a69e4","ios":"levelo://app?vid=32a08a32-d453-4bf3-ba4f-5046e32a69e4"},"vehicle_type_id":"4","last_reported":1771522871,"current_range_meters":40000,"station_id":"ce4bgt12rcd13ifvqce0","pricing_plan_id":"cebpf4jnsgd1na2vs0mg"},{"bike_id":"cdedfe68-8f81-48b1-a1d4-83bdd88645c6","system_id":"levelo_inurba_marseille","lat":43.22927,"lon":5.35373,"is_reserved":false,"is_disabled":false,"rental_uris":{"android":"levelo://app?vid=cdedfe68-8f81-48b1-a1d4-83bdd88645c6","ios":"levelo://app?vid=cdedfe68-8f81-48b1-a1d4-83bdd88645c6"},"vehicle_type_id":"4","last_reported":1771522871,"current_range_meters":28000,"station_id":"cpo3532slgdg3j2ikp40","pricing_plan_id":"cebpf4jnsgd1na2vs0mg"},{"bike_id":"4bd1f6d4-81e3-4e75-8ac8-751650c842e0","system_id":"levelo_inurba_marseille","lat":43.304357,"lon":5.38876,"is_reserved":false,"is_disabled":false,"rental_uris":{"android":"levelo://app?vid=4bd1f6d4-81e3-4e75-8ac8-751650c842e0","ios":"levelo://app?vid=4bd1f6d4-81e3-4e75-8ac8-751650c842e0"},"vehicle_type_id":"4","last_reported":1771522871,"current_range_meters":39200,"station_id":"ce4bgk12rcd13ifvqbi0","pricing_plan_id":"cebpf4jnsgd1na2vs0mg"},{"bike_id":"2ff39abd-9094-48ee-ba42-a63b4df42e88","system_id":"levelo_inurba_marseille","lat":43.2904,"lon":5.3865,"is_reserved":false,"is_disabled":false,"rental_uris":{"android":"levelo://app?vid=2ff39abd-9094-48ee-ba42-a63b4df42e88","ios":"levelo://app?vid=2ff39abd-9094-48ee-ba42-a63b4df42e88"},"vehicle_type_id":"4","last_reported":1771522871,"current_range_meters":39200,"station_id":"ce4bh4p2rcd13ifvqe0g","pricing_plan_id":"cebpf4jnsgd1na2vs0mg"},{"bike_id":"3336a309-b824-40ed-b52e-035197a7a433","system_id":"levelo_inurba_marseille","lat":43.26694,"lon":5.38236,"is_reserved":false,"is_disabled":false,"rental_uris":{"android":"levelo://app?vid=3336a309-b824-40ed-b52e-035197a7a433","ios":"levelo://app?vid=3336a309-b824-40ed-b52e-035197a7a433"},"vehicle_type_id":"4","last_reported":1771522871,"current_range_meters":25600,"station_id":"ce4bhg92rcd13ifvqf90","pricing_plan_id":"cebpf4jnsgd1na2vs0mg"},{"bike_id":"68118386-9c3c-4bde-adb0-d057686b7ce6","system_id":"levelo_inurba_marseille","lat":43.28942,"lon":5.36639,"is_reserved":false,"is_disabled":false,"rental_uris":{"android":"levelo://app?vid=68118386-9c3c-4bde-adb0-d057686b7ce6","ios":"levelo://app?vid=68118386-9c3c-4bde-adb0-d057686b7ce6"},"vehicle_type_id":"4","last_reported":1771522871,"current_range_meters":20800,"station_id":"ce4bhap2rcd13ifvqek0","pricing_plan_id":"cebpf4jnsgd1na2vs0mg"},{"bike_id":"10c133ee-c45c-48fc-94ed-8007f69d73dd","system_id":"levelo_inurba_marseille","lat":43.29782,"lon":5.40408,"is_reserved":false,"is_disabled":false,"rental_uris":{"android":"levelo://app?vid=10c133ee-c45c-48fc-94ed-8007f69d73dd","ios":"levelo://app?vid=10c133ee-c45c-48fc-94ed-8007f69d73dd"},"vehicle_type_id":"4","last_reported":1771522871,"current_range_meters":38400,"station_id":"ce4bh112rcd13ifvqd90","pricing_plan_id":"cebpf4jnsgd1na2vs0mg"},{"bike_id":"c1305435-7ac9-4c1c-bdb9-e901200687d8","system_id":"levelo_inurba_marseille","lat":43.29255,"lon":5.38288,"is_reserved":false,"is_disabled":false,"rental_uris":{"android":"levelo://app?vid=c1305435-7ac9-4c1c-bdb9-e901200687d8","ios":"levelo://app?vid=c1305435-7ac9-4c1c-bdb9-e901200687d8"},"vehicle_type_id":"4","last_reported":1771522871,"current_range_meters":19600,"station_id":"","pricing_plan_id":"cebpf4jnsgd1na2vs0mg"},{"bike_id":"201ca36c-c632-433f-8e63-028103426023","system_id":"levelo_inurba_marseille","lat":43.284753,"lon":5.484036,"is_reserved":false,"is_disabled":false,"rental_uris":{"android":"levelo://app?vid=201ca36c-c632-433f-8e63-028103426023","ios":"levelo://app?vid=201ca36c-c632-433f-8e63-028103426023"},"vehicle_type_id":"4","last_reported":1771522871,"current_range_meters":10000,"station_id":"","pricing_plan_id":"cebpf4jnsgd1na2vs0mg"},{"bike_id":"ef70ce12-fd44-42a0-88ed-3b2ca489b7fa","system_id":"levelo_inurba_marseille","lat":43.28875,"lon":5.42528,"is_reserved":false,"is_disabled":false,"rental_uris":{"android":"levelo://app?vid=ef70ce12-fd44-42a0-88ed-3b2ca489b7fa","ios":"levelo://app?vid=ef70ce12-fd44-42a0-88ed-3b2ca489b7fa"},"vehicle_type_id":"4","last_reported":1771522871,"current_range_meters":36400,"station_id":"st_d3b462108ojc7389ooeg","pricing_plan_id":"cebpf4jnsgd1na2vs0mg"},{"bike_id":"1e504fcf-67aa-4f33-a678-83b21b5a50c7","system_id":"levelo_inurba_marseille","lat":43.29894,"lon":5.43657,"is_reserved":false,"is_disabled":false,"rental_uris":{"android":"levelo://app?vid=1e504fcf-67aa-4f33-a678-83b21b5a50c7","ios":"levelo://app?vid=1e504fcf-67aa-4f33-a678-83b21b5a50c7"},"vehicle_type_id":"4","last_reported":1771522871,"current_range_meters":37600,"station_id":"ce4bhpp2rcd13ifvqhfg","pricing_plan_id":"cebpf4jnsgd1na2vs0mg"},{"bike_id":"402fb316-de29-4c6c-b0e2-48c631932a53","system_id":"levelo_inurba_marseille","lat":43.246928,"lon":5.381228,"is_reserved":false,"is_disabled":false,"rental_uris":{"android":"levelo://app?vid=402fb316-de29-4c6c-b0e2-48c631932a53","ios":"levelo://app?vid=402fb316-de29-4c6c-b0e2-48c631932a53"},"vehicle_type_id":"4","last_reported":1771522871,"current_range_meters":16400,"station_id":"ce4bhih2rcd13ifvqfr0","pricing_plan_id":"cebpf4jnsgd1na2vs0mg"},{"bike_id":"0a19b8ea-5646-43e3-9c33-b9ffd92b9fe4","system_id":"levelo_inurba_marseille","lat":43.28478,"lon":5.38439,"is_reserved":false,"is_disabled":true,"rental_uris":{"android":"levelo://app?vid=0a19b8ea-5646-43e3-9c33-b9ffd92b9fe4","ios":"levelo://app?vid=0a19b8ea-5646-43e3-9c33-b9ffd92b9fe4"},"vehicle_type_id":"4","last_reported":1771522871,"current_range_meters":17200,"station_id":"ce4bh512rcd13ifvqe3g","pricing_plan_id":"cebpf4jnsgd1na2vs0mg"},{"bike_id":"2869ecff-d536-4cb2-8e34-6173355891f6","system_id":"levelo_inurba_marseille","lat":43.31215,"lon":5.36822,"is_reserved":false,"is_disabled":false,"rental_uris":{"android":"levelo://app?vid=2869ecff-d536-4cb2-8e34-6173355891f6","ios":"levelo://app?vid=2869ecff-d536-4cb2-8e34-6173355891f6"},"vehicle_type_id":"4","last_reported":1771522871,"current_range_meters":17600,"station_id":"ce4bgl92rcd13ifvqbq0","pricing_plan_id":"cebpf4jnsgd1na2vs0mg"},{"bike_id":"e6dcc18a-88f9-4a06-a9ba-f44311cce2a6","system_id":"levelo_inurba_marseille","lat":43.26784,"lon":5.40253,"is_reserved":false,"is_disabled":false,"rental_uris":{"android":"levelo://app?vid=e6dcc18a-88f9-4a06-a9ba-f44311cce2a6","ios":"levelo://app?vid=e6dcc18a-88f9-4a06-a9ba-f44311cce2a6"},"vehicle_type_id":"4","last_reported":1771522871,"current_range_meters":36400,"station_id":"ce501612rcd8frsf0b60","pricing_plan_id":"cebpf4jnsgd1na2vs0mg"},{"bike_id":"0d3490bd-42db-4e35-8a21-91310e80e7bf","system_id":"levelo_inurba_marseille","lat":43.29296,"lon":5.37158,"is_reserved":false,"is_disabled":false,"rental_uris":{"android":"levelo://app?vid=0d3490bd-42db-4e35-8a21-91310e80e7bf","ios":"levelo://app?vid=0d3490bd-42db-4e35-8a21-91310e80e7bf"},"vehicle_type_id":"4","last_reported":1771522871,"current_range_meters":38800,"station_id":"ce4bgh92rcd13ifvqb40","pricing_plan_id":"cebpf4jnsgd1na2vs0mg"},{"bike_id":"f5e3a92c-ddd1-4818-8a75-9f931e9d13b0","system_id":"levelo_inurba_marseille","lat":43.295155,"lon":5.394029,"is_reserved":false,"is_disabled":false,"rental_uris":{"android":"levelo://app?vid=f5e3a92c-ddd1-4818-8a75-9f931e9d13b0","ios":"levelo://app?vid=f5e3a92c-ddd1-4818-8a75-9f931e9d13b0"},"vehicle_type_id":"4","last_reported":1771522871,"current_range_meters":34000,"station_id":"ce4bh292rcd13ifvqdf0","pricing_plan_id":"cebpf4jnsgd1na2vs0mg"},{"bike_id":"29a22b01-3003-4581-8dd6-cf8d4f1344aa","system_id":"levelo_inurba_marseille","lat":43.2397,"lon":5.36624,"is_reserved":false,"is_disabled":false,"rental_uris":{"android":"levelo://app?vid=29a22b01-3003-4581-8dd6-cf8d4f1344aa","ios":"levelo://app?vid=29a22b01-3003-4581-8dd6-cf8d4f1344aa"},"vehicle_type_id":"4","last_reported":1771522871,"current_range_meters":32800,"station_id":"ce4bhi12rcd13ifvqfp0","pricing_plan_id":"cebpf4jnsgd1na2vs0mg"},{"bike_id":"dd8e7cc7-9433-48bc-b0f1-19dc098e104c","system_id":"levelo_inurba_marseille","lat":43.30101,"lon":5.39066,"is_reserved":false,"is_disabled":false,"rental_uris":{"android":"levelo://app?vid=dd8e7cc7-9433-48bc-b0f1-19dc098e104c","ios":"levelo://app?vid=dd8e7cc7-9433-48bc-b0f1-19dc098e104c"},"vehicle_type_id":"4","last_reported":1771522871,"current_range_meters":33600,"station_id":"ce4bh192rcd13ifvqdb0","pricing_plan_id":"cebpf4jnsgd1na2vs0mg"},{"bike_id":"bdd2928b-0b44-49ed-bf98-0420942f4689","system_id":"levelo_inurba_marseille","lat":43.2971,"lon":5.36602,"is_reserved":false,"is_disabled":false,"rental_uris":{"android":"levelo://app?vid=bdd2928b-0b44-49ed-bf98-0420942f4689","ios":"levelo://app?vid=bdd2928b-0b44-49ed-bf98-0420942f4689"},"vehicle_type_id":"4","last_reported":1771522871,"current_range_meters":36000,"station_id":"ce4bgn12rcd13ifvqbt0","pricing_plan_id":"cebpf4jnsgd1na2vs0mg"},{"bike_id":"c3a5f5ea-55d6-4ed8-bea4-d28498a9da5d","system_id":"levelo_inurba_marseille","lat":43.29014,"lon":5.35611,"is_reserved":false,"is_disabled":false,"rental_uris":{"android":"levelo://app?vid=c3a5f5ea-55d6-4ed8-bea4-d28498a9da5d","ios":"levelo://app?vid=c3a5f5ea-55d6-4ed8-bea4-d28498a9da5d"},"vehicle_type_id":"4","last_reported":1771522871,"current_range_meters":38800,"station_id":"ce4bhb92rcd13ifvqen0","pricing_plan_id":"cebpf4jnsgd1na2vs0mg"},{"bike_id":"96438059-8ec7-4cad-b18f-887d9f3a4374","system_id":"levelo_inurba_marseille","lat":43.31521,"lon":5.37306,"is_reserved":false,"is_disabled":false,"rental_uris":{"android":"levelo://app?vid=96438059-8ec7-4cad-b18f-887d9f3a4374","ios":"levelo://app?vid=96438059-8ec7-4cad-b18f-887d9f3a4374"},"vehicle_type_id":"4","last_reported":1771522871,"current_range_meters":32000,"station_id":"ce4bgt12rcd13ifvqcd0","pricing_plan_id":"cebpf4jnsgd1na2vs0mg"},{"bike_id":"d19340cb-cbcd-4fe2-946f-56767c26b7fe","system_id":"levelo_inurba_marseille","lat":43.28252,"lon":5.39092,"is_reserved":false,"is_disabled":false,"rental_uris":{"android":"levelo://app?vid=d19340cb-cbcd-4fe2-946f-56767c26b7fe","ios":"levelo://app?vid=d19340cb-cbcd-4fe2-946f-56767c26b7fe"},"vehicle_type_id":"4","last_reported":1771522871,"current_range_meters":22400,"station_id":"ce4bhn92rcd13ifvqgsg","pricing_plan_id":"cebpf4jnsgd1na2vs0mg"},{"bike_id":"bb987d54-f608-4b57-96c2-6e7051d204ea","system_id":"levelo_inurba_marseille","lat":43.3137,"lon":5.38499,"is_reserved":false,"is_disabled":false,"rental_uris":{"android":"levelo://app?vid=bb987d54-f608-4b57-96c2-6e7051d204ea","ios":"levelo://app?vid=bb987d54-f608-4b57-96c2-6e7051d204ea"},"vehicle_type_id":"4","last_reported":1771522871,"current_range_meters":8800,"station_id":"ce4bgt92rcd13ifvqcf0","pricing_plan_id":"cebpf4jnsgd1na2vs0mg"},{"bike_id":"29bd2878-7193-403b-b465-4fece300362d","system_id":"levelo_inurba_marseille","lat":43.29541,"lon":5.38529,"is_reserved":false,"is_disabled":false,"rental_uris":{"android":"levelo://app?vid=29bd2878-7193-403b-b465-4fece300362d","ios":"levelo://app?vid=29bd2878-7193-403b-b465-4fece300362d"},"vehicle_type_id":"4","last_reported":1771522871,"current_range_meters":29600,"station_id":"ce4bgih2rcd13ifvqba0","pricing_plan_id":"cebpf4jnsgd1na2vs0mg"},{"bike_id":"60d19533-d916-46e5-9e83-963557cfb5f0","system_id":"levelo_inurba_marseille","lat":43.30889,"lon":5.36853,"is_reserved":false,"is_disabled":false,"rental_uris":{"android":"levelo://app?vid=60d19533-d916-46e5-9e83-963557cfb5f0","ios":"levelo://app?vid=60d19533-d916-46e5-9e83-963557cfb5f0"},"vehicle_type_id":"4","last_reported":1771522871,"current_range_meters":32400,"station_id":"ce4bgn92rcd13ifvqbvg","pricing_plan_id":"cebpf4jnsgd1na2vs0mg"},{"bike_id":"3852a963-9b89-4611-bd2f-b92a3934132e","system_id":"levelo_inurba_marseille","lat":43.27202,"lon":5.4097,"is_reserved":false,"is_disabled":false,"rental_uris":{"android":"levelo://app?vid=3852a963-9b89-4611-bd2f-b92a3934132e","ios":"levelo://app?vid=3852a963-9b89-4611-bd2f-b92a3934132e"},"vehicle_type_id":"4","last_reported":1771522871,"current_range_meters":40000,"station_id":"ce4bhl12rcd13ifvqgf0","pricing_plan_id":"cebpf4jnsgd1na2vs0mg"},{"bike_id":"dd7835e0-614b-41e9-bfe8-acba6bd46929","system_id":"levelo_inurba_marseille","lat":43.28709,"lon":5.37381,"is_reserved":false,"is_disabled":false,"rental_uris":{"android":"levelo://app?vid=dd7835e0-614b-41e9-bfe8-acba6bd46929","ios":"levelo://app?vid=dd7835e0-614b-41e9-bfe8-acba6bd46929"},"vehicle_type_id":"4","last_reported":1771522871,"current_range_meters":32000,"station_id":"ce4bh3p2rcd13ifvqdq0","pricing_plan_id":"cebpf4jnsgd1na2vs0mg"},{"bike_id":"372c7651-ec67-461f-a3e0-f0204ec621fa","system_id":"levelo_inurba_marseille","lat":43.26811,"lon":5.39436,"is_reserved":false,"is_disabled":false,"rental_uris":{"android":"levelo://app?vid=372c7651-ec67-461f-a3e0-f0204ec621fa","ios":"levelo://app?vid=372c7651-ec67-461f-a3e0-f0204ec621fa"},"vehicle_type_id":"4","last_reported":1771522871,"current_range_meters":34000,"station_id":"ce4bhh12rcd13ifvqfg0","pricing_plan_id":"cebpf4jnsgd1na2vs0mg"},{"bike_id":"30e71a7f-218d-4ed3-8bce-a8d5d264d9e6","system_id":"levelo_inurba_marseille","lat":43.33146,"lon":5.37703,"is_reserved":false,"is_disabled":false,"rental_uris":{"android":"levelo://app?vid=30e71a7f-218d-4ed3-8bce-a8d5d264d9e6","ios":"levelo://app?vid=30e71a7f-218d-4ed3-8bce-a8d5d264d9e6"},"vehicle_type_id":"4","last_reported":1771522871,"current_range_meters":13600,"station_id":"st_d46cu089ee8s73dldbu0","pricing_plan_id":"cebpf4jnsgd1na2vs0mg"},{"bike_id":"820283bb-7348-4881-a27b-8ff5df5ea0a7","system_id":"levelo_inurba_marseille","lat":43.31895,"lon":5.40728,"is_reserved":false,"is_disabled":false,"rental_uris":{"android":"levelo://app?vid=820283bb-7348-4881-a27b-8ff5df5ea0a7","ios":"levelo://app?vid=820283bb-7348-4881-a27b-8ff5df5ea0a7"},"vehicle_type_id":"4","last_reported":1771522871,"current_range_meters":38000,"station_id":"ce4bhq12rcd13ifvqhig","pricing_plan_id":"cebpf4jnsgd1na2vs0mg"},{"bike_id":"33ecc1fb-0860-4e43-bfb1-e7b33a9adf38","system_id":"levelo_inurba_marseille","lat":43.31895,"lon":5.4072,"is_reserved":false,"is_disabled":false,"rental_uris":{"android":"levelo://app?vid=33ecc1fb-0860-4e43-bfb1-e7b33a9adf38","ios":"levelo://app?vid=33ecc1fb-0860-4e43-bfb1-e7b33a9adf38"},"vehicle_type_id":"4","last_reported":1771522871,"current_range_meters":35200,"station_id":"ce4bhq12rcd13ifvqhig","pricing_plan_id":"cebpf4jnsgd1na2vs0mg"},{"bike_id":"ce44ff3d-db77-4f47-93a2-f271d43c58c1","system_id":"levelo_inurba_marseille","lat":43.30652,"lon":5.40082,"is_reserved":false,"is_disabled":false,"rental_uris":{"android":"levelo://app?vid=ce44ff3d-db77-4f47-93a2-f271d43c58c1","ios":"levelo://app?vid=ce44ff3d-db77-4f47-93a2-f271d43c58c1"},"vehicle_type_id":"4","last_reported":1771522871,"current_range_meters":38400,"station_id":"ce4bh112rcd13ifvqda0","pricing_plan_id":"cebpf4jnsgd1na2vs0mg"},{"bike_id":"c7d2b54a-d383-408d-9a81-b600a9105a37","system_id":"levelo_inurba_marseille","lat":43.33499,"lon":5.37499,"is_reserved":false,"is_disabled":false,"rental_uris":{"android":"levelo://app?vid=c7d2b54a-d383-408d-9a81-b600a9105a37","ios":"levelo://app?vid=c7d2b54a-d383-408d-9a81-b600a9105a37"},"vehicle_type_id":"4","last_reported":1771522871,"current_range_meters":19200,"station_id":"st_d46tts09ee8s73dlu43g","pricing_plan_id":"cebpf4jnsgd1na2vs0mg"},{"bike_id":"73d0170e-f6fe-4467-a0f3-e54fb14b4066","system_id":"levelo_inurba_marseille","lat":43.30142,"lon":5.38092,"is_reserved":false,"is_disabled":false,"rental_uris":{"android":"levelo://app?vid=73d0170e-f6fe-4467-a0f3-e54fb14b4066","ios":"levelo://app?vid=73d0170e-f6fe-4467-a0f3-e54fb14b4066"},"vehicle_type_id":"4","last_reported":1771522871,"current_range_meters":34000,"station_id":"ce4bgjp2rcd13ifvqbh0","pricing_plan_id":"cebpf4jnsgd1na2vs0mg"},{"bike_id":"88d55422-5d6d-4698-a0f5-6f5e1cf7d814","system_id":"levelo_inurba_marseille","lat":43.3043,"lon":5.38882,"is_reserved":false,"is_disabled":false,"rental_uris":{"android":"levelo://app?vid=88d55422-5d6d-4698-a0f5-6f5e1cf7d814","ios":"levelo://app?vid=88d55422-5d6d-4698-a0f5-6f5e1cf7d814"},"vehicle_type_id":"4","last_reported":1771522871,"current_range_meters":28400,"station_id":"ce4bgk12rcd13ifvqbi0","pricing_plan_id":"cebpf4jnsgd1na2vs0mg"},{"bike_id":"4b20e146-4e88-4eda-9be1-c75411a16e8b","system_id":"levelo_inurba_marseille","lat":43.29208,"lon":5.36031,"is_reserved":false,"is_disabled":false,"rental_uris":{"android":"levelo://app?vid=4b20e146-4e88-4eda-9be1-c75411a16e8b","ios":"levelo://app?vid=4b20e146-4e88-4eda-9be1-c75411a16e8b"},"vehicle_type_id":"4","last_reported":1771522871,"current_range_meters":22400,"station_id":"ce4bhbh2rcd13ifvqeqg","pricing_plan_id":"cebpf4jnsgd1na2vs0mg"},{"bike_id":"1756baaf-9263-4809-913f-8dece405d7aa","system_id":"levelo_inurba_marseille","lat":43.30153,"lon":5.37415,"is_reserved":false,"is_disabled":false,"rental_uris":{"android":"levelo://app?vid=1756baaf-9263-4809-913f-8dece405d7aa","ios":"levelo://app?vid=1756baaf-9263-4809-913f-8dece405d7aa"},"vehicle_type_id":"4","last_reported":1771522871,"current_range_meters":40000,"station_id":"ce4bgs92rcd13ifvqcc0","pricing_plan_id":"cebpf4jnsgd1na2vs0mg"},{"bike_id":"3509f13d-ce5d-4591-b9d8-1fa53fc0398a","system_id":"levelo_inurba_marseille","lat":43.28847,"lon":5.35849,"is_reserved":false,"is_disabled":false,"rental_uris":{"android":"levelo://app?vid=3509f13d-ce5d-4591-b9d8-1fa53fc0398a","ios":"levelo://app?vid=3509f13d-ce5d-4591-b9d8-1fa53fc0398a"},"vehicle_type_id":"4","last_reported":1771522871,"current_range_meters":12000,"station_id":"ce4bhb12rcd13ifvqem0","pricing_plan_id":"cebpf4jnsgd1na2vs0mg"},{"bike_id":"e23a5435-262a-41e9-87f3-1135db2f06a4","system_id":"levelo_inurba_marseille","lat":43.29546,"lon":5.37482,"is_reserved":false,"is_disabled":false,"rental_uris":{"android":"levelo://app?vid=e23a5435-262a-41e9-87f3-1135db2f06a4","ios":"levelo://app?vid=e23a5435-262a-41e9-87f3-1135db2f06a4"},"vehicle_type_id":"4","last_reported":1771522871,"current_range_meters":36000,"station_id":"ce4bgkp2rcd13ifvqbmg","pricing_plan_id":"cebpf4jnsgd1na2vs0mg"},{"bike_id":"e5c37de4-5b20-40fe-851e-2d0c03d75c93","system_id":"levelo_inurba_marseille","lat":43.33125,"lon":5.39271,"is_reserved":false,"is_disabled":false,"rental_uris":{"android":"levelo://app?vid=e5c37de4-5b20-40fe-851e-2d0c03d75c93","ios":"levelo://app?vid=e5c37de4-5b20-40fe-851e-2d0c03d75c93"},"vehicle_type_id":"4","last_reported":1771522871,"current_range_meters":11200,"station_id":"","pricing_plan_id":"cebpf4jnsgd1na2vs0mg"},{"bike_id":"07b0f432-5e82-4f8c-81ee-67d93dfdf4d8","system_id":"levelo_inurba_marseille","lat":43.286298,"lon":5.350879,"is_reserved":false,"is_disabled":false,"rental_uris":{"android":"levelo://app?vid=07b0f432-5e82-4f8c-81ee-67d93dfdf4d8","ios":"levelo://app?vid=07b0f432-5e82-4f8c-81ee-67d93dfdf4d8"},"vehicle_type_id":"4","last_reported":1771522871,"current_range_meters":4800,"station_id":"ce4bhch2rcd13ifvqeug","pricing_plan_id":"cebpf4jnsgd1na2vs0mg"},{"bike_id":"466afbb4-34e0-46e8-93c8-08c6309c4b15","system_id":"levelo_inurba_marseille","lat":43.29282,"lon":5.37442,"is_reserved":false,"is_disabled":false,"rental_uris":{"android":"levelo://app?vid=466afbb4-34e0-46e8-93c8-08c6309c4b15","ios":"levelo://app?vid=466afbb4-34e0-46e8-93c8-08c6309c4b15"},"vehicle_type_id":"4","last_reported":1771522871,"current_range_meters":7200,"station_id":"ce4bgi12rcd13ifvqb70","pricing_plan_id":"cebpf4jnsgd1na2vs0mg"},{"bike_id":"921810b6-1bc3-440a-bc47-665b4a5f5a1e","system_id":"levelo_inurba_marseille","lat":43.30923,"lon":5.36839,"is_reserved":false,"is_disabled":false,"rental_uris":{"android":"levelo://app?vid=921810b6-1bc3-440a-bc47-665b4a5f5a1e","ios":"levelo://app?vid=921810b6-1bc3-440a-bc47-665b4a5f5a1e"},"vehicle_type_id":"4","last_reported":1771522871,"current_range_meters":27200,"station_id":"ce4bgn92rcd13ifvqbvg","pricing_plan_id":"cebpf4jnsgd1na2vs0mg"},{"bike_id":"47788a9b-3d71-4615-adaa-2c88572889ac","system_id":"levelo_inurba_marseille","lat":43.315,"lon":5.37383,"is_reserved":false,"is_disabled":false,"rental_uris":{"android":"levelo://app?vid=47788a9b-3d71-4615-adaa-2c88572889ac","ios":"levelo://app?vid=47788a9b-3d71-4615-adaa-2c88572889ac"},"vehicle_type_id":"4","last_reported":1771522871,"current_range_meters":30400,"station_id":"","pricing_plan_id":"cebpf4jnsgd1na2vs0mg"},{"bike_id":"fb4c81e1-59ab-4a96-ad75-2e8d74c036e5","system_id":"levelo_inurba_marseille","lat":43.31161,"lon":5.38565,"is_reserved":false,"is_disabled":false,"rental_uris":{"android":"levelo://app?vid=fb4c81e1-59ab-4a96-ad75-2e8d74c036e5","ios":"levelo://app?vid=fb4c81e1-59ab-4a96-ad75-2e8d74c036e5"},"vehicle_type_id":"4","last_reported":1771522871,"current_range_meters":9600,"station_id":"","pricing_plan_id":"cebpf4jnsgd1na2vs0mg"},{"bike_id":"fe61620a-8630-4808-bdbe-e17dd1aaecfb","system_id":"levelo_inurba_marseille","lat":43.24401,"lon":5.37075,"is_reserved":false,"is_disabled":false,"rental_uris":{"android":"levelo://app?vid=fe61620a-8630-4808-bdbe-e17dd1aaecfb","ios":"levelo://app?vid=fe61620a-8630-4808-bdbe-e17dd1aaecfb"},"vehicle_type_id":"4","last_reported":1771522871,"current_range_meters":33600,"station_id":"","pricing_plan_id":"cebpf4jnsgd1na2vs0mg"},{"bike_id":"3741e8ea-33bc-4b2e-99b8-7d77857e40d0","system_id":"levelo_inurba_marseille","lat":43.25085,"lon":5.39517,"is_reserved":false,"is_disabled":false,"rental_uris":{"android":"levelo://app?vid=3741e8ea-33bc-4b2e-99b8-7d77857e40d0","ios":"levelo://app?vid=3741e8ea-33bc-4b2e-99b8-7d77857e40d0"},"vehicle_type_id":"4","last_reported":1771522871,"current_range_meters":32400,"station_id":"ce4bhm12rcd13ifvqgkg","pricing_plan_id":"cebpf4jnsgd1na2vs0mg"},{"bike_id":"1dfc9df6-efc3-44e1-bfa7-eabdccc695a9","system_id":"levelo_inurba_marseille","lat":43.33548,"lon":5.3746,"is_reserved":false,"is_disabled":false,"rental_uris":{"android":"levelo://app?vid=1dfc9df6-efc3-44e1-bfa7-eabdccc695a9","ios":"levelo://app?vid=1dfc9df6-efc3-44e1-bfa7-eabdccc695a9"},"vehicle_type_id":"4","last_reported":1771522871,"current_range_meters":9600,"station_id":"st_d46tts09ee8s73dlu43g","pricing_plan_id":"cebpf4jnsgd1na2vs0mg"},{"bike_id":"feddf533-e694-4295-8a00-2ac5034dd517","system_id":"levelo_inurba_marseille","lat":43.26921,"lon":5.40259,"is_reserved":false,"is_disabled":false,"rental_uris":{"android":"levelo://app?vid=feddf533-e694-4295-8a00-2ac5034dd517","ios":"levelo://app?vid=feddf533-e694-4295-8a00-2ac5034dd517"},"vehicle_type_id":"4","last_reported":1771522871,"current_range_meters":37600,"station_id":"cjm6bp8fraef2m0cb0m0","pricing_plan_id":"cebpf4jnsgd1na2vs0mg"},{"bike_id":"df0d7781-4bf1-46fc-ada1-1bd873d26f1b","system_id":"levelo_inurba_marseille","lat":43.30141,"lon":5.39882,"is_reserved":false,"is_disabled":false,"rental_uris":{"android":"levelo://app?vid=df0d7781-4bf1-46fc-ada1-1bd873d26f1b","ios":"levelo://app?vid=df0d7781-4bf1-46fc-ada1-1bd873d26f1b"},"vehicle_type_id":"4","last_reported":1771522871,"current_range_meters":29600,"station_id":"ce4bh0h2rcd13ifvqd40","pricing_plan_id":"cebpf4jnsgd1na2vs0mg"},{"bike_id":"86831a33-4469-4924-9eec-1d589fa54502","system_id":"levelo_inurba_marseille","lat":43.3032,"lon":5.36906,"is_reserved":false,"is_disabled":false,"rental_uris":{"android":"levelo://app?vid=86831a33-4469-4924-9eec-1d589fa54502","ios":"levelo://app?vid=86831a33-4469-4924-9eec-1d589fa54502"},"vehicle_type_id":"4","last_reported":1771522871,"current_range_meters":26000,"station_id":"ce4bgqh2rcd13ifvqc5g","pricing_plan_id":"cebpf4jnsgd1na2vs0mg"},{"bike_id":"ce069f3a-d6cd-4f0d-9f6f-daf56540623c","system_id":"levelo_inurba_marseille","lat":43.29531,"lon":5.3853,"is_reserved":false,"is_disabled":false,"rental_uris":{"android":"levelo://app?vid=ce069f3a-d6cd-4f0d-9f6f-daf56540623c","ios":"levelo://app?vid=ce069f3a-d6cd-4f0d-9f6f-daf56540623c"},"vehicle_type_id":"4","last_reported":1771522871,"current_range_meters":32800,"station_id":"ce4bgih2rcd13ifvqba0","pricing_plan_id":"cebpf4jnsgd1na2vs0mg"},{"bike_id":"35bdafb6-cd19-49e6-ab52-4a2ff16cdc2e","system_id":"levelo_inurba_marseille","lat":43.24672,"lon":5.38138,"is_reserved":false,"is_disabled":false,"rental_uris":{"android":"levelo://app?vid=35bdafb6-cd19-49e6-ab52-4a2ff16cdc2e","ios":"levelo://app?vid=35bdafb6-cd19-49e6-ab52-4a2ff16cdc2e"},"vehicle_type_id":"4","last_reported":1771522871,"current_range_meters":36000,"station_id":"ce4bhih2rcd13ifvqfr0","pricing_plan_id":"cebpf4jnsgd1na2vs0mg"},{"bike_id":"802a42a7-d42f-410a-ac5b-5e6eb853f811","system_id":"levelo_inurba_marseille","lat":43.28611,"lon":5.39864,"is_reserved":false,"is_disabled":false,"rental_uris":{"android":"levelo://app?vid=802a42a7-d42f-410a-ac5b-5e6eb853f811","ios":"levelo://app?vid=802a42a7-d42f-410a-ac5b-5e6eb853f811"},"vehicle_type_id":"4","last_reported":1771522871,"current_range_meters":9600,"station_id":"st_d4a7ka997mjs738ck50g","pricing_plan_id":"cebpf4jnsgd1na2vs0mg"},{"bike_id":"a7d629ae-69dd-4c6a-b799-c35407e67baa","system_id":"levelo_inurba_marseille","lat":43.31691,"lon":5.40482,"is_reserved":false,"is_disabled":false,"rental_uris":{"android":"levelo://app?vid=a7d629ae-69dd-4c6a-b799-c35407e67baa","ios":"levelo://app?vid=a7d629ae-69dd-4c6a-b799-c35407e67baa"},"vehicle_type_id":"4","last_reported":1771522871,"current_range_meters":37600,"station_id":"ce4bh012rcd13ifvqd00","pricing_plan_id":"cebpf4jnsgd1na2vs0mg"},{"bike_id":"a390b538-2807-40e2-95f9-4ed175e72a0b","system_id":"levelo_inurba_marseille","lat":43.24928,"lon":5.40517,"is_reserved":false,"is_disabled":false,"rental_uris":{"android":"levelo://app?vid=a390b538-2807-40e2-95f9-4ed175e72a0b","ios":"levelo://app?vid=a390b538-2807-40e2-95f9-4ed175e72a0b"},"vehicle_type_id":"4","last_reported":1771522871,"current_range_meters":21600,"station_id":"st_d2ngiaodas8pm72gd1h0","pricing_plan_id":"cebpf4jnsgd1na2vs0mg"},{"bike_id":"822a37e9-cc86-4db6-b810-29ef8016af0b","system_id":"levelo_inurba_marseille","lat":43.29847,"lon":5.44057,"is_reserved":false,"is_disabled":false,"rental_uris":{"android":"levelo://app?vid=822a37e9-cc86-4db6-b810-29ef8016af0b","ios":"levelo://app?vid=822a37e9-cc86-4db6-b810-29ef8016af0b"},"vehicle_type_id":"4","last_reported":1771522871,"current_range_meters":19600,"station_id":"","pricing_plan_id":"cebpf4jnsgd1na2vs0mg"},{"bike_id":"3886e246-de3b-4bd8-9bb1-b4fd43c2effc","system_id":"levelo_inurba_marseille","lat":43.30621,"lon":5.37207,"is_reserved":false,"is_disabled":false,"rental_uris":{"android":"levelo://app?vid=3886e246-de3b-4bd8-9bb1-b4fd43c2effc","ios":"levelo://app?vid=3886e246-de3b-4bd8-9bb1-b4fd43c2effc"},"vehicle_type_id":"4","last_reported":1771522871,"current_range_meters":37600,"station_id":"ce4bgqh2rcd13ifvqc4g","pricing_plan_id":"cebpf4jnsgd1na2vs0mg"},{"bike_id":"03aee3db-9f4f-47df-b3ec-8d0bacddcdbc","system_id":"levelo_inurba_marseille","lat":43.27174,"lon":5.40997,"is_reserved":false,"is_disabled":false,"rental_uris":{"android":"levelo://app?vid=03aee3db-9f4f-47df-b3ec-8d0bacddcdbc","ios":"levelo://app?vid=03aee3db-9f4f-47df-b3ec-8d0bacddcdbc"},"vehicle_type_id":"4","last_reported":1771522871,"current_range_meters":32800,"station_id":"ce4bhl12rcd13ifvqgf0","pricing_plan_id":"cebpf4jnsgd1na2vs0mg"},{"bike_id":"55eb0aad-f6b5-4ef8-8c2b-ee220d251165","system_id":"levelo_inurba_marseille","lat":43.26922,"lon":5.40273,"is_reserved":false,"is_disabled":false,"rental_uris":{"android":"levelo://app?vid=55eb0aad-f6b5-4ef8-8c2b-ee220d251165","ios":"levelo://app?vid=55eb0aad-f6b5-4ef8-8c2b-ee220d251165"},"vehicle_type_id":"4","last_reported":1771522871,"current_range_meters":27600,"station_id":"cjm6bp8fraef2m0cb0m0","pricing_plan_id":"cebpf4jnsgd1na2vs0mg"},{"bike_id":"59aabee3-6211-4f8a-9630-29cde1e1b3d7","system_id":"levelo_inurba_marseille","lat":43.29541,"lon":5.37488,"is_reserved":false,"is_disabled":false,"rental_uris":{"android":"levelo://app?vid=59aabee3-6211-4f8a-9630-29cde1e1b3d7","ios":"levelo://app?vid=59aabee3-6211-4f8a-9630-29cde1e1b3d7"},"vehicle_type_id":"4","last_reported":1771522871,"current_range_meters":15200,"station_id":"ce4bgkp2rcd13ifvqbmg","pricing_plan_id":"cebpf4jnsgd1na2vs0mg"},{"bike_id":"89b3e01c-4867-4ddb-b4c3-f53bd946fe77","system_id":"levelo_inurba_marseille","lat":43.29226,"lon":5.36053,"is_reserved":false,"is_disabled":false,"rental_uris":{"android":"levelo://app?vid=89b3e01c-4867-4ddb-b4c3-f53bd946fe77","ios":"levelo://app?vid=89b3e01c-4867-4ddb-b4c3-f53bd946fe77"},"vehicle_type_id":"4","last_reported":1771522871,"current_range_meters":10000,"station_id":"ce4bhbh2rcd13ifvqeqg","pricing_plan_id":"cebpf4jnsgd1na2vs0mg"},{"bike_id":"012436c7-b0d2-44f6-9f1e-20d7a40c23a6","system_id":"levelo_inurba_marseille","lat":43.26215,"lon":5.40442,"is_reserved":false,"is_disabled":false,"rental_uris":{"android":"levelo://app?vid=012436c7-b0d2-44f6-9f1e-20d7a40c23a6","ios":"levelo://app?vid=012436c7-b0d2-44f6-9f1e-20d7a40c23a6"},"vehicle_type_id":"4","last_reported":1771522871,"current_range_meters":36000,"station_id":"ce4bhmh2rcd13ifvqgmg","pricing_plan_id":"cebpf4jnsgd1na2vs0mg"},{"bike_id":"ddb35e99-7580-4184-b1a3-39dee08fd05d","system_id":"levelo_inurba_marseille","lat":43.29588,"lon":5.43922,"is_reserved":false,"is_disabled":true,"rental_uris":{"android":"levelo://app?vid=ddb35e99-7580-4184-b1a3-39dee08fd05d","ios":"levelo://app?vid=ddb35e99-7580-4184-b1a3-39dee08fd05d"},"vehicle_type_id":"4","last_reported":1771522871,"current_range_meters":9600,"station_id":"","pricing_plan_id":"cebpf4jnsgd1na2vs0mg"},{"bike_id":"4d976bf5-f813-4b36-99cd-ae82b3487f1d","system_id":"levelo_inurba_marseille","lat":43.27977,"lon":5.41651,"is_reserved":false,"is_disabled":false,"rental_uris":{"android":"levelo://app?vid=4d976bf5-f813-4b36-99cd-ae82b3487f1d","ios":"levelo://app?vid=4d976bf5-f813-4b36-99cd-ae82b3487f1d"},"vehicle_type_id":"4","last_reported":1771522871,"current_range_meters":6800,"station_id":"ce4bho12rcd13ifvqh1g","pricing_plan_id":"cebpf4jnsgd1na2vs0mg"},{"bike_id":"bbe588d0-4e04-45f9-ac35-efaba0dadf9b","system_id":"levelo_inurba_marseille","lat":43.29261,"lon":5.36859,"is_reserved":false,"is_disabled":false,"rental_uris":{"android":"levelo://app?vid=bbe588d0-4e04-45f9-ac35-efaba0dadf9b","ios":"levelo://app?vid=bbe588d0-4e04-45f9-ac35-efaba0dadf9b"},"vehicle_type_id":"4","last_reported":1771522871,"current_range_meters":12800,"station_id":"ce4bhbp2rcd13ifvqesg","pricing_plan_id":"cebpf4jnsgd1na2vs0mg"},{"bike_id":"ccbff816-1104-4bd0-99c6-f565cf383d9e","system_id":"levelo_inurba_marseille","lat":43.25504,"lon":5.37664,"is_reserved":false,"is_disabled":false,"rental_uris":{"android":"levelo://app?vid=ccbff816-1104-4bd0-99c6-f565cf383d9e","ios":"levelo://app?vid=ccbff816-1104-4bd0-99c6-f565cf383d9e"},"vehicle_type_id":"4","last_reported":1771522871,"current_range_meters":14400,"station_id":"ce4bhh12rcd13ifvqff0","pricing_plan_id":"cebpf4jnsgd1na2vs0mg"},{"bike_id":"6c8732b8-4f26-4bb6-a417-10c12faf9588","system_id":"levelo_inurba_marseille","lat":43.28682,"lon":5.38663,"is_reserved":false,"is_disabled":false,"rental_uris":{"android":"levelo://app?vid=6c8732b8-4f26-4bb6-a417-10c12faf9588","ios":"levelo://app?vid=6c8732b8-4f26-4bb6-a417-10c12faf9588"},"vehicle_type_id":"4","last_reported":1771522871,"current_range_meters":7200,"station_id":"ce4bh492rcd13ifvqdug","pricing_plan_id":"cebpf4jnsgd1na2vs0mg"},{"bike_id":"1ccd4b6b-682d-42ed-aede-e11be7ae5caf","system_id":"levelo_inurba_marseille","lat":43.30143,"lon":5.38094,"is_reserved":false,"is_disabled":false,"rental_uris":{"android":"levelo://app?vid=1ccd4b6b-682d-42ed-aede-e11be7ae5caf","ios":"levelo://app?vid=1ccd4b6b-682d-42ed-aede-e11be7ae5caf"},"vehicle_type_id":"4","last_reported":1771522871,"current_range_meters":11200,"station_id":"ce4bgjp2rcd13ifvqbh0","pricing_plan_id":"cebpf4jnsgd1na2vs0mg"},{"bike_id":"288173c9-7da5-4b88-a920-3b5c54044ec5","system_id":"levelo_inurba_marseille","lat":43.28921,"lon":5.38389,"is_reserved":false,"is_disabled":false,"rental_uris":{"android":"levelo://app?vid=288173c9-7da5-4b88-a920-3b5c54044ec5","ios":"levelo://app?vid=288173c9-7da5-4b88-a920-3b5c54044ec5"},"vehicle_type_id":"4","last_reported":1771522871,"current_range_meters":38000,"station_id":"ce4bh612rcd13ifvqe6g","pricing_plan_id":"cebpf4jnsgd1na2vs0mg"},{"bike_id":"8f24aef4-c412-4568-92f6-71dceefff3d5","system_id":"levelo_inurba_marseille","lat":43.29196,"lon":5.35798,"is_reserved":false,"is_disabled":false,"rental_uris":{"android":"levelo://app?vid=8f24aef4-c412-4568-92f6-71dceefff3d5","ios":"levelo://app?vid=8f24aef4-c412-4568-92f6-71dceefff3d5"},"vehicle_type_id":"4","last_reported":1771522871,"current_range_meters":22800,"station_id":"ce4bhb12rcd13ifvqel0","pricing_plan_id":"cebpf4jnsgd1na2vs0mg"},{"bike_id":"5d4597b2-2961-4f8b-8c73-25cd03047315","system_id":"levelo_inurba_marseille","lat":43.30299,"lon":5.37732,"is_reserved":false,"is_disabled":false,"rental_uris":{"android":"levelo://app?vid=5d4597b2-2961-4f8b-8c73-25cd03047315","ios":"levelo://app?vid=5d4597b2-2961-4f8b-8c73-25cd03047315"},"vehicle_type_id":"4","last_reported":1771522871,"current_range_meters":36000,"station_id":"ce4bguh2rcd13ifvqcj0","pricing_plan_id":"cebpf4jnsgd1na2vs0mg"},{"bike_id":"ffc56a23-044d-4963-902d-0e1fcd559827","system_id":"levelo_inurba_marseille","lat":43.2549,"lon":5.37661,"is_reserved":false,"is_disabled":false,"rental_uris":{"android":"levelo://app?vid=ffc56a23-044d-4963-902d-0e1fcd559827","ios":"levelo://app?vid=ffc56a23-044d-4963-902d-0e1fcd559827"},"vehicle_type_id":"4","last_reported":1771522871,"current_range_meters":20400,"station_id":"ce4bhh12rcd13ifvqff0","pricing_plan_id":"cebpf4jnsgd1na2vs0mg"},{"bike_id":"718f4185-4e47-4177-9e77-08c6703daa55","system_id":"levelo_inurba_marseille","lat":43.30055,"lon":5.37463,"is_reserved":false,"is_disabled":false,"rental_uris":{"android":"levelo://app?vid=718f4185-4e47-4177-9e77-08c6703daa55","ios":"levelo://app?vid=718f4185-4e47-4177-9e77-08c6703daa55"},"vehicle_type_id":"4","last_reported":1771522871,"current_range_meters":34800,"station_id":"","pricing_plan_id":"cebpf4jnsgd1na2vs0mg"},{"bike_id":"759f0a09-9669-46dc-9822-7ecc825b93de","system_id":"levelo_inurba_marseille","lat":43.30432,"lon":5.36561,"is_reserved":false,"is_disabled":false,"rental_uris":{"android":"levelo://app?vid=759f0a09-9669-46dc-9822-7ecc825b93de","ios":"levelo://app?vid=759f0a09-9669-46dc-9822-7ecc825b93de"},"vehicle_type_id":"4","last_reported":1771522871,"current_range_meters":34000,"station_id":"","pricing_plan_id":"cebpf4jnsgd1na2vs0mg"},{"bike_id":"32ffec6a-477b-42f8-9e4b-439374552554","system_id":"levelo_inurba_marseille","lat":43.293013,"lon":5.374513,"is_reserved":false,"is_disabled":false,"rental_uris":{"android":"levelo://app?vid=32ffec6a-477b-42f8-9e4b-439374552554","ios":"levelo://app?vid=32ffec6a-477b-42f8-9e4b-439374552554"},"vehicle_type_id":"4","last_reported":1771522871,"current_range_meters":32800,"station_id":"ce4bgi12rcd13ifvqb70","pricing_plan_id":"cebpf4jnsgd1na2vs0mg"},{"bike_id":"96d38a70-223a-4501-a33d-e4a433dfbe7f","system_id":"levelo_inurba_marseille","lat":43.28374,"lon":5.38626,"is_reserved":false,"is_disabled":false,"rental_uris":{"android":"levelo://app?vid=96d38a70-223a-4501-a33d-e4a433dfbe7f","ios":"levelo://app?vid=96d38a70-223a-4501-a33d-e4a433dfbe7f"},"vehicle_type_id":"4","last_reported":1771522871,"current_range_meters":9600,"station_id":"ce4bh492rcd13ifvqdvg","pricing_plan_id":"cebpf4jnsgd1na2vs0mg"},{"bike_id":"1f736713-40bb-4417-989e-c059341c3cc8","system_id":"levelo_inurba_marseille","lat":43.29822,"lon":5.44056,"is_reserved":false,"is_disabled":false,"rental_uris":{"android":"levelo://app?vid=1f736713-40bb-4417-989e-c059341c3cc8","ios":"levelo://app?vid=1f736713-40bb-4417-989e-c059341c3cc8"},"vehicle_type_id":"4","last_reported":1771522871,"current_range_meters":39200,"station_id":"st_d3jp68qikq2c7381ktn0","pricing_plan_id":"cebpf4jnsgd1na2vs0mg"},{"bike_id":"84b0b670-200d-4214-99d4-bfcf30c671d6","system_id":"levelo_inurba_marseille","lat":43.27946,"lon":5.41067,"is_reserved":false,"is_disabled":false,"rental_uris":{"android":"levelo://app?vid=84b0b670-200d-4214-99d4-bfcf30c671d6","ios":"levelo://app?vid=84b0b670-200d-4214-99d4-bfcf30c671d6"},"vehicle_type_id":"4","last_reported":1771522871,"current_range_meters":16800,"station_id":"ce4bhnp2rcd13ifvqh0g","pricing_plan_id":"cebpf4jnsgd1na2vs0mg"},{"bike_id":"223321ee-7477-4576-957c-be5797659bb3","system_id":"levelo_inurba_marseille","lat":43.295322,"lon":5.385526,"is_reserved":false,"is_disabled":false,"rental_uris":{"android":"levelo://app?vid=223321ee-7477-4576-957c-be5797659bb3","ios":"levelo://app?vid=223321ee-7477-4576-957c-be5797659bb3"},"vehicle_type_id":"4","last_reported":1771522871,"current_range_meters":18000,"station_id":"ce4bgih2rcd13ifvqba0","pricing_plan_id":"cebpf4jnsgd1na2vs0mg"},{"bike_id":"7dc475c4-626b-43f5-a3ec-cf94ceb0594c","system_id":"levelo_inurba_marseille","lat":43.30104,"lon":5.39065,"is_reserved":false,"is_disabled":false,"rental_uris":{"android":"levelo://app?vid=7dc475c4-626b-43f5-a3ec-cf94ceb0594c","ios":"levelo://app?vid=7dc475c4-626b-43f5-a3ec-cf94ceb0594c"},"vehicle_type_id":"4","last_reported":1771522871,"current_range_meters":35200,"station_id":"ce4bh192rcd13ifvqdb0","pricing_plan_id":"cebpf4jnsgd1na2vs0mg"},{"bike_id":"fb96fa14-8bcd-48be-9af9-e5241134992f","system_id":"levelo_inurba_marseille","lat":43.29602,"lon":5.38099,"is_reserved":false,"is_disabled":false,"rental_uris":{"android":"levelo://app?vid=fb96fa14-8bcd-48be-9af9-e5241134992f","ios":"levelo://app?vid=fb96fa14-8bcd-48be-9af9-e5241134992f"},"vehicle_type_id":"4","last_reported":1771522871,"current_range_meters":21600,"station_id":"ce4bgl12rcd13ifvqbo0","pricing_plan_id":"cebpf4jnsgd1na2vs0mg"},{"bike_id":"95ac3875-f146-4303-af46-f73fc1aee76b","system_id":"levelo_inurba_marseille","lat":43.284796,"lon":5.483903,"is_reserved":false,"is_disabled":true,"rental_uris":{"android":"levelo://app?vid=95ac3875-f146-4303-af46-f73fc1aee76b","ios":"levelo://app?vid=95ac3875-f146-4303-af46-f73fc1aee76b"},