{"last_updated":1726614587,"ttl":30,"version":"2.2","data":{"bikes":[{"bike_id":"d8a7bbae-3d0e-457c-8e82-e6128d956f4d","system_id":"levelo_inurba_marseille","lat":43.27489,"lon":5.42456,"is_reserved":false,"is_disabled":false,"rental_uris":{"android":"levelo://app?vid=d8a7bbae-3d0e-457c-8e82-e6128d956f4d","ios":"levelo://app?vid=d8a7bbae-3d0e-457c-8e82-e6128d956f4d"},"vehicle_type_id":"4","last_reported":1726614587,"current_range_meters":9600,"station_id":"ce4bhn92rcd13ifvqgrg","pricing_plan_id":"cebpf4jnsgd1na2vs0mg"},{"bike_id":"438ae6bd-4f5b-4136-9beb-75e21d6661d5","system_id":"levelo_inurba_marseille","lat":43.26061,"lon":5.39405,"is_reserved":false,"is_disabled":false,"rental_uris":{"android":"levelo://app?vid=438ae6bd-4f5b-4136-9beb-75e21d6661d5","ios":"levelo://app?vid=438ae6bd-4f5b-4136-9beb-75e21d6661d5"},"vehicle_type_id":"4","last_reported":1726614587,"current_range_meters":7200,"station_id":"ce4bhh92rcd13ifvqfj0","pricing_plan_id":"cebpf4jnsgd1na2vs0mg"},{"bike_id":"005b4cb7-40ef-46da-b28a-c870673d83f3","system_id":"levelo_inurba_marseille","lat":43.2695,"lon":5.38623,"is_reserved":false,"is_disabled":false,"rental_uris":{"android":"levelo://app?vid=005b4cb7-40ef-46da-b28a-c870673d83f3","ios":"levelo://app?vid=005b4cb7-40ef-46da-b28a-c870673d83f3"},"vehicle_type_id":"4","last_reported":1726614587,"current_range_meters":36800,"station_id":"ce4bhh92rcd13ifvqfh0","pricing_plan_id":"cebpf4jnsgd1na2vs0mg"},{"bike_id":"b47519d6-37f9-4853-a91a-eb691d0c56d6","system_id":"levelo_inurba_marseille","lat":43.27076,"lon":5.42266,"is_reserved":false,"is_disabled":false,"rental_uris":{"android":"levelo://app?vid=b47519d6-37f9-4853-a91a-eb691d0c56d6","ios":"levelo://app?vid=b47519d6-37f9-4853-a91a-eb691d0c56d6"},"vehicle_type_id":"4","last_reported":1726614587,"current_range_meters":22400,"station_id":"ce4bhk92rcd13ifvqgb0","pricing_plan_id":"cebpf4jnsgd1na2vs0mg"},{"bike_id":"240e057b-6352-471b-b97e-28024c848b08","system_id":"levelo_inurba_marseille","lat":43.29978,"lon":5.37175,"is_reserved":false,"is_disabled":false,"rental_uris":{"android":"levelo://app?vid=240e057b-6352-471b-b97e-28024c848b08","ios":"levelo://app?vid=240e057b-6352-471b-b97e-28024c848b08"},"vehicle_type_id":"4","last_reported":1726614587,"current_range_meters":40000,"station_id":"ce4bgr92rcd13ifvqc7g","pricing_plan_id":"cebpf4jnsgd1na2vs0mg"},{"bike_id":"b03c8bb0-a2f5-486b-a75d-893592988838","system_id":"levelo_inurba_marseille","lat":43.2796,"lon":5.38716,"is_reserved":false,"is_disabled":false,"rental_uris":{"android":"levelo://app?vid=b03c8bb0-a2f5-486b-a75d-893592988838","ios":"levelo://app?vid=b03c8bb0-a2f5-486b-a75d-893592988838"},"vehicle_type_id":"4","last_reported":1726614587,"current_range_meters":27600,"station_id":"ce4bhg12rcd13ifvqf80","pricing_plan_id":"cebpf4jnsgd1na2vs0mg"},{"bike_id":"ac732fa0-f66f-42ff-8122-a5b8fd7054ce","system_id":"levelo_inurba_marseille","lat":43.29985,"lon":5.37177,"is_reserved":false,"is_disabled":false,"rental_uris":{"android":"levelo://app?vid=ac732fa0-f66f-42ff-8122-a5b8fd7054ce","ios":"levelo://app?vid=ac732fa0-f66f-42ff-8122-a5b8fd7054ce"},"vehicle_type_id":"4","last_reported":1726614587,"current_range_meters":36400,"station_id":"ce4bgr92rcd13ifvqc7g","pricing_plan_id":"cebpf4jnsgd1na2vs0mg"},{"bike_id":"3729729f-9c16-4d27-b3a8-3aa1cb7470f9","system_id":"levelo_inurba_marseille","lat":43.31999,"lon":5.38151,"is_reserved":false,"is_disabled":false,"rental_uris":{"android":"levelo://app?vid=3729729f-9c16-4d27-b3a8-3aa1cb7470f9","ios":"levelo://app?vid=3729729f-9c16-4d27-b3a8-3aa1cb7470f9"},"vehicle_type_id":"4","last_reported":1726614587,"current_range_meters":18000,"station_id":"ce4bhr12rcd13ifvqhpg","pricing_plan_id":"cebpf4jnsgd1na2vs0mg"},{"bike_id":"43176770-eaee-4996-86c7-d408161e4ce6","system_id":"levelo_inurba_marseille","lat":43.29894,"lon":5.43654,"is_reserved":false,"is_disabled":false,"rental_uris":{"android":"levelo://app?vid=43176770-eaee-4996-86c7-d408161e4ce6","ios":"levelo://app?vid=43176770-eaee-4996-86c7-d408161e4ce6"},"vehicle_type_id":"4","last_reported":1726614587,"current_range_meters":38800,"station_id":"ce4bhpp2rcd13ifvqhfg","pricing_plan_id":"cebpf4jnsgd1na2vs0mg"},{"bike_id":"98dbbabc-9f8d-44e6-86dd-2ae0464166df","system_id":"levelo_inurba_marseille","lat":43.3132,"lon":5.39691,"is_reserved":false,"is_disabled":false,"rental_uris":{"android":"levelo://app?vid=98dbbabc-9f8d-44e6-86dd-2ae0464166df","ios":"levelo://app?vid=98dbbabc-9f8d-44e6-86dd-2ae0464166df"},"vehicle_type_id":"4","last_reported":1726614587,"current_range_meters":39200,"station_id":"ce4bgvp2rcd13ifvqcu0","pricing_plan_id":"cebpf4jnsgd1na2vs0mg"},{"bike_id":"7d3f0122-d2f2-480e-bb1c-9741d43c8a79","system_id":"levelo_inurba_marseille","lat":43.28035,"lon":5.36943,"is_reserved":false,"is_disabled":false,"rental_uris":{"android":"levelo://app?vid=7d3f0122-d2f2-480e-bb1c-9741d43c8a79","ios":"levelo://app?vid=7d3f0122-d2f2-480e-bb1c-9741d43c8a79"},"vehicle_type_id":"4","last_reported":1726614587,"current_range_meters":39200,"station_id":"ce4bha12rcd13ifvqef0","pricing_plan_id":"cebpf4jnsgd1na2vs0mg"},{"bike_id":"ffb67454-0751-4467-a2b3-278f7dbfdea0","system_id":"levelo_inurba_marseille","lat":43.31884,"lon":5.40733,"is_reserved":false,"is_disabled":false,"rental_uris":{"android":"levelo://app?vid=ffb67454-0751-4467-a2b3-278f7dbfdea0","ios":"levelo://app?vid=ffb67454-0751-4467-a2b3-278f7dbfdea0"},"vehicle_type_id":"4","last_reported":1726614587,"current_range_meters":8000,"station_id":"ce4bhq12rcd13ifvqhig","pricing_plan_id":"cebpf4jnsgd1na2vs0mg"},{"bike_id":"017ad941-2bc7-4c23-aa10-a9af1a423d28","system_id":"levelo_inurba_marseille","lat":43.33027,"lon":5.39043,"is_reserved":false,"is_disabled":false,"rental_uris":{"android":"levelo://app?vid=017ad941-2bc7-4c23-aa10-a9af1a423d28","ios":"levelo://app?vid=017ad941-2bc7-4c23-aa10-a9af1a423d28"},"vehicle_type_id":"4","last_reported":1726614587,"current_range_meters":14400,"station_id":"ce4bhr92rcd13ifvqhrg","pricing_plan_id":"cebpf4jnsgd1na2vs0mg"},{"bike_id":"b679e135-2e71-4d04-938c-7a569bd0801a","system_id":"levelo_inurba_marseille","lat":43.27072,"lon":5.42283,"is_reserved":false,"is_disabled":false,"rental_uris":{"android":"levelo://app?vid=b679e135-2e71-4d04-938c-7a569bd0801a","ios":"levelo://app?vid=b679e135-2e71-4d04-938c-7a569bd0801a"},"vehicle_type_id":"4","last_reported":1726614587,"current_range_meters":32800,"station_id":"ce4bhk92rcd13ifvqgb0","pricing_plan_id":"cebpf4jnsgd1na2vs0mg"},{"bike_id":"c0fb0485-2f0f-46e4-b423-6aa86590efb8","system_id":"levelo_inurba_marseille","lat":43.27052,"lon":5.40264,"is_reserved":false,"is_disabled":false,"rental_uris":{"android":"levelo://app?vid=c0fb0485-2f0f-46e4-b423-6aa86590efb8","ios":"levelo://app?vid=c0fb0485-2f0f-46e4-b423-6aa86590efb8"},"vehicle_type_id":"4","last_reported":1726614587,"current_range_meters":14800,"station_id":"ce4bhk92rcd13ifvqgc0","pricing_plan_id":"cebpf4jnsgd1na2vs0mg"},{"bike_id":"b74769cf-29ff-494c-bb8f-5acfd39f0ec3","system_id":"levelo_inurba_marseille","lat":43.28409,"lon":5.37521,"is_reserved":false,"is_disabled":false,"rental_uris":{"android":"levelo://app?vid=b74769cf-29ff-494c-bb8f-5acfd39f0ec3","ios":"levelo://app?vid=b74769cf-29ff-494c-bb8f-5acfd39f0ec3"},"vehicle_type_id":"4","last_reported":1726614587,"current_range_meters":28000,"station_id":"ce4bh412rcd13ifvqds0","pricing_plan_id":"cebpf4jnsgd1na2vs0mg"},{"bike_id":"bf2f4e0c-cd5c-4276-8f8a-e0f8f1a0a3db","system_id":"levelo_inurba_marseille","lat":43.29631,"lon":5.40599,"is_reserved":false,"is_disabled":false,"rental_uris":{"android":"levelo://app?vid=bf2f4e0c-cd5c-4276-8f8a-e0f8f1a0a3db","ios":"levelo://app?vid=bf2f4e0c-cd5c-4276-8f8a-e0f8f1a0a3db"},"vehicle_type_id":"4","last_reported":1726614587,"current_range_meters":39200,"station_id":"ce4bh0h2rcd13ifvqd60","pricing_plan_id":"cebpf4jnsgd1na2vs0mg"},{"bike_id":"823a2bf2-875a-4792-8674-813e3288baf6","system_id":"levelo_inurba_marseille","lat":43.27922,"lon":5.39583,"is_reserved":false,"is_disabled":false,"rental_uris":{"android":"levelo://app?vid=823a2bf2-875a-4792-8674-813e3288baf6","ios":"levelo://app?vid=823a2bf2-875a-4792-8674-813e3288baf6"},"vehicle_type_id":"4","last_reported":1726614587,"current_range_meters":38400,"station_id":"ce4bhf92rcd13ifvqf40","pricing_plan_id":"cebpf4jnsgd1na2vs0mg"},{"bike_id":"b5890725-bfd6-4476-9287-9e093cd096fb","system_id":"levelo_inurba_marseille","lat":43.33025,"lon":5.39039,"is_reserved":false,"is_disabled":false,"rental_uris":{"android":"levelo://app?vid=b5890725-bfd6-4476-9287-9e093cd096fb","ios":"levelo://app?vid=b5890725-bfd6-4476-9287-9e093cd096fb"},"vehicle_type_id":"4","last_reported":1726614587,"current_range_meters":7200,"station_id":"ce4bhr92rcd13ifvqhrg","pricing_plan_id":"cebpf4jnsgd1na2vs0mg"},{"bike_id":"20eae721-43ca-4d38-80f9-5d844c5f21af","system_id":"levelo_inurba_marseille","lat":43.24648,"lon":5.38892,"is_reserved":false,"is_disabled":false,"rental_uris":{"android":"levelo://app?vid=20eae721-43ca-4d38-80f9-5d844c5f21af","ios":"levelo://app?vid=20eae721-43ca-4d38-80f9-5d844c5f21af"},"vehicle_type_id":"4","last_reported":1726614587,"current_range_meters":14800,"station_id":"ce4bhg12rcd13ifvqf60","pricing_plan_id":"cebpf4jnsgd1na2vs0mg"},{"bike_id":"d5843dd1-1d82-4914-8152-9c40e3b27d84","system_id":"levelo_inurba_marseille","lat":43.31091,"lon":5.38352,"is_reserved":false,"is_disabled":false,"rental_uris":{"android":"levelo://app?vid=d5843dd1-1d82-4914-8152-9c40e3b27d84","ios":"levelo://app?vid=d5843dd1-1d82-4914-8152-9c40e3b27d84"},"vehicle_type_id":"4","last_reported":1726614587,"current_range_meters":19600,"station_id":"ce4bgv92rcd13ifvqcr0","pricing_plan_id":"cebpf4jnsgd1na2vs0mg"},{"bike_id":"04802112-1398-447a-bc2d-b87684325f30","system_id":"levelo_inurba_marseille","lat":43.27067,"lon":5.42279,"is_reserved":false,"is_disabled":false,"rental_uris":{"android":"levelo://app?vid=04802112-1398-447a-bc2d-b87684325f30","ios":"levelo://app?vid=04802112-1398-447a-bc2d-b87684325f30"},"vehicle_type_id":"4","last_reported":1726614587,"current_range_meters":38800,"station_id":"ce4bhk92rcd13ifvqgb0","pricing_plan_id":"cebpf4jnsgd1na2vs0mg"},{"bike_id":"80d8dae3-9107-40dd-a89e-6de5c670ae47","system_id":"levelo_inurba_marseille","lat":43.27049,"lon":5.40266,"is_reserved":false,"is_disabled":false,"rental_uris":{"android":"levelo://app?vid=80d8dae3-9107-40dd-a89e-6de5c670ae47","ios":"levelo://app?vid=80d8dae3-9107-40dd-a89e-6de5c670ae47"},"vehicle_type_id":"4","last_reported":1726614587,"current_range_meters":28400,"station_id":"ce4bhk92rcd13ifvqgc0","pricing_plan_id":"cebpf4jnsgd1na2vs0mg"},{"bike_id":"8187322b-78db-4779-9a58-00de5816440e","system_id":"levelo_inurba_marseille","lat":43.27427,"lon":5.39413,"is_reserved":false,"is_disabled":false,"rental_uris":{"android":"levelo://app?vid=8187322b-78db-4779-9a58-00de5816440e","ios":"levelo://app?vid=8187322b-78db-4779-9a58-00de5816440e"},"vehicle_type_id":"4","last_reported":1726614587,"current_range_meters":38800,"station_id":"ce4bhdp2rcd13ifvqf20","pricing_plan_id":"cebpf4jnsgd1na2vs0mg"},{"bike_id":"36587967-1e79-47c3-ba21-dd6bfe64ec87","system_id":"levelo_inurba_marseille","lat":43.3237,"lon":5.38882,"is_reserved":false,"is_disabled":false,"rental_uris":{"android":"levelo://app?vid=36587967-1e79-47c3-ba21-dd6bfe64ec87","ios":"levelo://app?vid=36587967-1e79-47c3-ba21-dd6bfe64ec87"},"vehicle_type_id":"4","last_reported":1726614587,"current_range_meters":12400,"station_id":"ce4bhqp2rcd13ifvqhog","pricing_plan_id":"cebpf4jnsgd1na2vs0mg"},{"bike_id":"250ff7a8-32f7-4901-862b-f17a962d8065","system_id":"levelo_inurba_marseille","lat":43.29041,"lon":5.35901,"is_reserved":false,"is_disabled":false,"rental_uris":{"android":"levelo://app?vid=250ff7a8-32f7-4901-862b-f17a962d8065","ios":"levelo://app?vid=250ff7a8-32f7-4901-862b-f17a962d8065"},"vehicle_type_id":"4","last_reported":1726614587,"current_range_meters":37600,"station_id":"ce4bha92rcd13ifvqeg0","pricing_plan_id":"cebpf4jnsgd1na2vs0mg"},{"bike_id":"88f47c30-b06c-4ccd-800f-12994e98e86a","system_id":"levelo_inurba_marseille","lat":43.2885,"lon":5.35847,"is_reserved":false,"is_disabled":false,"rental_uris":{"android":"levelo://app?vid=88f47c30-b06c-4ccd-800f-12994e98e86a","ios":"levelo://app?vid=88f47c30-b06c-4ccd-800f-12994e98e86a"},"vehicle_type_id":"4","last_reported":1726614587,"current_range_meters":38800,"station_id":"ce4bhb12rcd13ifvqem0","pricing_plan_id":"cebpf4jnsgd1na2vs0mg"},{"bike_id":"103a716b-dbc7-4e49-a7f2-16e378e92b85","system_id":"levelo_inurba_marseille","lat":43.22925,"lon":5.35376,"is_reserved":false,"is_disabled":false,"rental_uris":{"android":"levelo://app?vid=103a716b-dbc7-4e49-a7f2-16e378e92b85","ios":"levelo://app?vid=103a716b-dbc7-4e49-a7f2-16e378e92b85"},"vehicle_type_id":"4","last_reported":1726614587,"current_range_meters":28000,"station_id":"cpo3532slgdg3j2ikp40","pricing_plan_id":"cebpf4jnsgd1na2vs0mg"},{"bike_id":"06bfb82b-72f8-467a-abe6-3935f8a7f2de","system_id":"levelo_inurba_marseille","lat":43.27813,"lon":5.40717,"is_reserved":false,"is_disabled":false,"rental_uris":{"android":"levelo://app?vid=06bfb82b-72f8-467a-abe6-3935f8a7f2de","ios":"levelo://app?vid=06bfb82b-72f8-467a-abe6-3935f8a7f2de"},"vehicle_type_id":"4","last_reported":1726614587,"current_range_meters":28000,"station_id":"ce4bhnh2rcd13ifvqgtg","pricing_plan_id":"cebpf4jnsgd1na2vs0mg"},{"bike_id":"04c5cc2a-93cc-4839-933f-fb21d144e766","system_id":"levelo_inurba_marseille","lat":43.2871,"lon":5.39981,"is_reserved":false,"is_disabled":false,"rental_uris":{"android":"levelo://app?vid=04c5cc2a-93cc-4839-933f-fb21d144e766","ios":"levelo://app?vid=04c5cc2a-93cc-4839-933f-fb21d144e766"},"vehicle_type_id":"4","last_reported":1726614587,"current_range_meters":38800,"station_id":"ce4bho92rcd13ifvqh3g","pricing_plan_id":"cebpf4jnsgd1na2vs0mg"},{"bike_id":"13ef7ab3-39a9-4e92-82df-40cb61e7e59f","system_id":"levelo_inurba_marseille","lat":43.25718,"lon":5.41114,"is_reserved":false,"is_disabled":false,"rental_uris":{"android":"levelo://app?vid=13ef7ab3-39a9-4e92-82df-40cb61e7e59f","ios":"levelo://app?vid=13ef7ab3-39a9-4e92-82df-40cb61e7e59f"},"vehicle_type_id":"4","last_reported":1726614587,"current_range_meters":28000,"station_id":"ce4bhkp2rcd13ifvqgd0","pricing_plan_id":"cebpf4jnsgd1na2vs0mg"},{"bike_id":"8043d702-42a5-4215-848a-8c7838ed1702","system_id":"levelo_inurba_marseille","lat":43.32287,"lon":5.38262,"is_reserved":false,"is_disabled":false,"rental_uris":{"android":"levelo://app?vid=8043d702-42a5-4215-848a-8c7838ed1702","ios":"levelo://app?vid=8043d702-42a5-4215-848a-8c7838ed1702"},"vehicle_type_id":"4","last_reported":1726614587,"current_range_meters":25600,"station_id":"ce4bhr12rcd13ifvqhqg","pricing_plan_id":"cebpf4jnsgd1na2vs0mg"},{"bike_id":"ed5c0691-2ddf-4b1b-b0dc-716242b3e73c","system_id":"levelo_inurba_marseille","lat":43.29028,"lon":5.38632,"is_reserved":false,"is_disabled":false,"rental_uris":{"android":"levelo://app?vid=ed5c0691-2ddf-4b1b-b0dc-716242b3e73c","ios":"levelo://app?vid=ed5c0691-2ddf-4b1b-b0dc-716242b3e73c"},"vehicle_type_id":"4","last_reported":1726614587,"current_range_meters":38800,"station_id":"ce4bh4p2rcd13ifvqe0g","pricing_plan_id":"cebpf4jnsgd1na2vs0mg"},{"bike_id":"36ff1673-e996-4918-8958-9ffc564ae753","system_id":"levelo_inurba_marseille","lat":43.29257,"lon":5.40902,"is_reserved":false,"is_disabled":false,"rental_uris":{"android":"levelo://app?vid=36ff1673-e996-4918-8958-9ffc564ae753","ios":"levelo://app?vid=36ff1673-e996-4918-8958-9ffc564ae753"},"vehicle_type_id":"4","last_reported":1726614587,"current_range_meters":39200,"station_id":"ce4bh192rcd13ifvqdc0","pricing_plan_id":"cebpf4jnsgd1na2vs0mg"},{"bike_id":"fe4124ee-970e-4fcb-9786-517b4a9d771d","system_id":"levelo_inurba_marseille","lat":43.29264,"lon":5.38457,"is_reserved":false,"is_disabled":false,"rental_uris":{"android":"levelo://app?vid=fe4124ee-970e-4fcb-9786-517b4a9d771d","ios":"levelo://app?vid=fe4124ee-970e-4fcb-9786-517b4a9d771d"},"vehicle_type_id":"4","last_reported":1726614587,"current_range_meters":24800,"station_id":"ce4bh692rcd13ifvqea0","pricing_plan_id":"cebpf4jnsgd1na2vs0mg"},{"bike_id":"c8d4b32e-0604-498a-adc3-f665f366478f","system_id":"levelo_inurba_marseille","lat":43.30424,"lon":5.39749,"is_reserved":false,"is_disabled":false,"rental_uris":{"android":"levelo://app?vid=c8d4b32e-0604-498a-adc3-f665f366478f","ios":"levelo://app?vid=c8d4b32e-0604-498a-adc3-f665f366478f"},"vehicle_type_id":"4","last_reported":1726614587,"current_range_meters":39200,"station_id":"ce4bh092rcd13ifvqd20","pricing_plan_id":"cebpf4jnsgd1na2vs0mg"},{"bike_id":"7b1be020-a90f-4f1f-b544-732190d38034","system_id":"levelo_inurba_marseille","lat":43.29991,"lon":5.37178,"is_reserved":false,"is_disabled":false,"rental_uris":{"android":"levelo://app?vid=7b1be020-a90f-4f1f-b544-732190d38034","ios":"levelo://app?vid=7b1be020-a90f-4f1f-b544-732190d38034"},"vehicle_type_id":"4","last_reported":1726614587,"current_range_meters":27200,"station_id":"ce4bgr92rcd13ifvqc7g","pricing_plan_id":"cebpf4jnsgd1na2vs0mg"},{"bike_id":"8cd1ebf6-516f-4fde-a105-5984b51f5363","system_id":"levelo_inurba_marseille","lat":43.28701,"lon":5.3998,"is_reserved":false,"is_disabled":false,"rental_uris":{"android":"levelo://app?vid=8cd1ebf6-516f-4fde-a105-5984b51f5363","ios":"levelo://app?vid=8cd1ebf6-516f-4fde-a105-5984b51f5363"},"vehicle_type_id":"4","last_reported":1726614587,"current_range_meters":39200,"station_id":"ce4bho92rcd13ifvqh3g","pricing_plan_id":"cebpf4jnsgd1na2vs0mg"},{"bike_id":"01a1ab3a-8b29-4a42-b262-52431b068321","system_id":"levelo_inurba_marseille","lat":43.2804,"lon":5.36943,"is_reserved":false,"is_disabled":false,"rental_uris":{"android":"levelo://app?vid=01a1ab3a-8b29-4a42-b262-52431b068321","ios":"levelo://app?vid=01a1ab3a-8b29-4a42-b262-52431b068321"},"vehicle_type_id":"4","last_reported":1726614587,"current_range_meters":38800,"station_id":"ce4bha12rcd13ifvqef0","pricing_plan_id":"cebpf4jnsgd1na2vs0mg"},{"bike_id":"d897a00a-b494-4acd-a7b3-c8cdab149c92","system_id":"levelo_inurba_marseille","lat":43.25576,"lon":5.38237,"is_reserved":false,"is_disabled":false,"rental_uris":{"android":"levelo://app?vid=d897a00a-b494-4acd-a7b3-c8cdab149c92","ios":"levelo://app?vid=d897a00a-b494-4acd-a7b3-c8cdab149c92"},"vehicle_type_id":"4","last_reported":1726614587,"current_range_meters":38800,"station_id":"ce4bhih2rcd13ifvqfs0","pricing_plan_id":"cebpf4jnsgd1na2vs0mg"},{"bike_id":"2a5808e5-1612-4dc1-a62b-b9c71459256c","system_id":"levelo_inurba_marseille","lat":43.34083,"lon":5.39106,"is_reserved":false,"is_disabled":false,"rental_uris":{"android":"levelo://app?vid=2a5808e5-1612-4dc1-a62b-b9c71459256c","ios":"levelo://app?vid=2a5808e5-1612-4dc1-a62b-b9c71459256c"},"vehicle_type_id":"4","last_reported":1726614587,"current_range_meters":8800,"station_id":"","pricing_plan_id":"cebpf4jnsgd1na2vs0mg"},{"bike_id":"9def4d63-7cec-4ef3-bac5-883bf42519e2","system_id":"levelo_inurba_marseille","lat":43.28464,"lon":5.35908,"is_reserved":false,"is_disabled":false,"rental_uris":{"android":"levelo://app?vid=9def4d63-7cec-4ef3-bac5-883bf42519e2","ios":"levelo://app?vid=9def4d63-7cec-4ef3-bac5-883bf42519e2"},"vehicle_type_id":"4","last_reported":1726614587,"current_range_meters":15200,"station_id":"ce4bhah2rcd13ifvqei0","pricing_plan_id":"cebpf4jnsgd1na2vs0mg"},{"bike_id":"9a632c71-23c5-4e6c-81fa-9127173665eb","system_id":"levelo_inurba_marseille","lat":43.28713,"lon":5.39986,"is_reserved":false,"is_disabled":false,"rental_uris":{"android":"levelo://app?vid=9a632c71-23c5-4e6c-81fa-9127173665eb","ios":"levelo://app?vid=9a632c71-23c5-4e6c-81fa-9127173665eb"},"vehicle_type_id":"4","last_reported":1726614587,"current_range_meters":38800,"station_id":"ce4bho92rcd13ifvqh3g","pricing_plan_id":"cebpf4jnsgd1na2vs0mg"},{"bike_id":"69fabb06-4e65-4b54-9c62-ea4ce601487a","system_id":"levelo_inurba_marseille","lat":43.32289,"lon":5.3827,"is_reserved":false,"is_disabled":false,"rental_uris":{"android":"levelo://app?vid=69fabb06-4e65-4b54-9c62-ea4ce601487a","ios":"levelo://app?vid=69fabb06-4e65-4b54-9c62-ea4ce601487a"},"vehicle_type_id":"4","last_reported":1726614587,"current_range_meters":38800,"station_id":"ce4bhr12rcd13ifvqhqg","pricing_plan_id":"cebpf4jnsgd1na2vs0mg"},{"bike_id":"538faceb-7cfe-40cf-bcf7-e9336331c238","system_id":"levelo_inurba_marseille","lat":43.24182,"lon":5.39728,"is_reserved":false,"is_disabled":false,"rental_uris":{"android":"levelo://app?vid=538faceb-7cfe-40cf-bcf7-e9336331c238","ios":"levelo://app?vid=538faceb-7cfe-40cf-bcf7-e9336331c238"},"vehicle_type_id":"4","last_reported":1726614587,"current_range_meters":38800,"station_id":"ce4bhn12rcd13ifvqgpg","pricing_plan_id":"cebpf4jnsgd1na2vs0mg"},{"bike_id":"8e348505-df72-410a-93d0-1c9770028c82","system_id":"levelo_inurba_marseille","lat":43.30798,"lon":5.43523,"is_reserved":false,"is_disabled":false,"rental_uris":{"android":"levelo://app?vid=8e348505-df72-410a-93d0-1c9770028c82","ios":"levelo://app?vid=8e348505-df72-410a-93d0-1c9770028c82"},"vehicle_type_id":"4","last_reported":1726614587,"current_range_meters":35200,"station_id":"ce4bhph2rcd13ifvqheg","pricing_plan_id":"cebpf4jnsgd1na2vs0mg"},{"bike_id":"b4450704-51e1-4ff8-a772-08322cc70eb7","system_id":"levelo_inurba_marseille","lat":43.23191,"lon":5.35557,"is_reserved":false,"is_disabled":false,"rental_uris":{"android":"levelo://app?vid=b4450704-51e1-4ff8-a772-08322cc70eb7","ios":"levelo://app?vid=b4450704-51e1-4ff8-a772-08322cc70eb7"},"vehicle_type_id":"4","last_reported":1726614587,"current_range_meters":36800,"station_id":"ce4bhu92rcd13ifvqi70","pricing_plan_id":"cebpf4jnsgd1na2vs0mg"},{"bike_id":"ca9c8ba9-3829-431d-ad4a-20866605722d","system_id":"levelo_inurba_marseille","lat":43.31172,"lon":5.38714,"is_reserved":false,"is_disabled":false,"rental_uris":{"android":"levelo://app?vid=ca9c8ba9-3829-431d-ad4a-20866605722d","ios":"levelo://app?vid=ca9c8ba9-3829-431d-ad4a-20866605722d"},"vehicle_type_id":"4","last_reported":1726614587,"current_range_meters":35200,"station_id":"ce4bgv12rcd13ifvqcp0","pricing_plan_id":"cebpf4jnsgd1na2vs0mg"},{"bike_id":"297483d6-7000-48e8-a56b-a3bf9a969110","system_id":"levelo_inurba_marseille","lat":43.28676,"lon":5.38657,"is_reserved":false,"is_disabled":false,"rental_uris":{"android":"levelo://app?vid=297483d6-7000-48e8-a56b-a3bf9a969110","ios":"levelo://app?vid=297483d6-7000-48e8-a56b-a3bf9a969110"},"vehicle_type_id":"4","last_reported":1726614587,"current_range_meters":38800,"station_id":"ce4bh492rcd13ifvqdug","pricing_plan_id":"cebpf4jnsgd1na2vs0mg"},{"bike_id":"5e45b63e-f60e-4a3e-bd87-568073cf021c","system_id":"levelo_inurba_marseille","lat":43.28276,"lon":5.35071,"is_reserved":false,"is_disabled":false,"rental_uris":{"android":"levelo://app?vid=5e45b63e-f60e-4a3e-bd87-568073cf021c","ios":"levelo://app?vid=5e45b63e-f60e-4a3e-bd87-568073cf021c"},"vehicle_type_id":"4","last_reported":1726614587,"current_range_meters":40000,"station_id":"ce4bhbp2rcd13ifvqerg","pricing_plan_id":"cebpf4jnsgd1na2vs0mg"},{"bike_id":"933ab09c-70a0-476f-b5ef-b1333eb3e091","system_id":"levelo_inurba_marseille","lat":43.28713,"lon":5.37387,"is_reserved":false,"is_disabled":false,"rental_uris":{"android":"levelo://app?vid=933ab09c-70a0-476f-b5ef-b1333eb3e091","ios":"levelo://app?vid=933ab09c-70a0-476f-b5ef-b1333eb3e091"},"vehicle_type_id":"4","last_reported":1726614587,"current_range_meters":33200,"station_id":"ce4bh3p2rcd13ifvqdq0","pricing_plan_id":"cebpf4jnsgd1na2vs0mg"},{"bike_id":"c2667222-5d26-4d9c-a938-761c480fe584","system_id":"levelo_inurba_marseille","lat":43.33024,"lon":5.39042,"is_reserved":false,"is_disabled":false,"rental_uris":{"android":"levelo://app?vid=c2667222-5d26-4d9c-a938-761c480fe584","ios":"levelo://app?vid=c2667222-5d26-4d9c-a938-761c480fe584"},"vehicle_type_id":"4","last_reported":1726614587,"current_range_meters":14000,"station_id":"ce4bhr92rcd13ifvqhrg","pricing_plan_id":"cebpf4jnsgd1na2vs0mg"},{"bike_id":"6e4c85b4-a1c2-45f6-a329-7b57679e1aaa","system_id":"levelo_inurba_marseille","lat":43.30434,"lon":5.38894,"is_reserved":false,"is_disabled":false,"rental_uris":{"android":"levelo://app?vid=6e4c85b4-a1c2-45f6-a329-7b57679e1aaa","ios":"levelo://app?vid=6e4c85b4-a1c2-45f6-a329-7b57679e1aaa"},"vehicle_type_id":"4","last_reported":1726614587,"current_range_meters":18800,"station_id":"ce4bgk12rcd13ifvqbi0","pricing_plan_id":"cebpf4jnsgd1na2vs0mg"},{"bike_id":"27c9ea12-7694-48b6-b50d-98a8f3498571","system_id":"levelo_inurba_marseille","lat":43.27968,"lon":5.38708,"is_reserved":false,"is_disabled":false,"rental_uris":{"android":"levelo://app?vid=27c9ea12-7694-48b6-b50d-98a8f3498571","ios":"levelo://app?vid=27c9ea12-7694-48b6-b50d-98a8f3498571"},"vehicle_type_id":"4","last_reported":1726614587,"current_range_meters":28400,"station_id":"ce4bhg12rcd13ifvqf80","pricing_plan_id":"cebpf4jnsgd1na2vs0mg"},{"bike_id":"826a7318-6bfb-411f-81d4-41b729485350","system_id":"levelo_inurba_marseille","lat":43.28467,"lon":5.35872,"is_reserved":false,"is_disabled":false,"rental_uris":{"android":"levelo://app?vid=826a7318-6bfb-411f-81d4-41b729485350","ios":"levelo://app?vid=826a7318-6bfb-411f-81d4-41b729485350"},"vehicle_type_id":"4","last_reported":1726614587,"current_range_meters":7200,"station_id":"ce4bhah2rcd13ifvqei0","pricing_plan_id":"cebpf4jnsgd1na2vs0mg"},{"bike_id":"66dabbab-33bb-47ec-b28e-0dcaa150ff45","system_id":"levelo_inurba_marseille","lat":43.29525,"lon":5.39037,"is_reserved":false,"is_disabled":false,"rental_uris":{"android":"levelo://app?vid=66dabbab-33bb-47ec-b28e-0dcaa150ff45","ios":"levelo://app?vid=66dabbab-33bb-47ec-b28e-0dcaa150ff45"},"vehicle_type_id":"4","last_reported":1726614587,"current_range_meters":37600,"station_id":"ce4bh3p2rcd13ifvqdp0","pricing_plan_id":"cebpf4jnsgd1na2vs0mg"},{"bike_id":"34e8a071-287e-4cf2-9112-5c37bd2eae62","system_id":"levelo_inurba_marseille","lat":43.31125,"lon":5.37747,"is_reserved":false,"is_disabled":false,"rental_uris":{"android":"levelo://app?vid=34e8a071-287e-4cf2-9112-5c37bd2eae62","ios":"levelo://app?vid=34e8a071-287e-4cf2-9112-5c37bd2eae62"},"vehicle_type_id":"4","last_reported":1726614587,"current_range_meters":40000,"station_id":"ce4bgt92rcd13ifvqcg0","pricing_plan_id":"cebpf4jnsgd1na2vs0mg"},{"bike_id":"c23b8ee8-eb6b-4754-a674-07b1194d1d6c","system_id":"levelo_inurba_marseille","lat":43.27809,"lon":5.40707,"is_reserved":false,"is_disabled":false,"rental_uris":{"android":"levelo://app?vid=c23b8ee8-eb6b-4754-a674-07b1194d1d6c","ios":"levelo://app?vid=c23b8ee8-eb6b-4754-a674-07b1194d1d6c"},"vehicle_type_id":"4","last_reported":1726614587,"current_range_meters":28800,"station_id":"ce4bhnh2rcd13ifvqgtg","pricing_plan_id":"cebpf4jnsgd1na2vs0mg"},{"bike_id":"0ca86180-5cb3-46a7-9899-332acb885aba","system_id":"levelo_inurba_marseille","lat":43.27919,"lon":5.39573,"is_reserved":false,"is_disabled":false,"rental_uris":{"android":"levelo://app?vid=0ca86180-5cb3-46a7-9899-332acb885aba","ios":"levelo://app?vid=0ca86180-5cb3-46a7-9899-332acb885aba"},"vehicle_type_id":"4","last_reported":1726614587,"current_range_meters":37600,"station_id":"ce4bhf92rcd13ifvqf40","pricing_plan_id":"cebpf4jnsgd1na2vs0mg"},{"bike_id":"b099dcf9-a202-4041-a7cc-40a4b6695d0e","system_id":"levelo_inurba_marseille","lat":43.33023,"lon":5.39041,"is_reserved":false,"is_disabled":false,"rental_uris":{"android":"levelo://app?vid=b099dcf9-a202-4041-a7cc-40a4b6695d0e","ios":"levelo://app?vid=b099dcf9-a202-4041-a7cc-40a4b6695d0e"},"vehicle_type_id":"4","last_reported":1726614587,"current_range_meters":38800,"station_id":"ce4bhr92rcd13ifvqhrg","pricing_plan_id":"cebpf4jnsgd1na2vs0mg"},{"bike_id":"9ec75349-5981-4540-9c85-67e247bba546","system_id":"levelo_inurba_marseille","lat":43.31688,"lon":5.40466,"is_reserved":false,"is_disabled":false,"rental_uris":{"android":"levelo://app?vid=9ec75349-5981-4540-9c85-67e247bba546","ios":"levelo://app?vid=9ec75349-5981-4540-9c85-67e247bba546"},"vehicle_type_id":"4","last_reported":1726614587,"current_range_meters":38800,"station_id":"ce4bh012rcd13ifvqd00","pricing_plan_id":"cebpf4jnsgd1na2vs0mg"},{"bike_id":"394e6ae4-aa38-47e5-ad65-1154f489383d","system_id":"levelo_inurba_marseille","lat":43.29118,"lon":5.35566,"is_reserved":false,"is_disabled":false,"rental_uris":{"android":"levelo://app?vid=394e6ae4-aa38-47e5-ad65-1154f489383d","ios":"levelo://app?vid=394e6ae4-aa38-47e5-ad65-1154f489383d"},"vehicle_type_id":"4","last_reported":1726614587,"current_range_meters":24400,"station_id":"","pricing_plan_id":"cebpf4jnsgd1na2vs0mg"},{"bike_id":"70721a5b-2890-4c5a-82f0-af97cde9430f","system_id":"levelo_inurba_marseille","lat":43.25729,"lon":5.41106,"is_reserved":false,"is_disabled":false,"rental_uris":{"android":"levelo://app?vid=70721a5b-2890-4c5a-82f0-af97cde9430f","ios":"levelo://app?vid=70721a5b-2890-4c5a-82f0-af97cde9430f"},"vehicle_type_id":"4","last_reported":1726614587,"current_range_meters":17200,"station_id":"ce4bhkp2rcd13ifvqgd0","pricing_plan_id":"cebpf4jnsgd1na2vs0mg"},{"bike_id":"f409a27c-3291-4d9b-ac57-9e74e75d80d1","system_id":"levelo_inurba_marseille","lat":43.32366,"lon":5.38881,"is_reserved":false,"is_disabled":false,"rental_uris":{"android":"levelo://app?vid=f409a27c-3291-4d9b-ac57-9e74e75d80d1","ios":"levelo://app?vid=f409a27c-3291-4d9b-ac57-9e74e75d80d1"},"vehicle_type_id":"4","last_reported":1726614587,"current_range_meters":11200,"station_id":"ce4bhqp2rcd13ifvqhog","pricing_plan_id":"cebpf4jnsgd1na2vs0mg"},{"bike_id":"dc072784-60cf-46f6-a7be-7c6948ca152b","system_id":"levelo_inurba_marseille","lat":43.30427,"lon":5.39751,"is_reserved":false,"is_disabled":false,"rental_uris":{"android":"levelo://app?vid=dc072784-60cf-46f6-a7be-7c6948ca152b","ios":"levelo://app?vid=dc072784-60cf-46f6-a7be-7c6948ca152b"},"vehicle_type_id":"4","last_reported":1726614587,"current_range_meters":38000,"station_id":"ce4bh092rcd13ifvqd20","pricing_plan_id":"cebpf4jnsgd1na2vs0mg"},{"bike_id":"d4496308-e036-4c5c-bc6a-ca8cde616780","system_id":"levelo_inurba_marseille","lat":43.31163,"lon":5.38706,"is_reserved":false,"is_disabled":false,"rental_uris":{"android":"levelo://app?vid=d4496308-e036-4c5c-bc6a-ca8cde616780","ios":"levelo://app?vid=d4496308-e036-4c5c-bc6a-ca8cde616780"},"vehicle_type_id":"4","last_reported":1726614587,"current_range_meters":22800,"station_id":"ce4bgv12rcd13ifvqcp0","pricing_plan_id":"cebpf4jnsgd1na2vs0mg"},{"bike_id":"62258ee3-7c1f-446a-a41a-7c1fb974b499","system_id":"levelo_inurba_marseille","lat":43.29968,"lon":5.38494,"is_reserved":false,"is_disabled":false,"rental_uris":{"android":"levelo://app?vid=62258ee3-7c1f-446a-a41a-7c1fb974b499","ios":"levelo://app?vid=62258ee3-7c1f-446a-a41a-7c1fb974b499"},"vehicle_type_id":"4","last_reported":1726614587,"current_range_meters":36000,"station_id":"ce4bgj92rcd13ifvqbd0","pricing_plan_id":"cebpf4jnsgd1na2vs0mg"},{"bike_id":"ca4a32fa-8596-4ed2-9a8f-5b1de6b7b916","system_id":"levelo_inurba_marseille","lat":43.29023,"lon":5.37564,"is_reserved":false,"is_disabled":false,"rental_uris":{"android":"levelo://app?vid=ca4a32fa-8596-4ed2-9a8f-5b1de6b7b916","ios":"levelo://app?vid=ca4a32fa-8596-4ed2-9a8f-5b1de6b7b916"},"vehicle_type_id":"4","last_reported":1726614587,"current_range_meters":38800,"station_id":"ce4bh692rcd13ifvqe90","pricing_plan_id":"cebpf4jnsgd1na2vs0mg"},{"bike_id":"f0145871-1a1c-4f58-9abf-45eb144e8994","system_id":"levelo_inurba_marseille","lat":43.30676,"lon":5.40091,"is_reserved":false,"is_disabled":false,"rental_uris":{"android":"levelo://app?vid=f0145871-1a1c-4f58-9abf-45eb144e8994","ios":"levelo://app?vid=f0145871-1a1c-4f58-9abf-45eb144e8994"},"vehicle_type_id":"4","last_reported":1726614587,"current_range_meters":4400,"station_id":"ce4bh112rcd13ifvqda0","pricing_plan_id":"cebpf4jnsgd1na2vs0mg"},{"bike_id":"513eb7b7-021e-4783-9e80-45b6d7fae5bb","system_id":"levelo_inurba_marseille","lat":43.28263,"lon":5.3507,"is_reserved":false,"is_disabled":false,"rental_uris":{"android":"levelo://app?vid=513eb7b7-021e-4783-9e80-45b6d7fae5bb","ios":"levelo://app?vid=513eb7b7-021e-4783-9e80-45b6d7fae5bb"},"vehicle_type_id":"4","last_reported":1726614587,"current_range_meters":38800,"station_id":"ce4bhbp2rcd13ifvqerg","pricing_plan_id":"cebpf4jnsgd1na2vs0mg"},{"bike_id":"334b6d12-d374-4d88-8b6e-7f174696e078","system_id":"levelo_inurba_marseille","lat":43.28706,"lon":5.37377,"is_reserved":false,"is_disabled":false,"rental_uris":{"android":"levelo://app?vid=334b6d12-d374-4d88-8b6e-7f174696e078","ios":"levelo://app?vid=334b6d12-d374-4d88-8b6e-7f174696e078"},"vehicle_type_id":"4","last_reported":1726614587,"current_range_meters":16000,"station_id":"ce4bh3p2rcd13ifvqdq0","pricing_plan_id":"cebpf4jnsgd1na2vs0mg"},{"bike_id":"0c18f7de-b7f3-4589-a11a-fa026d3b54c3","system_id":"levelo_inurba_marseille","lat":43.28157,"lon":5.42638,"is_reserved":false,"is_disabled":false,"rental_uris":{"android":"levelo://app?vid=0c18f7de-b7f3-4589-a11a-fa026d3b54c3","ios":"levelo://app?vid=0c18f7de-b7f3-4589-a11a-fa026d3b54c3"},"vehicle_type_id":"4","last_reported":1726614587,"current_range_meters":22800,"station_id":"ce4bhnh2rcd13ifvqgug","pricing_plan_id":"cebpf4jnsgd1na2vs0mg"},{"bike_id":"ee7cab51-ac41-4df2-a570-0b8afed077f6","system_id":"levelo_inurba_marseille","lat":43.33021,"lon":5.39039,"is_reserved":false,"is_disabled":false,"rental_uris":{"android":"levelo://app?vid=ee7cab51-ac41-4df2-a570-0b8afed077f6","ios":"levelo://app?vid=ee7cab51-ac41-4df2-a570-0b8afed077f6"},"vehicle_type_id":"4","last_reported":1726614587,"current_range_meters":28000,"station_id":"ce4bhr92rcd13ifvqhrg","pricing_plan_id":"cebpf4jnsgd1na2vs0mg"},{"bike_id":"c7f93bf2-2b30-4c5c-aa72-447b3f4a28ea","system_id":"levelo_inurba_marseille","lat":43.299,"lon":5.43664,"is_reserved":false,"is_disabled":false,"rental_uris":{"android":"levelo://app?vid=c7f93bf2-2b30-4c5c-aa72-447b3f4a28ea","ios":"levelo://app?vid=c7f93bf2-2b30-4c5c-aa72-447b3f4a28ea"},"vehicle_type_id":"4","last_reported":1726614587,"current_range_meters":7200,"station_id":"ce4bhpp2rcd13ifvqhfg","pricing_plan_id":"cebpf4jnsgd1na2vs0mg"},{"bike_id":"a3efd81c-da06-42d6-889e-44923da28ff8","system_id":"levelo_inurba_marseille","lat":43.28104,"lon":5.37844,"is_reserved":false,"is_disabled":false,"rental_uris":{"android":"levelo://app?vid=a3efd81c-da06-42d6-889e-44923da28ff8","ios":"levelo://app?vid=a3efd81c-da06-42d6-889e-44923da28ff8"},"vehicle_type_id":"4","last_reported":1726614587,"current_range_meters":19200,"station_id":"ce4bha12rcd13ifvqee0","pricing_plan_id":"cebpf4jnsgd1na2vs0mg"},{"bike_id":"6d398055-ba33-4127-aa64-5cbde7e549c4","system_id":"levelo_inurba_marseille","lat":43.32001,"lon":5.38154,"is_reserved":false,"is_disabled":false,"rental_uris":{"android":"levelo://app?vid=6d398055-ba33-4127-aa64-5cbde7e549c4","ios":"levelo://app?vid=6d398055-ba33-4127-aa64-5cbde7e549c4"},"vehicle_type_id":"4","last_reported":1726614587,"current_range_meters":36400,"station_id":"ce4bhr12rcd13ifvqhpg","pricing_plan_id":"cebpf4jnsgd1na2vs0mg"},{"bike_id":"59f23c5f-eb37-4279-bcbd-3c837b1f7388","system_id":"levelo_inurba_marseille","lat":43.29629,"lon":5.40598,"is_reserved":false,"is_disabled":false,"rental_uris":{"android":"levelo://app?vid=59f23c5f-eb37-4279-bcbd-3c837b1f7388","ios":"levelo://app?vid=59f23c5f-eb37-4279-bcbd-3c837b1f7388"},"vehicle_type_id":"4","last_reported":1726614587,"current_range_meters":36400,"station_id":"ce4bh0h2rcd13ifvqd60","pricing_plan_id":"cebpf4jnsgd1na2vs0mg"},{"bike_id":"f33f1ba2-2f5f-4e3f-979a-e7e37618343d","system_id":"levelo_inurba_marseille","lat":43.29219,"lon":5.39328,"is_reserved":false,"is_disabled":false,"rental_uris":{"android":"levelo://app?vid=f33f1ba2-2f5f-4e3f-979a-e7e37618343d","ios":"levelo://app?vid=f33f1ba2-2f5f-4e3f-979a-e7e37618343d"},"vehicle_type_id":"4","last_reported":1726614587,"current_range_meters":28800,"station_id":"ce4bh192rcd13ifvqdd0","pricing_plan_id":"cebpf4jnsgd1na2vs0mg"},{"bike_id":"f1230d2e-8486-4d76-8402-36b9b40ea9b9","system_id":"levelo_inurba_marseille","lat":43.28464,"lon":5.3588,"is_reserved":false,"is_disabled":false,"rental_uris":{"android":"levelo://app?vid=f1230d2e-8486-4d76-8402-36b9b40ea9b9","ios":"levelo://app?vid=f1230d2e-8486-4d76-8402-36b9b40ea9b9"},"vehicle_type_id":"4","last_reported":1726614587,"current_range_meters":38800,"station_id":"ce4bhah2rcd13ifvqei0","pricing_plan_id":"cebpf4jnsgd1na2vs0mg"},{"bike_id":"b62a9610-ebe1-445b-8d81-d796bfa6285e","system_id":"levelo_inurba_marseille","lat":43.30934,"lon":5.40145,"is_reserved":false,"is_disabled":false,"rental_uris":{"android":"levelo://app?vid=b62a9610-ebe1-445b-8d81-d796bfa6285e","ios":"levelo://app?vid=b62a9610-ebe1-445b-8d81-d796bfa6285e"},"vehicle_type_id":"4","last_reported":1726614587,"current_range_meters":15200,"station_id":"ce4bgvp2rcd13ifvqct0","pricing_plan_id":"cebpf4jnsgd1na2vs0mg"},{"bike_id":"1b5a3615-4988-4982-8b62-9226ed5a66a6","system_id":"levelo_inurba_marseille","lat":43.31352,"lon":5.38309,"is_reserved":false,"is_disabled":false,"rental_uris":{"android":"levelo://app?vid=1b5a3615-4988-4982-8b62-9226ed5a66a6","ios":"levelo://app?vid=1b5a3615-4988-4982-8b62-9226ed5a66a6"},"vehicle_type_id":"4","last_reported":1726614587,"current_range_meters":6400,"station_id":"","pricing_plan_id":"cebpf4jnsgd1na2vs0mg"},{"bike_id":"57c55890-9622-407f-92d9-6af7734663b4","system_id":"levelo_inurba_marseille","lat":43.23177,"lon":5.39985,"is_reserved":false,"is_disabled":false,"rental_uris":{"android":"levelo://app?vid=57c55890-9622-407f-92d9-6af7734663b4","ios":"levelo://app?vid=57c55890-9622-407f-92d9-6af7734663b4"},"vehicle_type_id":"4","last_reported":1726614587,"current_range_meters":17600,"station_id":"ce4bhn12rcd13ifvqgqg","pricing_plan_id":"cebpf4jnsgd1na2vs0mg"},{"bike_id":"80d1eb54-6334-4c2f-a160-7e4b5cb79537","system_id":"levelo_inurba_marseille","lat":43.29964,"lon":5.41327,"is_reserved":false,"is_disabled":false,"rental_uris":{"android":"levelo://app?vid=80d1eb54-6334-4c2f-a160-7e4b5cb79537","ios":"levelo://app?vid=80d1eb54-6334-4c2f-a160-7e4b5cb79537"},"vehicle_type_id":"4","last_reported":1726614587,"current_range_meters":37600,"station_id":"ce4bhp12rcd13ifvqh9g","pricing_plan_id":"cebpf4jnsgd1na2vs0mg"},{"bike_id":"e11b35df-336c-4798-ba1d-650ce1eb2c2d","system_id":"levelo_inurba_marseille","lat":43.278428,"lon":5.392237,"is_reserved":false,"is_disabled":false,"rental_uris":{"android":"levelo://app?vid=e11b35df-336c-4798-ba1d-650ce1eb2c2d","ios":"levelo://app?vid=e11b35df-336c-4798-ba1d-650ce1eb2c2d"},"vehicle_type_id":"4","last_reported":1726614587,"current_range_meters":38800,"station_id":"ce4bhjp2rcd13ifvqga0","pricing_plan_id":"cebpf4jnsgd1na2vs0mg"},{"bike_id":"2df18966-5fec-4175-82c5-cee36a200007","system_id":"levelo_inurba_marseille","lat":43.3059,"lon":5.39358,"is_reserved":false,"is_disabled":false,"rental_uris":{"android":"levelo://app?vid=2df18966-5fec-4175-82c5-cee36a200007","ios":"levelo://app?vid=2df18966-5fec-4175-82c5-cee36a200007"},"vehicle_type_id":"4","last_reported":1726614587,"current_range_meters":12800,"station_id":"ce4bh0p2rcd13ifvqd80","pricing_plan_id":"cebpf4jnsgd1na2vs0mg"},{"bike_id":"cd2093f7-46b6-4549-a936-868a6fa11ef9","system_id":"levelo_inurba_marseille","lat":43.27911,"lon":5.38003,"is_reserved":false,"is_disabled":false,"rental_uris":{"android":"levelo://app?vid=cd2093f7-46b6-4549-a936-868a6fa11ef9","ios":"levelo://app?vid=cd2093f7-46b6-4549-a936-868a6fa11ef9"},"vehicle_type_id":"4","last_reported":1726614587,"current_range_meters":21600,"station_id":"ce4bhf92rcd13ifvqf50","pricing_plan_id":"cebpf4jnsgd1na2vs0mg"},{"bike_id":"a61689aa-5c1a-4413-8538-941f73ca00b9","system_id":"levelo_inurba_marseille","lat":43.26195,"lon":5.37447,"is_reserved":false,"is_disabled":false,"rental_uris":{"android":"levelo://app?vid=a61689aa-5c1a-4413-8538-941f73ca00b9","ios":"levelo://app?vid=a61689aa-5c1a-4413-8538-941f73ca00b9"},"vehicle_type_id":"4","last_reported":1726614587,"current_range_meters":38000,"station_id":"ce4bhgp2rcd13ifvqfc0","pricing_plan_id":"cebpf4jnsgd1na2vs0mg"},{"bike_id":"b88d8bac-711e-49d2-9eee-8f0f2fcec434","system_id":"levelo_inurba_marseille","lat":43.33024,"lon":5.39047,"is_reserved":false,"is_disabled":false,"rental_uris":{"android":"levelo://app?vid=b88d8bac-711e-49d2-9eee-8f0f2fcec434","ios":"levelo://app?vid=b88d8bac-711e-49d2-9eee-8f0f2fcec434"},"vehicle_type_id":"4","last_reported":1726614587,"current_range_meters":27600,"station_id":"ce4bhr92rcd13ifvqhrg","pricing_plan_id":"cebpf4jnsgd1na2vs0mg"},{"bike_id":"2189c212-ccd8-46f4-bde9-9d5f8bd683d8","system_id":"levelo_inurba_marseille","lat":43.26565,"lon":5.39009,"is_reserved":false,"is_disabled":false,"rental_uris":{"android":"levelo://app?vid=2189c212-ccd8-46f4-bde9-9d5f8bd683d8","ios":"levelo://app?vid=2189c212-ccd8-46f4-bde9-9d5f8bd683d8"},"vehicle_type_id":"4","last_reported":1726614587,"current_range_meters":32800,"station_id":"ce4bhe12rcd13ifvqf30","pricing_plan_id":"cebpf4jnsgd1na2vs0mg"},{"bike_id":"2e2254f6-d3ed-4277-af5f-ee204e464f40","system_id":"levelo_inurba_marseille","lat":43.29937,"lon":5.41323,"is_reserved":false,"is_disabled":false,"rental_uris":{"android":"levelo://app?vid=2e2254f6-d3ed-4277-af5f-ee204e464f40","ios":"levelo://app?vid=2e2254f6-d3ed-4277-af5f-ee204e464f40"},"vehicle_type_id":"4","last_reported":1726614587,"current_range_meters":38400,"station_id":"ce4bhp12rcd13ifvqh9g","pricing_plan_id":"cebpf4jnsgd1na2vs0mg"},{"bike_id":"7ffa0a34-2412-4cf6-a653-08d8c8ef67dd","system_id":"levelo_inurba_marseille","lat":43.31979,"lon":5.43837,"is_reserved":false,"is_disabled":false,"rental_uris":{"android":"levelo://app?vid=7ffa0a34-2412-4cf6-a653-08d8c8ef67dd","ios":"levelo://app?vid=7ffa0a34-2412-4cf6-a653-08d8c8ef67dd"},"vehicle_type_id":"4","last_reported":1726614587,"current_range_meters":16000,"station_id":"","pricing_plan_id":"cebpf4jnsgd1na2vs0mg"},{"bike_id":"60696c21-e7eb-4802-a342-911ea3071c71","system_id":"levelo_inurba_marseille","lat":43.31646,"lon":5.39576,"is_reserved":false,"is_disabled":false,"rental_uris":{"android":"levelo://app?vid=60696c21-e7eb-4802-a342-911ea3071c71","ios":"levelo://app?vid=60696c21-e7eb-4802-a342-911ea3071c71"},"vehicle_type_id":"4","last_reported":1726614587,"current_range_meters":25600,"station_id":"","pricing_plan_id":"cebpf4jnsgd1na2vs0mg"},{"bike_id":"8cb592d9-f82f-4171-894f-8d7ffa6525e5","system_id":"levelo_inurba_marseille","lat":43.232,"lon":5.35553,"is_reserved":false,"is_disabled":false,"rental_uris":{"android":"levelo://app?vid=8cb592d9-f82f-4171-894f-8d7ffa6525e5","ios":"levelo://app?vid=8cb592d9-f82f-4171-894f-8d7ffa6525e5"},"vehicle_type_id":"4","last_reported":1726614587,"current_range_meters":16800,"station_id":"ce4bhu92rcd13ifvqi70","pricing_plan_id":"cebpf4jnsgd1na2vs0mg"},{"bike_id":"8d88c07c-4556-43d6-8940-ca6809bdad6b","system_id":"levelo_inurba_marseille","lat":43.2808,"lon":5.3965,"is_reserved":false,"is_disabled":false,"rental_uris":{"android":"levelo://app?vid=8d88c07c-4556-43d6-8940-ca6809bdad6b","ios":"levelo://app?vid=8d88c07c-4556-43d6-8940-ca6809bdad6b"},"vehicle_type_id":"4","last_reported":1726614587,"current_range_meters":39200,"station_id":"ce4bho12rcd13ifvqh2g","pricing_plan_id":"cebpf4jnsgd1na2vs0mg"},{"bike_id":"699d09b8-17ae-4b5a-81a4-f0906a954e6d","system_id":"levelo_inurba_marseille","lat":43.32299,"lon":5.3827,"is_reserved":false,"is_disabled":false,"rental_uris":{"android":"levelo://app?vid=699d09b8-17ae-4b5a-81a4-f0906a954e6d","ios":"levelo://app?vid=699d09b8-17ae-4b5a-81a4-f0906a954e6d"},"vehicle_type_id":"4","last_reported":1726614587,"current_range_meters":11600,"station_id":"ce4bhr12rcd13ifvqhqg","pricing_plan_id":"cebpf4jnsgd1na2vs0mg"},{"bike_id":"72305da1-1c17-484b-a5ef-a68042230e56","system_id":"levelo_inurba_marseille","lat":43.27752,"lon":5.38871,"is_reserved":false,"is_disabled":false,"rental_uris":{"android":"levelo://app?vid=72305da1-1c17-484b-a5ef-a68042230e56","ios":"levelo://app?vid=72305da1-1c17-484b-a5ef-a68042230e56"},"vehicle_type_id":"4","last_reported":1726614587,"current_range_meters":37600,"station_id":"ce4bh392rcd13ifvqdm0","pricing_plan_id":"cebpf4jnsgd1na2vs0mg"},{"bike_id":"20a4a91d-8541-4958-9b2e-4e75165c8a2a","system_id":"levelo_inurba_marseille","lat":43.30808,"lon":5.43521,"is_reserved":false,"is_disabled":false,"rental_uris":{"android":"levelo://app?vid=20a4a91d-8541-4958-9b2e-4e75165c8a2a","ios":"levelo://app?vid=20a4a91d-8541-4958-9b2e-4e75165c8a2a"},"vehicle_type_id":"4","last_reported":1726614587,"current_range_meters":11200,"station_id":"ce4bhph2rcd13ifvqheg","pricing_plan_id":"cebpf4jnsgd1na2vs0mg"},{"bike_id":"c3bcca86-6294-4639-9d07-9722d40f464e","system_id":"levelo_inurba_marseille","lat":43.29901,"lon":5.4367,"is_reserved":false,"is_disabled":false,"rental_uris":{"android":"levelo://app?vid=c3bcca86-6294-4639-9d07-9722d40f464e","ios":"levelo://app?vid=c3bcca86-6294-4639-9d07-9722d40f464e"},"vehicle_type_id":"4","last_reported":1726614587,"current_range_meters":28800,"station_id":"ce4bhpp2rcd13ifvqhfg","pricing_plan_id":"cebpf4jnsgd1na2vs0mg"},{"bike_id":"69b9cdb2-4fe7-493a-8d22-99426cefc640","system_id":"levelo_inurba_marseille","lat":43.28916,"lon":5.36384,"is_reserved":false,"is_disabled":false,"rental_uris":{"android":"levelo://app?vid=69b9cdb2-4fe7-493a-8d22-99426cefc640","ios":"levelo://app?vid=69b9cdb2-4fe7-493a-8d22-99426cefc640"},"vehicle_type_id":"4","last_reported":1726614587,"current_range_meters":38000,"station_id":"ce4bhc92rcd13ifvqetg","pricing_plan_id":"cebpf4jnsgd1na2vs0mg"},{"bike_id":"464b765a-5bcf-418f-9058-526dab1b44f9","system_id":"levelo_inurba_marseille","lat":43.32293,"lon":5.38271,"is_reserved":false,"is_disabled":false,"rental_uris":{"android":"levelo://app?vid=464b765a-5bcf-418f-9058-526dab1b44f9","ios":"levelo://app?vid=464b765a-5bcf-418f-9058-526dab1b44f9"},"vehicle_type_id":"4","last_reported":1726614587,"current_range_meters":24400,"station_id":"ce4bhr12rcd13ifvqhqg","pricing_plan_id":"cebpf4jnsgd1na2vs0mg"},{"bike_id":"02977118-69a6-4ca8-82d1-77e2b60e8c97","system_id":"levelo_inurba_marseille","lat":43.29037,"lon":5.35903,"is_reserved":false,"is_disabled":false,"rental_uris":{"android":"levelo://app?vid=02977118-69a6-4ca8-82d1-77e2b60e8c97","ios":"levelo://app?vid=02977118-69a6-4ca8-82d1-77e2b60e8c97"},"vehicle_type_id":"4","last_reported":1726614587,"current_range_meters":32800,"station_id":"ce4bha92rcd13ifvqeg0","pricing_plan_id":"cebpf4jnsgd1na2vs0mg"},{"bike_id":"22683c37-5f0a-43ba-b756-0c6e1c5263f2","system_id":"levelo_inurba_marseille","lat":43.28452,"lon":5.35889,"is_reserved":false,"is_disabled":false,"rental_uris":{"android":"levelo://app?vid=22683c37-5f0a-43ba-b756-0c6e1c5263f2","ios":"levelo://app?vid=22683c37-5f0a-43ba-b756-0c6e1c5263f2"},"vehicle_type_id":"4","last_reported":1726614587,"current_range_meters":38800,"station_id":"ce4bhah2rcd13ifvqei0","pricing_plan_id":"cebpf4jnsgd1na2vs0mg"},{"bike_id":"d0858627-e68a-42db-b1c3-b7083eaf57b0","system_id":"levelo_inurba_marseille","lat":43.29519,"lon":5.39058,"is_reserved":false,"is_disabled":false,"rental_uris":{"android":"levelo://app?vid=d0858627-e68a-42db-b1c3-b7083eaf57b0","ios":"levelo://app?vid=d0858627-e68a-42db-b1c3-b7083eaf57b0"},"vehicle_type_id":"4","last_reported":1726614587,"current_range_meters":38000,"station_id":"ce4bh3p2rcd13ifvqdp0","pricing_plan_id":"cebpf4jnsgd1na2vs0mg"},{"bike_id":"8e3c84db-879d-4669-8d43-f74eed3d4c1b","system_id":"levelo_inurba_marseille","lat":43.27372,"lon":5.36265,"is_reserved":false,"is_disabled":false,"rental_uris":{"android":"levelo://app?vid=8e3c84db-879d-4669-8d43-f74eed3d4c1b","ios":"levelo://app?vid=8e3c84db-879d-4669-8d43-f74eed3d4c1b"},"vehicle_type_id":"4","last_reported":1726614587,"current_range_meters":39200,"station_id":"ce4bhbh2rcd13ifvqeo0","pricing_plan_id":"cebpf4jnsgd1na2vs0mg"},{"bike_id":"95de6f39-c349-4389-b4cf-decf8fff6702","system_id":"levelo_inurba_marseille","lat":43.27994,"lon":5.40015,"is_reserved":false,"is_disabled":false,"rental_uris":{"android":"levelo://app?vid=95de6f39-c349-4389-b4cf-decf8fff6702","ios":"levelo://app?vid=95de6f39-c349-4389-b4cf-decf8fff6702"},"vehicle_type_id":"4","last_reported":1726614587,"current_range_meters":36400,"station_id":"ce4bho92rcd13ifvqh4g","pricing_plan_id":"cebpf4jnsgd1na2vs0mg"},{"bike_id":"654b7b92-8c6a-4217-896e-d43a6fbf4d0d","system_id":"levelo_inurba_marseille","lat":43.27995,"lon":5.40015,"is_reserved":false,"is_disabled":false,"rental_uris":{"android":"levelo://app?vid=654b7b92-8c6a-4217-896e-d43a6fbf4d0d","ios":"levelo://app?vid=654b7b92-8c6a-4217-896e-d43a6fbf4d0d"},"vehicle_type_id":"4","last_reported":1726614587,"current_range_meters":39200,"station_id":"ce4bho92rcd13ifvqh4g","pricing_plan_id":"cebpf4jnsgd1na2vs0mg"},{"bike_id":"b1db6496-7d7b-4acc-a88c-e5406d38e100","system_id":"levelo_inurba_marseille","lat":43.23193,"lon":5.35551,"is_reserved":false,"is_disabled":false,"rental_uris":{"android":"levelo://app?vid=b1db6496-7d7b-4acc-a88c-e5406d38e100","ios":"levelo://app?vid=b1db6496-7d7b-4acc-a88c-e5406d38e100"},"vehicle_type_id":"4","last_reported":1726614587,"current_range_meters":25200,"station_id":"ce4bhu92rcd13ifvqi70","pricing_plan_id":"cebpf4jnsgd1na2vs0mg"},{"bike_id":"ff7e889b-7efc-4a22-8d61-f6b1e860d2be","system_id":"levelo_inurba_marseille","lat":43.29629,"lon":5.40596,"is_reserved":false,"is_disabled":false,"rental_uris":{"android":"levelo://app?vid=ff7e889b-7efc-4a22-8d61-f6b1e860d2be","ios":"levelo://app?vid=ff7e889b-7efc-4a22-8d61-f6b1e860d2be"},"vehicle_type_id":"4","last_reported":1726614587,"current_range_meters":30400,"station_id":"ce4bh0h2rcd13ifvqd60","pricing_plan_id":"cebpf4jnsgd1na2vs0mg"},{"bike_id":"2bcffd6b-54ed-4cfe-b51b-1d7fce1ffe15","system_id":"levelo_inurba_marseille","lat":43.28857,"lon":5.35835,"is_reserved":false,"is_disabled":false,"rental_uris":{"android":"levelo://app?vid=2bcffd6b-54ed-4cfe-b51b-1d7fce1ffe15","ios":"levelo://app?vid=2bcffd6b-54ed-4cfe-b51b-1d7fce1ffe15"},"vehicle_type_id":"4","last_reported":1726614587,"current_range_meters":38800,"station_id":"ce4bhb12rcd13ifvqem0","pricing_plan_id":"cebpf4jnsgd1na2vs0mg"},{"bike_id":"6ab6f6c9-f957-4595-a53b-903c46246669","system_id":"levelo_inurba_marseille","lat":43.31341,"lon":5.39697,"is_reserved":false,"is_disabled":false,"rental_uris":{"android":"levelo://app?vid=6ab6f6c9-f957-4595-a53b-903c46246669","ios":"levelo://app?vid=6ab6f6c9-f957-4595-a53b-903c46246669"},"vehicle_type_id":"4","last_reported":1726614587,"current_range_meters":36000,"station_id":"ce4bgvp2rcd13ifvqcu0","pricing_plan_id":"cebpf4jnsgd1na2vs0mg"},{"bike_id":"a8165db9-3cf1-48ec-83b3-d51560044f19","system_id":"levelo_inurba_marseille","lat":43.29633,"lon":5.40592,"is_reserved":false,"is_disabled":false,"rental_uris":{"android":"levelo://app?vid=a8165db9-3cf1-48ec-83b3-d51560044f19","ios":"levelo://app?vid=a8165db9-3cf1-48ec-83b3-d51560044f19"},"vehicle_type_id":"4","last_reported":1726614587,"current_range_meters":28000,"station_id":"ce4bh0h2rcd13ifvqd60","pricing_plan_id":"cebpf4jnsgd1na2vs0mg"},{"bike_id":"20c8f008-5dd3-4031-8dcd-3c7859fc2c41","system_id":"levelo_inurba_marseille","lat":43.30936,"lon":5.40139,"is_reserved":false,"is_disabled":false,"rental_uris":{"android":"levelo://app?vid=20c8f008-5dd3-4031-8dcd-3c7859fc2c41","ios":"levelo://app?vid=20c8f008-5dd3-4031-8dcd-3c7859fc2c41"},"vehicle_type_id":"4","last_reported":1726614587,"current_range_meters":38800,"station_id":"ce4bgvp2rcd13ifvqct0","pricing_plan_id":"cebpf4jnsgd1na2vs0mg"},{"bike_id":"657d2ce3-df51-45da-bb47-734f0cd56ed6","system_id":"levelo_inurba_marseille","lat":43.27177,"lon":5.40997,"is_reserved":false,"is_disabled":false,"rental_uris":{"android":"levelo://app?vid=657d2ce3-df51-45da-bb47-734f0cd56ed6","ios":"levelo://app?vid=657d2ce3-df51-45da-bb47-734f0cd56ed6"},"vehicle_type_id":"4","last_reported":1726614587,"current_range_meters":39200,"station_id":"ce4bhl12rcd13ifvqgf0","pricing_plan_id":"cebpf4jnsgd1na2vs0mg"},{"bike_id":"4c389024-9ddf-47da-bc72-9104da8d9584","system_id":"levelo_inurba_marseille","lat":43.31467,"lon":5.3738,"is_reserved":false,"is_disabled":false,"rental_uris":{"android":"levelo://app?vid=4c389024-9ddf-47da-bc72-9104da8d9584","ios":"levelo://app?vid=4c389024-9ddf-47da-bc72-9104da8d9584"},"vehicle_type_id":"4","last_reported":1726614587,"current_range_meters":38800,"station_id":"","pricing_plan_id":"cebpf4jnsgd1na2vs0mg"},{"bike_id":"806cac2a-bfa5-4b02-a061-2bb66ffe7b7a","system_id":"levelo_inurba_marseille","lat":43.30592,"lon":5.39353,"is_reserved":false,"is_disabled":false,"rental_uris":{"android":"levelo://app?vid=806cac2a-bfa5-4b02-a061-2bb66ffe7b7a","ios":"levelo://app?vid=806cac2a-bfa5-4b02-a061-2bb66ffe7b7a"},"vehicle_type_id":"4","last_reported":1726614587,"current_range_meters":39200,"station_id":"ce4bh0p2rcd13ifvqd80","pricing_plan_id":"cebpf4jnsgd1na2vs0mg"},{"bike_id":"b645ac77-0d58-4fa9-8ad3-947af8bdb1d9","system_id":"levelo_inurba_marseille","lat":43.29898,"lon":5.43656,"is_reserved":false,"is_disabled":false,"rental_uris":{"android":"levelo://app?vid=b645ac77-0d58-4fa9-8ad3-947af8bdb1d9","ios":"levelo://app?vid=b645ac77-0d58-4fa9-8ad3-947af8bdb1d9"},"vehicle_type_id":"4","last_reported":1726614587,"current_range_meters":22800,"station_id":"ce4bhpp2rcd13ifvqhfg","pricing_plan_id":"cebpf4jnsgd1na2vs0mg"},{"bike_id":"addbe612-9ec0-4b55-9b2b-4fcfb900804c","system_id":"levelo_inurba_marseille","lat":43.29267,"lon":5.38441,"is_reserved":false,"is_disabled":false,"rental_uris":{"android":"levelo://app?vid=addbe612-9ec0-4b55-9b2b-4fcfb900804c","ios":"levelo://app?vid=addbe612-9ec0-4b55-9b2b-4fcfb900804c"},"vehicle_type_id":"4","last_reported":1726614587,"current_range_meters":30400,"station_id":"ce4bh692rcd13ifvqea0","pricing_plan_id":"cebpf4jnsgd1na2vs0mg"},{"bike_id":"7aaf4205-3eff-4e10-9fd8-fa1c3c8288a3","system_id":"levelo_inurba_marseille","lat":43.31328,"lon":5.39701,"is_reserved":false,"is_disabled":false,"rental_uris":{"android":"levelo://app?vid=7aaf4205-3eff-4e10-9fd8-fa1c3c8288a3","ios":"levelo://app?vid=7aaf4205-3eff-4e10-9fd8-fa1c3c8288a3"},"vehicle_type_id":"4","last_reported":1726614587,"current_range_meters":16800,"station_id":"ce4bgvp2rcd13ifvqcu0","pricing_plan_id":"cebpf4jnsgd1na2vs0mg"},{"bike_id":"9a92abb3-59cd-4477-a507-b141c652f151","system_id":"levelo_inurba_marseille","lat":43.28101,"lon":5.37836,"is_reserved":false,"is_disabled":false,"rental_uris":{"android":"levelo://app?vid=9a92abb3-59cd-4477-a507-b141c652f151","ios":"levelo://app?vid=9a92abb3-59cd-4477-a507-b141c652f151"},"vehicle_type_id":"4","last_reported":1726614587,"current_range_meters":18000,"station_id":"ce4bha12rcd13ifvqee0","pricing_plan_id":"cebpf4jnsgd1na2vs0mg"},{"bike_id":"84b4cc65-838a-471e-afa0-8b6d9c22f207","system_id":"levelo_inurba_marseille","lat":43.28712,"lon":5.39974,"is_reserved":false,"is_disabled":false,"rental_uris":{"android":"levelo://app?vid=84b4cc65-838a-471e-afa0-8b6d9c22f207","ios":"levelo://app?vid=84b4cc65-838a-471e-afa0-8b6d9c22f207"},"vehicle_type_id":"4","last_reported":1726614587,"current_range_meters":38800,"station_id":"ce4bho92rcd13ifvqh3g","pricing_plan_id":"cebpf4jnsgd1na2vs0mg"},{"bike_id":"014c1c69-d688-42d3-8aa9-6ddda2b18048","system_id":"levelo_inurba_marseille","lat":43.295643,"lon":5.396329,"is_reserved":false,"is_disabled":false,"rental_uris":{"android":"levelo://app?vid=014c1c69-d688-42d3-8aa9-6ddda2b18048","ios":"levelo://app?vid=014c1c69-d688-42d3-8aa9-6ddda2b18048"},"vehicle_type_id":"4","last_reported":1726614587,"current_range_meters":28800,"station_id":"","pricing_plan_id":"cebpf4jnsgd1na2vs0mg"},{"bike_id":"677498c9-746b-4650-9a8e-2c7479635944","system_id":"levelo_inurba_marseille","lat":43.33022,"lon":5.39051,"is_reserved":false,"is_disabled":false,"rental_uris":{"android":"levelo://app?vid=677498c9-746b-4650-9a8e-2c7479635944","ios":"levelo://app?vid=677498c9-746b-4650-9a8e-2c7479635944"},"vehicle_type_id":"4","last_reported":1726614587,"current_range_meters":18800,"station_id":"ce4bhr92rcd13ifvqhrg","pricing_plan_id":"cebpf4jnsgd1na2vs0mg"},{"bike_id":"9b51e962-37e9-42e1-af80-eceacf1eea2a","system_id":"levelo_inurba_marseille","lat":43.29988,"lon":5.37182,"is_reserved":false,"is_disabled":false,"rental_uris":{"android":"levelo://app?vid=9b51e962-37e9-42e1-af80-eceacf1eea2a","ios":"levelo://app?vid=9b51e962-37e9-42e1-af80-eceacf1eea2a"},"vehicle_type_id":"4","last_reported":1726614587,"current_range_meters":28400,"station_id":"ce4bgr92rcd13ifvqc7g","pricing_plan_id":"cebpf4jnsgd1na2vs0mg"},{"bike_id":"2b6686af-adcb-4f0c-b71f-73fe9b9a5c36","system_id":"levelo_inurba_marseille","lat":43.34149,"lon":5.409,"is_reserved":false,"is_disabled":false,"rental_uris":{"android":"levelo://app?vid=2b6686af-adcb-4f0c-b71f-73fe9b9a5c36","ios":"levelo://app?vid=2b6686af-adcb-4f0c-b71f-73fe9b9a5c36"},"vehicle_type_id":"4","last_reported":1726614587,"current_range_meters":38800,"station_id":"ce4bhqh2rcd13ifvqhlg","pricing_plan_id":"cebpf4jnsgd1na2vs0mg"},{"bike_id":"1d0e82e0-c627-46a9-9900-72456a2e4f58","system_id":"levelo_inurba_marseille","lat":43.24071,"lon":5.37756,"is_reserved":false,"is_disabled":false,"rental_uris":{"android":"levelo://app?vid=1d0e82e0-c627-46a9-9900-72456a2e4f58","ios":"levelo://app?vid=1d0e82e0-c627-46a9-9900-72456a2e4f58"},"vehicle_type_id":"4","last_reported":1726614587,"current_range_meters":38000,"station_id":"ce4bhnp2rcd13ifvqgvg","pricing_plan_id":"cebpf4jnsgd1na2vs0mg"},{"bike_id":"c629c3c4-865b-4d24-940e-24132cb8ca47","system_id":"levelo_inurba_marseille","lat":43.23186,"lon":5.39988,"is_reserved":false,"is_disabled":false,"rental_uris":{"android":"levelo://app?vid=c629c3c4-865b-4d24-940e-24132cb8ca47","ios":"levelo://app?vid=c629c3c4-865b-4d24-940e-24132cb8ca47"},"vehicle_type_id":"4","last_reported":1726614587,"current_range_meters":38800,"station_id":"ce4bhn12rcd13ifvqgqg","pricing_plan_id":"cebpf4jnsgd1na2vs0mg"},{"bike_id":"2bde560d-5746-4deb-96eb-cc07dc021d70","system_id":"levelo_inurba_marseille","lat":43.25867,"lon":5.39895,"is_reserved":false,"is_disabled":false,"rental_uris":{"android":"levelo://app?vid=2bde560d-5746-4deb-96eb-cc07dc021d70","ios":"levelo://app?vid=2bde560d-5746-4deb-96eb-cc07dc021d70"},"vehicle_type_id":"4","last_reported":1726614587,"current_range_meters":33200,"station_id":"ce4bhl92rcd13ifvqghg","pricing_plan_id":"cebpf4jnsgd1na2vs0mg"},{"bike_id":"1e93cb79-1aaf-4438-84c7-042ca661621c","system_id":"levelo_inurba_marseille","lat":43.31533,"lon":5.38027,"is_reserved":false,"is_disabled":false,"rental_uris":{"android":"levelo://app?vid=1e93cb79-1aaf-4438-84c7-042ca661621c","ios":"levelo://app?vid=1e93cb79-1aaf-4438-84c7-042ca661621c"},"vehicle_type_id":"4","last_reported":1726614587,"current_range_meters":12800,"station_id":"ce4bhsp2rcd13ifvqi50","pricing_plan_id":"cebpf4jnsgd1na2vs0mg"},{"bike_id":"f6c738da-8313-4c11-b9e7-c1d7fc004296","system_id":"levelo_inurba_marseille","lat":43.26033,"lon":5.37553,"is_reserved":false,"is_disabled":false,"rental_uris":{"android":"levelo://app?vid=f6c738da-8313-4c11-b9e7-c1d7fc004296","ios":"levelo://app?vid=f6c738da-8313-4c11-b9e7-c1d7fc004296"},"vehicle_type_id":"4","last_reported":1726614587,"current_range_meters":37600,"station_id":"ce4bhgh2rcd13ifvqfa0","pricing_plan_id":"cebpf4jnsgd1na2vs0mg"},{"bike_id":"4b161963-0c95-42fe-91a5-17368c2caba2","system_id":"levelo_inurba_marseille","lat":43.28076,"lon":5.39662,"is_reserved":false,"is_disabled":false,"rental_uris":{"android":"levelo://app?vid=4b161963-0c95-42fe-91a5-17368c2caba2","ios":"levelo://app?vid=4b161963-0c95-42fe-91a5-17368c2caba2"},"vehicle_type_id":"4","last_reported":1726614587,"current_range_meters":32000,"station_id":"ce4bho12rcd13ifvqh2g","pricing_plan_id":"cebpf4jnsgd1na2vs0mg"},{"bike_id":"0e7fa0af-7f2f-4ef9-9134-c3fffbdc0a42","system_id":"levelo_inurba_marseille","lat":43.31374,"lon":5.38502,"is_reserved":false,"is_disabled":false,"rental_uris":{"android":"levelo://app?vid=0e7fa0af-7f2f-4ef9-9134-c3fffbdc0a42","ios":"levelo://app?vid=0e7fa0af-7f2f-4ef9-9134-c3fffbdc0a42"},"vehicle_type_id":"4","last_reported":1726614587,"current_range_meters":30800,"station_id":"ce4bgt92rcd13ifvqcf0","pricing_plan_id":"cebpf4jnsgd1na2vs0mg"},{"bike_id":"d5f1460c-62a4-4849-84d1-6abadbca5fd7","system_id":"levelo_inurba_marseille","lat":43.29016,"lon":5.35611,"is_reserved":false,"is_disabled":false,"rental_uris":{"android":"levelo://app?vid=d5f1460c-62a4-4849-84d1-6abadbca5fd7","ios":"levelo://app?vid=d5f1460c-62a4-4849-84d1-6abadbca5fd7"},"vehicle_type_id":"4","last_reported":1726614587,"current_range_meters":31200,"station_id":"ce4bhb92rcd13ifvqen0","pricing_plan_id":"cebpf4jnsgd1na2vs0mg"},{"bike_id":"1ee132e3-4a1d-40ef-8f85-6c4472f2fe5e","system_id":"levelo_inurba_marseille","lat":43.33609,"lon":5.4103,"is_reserved":false,"is_disabled":false,"rental_uris":{"android":"levelo://app?vid=1ee132e3-4a1d-40ef-8f85-6c4472f2fe5e","ios":"levelo://app?vid=1ee132e3-4a1d-40ef-8f85-6c4472f2fe5e"},"vehicle_type_id":"4","last_reported":1726614587,"current_range_meters":34000,"station_id":"ce4bhqh2rcd13ifvqhmg","pricing_plan_id":"cebpf4jnsgd1na2vs0mg"},{"bike_id":"3a86cb65-3233-4f16-a4ce-b82fd671cddf","system_id":"levelo_inurba_marseille","lat":43.24553,"lon":5.39525,"is_reserved":false,"is_disabled":false,"rental_uris":{"android":"levelo://app?vid=3a86cb65-3233-4f16-a4ce-b82fd671cddf","ios":"levelo://app?vid=3a86cb65-3233-4f16-a4ce-b82fd671cddf"},"vehicle_type_id":"4","last_reported":1726614587,"current_range_meters":40000,"station_id":"ce4bhlp2rcd13ifvqgjg","pricing_plan_id":"cebpf4jnsgd1na2vs0mg"},{"bike_id":"8746bc86-84bc-469d-bc9c-452476199d12","system_id":"levelo_inurba_marseille","lat":43.26947,"lon":5.38638,"is_reserved":false,"is_disabled":false,"rental_uris":{"android":"levelo://app?vid=8746bc86-84bc-469d-bc9c-452476199d12","ios":"levelo://app?vid=8746bc86-84bc-469d-bc9c-452476199d12"},"vehicle_type_id":"4","last_reported":1726614587,"current_range_meters":38800,"station_id":"ce4bhh92rcd13ifvqfh0","pricing_plan_id":"cebpf4jnsgd1na2vs0mg"},{"bike_id":"e322896a-9301-4e00-8a2b-00ac0afcf56a","system_id":"levelo_inurba_marseille","lat":43.29711,"lon":5.36611,"is_reserved":false,"is_disabled":false,"rental_uris":{"android":"levelo://app?vid=e322896a-9301-4e00-8a2b-00ac0afcf56a","ios":"levelo://app?vid=e322896a-9301-4e00-8a2b-00ac0afcf56a"},"vehicle_type_id":"4","last_reported":1726614587,"current_range_meters":37600,"station_id":"ce4bgn12rcd13ifvqbt0","pricing_plan_id":"cebpf4jnsgd1na2vs0mg"},{"bike_id":"9fa2abd7-efe8-4722-9951-6fd979c6ceb5","system_id":"levelo_inurba_marseille","lat":43.27555,"lon":5.38406,"is_reserved":false,"is_disabled":false,"rental_uris":{"android":"levelo://app?vid=9fa2abd7-efe8-4722-9951-6fd979c6ceb5","ios":"levelo://app?vid=9fa2abd7-efe8-4722-9951-6fd979c6ceb5"},"vehicle_type_id":"4","last_reported":1726614587,"current_range_meters":10800,"station_id":"ce4bhh92rcd13ifvqfi0","pricing_plan_id":"cebpf4jnsgd1na2vs0mg"},{"bike_id":"d3182c5f-e0be-43bd-9e58-42e24c9d3afb","system_id":"levelo_inurba_marseille","lat":43.29034,"lon":5.39954,"is_reserved":false,"is_disabled":false,"rental_uris":{"android":"levelo://app?vid=d3182c5f-e0be-43bd-9e58-42e24c9d3afb","ios":"levelo://app?vid=d3182c5f-e0be-43bd-9e58-42e24c9d3afb"},"vehicle_type_id":"4","last_reported":1726614587,"current_range_meters":38800,"station_id":"ce4bh392rcd13ifvqdm0","pricing_plan_id":"cebpf4jnsgd1na2vs0mg"},{"bike_id":"f5beae20-6559-445f-ac60-a1371290e408","system_id":"levelo_inurba_marseille","lat":43.28419,"lon":5.34984,"is_reserved":false,"is_disabled":false,"rental_uris":{"android":"levelo://app?vid=f5beae20-6559-445f-ac60-a1371290e408","ios":"levelo://app?vid=f5beae20-6559-445f-ac60-a1371290e408"},"vehicle_type_id":"4","last_reported":1726614587,"current_range_meters":38800,"station_id":"ce4bhbh2rcd13ifvqepg","pricing_plan_id":"cebpf4jnsgd1na2vs0mg"},{"bike_id":"1af04a42-5ed6-4406-b3fc-ca556592689a","system_id":"levelo_inurba_marseille","lat":43.30936,"lon":5.40142,"is_reserved":false,"is_disabled":false,"rental_uris":{"android":"levelo://app?vid=1af04a42-5ed6-4406-b3fc-ca556592689a","ios":"levelo://app?vid=1af04a42-5ed6-4406-b3fc-ca556592689a"},"vehicle_type_id":"4","last_reported":1726614587,"current_range_meters":8000,"station_id":"ce4bgvp2rcd13ifvqct0","pricing_plan_id":"cebpf4jnsgd1na2vs0mg"},{"bike_id":"0dd917e9-49bd-4a0f-97a1-4ca49bb8c23e","system_id":"levelo_inurba_marseille","lat":43.25105,"lon":5.40323,"is_reserved":false,"is_disabled":false,"rental_uris":{"android":"levelo://app?vid=0dd917e9-49bd-4a0f-97a1-4ca49bb8c23e","ios":"levelo://app?vid=0dd917e9-49bd-4a0f-97a1-4ca49bb8c23e"},"vehicle_type_id":"4","last_reported":1726614587,"current_range_meters":36800,"station_id":"ce4bhlh2rcd13ifvqgig","pricing_plan_id":"cebpf4jnsgd1na2vs0mg"},{"bike_id":"e4310468-b479-45b9-b96a-b8bf52d6476b","system_id":"levelo_inurba_marseille","lat":43.2857,"lon":5.39499,"is_reserved":false,"is_disabled":false,"rental_uris":{"android":"levelo://app?vid=e4310468-b479-45b9-b96a-b8bf52d6476b","ios":"levelo://app?vid=e4310468-b479-45b9-b96a-b8bf52d6476b"},"vehicle_type_id":"4","last_reported":1726614587,"current_range_meters":39200,"station_id":"ce4bh292rcd13ifvqdg0","pricing_plan_id":"cebpf4jnsgd1na2vs0mg"},{"bike_id":"9155604b-445a-4922-9a51-e0f28076fd32","system_id":"levelo_inurba_marseille","lat":43.29307,"lon":5.37165,"is_reserved":false,"is_disabled":false,"rental_uris":{"android":"levelo://app?vid=9155604b-445a-4922-9a51-e0f28076fd32","ios":"levelo://app?vid=9155604b-445a-4922-9a51-e0f28076fd32"},"vehicle_type_id":"4","last_reported":1726614587,"current_range_meters":6800,"station_id":"ce4bgh92rcd13ifvqb40","pricing_plan_id":"cebpf4jnsgd1na2vs0mg"},{"bike_id":"9dbc1275-dff3-4f6f-ac47-2da20b7eaced","system_id":"levelo_inurba_marseille","lat":43.24082,"lon":5.37751,"is_reserved":false,"is_disabled":false,"rental_uris":{"android":"levelo://app?vid=9dbc1275-dff3-4f6f-ac47-2da20b7eaced","ios":"levelo://app?vid=9dbc1275-dff3-4f6f-ac47-2da20b7eaced"},"vehicle_type_id":"4","last_reported":1726614587,"current_range_meters":38400,"station_id":"ce4bhnp2rcd13ifvqgvg","pricing_plan_id":"cebpf4jnsgd1na2vs0mg"},{"bike_id":"9ea9f2c6-e3d7-4c8d-bac8-7d45ea471e22","system_id":"levelo_inurba_marseille","lat":43.29785,"lon":5.39352,"is_reserved":false,"is_disabled":false,"rental_uris":{"android":"levelo://app?vid=9ea9f2c6-e3d7-4c8d-bac8-7d45ea471e22","ios":"levelo://app?vid=9ea9f2c6-e3d7-4c8d-bac8-7d45ea471e22"},"vehicle_type_id":"4","last_reported":1726614587,"current_range_meters":39200,"station_id":"chh1huq6cuj3fo74tm60","pricing_plan_id":"cebpf4jnsgd1na2vs0mg"},{"bike_id":"99684f50-b398-427b-a4e9-7ca0a0382c79","system_id":"levelo_inurba_marseille","lat":43.23192,"lon":5.35552,"is_reserved":false,"is_disabled":false,"rental_uris":{"android":"levelo://app?vid=99684f50-b398-427b-a4e9-7ca0a0382c79","ios":"levelo://app?vid=99684f50-b398-427b-a4e9-7ca0a0382c79"},"vehicle_type_id":"4","last_reported":1726614587,"current_range_meters":39200,"station_id":"ce4bhu92rcd13ifvqi70","pricing_plan_id":"cebpf4jnsgd1na2vs0mg"},{"bike_id":"53ca7fde-037f-43ce-a43e-6f1979a83add","system_id":"levelo_inurba_marseille","lat":43.27918,"lon":5.39577,"is_reserved":false,"is_disabled":false,"rental_uris":{"android":"levelo://app?vid=53ca7fde-037f-43ce-a43e-6f1979a83add","ios":"levelo://app?vid=53ca7fde-037f-43ce-a43e-6f1979a83add"},"vehicle_type_id":"4","last_reported":1726614587,"current_range_meters":38400,"station_id":"ce4bhf92rcd13ifvqf40","pricing_plan_id":"cebpf4jnsgd1na2vs0mg"},{"bike_id":"d782c430-b2c7-45ce-aaaf-78dc9a80ca97","system_id":"levelo_inurba_marseille","lat":43.33028,"lon":5.39043,"is_reserved":false,"is_disabled":false,"rental_uris":{"android":"levelo://app?vid=d782c430-b2c7-45ce-aaaf-78dc9a80ca97","ios":"levelo://app?vid=d782c430-b2c7-45ce-aaaf-78dc9a80ca97"},"vehicle_type_id":"4","last_reported":1726614587,"current_range_meters":26800,"station_id":"ce4bhr92rcd13ifvqhrg","pricing_plan_id":"cebpf4jnsgd1na2vs0mg"},{"bike_id":"0af0f861-5036-4dc4-9b7d-6295edaa3406","system_id":"levelo_inurba_marseille","lat":43.27908,"lon":5.39582,"is_reserved":false,"is_disabled":false,"rental_uris":{"android":"levelo://app?vid=0af0f861-5036-4dc4-9b7d-6295edaa3406","ios":"levelo://app?vid=0af0f861-5036-4dc4-9b7d-6295edaa3406"},"vehicle_type_id":"4","last_reported":1726614587,"current_range_meters":38800,"station_id":"ce4bhf92rcd13ifvqf40","pricing_plan_id":"cebpf4jnsgd1na2vs0mg"},{"bike_id":"dd4b5128-6c65-4324-96d6-df731de78aa8","system_id":"levelo_inurba_marseille","lat":43.33023,"lon":5.39036,"is_reserved":false,"is_disabled":false,"rental_uris":{"android":"levelo://app?vid=dd4b5128-6c65-4324-96d6-df731de78aa8","ios":"levelo://app?vid=dd4b5128-6c65-4324-96d6-df731de78aa8"},"vehicle_type_id":"4","last_reported":1726614587,"current_range_meters":24400,"station_id":"ce4bhr92rcd13ifvqhrg","pricing_plan_id":"cebpf4jnsgd1na2vs0mg"},{"bike_id":"6c1468de-e14a-407b-9a20-3cdfa0922744","system_id":"levelo_inurba_marseille","lat":43.2847,"lon":5.35886,"is_reserved":false,"is_disabled":false,"rental_uris":{"android":"levelo://app?vid=6c1468de-e14a-407b-9a20-3cdfa0922744","ios":"levelo://app?vid=6c1468de-e14a-407b-9a20-3cdfa0922744"},"vehicle_type_id":"4","last_reported":1726614587,"current_range_meters":39200,"station_id":"ce4bhah2rcd13ifvqei0","pricing_plan_id":"cebpf4jnsgd1na2vs0mg"},{"bike_id":"0df89eec-3fde-4522-a054-f887329a4884","system_id":"levelo_inurba_marseille","lat":43.30305,"lon":5.39197,"is_reserved":false,"is_disabled":false,"rental_uris":{"android":"levelo://app?vid=0df89eec-3fde-4522-a054-f887329a4884","ios":"levelo://app?vid=0df89eec-3fde-4522-a054-f887329a4884"},"vehicle_type_id":"4","last_reported":1726614587,"current_range_meters":37600,"station_id":"ce4bgkh2rcd13ifvqbk0","pricing_plan_id":"cebpf4jnsgd1na2vs0mg"},{"bike_id":"2b714e73-49f8-4f26-bb6d-7d72ce23aabc","system_id":"levelo_inurba_marseille","lat":43.23053,"lon":5.35488,"is_reserved":false,"is_disabled":false,"rental_uris":{"android":"levelo://app?vid=2b714e73-49f8-4f26-bb6d-7d72ce23aabc","ios":"levelo://app?vid=2b714e73-49f8-4f26-bb6d-7d72ce23aabc"},"vehicle_type_id":"4","last_reported":1726614587,"current_range_meters":10000,"station_id":"cpo3342slgdg3j2ifvpg","pricing_plan_id":"cebpf4jnsgd1na2vs0mg"},{"bike_id":"280edbb9-c9f7-47cf-b04d-fab8f8df696b","system_id":"levelo_inurba_marseille","lat":43.30932,"lon":5.40153,"is_reserved":false,"is_disabled":false,"rental_uris":{"android":"levelo://app?vid=280edbb9-c9f7-47cf-b04d-fab8f8df696b","ios":"levelo://app?vid=280edbb9-c9f7-47cf-b04d-fab8f8df696b"},"vehicle_type_id":"4","last_reported":1726614587,"current_range_meters":39200,"station_id":"ce4bgvp2rcd13ifvqct0","pricing_plan_id":"cebpf4jnsgd1na2vs0mg"},{"bike_id":"dbe3bd51-a4fd-4626-b901-e2e0e6375c89","system_id":"levelo_inurba_marseille","lat":43.28496,"lon":5.38538,"is_reserved":false,"is_disabled":false,"rental_uris":{"android":"levelo://app?vid=dbe3bd51-a4fd-4626-b901-e2e0e6375c89","ios":"levelo://app?vid=dbe3bd51-a4fd-4626-b901-e2e0e6375c89"},"vehicle_type_id":"4","last_reported":1726614587,"current_range_meters":38800,"station_id":"ce4bh8p2rcd13ifvqeb0","pricing_plan_id":"cebpf4jnsgd1na2vs0mg"},{"bike_id":"459391a2-7378-4a0b-9a46-bad263ec195c","system_id":"levelo_inurba_marseille","lat":43.31531,"lon":5.38039,"is_reserved":false,"is_disabled":false,"rental_uris":{"android":"levelo://app?vid=459391a2-7378-4a0b-9a46-bad263ec195c","ios":"levelo://app?vid=459391a2-7378-4a0b-9a46-bad263ec195c"},"vehicle_type_id":"4","last_reported":1726614587,"current_range_meters":36800,"station_id":"ce4bhsp2rcd13ifvqi50","pricing_plan_id":"cebpf4jnsgd1na2vs0mg"},{"bike_id":"24b6223a-97c2-4a98-b8cd-63273ae1c7bd","system_id":"levelo_inurba_marseille","lat":43.31368,"lon":5.38501,"is_reserved":false,"is_disabled":false,"rental_uris":{"android":"levelo://app?vid=24b6223a-97c2-4a98-b8cd-63273ae1c7bd","ios":"levelo://app?vid=24b6223a-97c2-4a98-b8cd-63273ae1c7bd"},"vehicle_type_id":"4","last_reported":1726614587,"current_range_meters":31200,"station_id":"ce4bgt92rcd13ifvqcf0","pricing_plan_id":"cebpf4jnsgd1na2vs0mg"},{"bike_id":"62c2e691-b15e-4b15-aa0b-a3cce6a07671","system_id":"levelo_inurba_marseille","lat":43.2871,"lon":5.3998,"is_reserved":false,"is_disabled":false,"rental_uris":{"android":"levelo://app?vid=62c2e691-b15e-4b15-aa0b-a3cce6a07671","ios":"levelo://app?vid=62c2e691-b15e-4b15-aa0b-a3cce6a07671"},"vehicle_type_id":"4","last_reported":1726614587,"current_range_meters":14400,"station_id":"ce4bho92rcd13ifvqh3g","pricing_plan_id":"cebpf4jnsgd1na2vs0mg"},{"bike_id":"33f69f3f-8823-49c1-90ed-ec30bb04d814","system_id":"levelo_inurba_marseille","lat":43.24073,"lon":5.37757,"is_reserved":false,"is_disabled":false,"rental_uris":{"android":"levelo://app?vid=33f69f3f-8823-49c1-90ed-ec30bb04d814","ios":"levelo://app?vid=33f69f3f-8823-49c1-90ed-ec30bb04d814"},"vehicle_type_id":"4","last_reported":1726614587,"current_range_meters":38800,"station_id":"ce4bhnp2rcd13ifvqgvg","pricing_plan_id":"cebpf4jnsgd1na2vs0mg"},{"bike_id":"d1d6e796-d9a9-418a-8207-676d498db106","system_id":"levelo_inurba_marseille","lat":43.28036,"lon":5.36949,"is_reserved":false,"is_disabled":false,"rental_uris":{"android":"levelo://app?vid=d1d6e796-d9a9-418a-8207-676d498db106","ios":"levelo://app?vid=d1d6e796-d9a9-418a-8207-676d498db106"},"vehicle_type_id":"4","last_reported":1726614587,"current_range_meters":3200,"station_id":"ce4bha12rcd13ifvqef0","pricing_plan_id":"cebpf4jnsgd1na2vs0mg"},{"bike_id":"e8befb56-1303-484d-9ed5-cb1654ca2bd2","system_id":"levelo_inurba_marseille","lat":43.23966,"lon":5.36625,"is_reserved":false,"is_disabled":false,"rental_uris":{"android":"levelo://app?vid=e8befb56-1303-484d-9ed5-cb1654ca2bd2","ios":"levelo://app?vid=e8befb56-1303-484d-9ed5-cb1654ca2bd2"},"vehicle_type_id":"4","last_reported":1726614587,"current_range_meters":38400,"station_id":"ce4bhi12rcd13ifvqfp0","pricing_plan_id":"cebpf4jnsgd1na2vs0mg"},{"bike_id":"2e4c0d1a-a4a2-40d5-9c70-26993c46a5f6","system_id":"levelo_inurba_marseille","lat":43.23222,"lon":5.35561,"is_reserved":false,"is_disabled":false,"rental_uris":{"android":"levelo://app?vid=2e4c0d1a-a4a2-40d5-9c70-26993c46a5f6","ios":"levelo://app?vid=2e4c0d1a-a4a2-40d5-9c70-26993c46a5f6"},"vehicle_type_id":"4","last_reported":1726614587,"current_range_meters":38400,"station_id":"ce4bhu92rcd13ifvqi70","pricing_plan_id":"cebpf4jnsgd1na2vs0mg"},{"bike_id":"2af8965c-c953-4ba3-b2f3-481d779c63e0","system_id":"levelo_inurba_marseille","lat":43.27922,"lon":5.39584,"is_reserved":false,"is_disabled":false,"rental_uris":{"android":"levelo://app?vid=2af8965c-c953-4ba3-b2f3-481d779c63e0","ios":"levelo://app?vid=2af8965c-c953-4ba3-b2f3-481d779c63e0"},"vehicle_type_id":"4","last_reported":1726614587,"current_range_meters":36400,"station_id":"ce4bhf92rcd13ifvqf40","pricing_plan_id":"cebpf4jnsgd1na2vs0mg"},{"bike_id":"93e4745f-dfd5-4da8-a478-9cc1344f3317","system_id":"levelo_inurba_marseille","lat":43.27924,"lon":5.37998,"is_reserved":false,"is_disabled":false,"rental_uris":{"android":"levelo://app?vid=93e4745f-dfd5-4da8-a478-9cc1344f3317","ios":"levelo://app?vid=93e4745f-dfd5-4da8-a478-9cc1344f3317"},"vehicle_type_id":"4","last_reported":1726614587,"current_range_meters":32400,"station_id":"ce4bhf92rcd13ifvqf50","pricing_plan_id":"cebpf4jnsgd1na2vs0mg"},{"bike_id":"723d9cba-0b7b-4081-9b5b-6c3cb81c2943","system_id":"levelo_inurba_marseille","lat":43.28573,"lon":5.39491,"is_reserved":false,"is_disabled":false,"rental_uris":{"android":"levelo://app?vid=723d9cba-0b7b-4081-9b5b-6c3cb81c2943","ios":"levelo://app?vid=723d9cba-0b7b-4081-9b5b-6c3cb81c2943"},"vehicle_type_id":"4","last_reported":1726614587,"current_range_meters":12400,"station_id":"ce4bh292rcd13ifvqdg0","pricing_plan_id":"cebpf4jnsgd1na2vs0mg"},{"bike_id":"c5fef12e-b96d-4da4-b077-b267075bbcac","system_id":"levelo_inurba_marseille","lat":43.22931,"lon":5.35378,"is_reserved":false,"is_disabled":false,"rental_uris":{"android":"levelo://app?vid=c5fef12e-b96d-4da4-b077-b267075bbcac","ios":"levelo://app?vid=c5fef12e-b96d-4da4-b077-b267075bbcac"},"vehicle_type_id":"4","last_reported":1726614587,"current_range_meters":24800,"station_id":"cpo3532slgdg3j2ikp40","pricing_plan_id":"cebpf4jnsgd1na2vs0mg"},{"bike_id":"4e2c2699-3b3a-4d93-8b4c-cf2922b45c99","system_id":"levelo_inurba_marseille","lat":43.24077,"lon":5.37755,"is_reserved":false,"is_disabled":false,"rental_uris":{"android":"levelo://app?vid=4e2c2699-3b3a-4d93-8b4c-cf2922b45c99","ios":"levelo://app?vid=4e2c2699-3b3a-4d93-8b4c-cf2922b45c99"},"vehicle_type_id":"4","last_reported":1726614587,"current_range_meters":30800,"station_id":"ce4bhnp2rcd13ifvqgvg","pricing_plan_id":"cebpf4jnsgd1na2vs0mg"},{"bike_id":"4f9b175d-6709-4bd5-af4a-8d676b6c24c7","system_id":"levelo_inurba_marseille","lat":43.29975,"lon":5.38489,"is_reserved":false,"is_disabled":false,"rental_uris":{"android":"levelo://app?vid=4f9b175d-6709-4bd5-af4a-8d676b6c24c7","ios":"levelo://app?vid=4f9b175d-6709-4bd5-af4a-8d676b6c24c7"},"vehicle_type_id":"4","last_reported":1726614587,"current_range_meters":16000,"station_id":"ce4bgj92rcd13ifvqbd0","pricing_plan_id":"cebpf4jnsgd1na2vs0mg"},{"bike_id":"90e2b18d-d1e2-4bf6-a003-0d1f75a4b523","system_id":"levelo_inurba_marseille","lat":43.30597,"lon":5.39353,"is_reserved":false,"is_disabled":false,"rental_uris":{"android":"levelo://app?vid=90e2b18d-d1e2-4bf6-a003-0d1f75a4b523","ios":"levelo://app?vid=90e2b18d-d1e2-4bf6-a003-0d1f75a4b523"},"vehicle_type_id":"4","last_reported":1726614587,"current_range_meters":38400,"station_id":"ce4bh0p2rcd13ifvqd80","pricing_plan_id":"cebpf4jnsgd1na2vs0mg"},{"bike_id":"a7be0048-56e8-44d3-8c87-6ae798b1b51b","system_id":"levelo_inurba_marseille","lat":43.29891,"lon":5.38911,"is_reserved":false,"is_disabled":false,"rental_uris":{"android":"levelo://app?vid=a7be0048-56e8-44d3-8c87-6ae798b1b51b","ios":"levelo://app?vid=a7be0048-56e8-44d3-8c87-6ae798b1b51b"},"vehicle_type_id":"4","last_reported":1726614587,"current_range_meters":38800,"station_id":"ce4bh392rcd13ifvqdl0","pricing_plan_id":"cebpf4jnsgd1na2vs0mg"},{"bike_id":"255def12-1a7e-4787-b2e4-a6a54888a394","system_id":"levelo_inurba_marseille","lat":43.32472,"lon":5.36603,"is_reserved":false,"is_disabled":false,"rental_uris":{"android":"levelo://app?vid=255def12-1a7e-4787-b2e4-a6a54888a394","ios":"levelo://app?vid=255def12-1a7e-4787-b2e4-a6a54888a394"},"vehicle_type_id":"4","last_reported":1726614587,"current_range_meters":4800,"station_id":"ce4bhs12rcd13ifvqhvg","pricing_plan_id":"cebpf4jnsgd1na2vs0mg"},{"bike_id":"6dd17a2f-59bb-4453-859d-2c09ab795824","system_id":"levelo_inurba_marseille","lat":43.33024,"lon":5.39043,"is_reserved":false,"is_disabled":false,"rental_uris":{"android":"levelo://app?vid=6dd17a2f-59bb-4453-859d-2c09ab795824","ios":"levelo://app?vid=6dd17a2f-59bb-4453-859d-2c09ab795824"},"vehicle_type_id":"4","last_reported":1726614587,"current_range_meters":28000,"station_id":"ce4bhr92rcd13ifvqhrg","pricing_plan_id":"cebpf4jnsgd1na2vs0mg"},{"bike_id":"9740b922-5de1-4684-a3be-d5f1fc782fef","system_id":"levelo_inurba_marseille","lat":43.28565,"lon":5.39495,"is_reserved":false,"is_disabled":false,"rental_uris":{"android":"levelo://app?vid=9740b922-5de1-4684-a3be-d5f1fc782fef","ios":"levelo://app?vid=9740b922-5de1-4684-a3be-d5f1fc782fef"},"vehicle_type_id":"4","last_reported":1726614587,"current_range_meters":38000,"station_id":"ce4bh292rcd13ifvqdg0","pricing_plan_id":"cebpf4jnsgd1na2vs0mg"},{"bike_id":"da6abfdc-2dab-4514-ba8e-0e1fdf4449e1","system_id":"levelo_inurba_marseille","lat":43.2988,"lon":5.39742,"is_reserved":false,"is_disabled":false,"rental_uris":{"android":"levelo://app?vid=da6abfdc-2dab-4514-ba8e-0e1fdf4449e1","ios":"levelo://app?vid=da6abfdc-2dab-4514-ba8e-0e1fdf4449e1"},"vehicle_type_id":"4","last_reported":1726614587,"current_range_meters":38800,"station_id":"ce4bh0h2rcd13ifvqd50","pricing_plan_id":"cebpf4jnsgd1na2vs0mg"},{"bike_id":"ef774c60-52ab-40fd-aefb-ae7b262727d5","system_id":"levelo_inurba_marseille","lat":43.31275,"lon":5.40173,"is_reserved":false,"is_disabled":false,"rental_uris":{"android":"levelo://app?vid=ef774c60-52ab-40fd-aefb-ae7b262727d5","ios":"levelo://app?vid=ef774c60-52ab-40fd-aefb-ae7b262727d5"},"vehicle_type_id":"4","last_reported":1726614587,"current_range_meters":38800,"station_id":"ce4bh092rcd13ifvqd30","pricing_plan_id":"cebpf4jnsgd1na2vs0mg"},{"bike_id":"a17acf09-f087-4d49-a12d-f0daedd3abe6","system_id":"levelo_inurba_marseille","lat":43.30802,"lon":5.43525,"is_reserved":false,"is_disabled":false,"rental_uris":{"android":"levelo://app?vid=a17acf09-f087-4d49-a12d-f0daedd3abe6","ios":"levelo://app?vid=a17acf09-f087-4d49-a12d-f0daedd3abe6"},"vehicle_type_id":"4","last_reported":1726614587,"current_range_meters":38800,"station_id":"ce4bhph2rcd13ifvqheg","pricing_plan_id":"cebpf4jnsgd1na2vs0mg"},{"bike_id":"7050c3fc-5fdc-468c-8737-4feab9a71872","system_id":"levelo_inurba_marseille","lat":43.27623,"lon":5.3611,"is_reserved":false,"is_disabled":false,"rental_uris":{"android":"levelo://app?vid=7050c3fc-5fdc-468c-8737-4feab9a71872","ios":"levelo://app?vid=7050c3fc-5fdc-468c-8737-4feab9a71872"},"vehicle_type_id":"4","last_reported":1726614587,"current_range_meters":38800,"station_id":"ce4bgj92rcd13ifvqbe0","pricing_plan_id":"cebpf4jnsgd1na2vs0mg"},{"bike_id":"8933d20e-7afd-470d-be8c-0cc87d5060b6","system_id":"levelo_inurba_marseille","lat":43.27988,"lon":5.38735,"is_reserved":false,"is_disabled":false,"rental_uris":{"android":"levelo://app?vid=8933d20e-7afd-470d-be8c-0cc87d5060b6","ios":"levelo://app?vid=8933d20e-7afd-470d-be8c-0cc87d5060b6"},"vehicle_type_id":"4","last_reported":1726614587,"current_range_meters":20400,"station_id":"ce4bhg12rcd13ifvqf80","pricing_plan_id":"cebpf4jnsgd1na2vs0mg"},{"bike_id":"8439a2e5-87ad-4a4a-ba59-bf0b9f4f5f4b","system_id":"levelo_inurba_marseille","lat":43.29715,"lon":5.36609,"is_reserved":false,"is_disabled":false,"rental_uris":{"android":"levelo://app?vid=8439a2e5-87ad-4a4a-ba59-bf0b9f4f5f4b","ios":"levelo://app?vid=8439a2e5-87ad-4a4a-ba59-bf0b9f4f5f4b"},"vehicle_type_id":"4","last_reported":1726614587,"current_range_meters":16800,"station_id":"ce4bgn12rcd13ifvqbt0","pricing_plan_id":"cebpf4jnsgd1na2vs0mg"},{"bike_id":"4b8b78f3-f005-4335-bdfa-f817b956c065","system_id":"levelo_inurba_marseille","lat":43.25582,"lon":5.38244,"is_reserved":false,"is_disabled":false,"rental_uris":{"android":"levelo://app?vid=4b8b78f3-f005-4335-bdfa-f817b956c065","ios":"levelo://app?vid=4b8b78f3-f005-4335-bdfa-f817b956c065"},"vehicle_type_id":"4","last_reported":1726614587,"current_range_meters":38800,"station_id":"ce4bhih2rcd13ifvqfs0","pricing_plan_id":"cebpf4jnsgd1na2vs0mg"},{"bike_id":"0b417632-b4a4-451a-b48f-4e8cacf6fe0b","system_id":"levelo_inurba_marseille","lat":43.2319,"lon":5.39997,"is_reserved":false,"is_disabled":false,"rental_uris":{"android":"levelo://app?vid=0b417632-b4a4-451a-b48f-4e8cacf6fe0b","ios":"levelo://app?vid=0b417632-b4a4-451a-b48f-4e8cacf6fe0b"},"vehicle_type_id":"4","last_reported":1726614587,"current_range_meters":38800,"station_id":"ce4bhn12rcd13ifvqgqg","pricing_plan_id":"cebpf4jnsgd1na2vs0mg"},{"bike_id":"70fc7e83-326c-4da5-9b44-70451b78b4c2","system_id":"levelo_inurba_marseille","lat":43.32482,"lon":5.3658,"is_reserved":false,"is_disabled":false,"rental_uris":{"android":"levelo://app?vid=70fc7e83-326c-4da5-9b44-70451b78b4c2","ios":"levelo://app?vid=70fc7e83-326c-4da5-9b44-70451b78b4c2"},"vehicle_type_id":"4","last_reported":1726614587,"current_range_meters":13600,"station_id":"ce4bhs12rcd13ifvqhvg","pricing_plan_id":"cebpf4jnsgd1na2vs0mg"},{"bike_id":"1522ee2e-2bde-44fb-9e73-60b151d9acc2","system_id":"levelo_inurba_marseille","lat":43.25085,"lon":5.39523,"is_reserved":false,"is_disabled":false,"rental_uris":{"android":"levelo://app?vid=1522ee2e-2bde-44fb-9e73-60b151d9acc2","ios":"levelo://app?vid=1522ee2e-2bde-44fb-9e73-60b151d9acc2"},"vehicle_type_id":"4","last_reported":1726614587,"current_range_meters":8800,"station_id":"ce4bhm12rcd13ifvqgkg","pricing_plan_id":"cebpf4jnsgd1na2vs0mg"},{"bike_id":"6bbde286-5333-403d-b932-6c6db8cf9589","system_id":"levelo_inurba_marseille","lat":43.30613,"lon":5.37235,"is_reserved":false,"is_disabled":false,"rental_uris":{"android":"levelo://app?vid=6bbde286-5333-403d-b932-6c6db8cf9589","ios":"levelo://app?vid=6bbde286-5333-403d-b932-6c6db8cf9589"},"vehicle_type_id":"4","last_reported":1726614587,"current_range_meters":6400,"station_id":"ce4bgqh2rcd13ifvqc4g","pricing_plan_id":"cebpf4jnsgd1na2vs0mg"},{"bike_id":"8ce541f6-ab3e-4095-adec-4a102acf8ab1","system_id":"levelo_inurba_marseille","lat":43.24181,"lon":5.39719,"is_reserved":false,"is_disabled":false,"rental_uris":{"android":"levelo://app?vid=8ce541f6-ab3e-4095-adec-4a102acf8ab1","ios":"levelo://app?vid=8ce541f6-ab3e-4095-adec-4a102acf8ab1"},"vehicle_type_id":"4","last_reported":1726614587,"current_range_meters":39200,"station_id":"ce4bhn12rcd13ifvqgpg","pricing_plan_id":"cebpf4jnsgd1na2vs0mg"},{"bike_id":"8d9f1c04-c36f-42f8-8dd4-e869b55a7d2c","system_id":"levelo_inurba_marseille","lat":43.24188,"lon":5.39719,"is_reserved":false,"is_disabled":false,"rental_uris":{"android":"levelo://app?vid=8d9f1c04-c36f-42f8-8dd4-e869b55a7d2c","ios":"levelo://app?vid=8d9f1c04-c36f-42f8-8dd4-e869b55a7d2c"},"vehicle_type_id":"4","last_reported":1726614587,"current_range_meters":25200,"station_id":"ce4bhn12rcd13ifvqgpg","pricing_plan_id":"cebpf4jnsgd1na2vs0mg"},{"bike_id":"446b2bff-a89e-45e8-a0b9-5ba39ecd2ea0","system_id":"levelo_inurba_marseille","lat":43.27372,"lon":5.36256,"is_reserved":false,"is_disabled":false,"rental_uris":{"android":"levelo://app?vid=446b2bff-a89e-45e8-a0b9-5ba39ecd2ea0","ios":"levelo://app?vid=446b2bff-a89e-45e8-a0b9-5ba39ecd2ea0"},"vehicle_type_id":"4","last_reported":1726614587,"current_range_meters":27600,"station_id":"ce4bhbh2rcd13ifvqeo0","pricing_plan_id":"cebpf4jnsgd1na2vs0mg"},{"bike_id":"79cd4f56-79fe-4ed5-a2f5-de8920f3ecf2","system_id":"levelo_inurba_marseille","lat":43.29787,"lon":5.39353,"is_reserved":false,"is_disabled":false,"rental_uris":{"android":"levelo://app?vid=79cd4f56-79fe-4ed5-a2f5-de8920f3ecf2","ios":"levelo://app?vid=79cd4f56-79fe-4ed5-a2f5-de8920f3ecf2"},"vehicle_type_id":"4","last_reported":1726614587,"current_range_meters":10000,"station_id":"chh1huq6cuj3fo74tm60","pricing_plan_id":"cebpf4jnsgd1na2vs0mg"},{"bike_id":"fe78de42-3113-4d74-9793-bfa3fe7c2bfc","system_id":"levelo_inurba_marseille","lat":43.29262,"lon":5.40917,"is_reserved":false,"is_disabled":false,"rental_uris":{"android":"levelo://app?vid=fe78de42-3113-4d74-9793-bfa3fe7c2bfc","ios":"levelo://app?vid=fe78de42-3113-4d74-9793-bfa3fe7c2bfc"},"vehicle_type_id":"4","last_reported":1726614587,"current_range_meters":38800,"station_id":"ce4bh192rcd13ifvqdc0","pricing_plan_id":"cebpf4jnsgd1na2vs0mg"},{"bike_id":"6cc72428-4718-4463-ab5d-eb884f32f1be","system_id":"levelo_inurba_marseille","lat":43.28708,"lon":5.37372,"is_reserved":false,"is_disabled":false,"rental_uris":{"android":"levelo://app?vid=6cc72428-4718-4463-ab5d-eb884f32f1be","ios":"levelo://app?vid=6cc72428-4718-4463-ab5d-eb884f32f1be"},"vehicle_type_id":"4","last_reported":1726614587,"current_range_meters":38000,"station_id":"ce4bh3p2rcd13ifvqdq0","pricing_plan_id":"cebpf4jnsgd1na2vs0mg"},{"bike_id":"4e7610a5-9867-422f-a1e3-ff8c4d964791","system_id":"levelo_inurba_marseille","lat":43.25084,"lon":5.3952,"is_reserved":false,"is_disabled":false,"rental_uris":{"android":"levelo://app?vid=4e7610a5-9867-422f-a1e3-ff8c4d964791","ios":"levelo://app?vid=4e7610a5-9867-422f-a1e3-ff8c4d964791"},"vehicle_type_id":"4","last_reported":1726614587,"current_range_meters":30000,"station_id":"ce4bhm12rcd13ifvqgkg","pricing_plan_id":"cebpf4jnsgd1na2vs0mg"},{"bike_id":"eff58d7e-51e0-4a12-b583-83be93b6ef56","system_id":"levelo_inurba_marseille","lat":43.30901,"lon":5.37191,"is_reserved":false,"is_disabled":false,"rental_uris":{"android":"levelo://app?vid=eff58d7e-51e0-4a12-b583-83be93b6ef56","ios":"levelo://app?vid=eff58d7e-51e0-4a12-b583-83be93b6ef56"},"vehicle_type_id":"4","last_reported":1726614587,"current_range_meters":39200,"station_id":"ce4bguh2rcd13ifvqckg","pricing_plan_id":"cebpf4jnsgd1na2vs0mg"},{"bike_id":"b8ba16ca-80d7-40a9-950b-c55594c9f906","system_id":"levelo_inurba_marseille","lat":43.28615,"lon":5.35102,"is_reserved":false,"is_disabled":false,"rental_uris":{"android":"levelo://app?vid=b8ba16ca-80d7-40a9-950b-c55594c9f906","ios":"levelo://app?vid=b8ba16ca-80d7-40a9-950b-c55594c9f906"},"vehicle_type_id":"4","last_reported":1726614587,"current_range_meters":30000,"station_id":"ce4bhch2rcd13ifvqeug","pricing_plan_id":"cebpf4jnsgd1na2vs0mg"},{"bike_id":"85f35905-070a-4a43-b69b-19cfcf5195a8","system_id":"levelo_inurba_marseille","lat":43.29561,"lon":5.42285,"is_reserved":false,"is_disabled":false,"rental_uris":{"android":"levelo://app?vid=85f35905-070a-4a43-b69b-19cfcf5195a8","ios":"levelo://app?vid=85f35905-070a-4a43-b69b-19cfcf5195a8"},"vehicle_type_id":"4","last_reported":1726614587,"current_range_meters":38000,"station_id":"ce4bhph2rcd13ifvqhdg","pricing_plan_id":"cebpf4jnsgd1na2vs0mg"},{"bike_id":"19b8adc4-5819-4538-988b-d09551c0619f","system_id":"levelo_inurba_marseille","lat":43.25723,"lon":5.41117,"is_reserved":false,"is_disabled":false,"rental_uris":{"android":"levelo://app?vid=19b8adc4-5819-4538-988b-d09551c0619f","ios":"levelo://app?vid=19b8adc4-5819-4538-988b-d09551c0619f"},"vehicle_type_id":"4","last_reported":1726614587,"current_range_meters":34000,"station_id":"ce4bhkp2rcd13ifvqgd0","pricing_plan_id":"cebpf4jnsgd1na2vs0mg"},{"bike_id":"93f15f53-34de-40b4-82de-9beb2ca6def2","system_id":"levelo_inurba_marseille","lat":43.25867,"lon":5.39902,"is_reserved":false,"is_disabled":false,"rental_uris":{"android":"levelo://app?vid=93f15f53-34de-40b4-82de-9beb2ca6def2","ios":"levelo://app?vid=93f15f53-34de-40b4-82de-9beb2ca6def2"},"vehicle_type_id":"4","last_reported":1726614587,"current_range_meters":28400,"station_id":"ce4bhl92rcd13ifvqghg","pricing_plan_id":"cebpf4jnsgd1na2vs0mg"},{"bike_id":"5ad76090-8691-48ec-9040-016e70c34f7b","system_id":"levelo_inurba_marseille","lat":43.28043,"lon":5.3694,"is_reserved":false,"is_disabled":false,"rental_uris":{"android":"levelo://app?vid=5ad76090-8691-48ec-9040-016e70c34f7b","ios":"levelo://app?vid=5ad76090-8691-48ec-9040-016e70c34f7b"},"vehicle_type_id":"4","last_reported":1726614587,"current_range_meters":32400,"station_id":"ce4bha12rcd13ifvqef0","pricing_plan_id":"cebpf4jnsgd1na2vs0mg"},{"bike_id":"54c25936-0917-4d26-b1d6-5f1b310d5d09","system_id":"levelo_inurba_marseille","lat":43.26061,"lon":5.39399,"is_reserved":false,"is_disabled":false,"rental_uris":{"android":"levelo://app?vid=54c25936-0917-4d26-b1d6-5f1b310d5d09","ios":"levelo://app?vid=54c25936-0917-4d26-b1d6-5f1b310d5d09"},"vehicle_type_id":"4","last_reported":1726614587,"current_range_meters":5600,"station_id":"ce4bhh92rcd13ifvqfj0","pricing_plan_id":"cebpf4jnsgd1na2vs0mg"},{"bike_id":"488f6208-7d65-408c-8e8a-7fd5ce88a449","system_id":"levelo_inurba_marseille","lat":43.28729,"lon":5.36094,"is_reserved":false,"is_disabled":false,"rental_uris":{"android":"levelo://app?vid=488f6208-7d65-408c-8e8a-7fd5ce88a449","ios":"levelo://app?vid=488f6208-7d65-408c-8e8a-7fd5ce88a449"},"vehicle_type_id":"4","last_reported":1726614587,"current_range_meters":8000,"station_id":"cki0cbj6b192h4jlfktg","pricing_plan_id":"cebpf4jnsgd1na2vs0mg"},{"bike_id":"8df9b443-9de8-4722-8249-b1177eae6398","system_id":"levelo_inurba_marseille","lat":43.29793,"lon":5.39346,"is_reserved":false,"is_disabled":false,"rental_uris":{"android":"levelo://app?vid=8df9b443-9de8-4722-8249-b1177eae6398","ios":"levelo://app?vid=8df9b443-9de8-4722-8249-b1177eae6398"},"vehicle_type_id":"4","last_reported":1726614587,"current_range_meters":38800,"station_id":"chh1huq6cuj3fo74tm60","pricing_plan_id":"cebpf4jnsgd1na2vs0mg"},{"bike_id":"c96515ba-3d08-45f0-9935-5383de090b37","system_id":"levelo_inurba_marseille","lat":43.2846,"lon":5.35883,"is_reserved":false,"is_disabled":false,"rental_uris":{"android":"levelo://app?vid=c96515ba-3d08-45f0-9935-5383de090b37","ios":"levelo://app?vid=c96515ba-3d08-45f0-9935-5383de090b37"},"vehicle_type_id":"4","last_reported":1726614587,"current_range_meters":3600,"station_id":"ce4bhah2rcd13ifvqei0","pricing_plan_id":"cebpf4jnsgd1na2vs0mg"},{"bike_id":"fb532b74-5d2a-452c-b1a9-cb0dfb602d3c","system_id":"levelo_inurba_marseille","lat":43.25828,"lon":5.39421,"is_reserved":false,"is_disabled":false,"rental_uris":{"android":"levelo://app?vid=fb532b74-5d2a-452c-b1a9-cb0dfb602d3c","ios":"levelo://app?vid=fb532b74-5d2a-452c-b1a9-cb0dfb602d3c"},"vehicle_type_id":"4","last_reported":1726614587,"current_range_meters":10800,"station_id":"ce4bhip2rcd13ifvqft0","pricing_plan_id":"cebpf4jnsgd1na2vs0mg"},{"bike_id":"ab24a954-34a3-48ed-808a-51904da89fe4","system_id":"levelo_inurba_marseille","lat":43.28087,"lon":5.3967,"is_reserved":false,"is_disabled":false,"rental_uris":{"android":"levelo://app?vid=ab24a954-34a3-48ed-808a-51904da89fe4","ios":"levelo://app?vid=ab24a954-34a3-48ed-808a-51904da89fe4"},"vehicle_type_id":"4","last_reported":1726614587,"current_range_meters":36800,"station_id":"ce4bho12rcd13ifvqh2g","pricing_plan_id":"cebpf4jnsgd1na2vs0mg"},{"bike_id":"11d0fae4-46e7-49ee-bdf2-0d93a918a23a","system_id":"levelo_inurba_marseille","lat":43.30801,"lon":5.38153,"is_reserved":false,"is_disabled":false,"rental_uris":{"android":"levelo://app?vid=11d0fae4-46e7-49ee-bdf2-0d93a918a23a","ios":"levelo://app?vid=11d0fae4-46e7-49ee-bdf2-0d93a918a23a"},"vehicle_type_id":"4","last_reported":1726614587,"current_range_meters":33600,"station_id":"ce4bgt12rcd13ifvqce0","pricing_plan_id":"cebpf4jnsgd1na2vs0mg"},{"bike_id":"e1055f26-c66c-41ee-bf2f-25406c6db080","system_id":"levelo_inurba_marseille","lat":43.33027,"lon":5.39049,"is_reserved":false,"is_disabled":false,"rental_uris":{"android":"levelo://app?vid=e1055f26-c66c-41ee-bf2f-25406c6db080","ios":"levelo://app?vid=e1055f26-c66c-41ee-bf2f-25406c6db080"},"vehicle_type_id":"4","last_reported":1726614587,"current_range_meters":36800,"station_id":"ce4bhr92rcd13ifvqhrg","pricing_plan_id":"cebpf4jnsgd1na2vs0mg"},{"bike_id":"7f4c1b54-da33-4cbd-8666-5285f9a039ca","system_id":"levelo_inurba_marseille","lat":43.30566,"lon":5.38444,"is_reserved":false,"is_disabled":false,"rental_uris":{"android":"levelo://app?vid=7f4c1b54-da33-4cbd-8666-5285f9a039ca","ios":"levelo://app?vid=7f4c1b54-da33-4cbd-8666-5285f9a039ca"},"vehicle_type_id":"4","last_reported":1726614587,"current_range_meters":30400,"station_id":"ce4bgg92rcd13ifvqb30","pricing_plan_id":"cebpf4jnsgd1na2vs0mg"},{"bike_id":"a13b8302-4ea2-4c29-8731-e0e42e68149a","system_id":"levelo_inurba_marseille","lat":43.32293,"lon":5.38273,"is_reserved":false,"is_disabled":false,"rental_uris":{"android":"levelo://app?vid=a13b8302-4ea2-4c29-8731-e0e42e68149a","ios":"levelo://app?vid=a13b8302-4ea2-4c29-8731-e0e42e68149a"},"vehicle_type_id":"4","last_reported":1726614587,"current_range_meters":39200,"station_id":"ce4bhr12rcd13ifvqhqg","pricing_plan_id":"cebpf4jnsgd1na2vs0mg"},{"bike_id":"7cfd4a31-13a3-48bb-9faa-112f6c22e584","system_id":"levelo_inurba_marseille","lat":43.2375,"lon":5.36429,"is_reserved":false,"is_disabled":false,"rental_uris":{"android":"levelo://app?vid=7cfd4a31-13a3-48bb-9faa-112f6c22e584","ios":"levelo://app?vid=7cfd4a31-13a3-48bb-9faa-112f6c22e584"},"vehicle_type_id":"4","last_reported":1726614587,"current_range_meters":3200,"station_id":"","pricing_plan_id":"cebpf4jnsgd1na2vs0mg"},{"bike_id":"a54f821d-d860-4bf3-96bb-e8d7ca78a0d4","system_id":"levelo_inurba_marseille","lat":43.28462,"lon":5.35879,"is_reserved":false,"is_disabled":false,"rental_uris":{"android":"levelo://app?vid=a54f821d-d860-4bf3-96bb-e8d7ca78a0d4","ios":"levelo://app?vid=a54f821d-d860-4bf3-96bb-e8d7ca78a0d4"},"vehicle_type_id":"4","last_reported":1726614587,"current_range_meters":11200,"station_id":"ce4bhah2rcd13ifvqei0","pricing_plan_id":"cebpf4jnsgd1na2vs0mg"},{"bike_id":"7f3e6039-3f69-453d-9df3-160f49f86f48","system_id":"levelo_inurba_marseille","lat":43.25824,"lon":5.39426,"is_reserved":false,"is_disabled":false,"rental_uris":{"android":"levelo://app?vid=7f3e6039-3f69-453d-9df3-160f49f86f48","ios":"levelo://app?vid=7f3e6039-3f69-453d-9df3-160f49f86f48"},"vehicle_type_id":"4","last_reported":1726614587,"current_range_meters":12400,"station_id":"ce4bhip2rcd13ifvqft0","pricing_plan_id":"cebpf4jnsgd1na2vs0mg"},{"bike_id":"0c9d22fe-24be-4278-b3c0-b2643c1fd917","system_id":"levelo_inurba_marseille","lat":43.28705,"lon":5.39981,"is_reserved":false,"is_disabled":false,"rental_uris":{"android":"levelo://app?vid=0c9d22fe-24be-4278-b3c0-b2643c1fd917","ios":"levelo://app?vid=0c9d22fe-24be-4278-b3c0-b2643c1fd917"},"vehicle_type_id":"4","last_reported":1726614587,"current_range_meters":36000,"station_id":"ce4bho92rcd13ifvqh3g","pricing_plan_id":"cebpf4jnsgd1na2vs0mg"},{"bike_id":"db7df4a6-605a-4035-a15c-80a3493b0d52","system_id":"levelo_inurba_marseille","lat":43.27944,"lon":5.41042,"is_reserved":false,"is_disabled":false,"rental_uris":{"android":"levelo://app?vid=db7df4a6-605a-4035-a15c-80a3493b0d52","ios":"levelo://app?vid=db7df4a6-605a-4035-a15c-80a3493b0d52"},"vehicle_type_id":"4","last_reported":1726614587,"current_range_meters":8400,"station_id":"ce4bhnp2rcd13ifvqh0g","pricing_plan_id":"cebpf4jnsgd1na2vs0mg"},{"bike_id":"b8ac6c04-28b2-45e4-87c5-8e6a4d89d8a3","system_id":"levelo_inurba_marseille","lat":43.28473,"lon":5.38413,"is_reserved":false,"is_disabled":false,"rental_uris":{"android":"levelo://app?vid=b8ac6c04-28b2-45e4-87c5-8e6a4d89d8a3","ios":"levelo://app?vid=b8ac6c04-28b2-45e4-87c5-8e6a4d89d8a3"},"vehicle_type_id":"4","last_reported":1726614587,"current_range_meters":39200,"station_id":"ce4bh512rcd13ifvqe3g","pricing_plan_id":"cebpf4jnsgd1na2vs0mg"},{"bike_id":"62389abe-263c-4946-86c3-8f8c7b849331","system_id":"levelo_inurba_marseille","lat":43.2885,"lon":5.35854,"is_reserved":false,"is_disabled":false,"rental_uris":{"android":"levelo://app?vid=62389abe-263c-4946-86c3-8f8c7b849331","ios":"levelo://app?vid=62389abe-263c-4946-86c3-8f8c7b849331"},"vehicle_type_id":"4","last_reported":1726614587,"current_range_meters":12800,"station_id":"ce4bhb12rcd13ifvqem0","pricing_plan_id":"cebpf4jnsgd1na2vs0mg"},{"bike_id":"4aa8031b-32ad-4b8d-b0c7-fa1c775f0b47","system_id":"levelo_inurba_marseille","lat":43.29958,"lon":5.41317,"is_reserved":false,"is_disabled":false,"rental_uris":{"android":"levelo://app?vid=4aa8031b-32ad-4b8d-b0c7-fa1c775f0b47","ios":"levelo://app?vid=4aa8031b-32ad-4b8d-b0c7-fa1c775f0b47"},"vehicle_type_id":"4","last_reported":1726614587,"current_range_meters":18800,"station_id":"ce4bhp12rcd13ifvqh9g","pricing_plan_id":"cebpf4jnsgd1na2vs0mg"},{"bike_id":"2b5bb7f8-7960-4540-b17e-d7f5a610f927","system_id":"levelo_inurba_marseille","lat":43.26568,"lon":5.39005,"is_reserved":false,"is_disabled":false,"rental_uris":{"android":"levelo://app?vid=2b5bb7f8-7960-4540-b17e-d7f5a610f927","ios":"levelo://app?vid=2b5bb7f8-7960-4540-b17e-d7f5a610f927"},"vehicle_type_id":"4","last_reported":1726614587,"current_range_meters":38800,"station_id":"ce4bhe12rcd13ifvqf30","pricing_plan_id":"cebpf4jnsgd1na2vs0mg"},{"bike_id":"cbaf03bf-0340-4293-a424-18d0ef0b595f","system_id":"levelo_inurba_marseille","lat":43.29898,"lon":5.43664,"is_reserved":false,"is_disabled":false,"rental_uris":{"android":"levelo://app?vid=cbaf03bf-0340-4293-a424-18d0ef0b595f","ios":"levelo://app?vid=cbaf03bf-0340-4293-a424-18d0ef0b595f"},"vehicle_type_id":"4","last_reported":1726614587,"current_range_meters":18800,"station_id":"ce4bhpp2rcd13ifvqhfg","pricing_plan_id":"cebpf4jnsgd1na2vs0mg"},{"bike_id":"bcd57de9-d46c-427e-94ee-4889338f80c0","system_id":"levelo_inurba_marseille","lat":43.26496,"lon":5.39543,"is_reserved":false,"is_disabled":false,"rental_uris":{"android":"levelo://app?vid=bcd57de9-d46c-427e-94ee-4889338f80c0","ios":"levelo://app?vid=bcd57de9-d46c-427e-94ee-4889338f80c0"},"vehicle_type_id":"4","last_reported":1726614587,"current_range_meters":38800,"station_id":"ce4bhi12rcd13ifvqfq0","pricing_plan_id":"cebpf4jnsgd1na2vs0mg"},{"bike_id":"9ae1ff55-f983-41af-8b45-d9d4fcfb7459","system_id":"levelo_inurba_marseille","lat":43.24666,"lon":5.38157,"is_reserved":false,"is_disabled":false,"rental_uris":{"android":"levelo://app?vid=9ae1ff55-f983-41af-8b45-d9d4fcfb7459","ios":"levelo://app?vid=9ae1ff55-f983-41af-8b45-d9d4fcfb7459"},"vehicle_type_id":"4","last_reported":1726614587,"current_range_meters":38800,"station_id":"ce4bhih2rcd13ifvqfr0","pricing_plan_id":"cebpf4jnsgd1na2vs0mg"},