{"last_updated":1752516993,"ttl":60,"version":"2.2","data":{"bikes":[{"bike_id":"feb1ed1d-b0db-45cc-9e1b-7311a8d72058","system_id":"levelo_inurba_marseille","lat":43.33747,"lon":5.37463,"is_reserved":false,"is_disabled":false,"rental_uris":{"android":"levelo://app?vid=feb1ed1d-b0db-45cc-9e1b-7311a8d72058","ios":"levelo://app?vid=feb1ed1d-b0db-45cc-9e1b-7311a8d72058"},"vehicle_type_id":"1","last_reported":1752516993,"current_range_meters":36800,"station_id":"","pricing_plan_id":"cebpf4jnsgd1na2vs0mg"},{"bike_id":"0c3424a0-e863-4671-bf84-e150363960ef","system_id":"levelo_inurba_marseille","lat":43.29301,"lon":5.37454,"is_reserved":false,"is_disabled":false,"rental_uris":{"android":"levelo://app?vid=0c3424a0-e863-4671-bf84-e150363960ef","ios":"levelo://app?vid=0c3424a0-e863-4671-bf84-e150363960ef"},"vehicle_type_id":"4","last_reported":1752516993,"current_range_meters":2800,"station_id":"ce4bgi12rcd13ifvqb70","pricing_plan_id":"cebpf4jnsgd1na2vs0mg"},{"bike_id":"9f5ad41a-0382-45e3-afe0-9e4de8ac9269","system_id":"levelo_inurba_marseille","lat":43.29528,"lon":5.39033,"is_reserved":false,"is_disabled":false,"rental_uris":{"android":"levelo://app?vid=9f5ad41a-0382-45e3-afe0-9e4de8ac9269","ios":"levelo://app?vid=9f5ad41a-0382-45e3-afe0-9e4de8ac9269"},"vehicle_type_id":"4","last_reported":1752516993,"current_range_meters":2800,"station_id":"ce4bh3p2rcd13ifvqdp0","pricing_plan_id":"cebpf4jnsgd1na2vs0mg"},{"bike_id":"3c71b7b6-cf44-4c4e-b022-ea5683f5e926","system_id":"levelo_inurba_marseille","lat":43.264914,"lon":5.395502,"is_reserved":false,"is_disabled":false,"rental_uris":{"android":"levelo://app?vid=3c71b7b6-cf44-4c4e-b022-ea5683f5e926","ios":"levelo://app?vid=3c71b7b6-cf44-4c4e-b022-ea5683f5e926"},"vehicle_type_id":"4","last_reported":1752516993,"current_range_meters":2800,"station_id":"ce4bhi12rcd13ifvqfq0","pricing_plan_id":"cebpf4jnsgd1na2vs0mg"},{"bike_id":"66a1bfaa-0df4-4f18-9ae2-badfb2bd8533","system_id":"levelo_inurba_marseille","lat":43.32368,"lon":5.38886,"is_reserved":false,"is_disabled":false,"rental_uris":{"android":"levelo://app?vid=66a1bfaa-0df4-4f18-9ae2-badfb2bd8533","ios":"levelo://app?vid=66a1bfaa-0df4-4f18-9ae2-badfb2bd8533"},"vehicle_type_id":"4","last_reported":1752516993,"current_range_meters":3200,"station_id":"ce4bhqp2rcd13ifvqhog","pricing_plan_id":"cebpf4jnsgd1na2vs0mg"},{"bike_id":"e2a57697-f93e-411f-b33a-761175e93992","system_id":"levelo_inurba_marseille","lat":43.28444,"lon":5.3919,"is_reserved":false,"is_disabled":true,"rental_uris":{"android":"levelo://app?vid=e2a57697-f93e-411f-b33a-761175e93992","ios":"levelo://app?vid=e2a57697-f93e-411f-b33a-761175e93992"},"vehicle_type_id":"4","last_reported":1752516993,"current_range_meters":3600,"station_id":"ce4bhoh2rcd13ifvqh5g","pricing_plan_id":"cebpf4jnsgd1na2vs0mg"},{"bike_id":"41f43ba6-0b31-43ee-b6d5-0ea245b38cf2","system_id":"levelo_inurba_marseille","lat":43.30884,"lon":5.39648,"is_reserved":false,"is_disabled":false,"rental_uris":{"android":"levelo://app?vid=41f43ba6-0b31-43ee-b6d5-0ea245b38cf2","ios":"levelo://app?vid=41f43ba6-0b31-43ee-b6d5-0ea245b38cf2"},"vehicle_type_id":"4","last_reported":1752516993,"current_range_meters":3600,"station_id":"ce4bh012rcd13ifvqcv0","pricing_plan_id":"cebpf4jnsgd1na2vs0mg"},{"bike_id":"e222b148-cf32-4a74-be82-fb085163d54a","system_id":"levelo_inurba_marseille","lat":43.29867,"lon":5.39725,"is_reserved":false,"is_disabled":false,"rental_uris":{"android":"levelo://app?vid=e222b148-cf32-4a74-be82-fb085163d54a","ios":"levelo://app?vid=e222b148-cf32-4a74-be82-fb085163d54a"},"vehicle_type_id":"4","last_reported":1752516993,"current_range_meters":4000,"station_id":"ce4bh0h2rcd13ifvqd50","pricing_plan_id":"cebpf4jnsgd1na2vs0mg"},{"bike_id":"470d1e9d-8c05-40b8-a6b2-039f183b9f6a","system_id":"levelo_inurba_marseille","lat":43.231912,"lon":5.355575,"is_reserved":false,"is_disabled":true,"rental_uris":{"android":"levelo://app?vid=470d1e9d-8c05-40b8-a6b2-039f183b9f6a","ios":"levelo://app?vid=470d1e9d-8c05-40b8-a6b2-039f183b9f6a"},"vehicle_type_id":"4","last_reported":1752516993,"current_range_meters":4400,"station_id":"ce4bhu92rcd13ifvqi70","pricing_plan_id":"cebpf4jnsgd1na2vs0mg"},{"bike_id":"44dd919c-32df-4fe9-8b1c-c9988fb68d5b","system_id":"levelo_inurba_marseille","lat":43.26958,"lon":5.40247,"is_reserved":false,"is_disabled":true,"rental_uris":{"android":"levelo://app?vid=44dd919c-32df-4fe9-8b1c-c9988fb68d5b","ios":"levelo://app?vid=44dd919c-32df-4fe9-8b1c-c9988fb68d5b"},"vehicle_type_id":"4","last_reported":1752516993,"current_range_meters":4800,"station_id":"cjm6bp8fraef2m0cb0m0","pricing_plan_id":"cebpf4jnsgd1na2vs0mg"},{"bike_id":"4234e485-1ed5-4824-968a-33db111afd40","system_id":"levelo_inurba_marseille","lat":43.29576,"lon":5.37517,"is_reserved":false,"is_disabled":false,"rental_uris":{"android":"levelo://app?vid=4234e485-1ed5-4824-968a-33db111afd40","ios":"levelo://app?vid=4234e485-1ed5-4824-968a-33db111afd40"},"vehicle_type_id":"4","last_reported":1752516993,"current_range_meters":4800,"station_id":"ce4bgh92rcd13ifvqb50","pricing_plan_id":"cebpf4jnsgd1na2vs0mg"},{"bike_id":"f5a5c290-12bb-4646-ab18-b385121f9284","system_id":"levelo_inurba_marseille","lat":43.30819,"lon":5.3813,"is_reserved":false,"is_disabled":true,"rental_uris":{"android":"levelo://app?vid=f5a5c290-12bb-4646-ab18-b385121f9284","ios":"levelo://app?vid=f5a5c290-12bb-4646-ab18-b385121f9284"},"vehicle_type_id":"4","last_reported":1752516993,"current_range_meters":4800,"station_id":"ce4bgt12rcd13ifvqce0","pricing_plan_id":"cebpf4jnsgd1na2vs0mg"},{"bike_id":"999b9d30-855b-489d-9de1-6a44f83d6385","system_id":"levelo_inurba_marseille","lat":43.21197,"lon":5.35083,"is_reserved":false,"is_disabled":false,"rental_uris":{"android":"levelo://app?vid=999b9d30-855b-489d-9de1-6a44f83d6385","ios":"levelo://app?vid=999b9d30-855b-489d-9de1-6a44f83d6385"},"vehicle_type_id":"4","last_reported":1752516993,"current_range_meters":4800,"station_id":"st_cvj6sg6p6f1abm77japg","pricing_plan_id":"cebpf4jnsgd1na2vs0mg"},{"bike_id":"ffef64c4-a8da-4604-95b1-4f10bb503b67","system_id":"levelo_inurba_marseille","lat":43.31688,"lon":5.40478,"is_reserved":false,"is_disabled":false,"rental_uris":{"android":"levelo://app?vid=ffef64c4-a8da-4604-95b1-4f10bb503b67","ios":"levelo://app?vid=ffef64c4-a8da-4604-95b1-4f10bb503b67"},"vehicle_type_id":"4","last_reported":1752516993,"current_range_meters":4800,"station_id":"ce4bh012rcd13ifvqd00","pricing_plan_id":"cebpf4jnsgd1na2vs0mg"},{"bike_id":"9efb8360-8563-45b9-96b2-a06e314abdb2","system_id":"levelo_inurba_marseille","lat":43.21202,"lon":5.35061,"is_reserved":false,"is_disabled":false,"rental_uris":{"android":"levelo://app?vid=9efb8360-8563-45b9-96b2-a06e314abdb2","ios":"levelo://app?vid=9efb8360-8563-45b9-96b2-a06e314abdb2"},"vehicle_type_id":"4","last_reported":1752516993,"current_range_meters":4800,"station_id":"st_cvj6sg6p6f1abm77japg","pricing_plan_id":"cebpf4jnsgd1na2vs0mg"},{"bike_id":"65266f02-d16d-4faa-ad1f-4c5b7c4626da","system_id":"levelo_inurba_marseille","lat":43.32324,"lon":5.40578,"is_reserved":false,"is_disabled":false,"rental_uris":{"android":"levelo://app?vid=65266f02-d16d-4faa-ad1f-4c5b7c4626da","ios":"levelo://app?vid=65266f02-d16d-4faa-ad1f-4c5b7c4626da"},"vehicle_type_id":"4","last_reported":1752516993,"current_range_meters":5600,"station_id":"ce4bhq92rcd13ifvqhjg","pricing_plan_id":"cebpf4jnsgd1na2vs0mg"},{"bike_id":"4002eeb3-7630-4d01-843b-4e08e4319048","system_id":"levelo_inurba_marseille","lat":43.29844,"lon":5.36273,"is_reserved":false,"is_disabled":false,"rental_uris":{"android":"levelo://app?vid=4002eeb3-7630-4d01-843b-4e08e4319048","ios":"levelo://app?vid=4002eeb3-7630-4d01-843b-4e08e4319048"},"vehicle_type_id":"4","last_reported":1752516993,"current_range_meters":5600,"station_id":"ce4bgpp2rcd13ifvqc3g","pricing_plan_id":"cebpf4jnsgd1na2vs0mg"},{"bike_id":"ac5006ff-f3b7-436e-adc4-3bb7b7c4e0b6","system_id":"levelo_inurba_marseille","lat":43.29712,"lon":5.36605,"is_reserved":false,"is_disabled":false,"rental_uris":{"android":"levelo://app?vid=ac5006ff-f3b7-436e-adc4-3bb7b7c4e0b6","ios":"levelo://app?vid=ac5006ff-f3b7-436e-adc4-3bb7b7c4e0b6"},"vehicle_type_id":"4","last_reported":1752516993,"current_range_meters":5600,"station_id":"ce4bgn12rcd13ifvqbt0","pricing_plan_id":"cebpf4jnsgd1na2vs0mg"},{"bike_id":"a632adc9-f84b-48b6-8dbc-010933899ec9","system_id":"levelo_inurba_marseille","lat":43.288634,"lon":5.358692,"is_reserved":false,"is_disabled":false,"rental_uris":{"android":"levelo://app?vid=a632adc9-f84b-48b6-8dbc-010933899ec9","ios":"levelo://app?vid=a632adc9-f84b-48b6-8dbc-010933899ec9"},"vehicle_type_id":"4","last_reported":1752516993,"current_range_meters":6000,"station_id":"ce4bhb12rcd13ifvqem0","pricing_plan_id":"cebpf4jnsgd1na2vs0mg"},{"bike_id":"e471c82d-09d7-40ab-9ac7-5b9adf6d602f","system_id":"levelo_inurba_marseille","lat":43.30129,"lon":5.38769,"is_reserved":false,"is_disabled":true,"rental_uris":{"android":"levelo://app?vid=e471c82d-09d7-40ab-9ac7-5b9adf6d602f","ios":"levelo://app?vid=e471c82d-09d7-40ab-9ac7-5b9adf6d602f"},"vehicle_type_id":"4","last_reported":1752516993,"current_range_meters":6400,"station_id":"ce4bghh2rcd13ifvqb60","pricing_plan_id":"cebpf4jnsgd1na2vs0mg"},{"bike_id":"dc3fbe00-f565-42ff-8ae8-e9a7e08eb9b2","system_id":"levelo_inurba_marseille","lat":43.29535,"lon":5.38542,"is_reserved":false,"is_disabled":false,"rental_uris":{"android":"levelo://app?vid=dc3fbe00-f565-42ff-8ae8-e9a7e08eb9b2","ios":"levelo://app?vid=dc3fbe00-f565-42ff-8ae8-e9a7e08eb9b2"},"vehicle_type_id":"4","last_reported":1752516993,"current_range_meters":6400,"station_id":"ce4bgih2rcd13ifvqba0","pricing_plan_id":"cebpf4jnsgd1na2vs0mg"},{"bike_id":"ac4aa39f-1fff-4e40-8065-cc1749b612ec","system_id":"levelo_inurba_marseille","lat":43.2861,"lon":5.37064,"is_reserved":false,"is_disabled":false,"rental_uris":{"android":"levelo://app?vid=ac4aa39f-1fff-4e40-8065-cc1749b612ec","ios":"levelo://app?vid=ac4aa39f-1fff-4e40-8065-cc1749b612ec"},"vehicle_type_id":"4","last_reported":1752516993,"current_range_meters":6800,"station_id":"ce4bht12rcd13ifvqi60","pricing_plan_id":"cebpf4jnsgd1na2vs0mg"},{"bike_id":"9e098173-d0c6-4dfe-825b-c90879ba4eba","system_id":"levelo_inurba_marseille","lat":43.29086,"lon":5.37153,"is_reserved":false,"is_disabled":false,"rental_uris":{"android":"levelo://app?vid=9e098173-d0c6-4dfe-825b-c90879ba4eba","ios":"levelo://app?vid=9e098173-d0c6-4dfe-825b-c90879ba4eba"},"vehicle_type_id":"4","last_reported":1752516993,"current_range_meters":6800,"station_id":"ce4bh5p2rcd13ifvqe4g","pricing_plan_id":"cebpf4jnsgd1na2vs0mg"},{"bike_id":"170e79c9-d76b-49f3-82c1-41d8d6c52384","system_id":"levelo_inurba_marseille","lat":43.28618,"lon":5.37083,"is_reserved":false,"is_disabled":false,"rental_uris":{"android":"levelo://app?vid=170e79c9-d76b-49f3-82c1-41d8d6c52384","ios":"levelo://app?vid=170e79c9-d76b-49f3-82c1-41d8d6c52384"},"vehicle_type_id":"4","last_reported":1752516993,"current_range_meters":6800,"station_id":"ce4bht12rcd13ifvqi60","pricing_plan_id":"cebpf4jnsgd1na2vs0mg"},{"bike_id":"1fbaf219-67be-45b8-aacc-64d6722df546","system_id":"levelo_inurba_marseille","lat":43.29021,"lon":5.38644,"is_reserved":false,"is_disabled":true,"rental_uris":{"android":"levelo://app?vid=1fbaf219-67be-45b8-aacc-64d6722df546","ios":"levelo://app?vid=1fbaf219-67be-45b8-aacc-64d6722df546"},"vehicle_type_id":"4","last_reported":1752516993,"current_range_meters":7200,"station_id":"ce4bh4p2rcd13ifvqe0g","pricing_plan_id":"cebpf4jnsgd1na2vs0mg"},{"bike_id":"88884749-dfde-49d4-9c0f-e0cdf6ffa6d1","system_id":"levelo_inurba_marseille","lat":43.28939,"lon":5.36633,"is_reserved":false,"is_disabled":false,"rental_uris":{"android":"levelo://app?vid=88884749-dfde-49d4-9c0f-e0cdf6ffa6d1","ios":"levelo://app?vid=88884749-dfde-49d4-9c0f-e0cdf6ffa6d1"},"vehicle_type_id":"4","last_reported":1752516993,"current_range_meters":7200,"station_id":"ce4bhap2rcd13ifvqek0","pricing_plan_id":"cebpf4jnsgd1na2vs0mg"},{"bike_id":"758ae6d7-3e14-48db-9cae-e232c85762e1","system_id":"levelo_inurba_marseille","lat":43.29782,"lon":5.371,"is_reserved":false,"is_disabled":false,"rental_uris":{"android":"levelo://app?vid=758ae6d7-3e14-48db-9cae-e232c85762e1","ios":"levelo://app?vid=758ae6d7-3e14-48db-9cae-e232c85762e1"},"vehicle_type_id":"4","last_reported":1752516993,"current_range_meters":7200,"station_id":"ce4bgop2rcd13ifvqc1g","pricing_plan_id":"cebpf4jnsgd1na2vs0mg"},{"bike_id":"de5ff12e-98e5-4dcb-aa4e-e044ef52f95e","system_id":"levelo_inurba_marseille","lat":43.30097,"lon":5.39092,"is_reserved":false,"is_disabled":false,"rental_uris":{"android":"levelo://app?vid=de5ff12e-98e5-4dcb-aa4e-e044ef52f95e","ios":"levelo://app?vid=de5ff12e-98e5-4dcb-aa4e-e044ef52f95e"},"vehicle_type_id":"4","last_reported":1752516993,"current_range_meters":7200,"station_id":"ce4bh192rcd13ifvqdb0","pricing_plan_id":"cebpf4jnsgd1na2vs0mg"},{"bike_id":"f23760ff-ab61-4853-aa67-28aac93822c1","system_id":"levelo_inurba_marseille","lat":43.337444,"lon":5.374475,"is_reserved":false,"is_disabled":false,"rental_uris":{"android":"levelo://app?vid=f23760ff-ab61-4853-aa67-28aac93822c1","ios":"levelo://app?vid=f23760ff-ab61-4853-aa67-28aac93822c1"},"vehicle_type_id":"4","last_reported":1752516993,"current_range_meters":7200,"station_id":"","pricing_plan_id":"cebpf4jnsgd1na2vs0mg"},{"bike_id":"f65d1173-e7b9-4699-be5d-abe005099d1d","system_id":"levelo_inurba_marseille","lat":43.225017,"lon":5.3478,"is_reserved":false,"is_disabled":false,"rental_uris":{"android":"levelo://app?vid=f65d1173-e7b9-4699-be5d-abe005099d1d","ios":"levelo://app?vid=f65d1173-e7b9-4699-be5d-abe005099d1d"},"vehicle_type_id":"4","last_reported":1752516993,"current_range_meters":8000,"station_id":"st_cvj5dfep6f1abm77gieg","pricing_plan_id":"cebpf4jnsgd1na2vs0mg"},{"bike_id":"b0149483-7024-438d-818a-899d7bba5a2b","system_id":"levelo_inurba_marseille","lat":43.295367,"lon":5.385453,"is_reserved":false,"is_disabled":false,"rental_uris":{"android":"levelo://app?vid=b0149483-7024-438d-818a-899d7bba5a2b","ios":"levelo://app?vid=b0149483-7024-438d-818a-899d7bba5a2b"},"vehicle_type_id":"4","last_reported":1752516993,"current_range_meters":8000,"station_id":"ce4bgih2rcd13ifvqba0","pricing_plan_id":"cebpf4jnsgd1na2vs0mg"},{"bike_id":"63ed06f9-598c-4241-a02d-43fcb612ff7e","system_id":"levelo_inurba_marseille","lat":43.21765,"lon":5.34585,"is_reserved":false,"is_disabled":false,"rental_uris":{"android":"levelo://app?vid=63ed06f9-598c-4241-a02d-43fcb612ff7e","ios":"levelo://app?vid=63ed06f9-598c-4241-a02d-43fcb612ff7e"},"vehicle_type_id":"4","last_reported":1752516993,"current_range_meters":8400,"station_id":"st_cvj6r9ubvosntc0bgbag","pricing_plan_id":"cebpf4jnsgd1na2vs0mg"},{"bike_id":"ca66e7aa-72c7-4ac9-9dc4-1318fe81b045","system_id":"levelo_inurba_marseille","lat":43.28724,"lon":5.36077,"is_reserved":false,"is_disabled":false,"rental_uris":{"android":"levelo://app?vid=ca66e7aa-72c7-4ac9-9dc4-1318fe81b045","ios":"levelo://app?vid=ca66e7aa-72c7-4ac9-9dc4-1318fe81b045"},"vehicle_type_id":"4","last_reported":1752516993,"current_range_meters":8000,"station_id":"cki0cbj6b192h4jlfktg","pricing_plan_id":"cebpf4jnsgd1na2vs0mg"},{"bike_id":"2120855a-7032-4631-84f6-5d12aff7b691","system_id":"levelo_inurba_marseille","lat":43.292295,"lon":5.360797,"is_reserved":false,"is_disabled":false,"rental_uris":{"android":"levelo://app?vid=2120855a-7032-4631-84f6-5d12aff7b691","ios":"levelo://app?vid=2120855a-7032-4631-84f6-5d12aff7b691"},"vehicle_type_id":"4","last_reported":1752516993,"current_range_meters":8400,"station_id":"ce4bhbh2rcd13ifvqeqg","pricing_plan_id":"cebpf4jnsgd1na2vs0mg"},{"bike_id":"abbe273c-8ce5-4e34-8da9-10634e0c8545","system_id":"levelo_inurba_marseille","lat":43.308875,"lon":5.371905,"is_reserved":false,"is_disabled":false,"rental_uris":{"android":"levelo://app?vid=abbe273c-8ce5-4e34-8da9-10634e0c8545","ios":"levelo://app?vid=abbe273c-8ce5-4e34-8da9-10634e0c8545"},"vehicle_type_id":"4","last_reported":1752516993,"current_range_meters":8400,"station_id":"ce4bguh2rcd13ifvqckg","pricing_plan_id":"cebpf4jnsgd1na2vs0mg"},{"bike_id":"16476641-3812-4eab-890b-d42e73628e51","system_id":"levelo_inurba_marseille","lat":43.2998,"lon":5.3717,"is_reserved":false,"is_disabled":false,"rental_uris":{"android":"levelo://app?vid=16476641-3812-4eab-890b-d42e73628e51","ios":"levelo://app?vid=16476641-3812-4eab-890b-d42e73628e51"},"vehicle_type_id":"4","last_reported":1752516993,"current_range_meters":9200,"station_id":"ce4bgr92rcd13ifvqc7g","pricing_plan_id":"cebpf4jnsgd1na2vs0mg"},{"bike_id":"22dd3630-3209-4fc5-8bb2-e39f4a3b0d71","system_id":"levelo_inurba_marseille","lat":43.30548,"lon":5.36559,"is_reserved":false,"is_disabled":false,"rental_uris":{"android":"levelo://app?vid=22dd3630-3209-4fc5-8bb2-e39f4a3b0d71","ios":"levelo://app?vid=22dd3630-3209-4fc5-8bb2-e39f4a3b0d71"},"vehicle_type_id":"4","last_reported":1752516993,"current_range_meters":9200,"station_id":"ce4bgs12rcd13ifvqcag","pricing_plan_id":"cebpf4jnsgd1na2vs0mg"},{"bike_id":"289188d7-3908-4069-9379-fd8d69b53abe","system_id":"levelo_inurba_marseille","lat":43.29707,"lon":5.36617,"is_reserved":false,"is_disabled":false,"rental_uris":{"android":"levelo://app?vid=289188d7-3908-4069-9379-fd8d69b53abe","ios":"levelo://app?vid=289188d7-3908-4069-9379-fd8d69b53abe"},"vehicle_type_id":"4","last_reported":1752516993,"current_range_meters":9200,"station_id":"ce4bgn12rcd13ifvqbt0","pricing_plan_id":"cebpf4jnsgd1na2vs0mg"},{"bike_id":"e3b686d1-f0b1-4887-9c05-4bc370c43021","system_id":"levelo_inurba_marseille","lat":43.27177,"lon":5.41002,"is_reserved":false,"is_disabled":true,"rental_uris":{"android":"levelo://app?vid=e3b686d1-f0b1-4887-9c05-4bc370c43021","ios":"levelo://app?vid=e3b686d1-f0b1-4887-9c05-4bc370c43021"},"vehicle_type_id":"4","last_reported":1752516993,"current_range_meters":9200,"station_id":"ce4bhl12rcd13ifvqgf0","pricing_plan_id":"cebpf4jnsgd1na2vs0mg"},{"bike_id":"66dc43eb-bfa4-40a5-bb08-a86f2205e7bc","system_id":"levelo_inurba_marseille","lat":43.2842,"lon":5.37519,"is_reserved":false,"is_disabled":false,"rental_uris":{"android":"levelo://app?vid=66dc43eb-bfa4-40a5-bb08-a86f2205e7bc","ios":"levelo://app?vid=66dc43eb-bfa4-40a5-bb08-a86f2205e7bc"},"vehicle_type_id":"4","last_reported":1752516993,"current_range_meters":9200,"station_id":"ce4bh412rcd13ifvqds0","pricing_plan_id":"cebpf4jnsgd1na2vs0mg"},{"bike_id":"a2dc1f38-80e0-4f71-b10a-45cbbb725e88","system_id":"levelo_inurba_marseille","lat":43.30044,"lon":5.38947,"is_reserved":false,"is_disabled":false,"rental_uris":{"android":"levelo://app?vid=a2dc1f38-80e0-4f71-b10a-45cbbb725e88","ios":"levelo://app?vid=a2dc1f38-80e0-4f71-b10a-45cbbb725e88"},"vehicle_type_id":"4","last_reported":1752516993,"current_range_meters":9200,"station_id":"","pricing_plan_id":"cebpf4jnsgd1na2vs0mg"},{"bike_id":"c9ad8580-2a13-49e4-b42c-5ffbe03f0ec6","system_id":"levelo_inurba_marseille","lat":43.28938,"lon":5.36638,"is_reserved":false,"is_disabled":false,"rental_uris":{"android":"levelo://app?vid=c9ad8580-2a13-49e4-b42c-5ffbe03f0ec6","ios":"levelo://app?vid=c9ad8580-2a13-49e4-b42c-5ffbe03f0ec6"},"vehicle_type_id":"4","last_reported":1752516993,"current_range_meters":9600,"station_id":"ce4bhap2rcd13ifvqek0","pricing_plan_id":"cebpf4jnsgd1na2vs0mg"},{"bike_id":"07b80ba8-94f7-4006-b883-d44157aa02a8","system_id":"levelo_inurba_marseille","lat":43.21193,"lon":5.35058,"is_reserved":false,"is_disabled":false,"rental_uris":{"android":"levelo://app?vid=07b80ba8-94f7-4006-b883-d44157aa02a8","ios":"levelo://app?vid=07b80ba8-94f7-4006-b883-d44157aa02a8"},"vehicle_type_id":"4","last_reported":1752516993,"current_range_meters":9600,"station_id":"st_cvj6sg6p6f1abm77japg","pricing_plan_id":"cebpf4jnsgd1na2vs0mg"},{"bike_id":"710e9e97-7115-42a9-a724-27046e2fbd05","system_id":"levelo_inurba_marseille","lat":43.305359,"lon":5.384208,"is_reserved":false,"is_disabled":false,"rental_uris":{"android":"levelo://app?vid=710e9e97-7115-42a9-a724-27046e2fbd05","ios":"levelo://app?vid=710e9e97-7115-42a9-a724-27046e2fbd05"},"vehicle_type_id":"4","last_reported":1752516993,"current_range_meters":9600,"station_id":"ce4bgg92rcd13ifvqb30","pricing_plan_id":"cebpf4jnsgd1na2vs0mg"},{"bike_id":"a95c6fdc-3c4d-46b1-8a87-d88e273d71b1","system_id":"levelo_inurba_marseille","lat":43.289411,"lon":5.363846,"is_reserved":false,"is_disabled":true,"rental_uris":{"android":"levelo://app?vid=a95c6fdc-3c4d-46b1-8a87-d88e273d71b1","ios":"levelo://app?vid=a95c6fdc-3c4d-46b1-8a87-d88e273d71b1"},"vehicle_type_id":"4","last_reported":1752516993,"current_range_meters":9600,"station_id":"ce4bhc92rcd13ifvqetg","pricing_plan_id":"cebpf4jnsgd1na2vs0mg"},{"bike_id":"a6fa6f4d-56a3-4b16-b424-42a95db0457c","system_id":"levelo_inurba_marseille","lat":43.30192,"lon":5.36626,"is_reserved":false,"is_disabled":false,"rental_uris":{"android":"levelo://app?vid=a6fa6f4d-56a3-4b16-b424-42a95db0457c","ios":"levelo://app?vid=a6fa6f4d-56a3-4b16-b424-42a95db0457c"},"vehicle_type_id":"4","last_reported":1752516993,"current_range_meters":9600,"station_id":"ce4bgrh2rcd13ifvqc8g","pricing_plan_id":"cebpf4jnsgd1na2vs0mg"},{"bike_id":"294e6ff6-fcf8-46db-84ad-6c0857e6e419","system_id":"levelo_inurba_marseille","lat":43.295265,"lon":5.390369,"is_reserved":false,"is_disabled":false,"rental_uris":{"android":"levelo://app?vid=294e6ff6-fcf8-46db-84ad-6c0857e6e419","ios":"levelo://app?vid=294e6ff6-fcf8-46db-84ad-6c0857e6e419"},"vehicle_type_id":"4","last_reported":1752516993,"current_range_meters":10000,"station_id":"","pricing_plan_id":"cebpf4jnsgd1na2vs0mg"},{"bike_id":"58375fde-ca97-4dab-be52-59caf98323d3","system_id":"levelo_inurba_marseille","lat":43.26563,"lon":5.37279,"is_reserved":false,"is_disabled":true,"rental_uris":{"android":"levelo://app?vid=58375fde-ca97-4dab-be52-59caf98323d3","ios":"levelo://app?vid=58375fde-ca97-4dab-be52-59caf98323d3"},"vehicle_type_id":"4","last_reported":1752516993,"current_range_meters":10000,"station_id":"ce4bhg12rcd13ifvqf70","pricing_plan_id":"cebpf4jnsgd1na2vs0mg"},{"bike_id":"3385ce42-d823-4876-b9c5-11465346d8ea","system_id":"levelo_inurba_marseille","lat":43.30887,"lon":5.39658,"is_reserved":false,"is_disabled":false,"rental_uris":{"android":"levelo://app?vid=3385ce42-d823-4876-b9c5-11465346d8ea","ios":"levelo://app?vid=3385ce42-d823-4876-b9c5-11465346d8ea"},"vehicle_type_id":"4","last_reported":1752516993,"current_range_meters":10000,"station_id":"ce4bh012rcd13ifvqcv0","pricing_plan_id":"cebpf4jnsgd1na2vs0mg"},{"bike_id":"1700fcd6-30ad-4b74-a158-50e5dcb60b9b","system_id":"levelo_inurba_marseille","lat":43.28938,"lon":5.36663,"is_reserved":false,"is_disabled":true,"rental_uris":{"android":"levelo://app?vid=1700fcd6-30ad-4b74-a158-50e5dcb60b9b","ios":"levelo://app?vid=1700fcd6-30ad-4b74-a158-50e5dcb60b9b"},"vehicle_type_id":"4","last_reported":1752516993,"current_range_meters":10000,"station_id":"ce4bhap2rcd13ifvqek0","pricing_plan_id":"cebpf4jnsgd1na2vs0mg"},{"bike_id":"7d8c67ad-3e66-42f9-8c6e-098cca666cf3","system_id":"levelo_inurba_marseille","lat":43.32364,"lon":5.3677,"is_reserved":false,"is_disabled":false,"rental_uris":{"android":"levelo://app?vid=7d8c67ad-3e66-42f9-8c6e-098cca666cf3","ios":"levelo://app?vid=7d8c67ad-3e66-42f9-8c6e-098cca666cf3"},"vehicle_type_id":"4","last_reported":1752516993,"current_range_meters":10000,"station_id":"ce4bhsh2rcd13ifvqi2g","pricing_plan_id":"cebpf4jnsgd1na2vs0mg"},{"bike_id":"cbb9a55d-91dd-4386-8fc9-9c9a41507355","system_id":"levelo_inurba_marseille","lat":43.309091,"lon":5.371765,"is_reserved":false,"is_disabled":false,"rental_uris":{"android":"levelo://app?vid=cbb9a55d-91dd-4386-8fc9-9c9a41507355","ios":"levelo://app?vid=cbb9a55d-91dd-4386-8fc9-9c9a41507355"},"vehicle_type_id":"4","last_reported":1752516993,"current_range_meters":10800,"station_id":"ce4bguh2rcd13ifvqckg","pricing_plan_id":"cebpf4jnsgd1na2vs0mg"},{"bike_id":"c5db624b-20c2-47fa-9343-d2c57bef61e2","system_id":"levelo_inurba_marseille","lat":43.29533,"lon":5.38541,"is_reserved":false,"is_disabled":false,"rental_uris":{"android":"levelo://app?vid=c5db624b-20c2-47fa-9343-d2c57bef61e2","ios":"levelo://app?vid=c5db624b-20c2-47fa-9343-d2c57bef61e2"},"vehicle_type_id":"4","last_reported":1752516993,"current_range_meters":10800,"station_id":"ce4bgih2rcd13ifvqba0","pricing_plan_id":"cebpf4jnsgd1na2vs0mg"},{"bike_id":"ae1fa7d3-3312-4925-be2a-63898c1ebd63","system_id":"levelo_inurba_marseille","lat":43.29598,"lon":5.37713,"is_reserved":false,"is_disabled":false,"rental_uris":{"android":"levelo://app?vid=ae1fa7d3-3312-4925-be2a-63898c1ebd63","ios":"levelo://app?vid=ae1fa7d3-3312-4925-be2a-63898c1ebd63"},"vehicle_type_id":"4","last_reported":1752516993,"current_range_meters":10800,"station_id":"ce4bgi92rcd13ifvqb90","pricing_plan_id":"cebpf4jnsgd1na2vs0mg"},{"bike_id":"e8e91924-0ed7-4616-92f6-b00313ec7472","system_id":"levelo_inurba_marseille","lat":43.29045,"lon":5.35894,"is_reserved":false,"is_disabled":false,"rental_uris":{"android":"levelo://app?vid=e8e91924-0ed7-4616-92f6-b00313ec7472","ios":"levelo://app?vid=e8e91924-0ed7-4616-92f6-b00313ec7472"},"vehicle_type_id":"4","last_reported":1752516993,"current_range_meters":10800,"station_id":"ce4bha92rcd13ifvqeg0","pricing_plan_id":"cebpf4jnsgd1na2vs0mg"},{"bike_id":"0316b877-edc0-4323-a0c8-782670ec6cda","system_id":"levelo_inurba_marseille","lat":43.30934,"lon":5.40143,"is_reserved":false,"is_disabled":false,"rental_uris":{"android":"levelo://app?vid=0316b877-edc0-4323-a0c8-782670ec6cda","ios":"levelo://app?vid=0316b877-edc0-4323-a0c8-782670ec6cda"},"vehicle_type_id":"4","last_reported":1752516993,"current_range_meters":10800,"station_id":"ce4bgvp2rcd13ifvqct0","pricing_plan_id":"cebpf4jnsgd1na2vs0mg"},{"bike_id":"d916aace-830c-451e-a376-c1312f1fc6af","system_id":"levelo_inurba_marseille","lat":43.22504,"lon":5.34785,"is_reserved":false,"is_disabled":false,"rental_uris":{"android":"levelo://app?vid=d916aace-830c-451e-a376-c1312f1fc6af","ios":"levelo://app?vid=d916aace-830c-451e-a376-c1312f1fc6af"},"vehicle_type_id":"4","last_reported":1752516993,"current_range_meters":10800,"station_id":"","pricing_plan_id":"cebpf4jnsgd1na2vs0mg"},{"bike_id":"509ddffc-3a0f-459d-8318-5bddbcebcf9e","system_id":"levelo_inurba_marseille","lat":43.29041,"lon":5.35901,"is_reserved":false,"is_disabled":false,"rental_uris":{"android":"levelo://app?vid=509ddffc-3a0f-459d-8318-5bddbcebcf9e","ios":"levelo://app?vid=509ddffc-3a0f-459d-8318-5bddbcebcf9e"},"vehicle_type_id":"4","last_reported":1752516993,"current_range_meters":11200,"station_id":"ce4bha92rcd13ifvqeg0","pricing_plan_id":"cebpf4jnsgd1na2vs0mg"},{"bike_id":"c95c976f-4679-444c-87d0-9309c45e24f4","system_id":"levelo_inurba_marseille","lat":43.29787,"lon":5.37119,"is_reserved":false,"is_disabled":false,"rental_uris":{"android":"levelo://app?vid=c95c976f-4679-444c-87d0-9309c45e24f4","ios":"levelo://app?vid=c95c976f-4679-444c-87d0-9309c45e24f4"},"vehicle_type_id":"4","last_reported":1752516993,"current_range_meters":11200,"station_id":"ce4bgop2rcd13ifvqc1g","pricing_plan_id":"cebpf4jnsgd1na2vs0mg"},{"bike_id":"b2464811-ed1c-444d-b5b2-f0f5cb56794f","system_id":"levelo_inurba_marseille","lat":43.28703,"lon":5.35207,"is_reserved":false,"is_disabled":false,"rental_uris":{"android":"levelo://app?vid=b2464811-ed1c-444d-b5b2-f0f5cb56794f","ios":"levelo://app?vid=b2464811-ed1c-444d-b5b2-f0f5cb56794f"},"vehicle_type_id":"4","last_reported":1752516993,"current_range_meters":11200,"station_id":"","pricing_plan_id":"cebpf4jnsgd1na2vs0mg"},{"bike_id":"c14947c2-7b5b-4c03-b04b-d7f22fccfd67","system_id":"levelo_inurba_marseille","lat":43.21202,"lon":5.35055,"is_reserved":false,"is_disabled":false,"rental_uris":{"android":"levelo://app?vid=c14947c2-7b5b-4c03-b04b-d7f22fccfd67","ios":"levelo://app?vid=c14947c2-7b5b-4c03-b04b-d7f22fccfd67"},"vehicle_type_id":"4","last_reported":1752516993,"current_range_meters":11200,"station_id":"st_cvj6sg6p6f1abm77japg","pricing_plan_id":"cebpf4jnsgd1na2vs0mg"},{"bike_id":"88c30d41-8a40-4736-b6b2-937606d115f1","system_id":"levelo_inurba_marseille","lat":43.2572,"lon":5.41113,"is_reserved":false,"is_disabled":false,"rental_uris":{"android":"levelo://app?vid=88c30d41-8a40-4736-b6b2-937606d115f1","ios":"levelo://app?vid=88c30d41-8a40-4736-b6b2-937606d115f1"},"vehicle_type_id":"4","last_reported":1752516993,"current_range_meters":10800,"station_id":"ce4bhkp2rcd13ifvqgd0","pricing_plan_id":"cebpf4jnsgd1na2vs0mg"},{"bike_id":"f72578ed-4166-4fc2-a6dd-e4657d54099d","system_id":"levelo_inurba_marseille","lat":43.31171,"lon":5.38712,"is_reserved":false,"is_disabled":false,"rental_uris":{"android":"levelo://app?vid=f72578ed-4166-4fc2-a6dd-e4657d54099d","ios":"levelo://app?vid=f72578ed-4166-4fc2-a6dd-e4657d54099d"},"vehicle_type_id":"4","last_reported":1752516993,"current_range_meters":11200,"station_id":"ce4bgv12rcd13ifvqcp0","pricing_plan_id":"cebpf4jnsgd1na2vs0mg"},{"bike_id":"59a860e9-cc23-49cc-9147-79034be56af1","system_id":"levelo_inurba_marseille","lat":43.29301,"lon":5.37437,"is_reserved":false,"is_disabled":true,"rental_uris":{"android":"levelo://app?vid=59a860e9-cc23-49cc-9147-79034be56af1","ios":"levelo://app?vid=59a860e9-cc23-49cc-9147-79034be56af1"},"vehicle_type_id":"4","last_reported":1752516993,"current_range_meters":11200,"station_id":"ce4bgi12rcd13ifvqb70","pricing_plan_id":"cebpf4jnsgd1na2vs0mg"},{"bike_id":"bdc7600a-3826-4c2f-94a5-37f6f3b2cf37","system_id":"levelo_inurba_marseille","lat":43.2922,"lon":5.36068,"is_reserved":false,"is_disabled":false,"rental_uris":{"android":"levelo://app?vid=bdc7600a-3826-4c2f-94a5-37f6f3b2cf37","ios":"levelo://app?vid=bdc7600a-3826-4c2f-94a5-37f6f3b2cf37"},"vehicle_type_id":"4","last_reported":1752516993,"current_range_meters":11200,"station_id":"ce4bhbh2rcd13ifvqeqg","pricing_plan_id":"cebpf4jnsgd1na2vs0mg"},{"bike_id":"651dce3a-2249-46d7-a220-d413497d4b2a","system_id":"levelo_inurba_marseille","lat":43.24649,"lon":5.38886,"is_reserved":false,"is_disabled":false,"rental_uris":{"android":"levelo://app?vid=651dce3a-2249-46d7-a220-d413497d4b2a","ios":"levelo://app?vid=651dce3a-2249-46d7-a220-d413497d4b2a"},"vehicle_type_id":"4","last_reported":1752516993,"current_range_meters":11200,"station_id":"ce4bhg12rcd13ifvqf60","pricing_plan_id":"cebpf4jnsgd1na2vs0mg"},{"bike_id":"05f30485-dc90-4763-9dd4-c12f63ae43a2","system_id":"levelo_inurba_marseille","lat":43.30333,"lon":5.36892,"is_reserved":false,"is_disabled":true,"rental_uris":{"android":"levelo://app?vid=05f30485-dc90-4763-9dd4-c12f63ae43a2","ios":"levelo://app?vid=05f30485-dc90-4763-9dd4-c12f63ae43a2"},"vehicle_type_id":"4","last_reported":1752516993,"current_range_meters":11600,"station_id":"ce4bgqh2rcd13ifvqc5g","pricing_plan_id":"cebpf4jnsgd1na2vs0mg"},{"bike_id":"e4df9a31-6949-434d-b5c5-45c78a1648fc","system_id":"levelo_inurba_marseille","lat":43.297088,"lon":5.37678,"is_reserved":false,"is_disabled":false,"rental_uris":{"android":"levelo://app?vid=e4df9a31-6949-434d-b5c5-45c78a1648fc","ios":"levelo://app?vid=e4df9a31-6949-434d-b5c5-45c78a1648fc"},"vehicle_type_id":"4","last_reported":1752516993,"current_range_meters":11200,"station_id":"ce4bgkh2rcd13ifvqbl0","pricing_plan_id":"cebpf4jnsgd1na2vs0mg"},{"bike_id":"566f022b-7845-417b-9872-e840f32fc83c","system_id":"levelo_inurba_marseille","lat":43.29025,"lon":5.38125,"is_reserved":false,"is_disabled":false,"rental_uris":{"android":"levelo://app?vid=566f022b-7845-417b-9872-e840f32fc83c","ios":"levelo://app?vid=566f022b-7845-417b-9872-e840f32fc83c"},"vehicle_type_id":"4","last_reported":1752516993,"current_range_meters":11600,"station_id":"ce4bh4p2rcd13ifvqe1g","pricing_plan_id":"cebpf4jnsgd1na2vs0mg"},{"bike_id":"c7487efc-15d7-44b6-a943-c5a2c2e766bb","system_id":"levelo_inurba_marseille","lat":43.3302,"lon":5.39034,"is_reserved":false,"is_disabled":false,"rental_uris":{"android":"levelo://app?vid=c7487efc-15d7-44b6-a943-c5a2c2e766bb","ios":"levelo://app?vid=c7487efc-15d7-44b6-a943-c5a2c2e766bb"},"vehicle_type_id":"4","last_reported":1752516993,"current_range_meters":12000,"station_id":"ce4bhr92rcd13ifvqhrg","pricing_plan_id":"cebpf4jnsgd1na2vs0mg"},{"bike_id":"f4c80d56-79de-4bcd-bc91-6ccb5896b6b7","system_id":"levelo_inurba_marseille","lat":43.28977,"lon":5.37821,"is_reserved":false,"is_disabled":false,"rental_uris":{"android":"levelo://app?vid=f4c80d56-79de-4bcd-bc91-6ccb5896b6b7","ios":"levelo://app?vid=f4c80d56-79de-4bcd-bc91-6ccb5896b6b7"},"vehicle_type_id":"4","last_reported":1752516993,"current_range_meters":12000,"station_id":"ce4bh9p2rcd13ifvqed0","pricing_plan_id":"cebpf4jnsgd1na2vs0mg"},{"bike_id":"d960247e-fcb0-4551-a66f-dd83895a31f6","system_id":"levelo_inurba_marseille","lat":43.32282,"lon":5.38255,"is_reserved":false,"is_disabled":true,"rental_uris":{"android":"levelo://app?vid=d960247e-fcb0-4551-a66f-dd83895a31f6","ios":"levelo://app?vid=d960247e-fcb0-4551-a66f-dd83895a31f6"},"vehicle_type_id":"4","last_reported":1752516993,"current_range_meters":12000,"station_id":"ce4bhr12rcd13ifvqhqg","pricing_plan_id":"cebpf4jnsgd1na2vs0mg"},{"bike_id":"7ffbc285-0ce6-4719-997a-8d004d22481f","system_id":"levelo_inurba_marseille","lat":43.29531,"lon":5.38551,"is_reserved":false,"is_disabled":false,"rental_uris":{"android":"levelo://app?vid=7ffbc285-0ce6-4719-997a-8d004d22481f","ios":"levelo://app?vid=7ffbc285-0ce6-4719-997a-8d004d22481f"},"vehicle_type_id":"4","last_reported":1752516993,"current_range_meters":12000,"station_id":"ce4bgih2rcd13ifvqba0","pricing_plan_id":"cebpf4jnsgd1na2vs0mg"},{"bike_id":"c8c4de1a-846f-4f5b-aace-9fb14bf7ad52","system_id":"levelo_inurba_marseille","lat":43.211919,"lon":5.350716,"is_reserved":false,"is_disabled":false,"rental_uris":{"android":"levelo://app?vid=c8c4de1a-846f-4f5b-aace-9fb14bf7ad52","ios":"levelo://app?vid=c8c4de1a-846f-4f5b-aace-9fb14bf7ad52"},"vehicle_type_id":"4","last_reported":1752516993,"current_range_meters":12000,"station_id":"st_cvj6sg6p6f1abm77japg","pricing_plan_id":"cebpf4jnsgd1na2vs0mg"},{"bike_id":"ffa5ccb4-905c-4e50-802b-1c1f9b2cbe03","system_id":"levelo_inurba_marseille","lat":43.2121,"lon":5.35059,"is_reserved":false,"is_disabled":false,"rental_uris":{"android":"levelo://app?vid=ffa5ccb4-905c-4e50-802b-1c1f9b2cbe03","ios":"levelo://app?vid=ffa5ccb4-905c-4e50-802b-1c1f9b2cbe03"},"vehicle_type_id":"4","last_reported":1752516993,"current_range_meters":12400,"station_id":"","pricing_plan_id":"cebpf4jnsgd1na2vs0mg"},{"bike_id":"a90fa9db-c1a3-49aa-bca8-33a6f3483023","system_id":"levelo_inurba_marseille","lat":43.31173,"lon":5.38709,"is_reserved":false,"is_disabled":false,"rental_uris":{"android":"levelo://app?vid=a90fa9db-c1a3-49aa-bca8-33a6f3483023","ios":"levelo://app?vid=a90fa9db-c1a3-49aa-bca8-33a6f3483023"},"vehicle_type_id":"4","last_reported":1752516993,"current_range_meters":12400,"station_id":"ce4bgv12rcd13ifvqcp0","pricing_plan_id":"cebpf4jnsgd1na2vs0mg"},{"bike_id":"9b1afee0-5d71-42b1-bfb3-0f11fa1e097d","system_id":"levelo_inurba_marseille","lat":43.292534,"lon":5.376396,"is_reserved":false,"is_disabled":false,"rental_uris":{"android":"levelo://app?vid=9b1afee0-5d71-42b1-bfb3-0f11fa1e097d","ios":"levelo://app?vid=9b1afee0-5d71-42b1-bfb3-0f11fa1e097d"},"vehicle_type_id":"4","last_reported":1752516993,"current_range_meters":12400,"station_id":"","pricing_plan_id":"cebpf4jnsgd1na2vs0mg"},{"bike_id":"e9b3efd3-34f3-4b3e-ba50-8aa3df771f40","system_id":"levelo_inurba_marseille","lat":43.28943,"lon":5.36638,"is_reserved":false,"is_disabled":false,"rental_uris":{"android":"levelo://app?vid=e9b3efd3-34f3-4b3e-ba50-8aa3df771f40","ios":"levelo://app?vid=e9b3efd3-34f3-4b3e-ba50-8aa3df771f40"},"vehicle_type_id":"4","last_reported":1752516993,"current_range_meters":12400,"station_id":"ce4bhap2rcd13ifvqek0","pricing_plan_id":"cebpf4jnsgd1na2vs0mg"},{"bike_id":"e91ced2f-2041-4b38-8446-0d5d97adec95","system_id":"levelo_inurba_marseille","lat":43.255777,"lon":5.382393,"is_reserved":false,"is_disabled":true,"rental_uris":{"android":"levelo://app?vid=e91ced2f-2041-4b38-8446-0d5d97adec95","ios":"levelo://app?vid=e91ced2f-2041-4b38-8446-0d5d97adec95"},"vehicle_type_id":"4","last_reported":1752516993,"current_range_meters":12400,"station_id":"ce4bhih2rcd13ifvqfs0","pricing_plan_id":"cebpf4jnsgd1na2vs0mg"},{"bike_id":"ccf19a96-2762-4305-9250-3a5d2d2855d6","system_id":"levelo_inurba_marseille","lat":43.29038,"lon":5.37557,"is_reserved":false,"is_disabled":false,"rental_uris":{"android":"levelo://app?vid=ccf19a96-2762-4305-9250-3a5d2d2855d6","ios":"levelo://app?vid=ccf19a96-2762-4305-9250-3a5d2d2855d6"},"vehicle_type_id":"4","last_reported":1752516993,"current_range_meters":12400,"station_id":"ce4bh692rcd13ifvqe90","pricing_plan_id":"cebpf4jnsgd1na2vs0mg"},{"bike_id":"ef5b6678-ccb0-4bd3-a26d-5c03b3715386","system_id":"levelo_inurba_marseille","lat":43.28958,"lon":5.36381,"is_reserved":false,"is_disabled":false,"rental_uris":{"android":"levelo://app?vid=ef5b6678-ccb0-4bd3-a26d-5c03b3715386","ios":"levelo://app?vid=ef5b6678-ccb0-4bd3-a26d-5c03b3715386"},"vehicle_type_id":"4","last_reported":1752516993,"current_range_meters":12400,"station_id":"ce4bhc92rcd13ifvqetg","pricing_plan_id":"cebpf4jnsgd1na2vs0mg"},{"bike_id":"8a01e88a-8371-4085-9838-47ae11897cd3","system_id":"levelo_inurba_marseille","lat":43.28169,"lon":5.42639,"is_reserved":false,"is_disabled":true,"rental_uris":{"android":"levelo://app?vid=8a01e88a-8371-4085-9838-47ae11897cd3","ios":"levelo://app?vid=8a01e88a-8371-4085-9838-47ae11897cd3"},"vehicle_type_id":"4","last_reported":1752516993,"current_range_meters":12400,"station_id":"ce4bhnh2rcd13ifvqgug","pricing_plan_id":"cebpf4jnsgd1na2vs0mg"},{"bike_id":"088e6b1d-8a81-47e0-9ad0-36233ed399c0","system_id":"levelo_inurba_marseille","lat":43.279265,"lon":5.395716,"is_reserved":false,"is_disabled":true,"rental_uris":{"android":"levelo://app?vid=088e6b1d-8a81-47e0-9ad0-36233ed399c0","ios":"levelo://app?vid=088e6b1d-8a81-47e0-9ad0-36233ed399c0"},"vehicle_type_id":"4","last_reported":1752516993,"current_range_meters":12400,"station_id":"ce4bhf92rcd13ifvqf40","pricing_plan_id":"cebpf4jnsgd1na2vs0mg"},{"bike_id":"f5a47db5-6fb2-46bd-a2de-efa4ad13bf60","system_id":"levelo_inurba_marseille","lat":43.211948,"lon":5.350692,"is_reserved":false,"is_disabled":false,"rental_uris":{"android":"levelo://app?vid=f5a47db5-6fb2-46bd-a2de-efa4ad13bf60","ios":"levelo://app?vid=f5a47db5-6fb2-46bd-a2de-efa4ad13bf60"},"vehicle_type_id":"4","last_reported":1752516993,"current_range_meters":12800,"station_id":"st_cvj6sg6p6f1abm77japg","pricing_plan_id":"cebpf4jnsgd1na2vs0mg"},{"bike_id":"e621ebbb-dc33-4e76-8e92-d3fd339da2a3","system_id":"levelo_inurba_marseille","lat":43.27369,"lon":5.36247,"is_reserved":false,"is_disabled":false,"rental_uris":{"android":"levelo://app?vid=e621ebbb-dc33-4e76-8e92-d3fd339da2a3","ios":"levelo://app?vid=e621ebbb-dc33-4e76-8e92-d3fd339da2a3"},"vehicle_type_id":"4","last_reported":1752516993,"current_range_meters":12800,"station_id":"ce4bhbh2rcd13ifvqeo0","pricing_plan_id":"cebpf4jnsgd1na2vs0mg"},{"bike_id":"a4d07f45-19f9-4df9-9728-be6623530a64","system_id":"levelo_inurba_marseille","lat":43.23695,"lon":5.38852,"is_reserved":false,"is_disabled":false,"rental_uris":{"android":"levelo://app?vid=a4d07f45-19f9-4df9-9728-be6623530a64","ios":"levelo://app?vid=a4d07f45-19f9-4df9-9728-be6623530a64"},"vehicle_type_id":"4","last_reported":1752516993,"current_range_meters":12800,"station_id":"","pricing_plan_id":"cebpf4jnsgd1na2vs0mg"},{"bike_id":"1aedaa42-1f03-48cc-8e38-d983e72f730b","system_id":"levelo_inurba_marseille","lat":43.2707,"lon":5.42223,"is_reserved":false,"is_disabled":false,"rental_uris":{"android":"levelo://app?vid=1aedaa42-1f03-48cc-8e38-d983e72f730b","ios":"levelo://app?vid=1aedaa42-1f03-48cc-8e38-d983e72f730b"},"vehicle_type_id":"4","last_reported":1752516993,"current_range_meters":12800,"station_id":"ce4bhk92rcd13ifvqgb0","pricing_plan_id":"cebpf4jnsgd1na2vs0mg"},{"bike_id":"952d89d4-46f9-48be-a8e7-fac71f084924","system_id":"levelo_inurba_marseille","lat":43.24676,"lon":5.3815,"is_reserved":false,"is_disabled":false,"rental_uris":{"android":"levelo://app?vid=952d89d4-46f9-48be-a8e7-fac71f084924","ios":"levelo://app?vid=952d89d4-46f9-48be-a8e7-fac71f084924"},"vehicle_type_id":"4","last_reported":1752516993,"current_range_meters":12800,"station_id":"ce4bhih2rcd13ifvqfr0","pricing_plan_id":"cebpf4jnsgd1na2vs0mg"},{"bike_id":"bb28d88e-4384-455e-b65b-a0910c643240","system_id":"levelo_inurba_marseille","lat":43.266002,"lon":5.38082,"is_reserved":false,"is_disabled":false,"rental_uris":{"android":"levelo://app?vid=bb28d88e-4384-455e-b65b-a0910c643240","ios":"levelo://app?vid=bb28d88e-4384-455e-b65b-a0910c643240"},"vehicle_type_id":"4","last_reported":1752516993,"current_range_meters":12800,"station_id":"ce4bhgp2rcd13ifvqfc0","pricing_plan_id":"cebpf4jnsgd1na2vs0mg"},{"bike_id":"697d5fc4-b988-4a4e-8323-c1ce5ed61a61","system_id":"levelo_inurba_marseille","lat":43.21193,"lon":5.35071,"is_reserved":false,"is_disabled":false,"rental_uris":{"android":"levelo://app?vid=697d5fc4-b988-4a4e-8323-c1ce5ed61a61","ios":"levelo://app?vid=697d5fc4-b988-4a4e-8323-c1ce5ed61a61"},"vehicle_type_id":"4","last_reported":1752516993,"current_range_meters":13600,"station_id":"st_cvj6sg6p6f1abm77japg","pricing_plan_id":"cebpf4jnsgd1na2vs0mg"},{"bike_id":"4a19e4ee-cbbe-4fd8-9e6c-310afa6ee6c9","system_id":"levelo_inurba_marseille","lat":43.2319,"lon":5.39988,"is_reserved":false,"is_disabled":true,"rental_uris":{"android":"levelo://app?vid=4a19e4ee-cbbe-4fd8-9e6c-310afa6ee6c9","ios":"levelo://app?vid=4a19e4ee-cbbe-4fd8-9e6c-310afa6ee6c9"},"vehicle_type_id":"4","last_reported":1752516993,"current_range_meters":13600,"station_id":"ce4bhn12rcd13ifvqgqg","pricing_plan_id":"cebpf4jnsgd1na2vs0mg"},{"bike_id":"c22a464f-cc24-4a92-9231-3313c7dfa180","system_id":"levelo_inurba_marseille","lat":43.27823,"lon":5.41446,"is_reserved":false,"is_disabled":false,"rental_uris":{"android":"levelo://app?vid=c22a464f-cc24-4a92-9231-3313c7dfa180","ios":"levelo://app?vid=c22a464f-cc24-4a92-9231-3313c7dfa180"},"vehicle_type_id":"4","last_reported":1752516993,"current_range_meters":13600,"station_id":"","pricing_plan_id":"cebpf4jnsgd1na2vs0mg"},{"bike_id":"1a9a75da-d31f-45b6-a9d7-29449db5ad4c","system_id":"levelo_inurba_marseille","lat":43.2871,"lon":5.37937,"is_reserved":false,"is_disabled":true,"rental_uris":{"android":"levelo://app?vid=1a9a75da-d31f-45b6-a9d7-29449db5ad4c","ios":"levelo://app?vid=1a9a75da-d31f-45b6-a9d7-29449db5ad4c"},"vehicle_type_id":"4","last_reported":1752516993,"current_range_meters":13600,"station_id":"ce4bh9p2rcd13ifvqec0","pricing_plan_id":"cebpf4jnsgd1na2vs0mg"},{"bike_id":"e0577195-a281-49f7-8f25-567644528e8e","system_id":"levelo_inurba_marseille","lat":43.248027,"lon":5.374636,"is_reserved":false,"is_disabled":false,"rental_uris":{"android":"levelo://app?vid=e0577195-a281-49f7-8f25-567644528e8e","ios":"levelo://app?vid=e0577195-a281-49f7-8f25-567644528e8e"},"vehicle_type_id":"4","last_reported":1752516993,"current_range_meters":13600,"station_id":"ce4bhgh2rcd13ifvqfb0","pricing_plan_id":"cebpf4jnsgd1na2vs0mg"},{"bike_id":"08dbf31c-b540-4ca6-b57d-3481ea73d97b","system_id":"levelo_inurba_marseille","lat":43.22507,"lon":5.34773,"is_reserved":false,"is_disabled":false,"rental_uris":{"android":"levelo://app?vid=08dbf31c-b540-4ca6-b57d-3481ea73d97b","ios":"levelo://app?vid=08dbf31c-b540-4ca6-b57d-3481ea73d97b"},"vehicle_type_id":"4","last_reported":1752516993,"current_range_meters":13600,"station_id":"st_cvj5dfep6f1abm77gieg","pricing_plan_id":"cebpf4jnsgd1na2vs0mg"},{"bike_id":"80d31fdf-5f66-41db-8db7-fcedc2f69067","system_id":"levelo_inurba_marseille","lat":43.29516,"lon":5.39402,"is_reserved":false,"is_disabled":false,"rental_uris":{"android":"levelo://app?vid=80d31fdf-5f66-41db-8db7-fcedc2f69067","ios":"levelo://app?vid=80d31fdf-5f66-41db-8db7-fcedc2f69067"},"vehicle_type_id":"4","last_reported":1752516993,"current_range_meters":13600,"station_id":"ce4bh292rcd13ifvqdf0","pricing_plan_id":"cebpf4jnsgd1na2vs0mg"},{"bike_id":"ed892106-7211-488a-b10f-d9b7c9badcdb","system_id":"levelo_inurba_marseille","lat":43.27709,"lon":5.35685,"is_reserved":false,"is_disabled":false,"rental_uris":{"android":"levelo://app?vid=ed892106-7211-488a-b10f-d9b7c9badcdb","ios":"levelo://app?vid=ed892106-7211-488a-b10f-d9b7c9badcdb"},"vehicle_type_id":"4","last_reported":1752516993,"current_range_meters":13600,"station_id":"","pricing_plan_id":"cebpf4jnsgd1na2vs0mg"},{"bike_id":"3f37d7b8-d390-4c43-a82d-ed45f761d47a","system_id":"levelo_inurba_marseille","lat":43.30615,"lon":5.37225,"is_reserved":false,"is_disabled":false,"rental_uris":{"android":"levelo://app?vid=3f37d7b8-d390-4c43-a82d-ed45f761d47a","ios":"levelo://app?vid=3f37d7b8-d390-4c43-a82d-ed45f761d47a"},"vehicle_type_id":"4","last_reported":1752516993,"current_range_meters":13600,"station_id":"ce4bgqh2rcd13ifvqc4g","pricing_plan_id":"cebpf4jnsgd1na2vs0mg"},{"bike_id":"31c64fb2-58d1-429b-913c-5825ad0482c9","system_id":"levelo_inurba_marseille","lat":43.25575,"lon":5.3823,"is_reserved":false,"is_disabled":false,"rental_uris":{"android":"levelo://app?vid=31c64fb2-58d1-429b-913c-5825ad0482c9","ios":"levelo://app?vid=31c64fb2-58d1-429b-913c-5825ad0482c9"},"vehicle_type_id":"4","last_reported":1752516993,"current_range_meters":13600,"station_id":"ce4bhih2rcd13ifvqfs0","pricing_plan_id":"cebpf4jnsgd1na2vs0mg"},{"bike_id":"dcc8696b-32b1-4eb3-abff-8470199629d5","system_id":"levelo_inurba_marseille","lat":43.272523,"lon":5.362642,"is_reserved":false,"is_disabled":false,"rental_uris":{"android":"levelo://app?vid=dcc8696b-32b1-4eb3-abff-8470199629d5","ios":"levelo://app?vid=dcc8696b-32b1-4eb3-abff-8470199629d5"},"vehicle_type_id":"4","last_reported":1752516993,"current_range_meters":14000,"station_id":"","pricing_plan_id":"cebpf4jnsgd1na2vs0mg"},{"bike_id":"e2bf617c-9d07-40ad-b99a-12f1e2277691","system_id":"levelo_inurba_marseille","lat":43.284088,"lon":5.375026,"is_reserved":false,"is_disabled":false,"rental_uris":{"android":"levelo://app?vid=e2bf617c-9d07-40ad-b99a-12f1e2277691","ios":"levelo://app?vid=e2bf617c-9d07-40ad-b99a-12f1e2277691"},"vehicle_type_id":"4","last_reported":1752516993,"current_range_meters":14000,"station_id":"ce4bh412rcd13ifvqds0","pricing_plan_id":"cebpf4jnsgd1na2vs0mg"},{"bike_id":"12d48e4d-a291-49bb-ab45-967804b53d7b","system_id":"levelo_inurba_marseille","lat":43.27623,"lon":5.36108,"is_reserved":false,"is_disabled":true,"rental_uris":{"android":"levelo://app?vid=12d48e4d-a291-49bb-ab45-967804b53d7b","ios":"levelo://app?vid=12d48e4d-a291-49bb-ab45-967804b53d7b"},"vehicle_type_id":"4","last_reported":1752516993,"current_range_meters":14000,"station_id":"ce4bgj92rcd13ifvqbe0","pricing_plan_id":"cebpf4jnsgd1na2vs0mg"},{"bike_id":"e1442ff3-c767-4bb3-901d-e5f60873ad13","system_id":"levelo_inurba_marseille","lat":43.23194,"lon":5.39988,"is_reserved":false,"is_disabled":false,"rental_uris":{"android":"levelo://app?vid=e1442ff3-c767-4bb3-901d-e5f60873ad13","ios":"levelo://app?vid=e1442ff3-c767-4bb3-901d-e5f60873ad13"},"vehicle_type_id":"4","last_reported":1752516993,"current_range_meters":14000,"station_id":"ce4bhn12rcd13ifvqgqg","pricing_plan_id":"cebpf4jnsgd1na2vs0mg"},{"bike_id":"8f1c9e9b-3c80-4068-8f5f-2bb2adfbbc71","system_id":"levelo_inurba_marseille","lat":43.28151,"lon":5.42649,"is_reserved":false,"is_disabled":false,"rental_uris":{"android":"levelo://app?vid=8f1c9e9b-3c80-4068-8f5f-2bb2adfbbc71","ios":"levelo://app?vid=8f1c9e9b-3c80-4068-8f5f-2bb2adfbbc71"},"vehicle_type_id":"4","last_reported":1752516993,"current_range_meters":14000,"station_id":"ce4bhnh2rcd13ifvqgug","pricing_plan_id":"cebpf4jnsgd1na2vs0mg"},{"bike_id":"6ac174d4-75c5-4a9c-9699-97cd631c6e65","system_id":"levelo_inurba_marseille","lat":43.254646,"lon":5.39934,"is_reserved":false,"is_disabled":false,"rental_uris":{"android":"levelo://app?vid=6ac174d4-75c5-4a9c-9699-97cd631c6e65","ios":"levelo://app?vid=6ac174d4-75c5-4a9c-9699-97cd631c6e65"},"vehicle_type_id":"4","last_reported":1752516993,"current_range_meters":14000,"station_id":"","pricing_plan_id":"cebpf4jnsgd1na2vs0mg"},{"bike_id":"1f032cfb-d72b-4c2b-9ac0-24b2f156b99a","system_id":"levelo_inurba_marseille","lat":43.31354,"lon":5.38501,"is_reserved":false,"is_disabled":false,"rental_uris":{"android":"levelo://app?vid=1f032cfb-d72b-4c2b-9ac0-24b2f156b99a","ios":"levelo://app?vid=1f032cfb-d72b-4c2b-9ac0-24b2f156b99a"},"vehicle_type_id":"4","last_reported":1752516993,"current_range_meters":14000,"station_id":"ce4bgt92rcd13ifvqcf0","pricing_plan_id":"cebpf4jnsgd1na2vs0mg"},{"bike_id":"7f6dc48a-5c65-4adb-93c2-61578eddfb82","system_id":"levelo_inurba_marseille","lat":43.29417,"lon":5.38628,"is_reserved":false,"is_disabled":false,"rental_uris":{"android":"levelo://app?vid=7f6dc48a-5c65-4adb-93c2-61578eddfb82","ios":"levelo://app?vid=7f6dc48a-5c65-4adb-93c2-61578eddfb82"},"vehicle_type_id":"4","last_reported":1752516993,"current_range_meters":14000,"station_id":"ce4bh2h2rcd13ifvqdh0","pricing_plan_id":"cebpf4jnsgd1na2vs0mg"},{"bike_id":"23a0fc67-4c39-4b74-8a86-2903d79b1606","system_id":"levelo_inurba_marseille","lat":43.231945,"lon":5.355489,"is_reserved":false,"is_disabled":false,"rental_uris":{"android":"levelo://app?vid=23a0fc67-4c39-4b74-8a86-2903d79b1606","ios":"levelo://app?vid=23a0fc67-4c39-4b74-8a86-2903d79b1606"},"vehicle_type_id":"4","last_reported":1752516993,"current_range_meters":14000,"station_id":"ce4bhu92rcd13ifvqi70","pricing_plan_id":"cebpf4jnsgd1na2vs0mg"},{"bike_id":"e9390ec1-787b-442e-a520-d4b980185656","system_id":"levelo_inurba_marseille","lat":43.27943,"lon":5.41049,"is_reserved":false,"is_disabled":false,"rental_uris":{"android":"levelo://app?vid=e9390ec1-787b-442e-a520-d4b980185656","ios":"levelo://app?vid=e9390ec1-787b-442e-a520-d4b980185656"},"vehicle_type_id":"4","last_reported":1752516993,"current_range_meters":14000,"station_id":"ce4bhnp2rcd13ifvqh0g","pricing_plan_id":"cebpf4jnsgd1na2vs0mg"},{"bike_id":"c4c51353-50de-479e-9ef2-6d14c10a7ee8","system_id":"levelo_inurba_marseille","lat":43.30424,"lon":5.38885,"is_reserved":false,"is_disabled":false,"rental_uris":{"android":"levelo://app?vid=c4c51353-50de-479e-9ef2-6d14c10a7ee8","ios":"levelo://app?vid=c4c51353-50de-479e-9ef2-6d14c10a7ee8"},"vehicle_type_id":"4","last_reported":1752516993,"current_range_meters":14000,"station_id":"ce4bgk12rcd13ifvqbi0","pricing_plan_id":"cebpf4jnsgd1na2vs0mg"},{"bike_id":"246fbd04-50ac-439d-9515-f05235400775","system_id":"levelo_inurba_marseille","lat":43.30323,"lon":5.40446,"is_reserved":false,"is_disabled":false,"rental_uris":{"android":"levelo://app?vid=246fbd04-50ac-439d-9515-f05235400775","ios":"levelo://app?vid=246fbd04-50ac-439d-9515-f05235400775"},"vehicle_type_id":"4","last_reported":1752516993,"current_range_meters":14400,"station_id":"ce4bh012rcd13ifvqd10","pricing_plan_id":"cebpf4jnsgd1na2vs0mg"},{"bike_id":"3aeb38b0-0dee-449a-9141-094a1dcae1f6","system_id":"levelo_inurba_marseille","lat":43.25017,"lon":5.38906,"is_reserved":false,"is_disabled":false,"rental_uris":{"android":"levelo://app?vid=3aeb38b0-0dee-449a-9141-094a1dcae1f6","ios":"levelo://app?vid=3aeb38b0-0dee-449a-9141-094a1dcae1f6"},"vehicle_type_id":"4","last_reported":1752516993,"current_range_meters":14400,"station_id":"ce4bhgp2rcd13ifvqfd0","pricing_plan_id":"cebpf4jnsgd1na2vs0mg"},{"bike_id":"ed74f810-226b-4edb-a7d8-2c9a86d071a4","system_id":"levelo_inurba_marseille","lat":43.21188,"lon":5.35076,"is_reserved":false,"is_disabled":false,"rental_uris":{"android":"levelo://app?vid=ed74f810-226b-4edb-a7d8-2c9a86d071a4","ios":"levelo://app?vid=ed74f810-226b-4edb-a7d8-2c9a86d071a4"},"vehicle_type_id":"4","last_reported":1752516993,"current_range_meters":14400,"station_id":"st_cvj6sg6p6f1abm77japg","pricing_plan_id":"cebpf4jnsgd1na2vs0mg"},{"bike_id":"a3ec3b7b-cbe5-4b4c-b4a1-6535b4bb722e","system_id":"levelo_inurba_marseille","lat":43.28625,"lon":5.37032,"is_reserved":false,"is_disabled":false,"rental_uris":{"android":"levelo://app?vid=a3ec3b7b-cbe5-4b4c-b4a1-6535b4bb722e","ios":"levelo://app?vid=a3ec3b7b-cbe5-4b4c-b4a1-6535b4bb722e"},"vehicle_type_id":"4","last_reported":1752516993,"current_range_meters":14400,"station_id":"ce4bht12rcd13ifvqi60","pricing_plan_id":"cebpf4jnsgd1na2vs0mg"},{"bike_id":"9bb8be77-713d-4eb6-9381-f5ff9ebe964a","system_id":"levelo_inurba_marseille","lat":43.28424,"lon":5.37511,"is_reserved":false,"is_disabled":false,"rental_uris":{"android":"levelo://app?vid=9bb8be77-713d-4eb6-9381-f5ff9ebe964a","ios":"levelo://app?vid=9bb8be77-713d-4eb6-9381-f5ff9ebe964a"},"vehicle_type_id":"4","last_reported":1752516993,"current_range_meters":14800,"station_id":"ce4bh412rcd13ifvqds0","pricing_plan_id":"cebpf4jnsgd1na2vs0mg"},{"bike_id":"96e8fede-5da7-4c3c-88cd-02807c898154","system_id":"levelo_inurba_marseille","lat":43.32482,"lon":5.36568,"is_reserved":false,"is_disabled":false,"rental_uris":{"android":"levelo://app?vid=96e8fede-5da7-4c3c-88cd-02807c898154","ios":"levelo://app?vid=96e8fede-5da7-4c3c-88cd-02807c898154"},"vehicle_type_id":"4","last_reported":1752516993,"current_range_meters":14800,"station_id":"ce4bhs12rcd13ifvqhvg","pricing_plan_id":"cebpf4jnsgd1na2vs0mg"},{"bike_id":"f9a8beb4-2629-4a21-b5a8-85a7348028cb","system_id":"levelo_inurba_marseille","lat":43.24808,"lon":5.37431,"is_reserved":false,"is_disabled":false,"rental_uris":{"android":"levelo://app?vid=f9a8beb4-2629-4a21-b5a8-85a7348028cb","ios":"levelo://app?vid=f9a8beb4-2629-4a21-b5a8-85a7348028cb"},"vehicle_type_id":"4","last_reported":1752516993,"current_range_meters":14800,"station_id":"ce4bhgh2rcd13ifvqfb0","pricing_plan_id":"cebpf4jnsgd1na2vs0mg"},{"bike_id":"01ed777f-af72-4c0d-8252-e1b087832101","system_id":"levelo_inurba_marseille","lat":43.28608,"lon":5.37058,"is_reserved":false,"is_disabled":false,"rental_uris":{"android":"levelo://app?vid=01ed777f-af72-4c0d-8252-e1b087832101","ios":"levelo://app?vid=01ed777f-af72-4c0d-8252-e1b087832101"},"vehicle_type_id":"4","last_reported":1752516993,"current_range_meters":14800,"station_id":"ce4bht12rcd13ifvqi60","pricing_plan_id":"cebpf4jnsgd1na2vs0mg"},{"bike_id":"f3dfcb36-bf02-4507-82f7-3330fdf4de3f","system_id":"levelo_inurba_marseille","lat":43.29225,"lon":5.36057,"is_reserved":false,"is_disabled":false,"rental_uris":{"android":"levelo://app?vid=f3dfcb36-bf02-4507-82f7-3330fdf4de3f","ios":"levelo://app?vid=f3dfcb36-bf02-4507-82f7-3330fdf4de3f"},"vehicle_type_id":"4","last_reported":1752516993,"current_range_meters":14800,"station_id":"ce4bhbh2rcd13ifvqeqg","pricing_plan_id":"cebpf4jnsgd1na2vs0mg"},{"bike_id":"e52a0a0f-9372-4622-adb3-4c3e9a501e61","system_id":"levelo_inurba_marseille","lat":43.28618,"lon":5.37065,"is_reserved":false,"is_disabled":false,"rental_uris":{"android":"levelo://app?vid=e52a0a0f-9372-4622-adb3-4c3e9a501e61","ios":"levelo://app?vid=e52a0a0f-9372-4622-adb3-4c3e9a501e61"},"vehicle_type_id":"4","last_reported":1752516993,"current_range_meters":14800,"station_id":"ce4bht12rcd13ifvqi60","pricing_plan_id":"cebpf4jnsgd1na2vs0mg"},{"bike_id":"b6771d12-4d0b-4004-8d85-15a22b02cf35","system_id":"levelo_inurba_marseille","lat":43.2558,"lon":5.38227,"is_reserved":false,"is_disabled":false,"rental_uris":{"android":"levelo://app?vid=b6771d12-4d0b-4004-8d85-15a22b02cf35","ios":"levelo://app?vid=b6771d12-4d0b-4004-8d85-15a22b02cf35"},"vehicle_type_id":"4","last_reported":1752516993,"current_range_meters":14800,"station_id":"ce4bhih2rcd13ifvqfs0","pricing_plan_id":"cebpf4jnsgd1na2vs0mg"},{"bike_id":"183abb6a-8659-4963-b677-ebabcd5c1850","system_id":"levelo_inurba_marseille","lat":43.28933,"lon":5.3664,"is_reserved":false,"is_disabled":false,"rental_uris":{"android":"levelo://app?vid=183abb6a-8659-4963-b677-ebabcd5c1850","ios":"levelo://app?vid=183abb6a-8659-4963-b677-ebabcd5c1850"},"vehicle_type_id":"4","last_reported":1752516993,"current_range_meters":14800,"station_id":"ce4bhap2rcd13ifvqek0","pricing_plan_id":"cebpf4jnsgd1na2vs0mg"},{"bike_id":"62c2a42f-6d72-42cd-9bd7-760a20f37939","system_id":"levelo_inurba_marseille","lat":43.29314,"lon":5.37184,"is_reserved":false,"is_disabled":false,"rental_uris":{"android":"levelo://app?vid=62c2a42f-6d72-42cd-9bd7-760a20f37939","ios":"levelo://app?vid=62c2a42f-6d72-42cd-9bd7-760a20f37939"},"vehicle_type_id":"4","last_reported":1752516993,"current_range_meters":14800,"station_id":"ce4bgh92rcd13ifvqb40","pricing_plan_id":"cebpf4jnsgd1na2vs0mg"},{"bike_id":"5fa858c5-b668-473d-980c-66352519635e","system_id":"levelo_inurba_marseille","lat":43.24096,"lon":5.37762,"is_reserved":false,"is_disabled":false,"rental_uris":{"android":"levelo://app?vid=5fa858c5-b668-473d-980c-66352519635e","ios":"levelo://app?vid=5fa858c5-b668-473d-980c-66352519635e"},"vehicle_type_id":"4","last_reported":1752516993,"current_range_meters":15200,"station_id":"ce4bhnp2rcd13ifvqgvg","pricing_plan_id":"cebpf4jnsgd1na2vs0mg"},{"bike_id":"2c5a0a8d-b80f-43a1-91ae-93c8cb7cac46","system_id":"levelo_inurba_marseille","lat":43.290249,"lon":5.381227,"is_reserved":false,"is_disabled":false,"rental_uris":{"android":"levelo://app?vid=2c5a0a8d-b80f-43a1-91ae-93c8cb7cac46","ios":"levelo://app?vid=2c5a0a8d-b80f-43a1-91ae-93c8cb7cac46"},"vehicle_type_id":"4","last_reported":1752516993,"current_range_meters":15200,"station_id":"","pricing_plan_id":"cebpf4jnsgd1na2vs0mg"},{"bike_id":"f609b82a-8982-4e21-a7f7-8197e969b983","system_id":"levelo_inurba_marseille","lat":43.25088,"lon":5.39524,"is_reserved":false,"is_disabled":false,"rental_uris":{"android":"levelo://app?vid=f609b82a-8982-4e21-a7f7-8197e969b983","ios":"levelo://app?vid=f609b82a-8982-4e21-a7f7-8197e969b983"},"vehicle_type_id":"4","last_reported":1752516993,"current_range_meters":15200,"station_id":"ce4bhm12rcd13ifvqgkg","pricing_plan_id":"cebpf4jnsgd1na2vs0mg"},{"bike_id":"07f48281-9b1f-44fc-aec7-2073418ecf01","system_id":"levelo_inurba_marseille","lat":43.2738,"lon":5.36261,"is_reserved":false,"is_disabled":false,"rental_uris":{"android":"levelo://app?vid=07f48281-9b1f-44fc-aec7-2073418ecf01","ios":"levelo://app?vid=07f48281-9b1f-44fc-aec7-2073418ecf01"},"vehicle_type_id":"4","last_reported":1752516993,"current_range_meters":15200,"station_id":"ce4bhbh2rcd13ifvqeo0","pricing_plan_id":"cebpf4jnsgd1na2vs0mg"},{"bike_id":"911650c3-ea50-4b8c-8473-5888a414bb55","system_id":"levelo_inurba_marseille","lat":43.26938,"lon":5.4026,"is_reserved":false,"is_disabled":false,"rental_uris":{"android":"levelo://app?vid=911650c3-ea50-4b8c-8473-5888a414bb55","ios":"levelo://app?vid=911650c3-ea50-4b8c-8473-5888a414bb55"},"vehicle_type_id":"4","last_reported":1752516993,"current_range_meters":15200,"station_id":"cjm6bp8fraef2m0cb0m0","pricing_plan_id":"cebpf4jnsgd1na2vs0mg"},{"bike_id":"d737a850-3f4c-4da8-8407-a86938d4122e","system_id":"levelo_inurba_marseille","lat":43.30598,"lon":5.37231,"is_reserved":false,"is_disabled":false,"rental_uris":{"android":"levelo://app?vid=d737a850-3f4c-4da8-8407-a86938d4122e","ios":"levelo://app?vid=d737a850-3f4c-4da8-8407-a86938d4122e"},"vehicle_type_id":"4","last_reported":1752516993,"current_range_meters":15200,"station_id":"ce4bgqh2rcd13ifvqc4g","pricing_plan_id":"cebpf4jnsgd1na2vs0mg"},{"bike_id":"44e10618-e1b8-4569-bc24-980853c4bf04","system_id":"levelo_inurba_marseille","lat":43.22944,"lon":5.35376,"is_reserved":false,"is_disabled":true,"rental_uris":{"android":"levelo://app?vid=44e10618-e1b8-4569-bc24-980853c4bf04","ios":"levelo://app?vid=44e10618-e1b8-4569-bc24-980853c4bf04"},"vehicle_type_id":"4","last_reported":1752516993,"current_range_meters":16000,"station_id":"cpo3532slgdg3j2ikp40","pricing_plan_id":"cebpf4jnsgd1na2vs0mg"},{"bike_id":"1f0cce64-f093-4cee-8a81-cdf4f731fc39","system_id":"levelo_inurba_marseille","lat":43.286,"lon":5.37075,"is_reserved":false,"is_disabled":false,"rental_uris":{"android":"levelo://app?vid=1f0cce64-f093-4cee-8a81-cdf4f731fc39","ios":"levelo://app?vid=1f0cce64-f093-4cee-8a81-cdf4f731fc39"},"vehicle_type_id":"4","last_reported":1752516993,"current_range_meters":16000,"station_id":"ce4bht12rcd13ifvqi60","pricing_plan_id":"cebpf4jnsgd1na2vs0mg"},{"bike_id":"c4394d8c-8102-4300-bdb5-758262918af2","system_id":"levelo_inurba_marseille","lat":43.30945,"lon":5.40146,"is_reserved":false,"is_disabled":true,"rental_uris":{"android":"levelo://app?vid=c4394d8c-8102-4300-bdb5-758262918af2","ios":"levelo://app?vid=c4394d8c-8102-4300-bdb5-758262918af2"},"vehicle_type_id":"4","last_reported":1752516993,"current_range_meters":16000,"station_id":"ce4bgvp2rcd13ifvqct0","pricing_plan_id":"cebpf4jnsgd1na2vs0mg"},{"bike_id":"23bd6792-7a07-47c2-925b-fc5bf8eb0083","system_id":"levelo_inurba_marseille","lat":43.24807,"lon":5.37456,"is_reserved":false,"is_disabled":false,"rental_uris":{"android":"levelo://app?vid=23bd6792-7a07-47c2-925b-fc5bf8eb0083","ios":"levelo://app?vid=23bd6792-7a07-47c2-925b-fc5bf8eb0083"},"vehicle_type_id":"4","last_reported":1752516993,"current_range_meters":16000,"station_id":"ce4bhgh2rcd13ifvqfb0","pricing_plan_id":"cebpf4jnsgd1na2vs0mg"},{"bike_id":"a67f7f7e-34ac-409a-afb2-2c12b745318e","system_id":"levelo_inurba_marseille","lat":43.26214,"lon":5.37439,"is_reserved":false,"is_disabled":false,"rental_uris":{"android":"levelo://app?vid=a67f7f7e-34ac-409a-afb2-2c12b745318e","ios":"levelo://app?vid=a67f7f7e-34ac-409a-afb2-2c12b745318e"},"vehicle_type_id":"4","last_reported":1752516993,"current_range_meters":16000,"station_id":"ce4bhgp2rcd13ifvqfc0","pricing_plan_id":"cebpf4jnsgd1na2vs0mg"},{"bike_id":"efe708c8-0c32-490b-a201-369611b78909","system_id":"levelo_inurba_marseille","lat":43.307861,"lon":5.376561,"is_reserved":false,"is_disabled":false,"rental_uris":{"android":"levelo://app?vid=efe708c8-0c32-490b-a201-369611b78909","ios":"levelo://app?vid=efe708c8-0c32-490b-a201-369611b78909"},"vehicle_type_id":"4","last_reported":1752516993,"current_range_meters":16000,"station_id":"ce4bgv92rcd13ifvqcq0","pricing_plan_id":"cebpf4jnsgd1na2vs0mg"},{"bike_id":"0b837ad9-352f-4551-8fe4-0618f3bcdb9b","system_id":"levelo_inurba_marseille","lat":43.28611,"lon":5.3706,"is_reserved":false,"is_disabled":false,"rental_uris":{"android":"levelo://app?vid=0b837ad9-352f-4551-8fe4-0618f3bcdb9b","ios":"levelo://app?vid=0b837ad9-352f-4551-8fe4-0618f3bcdb9b"},"vehicle_type_id":"4","last_reported":1752516993,"current_range_meters":16000,"station_id":"ce4bht12rcd13ifvqi60","pricing_plan_id":"cebpf4jnsgd1na2vs0mg"},{"bike_id":"a49b3ed9-5302-4b23-81f3-c3f12b624fd0","system_id":"levelo_inurba_marseille","lat":43.29865,"lon":5.39739,"is_reserved":false,"is_disabled":false,"rental_uris":{"android":"levelo://app?vid=a49b3ed9-5302-4b23-81f3-c3f12b624fd0","ios":"levelo://app?vid=a49b3ed9-5302-4b23-81f3-c3f12b624fd0"},"vehicle_type_id":"4","last_reported":1752516993,"current_range_meters":16000,"station_id":"ce4bh0h2rcd13ifvqd50","pricing_plan_id":"cebpf4jnsgd1na2vs0mg"},{"bike_id":"96404d04-512d-4e45-b57c-350a79134d38","system_id":"levelo_inurba_marseille","lat":43.211963,"lon":5.350652,"is_reserved":false,"is_disabled":false,"rental_uris":{"android":"levelo://app?vid=96404d04-512d-4e45-b57c-350a79134d38","ios":"levelo://app?vid=96404d04-512d-4e45-b57c-350a79134d38"},"vehicle_type_id":"4","last_reported":1752516993,"current_range_meters":16000,"station_id":"st_cvj6sg6p6f1abm77japg","pricing_plan_id":"cebpf4jnsgd1na2vs0mg"},{"bike_id":"edb1306a-3e7f-4b1f-a66f-3b31cf28f000","system_id":"levelo_inurba_marseille","lat":43.27387,"lon":5.3622,"is_reserved":false,"is_disabled":false,"rental_uris":{"android":"levelo://app?vid=edb1306a-3e7f-4b1f-a66f-3b31cf28f000","ios":"levelo://app?vid=edb1306a-3e7f-4b1f-a66f-3b31cf28f000"},"vehicle_type_id":"4","last_reported":1752516993,"current_range_meters":16000,"station_id":"","pricing_plan_id":"cebpf4jnsgd1na2vs0mg"},{"bike_id":"fc63a067-9cf2-4c58-bfdd-3270ab1898f2","system_id":"levelo_inurba_marseille","lat":43.22942,"lon":5.3536,"is_reserved":false,"is_disabled":false,"rental_uris":{"android":"levelo://app?vid=fc63a067-9cf2-4c58-bfdd-3270ab1898f2","ios":"levelo://app?vid=fc63a067-9cf2-4c58-bfdd-3270ab1898f2"},"vehicle_type_id":"4","last_reported":1752516993,"current_range_meters":16400,"station_id":"cpo3532slgdg3j2ikp40","pricing_plan_id":"cebpf4jnsgd1na2vs0mg"},{"bike_id":"0e732ee3-05b4-4200-b018-03867ac23659","system_id":"levelo_inurba_marseille","lat":43.25089,"lon":5.39525,"is_reserved":false,"is_disabled":false,"rental_uris":{"android":"levelo://app?vid=0e732ee3-05b4-4200-b018-03867ac23659","ios":"levelo://app?vid=0e732ee3-05b4-4200-b018-03867ac23659"},"vehicle_type_id":"4","last_reported":1752516993,"current_range_meters":16400,"station_id":"ce4bhm12rcd13ifvqgkg","pricing_plan_id":"cebpf4jnsgd1na2vs0mg"},{"bike_id":"f6a164c4-0035-4f69-b45e-704a943a6c15","system_id":"levelo_inurba_marseille","lat":43.29708,"lon":5.36597,"is_reserved":false,"is_disabled":false,"rental_uris":{"android":"levelo://app?vid=f6a164c4-0035-4f69-b45e-704a943a6c15","ios":"levelo://app?vid=f6a164c4-0035-4f69-b45e-704a943a6c15"},"vehicle_type_id":"4","last_reported":1752516993,"current_range_meters":16400,"station_id":"ce4bgn12rcd13ifvqbt0","pricing_plan_id":"cebpf4jnsgd1na2vs0mg"},{"bike_id":"d0f90c24-dd03-411b-9731-55305f76b7c8","system_id":"levelo_inurba_marseille","lat":43.21193,"lon":5.350734,"is_reserved":false,"is_disabled":false,"rental_uris":{"android":"levelo://app?vid=d0f90c24-dd03-411b-9731-55305f76b7c8","ios":"levelo://app?vid=d0f90c24-dd03-411b-9731-55305f76b7c8"},"vehicle_type_id":"4","last_reported":1752516993,"current_range_meters":16400,"station_id":"st_cvj6sg6p6f1abm77japg","pricing_plan_id":"cebpf4jnsgd1na2vs0mg"},{"bike_id":"3e9e8c3d-5f1f-4564-a4c4-86972c2dd72f","system_id":"levelo_inurba_marseille","lat":43.2763,"lon":5.36095,"is_reserved":false,"is_disabled":false,"rental_uris":{"android":"levelo://app?vid=3e9e8c3d-5f1f-4564-a4c4-86972c2dd72f","ios":"levelo://app?vid=3e9e8c3d-5f1f-4564-a4c4-86972c2dd72f"},"vehicle_type_id":"4","last_reported":1752516993,"current_range_meters":16400,"station_id":"ce4bgj92rcd13ifvqbe0","pricing_plan_id":"cebpf4jnsgd1na2vs0mg"},{"bike_id":"f10941ce-d19a-4475-b0ba-1c38d332727e","system_id":"levelo_inurba_marseille","lat":43.3218,"lon":5.38697,"is_reserved":false,"is_disabled":false,"rental_uris":{"android":"levelo://app?vid=f10941ce-d19a-4475-b0ba-1c38d332727e","ios":"levelo://app?vid=f10941ce-d19a-4475-b0ba-1c38d332727e"},"vehicle_type_id":"4","last_reported":1752516993,"current_range_meters":16400,"station_id":"","pricing_plan_id":"cebpf4jnsgd1na2vs0mg"},{"bike_id":"f935df16-9efd-4bac-8cd5-67cab344bb7d","system_id":"levelo_inurba_marseille","lat":43.29021,"lon":5.38133,"is_reserved":false,"is_disabled":false,"rental_uris":{"android":"levelo://app?vid=f935df16-9efd-4bac-8cd5-67cab344bb7d","ios":"levelo://app?vid=f935df16-9efd-4bac-8cd5-67cab344bb7d"},"vehicle_type_id":"4","last_reported":1752516993,"current_range_meters":16400,"station_id":"ce4bh4p2rcd13ifvqe1g","pricing_plan_id":"cebpf4jnsgd1na2vs0mg"},{"bike_id":"70dcc206-4dc0-4cb0-8050-3c672a0219c0","system_id":"levelo_inurba_marseille","lat":43.30373,"lon":5.42481,"is_reserved":false,"is_disabled":false,"rental_uris":{"android":"levelo://app?vid=70dcc206-4dc0-4cb0-8050-3c672a0219c0","ios":"levelo://app?vid=70dcc206-4dc0-4cb0-8050-3c672a0219c0"},"vehicle_type_id":"4","last_reported":1752516993,"current_range_meters":16400,"station_id":"ce4bhoh2rcd13ifvqh6g","pricing_plan_id":"cebpf4jnsgd1na2vs0mg"},{"bike_id":"cad1d8dc-9190-4ec4-9d93-661b53e7b17a","system_id":"levelo_inurba_marseille","lat":43.28413,"lon":5.37502,"is_reserved":false,"is_disabled":false,"rental_uris":{"android":"levelo://app?vid=cad1d8dc-9190-4ec4-9d93-661b53e7b17a","ios":"levelo://app?vid=cad1d8dc-9190-4ec4-9d93-661b53e7b17a"},"vehicle_type_id":"4","last_reported":1752516993,"current_range_meters":16400,"station_id":"ce4bh412rcd13ifvqds0","pricing_plan_id":"cebpf4jnsgd1na2vs0mg"},{"bike_id":"403880bc-8bea-46f6-8a81-b7f6860118ac","system_id":"levelo_inurba_marseille","lat":43.29262,"lon":5.38427,"is_reserved":false,"is_disabled":true,"rental_uris":{"android":"levelo://app?vid=403880bc-8bea-46f6-8a81-b7f6860118ac","ios":"levelo://app?vid=403880bc-8bea-46f6-8a81-b7f6860118ac"},"vehicle_type_id":"4","last_reported":1752516993,"current_range_meters":16400,"station_id":"ce4bh692rcd13ifvqea0","pricing_plan_id":"cebpf4jnsgd1na2vs0mg"},{"bike_id":"65c70146-9873-41a1-a6af-d1489f1a8d52","system_id":"levelo_inurba_marseille","lat":43.29307,"lon":5.37173,"is_reserved":false,"is_disabled":false,"rental_uris":{"android":"levelo://app?vid=65c70146-9873-41a1-a6af-d1489f1a8d52","ios":"levelo://app?vid=65c70146-9873-41a1-a6af-d1489f1a8d52"},"vehicle_type_id":"4","last_reported":1752516993,"current_range_meters":16400,"station_id":"ce4bgh92rcd13ifvqb40","pricing_plan_id":"cebpf4jnsgd1na2vs0mg"},{"bike_id":"f760b0dd-79d9-455a-8627-977bbd42074c","system_id":"levelo_inurba_marseille","lat":43.29618,"lon":5.37738,"is_reserved":false,"is_disabled":false,"rental_uris":{"android":"levelo://app?vid=f760b0dd-79d9-455a-8627-977bbd42074c","ios":"levelo://app?vid=f760b0dd-79d9-455a-8627-977bbd42074c"},"vehicle_type_id":"4","last_reported":1752516993,"current_range_meters":16800,"station_id":"ce4bgi92rcd13ifvqb90","pricing_plan_id":"cebpf4jnsgd1na2vs0mg"},{"bike_id":"f6e16f5c-d0c5-437a-a6e3-ecd369cbf9f0","system_id":"levelo_inurba_marseille","lat":43.241688,"lon":5.363975,"is_reserved":false,"is_disabled":false,"rental_uris":{"android":"levelo://app?vid=f6e16f5c-d0c5-437a-a6e3-ecd369cbf9f0","ios":"levelo://app?vid=f6e16f5c-d0c5-437a-a6e3-ecd369cbf9f0"},"vehicle_type_id":"4","last_reported":1752516993,"current_range_meters":16800,"station_id":"cpo36qri1sfpv3e86is0","pricing_plan_id":"cebpf4jnsgd1na2vs0mg"},{"bike_id":"288e70a0-1b5c-4b71-ab7d-ffcb71dc62ca","system_id":"levelo_inurba_marseille","lat":43.284,"lon":5.37511,"is_reserved":false,"is_disabled":false,"rental_uris":{"android":"levelo://app?vid=288e70a0-1b5c-4b71-ab7d-ffcb71dc62ca","ios":"levelo://app?vid=288e70a0-1b5c-4b71-ab7d-ffcb71dc62ca"},"vehicle_type_id":"4","last_reported":1752516993,"current_range_meters":16800,"station_id":"ce4bh412rcd13ifvqds0","pricing_plan_id":"cebpf4jnsgd1na2vs0mg"},{"bike_id":"2f9043b4-5875-4794-a682-a6a782090c68","system_id":"levelo_inurba_marseille","lat":43.23199,"lon":5.3556,"is_reserved":false,"is_disabled":false,"rental_uris":{"android":"levelo://app?vid=2f9043b4-5875-4794-a682-a6a782090c68","ios":"levelo://app?vid=2f9043b4-5875-4794-a682-a6a782090c68"},"vehicle_type_id":"4","last_reported":1752516993,"current_range_meters":16800,"station_id":"ce4bhu92rcd13ifvqi70","pricing_plan_id":"cebpf4jnsgd1na2vs0mg"},{"bike_id":"5ab9d21a-d1ca-4df2-9c86-e9600122b4da","system_id":"levelo_inurba_marseille","lat":43.30304,"lon":5.368972,"is_reserved":false,"is_disabled":false,"rental_uris":{"android":"levelo://app?vid=5ab9d21a-d1ca-4df2-9c86-e9600122b4da","ios":"levelo://app?vid=5ab9d21a-d1ca-4df2-9c86-e9600122b4da"},"vehicle_type_id":"4","last_reported":1752516993,"current_range_meters":16800,"station_id":"ce4bgqh2rcd13ifvqc5g","pricing_plan_id":"cebpf4jnsgd1na2vs0mg"},{"bike_id":"6c6d4d9a-6141-481c-9c1a-8e61054bdc43","system_id":"levelo_inurba_marseille","lat":43.24786,"lon":5.41764,"is_reserved":false,"is_disabled":false,"rental_uris":{"android":"levelo://app?vid=6c6d4d9a-6141-481c-9c1a-8e61054bdc43","ios":"levelo://app?vid=6c6d4d9a-6141-481c-9c1a-8e61054bdc43"},"vehicle_type_id":"4","last_reported":1752516993,"current_range_meters":16800,"station_id":"","pricing_plan_id":"cebpf4jnsgd1na2vs0mg"},{"bike_id":"48a72147-d63a-4fad-9403-9184689656c8","system_id":"levelo_inurba_marseille","lat":43.243939,"lon":5.370618,"is_reserved":false,"is_disabled":true,"rental_uris":{"android":"levelo://app?vid=48a72147-d63a-4fad-9403-9184689656c8","ios":"levelo://app?vid=48a72147-d63a-4fad-9403-9184689656c8"},"vehicle_type_id":"4","last_reported":1752516993,"current_range_meters":16800,"station_id":"ce4bhhh2rcd13ifvqfk0","pricing_plan_id":"cebpf4jnsgd1na2vs0mg"},{"bike_id":"7484cdc9-66b1-4187-8e91-b98168394635","system_id":"levelo_inurba_marseille","lat":43.29078,"lon":5.37163,"is_reserved":false,"is_disabled":false,"rental_uris":{"android":"levelo://app?vid=7484cdc9-66b1-4187-8e91-b98168394635","ios":"levelo://app?vid=7484cdc9-66b1-4187-8e91-b98168394635"},"vehicle_type_id":"4","last_reported":1752516993,"current_range_meters":16800,"station_id":"ce4bh5p2rcd13ifvqe4g","pricing_plan_id":"cebpf4jnsgd1na2vs0mg"},{"bike_id":"a2d2b4f0-7bc6-4faa-8300-7599f5af9fc4","system_id":"levelo_inurba_marseille","lat":43.29069,"lon":5.3716,"is_reserved":false,"is_disabled":false,"rental_uris":{"android":"levelo://app?vid=a2d2b4f0-7bc6-4faa-8300-7599f5af9fc4","ios":"levelo://app?vid=a2d2b4f0-7bc6-4faa-8300-7599f5af9fc4"},"vehicle_type_id":"4","last_reported":1752516993,"current_range_meters":16400,"station_id":"ce4bh5p2rcd13ifvqe4g","pricing_plan_id":"cebpf4jnsgd1na2vs0mg"},{"bike_id":"492a35a5-aa85-4b48-9133-f320d4fa82e1","system_id":"levelo_inurba_marseille","lat":43.28628,"lon":5.37038,"is_reserved":false,"is_disabled":false,"rental_uris":{"android":"levelo://app?vid=492a35a5-aa85-4b48-9133-f320d4fa82e1","ios":"levelo://app?vid=492a35a5-aa85-4b48-9133-f320d4fa82e1"},"vehicle_type_id":"4","last_reported":1752516993,"current_range_meters":16800,"station_id":"ce4bht12rcd13ifvqi60","pricing_plan_id":"cebpf4jnsgd1na2vs0mg"},{"bike_id":"def3d27f-26a3-4eb1-a992-b40bce4396e0","system_id":"levelo_inurba_marseille","lat":43.21731,"lon":5.34609,"is_reserved":false,"is_disabled":false,"rental_uris":{"android":"levelo://app?vid=def3d27f-26a3-4eb1-a992-b40bce4396e0","ios":"levelo://app?vid=def3d27f-26a3-4eb1-a992-b40bce4396e0"},"vehicle_type_id":"4","last_reported":1752516993,"current_range_meters":17200,"station_id":"st_cvj6r9ubvosntc0bgbag","pricing_plan_id":"cebpf4jnsgd1na2vs0mg"},{"bike_id":"01beb3f2-c54f-4f68-af15-b28ae7c75196","system_id":"levelo_inurba_marseille","lat":43.30156,"lon":5.39871,"is_reserved":false,"is_disabled":true,"rental_uris":{"android":"levelo://app?vid=01beb3f2-c54f-4f68-af15-b28ae7c75196","ios":"levelo://app?vid=01beb3f2-c54f-4f68-af15-b28ae7c75196"},"vehicle_type_id":"4","last_reported":1752516993,"current_range_meters":17200,"station_id":"ce4bh0h2rcd13ifvqd40","pricing_plan_id":"cebpf4jnsgd1na2vs0mg"},{"bike_id":"918656f6-7188-4740-83b1-dfd60fadb64b","system_id":"levelo_inurba_marseille","lat":43.21778,"lon":5.34571,"is_reserved":false,"is_disabled":false,"rental_uris":{"android":"levelo://app?vid=918656f6-7188-4740-83b1-dfd60fadb64b","ios":"levelo://app?vid=918656f6-7188-4740-83b1-dfd60fadb64b"},"vehicle_type_id":"4","last_reported":1752516993,"current_range_meters":17200,"station_id":"","pricing_plan_id":"cebpf4jnsgd1na2vs0mg"},{"bike_id":"2a74c118-5915-42ae-a5b6-acad51f5ceb5","system_id":"levelo_inurba_marseille","lat":43.27561,"lon":5.38385,"is_reserved":false,"is_disabled":true,"rental_uris":{"android":"levelo://app?vid=2a74c118-5915-42ae-a5b6-acad51f5ceb5","ios":"levelo://app?vid=2a74c118-5915-42ae-a5b6-acad51f5ceb5"},"vehicle_type_id":"4","last_reported":1752516993,"current_range_meters":17200,"station_id":"ce4bhh92rcd13ifvqfi0","pricing_plan_id":"cebpf4jnsgd1na2vs0mg"},{"bike_id":"c3eb31c9-e106-4cd2-bb91-f2d0ee3e7a6f","system_id":"levelo_inurba_marseille","lat":43.24028,"lon":5.3624,"is_reserved":false,"is_disabled":false,"rental_uris":{"android":"levelo://app?vid=c3eb31c9-e106-4cd2-bb91-f2d0ee3e7a6f","ios":"levelo://app?vid=c3eb31c9-e106-4cd2-bb91-f2d0ee3e7a6f"},"vehicle_type_id":"4","last_reported":1752516993,"current_range_meters":17200,"station_id":"","pricing_plan_id":"cebpf4jnsgd1na2vs0mg"},{"bike_id":"29c34fcf-b9b3-449f-9a28-67f4e66eee30","system_id":"levelo_inurba_marseille","lat":43.2962,"lon":5.37153,"is_reserved":false,"is_disabled":false,"rental_uris":{"android":"levelo://app?vid=29c34fcf-b9b3-449f-9a28-67f4e66eee30","ios":"levelo://app?vid=29c34fcf-b9b3-449f-9a28-67f4e66eee30"},"vehicle_type_id":"4","last_reported":1752516993,"current_range_meters":17200,"station_id":"","pricing_plan_id":"cebpf4jnsgd1na2vs0mg"},{"bike_id":"f61ca054-32cc-4f00-b385-c891d8962cf2","system_id":"levelo_inurba_marseille","lat":43.29233,"lon":5.36055,"is_reserved":false,"is_disabled":false,"rental_uris":{"android":"levelo://app?vid=f61ca054-32cc-4f00-b385-c891d8962cf2","ios":"levelo://app?vid=f61ca054-32cc-4f00-b385-c891d8962cf2"},"vehicle_type_id":"4","last_reported":1752516993,"current_range_meters":17600,"station_id":"ce4bhbh2rcd13ifvqeqg","pricing_plan_id":"cebpf4jnsgd1na2vs0mg"},{"bike_id":"5b79497d-499a-4c6a-bcb6-275adb49dba6","system_id":"levelo_inurba_marseille","lat":43.293126,"lon":5.371667,"is_reserved":false,"is_disabled":false,"rental_uris":{"android":"levelo://app?vid=5b79497d-499a-4c6a-bcb6-275adb49dba6","ios":"levelo://app?vid=5b79497d-499a-4c6a-bcb6-275adb49dba6"},"vehicle_type_id":"4","last_reported":1752516993,"current_range_meters":17600,"station_id":"ce4bgh92rcd13ifvqb40","pricing_plan_id":"cebpf4jnsgd1na2vs0mg"},{"bike_id":"8577aaca-7915-49c3-b3eb-bc84fe946baf","system_id":"levelo_inurba_marseille","lat":43.275839,"lon":5.416726,"is_reserved":false,"is_disabled":false,"rental_uris":{"android":"levelo://app?vid=8577aaca-7915-49c3-b3eb-bc84fe946baf","ios":"levelo://app?vid=8577aaca-7915-49c3-b3eb-bc84fe946baf"},"vehicle_type_id":"4","last_reported":1752516993,"current_range_meters":17600,"station_id":"","pricing_plan_id":"cebpf4jnsgd1na2vs0mg"},{"bike_id":"489e603b-6303-4c5a-a3da-d47c39cd6b15","system_id":"levelo_inurba_marseille","lat":43.21753,"lon":5.34594,"is_reserved":false,"is_disabled":false,"rental_uris":{"android":"levelo://app?vid=489e603b-6303-4c5a-a3da-d47c39cd6b15","ios":"levelo://app?vid=489e603b-6303-4c5a-a3da-d47c39cd6b15"},"vehicle_type_id":"4","last_reported":1752516993,"current_range_meters":17600,"station_id":"st_cvj6r9ubvosntc0bgbag","pricing_plan_id":"cebpf4jnsgd1na2vs0mg"},{"bike_id":"f2052e77-2392-4735-a8f6-84f745fd6486","system_id":"levelo_inurba_marseille","lat":43.27381,"lon":5.36246,"is_reserved":false,"is_disabled":false,"rental_uris":{"android":"levelo://app?vid=f2052e77-2392-4735-a8f6-84f745fd6486","ios":"levelo://app?vid=f2052e77-2392-4735-a8f6-84f745fd6486"},"vehicle_type_id":"4","last_reported":1752516993,"current_range_meters":17600,"station_id":"ce4bhbh2rcd13ifvqeo0","pricing_plan_id":"cebpf4jnsgd1na2vs0mg"},{"bike_id":"949cac28-1e79-45e2-a946-5e224b739cae","system_id":"levelo_inurba_marseille","lat":43.24172,"lon":5.36389,"is_reserved":false,"is_disabled":false,"rental_uris":{"android":"levelo://app?vid=949cac28-1e79-45e2-a946-5e224b739cae","ios":"levelo://app?vid=949cac28-1e79-45e2-a946-5e224b739cae"},"vehicle_type_id":"4","last_reported":1752516993,"current_range_meters":17600,"station_id":"cpo36qri1sfpv3e86is0","pricing_plan_id":"cebpf4jnsgd1na2vs0mg"},{"bike_id":"d8d9b947-d20b-4280-bcc2-86e036da81ae","system_id":"levelo_inurba_marseille","lat":43.29684,"lon":5.37284,"is_reserved":false,"is_disabled":false,"rental_uris":{"android":"levelo://app?vid=d8d9b947-d20b-4280-bcc2-86e036da81ae","ios":"levelo://app?vid=d8d9b947-d20b-4280-bcc2-86e036da81ae"},"vehicle_type_id":"4","last_reported":1752516993,"current_range_meters":17600,"station_id":"ce4bgk12rcd13ifvqbj0","pricing_plan_id":"cebpf4jnsgd1na2vs0mg"},{"bike_id":"30a3ded9-a753-414f-8856-69db9c0a7646","system_id":"levelo_inurba_marseille","lat":43.29979,"lon":5.37188,"is_reserved":false,"is_disabled":false,"rental_uris":{"android":"levelo://app?vid=30a3ded9-a753-414f-8856-69db9c0a7646","ios":"levelo://app?vid=30a3ded9-a753-414f-8856-69db9c0a7646"},"vehicle_type_id":"4","last_reported":1752516993,"current_range_meters":17600,"station_id":"ce4bgr92rcd13ifvqc7g","pricing_plan_id":"cebpf4jnsgd1na2vs0mg"},{"bike_id":"bc01775b-e496-4423-90ac-0cb22b6b4b16","system_id":"levelo_inurba_marseille","lat":43.27374,"lon":5.36243,"is_reserved":false,"is_disabled":false,"rental_uris":{"android":"levelo://app?vid=bc01775b-e496-4423-90ac-0cb22b6b4b16","ios":"levelo://app?vid=bc01775b-e496-4423-90ac-0cb22b6b4b16"},"vehicle_type_id":"4","last_reported":1752516993,"current_range_meters":17600,"station_id":"ce4bhbh2rcd13ifvqeo0","pricing_plan_id":"cebpf4jnsgd1na2vs0mg"},{"bike_id":"6b6619c5-6cd2-4092-aacb-23aa7b5e47c6","system_id":"levelo_inurba_marseille","lat":43.241684,"lon":5.364006,"is_reserved":false,"is_disabled":false,"rental_uris":{"android":"levelo://app?vid=6b6619c5-6cd2-4092-aacb-23aa7b5e47c6","ios":"levelo://app?vid=6b6619c5-6cd2-4092-aacb-23aa7b5e47c6"},"vehicle_type_id":"4","last_reported":1752516993,"current_range_meters":17600,"station_id":"cpo36qri1sfpv3e86is0","pricing_plan_id":"cebpf4jnsgd1na2vs0mg"},{"bike_id":"d7159adf-94a3-498c-948b-458c9b026277","system_id":"levelo_inurba_marseille","lat":43.22541,"lon":5.34769,"is_reserved":false,"is_disabled":false,"rental_uris":{"android":"levelo://app?vid=d7159adf-94a3-498c-948b-458c9b026277","ios":"levelo://app?vid=d7159adf-94a3-498c-948b-458c9b026277"},"vehicle_type_id":"4","last_reported":1752516993,"current_range_meters":17600,"station_id":"","pricing_plan_id":"cebpf4jnsgd1na2vs0mg"},{"bike_id":"d199b05c-bf49-40ff-8185-8d98f4140722","system_id":"levelo_inurba_marseille","lat":43.33151,"lon":5.3816,"is_reserved":false,"is_disabled":false,"rental_uris":{"android":"levelo://app?vid=d199b05c-bf49-40ff-8185-8d98f4140722","ios":"levelo://app?vid=d199b05c-bf49-40ff-8185-8d98f4140722"},"vehicle_type_id":"4","last_reported":1752516993,"current_range_meters":18000,"station_id":"","pricing_plan_id":"cebpf4jnsgd1na2vs0mg"},{"bike_id":"1a1fc085-4a0f-49fc-adc9-7da419e527ee","system_id":"levelo_inurba_marseille","lat":43.29873,"lon":5.397357,"is_reserved":false,"is_disabled":false,"rental_uris":{"android":"levelo://app?vid=1a1fc085-4a0f-49fc-adc9-7da419e527ee","ios":"levelo://app?vid=1a1fc085-4a0f-49fc-adc9-7da419e527ee"},"vehicle_type_id":"4","last_reported":1752516993,"current_range_meters":18000,"station_id":"ce4bh0h2rcd13ifvqd50","pricing_plan_id":"cebpf4jnsgd1na2vs0mg"},{"bike_id":"ef736cbb-1ed8-4d0b-9c54-58239a24e63c","system_id":"levelo_inurba_marseille","lat":43.29197,"lon":5.35792,"is_reserved":false,"is_disabled":false,"rental_uris":{"android":"levelo://app?vid=ef736cbb-1ed8-4d0b-9c54-58239a24e63c","ios":"levelo://app?vid=ef736cbb-1ed8-4d0b-9c54-58239a24e63c"},"vehicle_type_id":"4","last_reported":1752516993,"current_range_meters":18000,"station_id":"ce4bhb12rcd13ifvqel0","pricing_plan_id":"cebpf4jnsgd1na2vs0mg"},{"bike_id":"194eac1e-cb53-4450-8453-c3a9688ec6d8","system_id":"levelo_inurba_marseille","lat":43.28261,"lon":5.35067,"is_reserved":false,"is_disabled":false,"rental_uris":{"android":"levelo://app?vid=194eac1e-cb53-4450-8453-c3a9688ec6d8","ios":"levelo://app?vid=194eac1e-cb53-4450-8453-c3a9688ec6d8"},"vehicle_type_id":"4","last_reported":1752516993,"current_range_meters":18000,"station_id":"ce4bhbp2rcd13ifvqerg","pricing_plan_id":"cebpf4jnsgd1na2vs0mg"},{"bike_id":"5e39bf5c-8a06-42d5-a288-53841dd85e68","system_id":"levelo_inurba_marseille","lat":43.29236,"lon":5.36048,"is_reserved":false,"is_disabled":false,"rental_uris":{"android":"levelo://app?vid=5e39bf5c-8a06-42d5-a288-53841dd85e68","ios":"levelo://app?vid=5e39bf5c-8a06-42d5-a288-53841dd85e68"},"vehicle_type_id":"4","last_reported":1752516993,"current_range_meters":18000,"station_id":"ce4bhbh2rcd13ifvqeqg","pricing_plan_id":"cebpf4jnsgd1na2vs0mg"},{"bike_id":"7bce7a34-5113-458d-9330-3d00164f4612","system_id":"levelo_inurba_marseille","lat":43.21204,"lon":5.35048,"is_reserved":false,"is_disabled":false,"rental_uris":{"android":"levelo://app?vid=7bce7a34-5113-458d-9330-3d00164f4612","ios":"levelo://app?vid=7bce7a34-5113-458d-9330-3d00164f4612"},"vehicle_type_id":"4","last_reported":1752516993,"current_range_meters":18000,"station_id":"st_cvj6sg6p6f1abm77japg","pricing_plan_id":"cebpf4jnsgd1na2vs0mg"},{"bike_id":"cd700f17-9c20-4b8c-b060-5a541f4a78ef","system_id":"levelo_inurba_marseille","lat":43.24187,"lon":5.36345,"is_reserved":false,"is_disabled":false,"rental_uris":{"android":"levelo://app?vid=cd700f17-9c20-4b8c-b060-5a541f4a78ef","ios":"levelo://app?vid=cd700f17-9c20-4b8c-b060-5a541f4a78ef"},"vehicle_type_id":"4","last_reported":1752516993,"current_range_meters":18000,"station_id":"cpo36qri1sfpv3e86is0","pricing_plan_id":"cebpf4jnsgd1na2vs0mg"},{"bike_id":"deec5aa3-72d7-4da1-a5ab-c4cc23280198","system_id":"levelo_inurba_marseille","lat":43.2908,"lon":5.37157,"is_reserved":false,"is_disabled":false,"rental_uris":{"android":"levelo://app?vid=deec5aa3-72d7-4da1-a5ab-c4cc23280198","ios":"levelo://app?vid=deec5aa3-72d7-4da1-a5ab-c4cc23280198"},"vehicle_type_id":"4","last_reported":1752516993,"current_range_meters":18000,"station_id":"ce4bh5p2rcd13ifvqe4g","pricing_plan_id":"cebpf4jnsgd1na2vs0mg"},{"bike_id":"57e2a7da-8b32-4c9e-8d9e-93d74a2ee729","system_id":"levelo_inurba_marseille","lat":43.292634,"lon":5.384339,"is_reserved":false,"is_disabled":false,"rental_uris":{"android":"levelo://app?vid=57e2a7da-8b32-4c9e-8d9e-93d74a2ee729","ios":"levelo://app?vid=57e2a7da-8b32-4c9e-8d9e-93d74a2ee729"},"vehicle_type_id":"4","last_reported":1752516993,"current_range_meters":18000,"station_id":"","pricing_plan_id":"cebpf4jnsgd1na2vs0mg"},{"bike_id":"a000506a-75cd-4dc4-97a0-215f84d40dca","system_id":"levelo_inurba_marseille","lat":43.2955,"lon":5.42272,"is_reserved":false,"is_disabled":false,"rental_uris":{"android":"levelo://app?vid=a000506a-75cd-4dc4-97a0-215f84d40dca","ios":"levelo://app?vid=a000506a-75cd-4dc4-97a0-215f84d40dca"},"vehicle_type_id":"4","last_reported":1752516993,"current_range_meters":18000,"station_id":"ce4bhph2rcd13ifvqhdg","pricing_plan_id":"cebpf4jnsgd1na2vs0mg"},{"bike_id":"43120b77-362f-4d12-a05e-f7519a97d6ce","system_id":"levelo_inurba_marseille","lat":43.2482,"lon":5.37447,"is_reserved":false,"is_disabled":false,"rental_uris":{"android":"levelo://app?vid=43120b77-362f-4d12-a05e-f7519a97d6ce","ios":"levelo://app?vid=43120b77-362f-4d12-a05e-f7519a97d6ce"},"vehicle_type_id":"4","last_reported":1752516993,"current_range_meters":18000,"station_id":"ce4bhgh2rcd13ifvqfb0","pricing_plan_id":"cebpf4jnsgd1na2vs0mg"},{"bike_id":"1412c25c-18ec-4687-af22-46424a305dc0","system_id":"levelo_inurba_marseille","lat":43.30252,"lon":5.40079,"is_reserved":false,"is_disabled":false,"rental_uris":{"android":"levelo://app?vid=1412c25c-18ec-4687-af22-46424a305dc0","ios":"levelo://app?vid=1412c25c-18ec-4687-af22-46424a305dc0"},"vehicle_type_id":"4","last_reported":1752516993,"current_range_meters":18000,"station_id":"ce4bgvh2rcd13ifvqcs0","pricing_plan_id":"cebpf4jnsgd1na2vs0mg"},{"bike_id":"fe38fcda-be18-4a6d-9386-5071ca1609b6","system_id":"levelo_inurba_marseille","lat":43.23195,"lon":5.3556,"is_reserved":false,"is_disabled":true,"rental_uris":{"android":"levelo://app?vid=fe38fcda-be18-4a6d-9386-5071ca1609b6","ios":"levelo://app?vid=fe38fcda-be18-4a6d-9386-5071ca1609b6"},"vehicle_type_id":"4","last_reported":1752516993,"current_range_meters":18000,"station_id":"ce4bhu92rcd13ifvqi70","pricing_plan_id":"cebpf4jnsgd1na2vs0mg"},{"bike_id":"903197e4-3da2-471b-9537-d88bae7e31c4","system_id":"levelo_inurba_marseille","lat":43.26526,"lon":5.39509,"is_reserved":false,"is_disabled":true,"rental_uris":{"android":"levelo://app?vid=903197e4-3da2-471b-9537-d88bae7e31c4","ios":"levelo://app?vid=903197e4-3da2-471b-9537-d88bae7e31c4"},"vehicle_type_id":"4","last_reported":1752516993,"current_range_meters":18800,"station_id":"ce4bhi12rcd13ifvqfq0","pricing_plan_id":"cebpf4jnsgd1na2vs0mg"},{"bike_id":"90d8578f-7619-4279-84b6-4ed88aa377e2","system_id":"levelo_inurba_marseille","lat":43.21191,"lon":5.35073,"is_reserved":false,"is_disabled":false,"rental_uris":{"android":"levelo://app?vid=90d8578f-7619-4279-84b6-4ed88aa377e2","ios":"levelo://app?vid=90d8578f-7619-4279-84b6-4ed88aa377e2"},"vehicle_type_id":"4","last_reported":1752516993,"current_range_meters":18800,"station_id":"st_cvj6sg6p6f1abm77japg","pricing_plan_id":"cebpf4jnsgd1na2vs0mg"},{"bike_id":"775e916d-262f-4532-b08d-bb1762975572","system_id":"levelo_inurba_marseille","lat":43.217493,"lon":5.346031,"is_reserved":false,"is_disabled":false,"rental_uris":{"android":"levelo://app?vid=775e916d-262f-4532-b08d-bb1762975572","ios":"levelo://app?vid=775e916d-262f-4532-b08d-bb1762975572"},"vehicle_type_id":"4","last_reported":1752516993,"current_range_meters":18800,"station_id":"st_cvj6r9ubvosntc0bgbag","pricing_plan_id":"cebpf4jnsgd1na2vs0mg"},{"bike_id":"5ac711b2-bde7-4f3a-9dc4-4d3183f5f71c","system_id":"levelo_inurba_marseille","lat":43.29282,"lon":5.40121,"is_reserved":false,"is_disabled":false,"rental_uris":{"android":"levelo://app?vid=5ac711b2-bde7-4f3a-9dc4-4d3183f5f71c","ios":"levelo://app?vid=5ac711b2-bde7-4f3a-9dc4-4d3183f5f71c"},"vehicle_type_id":"4","last_reported":1752516993,"current_range_meters":18000,"station_id":"ce4bh312rcd13ifvqdk0","pricing_plan_id":"cebpf4jnsgd1na2vs0mg"},{"bike_id":"c26b5803-1934-443f-a178-b5a6c19165be","system_id":"levelo_inurba_marseille","lat":43.299,"lon":5.38134,"is_reserved":false,"is_disabled":true,"rental_uris":{"android":"levelo://app?vid=c26b5803-1934-443f-a178-b5a6c19165be","ios":"levelo://app?vid=c26b5803-1934-443f-a178-b5a6c19165be"},"vehicle_type_id":"4","last_reported":1752516993,"current_range_meters":18800,"station_id":"ce4bgj12rcd13ifvqbc0","pricing_plan_id":"cebpf4jnsgd1na2vs0mg"},{"bike_id":"bb64864c-7554-401c-a8c4-cab4ed76215a","system_id":"levelo_inurba_marseille","lat":43.28341,"lon":5.38102,"is_reserved":false,"is_disabled":false,"rental_uris":{"android":"levelo://app?vid=bb64864c-7554-401c-a8c4-cab4ed76215a","ios":"levelo://app?vid=bb64864c-7554-401c-a8c4-cab4ed76215a"},"vehicle_type_id":"4","last_reported":1752516993,"current_range_meters":18800,"station_id":"ce4bh412rcd13ifvqdr0","pricing_plan_id":"cebpf4jnsgd1na2vs0mg"},{"bike_id":"f27027a6-2a25-4193-9f89-90e958769b0a","system_id":"levelo_inurba_marseille","lat":43.27633,"lon":5.36105,"is_reserved":false,"is_disabled":false,"rental_uris":{"android":"levelo://app?vid=f27027a6-2a25-4193-9f89-90e958769b0a","ios":"levelo://app?vid=f27027a6-2a25-4193-9f89-90e958769b0a"},"vehicle_type_id":"4","last_reported":1752516993,"current_range_meters":18800,"station_id":"ce4bgj92rcd13ifvqbe0","pricing_plan_id":"cebpf4jnsgd1na2vs0mg"},{"bike_id":"a0a4e284-6dfa-40b4-bd00-16a1ebc475db","system_id":"levelo_inurba_marseille","lat":43.23182,"lon":5.39984,"is_reserved":false,"is_disabled":false,"rental_uris":{"android":"levelo://app?vid=a0a4e284-6dfa-40b4-bd00-16a1ebc475db","ios":"levelo://app?vid=a0a4e284-6dfa-40b4-bd00-16a1ebc475db"},"vehicle_type_id":"4","last_reported":1752516993,"current_range_meters":18800,"station_id":"ce4bhn12rcd13ifvqgqg","pricing_plan_id":"cebpf4jnsgd1na2vs0mg"},{"bike_id":"09a93a64-fbb1-49a9-be1f-f86a34310e71","system_id":"levelo_inurba_marseille","lat":43.21221,"lon":5.35022,"is_reserved":false,"is_disabled":false,"rental_uris":{"android":"levelo://app?vid=09a93a64-fbb1-49a9-be1f-f86a34310e71","ios":"levelo://app?vid=09a93a64-fbb1-49a9-be1f-f86a34310e71"},"vehicle_type_id":"4","last_reported":1752516993,"current_range_meters":18800,"station_id":"","pricing_plan_id":"cebpf4jnsgd1na2vs0mg"},{"bike_id":"ac928612-476b-4e4b-8c2b-a3f75e53d945","system_id":"levelo_inurba_marseille","lat":43.22791,"lon":5.34939,"is_reserved":false,"is_disabled":false,"rental_uris":{"android":"levelo://app?vid=ac928612-476b-4e4b-8c2b-a3f75e53d945","ios":"levelo://app?vid=ac928612-476b-4e4b-8c2b-a3f75e53d945"},"vehicle_type_id":"4","last_reported":1752516993,"current_range_meters":19200,"station_id":"","pricing_plan_id":"cebpf4jnsgd1na2vs0mg"},{"bike_id":"cab9ee97-4007-4280-9048-8519715ec38c","system_id":"levelo_inurba_marseille","lat":43.29061,"lon":5.3718,"is_reserved":false,"is_disabled":false,"rental_uris":{"android":"levelo://app?vid=cab9ee97-4007-4280-9048-8519715ec38c","ios":"levelo://app?vid=cab9ee97-4007-4280-9048-8519715ec38c"},"vehicle_type_id":"4","last_reported":1752516993,"current_range_meters":19200,"station_id":"ce4bh5p2rcd13ifvqe4g","pricing_plan_id":"cebpf4jnsgd1na2vs0mg"},{"bike_id":"7344a727-b91f-481e-b08a-0f3465e83901","system_id":"levelo_inurba_marseille","lat":43.27688,"lon":5.41642,"is_reserved":false,"is_disabled":false,"rental_uris":{"android":"levelo://app?vid=7344a727-b91f-481e-b08a-0f3465e83901","ios":"levelo://app?vid=7344a727-b91f-481e-b08a-0f3465e83901"},"vehicle_type_id":"4","last_reported":1752516993,"current_range_meters":19200,"station_id":"","pricing_plan_id":"cebpf4jnsgd1na2vs0mg"},{"bike_id":"d8be76fb-1c5a-452f-8ded-25ae5aca43bb","system_id":"levelo_inurba_marseille","lat":43.24184,"lon":5.39718,"is_reserved":false,"is_disabled":false,"rental_uris":{"android":"levelo://app?vid=d8be76fb-1c5a-452f-8ded-25ae5aca43bb","ios":"levelo://app?vid=d8be76fb-1c5a-452f-8ded-25ae5aca43bb"},"vehicle_type_id":"4","last_reported":1752516993,"current_range_meters":19200,"station_id":"ce4bhn12rcd13ifvqgpg","pricing_plan_id":"cebpf4jnsgd1na2vs0mg"},{"bike_id":"007ef90e-2af9-422b-94d9-f671e7391f42","system_id":"levelo_inurba_marseille","lat":43.260315,"lon":5.375459,"is_reserved":false,"is_disabled":false,"rental_uris":{"android":"levelo://app?vid=007ef90e-2af9-422b-94d9-f671e7391f42","ios":"levelo://app?vid=007ef90e-2af9-422b-94d9-f671e7391f42"},"vehicle_type_id":"4","last_reported":1752516993,"current_range_meters":19200,"station_id":"ce4bhgh2rcd13ifvqfa0","pricing_plan_id":"cebpf4jnsgd1na2vs0mg"},{"bike_id":"d6149f52-b0aa-49c9-aa81-71a3c2305c42","system_id":"levelo_inurba_marseille","lat":43.29512,"lon":5.37494,"is_reserved":false,"is_disabled":false,"rental_uris":{"android":"levelo://app?vid=d6149f52-b0aa-49c9-aa81-71a3c2305c42","ios":"levelo://app?vid=d6149f52-b0aa-49c9-aa81-71a3c2305c42"},"vehicle_type_id":"4","last_reported":1752516993,"current_range_meters":19200,"station_id":"ce4bgkp2rcd13ifvqbmg","pricing_plan_id":"cebpf4jnsgd1na2vs0mg"},{"bike_id":"913f4588-751b-49da-9f19-cc7c902c7e22","system_id":"levelo_inurba_marseille","lat":43.30379,"lon":5.42493,"is_reserved":false,"is_disabled":false,"rental_uris":{"android":"levelo://app?vid=913f4588-751b-49da-9f19-cc7c902c7e22","ios":"levelo://app?vid=913f4588-751b-49da-9f19-cc7c902c7e22"},"vehicle_type_id":"4","last_reported":1752516993,"current_range_meters":19200,"station_id":"ce4bhoh2rcd13ifvqh6g","pricing_plan_id":"cebpf4jnsgd1na2vs0mg"},{"bike_id":"dce5a329-8f31-445b-be5c-261647a1dded","system_id":"levelo_inurba_marseille","lat":43.29968,"lon":5.41311,"is_reserved":false,"is_disabled":false,"rental_uris":{"android":"levelo://app?vid=dce5a329-8f31-445b-be5c-261647a1dded","ios":"levelo://app?vid=dce5a329-8f31-445b-be5c-261647a1dded"},"vehicle_type_id":"4","last_reported":1752516993,"current_range_meters":19200,"station_id":"ce4bhp12rcd13ifvqh9g","pricing_plan_id":"cebpf4jnsgd1na2vs0mg"},{"bike_id":"719bb470-2562-4016-89a2-99680e648cc0","system_id":"levelo_inurba_marseille","lat":43.29229,"lon":5.36061,"is_reserved":false,"is_disabled":false,"rental_uris":{"android":"levelo://app?vid=719bb470-2562-4016-89a2-99680e648cc0","ios":"levelo://app?vid=719bb470-2562-4016-89a2-99680e648cc0"},"vehicle_type_id":"4","last_reported":1752516993,"current_range_meters":19200,"station_id":"ce4bhbh2rcd13ifvqeqg","pricing_plan_id":"cebpf4jnsgd1na2vs0mg"},{"bike_id":"62cb6598-7f80-4383-bd85-ccefdab394da","system_id":"levelo_inurba_marseille","lat":43.29531,"lon":5.38539,"is_reserved":false,"is_disabled":false,"rental_uris":{"android":"levelo://app?vid=62cb6598-7f80-4383-bd85-ccefdab394da","ios":"levelo://app?vid=62cb6598-7f80-4383-bd85-ccefdab394da"},"vehicle_type_id":"4","last_reported":1752516993,"current_range_meters":22800,"station_id":"ce4bgih2rcd13ifvqba0","pricing_plan_id":"cebpf4jnsgd1na2vs0mg"},{"bike_id":"de3c7479-ad03-448f-a78e-88898eddd51a","system_id":"levelo_inurba_marseille","lat":43.32958,"lon":5.39741,"is_reserved":false,"is_disabled":false,"rental_uris":{"android":"levelo://app?vid=de3c7479-ad03-448f-a78e-88898eddd51a","ios":"levelo://app?vid=de3c7479-ad03-448f-a78e-88898eddd51a"},"vehicle_type_id":"4","last_reported":1752516993,"current_range_meters":19600,"station_id":"","pricing_plan_id":"cebpf4jnsgd1na2vs0mg"},{"bike_id":"7e3831e2-cd81-4d0c-bc09-7bb645d261e2","system_id":"levelo_inurba_marseille","lat":43.2866,"lon":5.36349,"is_reserved":false,"is_disabled":false,"rental_uris":{"android":"levelo://app?vid=7e3831e2-cd81-4d0c-bc09-7bb645d261e2","ios":"levelo://app?vid=7e3831e2-cd81-4d0c-bc09-7bb645d261e2"},"vehicle_type_id":"4","last_reported":1752516993,"current_range_meters":19600,"station_id":"ce4bhah2rcd13ifvqej0","pricing_plan_id":"cebpf4jnsgd1na2vs0mg"},{"bike_id":"74c4a93b-2018-49e3-9b2b-d79c67e13389","system_id":"levelo_inurba_marseille","lat":43.27062,"lon":5.42279,"is_reserved":false,"is_disabled":false,"rental_uris":{"android":"levelo://app?vid=74c4a93b-2018-49e3-9b2b-d79c67e13389","ios":"levelo://app?vid=74c4a93b-2018-49e3-9b2b-d79c67e13389"},"vehicle_type_id":"4","last_reported":1752516993,"current_range_meters":19600,"station_id":"ce4bhk92rcd13ifvqgb0","pricing_plan_id":"cebpf4jnsgd1na2vs0mg"},{"bike_id":"0d59d516-5bd5-444b-9c9f-3425b328b901","system_id":"levelo_inurba_marseille","lat":43.323573,"lon":5.367541,"is_reserved":false,"is_disabled":false,"rental_uris":{"android":"levelo://app?vid=0d59d516-5bd5-444b-9c9f-3425b328b901","ios":"levelo://app?vid=0d59d516-5bd5-444b-9c9f-3425b328b901"},"vehicle_type_id":"4","last_reported":1752516993,"current_range_meters":19600,"station_id":"ce4bhsh2rcd13ifvqi2g","pricing_plan_id":"cebpf4jnsgd1na2vs0mg"},{"bike_id":"51cdc3e0-45c7-4f55-b4c1-05aa75dc2457","system_id":"levelo_inurba_marseille","lat":43.32045,"lon":5.41543,"is_reserved":false,"is_disabled":false,"rental_uris":{"android":"levelo://app?vid=51cdc3e0-45c7-4f55-b4c1-05aa75dc2457","ios":"levelo://app?vid=51cdc3e0-45c7-4f55-b4c1-05aa75dc2457"},"vehicle_type_id":"4","last_reported":1752516993,"current_range_meters":19600,"station_id":"ce4bhq92rcd13ifvqhkg","pricing_plan_id":"cebpf4jnsgd1na2vs0mg"},{"bike_id":"edfe6ed1-73c7-41ab-9084-1d612d3b5e32","system_id":"levelo_inurba_marseille","lat":43.21746,"lon":5.34605,"is_reserved":false,"is_disabled":false,"rental_uris":{"android":"levelo://app?vid=edfe6ed1-73c7-41ab-9084-1d612d3b5e32","ios":"levelo://app?vid=edfe6ed1-73c7-41ab-9084-1d612d3b5e32"},"vehicle_type_id":"4","last_reported":1752516993,"current_range_meters":19600,"station_id":"","pricing_plan_id":"cebpf4jnsgd1na2vs0mg"},{"bike_id":"6363d774-3c37-49c0-b4d5-b3bc6d8fbc55","system_id":"levelo_inurba_marseille","lat":43.27373,"lon":5.36243,"is_reserved":false,"is_disabled":false,"rental_uris":{"android":"levelo://app?vid=6363d774-3c37-49c0-b4d5-b3bc6d8fbc55","ios":"levelo://app?vid=6363d774-3c37-49c0-b4d5-b3bc6d8fbc55"},"vehicle_type_id":"4","last_reported":1752516993,"current_range_meters":19600,"station_id":"ce4bhbh2rcd13ifvqeo0","pricing_plan_id":"cebpf4jnsgd1na2vs0mg"},{"bike_id":"cc5b1017-a3ab-43db-9c79-8c394b805acc","system_id":"levelo_inurba_marseille","lat":43.28492,"lon":5.38428,"is_reserved":false,"is_disabled":false,"rental_uris":{"android":"levelo://app?vid=cc5b1017-a3ab-43db-9c79-8c394b805acc","ios":"levelo://app?vid=cc5b1017-a3ab-43db-9c79-8c394b805acc"},"vehicle_type_id":"4","last_reported":1752516993,"current_range_meters":19600,"station_id":"ce4bh512rcd13ifvqe3g","pricing_plan_id":"cebpf4jnsgd1na2vs0mg"},{"bike_id":"202e7e2e-075f-420c-b3a2-8fce4649d1bc","system_id":"levelo_inurba_marseille","lat":43.283416,"lon":5.381063,"is_reserved":false,"is_disabled":true,"rental_uris":{"android":"levelo://app?vid=202e7e2e-075f-420c-b3a2-8fce4649d1bc","ios":"levelo://app?vid=202e7e2e-075f-420c-b3a2-8fce4649d1bc"},"vehicle_type_id":"4","last_reported":1752516993,"current_range_meters":19600,"station_id":"ce4bh412rcd13ifvqdr0","pricing_plan_id":"cebpf4jnsgd1na2vs0mg"},{"bike_id":"f6d9d960-ba83-41ee-9d35-9719d9a4659e","system_id":"levelo_inurba_marseille","lat":43.29307,"lon":5.3716,"is_reserved":false,"is_disabled":false,"rental_uris":{"android":"levelo://app?vid=f6d9d960-ba83-41ee-9d35-9719d9a4659e","ios":"levelo://app?vid=f6d9d960-ba83-41ee-9d35-9719d9a4659e"},"vehicle_type_id":"4","last_reported":1752516993,"current_range_meters":20000,"station_id":"ce4bgh92rcd13ifvqb40","pricing_plan_id":"cebpf4jnsgd1na2vs0mg"},{"bike_id":"da9c5884-26b5-4ba3-85b3-c0ad848ccaa4","system_id":"levelo_inurba_marseille","lat":43.28044,"lon":5.36927,"is_reserved":false,"is_disabled":false,"rental_uris":{"android":"levelo://app?vid=da9c5884-26b5-4ba3-85b3-c0ad848ccaa4","ios":"levelo://app?vid=da9c5884-26b5-4ba3-85b3-c0ad848ccaa4"},