{"last_updated":1724346464,"ttl":30,"version":"2.2","data":{"bikes":[{"bike_id":"c0f0062e-de8d-42fe-9874-b5352b52d90d","system_id":"levelo_inurba_marseille","lat":43.31341,"lon":5.367098,"is_reserved":false,"is_disabled":false,"rental_uris":{"android":"levelo://app?vid=c0f0062e-de8d-42fe-9874-b5352b52d90d","ios":"levelo://app?vid=c0f0062e-de8d-42fe-9874-b5352b52d90d"},"vehicle_type_id":"4","last_reported":1724346464,"current_range_meters":2800,"station_id":"ce4bgr92rcd13ifvqc6g","pricing_plan_id":"cebpf4jnsgd1na2vs0mg"},{"bike_id":"1eb114a4-c31e-410b-b520-4b4e1f5fc380","system_id":"levelo_inurba_marseille","lat":43.312239,"lon":5.368562,"is_reserved":false,"is_disabled":false,"rental_uris":{"android":"levelo://app?vid=1eb114a4-c31e-410b-b520-4b4e1f5fc380","ios":"levelo://app?vid=1eb114a4-c31e-410b-b520-4b4e1f5fc380"},"vehicle_type_id":"4","last_reported":1724346464,"current_range_meters":9200,"station_id":"ce4bgl92rcd13ifvqbq0","pricing_plan_id":"cebpf4jnsgd1na2vs0mg"},{"bike_id":"356fca18-5ce4-48a3-a138-8156f509c7b0","system_id":"levelo_inurba_marseille","lat":43.312239,"lon":5.368562,"is_reserved":false,"is_disabled":false,"rental_uris":{"android":"levelo://app?vid=356fca18-5ce4-48a3-a138-8156f509c7b0","ios":"levelo://app?vid=356fca18-5ce4-48a3-a138-8156f509c7b0"},"vehicle_type_id":"4","last_reported":1724346464,"current_range_meters":16000,"station_id":"ce4bgl92rcd13ifvqbq0","pricing_plan_id":"cebpf4jnsgd1na2vs0mg"},{"bike_id":"5696ef90-d7d7-43ad-a7f4-7708da5a1ba8","system_id":"levelo_inurba_marseille","lat":43.312239,"lon":5.368562,"is_reserved":false,"is_disabled":false,"rental_uris":{"android":"levelo://app?vid=5696ef90-d7d7-43ad-a7f4-7708da5a1ba8","ios":"levelo://app?vid=5696ef90-d7d7-43ad-a7f4-7708da5a1ba8"},"vehicle_type_id":"4","last_reported":1724346464,"current_range_meters":19600,"station_id":"ce4bgl92rcd13ifvqbq0","pricing_plan_id":"cebpf4jnsgd1na2vs0mg"},{"bike_id":"3756ec30-773a-40e4-bbf8-03af77880628","system_id":"levelo_inurba_marseille","lat":43.314811,"lon":5.373103,"is_reserved":false,"is_disabled":false,"rental_uris":{"android":"levelo://app?vid=3756ec30-773a-40e4-bbf8-03af77880628","ios":"levelo://app?vid=3756ec30-773a-40e4-bbf8-03af77880628"},"vehicle_type_id":"4","last_reported":1724346464,"current_range_meters":25600,"station_id":"ce4bgt12rcd13ifvqcd0","pricing_plan_id":"cebpf4jnsgd1na2vs0mg"},{"bike_id":"2c0c639b-0939-4ea8-97b0-b6d984a972ba","system_id":"levelo_inurba_marseille","lat":43.314811,"lon":5.373103,"is_reserved":false,"is_disabled":false,"rental_uris":{"android":"levelo://app?vid=2c0c639b-0939-4ea8-97b0-b6d984a972ba","ios":"levelo://app?vid=2c0c639b-0939-4ea8-97b0-b6d984a972ba"},"vehicle_type_id":"4","last_reported":1724346464,"current_range_meters":4400,"station_id":"ce4bgt12rcd13ifvqcd0","pricing_plan_id":"cebpf4jnsgd1na2vs0mg"},{"bike_id":"0c6dd2db-d71a-4968-a4b4-1c790c5b91b7","system_id":"levelo_inurba_marseille","lat":43.317075,"lon":5.377367,"is_reserved":false,"is_disabled":false,"rental_uris":{"android":"levelo://app?vid=0c6dd2db-d71a-4968-a4b4-1c790c5b91b7","ios":"levelo://app?vid=0c6dd2db-d71a-4968-a4b4-1c790c5b91b7"},"vehicle_type_id":"4","last_reported":1724346464,"current_range_meters":26400,"station_id":"ce4bgth2rcd13ifvqch0","pricing_plan_id":"cebpf4jnsgd1na2vs0mg"},{"bike_id":"33eaaaf8-48e1-4227-a04e-6d12455a5310","system_id":"levelo_inurba_marseille","lat":43.305714,"lon":5.365633,"is_reserved":false,"is_disabled":false,"rental_uris":{"android":"levelo://app?vid=33eaaaf8-48e1-4227-a04e-6d12455a5310","ios":"levelo://app?vid=33eaaaf8-48e1-4227-a04e-6d12455a5310"},"vehicle_type_id":"4","last_reported":1724346464,"current_range_meters":31600,"station_id":"ce4bgs12rcd13ifvqcag","pricing_plan_id":"cebpf4jnsgd1na2vs0mg"},{"bike_id":"fb5043a8-bc60-4f2c-9556-2d7f93a3db43","system_id":"levelo_inurba_marseille","lat":43.305989,"lon":5.37225,"is_reserved":false,"is_disabled":false,"rental_uris":{"android":"levelo://app?vid=fb5043a8-bc60-4f2c-9556-2d7f93a3db43","ios":"levelo://app?vid=fb5043a8-bc60-4f2c-9556-2d7f93a3db43"},"vehicle_type_id":"4","last_reported":1724346464,"current_range_meters":12800,"station_id":"ce4bgqh2rcd13ifvqc4g","pricing_plan_id":"cebpf4jnsgd1na2vs0mg"},{"bike_id":"edd3512e-49a8-48ab-95f4-5ba433ef3ca5","system_id":"levelo_inurba_marseille","lat":43.317075,"lon":5.377367,"is_reserved":false,"is_disabled":false,"rental_uris":{"android":"levelo://app?vid=edd3512e-49a8-48ab-95f4-5ba433ef3ca5","ios":"levelo://app?vid=edd3512e-49a8-48ab-95f4-5ba433ef3ca5"},"vehicle_type_id":"4","last_reported":1724346464,"current_range_meters":4400,"station_id":"ce4bgth2rcd13ifvqch0","pricing_plan_id":"cebpf4jnsgd1na2vs0mg"},{"bike_id":"79b34194-ade0-441f-afaf-d03ea8cc1e52","system_id":"levelo_inurba_marseille","lat":43.311467,"lon":5.37994,"is_reserved":false,"is_disabled":false,"rental_uris":{"android":"levelo://app?vid=79b34194-ade0-441f-afaf-d03ea8cc1e52","ios":"levelo://app?vid=79b34194-ade0-441f-afaf-d03ea8cc1e52"},"vehicle_type_id":"4","last_reported":1724346464,"current_range_meters":13600,"station_id":"","pricing_plan_id":"cebpf4jnsgd1na2vs0mg"},{"bike_id":"e953c591-3cea-469b-9aee-9207eb8da58d","system_id":"levelo_inurba_marseille","lat":43.30524,"lon":5.37601,"is_reserved":false,"is_disabled":false,"rental_uris":{"android":"levelo://app?vid=e953c591-3cea-469b-9aee-9207eb8da58d","ios":"levelo://app?vid=e953c591-3cea-469b-9aee-9207eb8da58d"},"vehicle_type_id":"4","last_reported":1724346464,"current_range_meters":0,"station_id":"","pricing_plan_id":"cebpf4jnsgd1na2vs0mg"},{"bike_id":"be7b3a40-03f2-4ee6-9cdd-5ef847da54c9","system_id":"levelo_inurba_marseille","lat":43.30519,"lon":5.376,"is_reserved":false,"is_disabled":false,"rental_uris":{"android":"levelo://app?vid=be7b3a40-03f2-4ee6-9cdd-5ef847da54c9","ios":"levelo://app?vid=be7b3a40-03f2-4ee6-9cdd-5ef847da54c9"},"vehicle_type_id":"4","last_reported":1724346464,"current_range_meters":20400,"station_id":"","pricing_plan_id":"cebpf4jnsgd1na2vs0mg"},{"bike_id":"50219d3e-7edd-4dd8-aff2-9523427653f1","system_id":"levelo_inurba_marseille","lat":43.30515,"lon":5.37611,"is_reserved":false,"is_disabled":false,"rental_uris":{"android":"levelo://app?vid=50219d3e-7edd-4dd8-aff2-9523427653f1","ios":"levelo://app?vid=50219d3e-7edd-4dd8-aff2-9523427653f1"},"vehicle_type_id":"4","last_reported":1724346464,"current_range_meters":15600,"station_id":"","pricing_plan_id":"cebpf4jnsgd1na2vs0mg"},{"bike_id":"9d614472-1a2d-4106-8936-df95eb368361","system_id":"levelo_inurba_marseille","lat":43.30192,"lon":5.36614,"is_reserved":false,"is_disabled":false,"rental_uris":{"android":"levelo://app?vid=9d614472-1a2d-4106-8936-df95eb368361","ios":"levelo://app?vid=9d614472-1a2d-4106-8936-df95eb368361"},"vehicle_type_id":"4","last_reported":1724346464,"current_range_meters":21200,"station_id":"ce4bgrh2rcd13ifvqc8g","pricing_plan_id":"cebpf4jnsgd1na2vs0mg"},{"bike_id":"e8579ba1-b94e-41e0-8d09-2e5d6784abe2","system_id":"levelo_inurba_marseille","lat":43.308012,"lon":5.381511,"is_reserved":false,"is_disabled":false,"rental_uris":{"android":"levelo://app?vid=e8579ba1-b94e-41e0-8d09-2e5d6784abe2","ios":"levelo://app?vid=e8579ba1-b94e-41e0-8d09-2e5d6784abe2"},"vehicle_type_id":"4","last_reported":1724346464,"current_range_meters":0,"station_id":"ce4bgt12rcd13ifvqce0","pricing_plan_id":"cebpf4jnsgd1na2vs0mg"},{"bike_id":"b21e0538-4b28-491a-9462-53f1db2ea0b1","system_id":"levelo_inurba_marseille","lat":43.324771,"lon":5.36557,"is_reserved":false,"is_disabled":false,"rental_uris":{"android":"levelo://app?vid=b21e0538-4b28-491a-9462-53f1db2ea0b1","ios":"levelo://app?vid=b21e0538-4b28-491a-9462-53f1db2ea0b1"},"vehicle_type_id":"4","last_reported":1724346464,"current_range_meters":7200,"station_id":"ce4bhs12rcd13ifvqhvg","pricing_plan_id":"cebpf4jnsgd1na2vs0mg"},{"bike_id":"c280fd47-4ff0-4ff0-bfa3-a0fad55f8caf","system_id":"levelo_inurba_marseille","lat":43.324771,"lon":5.36557,"is_reserved":false,"is_disabled":false,"rental_uris":{"android":"levelo://app?vid=c280fd47-4ff0-4ff0-bfa3-a0fad55f8caf","ios":"levelo://app?vid=c280fd47-4ff0-4ff0-bfa3-a0fad55f8caf"},"vehicle_type_id":"4","last_reported":1724346464,"current_range_meters":22800,"station_id":"ce4bhs12rcd13ifvqhvg","pricing_plan_id":"cebpf4jnsgd1na2vs0mg"},{"bike_id":"cece115d-85e2-4f86-bf16-6cb396f8a350","system_id":"levelo_inurba_marseille","lat":43.32486,"lon":5.36573,"is_reserved":false,"is_disabled":false,"rental_uris":{"android":"levelo://app?vid=cece115d-85e2-4f86-bf16-6cb396f8a350","ios":"levelo://app?vid=cece115d-85e2-4f86-bf16-6cb396f8a350"},"vehicle_type_id":"4","last_reported":1724346464,"current_range_meters":23200,"station_id":"ce4bhs12rcd13ifvqhvg","pricing_plan_id":"cebpf4jnsgd1na2vs0mg"},{"bike_id":"bdee1d3d-b44c-4fd1-a383-48cf492cb104","system_id":"levelo_inurba_marseille","lat":43.310804,"lon":5.38359,"is_reserved":false,"is_disabled":false,"rental_uris":{"android":"levelo://app?vid=bdee1d3d-b44c-4fd1-a383-48cf492cb104","ios":"levelo://app?vid=bdee1d3d-b44c-4fd1-a383-48cf492cb104"},"vehicle_type_id":"4","last_reported":1724346464,"current_range_meters":3200,"station_id":"ce4bgv92rcd13ifvqcr0","pricing_plan_id":"cebpf4jnsgd1na2vs0mg"},{"bike_id":"3f561d9f-c091-4490-b074-279c6277ca90","system_id":"levelo_inurba_marseille","lat":43.32489,"lon":5.3656,"is_reserved":false,"is_disabled":false,"rental_uris":{"android":"levelo://app?vid=3f561d9f-c091-4490-b074-279c6277ca90","ios":"levelo://app?vid=3f561d9f-c091-4490-b074-279c6277ca90"},"vehicle_type_id":"4","last_reported":1724346464,"current_range_meters":19600,"station_id":"ce4bhs12rcd13ifvqhvg","pricing_plan_id":"cebpf4jnsgd1na2vs0mg"},{"bike_id":"4b068ad2-1221-4476-9487-2b7eb5619d8a","system_id":"levelo_inurba_marseille","lat":43.31366,"lon":5.38364,"is_reserved":false,"is_disabled":false,"rental_uris":{"android":"levelo://app?vid=4b068ad2-1221-4476-9487-2b7eb5619d8a","ios":"levelo://app?vid=4b068ad2-1221-4476-9487-2b7eb5619d8a"},"vehicle_type_id":"4","last_reported":1724346464,"current_range_meters":14000,"station_id":"","pricing_plan_id":"cebpf4jnsgd1na2vs0mg"},{"bike_id":"77c97bfd-2b8c-414c-b60f-9bfe35e1d8d6","system_id":"levelo_inurba_marseille","lat":43.301429,"lon":5.37413,"is_reserved":false,"is_disabled":false,"rental_uris":{"android":"levelo://app?vid=77c97bfd-2b8c-414c-b60f-9bfe35e1d8d6","ios":"levelo://app?vid=77c97bfd-2b8c-414c-b60f-9bfe35e1d8d6"},"vehicle_type_id":"4","last_reported":1724346464,"current_range_meters":31200,"station_id":"ce4bgs92rcd13ifvqcc0","pricing_plan_id":"cebpf4jnsgd1na2vs0mg"},{"bike_id":"bc1ba1be-8326-42bf-bc58-66211f176d4c","system_id":"levelo_inurba_marseille","lat":43.30143,"lon":5.37413,"is_reserved":false,"is_disabled":false,"rental_uris":{"android":"levelo://app?vid=bc1ba1be-8326-42bf-bc58-66211f176d4c","ios":"levelo://app?vid=bc1ba1be-8326-42bf-bc58-66211f176d4c"},"vehicle_type_id":"4","last_reported":1724346464,"current_range_meters":30800,"station_id":"ce4bgs92rcd13ifvqcc0","pricing_plan_id":"cebpf4jnsgd1na2vs0mg"},{"bike_id":"2bbddc54-c894-42fd-a68d-4e3ca79356b5","system_id":"levelo_inurba_marseille","lat":43.30143,"lon":5.37413,"is_reserved":false,"is_disabled":false,"rental_uris":{"android":"levelo://app?vid=2bbddc54-c894-42fd-a68d-4e3ca79356b5","ios":"levelo://app?vid=2bbddc54-c894-42fd-a68d-4e3ca79356b5"},"vehicle_type_id":"4","last_reported":1724346464,"current_range_meters":31600,"station_id":"ce4bgs92rcd13ifvqcc0","pricing_plan_id":"cebpf4jnsgd1na2vs0mg"},{"bike_id":"dcde4260-5021-4467-a72e-de696946a0bf","system_id":"levelo_inurba_marseille","lat":43.31995,"lon":5.38146,"is_reserved":false,"is_disabled":false,"rental_uris":{"android":"levelo://app?vid=dcde4260-5021-4467-a72e-de696946a0bf","ios":"levelo://app?vid=dcde4260-5021-4467-a72e-de696946a0bf"},"vehicle_type_id":"4","last_reported":1724346464,"current_range_meters":31200,"station_id":"ce4bhr12rcd13ifvqhpg","pricing_plan_id":"cebpf4jnsgd1na2vs0mg"},{"bike_id":"b52d43b4-5b1e-4c42-a19b-f68dca8c3ef6","system_id":"levelo_inurba_marseille","lat":43.31998,"lon":5.38159,"is_reserved":false,"is_disabled":false,"rental_uris":{"android":"levelo://app?vid=b52d43b4-5b1e-4c42-a19b-f68dca8c3ef6","ios":"levelo://app?vid=b52d43b4-5b1e-4c42-a19b-f68dca8c3ef6"},"vehicle_type_id":"4","last_reported":1724346464,"current_range_meters":5600,"station_id":"ce4bhr12rcd13ifvqhpg","pricing_plan_id":"cebpf4jnsgd1na2vs0mg"},{"bike_id":"47f0cd10-a3bd-429b-9c44-2980a85fb615","system_id":"levelo_inurba_marseille","lat":43.313571,"lon":5.384829,"is_reserved":false,"is_disabled":false,"rental_uris":{"android":"levelo://app?vid=47f0cd10-a3bd-429b-9c44-2980a85fb615","ios":"levelo://app?vid=47f0cd10-a3bd-429b-9c44-2980a85fb615"},"vehicle_type_id":"4","last_reported":1724346464,"current_range_meters":29600,"station_id":"ce4bgt92rcd13ifvqcf0","pricing_plan_id":"cebpf4jnsgd1na2vs0mg"},{"bike_id":"1b4e2b07-c813-4bcf-9f6b-de44dc1da2ec","system_id":"levelo_inurba_marseille","lat":43.299209,"lon":5.365547,"is_reserved":false,"is_disabled":false,"rental_uris":{"android":"levelo://app?vid=1b4e2b07-c813-4bcf-9f6b-de44dc1da2ec","ios":"levelo://app?vid=1b4e2b07-c813-4bcf-9f6b-de44dc1da2ec"},"vehicle_type_id":"4","last_reported":1724346464,"current_range_meters":27600,"station_id":"ce4bgm92rcd13ifvqbr0","pricing_plan_id":"cebpf4jnsgd1na2vs0mg"},{"bike_id":"c92f31d0-c417-40ca-be37-f6dae2983a72","system_id":"levelo_inurba_marseille","lat":43.298433,"lon":5.362774,"is_reserved":false,"is_disabled":false,"rental_uris":{"android":"levelo://app?vid=c92f31d0-c417-40ca-be37-f6dae2983a72","ios":"levelo://app?vid=c92f31d0-c417-40ca-be37-f6dae2983a72"},"vehicle_type_id":"4","last_reported":1724346464,"current_range_meters":17200,"station_id":"ce4bgpp2rcd13ifvqc3g","pricing_plan_id":"cebpf4jnsgd1na2vs0mg"},{"bike_id":"ac993d24-e741-4d00-a2e3-d7b232870ead","system_id":"levelo_inurba_marseille","lat":43.29886,"lon":5.36316,"is_reserved":false,"is_disabled":false,"rental_uris":{"android":"levelo://app?vid=ac993d24-e741-4d00-a2e3-d7b232870ead","ios":"levelo://app?vid=ac993d24-e741-4d00-a2e3-d7b232870ead"},"vehicle_type_id":"4","last_reported":1724346464,"current_range_meters":7200,"station_id":"","pricing_plan_id":"cebpf4jnsgd1na2vs0mg"},{"bike_id":"f7b00107-61ab-44bc-a8bc-79bf09946c1d","system_id":"levelo_inurba_marseille","lat":43.305364,"lon":5.384119,"is_reserved":false,"is_disabled":false,"rental_uris":{"android":"levelo://app?vid=f7b00107-61ab-44bc-a8bc-79bf09946c1d","ios":"levelo://app?vid=f7b00107-61ab-44bc-a8bc-79bf09946c1d"},"vehicle_type_id":"4","last_reported":1724346464,"current_range_meters":7200,"station_id":"ce4bgg92rcd13ifvqb30","pricing_plan_id":"cebpf4jnsgd1na2vs0mg"},{"bike_id":"a0866259-8a65-41dd-9357-be96a93b5e07","system_id":"levelo_inurba_marseille","lat":43.298433,"lon":5.362774,"is_reserved":false,"is_disabled":false,"rental_uris":{"android":"levelo://app?vid=a0866259-8a65-41dd-9357-be96a93b5e07","ios":"levelo://app?vid=a0866259-8a65-41dd-9357-be96a93b5e07"},"vehicle_type_id":"4","last_reported":1724346464,"current_range_meters":11600,"station_id":"ce4bgpp2rcd13ifvqc3g","pricing_plan_id":"cebpf4jnsgd1na2vs0mg"},{"bike_id":"ab7e17c2-0924-44e1-81fe-c81e82ff8d7b","system_id":"levelo_inurba_marseille","lat":43.311722,"lon":5.387247,"is_reserved":false,"is_disabled":false,"rental_uris":{"android":"levelo://app?vid=ab7e17c2-0924-44e1-81fe-c81e82ff8d7b","ios":"levelo://app?vid=ab7e17c2-0924-44e1-81fe-c81e82ff8d7b"},"vehicle_type_id":"4","last_reported":1724346464,"current_range_meters":13600,"station_id":"ce4bgv12rcd13ifvqcp0","pricing_plan_id":"cebpf4jnsgd1na2vs0mg"},{"bike_id":"6783e0b2-2b1b-4db7-aad6-845ce70ed015","system_id":"levelo_inurba_marseille","lat":43.301417,"lon":5.3809,"is_reserved":false,"is_disabled":false,"rental_uris":{"android":"levelo://app?vid=6783e0b2-2b1b-4db7-aad6-845ce70ed015","ios":"levelo://app?vid=6783e0b2-2b1b-4db7-aad6-845ce70ed015"},"vehicle_type_id":"4","last_reported":1724346464,"current_range_meters":7200,"station_id":"ce4bgjp2rcd13ifvqbh0","pricing_plan_id":"cebpf4jnsgd1na2vs0mg"},{"bike_id":"030b7b34-7526-4fa5-9415-75c4e822ea2c","system_id":"levelo_inurba_marseille","lat":43.297794,"lon":5.370888,"is_reserved":false,"is_disabled":false,"rental_uris":{"android":"levelo://app?vid=030b7b34-7526-4fa5-9415-75c4e822ea2c","ios":"levelo://app?vid=030b7b34-7526-4fa5-9415-75c4e822ea2c"},"vehicle_type_id":"4","last_reported":1724346464,"current_range_meters":10800,"station_id":"ce4bgop2rcd13ifvqc1g","pricing_plan_id":"cebpf4jnsgd1na2vs0mg"},{"bike_id":"765edfa6-e6dd-40c7-9166-85ea272dcc1c","system_id":"levelo_inurba_marseille","lat":43.3229,"lon":5.38265,"is_reserved":false,"is_disabled":false,"rental_uris":{"android":"levelo://app?vid=765edfa6-e6dd-40c7-9166-85ea272dcc1c","ios":"levelo://app?vid=765edfa6-e6dd-40c7-9166-85ea272dcc1c"},"vehicle_type_id":"4","last_reported":1724346464,"current_range_meters":0,"station_id":"ce4bhr12rcd13ifvqhqg","pricing_plan_id":"cebpf4jnsgd1na2vs0mg"},{"bike_id":"016b0bd6-ebcc-4861-b398-c7d7148455fd","system_id":"levelo_inurba_marseille","lat":43.322872,"lon":5.382756,"is_reserved":false,"is_disabled":false,"rental_uris":{"android":"levelo://app?vid=016b0bd6-ebcc-4861-b398-c7d7148455fd","ios":"levelo://app?vid=016b0bd6-ebcc-4861-b398-c7d7148455fd"},"vehicle_type_id":"4","last_reported":1724346464,"current_range_meters":31200,"station_id":"ce4bhr12rcd13ifvqhqg","pricing_plan_id":"cebpf4jnsgd1na2vs0mg"},{"bike_id":"4fc480bc-5a50-4934-9944-60034f3bc02b","system_id":"levelo_inurba_marseille","lat":43.29771,"lon":5.36205,"is_reserved":false,"is_disabled":false,"rental_uris":{"android":"levelo://app?vid=4fc480bc-5a50-4934-9944-60034f3bc02b","ios":"levelo://app?vid=4fc480bc-5a50-4934-9944-60034f3bc02b"},"vehicle_type_id":"4","last_reported":1724346464,"current_range_meters":29600,"station_id":"","pricing_plan_id":"cebpf4jnsgd1na2vs0mg"},{"bike_id":"e1b1c563-bc43-4f37-8b32-d528680db120","system_id":"levelo_inurba_marseille","lat":43.297163,"lon":5.365866,"is_reserved":false,"is_disabled":false,"rental_uris":{"android":"levelo://app?vid=e1b1c563-bc43-4f37-8b32-d528680db120","ios":"levelo://app?vid=e1b1c563-bc43-4f37-8b32-d528680db120"},"vehicle_type_id":"4","last_reported":1724346464,"current_range_meters":6400,"station_id":"ce4bgn12rcd13ifvqbt0","pricing_plan_id":"cebpf4jnsgd1na2vs0mg"},{"bike_id":"d88bf2c7-b5a6-4d92-b564-881342f09fe3","system_id":"levelo_inurba_marseille","lat":43.297163,"lon":5.365866,"is_reserved":false,"is_disabled":false,"rental_uris":{"android":"levelo://app?vid=d88bf2c7-b5a6-4d92-b564-881342f09fe3","ios":"levelo://app?vid=d88bf2c7-b5a6-4d92-b564-881342f09fe3"},"vehicle_type_id":"4","last_reported":1724346464,"current_range_meters":6400,"station_id":"ce4bgn12rcd13ifvqbt0","pricing_plan_id":"cebpf4jnsgd1na2vs0mg"},{"bike_id":"f996bf0a-ca4e-4969-a5b6-732669f9b730","system_id":"levelo_inurba_marseille","lat":43.297163,"lon":5.365866,"is_reserved":false,"is_disabled":false,"rental_uris":{"android":"levelo://app?vid=f996bf0a-ca4e-4969-a5b6-732669f9b730","ios":"levelo://app?vid=f996bf0a-ca4e-4969-a5b6-732669f9b730"},"vehicle_type_id":"4","last_reported":1724346464,"current_range_meters":11200,"station_id":"ce4bgn12rcd13ifvqbt0","pricing_plan_id":"cebpf4jnsgd1na2vs0mg"},{"bike_id":"168a1278-6ca0-4079-ac79-a777cd676fb5","system_id":"levelo_inurba_marseille","lat":43.297163,"lon":5.365866,"is_reserved":false,"is_disabled":false,"rental_uris":{"android":"levelo://app?vid=168a1278-6ca0-4079-ac79-a777cd676fb5","ios":"levelo://app?vid=168a1278-6ca0-4079-ac79-a777cd676fb5"},"vehicle_type_id":"4","last_reported":1724346464,"current_range_meters":22800,"station_id":"ce4bgn12rcd13ifvqbt0","pricing_plan_id":"cebpf4jnsgd1na2vs0mg"},{"bike_id":"9f864eb1-62c4-498d-9749-4ac6a3e0b261","system_id":"levelo_inurba_marseille","lat":43.30297,"lon":5.38497,"is_reserved":false,"is_disabled":false,"rental_uris":{"android":"levelo://app?vid=9f864eb1-62c4-498d-9749-4ac6a3e0b261","ios":"levelo://app?vid=9f864eb1-62c4-498d-9749-4ac6a3e0b261"},"vehicle_type_id":"4","last_reported":1724346464,"current_range_meters":0,"station_id":"","pricing_plan_id":"cebpf4jnsgd1na2vs0mg"},{"bike_id":"e6103fb5-4f3f-4450-901b-0403b7ab003f","system_id":"levelo_inurba_marseille","lat":43.296131,"lon":5.370791,"is_reserved":false,"is_disabled":false,"rental_uris":{"android":"levelo://app?vid=e6103fb5-4f3f-4450-901b-0403b7ab003f","ios":"levelo://app?vid=e6103fb5-4f3f-4450-901b-0403b7ab003f"},"vehicle_type_id":"4","last_reported":1724346464,"current_range_meters":29600,"station_id":"ce4bgnh2rcd13ifvqc0g","pricing_plan_id":"cebpf4jnsgd1na2vs0mg"},{"bike_id":"712e5be7-3186-4dac-88a2-94b009e40faa","system_id":"levelo_inurba_marseille","lat":43.298037,"lon":5.381066,"is_reserved":false,"is_disabled":false,"rental_uris":{"android":"levelo://app?vid=712e5be7-3186-4dac-88a2-94b009e40faa","ios":"levelo://app?vid=712e5be7-3186-4dac-88a2-94b009e40faa"},"vehicle_type_id":"4","last_reported":1724346464,"current_range_meters":3600,"station_id":"ce4bgip2rcd13ifvqbb0","pricing_plan_id":"cebpf4jnsgd1na2vs0mg"},{"bike_id":"9cd12ab4-215a-4520-acd8-a7f48ed6ad9d","system_id":"levelo_inurba_marseille","lat":43.296131,"lon":5.370791,"is_reserved":false,"is_disabled":false,"rental_uris":{"android":"levelo://app?vid=9cd12ab4-215a-4520-acd8-a7f48ed6ad9d","ios":"levelo://app?vid=9cd12ab4-215a-4520-acd8-a7f48ed6ad9d"},"vehicle_type_id":"4","last_reported":1724346464,"current_range_meters":0,"station_id":"ce4bgnh2rcd13ifvqc0g","pricing_plan_id":"cebpf4jnsgd1na2vs0mg"},{"bike_id":"87511393-f99d-4263-9a07-cf121cda71b9","system_id":"levelo_inurba_marseille","lat":43.29583,"lon":5.36734,"is_reserved":false,"is_disabled":false,"rental_uris":{"android":"levelo://app?vid=87511393-f99d-4263-9a07-cf121cda71b9","ios":"levelo://app?vid=87511393-f99d-4263-9a07-cf121cda71b9"},"vehicle_type_id":"4","last_reported":1724346464,"current_range_meters":31600,"station_id":"ce4bgph2rcd13ifvqc2g","pricing_plan_id":"cebpf4jnsgd1na2vs0mg"},{"bike_id":"c86d6d00-1c9a-4652-8ffc-08e5b37bb2f7","system_id":"levelo_inurba_marseille","lat":43.29579,"lon":5.36739,"is_reserved":false,"is_disabled":false,"rental_uris":{"android":"levelo://app?vid=c86d6d00-1c9a-4652-8ffc-08e5b37bb2f7","ios":"levelo://app?vid=c86d6d00-1c9a-4652-8ffc-08e5b37bb2f7"},"vehicle_type_id":"4","last_reported":1724346464,"current_range_meters":12400,"station_id":"ce4bgph2rcd13ifvqc2g","pricing_plan_id":"cebpf4jnsgd1na2vs0mg"},{"bike_id":"5ba4d069-ad80-4643-acfb-a12678e9f162","system_id":"levelo_inurba_marseille","lat":43.29573,"lon":5.367355,"is_reserved":false,"is_disabled":false,"rental_uris":{"android":"levelo://app?vid=5ba4d069-ad80-4643-acfb-a12678e9f162","ios":"levelo://app?vid=5ba4d069-ad80-4643-acfb-a12678e9f162"},"vehicle_type_id":"4","last_reported":1724346464,"current_range_meters":18400,"station_id":"ce4bgph2rcd13ifvqc2g","pricing_plan_id":"cebpf4jnsgd1na2vs0mg"},{"bike_id":"77d1eca6-0d57-47c2-aec1-13983710bdc8","system_id":"levelo_inurba_marseille","lat":43.2991,"lon":5.38126,"is_reserved":false,"is_disabled":false,"rental_uris":{"android":"levelo://app?vid=77d1eca6-0d57-47c2-aec1-13983710bdc8","ios":"levelo://app?vid=77d1eca6-0d57-47c2-aec1-13983710bdc8"},"vehicle_type_id":"4","last_reported":1724346464,"current_range_meters":0,"station_id":"ce4bgj12rcd13ifvqbc0","pricing_plan_id":"cebpf4jnsgd1na2vs0mg"},{"bike_id":"796911e7-8c1b-4572-80f5-fcaf2f8854e0","system_id":"levelo_inurba_marseille","lat":43.296921,"lon":5.376579,"is_reserved":false,"is_disabled":false,"rental_uris":{"android":"levelo://app?vid=796911e7-8c1b-4572-80f5-fcaf2f8854e0","ios":"levelo://app?vid=796911e7-8c1b-4572-80f5-fcaf2f8854e0"},"vehicle_type_id":"4","last_reported":1724346464,"current_range_meters":14800,"station_id":"ce4bgkh2rcd13ifvqbl0","pricing_plan_id":"cebpf4jnsgd1na2vs0mg"},{"bike_id":"9db8e73d-adb8-46e4-8062-adf0bd88074f","system_id":"levelo_inurba_marseille","lat":43.299028,"lon":5.381509,"is_reserved":false,"is_disabled":false,"rental_uris":{"android":"levelo://app?vid=9db8e73d-adb8-46e4-8062-adf0bd88074f","ios":"levelo://app?vid=9db8e73d-adb8-46e4-8062-adf0bd88074f"},"vehicle_type_id":"4","last_reported":1724346464,"current_range_meters":2000,"station_id":"ce4bgj12rcd13ifvqbc0","pricing_plan_id":"cebpf4jnsgd1na2vs0mg"},{"bike_id":"8cacd12a-602b-4de8-92d6-50e47b8e80a1","system_id":"levelo_inurba_marseille","lat":43.299028,"lon":5.381509,"is_reserved":false,"is_disabled":false,"rental_uris":{"android":"levelo://app?vid=8cacd12a-602b-4de8-92d6-50e47b8e80a1","ios":"levelo://app?vid=8cacd12a-602b-4de8-92d6-50e47b8e80a1"},"vehicle_type_id":"4","last_reported":1724346464,"current_range_meters":1600,"station_id":"ce4bgj12rcd13ifvqbc0","pricing_plan_id":"cebpf4jnsgd1na2vs0mg"},{"bike_id":"303cad1f-f528-430c-acfe-49041959d5f0","system_id":"levelo_inurba_marseille","lat":43.309589,"lon":5.390258,"is_reserved":false,"is_disabled":false,"rental_uris":{"android":"levelo://app?vid=303cad1f-f528-430c-acfe-49041959d5f0","ios":"levelo://app?vid=303cad1f-f528-430c-acfe-49041959d5f0"},"vehicle_type_id":"4","last_reported":1724346464,"current_range_meters":800,"station_id":"ce4bgup2rcd13ifvqco0","pricing_plan_id":"cebpf4jnsgd1na2vs0mg"},{"bike_id":"0f8f97ed-b499-4d9e-8f15-f6642cd92735","system_id":"levelo_inurba_marseille","lat":43.317557,"lon":5.390173,"is_reserved":false,"is_disabled":false,"rental_uris":{"android":"levelo://app?vid=0f8f97ed-b499-4d9e-8f15-f6642cd92735","ios":"levelo://app?vid=0f8f97ed-b499-4d9e-8f15-f6642cd92735"},"vehicle_type_id":"4","last_reported":1724346464,"current_range_meters":400,"station_id":"ce4bhqp2rcd13ifvqhng","pricing_plan_id":"cebpf4jnsgd1na2vs0mg"},{"bike_id":"261ad843-51e3-4894-bd8b-70796b3dde38","system_id":"levelo_inurba_marseille","lat":43.317557,"lon":5.390173,"is_reserved":false,"is_disabled":false,"rental_uris":{"android":"levelo://app?vid=261ad843-51e3-4894-bd8b-70796b3dde38","ios":"levelo://app?vid=261ad843-51e3-4894-bd8b-70796b3dde38"},"vehicle_type_id":"4","last_reported":1724346464,"current_range_meters":30800,"station_id":"ce4bhqp2rcd13ifvqhng","pricing_plan_id":"cebpf4jnsgd1na2vs0mg"},{"bike_id":"7a328019-70fa-4010-acbc-f976e792a345","system_id":"levelo_inurba_marseille","lat":43.31496,"lon":5.39123,"is_reserved":false,"is_disabled":false,"rental_uris":{"android":"levelo://app?vid=7a328019-70fa-4010-acbc-f976e792a345","ios":"levelo://app?vid=7a328019-70fa-4010-acbc-f976e792a345"},"vehicle_type_id":"4","last_reported":1724346464,"current_range_meters":4000,"station_id":"","pricing_plan_id":"cebpf4jnsgd1na2vs0mg"},{"bike_id":"b63f9841-2c15-46a9-affe-53cefb9cf494","system_id":"levelo_inurba_marseille","lat":43.304274,"lon":5.388873,"is_reserved":false,"is_disabled":false,"rental_uris":{"android":"levelo://app?vid=b63f9841-2c15-46a9-affe-53cefb9cf494","ios":"levelo://app?vid=b63f9841-2c15-46a9-affe-53cefb9cf494"},"vehicle_type_id":"4","last_reported":1724346464,"current_range_meters":400,"station_id":"ce4bgk12rcd13ifvqbi0","pricing_plan_id":"cebpf4jnsgd1na2vs0mg"},{"bike_id":"9b26247d-289a-44ab-92a3-9351ef37d921","system_id":"levelo_inurba_marseille","lat":43.295748,"lon":5.37522,"is_reserved":false,"is_disabled":false,"rental_uris":{"android":"levelo://app?vid=9b26247d-289a-44ab-92a3-9351ef37d921","ios":"levelo://app?vid=9b26247d-289a-44ab-92a3-9351ef37d921"},"vehicle_type_id":"4","last_reported":1724346464,"current_range_meters":30000,"station_id":"ce4bgh92rcd13ifvqb50","pricing_plan_id":"cebpf4jnsgd1na2vs0mg"},{"bike_id":"e33d8fae-bd3e-478a-9b2c-e6c54dbce650","system_id":"levelo_inurba_marseille","lat":43.296263,"lon":5.377094,"is_reserved":false,"is_disabled":false,"rental_uris":{"android":"levelo://app?vid=e33d8fae-bd3e-478a-9b2c-e6c54dbce650","ios":"levelo://app?vid=e33d8fae-bd3e-478a-9b2c-e6c54dbce650"},"vehicle_type_id":"4","last_reported":1724346464,"current_range_meters":0,"station_id":"ce4bgi92rcd13ifvqb90","pricing_plan_id":"cebpf4jnsgd1na2vs0mg"},{"bike_id":"4a5518de-cb81-42a9-9999-83417606f6ba","system_id":"levelo_inurba_marseille","lat":43.29977,"lon":5.38483,"is_reserved":false,"is_disabled":false,"rental_uris":{"android":"levelo://app?vid=4a5518de-cb81-42a9-9999-83417606f6ba","ios":"levelo://app?vid=4a5518de-cb81-42a9-9999-83417606f6ba"},"vehicle_type_id":"4","last_reported":1724346464,"current_range_meters":31200,"station_id":"ce4bgj92rcd13ifvqbd0","pricing_plan_id":"cebpf4jnsgd1na2vs0mg"},{"bike_id":"7f495367-5f4e-41ec-9033-6996d7d4f564","system_id":"levelo_inurba_marseille","lat":43.299717,"lon":5.384845,"is_reserved":false,"is_disabled":false,"rental_uris":{"android":"levelo://app?vid=7f495367-5f4e-41ec-9033-6996d7d4f564","ios":"levelo://app?vid=7f495367-5f4e-41ec-9033-6996d7d4f564"},"vehicle_type_id":"4","last_reported":1724346464,"current_range_meters":20400,"station_id":"ce4bgj92rcd13ifvqbd0","pricing_plan_id":"cebpf4jnsgd1na2vs0mg"},{"bike_id":"f3da5fb5-3b37-4462-a717-50e4dac4ff05","system_id":"levelo_inurba_marseille","lat":43.299717,"lon":5.384845,"is_reserved":false,"is_disabled":false,"rental_uris":{"android":"levelo://app?vid=f3da5fb5-3b37-4462-a717-50e4dac4ff05","ios":"levelo://app?vid=f3da5fb5-3b37-4462-a717-50e4dac4ff05"},"vehicle_type_id":"4","last_reported":1724346464,"current_range_meters":22400,"station_id":"ce4bgj92rcd13ifvqbd0","pricing_plan_id":"cebpf4jnsgd1na2vs0mg"},{"bike_id":"b3bb851a-2c86-4c24-92a5-cbf80156dc77","system_id":"levelo_inurba_marseille","lat":43.301396,"lon":5.387812,"is_reserved":false,"is_disabled":false,"rental_uris":{"android":"levelo://app?vid=b3bb851a-2c86-4c24-92a5-cbf80156dc77","ios":"levelo://app?vid=b3bb851a-2c86-4c24-92a5-cbf80156dc77"},"vehicle_type_id":"4","last_reported":1724346464,"current_range_meters":0,"station_id":"ce4bghh2rcd13ifvqb60","pricing_plan_id":"cebpf4jnsgd1na2vs0mg"},{"bike_id":"11c0349f-1769-458f-abbc-bbda1f89b5ff","system_id":"levelo_inurba_marseille","lat":43.301396,"lon":5.387812,"is_reserved":false,"is_disabled":false,"rental_uris":{"android":"levelo://app?vid=11c0349f-1769-458f-abbc-bbda1f89b5ff","ios":"levelo://app?vid=11c0349f-1769-458f-abbc-bbda1f89b5ff"},"vehicle_type_id":"4","last_reported":1724346464,"current_range_meters":20000,"station_id":"ce4bghh2rcd13ifvqb60","pricing_plan_id":"cebpf4jnsgd1na2vs0mg"},{"bike_id":"310672ef-f8b1-4772-9695-0214b1bed693","system_id":"levelo_inurba_marseille","lat":43.29607,"lon":5.38066,"is_reserved":false,"is_disabled":false,"rental_uris":{"android":"levelo://app?vid=310672ef-f8b1-4772-9695-0214b1bed693","ios":"levelo://app?vid=310672ef-f8b1-4772-9695-0214b1bed693"},"vehicle_type_id":"4","last_reported":1724346464,"current_range_meters":2000,"station_id":"","pricing_plan_id":"cebpf4jnsgd1na2vs0mg"},{"bike_id":"5ced9441-a999-405b-aaad-b289271c3907","system_id":"levelo_inurba_marseille","lat":43.29601,"lon":5.381084,"is_reserved":false,"is_disabled":false,"rental_uris":{"android":"levelo://app?vid=5ced9441-a999-405b-aaad-b289271c3907","ios":"levelo://app?vid=5ced9441-a999-405b-aaad-b289271c3907"},"vehicle_type_id":"4","last_reported":1724346464,"current_range_meters":4800,"station_id":"ce4bgl12rcd13ifvqbo0","pricing_plan_id":"cebpf4jnsgd1na2vs0mg"},{"bike_id":"87b9209d-4aff-4398-8fff-26a06861d83f","system_id":"levelo_inurba_marseille","lat":43.292749,"lon":5.368402,"is_reserved":false,"is_disabled":false,"rental_uris":{"android":"levelo://app?vid=87b9209d-4aff-4398-8fff-26a06861d83f","ios":"levelo://app?vid=87b9209d-4aff-4398-8fff-26a06861d83f"},"vehicle_type_id":"4","last_reported":1724346464,"current_range_meters":16000,"station_id":"ce4bhbp2rcd13ifvqesg","pricing_plan_id":"cebpf4jnsgd1na2vs0mg"},{"bike_id":"5542d8a7-75d6-46ce-b8c2-02ecb11cabab","system_id":"levelo_inurba_marseille","lat":43.29306,"lon":5.37177,"is_reserved":false,"is_disabled":false,"rental_uris":{"android":"levelo://app?vid=5542d8a7-75d6-46ce-b8c2-02ecb11cabab","ios":"levelo://app?vid=5542d8a7-75d6-46ce-b8c2-02ecb11cabab"},"vehicle_type_id":"4","last_reported":1724346464,"current_range_meters":30400,"station_id":"ce4bgh92rcd13ifvqb40","pricing_plan_id":"cebpf4jnsgd1na2vs0mg"},{"bike_id":"dd3ddc1e-3add-413b-9a3a-db30f11211b3","system_id":"levelo_inurba_marseille","lat":43.29304,"lon":5.37171,"is_reserved":false,"is_disabled":false,"rental_uris":{"android":"levelo://app?vid=dd3ddc1e-3add-413b-9a3a-db30f11211b3","ios":"levelo://app?vid=dd3ddc1e-3add-413b-9a3a-db30f11211b3"},"vehicle_type_id":"4","last_reported":1724346464,"current_range_meters":4800,"station_id":"ce4bgh92rcd13ifvqb40","pricing_plan_id":"cebpf4jnsgd1na2vs0mg"},{"bike_id":"002e05dd-adce-4267-a642-ceec2b7ab2cc","system_id":"levelo_inurba_marseille","lat":43.292749,"lon":5.368398,"is_reserved":false,"is_disabled":false,"rental_uris":{"android":"levelo://app?vid=002e05dd-adce-4267-a642-ceec2b7ab2cc","ios":"levelo://app?vid=002e05dd-adce-4267-a642-ceec2b7ab2cc"},"vehicle_type_id":"4","last_reported":1724346464,"current_range_meters":2400,"station_id":"ce4bhbp2rcd13ifvqesg","pricing_plan_id":"cebpf4jnsgd1na2vs0mg"},{"bike_id":"ca6e918b-cd88-4851-94b4-2a9684981308","system_id":"levelo_inurba_marseille","lat":43.292749,"lon":5.368402,"is_reserved":false,"is_disabled":false,"rental_uris":{"android":"levelo://app?vid=ca6e918b-cd88-4851-94b4-2a9684981308","ios":"levelo://app?vid=ca6e918b-cd88-4851-94b4-2a9684981308"},"vehicle_type_id":"4","last_reported":1724346464,"current_range_meters":28400,"station_id":"ce4bhbp2rcd13ifvqesg","pricing_plan_id":"cebpf4jnsgd1na2vs0mg"},{"bike_id":"8b7be645-b789-44a8-b838-6191dcc592b6","system_id":"levelo_inurba_marseille","lat":43.292749,"lon":5.368402,"is_reserved":false,"is_disabled":false,"rental_uris":{"android":"levelo://app?vid=8b7be645-b789-44a8-b838-6191dcc592b6","ios":"levelo://app?vid=8b7be645-b789-44a8-b838-6191dcc592b6"},"vehicle_type_id":"4","last_reported":1724346464,"current_range_meters":27600,"station_id":"ce4bhbp2rcd13ifvqesg","pricing_plan_id":"cebpf4jnsgd1na2vs0mg"},{"bike_id":"6eb90378-c370-4db9-8861-734a9006ced6","system_id":"levelo_inurba_marseille","lat":43.29308,"lon":5.3746,"is_reserved":false,"is_disabled":false,"rental_uris":{"android":"levelo://app?vid=6eb90378-c370-4db9-8861-734a9006ced6","ios":"levelo://app?vid=6eb90378-c370-4db9-8861-734a9006ced6"},"vehicle_type_id":"4","last_reported":1724346464,"current_range_meters":29600,"station_id":"ce4bgi12rcd13ifvqb70","pricing_plan_id":"cebpf4jnsgd1na2vs0mg"},{"bike_id":"978d9cf5-6676-4454-abbd-586b94798b43","system_id":"levelo_inurba_marseille","lat":43.293,"lon":5.37438,"is_reserved":false,"is_disabled":false,"rental_uris":{"android":"levelo://app?vid=978d9cf5-6676-4454-abbd-586b94798b43","ios":"levelo://app?vid=978d9cf5-6676-4454-abbd-586b94798b43"},"vehicle_type_id":"4","last_reported":1724346464,"current_range_meters":31200,"station_id":"ce4bgi12rcd13ifvqb70","pricing_plan_id":"cebpf4jnsgd1na2vs0mg"},{"bike_id":"6251b571-2fc2-4220-bb60-d1c45deafd5a","system_id":"levelo_inurba_marseille","lat":43.30593,"lon":5.39347,"is_reserved":false,"is_disabled":false,"rental_uris":{"android":"levelo://app?vid=6251b571-2fc2-4220-bb60-d1c45deafd5a","ios":"levelo://app?vid=6251b571-2fc2-4220-bb60-d1c45deafd5a"},"vehicle_type_id":"4","last_reported":1724346464,"current_range_meters":9600,"station_id":"ce4bh0p2rcd13ifvqd80","pricing_plan_id":"cebpf4jnsgd1na2vs0mg"},{"bike_id":"0bb7bc67-38e0-4278-985a-bb38b5c8ef2e","system_id":"levelo_inurba_marseille","lat":43.293009,"lon":5.374584,"is_reserved":false,"is_disabled":false,"rental_uris":{"android":"levelo://app?vid=0bb7bc67-38e0-4278-985a-bb38b5c8ef2e","ios":"levelo://app?vid=0bb7bc67-38e0-4278-985a-bb38b5c8ef2e"},"vehicle_type_id":"4","last_reported":1724346464,"current_range_meters":8000,"station_id":"ce4bgi12rcd13ifvqb70","pricing_plan_id":"cebpf4jnsgd1na2vs0mg"},{"bike_id":"6b34fac3-236a-4750-9934-113563cdad6b","system_id":"levelo_inurba_marseille","lat":43.293009,"lon":5.374584,"is_reserved":false,"is_disabled":false,"rental_uris":{"android":"levelo://app?vid=6b34fac3-236a-4750-9934-113563cdad6b","ios":"levelo://app?vid=6b34fac3-236a-4750-9934-113563cdad6b"},"vehicle_type_id":"4","last_reported":1724346464,"current_range_meters":12800,"station_id":"ce4bgi12rcd13ifvqb70","pricing_plan_id":"cebpf4jnsgd1na2vs0mg"},{"bike_id":"4651b886-4d8e-4928-8f9b-6de955c74bea","system_id":"levelo_inurba_marseille","lat":43.305994,"lon":5.393687,"is_reserved":false,"is_disabled":false,"rental_uris":{"android":"levelo://app?vid=4651b886-4d8e-4928-8f9b-6de955c74bea","ios":"levelo://app?vid=4651b886-4d8e-4928-8f9b-6de955c74bea"},"vehicle_type_id":"4","last_reported":1724346464,"current_range_meters":0,"station_id":"ce4bh0p2rcd13ifvqd80","pricing_plan_id":"cebpf4jnsgd1na2vs0mg"},{"bike_id":"488e28fb-f951-4e4d-b7a3-e1cb8188c582","system_id":"levelo_inurba_marseille","lat":43.293009,"lon":5.374584,"is_reserved":false,"is_disabled":false,"rental_uris":{"android":"levelo://app?vid=488e28fb-f951-4e4d-b7a3-e1cb8188c582","ios":"levelo://app?vid=488e28fb-f951-4e4d-b7a3-e1cb8188c582"},"vehicle_type_id":"4","last_reported":1724346464,"current_range_meters":1200,"station_id":"ce4bgi12rcd13ifvqb70","pricing_plan_id":"cebpf4jnsgd1na2vs0mg"},{"bike_id":"e83bc00c-d454-4a84-85f0-a14110ca9c63","system_id":"levelo_inurba_marseille","lat":43.293009,"lon":5.374584,"is_reserved":false,"is_disabled":false,"rental_uris":{"android":"levelo://app?vid=e83bc00c-d454-4a84-85f0-a14110ca9c63","ios":"levelo://app?vid=e83bc00c-d454-4a84-85f0-a14110ca9c63"},"vehicle_type_id":"4","last_reported":1724346464,"current_range_meters":7600,"station_id":"ce4bgi12rcd13ifvqb70","pricing_plan_id":"cebpf4jnsgd1na2vs0mg"},{"bike_id":"0889a428-48b7-4720-93b0-d2d529af55f6","system_id":"levelo_inurba_marseille","lat":43.293009,"lon":5.374584,"is_reserved":false,"is_disabled":false,"rental_uris":{"android":"levelo://app?vid=0889a428-48b7-4720-93b0-d2d529af55f6","ios":"levelo://app?vid=0889a428-48b7-4720-93b0-d2d529af55f6"},"vehicle_type_id":"4","last_reported":1724346464,"current_range_meters":2400,"station_id":"ce4bgi12rcd13ifvqb70","pricing_plan_id":"cebpf4jnsgd1na2vs0mg"},{"bike_id":"cb2f75da-bd2c-4e69-a1e5-8d3d0555020e","system_id":"levelo_inurba_marseille","lat":43.293009,"lon":5.374584,"is_reserved":false,"is_disabled":false,"rental_uris":{"android":"levelo://app?vid=cb2f75da-bd2c-4e69-a1e5-8d3d0555020e","ios":"levelo://app?vid=cb2f75da-bd2c-4e69-a1e5-8d3d0555020e"},"vehicle_type_id":"4","last_reported":1724346464,"current_range_meters":1600,"station_id":"ce4bgi12rcd13ifvqb70","pricing_plan_id":"cebpf4jnsgd1na2vs0mg"},{"bike_id":"b667f2d8-b99d-47c6-b257-52d0c1f71884","system_id":"levelo_inurba_marseille","lat":43.292311,"lon":5.360731,"is_reserved":false,"is_disabled":false,"rental_uris":{"android":"levelo://app?vid=b667f2d8-b99d-47c6-b257-52d0c1f71884","ios":"levelo://app?vid=b667f2d8-b99d-47c6-b257-52d0c1f71884"},"vehicle_type_id":"4","last_reported":1724346464,"current_range_meters":0,"station_id":"ce4bhbh2rcd13ifvqeqg","pricing_plan_id":"cebpf4jnsgd1na2vs0mg"},{"bike_id":"ac92f791-6622-4def-bc14-1c43cfd29977","system_id":"levelo_inurba_marseille","lat":43.30085,"lon":5.390856,"is_reserved":false,"is_disabled":false,"rental_uris":{"android":"levelo://app?vid=ac92f791-6622-4def-bc14-1c43cfd29977","ios":"levelo://app?vid=ac92f791-6622-4def-bc14-1c43cfd29977"},"vehicle_type_id":"4","last_reported":1724346464,"current_range_meters":17600,"station_id":"ce4bh192rcd13ifvqdb0","pricing_plan_id":"cebpf4jnsgd1na2vs0mg"},{"bike_id":"5b98882b-6f40-40d5-95e1-09b54bda6c46","system_id":"levelo_inurba_marseille","lat":43.292311,"lon":5.360731,"is_reserved":false,"is_disabled":false,"rental_uris":{"android":"levelo://app?vid=5b98882b-6f40-40d5-95e1-09b54bda6c46","ios":"levelo://app?vid=5b98882b-6f40-40d5-95e1-09b54bda6c46"},"vehicle_type_id":"4","last_reported":1724346464,"current_range_meters":30400,"station_id":"ce4bhbh2rcd13ifvqeqg","pricing_plan_id":"cebpf4jnsgd1na2vs0mg"},{"bike_id":"0c7b19ba-5858-4ca8-b2e5-5bb15ff19ea7","system_id":"levelo_inurba_marseille","lat":43.31365,"lon":5.3959,"is_reserved":false,"is_disabled":false,"rental_uris":{"android":"levelo://app?vid=0c7b19ba-5858-4ca8-b2e5-5bb15ff19ea7","ios":"levelo://app?vid=0c7b19ba-5858-4ca8-b2e5-5bb15ff19ea7"},"vehicle_type_id":"4","last_reported":1724346464,"current_range_meters":0,"station_id":"","pricing_plan_id":"cebpf4jnsgd1na2vs0mg"},{"bike_id":"7205f390-82b8-4819-84b9-9c57c7f2444c","system_id":"levelo_inurba_marseille","lat":43.298942,"lon":5.389092,"is_reserved":false,"is_disabled":false,"rental_uris":{"android":"levelo://app?vid=7205f390-82b8-4819-84b9-9c57c7f2444c","ios":"levelo://app?vid=7205f390-82b8-4819-84b9-9c57c7f2444c"},"vehicle_type_id":"4","last_reported":1724346464,"current_range_meters":0,"station_id":"ce4bh392rcd13ifvqdl0","pricing_plan_id":"cebpf4jnsgd1na2vs0mg"},{"bike_id":"07371258-92c9-41c2-9b89-6dc0e0d5e138","system_id":"levelo_inurba_marseille","lat":43.30367,"lon":5.3933,"is_reserved":false,"is_disabled":false,"rental_uris":{"android":"levelo://app?vid=07371258-92c9-41c2-9b89-6dc0e0d5e138","ios":"levelo://app?vid=07371258-92c9-41c2-9b89-6dc0e0d5e138"},"vehicle_type_id":"4","last_reported":1724346464,"current_range_meters":0,"station_id":"","pricing_plan_id":"cebpf4jnsgd1na2vs0mg"},{"bike_id":"d9c300a9-52a1-4ae9-9f04-f76b88a5ad76","system_id":"levelo_inurba_marseille","lat":43.298764,"lon":5.388973,"is_reserved":false,"is_disabled":false,"rental_uris":{"android":"levelo://app?vid=d9c300a9-52a1-4ae9-9f04-f76b88a5ad76","ios":"levelo://app?vid=d9c300a9-52a1-4ae9-9f04-f76b88a5ad76"},"vehicle_type_id":"4","last_reported":1724346464,"current_range_meters":28000,"station_id":"ce4bh392rcd13ifvqdl0","pricing_plan_id":"cebpf4jnsgd1na2vs0mg"},{"bike_id":"2fb24c1b-de53-4f78-823b-3d4a8cdf64b0","system_id":"levelo_inurba_marseille","lat":43.291671,"lon":5.371575,"is_reserved":false,"is_disabled":false,"rental_uris":{"android":"levelo://app?vid=2fb24c1b-de53-4f78-823b-3d4a8cdf64b0","ios":"levelo://app?vid=2fb24c1b-de53-4f78-823b-3d4a8cdf64b0"},"vehicle_type_id":"4","last_reported":1724346464,"current_range_meters":21200,"station_id":"ce4bha92rcd13ifvqeh0","pricing_plan_id":"cebpf4jnsgd1na2vs0mg"},{"bike_id":"8e9962cd-587e-4a99-a722-72e29df3cba9","system_id":"levelo_inurba_marseille","lat":43.291675,"lon":5.371583,"is_reserved":false,"is_disabled":false,"rental_uris":{"android":"levelo://app?vid=8e9962cd-587e-4a99-a722-72e29df3cba9","ios":"levelo://app?vid=8e9962cd-587e-4a99-a722-72e29df3cba9"},"vehicle_type_id":"4","last_reported":1724346464,"current_range_meters":12400,"station_id":"ce4bha92rcd13ifvqeh0","pricing_plan_id":"cebpf4jnsgd1na2vs0mg"},{"bike_id":"62225555-c58f-4ff8-8c26-db4df81c5dcf","system_id":"levelo_inurba_marseille","lat":43.291675,"lon":5.371583,"is_reserved":false,"is_disabled":false,"rental_uris":{"android":"levelo://app?vid=62225555-c58f-4ff8-8c26-db4df81c5dcf","ios":"levelo://app?vid=62225555-c58f-4ff8-8c26-db4df81c5dcf"},"vehicle_type_id":"4","last_reported":1724346464,"current_range_meters":24400,"station_id":"ce4bha92rcd13ifvqeh0","pricing_plan_id":"cebpf4jnsgd1na2vs0mg"},{"bike_id":"e66da5b0-1a88-4af0-b659-e862fa1289c8","system_id":"levelo_inurba_marseille","lat":43.298764,"lon":5.388973,"is_reserved":false,"is_disabled":false,"rental_uris":{"android":"levelo://app?vid=e66da5b0-1a88-4af0-b659-e862fa1289c8","ios":"levelo://app?vid=e66da5b0-1a88-4af0-b659-e862fa1289c8"},"vehicle_type_id":"4","last_reported":1724346464,"current_range_meters":16000,"station_id":"ce4bh392rcd13ifvqdl0","pricing_plan_id":"cebpf4jnsgd1na2vs0mg"},{"bike_id":"28cffdb8-d750-43d3-b591-3ccee9119c5d","system_id":"levelo_inurba_marseille","lat":43.30891,"lon":5.39625,"is_reserved":false,"is_disabled":false,"rental_uris":{"android":"levelo://app?vid=28cffdb8-d750-43d3-b591-3ccee9119c5d","ios":"levelo://app?vid=28cffdb8-d750-43d3-b591-3ccee9119c5d"},"vehicle_type_id":"4","last_reported":1724346464,"current_range_meters":20000,"station_id":"ce4bh012rcd13ifvqcv0","pricing_plan_id":"cebpf4jnsgd1na2vs0mg"},{"bike_id":"87fa4a14-d865-4a47-8bae-076c5e479900","system_id":"levelo_inurba_marseille","lat":43.292005,"lon":5.357875,"is_reserved":false,"is_disabled":false,"rental_uris":{"android":"levelo://app?vid=87fa4a14-d865-4a47-8bae-076c5e479900","ios":"levelo://app?vid=87fa4a14-d865-4a47-8bae-076c5e479900"},"vehicle_type_id":"4","last_reported":1724346464,"current_range_meters":29200,"station_id":"ce4bhb12rcd13ifvqel0","pricing_plan_id":"cebpf4jnsgd1na2vs0mg"},{"bike_id":"bed54c23-f524-4f3a-9274-487ed70faa84","system_id":"levelo_inurba_marseille","lat":43.292005,"lon":5.357875,"is_reserved":false,"is_disabled":false,"rental_uris":{"android":"levelo://app?vid=bed54c23-f524-4f3a-9274-487ed70faa84","ios":"levelo://app?vid=bed54c23-f524-4f3a-9274-487ed70faa84"},"vehicle_type_id":"4","last_reported":1724346464,"current_range_meters":400,"station_id":"ce4bhb12rcd13ifvqel0","pricing_plan_id":"cebpf4jnsgd1na2vs0mg"},{"bike_id":"a9fe295b-021a-436f-a0b0-26d34559385e","system_id":"levelo_inurba_marseille","lat":43.29197,"lon":5.35792,"is_reserved":false,"is_disabled":false,"rental_uris":{"android":"levelo://app?vid=a9fe295b-021a-436f-a0b0-26d34559385e","ios":"levelo://app?vid=a9fe295b-021a-436f-a0b0-26d34559385e"},"vehicle_type_id":"4","last_reported":1724346464,"current_range_meters":9200,"station_id":"ce4bhb12rcd13ifvqel0","pricing_plan_id":"cebpf4jnsgd1na2vs0mg"},{"bike_id":"71512195-941e-44ec-afd5-6d8085ac7dbf","system_id":"levelo_inurba_marseille","lat":43.309047,"lon":5.396551,"is_reserved":false,"is_disabled":false,"rental_uris":{"android":"levelo://app?vid=71512195-941e-44ec-afd5-6d8085ac7dbf","ios":"levelo://app?vid=71512195-941e-44ec-afd5-6d8085ac7dbf"},"vehicle_type_id":"4","last_reported":1724346464,"current_range_meters":19200,"station_id":"ce4bh012rcd13ifvqcv0","pricing_plan_id":"cebpf4jnsgd1na2vs0mg"},{"bike_id":"f5c2ae40-9254-4cf0-9e92-35667ee22f63","system_id":"levelo_inurba_marseille","lat":43.29529,"lon":5.385581,"is_reserved":false,"is_disabled":false,"rental_uris":{"android":"levelo://app?vid=f5c2ae40-9254-4cf0-9e92-35667ee22f63","ios":"levelo://app?vid=f5c2ae40-9254-4cf0-9e92-35667ee22f63"},"vehicle_type_id":"4","last_reported":1724346464,"current_range_meters":4400,"station_id":"ce4bgih2rcd13ifvqba0","pricing_plan_id":"cebpf4jnsgd1na2vs0mg"},{"bike_id":"53f85b61-bedd-45fe-96c2-56a08ebe2801","system_id":"levelo_inurba_marseille","lat":43.29529,"lon":5.385581,"is_reserved":false,"is_disabled":false,"rental_uris":{"android":"levelo://app?vid=53f85b61-bedd-45fe-96c2-56a08ebe2801","ios":"levelo://app?vid=53f85b61-bedd-45fe-96c2-56a08ebe2801"},"vehicle_type_id":"4","last_reported":1724346464,"current_range_meters":25200,"station_id":"ce4bgih2rcd13ifvqba0","pricing_plan_id":"cebpf4jnsgd1na2vs0mg"},{"bike_id":"03abd26c-13ad-4897-89c4-19175f9dcaa4","system_id":"levelo_inurba_marseille","lat":43.29529,"lon":5.385581,"is_reserved":false,"is_disabled":false,"rental_uris":{"android":"levelo://app?vid=03abd26c-13ad-4897-89c4-19175f9dcaa4","ios":"levelo://app?vid=03abd26c-13ad-4897-89c4-19175f9dcaa4"},"vehicle_type_id":"4","last_reported":1724346464,"current_range_meters":3200,"station_id":"ce4bgih2rcd13ifvqba0","pricing_plan_id":"cebpf4jnsgd1na2vs0mg"},{"bike_id":"9357235f-d88d-4534-b6b3-92caed7163a3","system_id":"levelo_inurba_marseille","lat":43.3135,"lon":5.39736,"is_reserved":false,"is_disabled":false,"rental_uris":{"android":"levelo://app?vid=9357235f-d88d-4534-b6b3-92caed7163a3","ios":"levelo://app?vid=9357235f-d88d-4534-b6b3-92caed7163a3"},"vehicle_type_id":"4","last_reported":1724346464,"current_range_meters":24800,"station_id":"ce4bgvp2rcd13ifvqcu0","pricing_plan_id":"cebpf4jnsgd1na2vs0mg"},{"bike_id":"1437aef2-bce6-42c7-a6bf-5762a2e6e455","system_id":"levelo_inurba_marseille","lat":43.29074,"lon":5.37171,"is_reserved":false,"is_disabled":false,"rental_uris":{"android":"levelo://app?vid=1437aef2-bce6-42c7-a6bf-5762a2e6e455","ios":"levelo://app?vid=1437aef2-bce6-42c7-a6bf-5762a2e6e455"},"vehicle_type_id":"4","last_reported":1724346464,"current_range_meters":18000,"station_id":"ce4bh5p2rcd13ifvqe4g","pricing_plan_id":"cebpf4jnsgd1na2vs0mg"},{"bike_id":"1d959943-0fab-4b6a-a19e-111a27e9a486","system_id":"levelo_inurba_marseille","lat":43.30211,"lon":5.39476,"is_reserved":false,"is_disabled":false,"rental_uris":{"android":"levelo://app?vid=1d959943-0fab-4b6a-a19e-111a27e9a486","ios":"levelo://app?vid=1d959943-0fab-4b6a-a19e-111a27e9a486"},"vehicle_type_id":"4","last_reported":1724346464,"current_range_meters":18800,"station_id":"ce4bh0p2rcd13ifvqd70","pricing_plan_id":"cebpf4jnsgd1na2vs0mg"},{"bike_id":"5c931915-4083-42b8-8bdf-f5f20b2a9347","system_id":"levelo_inurba_marseille","lat":43.290631,"lon":5.359244,"is_reserved":false,"is_disabled":false,"rental_uris":{"android":"levelo://app?vid=5c931915-4083-42b8-8bdf-f5f20b2a9347","ios":"levelo://app?vid=5c931915-4083-42b8-8bdf-f5f20b2a9347"},"vehicle_type_id":"4","last_reported":1724346464,"current_range_meters":18800,"station_id":"ce4bha92rcd13ifvqeg0","pricing_plan_id":"cebpf4jnsgd1na2vs0mg"},{"bike_id":"326c95d6-c565-4cec-8551-db79bf735229","system_id":"levelo_inurba_marseille","lat":43.302008,"lon":5.394694,"is_reserved":false,"is_disabled":false,"rental_uris":{"android":"levelo://app?vid=326c95d6-c565-4cec-8551-db79bf735229","ios":"levelo://app?vid=326c95d6-c565-4cec-8551-db79bf735229"},"vehicle_type_id":"4","last_reported":1724346464,"current_range_meters":31600,"station_id":"ce4bh0p2rcd13ifvqd70","pricing_plan_id":"cebpf4jnsgd1na2vs0mg"},{"bike_id":"324e6183-b1fb-4122-a44d-d8bea6e2fd25","system_id":"levelo_inurba_marseille","lat":43.290631,"lon":5.359244,"is_reserved":false,"is_disabled":false,"rental_uris":{"android":"levelo://app?vid=324e6183-b1fb-4122-a44d-d8bea6e2fd25","ios":"levelo://app?vid=324e6183-b1fb-4122-a44d-d8bea6e2fd25"},"vehicle_type_id":"4","last_reported":1724346464,"current_range_meters":17200,"station_id":"ce4bha92rcd13ifvqeg0","pricing_plan_id":"cebpf4jnsgd1na2vs0mg"},{"bike_id":"95eeaa99-7097-4a2e-ba92-aca505674d65","system_id":"levelo_inurba_marseille","lat":43.294153,"lon":5.386305,"is_reserved":false,"is_disabled":false,"rental_uris":{"android":"levelo://app?vid=95eeaa99-7097-4a2e-ba92-aca505674d65","ios":"levelo://app?vid=95eeaa99-7097-4a2e-ba92-aca505674d65"},"vehicle_type_id":"4","last_reported":1724346464,"current_range_meters":18000,"station_id":"ce4bh2h2rcd13ifvqdh0","pricing_plan_id":"cebpf4jnsgd1na2vs0mg"},{"bike_id":"17f45fa3-c804-45f6-95d7-6d2730fcb9e8","system_id":"levelo_inurba_marseille","lat":43.294153,"lon":5.386305,"is_reserved":false,"is_disabled":false,"rental_uris":{"android":"levelo://app?vid=17f45fa3-c804-45f6-95d7-6d2730fcb9e8","ios":"levelo://app?vid=17f45fa3-c804-45f6-95d7-6d2730fcb9e8"},"vehicle_type_id":"4","last_reported":1724346464,"current_range_meters":0,"station_id":"ce4bh2h2rcd13ifvqdh0","pricing_plan_id":"cebpf4jnsgd1na2vs0mg"},{"bike_id":"767943df-20c4-4328-a572-cc3dfd495ebb","system_id":"levelo_inurba_marseille","lat":43.2942,"lon":5.38623,"is_reserved":false,"is_disabled":false,"rental_uris":{"android":"levelo://app?vid=767943df-20c4-4328-a572-cc3dfd495ebb","ios":"levelo://app?vid=767943df-20c4-4328-a572-cc3dfd495ebb"},"vehicle_type_id":"4","last_reported":1724346464,"current_range_meters":0,"station_id":"ce4bh2h2rcd13ifvqdh0","pricing_plan_id":"cebpf4jnsgd1na2vs0mg"},{"bike_id":"d7eb76b1-25d2-43b5-90e5-13035a250ebb","system_id":"levelo_inurba_marseille","lat":43.294162,"lon":5.386292,"is_reserved":false,"is_disabled":false,"rental_uris":{"android":"levelo://app?vid=d7eb76b1-25d2-43b5-90e5-13035a250ebb","ios":"levelo://app?vid=d7eb76b1-25d2-43b5-90e5-13035a250ebb"},"vehicle_type_id":"4","last_reported":1724346464,"current_range_meters":3600,"station_id":"ce4bh2h2rcd13ifvqdh0","pricing_plan_id":"cebpf4jnsgd1na2vs0mg"},{"bike_id":"d9a09c10-58db-48cf-9f5e-174880988cfa","system_id":"levelo_inurba_marseille","lat":43.290319,"lon":5.375732,"is_reserved":false,"is_disabled":false,"rental_uris":{"android":"levelo://app?vid=d9a09c10-58db-48cf-9f5e-174880988cfa","ios":"levelo://app?vid=d9a09c10-58db-48cf-9f5e-174880988cfa"},"vehicle_type_id":"4","last_reported":1724346464,"current_range_meters":11600,"station_id":"ce4bh692rcd13ifvqe90","pricing_plan_id":"cebpf4jnsgd1na2vs0mg"},{"bike_id":"0b6287c6-5819-4151-8397-59c2f61efafa","system_id":"levelo_inurba_marseille","lat":43.289184,"lon":5.366408,"is_reserved":false,"is_disabled":false,"rental_uris":{"android":"levelo://app?vid=0b6287c6-5819-4151-8397-59c2f61efafa","ios":"levelo://app?vid=0b6287c6-5819-4151-8397-59c2f61efafa"},"vehicle_type_id":"4","last_reported":1724346464,"current_range_meters":28800,"station_id":"ce4bhap2rcd13ifvqek0","pricing_plan_id":"cebpf4jnsgd1na2vs0mg"},{"bike_id":"fed444c2-19bf-4518-abc2-b102f1358e60","system_id":"levelo_inurba_marseille","lat":43.289184,"lon":5.366408,"is_reserved":false,"is_disabled":false,"rental_uris":{"android":"levelo://app?vid=fed444c2-19bf-4518-abc2-b102f1358e60","ios":"levelo://app?vid=fed444c2-19bf-4518-abc2-b102f1358e60"},"vehicle_type_id":"4","last_reported":1724346464,"current_range_meters":3600,"station_id":"ce4bhap2rcd13ifvqek0","pricing_plan_id":"cebpf4jnsgd1na2vs0mg"},{"bike_id":"59e7de6c-62f2-43f9-ab06-a4fc5acccf7d","system_id":"levelo_inurba_marseille","lat":43.2894,"lon":5.36395,"is_reserved":false,"is_disabled":false,"rental_uris":{"android":"levelo://app?vid=59e7de6c-62f2-43f9-ab06-a4fc5acccf7d","ios":"levelo://app?vid=59e7de6c-62f2-43f9-ab06-a4fc5acccf7d"},"vehicle_type_id":"4","last_reported":1724346464,"current_range_meters":0,"station_id":"ce4bhc92rcd13ifvqetg","pricing_plan_id":"cebpf4jnsgd1na2vs0mg"},{"bike_id":"51396a5d-5f48-46f0-a028-aa52c55d1962","system_id":"levelo_inurba_marseille","lat":43.289184,"lon":5.366408,"is_reserved":false,"is_disabled":false,"rental_uris":{"android":"levelo://app?vid=51396a5d-5f48-46f0-a028-aa52c55d1962","ios":"levelo://app?vid=51396a5d-5f48-46f0-a028-aa52c55d1962"},"vehicle_type_id":"4","last_reported":1724346464,"current_range_meters":3200,"station_id":"ce4bhap2rcd13ifvqek0","pricing_plan_id":"cebpf4jnsgd1na2vs0mg"},{"bike_id":"5e368947-c458-4a80-a964-a95810bbcb81","system_id":"levelo_inurba_marseille","lat":43.292644,"lon":5.384257,"is_reserved":false,"is_disabled":false,"rental_uris":{"android":"levelo://app?vid=5e368947-c458-4a80-a964-a95810bbcb81","ios":"levelo://app?vid=5e368947-c458-4a80-a964-a95810bbcb81"},"vehicle_type_id":"4","last_reported":1724346464,"current_range_meters":6000,"station_id":"ce4bh692rcd13ifvqea0","pricing_plan_id":"cebpf4jnsgd1na2vs0mg"},{"bike_id":"6573e7e9-59d3-4adc-ae29-a713c8354ea6","system_id":"levelo_inurba_marseille","lat":43.29276,"lon":5.38441,"is_reserved":false,"is_disabled":false,"rental_uris":{"android":"levelo://app?vid=6573e7e9-59d3-4adc-ae29-a713c8354ea6","ios":"levelo://app?vid=6573e7e9-59d3-4adc-ae29-a713c8354ea6"},"vehicle_type_id":"4","last_reported":1724346464,"current_range_meters":0,"station_id":"ce4bh692rcd13ifvqea0","pricing_plan_id":"cebpf4jnsgd1na2vs0mg"},{"bike_id":"5f7cdfaf-364b-43c0-bfb0-df3608f16459","system_id":"levelo_inurba_marseille","lat":43.292644,"lon":5.384257,"is_reserved":false,"is_disabled":false,"rental_uris":{"android":"levelo://app?vid=5f7cdfaf-364b-43c0-bfb0-df3608f16459","ios":"levelo://app?vid=5f7cdfaf-364b-43c0-bfb0-df3608f16459"},"vehicle_type_id":"4","last_reported":1724346464,"current_range_meters":23600,"station_id":"ce4bh692rcd13ifvqea0","pricing_plan_id":"cebpf4jnsgd1na2vs0mg"},{"bike_id":"10accdf0-a7a5-4b59-8268-06b6ae609781","system_id":"levelo_inurba_marseille","lat":43.292644,"lon":5.384257,"is_reserved":false,"is_disabled":false,"rental_uris":{"android":"levelo://app?vid=10accdf0-a7a5-4b59-8268-06b6ae609781","ios":"levelo://app?vid=10accdf0-a7a5-4b59-8268-06b6ae609781"},"vehicle_type_id":"4","last_reported":1724346464,"current_range_meters":1200,"station_id":"ce4bh692rcd13ifvqea0","pricing_plan_id":"cebpf4jnsgd1na2vs0mg"},{"bike_id":"7539a1a7-1bf0-447a-8eca-271f528a39ca","system_id":"levelo_inurba_marseille","lat":43.292644,"lon":5.384257,"is_reserved":false,"is_disabled":false,"rental_uris":{"android":"levelo://app?vid=7539a1a7-1bf0-447a-8eca-271f528a39ca","ios":"levelo://app?vid=7539a1a7-1bf0-447a-8eca-271f528a39ca"},"vehicle_type_id":"4","last_reported":1724346464,"current_range_meters":13200,"station_id":"ce4bh692rcd13ifvqea0","pricing_plan_id":"cebpf4jnsgd1na2vs0mg"},{"bike_id":"624da836-09fb-48d7-9815-3930179ee01f","system_id":"levelo_inurba_marseille","lat":43.292644,"lon":5.384257,"is_reserved":false,"is_disabled":false,"rental_uris":{"android":"levelo://app?vid=624da836-09fb-48d7-9815-3930179ee01f","ios":"levelo://app?vid=624da836-09fb-48d7-9815-3930179ee01f"},"vehicle_type_id":"4","last_reported":1724346464,"current_range_meters":0,"station_id":"ce4bh692rcd13ifvqea0","pricing_plan_id":"cebpf4jnsgd1na2vs0mg"},{"bike_id":"d575ee73-7cd6-4151-bd9e-b325a376ec65","system_id":"levelo_inurba_marseille","lat":43.292644,"lon":5.384257,"is_reserved":false,"is_disabled":false,"rental_uris":{"android":"levelo://app?vid=d575ee73-7cd6-4151-bd9e-b325a376ec65","ios":"levelo://app?vid=d575ee73-7cd6-4151-bd9e-b325a376ec65"},"vehicle_type_id":"4","last_reported":1724346464,"current_range_meters":7600,"station_id":"ce4bh692rcd13ifvqea0","pricing_plan_id":"cebpf4jnsgd1na2vs0mg"},{"bike_id":"8b202519-67d3-4ead-8a98-6468ca3081d9","system_id":"levelo_inurba_marseille","lat":43.292642,"lon":5.384254,"is_reserved":false,"is_disabled":false,"rental_uris":{"android":"levelo://app?vid=8b202519-67d3-4ead-8a98-6468ca3081d9","ios":"levelo://app?vid=8b202519-67d3-4ead-8a98-6468ca3081d9"},"vehicle_type_id":"4","last_reported":1724346464,"current_range_meters":10000,"station_id":"ce4bh692rcd13ifvqea0","pricing_plan_id":"cebpf4jnsgd1na2vs0mg"},{"bike_id":"92ace756-cd1b-4146-aab2-c677bd846123","system_id":"levelo_inurba_marseille","lat":43.292642,"lon":5.384254,"is_reserved":false,"is_disabled":false,"rental_uris":{"android":"levelo://app?vid=92ace756-cd1b-4146-aab2-c677bd846123","ios":"levelo://app?vid=92ace756-cd1b-4146-aab2-c677bd846123"},"vehicle_type_id":"4","last_reported":1724346464,"current_range_meters":0,"station_id":"ce4bh692rcd13ifvqea0","pricing_plan_id":"cebpf4jnsgd1na2vs0mg"},{"bike_id":"2781c0f9-98d0-4841-a6d3-575524fc4360","system_id":"levelo_inurba_marseille","lat":43.292644,"lon":5.384257,"is_reserved":false,"is_disabled":false,"rental_uris":{"android":"levelo://app?vid=2781c0f9-98d0-4841-a6d3-575524fc4360","ios":"levelo://app?vid=2781c0f9-98d0-4841-a6d3-575524fc4360"},"vehicle_type_id":"4","last_reported":1724346464,"current_range_meters":800,"station_id":"ce4bh692rcd13ifvqea0","pricing_plan_id":"cebpf4jnsgd1na2vs0mg"},{"bike_id":"1bdec729-5c8b-4088-b27c-6e679ed70a9d","system_id":"levelo_inurba_marseille","lat":43.304274,"lon":5.397513,"is_reserved":false,"is_disabled":false,"rental_uris":{"android":"levelo://app?vid=1bdec729-5c8b-4088-b27c-6e679ed70a9d","ios":"levelo://app?vid=1bdec729-5c8b-4088-b27c-6e679ed70a9d"},"vehicle_type_id":"4","last_reported":1724346464,"current_range_meters":0,"station_id":"ce4bh092rcd13ifvqd20","pricing_plan_id":"cebpf4jnsgd1na2vs0mg"},{"bike_id":"564f371f-5267-4112-800b-847d97cd63e1","system_id":"levelo_inurba_marseille","lat":43.290103,"lon":5.356114,"is_reserved":false,"is_disabled":false,"rental_uris":{"android":"levelo://app?vid=564f371f-5267-4112-800b-847d97cd63e1","ios":"levelo://app?vid=564f371f-5267-4112-800b-847d97cd63e1"},"vehicle_type_id":"4","last_reported":1724346464,"current_range_meters":0,"station_id":"ce4bhb92rcd13ifvqen0","pricing_plan_id":"cebpf4jnsgd1na2vs0mg"},{"bike_id":"fe714750-b742-4711-92b5-79860824bad9","system_id":"levelo_inurba_marseille","lat":43.290104,"lon":5.356111,"is_reserved":false,"is_disabled":false,"rental_uris":{"android":"levelo://app?vid=fe714750-b742-4711-92b5-79860824bad9","ios":"levelo://app?vid=fe714750-b742-4711-92b5-79860824bad9"},"vehicle_type_id":"4","last_reported":1724346464,"current_range_meters":28000,"station_id":"ce4bhb92rcd13ifvqen0","pricing_plan_id":"cebpf4jnsgd1na2vs0mg"},{"bike_id":"291a3b2f-569a-4f12-a2e0-79ce77f41164","system_id":"levelo_inurba_marseille","lat":43.290103,"lon":5.356114,"is_reserved":false,"is_disabled":false,"rental_uris":{"android":"levelo://app?vid=291a3b2f-569a-4f12-a2e0-79ce77f41164","ios":"levelo://app?vid=291a3b2f-569a-4f12-a2e0-79ce77f41164"},"vehicle_type_id":"4","last_reported":1724346464,"current_range_meters":16800,"station_id":"ce4bhb92rcd13ifvqen0","pricing_plan_id":"cebpf4jnsgd1na2vs0mg"},{"bike_id":"6f72599b-0c00-4105-b51a-f3617f827fd2","system_id":"levelo_inurba_marseille","lat":43.290103,"lon":5.356114,"is_reserved":false,"is_disabled":false,"rental_uris":{"android":"levelo://app?vid=6f72599b-0c00-4105-b51a-f3617f827fd2","ios":"levelo://app?vid=6f72599b-0c00-4105-b51a-f3617f827fd2"},"vehicle_type_id":"4","last_reported":1724346464,"current_range_meters":0,"station_id":"ce4bhb92rcd13ifvqen0","pricing_plan_id":"cebpf4jnsgd1na2vs0mg"},{"bike_id":"c131770b-ed1b-4ff6-849d-46e02d69187c","system_id":"levelo_inurba_marseille","lat":43.290104,"lon":5.356111,"is_reserved":false,"is_disabled":false,"rental_uris":{"android":"levelo://app?vid=c131770b-ed1b-4ff6-849d-46e02d69187c","ios":"levelo://app?vid=c131770b-ed1b-4ff6-849d-46e02d69187c"},"vehicle_type_id":"4","last_reported":1724346464,"current_range_meters":19200,"station_id":"ce4bhb92rcd13ifvqen0","pricing_plan_id":"cebpf4jnsgd1na2vs0mg"},{"bike_id":"93476d4e-9170-43a8-ac4b-246b74501472","system_id":"levelo_inurba_marseille","lat":43.290104,"lon":5.356111,"is_reserved":false,"is_disabled":false,"rental_uris":{"android":"levelo://app?vid=93476d4e-9170-43a8-ac4b-246b74501472","ios":"levelo://app?vid=93476d4e-9170-43a8-ac4b-246b74501472"},"vehicle_type_id":"4","last_reported":1724346464,"current_range_meters":1600,"station_id":"ce4bhb92rcd13ifvqen0","pricing_plan_id":"cebpf4jnsgd1na2vs0mg"},{"bike_id":"84a455fb-fbf2-4d4b-a07b-27372c45b7db","system_id":"levelo_inurba_marseille","lat":43.290104,"lon":5.356111,"is_reserved":false,"is_disabled":false,"rental_uris":{"android":"levelo://app?vid=84a455fb-fbf2-4d4b-a07b-27372c45b7db","ios":"levelo://app?vid=84a455fb-fbf2-4d4b-a07b-27372c45b7db"},"vehicle_type_id":"4","last_reported":1724346464,"current_range_meters":2400,"station_id":"ce4bhb92rcd13ifvqen0","pricing_plan_id":"cebpf4jnsgd1na2vs0mg"},{"bike_id":"e013673e-2103-4c8d-ac71-fdffd1c4b33a","system_id":"levelo_inurba_marseille","lat":43.290103,"lon":5.356114,"is_reserved":false,"is_disabled":false,"rental_uris":{"android":"levelo://app?vid=e013673e-2103-4c8d-ac71-fdffd1c4b33a","ios":"levelo://app?vid=e013673e-2103-4c8d-ac71-fdffd1c4b33a"},"vehicle_type_id":"4","last_reported":1724346464,"current_range_meters":0,"station_id":"ce4bhb92rcd13ifvqen0","pricing_plan_id":"cebpf4jnsgd1na2vs0mg"},{"bike_id":"032781e7-0b7f-4141-befa-57fbaffd9f11","system_id":"levelo_inurba_marseille","lat":43.290104,"lon":5.356111,"is_reserved":false,"is_disabled":false,"rental_uris":{"android":"levelo://app?vid=032781e7-0b7f-4141-befa-57fbaffd9f11","ios":"levelo://app?vid=032781e7-0b7f-4141-befa-57fbaffd9f11"},"vehicle_type_id":"4","last_reported":1724346464,"current_range_meters":9600,"station_id":"ce4bhb92rcd13ifvqen0","pricing_plan_id":"cebpf4jnsgd1na2vs0mg"},{"bike_id":"94c8019c-2f1d-4912-9de7-a84bd8c87712","system_id":"levelo_inurba_marseille","lat":43.290103,"lon":5.356114,"is_reserved":false,"is_disabled":false,"rental_uris":{"android":"levelo://app?vid=94c8019c-2f1d-4912-9de7-a84bd8c87712","ios":"levelo://app?vid=94c8019c-2f1d-4912-9de7-a84bd8c87712"},"vehicle_type_id":"4","last_reported":1724346464,"current_range_meters":31200,"station_id":"ce4bhb92rcd13ifvqen0","pricing_plan_id":"cebpf4jnsgd1na2vs0mg"},{"bike_id":"6cc71860-0b80-40f7-b0d5-42de5719e418","system_id":"levelo_inurba_marseille","lat":43.290104,"lon":5.356111,"is_reserved":false,"is_disabled":false,"rental_uris":{"android":"levelo://app?vid=6cc71860-0b80-40f7-b0d5-42de5719e418","ios":"levelo://app?vid=6cc71860-0b80-40f7-b0d5-42de5719e418"},"vehicle_type_id":"4","last_reported":1724346464,"current_range_meters":13200,"station_id":"ce4bhb92rcd13ifvqen0","pricing_plan_id":"cebpf4jnsgd1na2vs0mg"},{"bike_id":"8785a298-3f13-44c2-98d3-f70ddc021e6c","system_id":"levelo_inurba_marseille","lat":43.29004,"lon":5.3561,"is_reserved":false,"is_disabled":false,"rental_uris":{"android":"levelo://app?vid=8785a298-3f13-44c2-98d3-f70ddc021e6c","ios":"levelo://app?vid=8785a298-3f13-44c2-98d3-f70ddc021e6c"},"vehicle_type_id":"4","last_reported":1724346464,"current_range_meters":19200,"station_id":"ce4bhb92rcd13ifvqen0","pricing_plan_id":"cebpf4jnsgd1na2vs0mg"},{"bike_id":"fd64ef17-c4e6-464b-9d98-bb00bb8b2509","system_id":"levelo_inurba_marseille","lat":43.290104,"lon":5.356111,"is_reserved":false,"is_disabled":false,"rental_uris":{"android":"levelo://app?vid=fd64ef17-c4e6-464b-9d98-bb00bb8b2509","ios":"levelo://app?vid=fd64ef17-c4e6-464b-9d98-bb00bb8b2509"},"vehicle_type_id":"4","last_reported":1724346464,"current_range_meters":11600,"station_id":"ce4bhb92rcd13ifvqen0","pricing_plan_id":"cebpf4jnsgd1na2vs0mg"},{"bike_id":"24b1cc38-aadf-4a40-be3a-09231396cd5b","system_id":"levelo_inurba_marseille","lat":43.290103,"lon":5.356114,"is_reserved":false,"is_disabled":false,"rental_uris":{"android":"levelo://app?vid=24b1cc38-aadf-4a40-be3a-09231396cd5b","ios":"levelo://app?vid=24b1cc38-aadf-4a40-be3a-09231396cd5b"},"vehicle_type_id":"4","last_reported":1724346464,"current_range_meters":2000,"station_id":"ce4bhb92rcd13ifvqen0","pricing_plan_id":"cebpf4jnsgd1na2vs0mg"},{"bike_id":"a9ee4867-7f51-4d69-ad89-29a09937a4cd","system_id":"levelo_inurba_marseille","lat":43.290104,"lon":5.356111,"is_reserved":false,"is_disabled":false,"rental_uris":{"android":"levelo://app?vid=a9ee4867-7f51-4d69-ad89-29a09937a4cd","ios":"levelo://app?vid=a9ee4867-7f51-4d69-ad89-29a09937a4cd"},"vehicle_type_id":"4","last_reported":1724346464,"current_range_meters":28800,"station_id":"ce4bhb92rcd13ifvqen0","pricing_plan_id":"cebpf4jnsgd1na2vs0mg"},{"bike_id":"4b67c9c4-3479-45db-9157-258dce527ddd","system_id":"levelo_inurba_marseille","lat":43.290103,"lon":5.356114,"is_reserved":false,"is_disabled":false,"rental_uris":{"android":"levelo://app?vid=4b67c9c4-3479-45db-9157-258dce527ddd","ios":"levelo://app?vid=4b67c9c4-3479-45db-9157-258dce527ddd"},"vehicle_type_id":"4","last_reported":1724346464,"current_range_meters":19600,"station_id":"ce4bhb92rcd13ifvqen0","pricing_plan_id":"cebpf4jnsgd1na2vs0mg"},{"bike_id":"9eb928ec-0cba-4df9-b921-2c092be75916","system_id":"levelo_inurba_marseille","lat":43.28998,"lon":5.35612,"is_reserved":false,"is_disabled":false,"rental_uris":{"android":"levelo://app?vid=9eb928ec-0cba-4df9-b921-2c092be75916","ios":"levelo://app?vid=9eb928ec-0cba-4df9-b921-2c092be75916"},"vehicle_type_id":"4","last_reported":1724346464,"current_range_meters":30800,"station_id":"ce4bhb92rcd13ifvqen0","pricing_plan_id":"cebpf4jnsgd1na2vs0mg"},{"bike_id":"88fed01a-a2e3-4152-be2e-9874b8a51c6d","system_id":"levelo_inurba_marseille","lat":43.290995,"lon":5.381361,"is_reserved":false,"is_disabled":false,"rental_uris":{"android":"levelo://app?vid=88fed01a-a2e3-4152-be2e-9874b8a51c6d","ios":"levelo://app?vid=88fed01a-a2e3-4152-be2e-9874b8a51c6d"},"vehicle_type_id":"4","last_reported":1724346464,"current_range_meters":0,"station_id":"ce4bh512rcd13ifvqe2g","pricing_plan_id":"cebpf4jnsgd1na2vs0mg"},{"bike_id":"96b293cb-69d7-4c52-ac9c-dc069d215e47","system_id":"levelo_inurba_marseille","lat":43.297807,"lon":5.393533,"is_reserved":false,"is_disabled":false,"rental_uris":{"android":"levelo://app?vid=96b293cb-69d7-4c52-ac9c-dc069d215e47","ios":"levelo://app?vid=96b293cb-69d7-4c52-ac9c-dc069d215e47"},"vehicle_type_id":"4","last_reported":1724346464,"current_range_meters":7200,"station_id":"chh1huq6cuj3fo74tm60","pricing_plan_id":"cebpf4jnsgd1na2vs0mg"},{"bike_id":"fc59e4a4-bead-451a-a35d-8886379137bc","system_id":"levelo_inurba_marseille","lat":43.310176,"lon":5.400227,"is_reserved":false,"is_disabled":false,"rental_uris":{"android":"levelo://app?vid=fc59e4a4-bead-451a-a35d-8886379137bc","ios":"levelo://app?vid=fc59e4a4-bead-451a-a35d-8886379137bc"},"vehicle_type_id":"4","last_reported":1724346464,"current_range_meters":24400,"station_id":"","pricing_plan_id":"cebpf4jnsgd1na2vs0mg"},{"bike_id":"c93a910d-a984-46b0-ae25-1d32333b0176","system_id":"levelo_inurba_marseille","lat":43.289741,"lon":5.378306,"is_reserved":false,"is_disabled":false,"rental_uris":{"android":"levelo://app?vid=c93a910d-a984-46b0-ae25-1d32333b0176","ios":"levelo://app?vid=c93a910d-a984-46b0-ae25-1d32333b0176"},"vehicle_type_id":"4","last_reported":1724346464,"current_range_meters":0,"station_id":"ce4bh9p2rcd13ifvqed0","pricing_plan_id":"cebpf4jnsgd1na2vs0mg"},{"bike_id":"aa7949c2-dcfa-4f9d-8443-311530b6949e","system_id":"levelo_inurba_marseille","lat":43.330442,"lon":5.389148,"is_reserved":false,"is_disabled":false,"rental_uris":{"android":"levelo://app?vid=aa7949c2-dcfa-4f9d-8443-311530b6949e","ios":"levelo://app?vid=aa7949c2-dcfa-4f9d-8443-311530b6949e"},"vehicle_type_id":"4","last_reported":1724346464,"current_range_meters":11200,"station_id":"ce4bhr92rcd13ifvqhrg","pricing_plan_id":"cebpf4jnsgd1na2vs0mg"},{"bike_id":"1aec66fa-7768-4970-927e-908a206dbb32","system_id":"levelo_inurba_marseille","lat":43.295169,"lon":5.390426,"is_reserved":false,"is_disabled":false,"rental_uris":{"android":"levelo://app?vid=1aec66fa-7768-4970-927e-908a206dbb32","ios":"levelo://app?vid=1aec66fa-7768-4970-927e-908a206dbb32"},"vehicle_type_id":"4","last_reported":1724346464,"current_range_meters":4800,"station_id":"ce4bh3p2rcd13ifvqdp0","pricing_plan_id":"cebpf4jnsgd1na2vs0mg"},{"bike_id":"04c1f21e-b62c-4cef-a42d-18f3729b185d","system_id":"levelo_inurba_marseille","lat":43.295169,"lon":5.390426,"is_reserved":false,"is_disabled":false,"rental_uris":{"android":"levelo://app?vid=04c1f21e-b62c-4cef-a42d-18f3729b185d","ios":"levelo://app?vid=04c1f21e-b62c-4cef-a42d-18f3729b185d"},"vehicle_type_id":"4","last_reported":1724346464,"current_range_meters":2800,"station_id":"ce4bh3p2rcd13ifvqdp0","pricing_plan_id":"cebpf4jnsgd1na2vs0mg"},{"bike_id":"4730c33f-77d9-4fc0-8ede-70d11fa25312","system_id":"levelo_inurba_marseille","lat":43.33028,"lon":5.39039,"is_reserved":false,"is_disabled":false,"rental_uris":{"android":"levelo://app?vid=4730c33f-77d9-4fc0-8ede-70d11fa25312","ios":"levelo://app?vid=4730c33f-77d9-4fc0-8ede-70d11fa25312"},"vehicle_type_id":"4","last_reported":1724346464,"current_range_meters":8400,"station_id":"ce4bhr92rcd13ifvqhrg","pricing_plan_id":"cebpf4jnsgd1na2vs0mg"},{"bike_id":"f8b3694f-14f6-457a-a35c-6084b6efacc3","system_id":"levelo_inurba_marseille","lat":43.288025,"lon":5.368982,"is_reserved":false,"is_disabled":false,"rental_uris":{"android":"levelo://app?vid=f8b3694f-14f6-457a-a35c-6084b6efacc3","ios":"levelo://app?vid=f8b3694f-14f6-457a-a35c-6084b6efacc3"},"vehicle_type_id":"4","last_reported":1724346464,"current_range_meters":22400,"station_id":"","pricing_plan_id":"cebpf4jnsgd1na2vs0mg"},{"bike_id":"9d36e1e8-9a58-485c-b4e9-5ba468af4934","system_id":"levelo_inurba_marseille","lat":43.287154,"lon":5.399979,"is_reserved":false,"is_disabled":false,"rental_uris":{"android":"levelo://app?vid=9d36e1e8-9a58-485c-b4e9-5ba468af4934","ios":"levelo://app?vid=9d36e1e8-9a58-485c-b4e9-5ba468af4934"},"vehicle_type_id":"4","last_reported":1724346464,"current_range_meters":8000,"station_id":"ce4bho92rcd13ifvqh3g","pricing_plan_id":"cebpf4jnsgd1na2vs0mg"},{"bike_id":"623f1aca-ad5d-4de8-9901-a31cd5f06ae5","system_id":"levelo_inurba_marseille","lat":43.28856,"lon":5.358371,"is_reserved":false,"is_disabled":false,"rental_uris":{"android":"levelo://app?vid=623f1aca-ad5d-4de8-9901-a31cd5f06ae5","ios":"levelo://app?vid=623f1aca-ad5d-4de8-9901-a31cd5f06ae5"},"vehicle_type_id":"4","last_reported":1724346464,"current_range_meters":4400,"station_id":"ce4bhb12rcd13ifvqem0","pricing_plan_id":"cebpf4jnsgd1na2vs0mg"},{"bike_id":"fa801186-3a0d-4d48-bca8-1027d463ede6","system_id":"levelo_inurba_marseille","lat":43.28856,"lon":5.358371,"is_reserved":false,"is_disabled":false,"rental_uris":{"android":"levelo://app?vid=fa801186-3a0d-4d48-bca8-1027d463ede6","ios":"levelo://app?vid=fa801186-3a0d-4d48-bca8-1027d463ede6"},"vehicle_type_id":"4","last_reported":1724346464,"current_range_meters":10400,"station_id":"ce4bhb12rcd13ifvqem0","pricing_plan_id":"cebpf4jnsgd1na2vs0mg"},{"bike_id":"7c4d2555-e599-4ca7-88e0-87fa9a81bcda","system_id":"levelo_inurba_marseille","lat":43.28856,"lon":5.358371,"is_reserved":false,"is_disabled":false,"rental_uris":{"android":"levelo://app?vid=7c4d2555-e599-4ca7-88e0-87fa9a81bcda","ios":"levelo://app?vid=7c4d2555-e599-4ca7-88e0-87fa9a81bcda"},"vehicle_type_id":"4","last_reported":1724346464,"current_range_meters":0,"station_id":"ce4bhb12rcd13ifvqem0","pricing_plan_id":"cebpf4jnsgd1na2vs0mg"},{"bike_id":"c139087b-c098-448c-976f-3b281adc54e8","system_id":"levelo_inurba_marseille","lat":43.312609,"lon":5.401662,"is_reserved":false,"is_disabled":false,"rental_uris":{"android":"levelo://app?vid=c139087b-c098-448c-976f-3b281adc54e8","ios":"levelo://app?vid=c139087b-c098-448c-976f-3b281adc54e8"},"vehicle_type_id":"4","last_reported":1724346464,"current_range_meters":1600,"station_id":"ce4bh092rcd13ifvqd30","pricing_plan_id":"cebpf4jnsgd1na2vs0mg"},{"bike_id":"a544e1a6-f5b6-4a99-871a-3206449452c0","system_id":"levelo_inurba_marseille","lat":43.309371,"lon":5.401449,"is_reserved":false,"is_disabled":false,"rental_uris":{"android":"levelo://app?vid=a544e1a6-f5b6-4a99-871a-3206449452c0","ios":"levelo://app?vid=a544e1a6-f5b6-4a99-871a-3206449452c0"},"vehicle_type_id":"4","last_reported":1724346464,"current_range_meters":22400,"station_id":"ce4bgvp2rcd13ifvqct0","pricing_plan_id":"cebpf4jnsgd1na2vs0mg"},{"bike_id":"97cd000d-87bf-4c87-823c-7390bc4cb614","system_id":"levelo_inurba_marseille","lat":43.337486,"lon":5.374667,"is_reserved":false,"is_disabled":false,"rental_uris":{"android":"levelo://app?vid=97cd000d-87bf-4c87-823c-7390bc4cb614","ios":"levelo://app?vid=97cd000d-87bf-4c87-823c-7390bc4cb614"},"vehicle_type_id":"4","last_reported":1724346464,"current_range_meters":26800,"station_id":"","pricing_plan_id":"cebpf4jnsgd1na2vs0mg"},{"bike_id":"918cb1a9-6210-4e52-bb66-383836a14f2f","system_id":"levelo_inurba_marseille","lat":43.337621,"lon":5.374623,"is_reserved":false,"is_disabled":false,"rental_uris":{"android":"levelo://app?vid=918cb1a9-6210-4e52-bb66-383836a14f2f","ios":"levelo://app?vid=918cb1a9-6210-4e52-bb66-383836a14f2f"},"vehicle_type_id":"4","last_reported":1724346464,"current_range_meters":7200,"station_id":"","pricing_plan_id":"cebpf4jnsgd1na2vs0mg"},{"bike_id":"1b635017-1f6d-4ccf-887c-5535d999fc49","system_id":"levelo_inurba_marseille","lat":43.33768,"lon":5.37436,"is_reserved":false,"is_disabled":false,"rental_uris":{"android":"levelo://app?vid=1b635017-1f6d-4ccf-887c-5535d999fc49","ios":"levelo://app?vid=1b635017-1f6d-4ccf-887c-5535d999fc49"},"vehicle_type_id":"4","last_reported":1724346464,"current_range_meters":21600,"station_id":"","pricing_plan_id":"cebpf4jnsgd1na2vs0mg"},{"bike_id":"b8e7c88e-1729-4d8a-838e-a69fdf5ed2ce","system_id":"levelo_inurba_marseille","lat":43.306412,"lon":5.401035,"is_reserved":false,"is_disabled":false,"rental_uris":{"android":"levelo://app?vid=b8e7c88e-1729-4d8a-838e-a69fdf5ed2ce","ios":"levelo://app?vid=b8e7c88e-1729-4d8a-838e-a69fdf5ed2ce"},"vehicle_type_id":"4","last_reported":1724346464,"current_range_meters":0,"station_id":"ce4bh112rcd13ifvqda0","pricing_plan_id":"cebpf4jnsgd1na2vs0mg"},{"bike_id":"7b184a40-bec9-4f98-becf-5ac491b88bff","system_id":"levelo_inurba_marseille","lat":43.301117,"lon":5.398795,"is_reserved":false,"is_disabled":false,"rental_uris":{"android":"levelo://app?vid=7b184a40-bec9-4f98-becf-5ac491b88bff","ios":"levelo://app?vid=7b184a40-bec9-4f98-becf-5ac491b88bff"},"vehicle_type_id":"4","last_reported":1724346464,"current_range_meters":7600,"station_id":"ce4bh0h2rcd13ifvqd40","pricing_plan_id":"cebpf4jnsgd1na2vs0mg"},{"bike_id":"980291f0-b24f-4ed9-b61d-d33f6379e3b6","system_id":"levelo_inurba_marseille","lat":43.301117,"lon":5.398795,"is_reserved":false,"is_disabled":false,"rental_uris":{"android":"levelo://app?vid=980291f0-b24f-4ed9-b61d-d33f6379e3b6","ios":"levelo://app?vid=980291f0-b24f-4ed9-b61d-d33f6379e3b6"},"vehicle_type_id":"4","last_reported":1724346464,"current_range_meters":0,"station_id":"ce4bh0h2rcd13ifvqd40","pricing_plan_id":"cebpf4jnsgd1na2vs0mg"},{"bike_id":"a43a79c3-81be-466e-82ec-b46976501582","system_id":"levelo_inurba_marseille","lat":43.301117,"lon":5.398795,"is_reserved":false,"is_disabled":false,"rental_uris":{"android":"levelo://app?vid=a43a79c3-81be-466e-82ec-b46976501582","ios":"levelo://app?vid=a43a79c3-81be-466e-82ec-b46976501582"},"vehicle_type_id":"4","last_reported":1724346464,"current_range_meters":6000,"station_id":"ce4bh0h2rcd13ifvqd40","pricing_plan_id":"cebpf4jnsgd1na2vs0mg"},{"bike_id":"b2bb0601-1cb6-4fc0-b9a9-f3a577f8d2f3","system_id":"levelo_inurba_marseille","lat":43.301117,"lon":5.398795,"is_reserved":false,"is_disabled":false,"rental_uris":{"android":"levelo://app?vid=b2bb0601-1cb6-4fc0-b9a9-f3a577f8d2f3","ios":"levelo://app?vid=b2bb0601-1cb6-4fc0-b9a9-f3a577f8d2f3"},"vehicle_type_id":"4","last_reported":1724346464,"current_range_meters":30000,"station_id":"ce4bh0h2rcd13ifvqd40","pricing_plan_id":"cebpf4jnsgd1na2vs0mg"},{"bike_id":"7f113817-cdba-44f2-82c5-528801a5dd42","system_id":"levelo_inurba_marseille","lat":43.301117,"lon":5.398795,"is_reserved":false,"is_disabled":false,"rental_uris":{"android":"levelo://app?vid=7f113817-cdba-44f2-82c5-528801a5dd42","ios":"levelo://app?vid=7f113817-cdba-44f2-82c5-528801a5dd42"},"vehicle_type_id":"4","last_reported":1724346464,"current_range_meters":20800,"station_id":"ce4bh0h2rcd13ifvqd40","pricing_plan_id":"cebpf4jnsgd1na2vs0mg"},{"bike_id":"0e926fca-d18c-4cb8-8718-df41d6a0375c","system_id":"levelo_inurba_marseille","lat":43.28727,"lon":5.36078,"is_reserved":false,"is_disabled":false,"rental_uris":{"android":"levelo://app?vid=0e926fca-d18c-4cb8-8718-df41d6a0375c","ios":"levelo://app?vid=0e926fca-d18c-4cb8-8718-df41d6a0375c"},"vehicle_type_id":"4","last_reported":1724346464,"current_range_meters":31200,"station_id":"cki0cbj6b192h4jlfktg","pricing_plan_id":"cebpf4jnsgd1na2vs0mg"},{"bike_id":"e5e1f1a8-1747-4eb8-a3bf-866c2d5bad64","system_id":"levelo_inurba_marseille","lat":43.28727,"lon":5.36078,"is_reserved":false,"is_disabled":false,"rental_uris":{"android":"levelo://app?vid=e5e1f1a8-1747-4eb8-a3bf-866c2d5bad64","ios":"levelo://app?vid=e5e1f1a8-1747-4eb8-a3bf-866c2d5bad64"},"vehicle_type_id":"4","last_reported":1724346464,"current_range_meters":6400,"station_id":"cki0cbj6b192h4jlfktg","pricing_plan_id":"cebpf4jnsgd1na2vs0mg"},{"bike_id":"756cea03-54d7-4f1a-a685-35e502f5a0f5","system_id":"levelo_inurba_marseille","lat":43.289184,"lon":5.366408,"is_reserved":false,"is_disabled":false,"rental_uris":{"android":"levelo://app?vid=756cea03-54d7-4f1a-a685-35e502f5a0f5","ios":"levelo://app?vid=756cea03-54d7-4f1a-a685-35e502f5a0f5"},"vehicle_type_id":"4","last_reported":1724346464,"current_range_meters":16800,"station_id":"ce4bhap2rcd13ifvqek0","pricing_plan_id":"cebpf4jnsgd1na2vs0mg"},{"bike_id":"791a3aa9-f4ac-4ab2-9972-c20c48654808","system_id":"levelo_inurba_marseille","lat":43.286591,"lon":5.363346,"is_reserved":false,"is_disabled":false,"rental_uris":{"android":"levelo://app?vid=791a3aa9-f4ac-4ab2-9972-c20c48654808","ios":"levelo://app?vid=791a3aa9-f4ac-4ab2-9972-c20c48654808"},"vehicle_type_id":"4","last_reported":1724346464,"current_range_meters":17600,"station_id":"ce4bhah2rcd13ifvqej0","pricing_plan_id":"cebpf4jnsgd1na2vs0mg"},{"bike_id":"bde8bd17-524d-4d46-ae28-dae8bd64cfbb","system_id":"levelo_inurba_marseille","lat":43.298681,"lon":5.397225,"is_reserved":false,"is_disabled":false,"rental_uris":{"android":"levelo://app?vid=bde8bd17-524d-4d46-ae28-dae8bd64cfbb","ios":"levelo://app?vid=bde8bd17-524d-4d46-ae28-dae8bd64cfbb"},"vehicle_type_id":"4","last_reported":1724346464,"current_range_meters":24400,"station_id":"ce4bh0h2rcd13ifvqd50","pricing_plan_id":"cebpf4jnsgd1na2vs0mg"},{"bike_id":"4b42e86a-57ba-47fd-b6bc-85a2b3ca6381","system_id":"levelo_inurba_marseille","lat":43.286591,"lon":5.363346,"is_reserved":false,"is_disabled":false,"rental_uris":{"android":"levelo://app?vid=4b42e86a-57ba-47fd-b6bc-85a2b3ca6381","ios":"levelo://app?vid=4b42e86a-57ba-47fd-b6bc-85a2b3ca6381"},"vehicle_type_id":"4","last_reported":1724346464,"current_range_meters":3200,"station_id":"ce4bhah2rcd13ifvqej0","pricing_plan_id":"cebpf4jnsgd1na2vs0mg"},{"bike_id":"806b0329-7437-42f2-8526-5d97239d7230","system_id":"levelo_inurba_marseille","lat":43.28701,"lon":5.37379,"is_reserved":false,"is_disabled":false,"rental_uris":{"android":"levelo://app?vid=806b0329-7437-42f2-8526-5d97239d7230","ios":"levelo://app?vid=806b0329-7437-42f2-8526-5d97239d7230"},"vehicle_type_id":"4","last_reported":1724346464,"current_range_meters":1600,"station_id":"ce4bh3p2rcd13ifvqdq0","pricing_plan_id":"cebpf4jnsgd1na2vs0mg"},{"bike_id":"a2a8d604-f7a2-4552-a84b-46e108d04411","system_id":"levelo_inurba_marseille","lat":43.286591,"lon":5.363346,"is_reserved":false,"is_disabled":false,"rental_uris":{"android":"levelo://app?vid=a2a8d604-f7a2-4552-a84b-46e108d04411","ios":"levelo://app?vid=a2a8d604-f7a2-4552-a84b-46e108d04411"},"vehicle_type_id":"4","last_reported":1724346464,"current_range_meters":28800,"station_id":"ce4bhah2rcd13ifvqej0","pricing_plan_id":"cebpf4jnsgd1na2vs0mg"},{"bike_id":"59be4cae-a603-40d3-ba15-ed41b3b00f66","system_id":"levelo_inurba_marseille","lat":43.286593,"lon":5.363346,"is_reserved":false,"is_disabled":false,"rental_uris":{"android":"levelo://app?vid=59be4cae-a603-40d3-ba15-ed41b3b00f66","ios":"levelo://app?vid=59be4cae-a603-40d3-ba15-ed41b3b00f66"},"vehicle_type_id":"4","last_reported":1724346464,"current_range_meters":11200,"station_id":"ce4bhah2rcd13ifvqej0","pricing_plan_id":"cebpf4jnsgd1na2vs0mg"},{"bike_id":"76f63659-7197-444d-a084-4dc258d5754b","system_id":"levelo_inurba_marseille","lat":43.286591,"lon":5.363346,"is_reserved":false,"is_disabled":false,"rental_uris":{"android":"levelo://app?vid=76f63659-7197-444d-a084-4dc258d5754b","ios":"levelo://app?vid=76f63659-7197-444d-a084-4dc258d5754b"},"vehicle_type_id":"4","last_reported":1724346464,"current_range_meters":29200,"station_id":"ce4bhah2rcd13ifvqej0","pricing_plan_id":"cebpf4jnsgd1na2vs0mg"},{"bike_id":"6414a50d-2287-44f8-9c29-5e931e76952d","system_id":"levelo_inurba_marseille","lat":43.286981,"lon":5.373817,"is_reserved":false,"is_disabled":false,"rental_uris":{"android":"levelo://app?vid=6414a50d-2287-44f8-9c29-5e931e76952d","ios":"levelo://app?vid=6414a50d-2287-44f8-9c29-5e931e76952d"},"vehicle_type_id":"4","last_reported":1724346464,"current_range_meters":8400,"station_id":"","pricing_plan_id":"cebpf4jnsgd1na2vs0mg"},{"bike_id":"015b282e-e192-421e-a83a-361fa3d9efdd","system_id":"levelo_inurba_marseille","lat":43.286961,"lon":5.373785,"is_reserved":false,"is_disabled":false,"rental_uris":{"android":"levelo://app?vid=015b282e-e192-421e-a83a-361fa3d9efdd","ios":"levelo://app?vid=015b282e-e192-421e-a83a-361fa3d9efdd"},"vehicle_type_id":"4","last_reported":1724346464,"current_range_meters":0,"station_id":"ce4bh3p2rcd13ifvqdq0","pricing_plan_id":"cebpf4jnsgd1na2vs0mg"},{"bike_id":"44954b87-d5ea-405a-a019-2765f0b2f939","system_id":"levelo_inurba_marseille","lat":43.298681,"lon":5.397225,"is_reserved":false,"is_disabled":false,"rental_uris":{"android":"levelo://app?vid=44954b87-d5ea-405a-a019-2765f0b2f939","ios":"levelo://app?vid=44954b87-d5ea-405a-a019-2765f0b2f939"},"vehicle_type_id":"4","last_reported":1724346464,"current_range_meters":0,"station_id":"ce4bh0h2rcd13ifvqd50","pricing_plan_id":"cebpf4jnsgd1na2vs0mg"},{"bike_id":"898520c0-7505-4c0c-8c2d-e18cae849eac","system_id":"levelo_inurba_marseille","lat":43.30235,"lon":5.40026,"is_reserved":false,"is_disabled":false,"rental_uris":{"android":"levelo://app?vid=898520c0-7505-4c0c-8c2d-e18cae849eac","ios":"levelo://app?vid=898520c0-7505-4c0c-8c2d-e18cae849eac"},"vehicle_type_id":"4","last_reported":1724346464,"current_range_meters":800,"station_id":"ce4bgvh2rcd13ifvqcs0","pricing_plan_id":"cebpf4jnsgd1na2vs0mg"},{"bike_id":"6f9e39cb-8e4c-4f45-8d59-74ac96d07ab5","system_id":"levelo_inurba_marseille","lat":43.289307,"lon":5.38406,"is_reserved":false,"is_disabled":false,"rental_uris":{"android":"levelo://app?vid=6f9e39cb-8e4c-4f45-8d59-74ac96d07ab5","ios":"levelo://app?vid=6f9e39cb-8e4c-4f45-8d59-74ac96d07ab5"},"vehicle_type_id":"4","last_reported":1724346464,"current_range_meters":9200,"station_id":"ce4bh612rcd13ifvqe6g","pricing_plan_id":"cebpf4jnsgd1na2vs0mg"},{"bike_id":"8127606d-e7c9-4153-8efe-5c38107aa08d","system_id":"levelo_inurba_marseille","lat":43.289297,"lon":5.383902,"is_reserved":false,"is_disabled":false,"rental_uris":{"android":"levelo://app?vid=8127606d-e7c9-4153-8efe-5c38107aa08d","ios":"levelo://app?vid=8127606d-e7c9-4153-8efe-5c38107aa08d"},"vehicle_type_id":"4","last_reported":1724346464,"current_range_meters":0,"station_id":"ce4bh612rcd13ifvqe6g","pricing_plan_id":"cebpf4jnsgd1na2vs0mg"},{"bike_id":"4a125de6-a593-4867-bb6d-66ac1835bb88","system_id":"levelo_inurba_marseille","lat":43.290336,"lon":5.386425,"is_reserved":false,"is_disabled":false,"rental_uris":{"android":"levelo://app?vid=4a125de6-a593-4867-bb6d-66ac1835bb88","ios":"levelo://app?vid=4a125de6-a593-4867-bb6d-66ac1835bb88"},"vehicle_type_id":"4","last_reported":1724346464,"current_range_meters":12800,"station_id":"ce4bh4p2rcd13ifvqe0g","pricing_plan_id":"cebpf4jnsgd1na2vs0mg"},{"bike_id":"5ba0f7e3-ef44-4df2-86fb-08c871aa76bf","system_id":"levelo_inurba_marseille","lat":43.30245,"lon":5.4006,"is_reserved":false,"is_disabled":false,"rental_uris":{"android":"levelo://app?vid=5ba0f7e3-ef44-4df2-86fb-08c871aa76bf","ios":"levelo://app?vid=5ba0f7e3-ef44-4df2-86fb-08c871aa76bf"},"vehicle_type_id":"4","last_reported":1724346464,"current_range_meters":0,"station_id":"ce4bgvh2rcd13ifvqcs0","pricing_plan_id":"cebpf4jnsgd1na2vs0mg"},{"bike_id":"fb2e2843-1404-47bd-8307-848901d75408","system_id":"levelo_inurba_marseille","lat":43.28913,"lon":5.38379,"is_reserved":false,"is_disabled":false,"rental_uris":{"android":"levelo://app?vid=fb2e2843-1404-47bd-8307-848901d75408","ios":"levelo://app?vid=fb2e2843-1404-47bd-8307-848901d75408"},"vehicle_type_id":"4","last_reported":1724346464,"current_range_meters":0,"station_id":"ce4bh612rcd13ifvqe6g","pricing_plan_id":"cebpf4jnsgd1na2vs0mg"},{"bike_id":"f85c9966-916e-4e3d-90af-fbdd185c3b7a","system_id":"levelo_inurba_marseille","lat":43.28917,"lon":5.38391,"is_reserved":false,"is_disabled":false,"rental_uris":{"android":"levelo://app?vid=f85c9966-916e-4e3d-90af-fbdd185c3b7a","ios":"levelo://app?vid=f85c9966-916e-4e3d-90af-fbdd185c3b7a"},"vehicle_type_id":"4","last_reported":1724346464,"current_range_meters":0,"station_id":"ce4bh612rcd13ifvqe6g","pricing_plan_id":"cebpf4jnsgd1na2vs0mg"},{"bike_id":"d5cc99f3-28e4-4b9c-b40a-2a509deaa31c","system_id":"levelo_inurba_marseille","lat":43.286039,"lon":5.370679,"is_reserved":false,"is_disabled":false,"rental_uris":{"android":"levelo://app?vid=d5cc99f3-28e4-4b9c-b40a-2a509deaa31c","ios":"levelo://app?vid=d5cc99f3-28e4-4b9c-b40a-2a509deaa31c"},"vehicle_type_id":"4","last_reported":1724346464,"current_range_meters":1600,"station_id":"ce4bht12rcd13ifvqi60","pricing_plan_id":"cebpf4jnsgd1na2vs0mg"},{"bike_id":"b8432e58-f1db-4d2b-8a08-260fe44cea81","system_id":"levelo_inurba_marseille","lat":43.287184,"lon":5.37937,"is_reserved":false,"is_disabled":false,"rental_uris":{"android":"levelo://app?vid=b8432e58-f1db-4d2b-8a08-260fe44cea81","ios":"levelo://app?vid=b8432e58-f1db-4d2b-8a08-260fe44cea81"},"vehicle_type_id":"4","last_reported":1724346464,"current_range_meters":800,"station_id":"ce4bh9p2rcd13ifvqec0","pricing_plan_id":"cebpf4jnsgd1na2vs0mg"},{"bike_id":"9c8a5d0b-7452-4f00-a268-7a94e6c7237f","system_id":"levelo_inurba_marseille","lat":43.316821,"lon":5.404737,"is_reserved":false,"is_disabled":false,"rental_uris":{"android":"levelo://app?vid=9c8a5d0b-7452-4f00-a268-7a94e6c7237f","ios":"levelo://app?vid=9c8a5d0b-7452-4f00-a268-7a94e6c7237f"},"vehicle_type_id":"4","last_reported":1724346464,"current_range_meters":11600,"station_id":"ce4bh012rcd13ifvqd00","pricing_plan_id":"cebpf4jnsgd1na2vs0mg"},{"bike_id":"c952f4d1-fcc2-460b-b249-d026525529cb","system_id":"levelo_inurba_marseille","lat":43.299724,"lon":5.384848,"is_reserved":false,"is_disabled":false,"rental_uris":{"android":"levelo://app?vid=c952f4d1-fcc2-460b-b249-d026525529cb","ios":"levelo://app?vid=c952f4d1-fcc2-460b-b249-d026525529cb"},"vehicle_type_id":"4","last_reported":1724346464,"current_range_meters":22000,"station_id":"ce4bgj92rcd13ifvqbd0","pricing_plan_id":"cebpf4jnsgd1na2vs0mg"},{"bike_id":"35795380-2edf-4ebc-9262-fd340f31ed03","system_id":"levelo_inurba_marseille","lat":43.290336,"lon":5.386425,"is_reserved":false,"is_disabled":false,"rental_uris":{"android":"levelo://app?vid=35795380-2edf-4ebc-9262-fd340f31ed03","ios":"levelo://app?vid=35795380-2edf-4ebc-9262-fd340f31ed03"},"vehicle_type_id":"4","last_reported":1724346464,"current_range_meters":3200,"station_id":"ce4bh4p2rcd13ifvqe0g","pricing_plan_id":"cebpf4jnsgd1na2vs0mg"},{"bike_id":"ca2e6086-390a-4609-82d0-76b018970cf3","system_id":"levelo_inurba_marseille","lat":43.284534,"lon":5.358662,"is_reserved":false,"is_disabled":false,"rental_uris":{"android":"levelo://app?vid=ca2e6086-390a-4609-82d0-76b018970cf3","ios":"levelo://app?vid=ca2e6086-390a-4609-82d0-76b018970cf3"},"vehicle_type_id":"4","last_reported":1724346464,"current_range_meters":2400,"station_id":"ce4bhah2rcd13ifvqei0","pricing_plan_id":"cebpf4jnsgd1na2vs0mg"},{"bike_id":"fab9f193-a9a2-4cad-889c-d688c58800ba","system_id":"levelo_inurba_marseille","lat":43.284534,"lon":5.358662,"is_reserved":false,"is_disabled":false,"rental_uris":{"android":"levelo://app?vid=fab9f193-a9a2-4cad-889c-d688c58800ba","ios":"levelo://app?vid=fab9f193-a9a2-4cad-889c-d688c58800ba"},"vehicle_type_id":"4","last_reported":1724346464,"current_range_meters":0,"station_id":"ce4bhah2rcd13ifvqei0","pricing_plan_id":"cebpf4jnsgd1na2vs0mg"},{"bike_id":"5453d772-6ffe-4dab-9b71-2899b072cb0b","system_id":"levelo_inurba_marseille","lat":43.284534,"lon":5.358662,"is_reserved":false,"is_disabled":false,"rental_uris":{"android":"levelo://app?vid=5453d772-6ffe-4dab-9b71-2899b072cb0b","ios":"levelo://app?vid=5453d772-6ffe-4dab-9b71-2899b072cb0b"},"vehicle_type_id":"4","last_reported":1724346464,"current_range_meters":31200,"station_id":"ce4bhah2rcd13ifvqei0","pricing_plan_id":"cebpf4jnsgd1na2vs0mg"},{"bike_id":"5c1005fc-24a8-456c-8eca-a870411abc59","system_id":"levelo_inurba_marseille","lat":43.284534,"lon":5.358662,"is_reserved":false,"is_disabled":false,"rental_uris":{"android":"levelo://app?vid=5c1005fc-24a8-456c-8eca-a870411abc59","ios":"levelo://app?vid=5c1005fc-24a8-456c-8eca-a870411abc59"},"vehicle_type_id":"4","last_reported":1724346464,"current_range_meters":400,"station_id":"ce4bhah2rcd13ifvqei0","pricing_plan_id":"cebpf4jnsgd1na2vs0mg"},{"bike_id":"ea357453-2073-44e4-8ec2-7a224fb80b57","system_id":"levelo_inurba_marseille","lat":43.284534,"lon":5.358662,"is_reserved":false,"is_disabled":false,"rental_uris":{"android":"levelo://app?vid=ea357453-2073-44e4-8ec2-7a224fb80b57","ios":"levelo://app?vid=ea357453-2073-44e4-8ec2-7a224fb80b57"},"vehicle_type_id":"4","last_reported":1724346464,"current_range_meters":10000,"station_id":"ce4bhah2rcd13ifvqei0","pricing_plan_id":"cebpf4jnsgd1na2vs0mg"},{"bike_id":"3af37bf1-fc31-4f33-a8f3-4a0cc76063d2","system_id":"levelo_inurba_marseille","lat":43.284534,"lon":5.358662,"is_reserved":false,"is_disabled":false,"rental_uris":{"android":"levelo://app?vid=3af37bf1-fc31-4f33-a8f3-4a0cc76063d2","ios":"levelo://app?vid=3af37bf1-fc31-4f33-a8f3-4a0cc76063d2"},"vehicle_type_id":"4","last_reported":1724346464,"current_range_meters":11200,"station_id":"ce4bhah2rcd13ifvqei0","pricing_plan_id":"cebpf4jnsgd1na2vs0mg"},{"bike_id":"21945db9-328c-447f-a966-ec776e231db7","system_id":"levelo_inurba_marseille","lat":43.284534,"lon":5.358662,"is_reserved":false,"is_disabled":false,"rental_uris":{"android":"levelo://app?vid=21945db9-328c-447f-a966-ec776e231db7","ios":"levelo://app?vid=21945db9-328c-447f-a966-ec776e231db7"},"vehicle_type_id":"4","last_reported":1724346464,"current_range_meters":31200,"station_id":"ce4bhah2rcd13ifvqei0","pricing_plan_id":"cebpf4jnsgd1na2vs0mg"},{"bike_id":"2d8ebc40-69dd-4f86-9734-bacdd18f6e3f","system_id":"levelo_inurba_marseille","lat":43.284534,"lon":5.358662,"is_reserved":false,"is_disabled":false,"rental_uris":{"android":"levelo://app?vid=2d8ebc40-69dd-4f86-9734-bacdd18f6e3f","ios":"levelo://app?vid=2d8ebc40-69dd-4f86-9734-bacdd18f6e3f"},"vehicle_type_id":"4","last_reported":1724346464,"current_range_meters":1600,"station_id":"ce4bhah2rcd13ifvqei0","pricing_plan_id":"cebpf4jnsgd1na2vs0mg"},{"bike_id":"03fc1ece-a075-4530-a3c1-f09169cabd68","system_id":"levelo_inurba_marseille","lat":43.28458,"lon":5.35886,"is_reserved":false,"is_disabled":false,"rental_uris":{"android":"levelo://app?vid=03fc1ece-a075-4530-a3c1-f09169cabd68","ios":"levelo://app?vid=03fc1ece-a075-4530-a3c1-f09169cabd68"},"vehicle_type_id":"4","last_reported":1724346464,"current_range_meters":31200,"station_id":"ce4bhah2rcd13ifvqei0","pricing_plan_id":"cebpf4jnsgd1na2vs0mg"},{"bike_id":"377ae95c-de2c-4d54-a7eb-934ce404f541","system_id":"levelo_inurba_marseille","lat":43.29446,"lon":5.39756,"is_reserved":false,"is_disabled":false,"rental_uris":{"android":"levelo://app?vid=377ae95c-de2c-4d54-a7eb-934ce404f541","ios":"levelo://app?vid=377ae95c-de2c-4d54-a7eb-934ce404f541"},"vehicle_type_id":"4","last_reported":1724346464,"current_range_meters":5200,"station_id":"ce4bh3h2rcd13ifvqdo0","pricing_plan_id":"cebpf4jnsgd1na2vs0mg"},{"bike_id":"bdc40f77-cc4f-40ef-82c3-8dc59fa0dcc2","system_id":"levelo_inurba_marseille","lat":43.28619,"lon":5.35104,"is_reserved":false,"is_disabled":false,"rental_uris":{"android":"levelo://app?vid=bdc40f77-cc4f-40ef-82c3-8dc59fa0dcc2","ios":"levelo://app?vid=bdc40f77-cc4f-40ef-82c3-8dc59fa0dcc2"},"vehicle_type_id":"4","last_reported":1724346464,"current_range_meters":2000,"station_id":"ce4bhch2rcd13ifvqeug","pricing_plan_id":"cebpf4jnsgd1na2vs0mg"},{"bike_id":"00d219db-50e6-46ae-ac0c-56862059e732","system_id":"levelo_inurba_marseille","lat":43.28617,"lon":5.35104,"is_reserved":false,"is_disabled":false,"rental_uris":{"android":"levelo://app?vid=00d219db-50e6-46ae-ac0c-56862059e732","ios":"levelo://app?vid=00d219db-50e6-46ae-ac0c-56862059e732"},"vehicle_type_id":"4","last_reported":1724346464,"current_range_meters":400,"station_id":"ce4bhch2rcd13ifvqeug","pricing_plan_id":"cebpf4jnsgd1na2vs0mg"},{"bike_id":"eff97b22-807e-42d0-a791-f904a355885c","system_id":"levelo_inurba_marseille","lat":43.285856,"lon":5.350771,"is_reserved":false,"is_disabled":false,"rental_uris":{"android":"levelo://app?vid=eff97b22-807e-42d0-a791-f904a355885c","ios":"levelo://app?vid=eff97b22-807e-42d0-a791-f904a355885c"},"vehicle_type_id":"4","last_reported":1724346464,"current_range_meters":9600,"station_id":"ce4bhch2rcd13ifvqeug","pricing_plan_id":"cebpf4jnsgd1na2vs0mg"},{"bike_id":"263c9e5d-8a6b-41f7-a313-8bc81c67a2dc","system_id":"levelo_inurba_marseille","lat":43.28616,"lon":5.35102,"is_reserved":false,"is_disabled":false,"rental_uris":{"android":"levelo://app?vid=263c9e5d-8a6b-41f7-a313-8bc81c67a2dc","ios":"levelo://app?vid=263c9e5d-8a6b-41f7-a313-8bc81c67a2dc"},"vehicle_type_id":"4","last_reported":1724346464,"current_range_meters":29600,"station_id":"ce4bhch2rcd13ifvqeug","pricing_plan_id":"cebpf4jnsgd1na2vs0mg"},{"bike_id":"daf22a72-a949-472e-ae09-c43570442056","system_id":"levelo_inurba_marseille","lat":43.285856,"lon":5.350771,"is_reserved":false,"is_disabled":false,"rental_uris":{"android":"levelo://app?vid=daf22a72-a949-472e-ae09-c43570442056","ios":"levelo://app?vid=daf22a72-a949-472e-ae09-c43570442056"},"vehicle_type_id":"4","last_reported":1724346464,"current_range_meters":9200,"station_id":"ce4bhch2rcd13ifvqeug","pricing_plan_id":"cebpf4jnsgd1na2vs0mg"},{"bike_id":"74db5f33-d1e7-44d0-95f9-688a069990b0","system_id":"levelo_inurba_marseille","lat":43.28616,"lon":5.35101,"is_reserved":false,"is_disabled":false,"rental_uris":{"android":"levelo://app?vid=74db5f33-d1e7-44d0-95f9-688a069990b0","ios":"levelo://app?vid=74db5f33-d1e7-44d0-95f9-688a069990b0"},"vehicle_type_id":"4","last_reported":1724346464,"current_range_meters":12800,"station_id":"ce4bhch2rcd13ifvqeug","pricing_plan_id":"cebpf4jnsgd1na2vs0mg"},{"bike_id":"f280a1b4-d585-4739-a63a-c5b714f05f01","system_id":"levelo_inurba_marseille","lat":43.285856,"lon":5.350771,"is_reserved":false,"is_disabled":false,"rental_uris":{"android":"levelo://app?vid=f280a1b4-d585-4739-a63a-c5b714f05f01","ios":"levelo://app?vid=f280a1b4-d585-4739-a63a-c5b714f05f01"},"vehicle_type_id":"4","last_reported":1724346464,"current_range_meters":0,"station_id":"ce4bhch2rcd13ifvqeug","pricing_plan_id":"cebpf4jnsgd1na2vs0mg"},{"bike_id":"910bcf06-6944-4175-aad7-6429a453638d","system_id":"levelo_inurba_marseille","lat":43.28615,"lon":5.35101,"is_reserved":false,"is_disabled":false,"rental_uris":{"android":"levelo://app?vid=910bcf06-6944-4175-aad7-6429a453638d","ios":"levelo://app?vid=910bcf06-6944-4175-aad7-6429a453638d"},"vehicle_type_id":"4","last_reported":1724346464,"current_range_meters":4000,"station_id":"ce4bhch2rcd13ifvqeug","pricing_plan_id":"cebpf4jnsgd1na2vs0mg"},{"bike_id":"8d28de9a-82ad-4e6b-8097-a64decfa76fd","system_id":"levelo_inurba_marseille","lat":43.285856,"lon":5.350771,"is_reserved":false,"is_disabled":false,"rental_uris":{"android":"levelo://app?vid=8d28de9a-82ad-4e6b-8097-a64decfa76fd","ios":"levelo://app?vid=8d28de9a-82ad-4e6b-8097-a64decfa76fd"},"vehicle_type_id":"4","last_reported":1724346464,"current_range_meters":12000,"station_id":"ce4bhch2rcd13ifvqeug","pricing_plan_id":"cebpf4jnsgd1na2vs0mg"},{"bike_id":"6a85684a-7379-46d1-b53b-6be40d0b59de","system_id":"levelo_inurba_marseille","lat":43.285856,"lon":5.350771,"is_reserved":false,"is_disabled":false,"rental_uris":{"android":"levelo://app?vid=6a85684a-7379-46d1-b53b-6be40d0b59de","ios":"levelo://app?vid=6a85684a-7379-46d1-b53b-6be40d0b59de"},"vehicle_type_id":"4","last_reported":1724346464,"current_range_meters":13200,"station_id":"ce4bhch2rcd13ifvqeug","pricing_plan_id":"cebpf4jnsgd1na2vs0mg"},{"bike_id":"abcee92f-dda2-4f81-b563-472cfbe672ee","system_id":"levelo_inurba_marseille","lat":43.285856,"lon":5.350771,"is_reserved":false,"is_disabled":false,"rental_uris":{"android":"levelo://app?vid=abcee92f-dda2-4f81-b563-472cfbe672ee","ios":"levelo://app?vid=abcee92f-dda2-4f81-b563-472cfbe672ee"},"vehicle_type_id":"4","last_reported":1724346464,"current_range_meters":8000,"station_id":"ce4bhch2rcd13ifvqeug","pricing_plan_id":"cebpf4jnsgd1na2vs0mg"},{"bike_id":"af05f9bf-9053-4606-af25-252bdff40b37","system_id":"levelo_inurba_marseille","lat":43.28415,"lon":5.375087,"is_reserved":false,"is_disabled":false,"rental_uris":{"android":"levelo://app?vid=af05f9bf-9053-4606-af25-252bdff40b37","ios":"levelo://app?vid=af05f9bf-9053-4606-af25-252bdff40b37"},"vehicle_type_id":"4","last_reported":1724346464,"current_range_meters":0,"station_id":"ce4bh412rcd13ifvqds0","pricing_plan_id":"cebpf4jnsgd1na2vs0mg"},{"bike_id":"a75d3b55-1170-420a-a5b5-f45bc1e4469d","system_id":"levelo_inurba_marseille","lat":43.283998,"lon":5.375062,"is_reserved":false,"is_disabled":false,"rental_uris":{"android":"levelo://app?vid=a75d3b55-1170-420a-a5b5-f45bc1e4469d","ios":"levelo://app?vid=a75d3b55-1170-420a-a5b5-f45bc1e4469d"},"vehicle_type_id":"4","last_reported":1724346464,"current_range_meters":0,"station_id":"ce4bh412rcd13ifvqds0","pricing_plan_id":"cebpf4jnsgd1na2vs0mg"},{"bike_id":"ce7b3428-ddee-4112-9905-41817dee702f","system_id":"levelo_inurba_marseille","lat":43.295713,"lon":5.399639,"is_reserved":false,"is_disabled":false,"rental_uris":{"android":"levelo://app?vid=ce7b3428-ddee-4112-9905-41817dee702f","ios":"levelo://app?vid=ce7b3428-ddee-4112-9905-41817dee702f"},"vehicle_type_id":"4","last_reported":1724346464,"current_range_meters":11600,"station_id":"ce4bh312rcd13ifvqdj0","pricing_plan_id":"cebpf4jnsgd1na2vs0mg"},