{"last_updated":1773323700,"ttl":60,"version":"2.2","data":{"bikes":[{"bike_id":"cf1e925d-508d-4d82-99c5-387b4dae691e","system_id":"levelo_inurba_marseille","lat":43.3046,"lon":5.39709,"is_reserved":false,"is_disabled":false,"rental_uris":{"android":"levelo://app?vid=cf1e925d-508d-4d82-99c5-387b4dae691e","ios":"levelo://app?vid=cf1e925d-508d-4d82-99c5-387b4dae691e"},"vehicle_type_id":"4","last_reported":1773323701,"current_range_meters":24000,"station_id":"ce4bh092rcd13ifvqd20","pricing_plan_id":"cebpf4jnsgd1na2vs0mg"},{"bike_id":"0e0f0435-44dd-45c9-b88c-8e0922341d38","system_id":"levelo_inurba_marseille","lat":43.31385,"lon":5.38483,"is_reserved":false,"is_disabled":false,"rental_uris":{"android":"levelo://app?vid=0e0f0435-44dd-45c9-b88c-8e0922341d38","ios":"levelo://app?vid=0e0f0435-44dd-45c9-b88c-8e0922341d38"},"vehicle_type_id":"4","last_reported":1773323701,"current_range_meters":38000,"station_id":"ce4bgt92rcd13ifvqcf0","pricing_plan_id":"cebpf4jnsgd1na2vs0mg"},{"bike_id":"97561389-1b78-44e2-8b1b-1f721f62890e","system_id":"levelo_inurba_marseille","lat":43.29005,"lon":5.3561,"is_reserved":false,"is_disabled":false,"rental_uris":{"android":"levelo://app?vid=97561389-1b78-44e2-8b1b-1f721f62890e","ios":"levelo://app?vid=97561389-1b78-44e2-8b1b-1f721f62890e"},"vehicle_type_id":"4","last_reported":1773323701,"current_range_meters":40000,"station_id":"ce4bhb92rcd13ifvqen0","pricing_plan_id":"cebpf4jnsgd1na2vs0mg"},{"bike_id":"920fe5af-ce45-4e72-8675-5b619451cf1f","system_id":"levelo_inurba_marseille","lat":43.2119,"lon":5.35073,"is_reserved":false,"is_disabled":false,"rental_uris":{"android":"levelo://app?vid=920fe5af-ce45-4e72-8675-5b619451cf1f","ios":"levelo://app?vid=920fe5af-ce45-4e72-8675-5b619451cf1f"},"vehicle_type_id":"4","last_reported":1773323701,"current_range_meters":21600,"station_id":"st_cvj6sg6p6f1abm77japg","pricing_plan_id":"cebpf4jnsgd1na2vs0mg"},{"bike_id":"e5221afc-6738-469d-b587-5052eb67e231","system_id":"levelo_inurba_marseille","lat":43.29796,"lon":5.40402,"is_reserved":false,"is_disabled":false,"rental_uris":{"android":"levelo://app?vid=e5221afc-6738-469d-b587-5052eb67e231","ios":"levelo://app?vid=e5221afc-6738-469d-b587-5052eb67e231"},"vehicle_type_id":"4","last_reported":1773323701,"current_range_meters":8400,"station_id":"ce4bh112rcd13ifvqd90","pricing_plan_id":"cebpf4jnsgd1na2vs0mg"},{"bike_id":"9c0a5e84-345c-46bd-905d-0992f7abb546","system_id":"levelo_inurba_marseille","lat":43.30282,"lon":5.36912,"is_reserved":false,"is_disabled":false,"rental_uris":{"android":"levelo://app?vid=9c0a5e84-345c-46bd-905d-0992f7abb546","ios":"levelo://app?vid=9c0a5e84-345c-46bd-905d-0992f7abb546"},"vehicle_type_id":"4","last_reported":1773323701,"current_range_meters":10800,"station_id":"ce4bgqh2rcd13ifvqc5g","pricing_plan_id":"cebpf4jnsgd1na2vs0mg"},{"bike_id":"b4a762e6-bd90-4313-9b37-c2e8904f3811","system_id":"levelo_inurba_marseille","lat":43.27968,"lon":5.38768,"is_reserved":false,"is_disabled":false,"rental_uris":{"android":"levelo://app?vid=b4a762e6-bd90-4313-9b37-c2e8904f3811","ios":"levelo://app?vid=b4a762e6-bd90-4313-9b37-c2e8904f3811"},"vehicle_type_id":"4","last_reported":1773323701,"current_range_meters":36800,"station_id":"ce4bhg12rcd13ifvqf80","pricing_plan_id":"cebpf4jnsgd1na2vs0mg"},{"bike_id":"d5317123-9bf9-4493-ba3f-18b283994230","system_id":"levelo_inurba_marseille","lat":43.2669,"lon":5.38251,"is_reserved":false,"is_disabled":true,"rental_uris":{"android":"levelo://app?vid=d5317123-9bf9-4493-ba3f-18b283994230","ios":"levelo://app?vid=d5317123-9bf9-4493-ba3f-18b283994230"},"vehicle_type_id":"4","last_reported":1773323701,"current_range_meters":39200,"station_id":"ce4bhg92rcd13ifvqf90","pricing_plan_id":"cebpf4jnsgd1na2vs0mg"},{"bike_id":"2dde38a6-7040-4591-b258-f00f6d384fc3","system_id":"levelo_inurba_marseille","lat":43.33026,"lon":5.39034,"is_reserved":false,"is_disabled":false,"rental_uris":{"android":"levelo://app?vid=2dde38a6-7040-4591-b258-f00f6d384fc3","ios":"levelo://app?vid=2dde38a6-7040-4591-b258-f00f6d384fc3"},"vehicle_type_id":"4","last_reported":1773323701,"current_range_meters":38400,"station_id":"ce4bhr92rcd13ifvqhrg","pricing_plan_id":"cebpf4jnsgd1na2vs0mg"},{"bike_id":"501ac3ce-4e32-4f11-9ff0-40917641f71f","system_id":"levelo_inurba_marseille","lat":43.33008,"lon":5.39014,"is_reserved":false,"is_disabled":false,"rental_uris":{"android":"levelo://app?vid=501ac3ce-4e32-4f11-9ff0-40917641f71f","ios":"levelo://app?vid=501ac3ce-4e32-4f11-9ff0-40917641f71f"},"vehicle_type_id":"4","last_reported":1773323701,"current_range_meters":9200,"station_id":"ce4bhr92rcd13ifvqhrg","pricing_plan_id":"cebpf4jnsgd1na2vs0mg"},{"bike_id":"9faea34b-1c48-4a1b-8f51-2bafe5184a50","system_id":"levelo_inurba_marseille","lat":43.28479,"lon":5.48389,"is_reserved":false,"is_disabled":false,"rental_uris":{"android":"levelo://app?vid=9faea34b-1c48-4a1b-8f51-2bafe5184a50","ios":"levelo://app?vid=9faea34b-1c48-4a1b-8f51-2bafe5184a50"},"vehicle_type_id":"4","last_reported":1773323701,"current_range_meters":30800,"station_id":"","pricing_plan_id":"cebpf4jnsgd1na2vs0mg"},{"bike_id":"bd0135ea-2cde-4c88-9947-7d16e31861df","system_id":"levelo_inurba_marseille","lat":43.30777,"lon":5.36774,"is_reserved":false,"is_disabled":false,"rental_uris":{"android":"levelo://app?vid=bd0135ea-2cde-4c88-9947-7d16e31861df","ios":"levelo://app?vid=bd0135ea-2cde-4c88-9947-7d16e31861df"},"vehicle_type_id":"4","last_reported":1773323701,"current_range_meters":28400,"station_id":"","pricing_plan_id":"cebpf4jnsgd1na2vs0mg"},{"bike_id":"d427d34d-e739-4c0f-a843-74b85111544b","system_id":"levelo_inurba_marseille","lat":43.33178,"lon":5.37645,"is_reserved":false,"is_disabled":false,"rental_uris":{"android":"levelo://app?vid=d427d34d-e739-4c0f-a843-74b85111544b","ios":"levelo://app?vid=d427d34d-e739-4c0f-a843-74b85111544b"},"vehicle_type_id":"4","last_reported":1773323701,"current_range_meters":19600,"station_id":"st_d46cu089ee8s73dldbu0","pricing_plan_id":"cebpf4jnsgd1na2vs0mg"},{"bike_id":"dbf16230-f8f8-4b46-a9ea-49d64f6bd303","system_id":"levelo_inurba_marseille","lat":43.29852,"lon":5.36295,"is_reserved":false,"is_disabled":true,"rental_uris":{"android":"levelo://app?vid=dbf16230-f8f8-4b46-a9ea-49d64f6bd303","ios":"levelo://app?vid=dbf16230-f8f8-4b46-a9ea-49d64f6bd303"},"vehicle_type_id":"4","last_reported":1773323701,"current_range_meters":37600,"station_id":"ce4bgpp2rcd13ifvqc3g","pricing_plan_id":"cebpf4jnsgd1na2vs0mg"},{"bike_id":"660935ab-540d-44e4-814a-25de945a2e15","system_id":"levelo_inurba_marseille","lat":43.2737,"lon":5.3625,"is_reserved":false,"is_disabled":false,"rental_uris":{"android":"levelo://app?vid=660935ab-540d-44e4-814a-25de945a2e15","ios":"levelo://app?vid=660935ab-540d-44e4-814a-25de945a2e15"},"vehicle_type_id":"4","last_reported":1773323701,"current_range_meters":7200,"station_id":"ce4bhbh2rcd13ifvqeo0","pricing_plan_id":"cebpf4jnsgd1na2vs0mg"},{"bike_id":"c943c8f2-fd97-497f-b02c-47e60712859d","system_id":"levelo_inurba_marseille","lat":43.25834,"lon":5.39413,"is_reserved":false,"is_disabled":false,"rental_uris":{"android":"levelo://app?vid=c943c8f2-fd97-497f-b02c-47e60712859d","ios":"levelo://app?vid=c943c8f2-fd97-497f-b02c-47e60712859d"},"vehicle_type_id":"4","last_reported":1773323701,"current_range_meters":24000,"station_id":"ce4bhip2rcd13ifvqft0","pricing_plan_id":"cebpf4jnsgd1na2vs0mg"},{"bike_id":"311cd375-88a1-4176-9219-fa828099384a","system_id":"levelo_inurba_marseille","lat":43.30315,"lon":5.36889,"is_reserved":false,"is_disabled":false,"rental_uris":{"android":"levelo://app?vid=311cd375-88a1-4176-9219-fa828099384a","ios":"levelo://app?vid=311cd375-88a1-4176-9219-fa828099384a"},"vehicle_type_id":"4","last_reported":1773323701,"current_range_meters":8000,"station_id":"ce4bgqh2rcd13ifvqc5g","pricing_plan_id":"cebpf4jnsgd1na2vs0mg"},{"bike_id":"893bdcd0-317d-4c06-a9c4-62d417eb467f","system_id":"levelo_inurba_marseille","lat":43.28335,"lon":5.3808,"is_reserved":false,"is_disabled":false,"rental_uris":{"android":"levelo://app?vid=893bdcd0-317d-4c06-a9c4-62d417eb467f","ios":"levelo://app?vid=893bdcd0-317d-4c06-a9c4-62d417eb467f"},"vehicle_type_id":"4","last_reported":1773323701,"current_range_meters":34800,"station_id":"ce4bh412rcd13ifvqdr0","pricing_plan_id":"cebpf4jnsgd1na2vs0mg"},{"bike_id":"b5a70d44-6cd2-4596-a9b3-e82e9858ce0d","system_id":"levelo_inurba_marseille","lat":43.30544,"lon":5.36541,"is_reserved":false,"is_disabled":false,"rental_uris":{"android":"levelo://app?vid=b5a70d44-6cd2-4596-a9b3-e82e9858ce0d","ios":"levelo://app?vid=b5a70d44-6cd2-4596-a9b3-e82e9858ce0d"},"vehicle_type_id":"4","last_reported":1773323701,"current_range_meters":38800,"station_id":"ce4bgs12rcd13ifvqcag","pricing_plan_id":"cebpf4jnsgd1na2vs0mg"},{"bike_id":"0e033376-8ded-4c5b-a90d-81f2de96f774","system_id":"levelo_inurba_marseille","lat":43.29735,"lon":5.37679,"is_reserved":false,"is_disabled":true,"rental_uris":{"android":"levelo://app?vid=0e033376-8ded-4c5b-a90d-81f2de96f774","ios":"levelo://app?vid=0e033376-8ded-4c5b-a90d-81f2de96f774"},"vehicle_type_id":"4","last_reported":1773323701,"current_range_meters":19600,"station_id":"ce4bgkh2rcd13ifvqbl0","pricing_plan_id":"cebpf4jnsgd1na2vs0mg"},{"bike_id":"fee06328-0848-48be-bb8b-947aae963eba","system_id":"levelo_inurba_marseille","lat":43.30538,"lon":5.36708,"is_reserved":false,"is_disabled":false,"rental_uris":{"android":"levelo://app?vid=fee06328-0848-48be-bb8b-947aae963eba","ios":"levelo://app?vid=fee06328-0848-48be-bb8b-947aae963eba"},"vehicle_type_id":"4","last_reported":1773323701,"current_range_meters":39200,"station_id":"ce4bgrp2rcd13ifvqc9g","pricing_plan_id":"cebpf4jnsgd1na2vs0mg"},{"bike_id":"b93a357c-54e0-4442-be00-cbc58767907f","system_id":"levelo_inurba_marseille","lat":43.32052,"lon":5.41535,"is_reserved":false,"is_disabled":false,"rental_uris":{"android":"levelo://app?vid=b93a357c-54e0-4442-be00-cbc58767907f","ios":"levelo://app?vid=b93a357c-54e0-4442-be00-cbc58767907f"},"vehicle_type_id":"4","last_reported":1773323701,"current_range_meters":36800,"station_id":"ce4bhq92rcd13ifvqhkg","pricing_plan_id":"cebpf4jnsgd1na2vs0mg"},{"bike_id":"c1ec77a3-84f4-47db-94b6-6aec401b4b2a","system_id":"levelo_inurba_marseille","lat":43.29604,"lon":5.38093,"is_reserved":false,"is_disabled":false,"rental_uris":{"android":"levelo://app?vid=c1ec77a3-84f4-47db-94b6-6aec401b4b2a","ios":"levelo://app?vid=c1ec77a3-84f4-47db-94b6-6aec401b4b2a"},"vehicle_type_id":"4","last_reported":1773323701,"current_range_meters":16800,"station_id":"ce4bgl12rcd13ifvqbo0","pricing_plan_id":"cebpf4jnsgd1na2vs0mg"},{"bike_id":"20bf681e-dd28-42a1-94f9-defeb2767863","system_id":"levelo_inurba_marseille","lat":43.25873,"lon":5.39904,"is_reserved":false,"is_disabled":false,"rental_uris":{"android":"levelo://app?vid=20bf681e-dd28-42a1-94f9-defeb2767863","ios":"levelo://app?vid=20bf681e-dd28-42a1-94f9-defeb2767863"},"vehicle_type_id":"4","last_reported":1773323701,"current_range_meters":25200,"station_id":"ce4bhl92rcd13ifvqghg","pricing_plan_id":"cebpf4jnsgd1na2vs0mg"},{"bike_id":"4dd27b78-e3cc-4352-8a7d-4f0c96f83aa2","system_id":"levelo_inurba_marseille","lat":43.29259,"lon":5.38442,"is_reserved":false,"is_disabled":false,"rental_uris":{"android":"levelo://app?vid=4dd27b78-e3cc-4352-8a7d-4f0c96f83aa2","ios":"levelo://app?vid=4dd27b78-e3cc-4352-8a7d-4f0c96f83aa2"},"vehicle_type_id":"4","last_reported":1773323701,"current_range_meters":33600,"station_id":"ce4bh692rcd13ifvqea0","pricing_plan_id":"cebpf4jnsgd1na2vs0mg"},{"bike_id":"8f82668e-3825-4e2d-afca-16910ac971bd","system_id":"levelo_inurba_marseille","lat":43.27927,"lon":5.39556,"is_reserved":false,"is_disabled":false,"rental_uris":{"android":"levelo://app?vid=8f82668e-3825-4e2d-afca-16910ac971bd","ios":"levelo://app?vid=8f82668e-3825-4e2d-afca-16910ac971bd"},"vehicle_type_id":"4","last_reported":1773323701,"current_range_meters":30800,"station_id":"ce4bhf92rcd13ifvqf40","pricing_plan_id":"cebpf4jnsgd1na2vs0mg"},{"bike_id":"8a3cba12-bd0e-428d-b84b-5ae8eb04e407","system_id":"levelo_inurba_marseille","lat":43.30938,"lon":5.4015,"is_reserved":false,"is_disabled":false,"rental_uris":{"android":"levelo://app?vid=8a3cba12-bd0e-428d-b84b-5ae8eb04e407","ios":"levelo://app?vid=8a3cba12-bd0e-428d-b84b-5ae8eb04e407"},"vehicle_type_id":"4","last_reported":1773323701,"current_range_meters":38000,"station_id":"ce4bgvp2rcd13ifvqct0","pricing_plan_id":"cebpf4jnsgd1na2vs0mg"},{"bike_id":"eac671fa-a184-4f78-8289-05a9f12eade6","system_id":"levelo_inurba_marseille","lat":43.30932,"lon":5.36831,"is_reserved":false,"is_disabled":false,"rental_uris":{"android":"levelo://app?vid=eac671fa-a184-4f78-8289-05a9f12eade6","ios":"levelo://app?vid=eac671fa-a184-4f78-8289-05a9f12eade6"},"vehicle_type_id":"4","last_reported":1773323701,"current_range_meters":35200,"station_id":"ce4bgn92rcd13ifvqbvg","pricing_plan_id":"cebpf4jnsgd1na2vs0mg"},{"bike_id":"8f062b48-8a07-4921-843a-04a51859a2ee","system_id":"levelo_inurba_marseille","lat":43.29556,"lon":5.4228,"is_reserved":false,"is_disabled":false,"rental_uris":{"android":"levelo://app?vid=8f062b48-8a07-4921-843a-04a51859a2ee","ios":"levelo://app?vid=8f062b48-8a07-4921-843a-04a51859a2ee"},"vehicle_type_id":"4","last_reported":1773323701,"current_range_meters":40000,"station_id":"ce4bhph2rcd13ifvqhdg","pricing_plan_id":"cebpf4jnsgd1na2vs0mg"},{"bike_id":"2910c25c-8e17-4198-83e3-9b82182f5216","system_id":"levelo_inurba_marseille","lat":43.24157,"lon":5.36422,"is_reserved":false,"is_disabled":false,"rental_uris":{"android":"levelo://app?vid=2910c25c-8e17-4198-83e3-9b82182f5216","ios":"levelo://app?vid=2910c25c-8e17-4198-83e3-9b82182f5216"},"vehicle_type_id":"4","last_reported":1773323701,"current_range_meters":29600,"station_id":"cpo36qri1sfpv3e86is0","pricing_plan_id":"cebpf4jnsgd1na2vs0mg"},{"bike_id":"39b5f92c-6799-4b49-8a5f-14ab1abfd25a","system_id":"levelo_inurba_marseille","lat":43.31376,"lon":5.36655,"is_reserved":false,"is_disabled":false,"rental_uris":{"android":"levelo://app?vid=39b5f92c-6799-4b49-8a5f-14ab1abfd25a","ios":"levelo://app?vid=39b5f92c-6799-4b49-8a5f-14ab1abfd25a"},"vehicle_type_id":"4","last_reported":1773323701,"current_range_meters":34800,"station_id":"ce4bgr92rcd13ifvqc6g","pricing_plan_id":"cebpf4jnsgd1na2vs0mg"},{"bike_id":"0351fc46-01ea-4af2-bf07-c7417afde98b","system_id":"levelo_inurba_marseille","lat":43.27439,"lon":5.3942,"is_reserved":false,"is_disabled":false,"rental_uris":{"android":"levelo://app?vid=0351fc46-01ea-4af2-bf07-c7417afde98b","ios":"levelo://app?vid=0351fc46-01ea-4af2-bf07-c7417afde98b"},"vehicle_type_id":"4","last_reported":1773323701,"current_range_meters":32400,"station_id":"ce4bhdp2rcd13ifvqf20","pricing_plan_id":"cebpf4jnsgd1na2vs0mg"},{"bike_id":"4d63ba94-123a-40ef-a00b-9f058c52b926","system_id":"levelo_inurba_marseille","lat":43.31318,"lon":5.36915,"is_reserved":false,"is_disabled":false,"rental_uris":{"android":"levelo://app?vid=4d63ba94-123a-40ef-a00b-9f058c52b926","ios":"levelo://app?vid=4d63ba94-123a-40ef-a00b-9f058c52b926"},"vehicle_type_id":"4","last_reported":1773323701,"current_range_meters":19200,"station_id":"ce4bgl92rcd13ifvqbq0","pricing_plan_id":"cebpf4jnsgd1na2vs0mg"},{"bike_id":"23ba3335-938f-476f-a82c-5f731a0f3a9b","system_id":"levelo_inurba_marseille","lat":43.31268,"lon":5.36812,"is_reserved":false,"is_disabled":false,"rental_uris":{"android":"levelo://app?vid=23ba3335-938f-476f-a82c-5f731a0f3a9b","ios":"levelo://app?vid=23ba3335-938f-476f-a82c-5f731a0f3a9b"},"vehicle_type_id":"4","last_reported":1773323701,"current_range_meters":39200,"station_id":"ce4bgl92rcd13ifvqbq0","pricing_plan_id":"cebpf4jnsgd1na2vs0mg"},{"bike_id":"6cae00ab-c96a-4111-a994-8a5980d4713c","system_id":"levelo_inurba_marseille","lat":43.29778,"lon":5.38127,"is_reserved":false,"is_disabled":false,"rental_uris":{"android":"levelo://app?vid=6cae00ab-c96a-4111-a994-8a5980d4713c","ios":"levelo://app?vid=6cae00ab-c96a-4111-a994-8a5980d4713c"},"vehicle_type_id":"4","last_reported":1773323701,"current_range_meters":36000,"station_id":"ce4bgip2rcd13ifvqbb0","pricing_plan_id":"cebpf4jnsgd1na2vs0mg"},{"bike_id":"e5992785-f891-4eb7-b8cf-ab9dacd9c960","system_id":"levelo_inurba_marseille","lat":43.23048,"lon":5.35506,"is_reserved":false,"is_disabled":false,"rental_uris":{"android":"levelo://app?vid=e5992785-f891-4eb7-b8cf-ab9dacd9c960","ios":"levelo://app?vid=e5992785-f891-4eb7-b8cf-ab9dacd9c960"},"vehicle_type_id":"4","last_reported":1773323701,"current_range_meters":36400,"station_id":"cpo3342slgdg3j2ifvpg","pricing_plan_id":"cebpf4jnsgd1na2vs0mg"},{"bike_id":"cfdcc226-98a9-40cc-ab94-5dcbeb67234b","system_id":"levelo_inurba_marseille","lat":43.2993,"lon":5.37467,"is_reserved":false,"is_disabled":false,"rental_uris":{"android":"levelo://app?vid=cfdcc226-98a9-40cc-ab94-5dcbeb67234b","ios":"levelo://app?vid=cfdcc226-98a9-40cc-ab94-5dcbeb67234b"},"vehicle_type_id":"4","last_reported":1773323701,"current_range_meters":39200,"station_id":"ce4bgjh2rcd13ifvqbg0","pricing_plan_id":"cebpf4jnsgd1na2vs0mg"},{"bike_id":"788aa2f5-f74b-4c97-9dce-ec6260593ca6","system_id":"levelo_inurba_marseille","lat":43.29967,"lon":5.38503,"is_reserved":false,"is_disabled":false,"rental_uris":{"android":"levelo://app?vid=788aa2f5-f74b-4c97-9dce-ec6260593ca6","ios":"levelo://app?vid=788aa2f5-f74b-4c97-9dce-ec6260593ca6"},"vehicle_type_id":"4","last_reported":1773323701,"current_range_meters":34000,"station_id":"ce4bgj92rcd13ifvqbd0","pricing_plan_id":"cebpf4jnsgd1na2vs0mg"},{"bike_id":"ce511df9-4784-459c-acbc-9c1c2ee2387f","system_id":"levelo_inurba_marseille","lat":43.26937,"lon":5.40242,"is_reserved":false,"is_disabled":false,"rental_uris":{"android":"levelo://app?vid=ce511df9-4784-459c-acbc-9c1c2ee2387f","ios":"levelo://app?vid=ce511df9-4784-459c-acbc-9c1c2ee2387f"},"vehicle_type_id":"4","last_reported":1773323701,"current_range_meters":40000,"station_id":"cjm6bp8fraef2m0cb0m0","pricing_plan_id":"cebpf4jnsgd1na2vs0mg"},{"bike_id":"182982c2-ad4b-4720-99b5-ac2ca378f95a","system_id":"levelo_inurba_marseille","lat":43.24657,"lon":5.38153,"is_reserved":false,"is_disabled":false,"rental_uris":{"android":"levelo://app?vid=182982c2-ad4b-4720-99b5-ac2ca378f95a","ios":"levelo://app?vid=182982c2-ad4b-4720-99b5-ac2ca378f95a"},"vehicle_type_id":"4","last_reported":1773323701,"current_range_meters":38800,"station_id":"ce4bhih2rcd13ifvqfr0","pricing_plan_id":"cebpf4jnsgd1na2vs0mg"},{"bike_id":"12fb0a3b-0411-4b2b-8082-15a7f0d13467","system_id":"levelo_inurba_marseille","lat":43.25996,"lon":5.40722,"is_reserved":false,"is_disabled":false,"rental_uris":{"android":"levelo://app?vid=12fb0a3b-0411-4b2b-8082-15a7f0d13467","ios":"levelo://app?vid=12fb0a3b-0411-4b2b-8082-15a7f0d13467"},"vehicle_type_id":"4","last_reported":1773323701,"current_range_meters":39200,"station_id":"ce4bhm92rcd13ifvqglg","pricing_plan_id":"cebpf4jnsgd1na2vs0mg"},{"bike_id":"2d139dbe-4a51-46ac-bf7e-5e630dc6608b","system_id":"levelo_inurba_marseille","lat":43.30909,"lon":5.38268,"is_reserved":false,"is_disabled":false,"rental_uris":{"android":"levelo://app?vid=2d139dbe-4a51-46ac-bf7e-5e630dc6608b","ios":"levelo://app?vid=2d139dbe-4a51-46ac-bf7e-5e630dc6608b"},"vehicle_type_id":"4","last_reported":1773323701,"current_range_meters":14800,"station_id":"","pricing_plan_id":"cebpf4jnsgd1na2vs0mg"},{"bike_id":"4bb62ff6-d74f-463a-b8b6-6cc2683cb41d","system_id":"levelo_inurba_marseille","lat":43.3014,"lon":5.37419,"is_reserved":false,"is_disabled":false,"rental_uris":{"android":"levelo://app?vid=4bb62ff6-d74f-463a-b8b6-6cc2683cb41d","ios":"levelo://app?vid=4bb62ff6-d74f-463a-b8b6-6cc2683cb41d"},"vehicle_type_id":"4","last_reported":1773323701,"current_range_meters":39200,"station_id":"ce4bgs92rcd13ifvqcc0","pricing_plan_id":"cebpf4jnsgd1na2vs0mg"},{"bike_id":"1203a036-e28c-4847-b52e-5b6c307c477b","system_id":"levelo_inurba_marseille","lat":43.33162,"lon":5.37696,"is_reserved":false,"is_disabled":false,"rental_uris":{"android":"levelo://app?vid=1203a036-e28c-4847-b52e-5b6c307c477b","ios":"levelo://app?vid=1203a036-e28c-4847-b52e-5b6c307c477b"},"vehicle_type_id":"4","last_reported":1773323701,"current_range_meters":6800,"station_id":"st_d46cu089ee8s73dldbu0","pricing_plan_id":"cebpf4jnsgd1na2vs0mg"},{"bike_id":"17ce7070-d813-4eaf-a544-6259968aa271","system_id":"levelo_inurba_marseille","lat":43.31096,"lon":5.36955,"is_reserved":false,"is_disabled":false,"rental_uris":{"android":"levelo://app?vid=17ce7070-d813-4eaf-a544-6259968aa271","ios":"levelo://app?vid=17ce7070-d813-4eaf-a544-6259968aa271"},"vehicle_type_id":"4","last_reported":1773323701,"current_range_meters":5600,"station_id":"","pricing_plan_id":"cebpf4jnsgd1na2vs0mg"},{"bike_id":"84edac93-97f0-4f16-980c-7e1b057bc44a","system_id":"levelo_inurba_marseille","lat":43.26807,"lon":5.40229,"is_reserved":false,"is_disabled":false,"rental_uris":{"android":"levelo://app?vid=84edac93-97f0-4f16-980c-7e1b057bc44a","ios":"levelo://app?vid=84edac93-97f0-4f16-980c-7e1b057bc44a"},"vehicle_type_id":"4","last_reported":1773323701,"current_range_meters":40000,"station_id":"ce501612rcd8frsf0b60","pricing_plan_id":"cebpf4jnsgd1na2vs0mg"},{"bike_id":"e782910b-f199-4e98-be3e-4dc2dd639f54","system_id":"levelo_inurba_marseille","lat":43.2895,"lon":5.36405,"is_reserved":false,"is_disabled":false,"rental_uris":{"android":"levelo://app?vid=e782910b-f199-4e98-be3e-4dc2dd639f54","ios":"levelo://app?vid=e782910b-f199-4e98-be3e-4dc2dd639f54"},"vehicle_type_id":"4","last_reported":1773323701,"current_range_meters":27200,"station_id":"ce4bhc92rcd13ifvqetg","pricing_plan_id":"cebpf4jnsgd1na2vs0mg"},{"bike_id":"4e135163-f7a1-49d1-a25d-931760b0cab6","system_id":"levelo_inurba_marseille","lat":43.24076,"lon":5.37768,"is_reserved":false,"is_disabled":false,"rental_uris":{"android":"levelo://app?vid=4e135163-f7a1-49d1-a25d-931760b0cab6","ios":"levelo://app?vid=4e135163-f7a1-49d1-a25d-931760b0cab6"},"vehicle_type_id":"4","last_reported":1773323701,"current_range_meters":26800,"station_id":"ce4bhnp2rcd13ifvqgvg","pricing_plan_id":"cebpf4jnsgd1na2vs0mg"},{"bike_id":"566d1d1a-0852-4e0d-907b-e1334e0d6bf9","system_id":"levelo_inurba_marseille","lat":43.2376,"lon":5.3659,"is_reserved":false,"is_disabled":false,"rental_uris":{"android":"levelo://app?vid=566d1d1a-0852-4e0d-907b-e1334e0d6bf9","ios":"levelo://app?vid=566d1d1a-0852-4e0d-907b-e1334e0d6bf9"},"vehicle_type_id":"4","last_reported":1773323701,"current_range_meters":38800,"station_id":"st_d3nk18o9ro0c73en2l3g","pricing_plan_id":"cebpf4jnsgd1na2vs0mg"},{"bike_id":"f96117d6-7d22-4b57-9564-78f617580e63","system_id":"levelo_inurba_marseille","lat":43.29202,"lon":5.35795,"is_reserved":false,"is_disabled":false,"rental_uris":{"android":"levelo://app?vid=f96117d6-7d22-4b57-9564-78f617580e63","ios":"levelo://app?vid=f96117d6-7d22-4b57-9564-78f617580e63"},"vehicle_type_id":"4","last_reported":1773323701,"current_range_meters":13600,"station_id":"ce4bhb12rcd13ifvqel0","pricing_plan_id":"cebpf4jnsgd1na2vs0mg"},{"bike_id":"7131aeaa-ad9c-4f47-bbef-5be5512049de","system_id":"levelo_inurba_marseille","lat":43.30419,"lon":5.39746,"is_reserved":false,"is_disabled":false,"rental_uris":{"android":"levelo://app?vid=7131aeaa-ad9c-4f47-bbef-5be5512049de","ios":"levelo://app?vid=7131aeaa-ad9c-4f47-bbef-5be5512049de"},"vehicle_type_id":"4","last_reported":1773323701,"current_range_meters":36800,"station_id":"ce4bh092rcd13ifvqd20","pricing_plan_id":"cebpf4jnsgd1na2vs0mg"},{"bike_id":"1c573354-cf53-44d3-9111-eb37080df88e","system_id":"levelo_inurba_marseille","lat":43.31569,"lon":5.37392,"is_reserved":false,"is_disabled":false,"rental_uris":{"android":"levelo://app?vid=1c573354-cf53-44d3-9111-eb37080df88e","ios":"levelo://app?vid=1c573354-cf53-44d3-9111-eb37080df88e"},"vehicle_type_id":"4","last_reported":1773323701,"current_range_meters":12800,"station_id":"","pricing_plan_id":"cebpf4jnsgd1na2vs0mg"},{"bike_id":"d46de948-bb4e-4a70-b911-cfc6e7243df5","system_id":"levelo_inurba_marseille","lat":43.25501,"lon":5.37656,"is_reserved":false,"is_disabled":false,"rental_uris":{"android":"levelo://app?vid=d46de948-bb4e-4a70-b911-cfc6e7243df5","ios":"levelo://app?vid=d46de948-bb4e-4a70-b911-cfc6e7243df5"},"vehicle_type_id":"4","last_reported":1773323701,"current_range_meters":29600,"station_id":"ce4bhh12rcd13ifvqff0","pricing_plan_id":"cebpf4jnsgd1na2vs0mg"},{"bike_id":"118f5c39-8aaa-4ebf-955d-12443e27feef","system_id":"levelo_inurba_marseille","lat":43.30539,"lon":5.36555,"is_reserved":false,"is_disabled":false,"rental_uris":{"android":"levelo://app?vid=118f5c39-8aaa-4ebf-955d-12443e27feef","ios":"levelo://app?vid=118f5c39-8aaa-4ebf-955d-12443e27feef"},"vehicle_type_id":"4","last_reported":1773323701,"current_range_meters":2800,"station_id":"ce4bgs12rcd13ifvqcag","pricing_plan_id":"cebpf4jnsgd1na2vs0mg"},{"bike_id":"290affd8-9a09-4ca7-8cc6-b1a8e5ea56f6","system_id":"levelo_inurba_marseille","lat":43.28843,"lon":5.35814,"is_reserved":false,"is_disabled":false,"rental_uris":{"android":"levelo://app?vid=290affd8-9a09-4ca7-8cc6-b1a8e5ea56f6","ios":"levelo://app?vid=290affd8-9a09-4ca7-8cc6-b1a8e5ea56f6"},"vehicle_type_id":"4","last_reported":1773323701,"current_range_meters":16800,"station_id":"ce4bhb12rcd13ifvqem0","pricing_plan_id":"cebpf4jnsgd1na2vs0mg"},{"bike_id":"c7c6afa0-3e61-44b0-8c54-bdea54258644","system_id":"levelo_inurba_marseille","lat":43.29924,"lon":5.37463,"is_reserved":false,"is_disabled":false,"rental_uris":{"android":"levelo://app?vid=c7c6afa0-3e61-44b0-8c54-bdea54258644","ios":"levelo://app?vid=c7c6afa0-3e61-44b0-8c54-bdea54258644"},"vehicle_type_id":"4","last_reported":1773323701,"current_range_meters":28800,"station_id":"ce4bgjh2rcd13ifvqbg0","pricing_plan_id":"cebpf4jnsgd1na2vs0mg"},{"bike_id":"4f213df8-1ade-4f1b-aecb-ad79ea58706b","system_id":"levelo_inurba_marseille","lat":43.2828,"lon":5.35079,"is_reserved":false,"is_disabled":false,"rental_uris":{"android":"levelo://app?vid=4f213df8-1ade-4f1b-aecb-ad79ea58706b","ios":"levelo://app?vid=4f213df8-1ade-4f1b-aecb-ad79ea58706b"},"vehicle_type_id":"4","last_reported":1773323701,"current_range_meters":28400,"station_id":"ce4bhbp2rcd13ifvqerg","pricing_plan_id":"cebpf4jnsgd1na2vs0mg"},{"bike_id":"98a69b82-3426-4662-b314-8ddb62a05de5","system_id":"levelo_inurba_marseille","lat":43.30076,"lon":5.4373,"is_reserved":false,"is_disabled":false,"rental_uris":{"android":"levelo://app?vid=98a69b82-3426-4662-b314-8ddb62a05de5","ios":"levelo://app?vid=98a69b82-3426-4662-b314-8ddb62a05de5"},"vehicle_type_id":"4","last_reported":1773323701,"current_range_meters":14400,"station_id":"","pricing_plan_id":"cebpf4jnsgd1na2vs0mg"},{"bike_id":"c6c0ebab-0295-4a0b-844e-e34d619beca3","system_id":"levelo_inurba_marseille","lat":43.23188,"lon":5.39978,"is_reserved":false,"is_disabled":false,"rental_uris":{"android":"levelo://app?vid=c6c0ebab-0295-4a0b-844e-e34d619beca3","ios":"levelo://app?vid=c6c0ebab-0295-4a0b-844e-e34d619beca3"},"vehicle_type_id":"4","last_reported":1773323701,"current_range_meters":34000,"station_id":"ce4bhn12rcd13ifvqgqg","pricing_plan_id":"cebpf4jnsgd1na2vs0mg"},{"bike_id":"a5eb7e2e-f45f-42c7-8ba3-bf76c2472338","system_id":"levelo_inurba_marseille","lat":43.30207,"lon":5.39438,"is_reserved":false,"is_disabled":false,"rental_uris":{"android":"levelo://app?vid=a5eb7e2e-f45f-42c7-8ba3-bf76c2472338","ios":"levelo://app?vid=a5eb7e2e-f45f-42c7-8ba3-bf76c2472338"},"vehicle_type_id":"4","last_reported":1773323701,"current_range_meters":19600,"station_id":"ce4bh0p2rcd13ifvqd70","pricing_plan_id":"cebpf4jnsgd1na2vs0mg"},{"bike_id":"a6bf6a0e-804b-4f95-903f-d306eb4acdb5","system_id":"levelo_inurba_marseille","lat":43.30229,"lon":5.37102,"is_reserved":false,"is_disabled":false,"rental_uris":{"android":"levelo://app?vid=a6bf6a0e-804b-4f95-903f-d306eb4acdb5","ios":"levelo://app?vid=a6bf6a0e-804b-4f95-903f-d306eb4acdb5"},"vehicle_type_id":"4","last_reported":1773323701,"current_range_meters":35200,"station_id":"","pricing_plan_id":"cebpf4jnsgd1na2vs0mg"},{"bike_id":"3d12e3f4-6b13-4168-b577-adf07acbef79","system_id":"levelo_inurba_marseille","lat":43.29231,"lon":5.36047,"is_reserved":false,"is_disabled":false,"rental_uris":{"android":"levelo://app?vid=3d12e3f4-6b13-4168-b577-adf07acbef79","ios":"levelo://app?vid=3d12e3f4-6b13-4168-b577-adf07acbef79"},"vehicle_type_id":"4","last_reported":1773323701,"current_range_meters":38400,"station_id":"ce4bhbh2rcd13ifvqeqg","pricing_plan_id":"cebpf4jnsgd1na2vs0mg"},{"bike_id":"3d236d94-cc73-4767-acdb-e504497fc2d4","system_id":"levelo_inurba_marseille","lat":43.30733,"lon":5.40134,"is_reserved":false,"is_disabled":false,"rental_uris":{"android":"levelo://app?vid=3d236d94-cc73-4767-acdb-e504497fc2d4","ios":"levelo://app?vid=3d236d94-cc73-4767-acdb-e504497fc2d4"},"vehicle_type_id":"4","last_reported":1773323701,"current_range_meters":39200,"station_id":"","pricing_plan_id":"cebpf4jnsgd1na2vs0mg"},{"bike_id":"c2f40725-1ed9-4d1d-87ac-56a67ffd2ae7","system_id":"levelo_inurba_marseille","lat":43.2605,"lon":5.39404,"is_reserved":false,"is_disabled":false,"rental_uris":{"android":"levelo://app?vid=c2f40725-1ed9-4d1d-87ac-56a67ffd2ae7","ios":"levelo://app?vid=c2f40725-1ed9-4d1d-87ac-56a67ffd2ae7"},"vehicle_type_id":"4","last_reported":1773323701,"current_range_meters":17200,"station_id":"ce4bhh92rcd13ifvqfj0","pricing_plan_id":"cebpf4jnsgd1na2vs0mg"},{"bike_id":"b55fcb4f-56c7-4140-a04a-337c4be97265","system_id":"levelo_inurba_marseille","lat":43.27218,"lon":5.39185,"is_reserved":false,"is_disabled":false,"rental_uris":{"android":"levelo://app?vid=b55fcb4f-56c7-4140-a04a-337c4be97265","ios":"levelo://app?vid=b55fcb4f-56c7-4140-a04a-337c4be97265"},"vehicle_type_id":"4","last_reported":1773323701,"current_range_meters":40000,"station_id":"ce4bhhp2rcd13ifvqfm0","pricing_plan_id":"cebpf4jnsgd1na2vs0mg"},{"bike_id":"bd01fb35-90b6-4346-ba9e-b4a7307593fb","system_id":"levelo_inurba_marseille","lat":43.27719,"lon":5.38878,"is_reserved":false,"is_disabled":false,"rental_uris":{"android":"levelo://app?vid=bd01fb35-90b6-4346-ba9e-b4a7307593fb","ios":"levelo://app?vid=bd01fb35-90b6-4346-ba9e-b4a7307593fb"},"vehicle_type_id":"4","last_reported":1773323701,"current_range_meters":17200,"station_id":"ce4bhi12rcd13ifvqfo0","pricing_plan_id":"cebpf4jnsgd1na2vs0mg"},{"bike_id":"5753c596-a1bf-4feb-a60d-3ba1e96e9610","system_id":"levelo_inurba_marseille","lat":43.29797,"lon":5.38092,"is_reserved":false,"is_disabled":false,"rental_uris":{"android":"levelo://app?vid=5753c596-a1bf-4feb-a60d-3ba1e96e9610","ios":"levelo://app?vid=5753c596-a1bf-4feb-a60d-3ba1e96e9610"},"vehicle_type_id":"4","last_reported":1773323701,"current_range_meters":32400,"station_id":"ce4bgip2rcd13ifvqbb0","pricing_plan_id":"cebpf4jnsgd1na2vs0mg"},{"bike_id":"3d7b1bec-2a06-47da-a7d0-796cda99d14f","system_id":"levelo_inurba_marseille","lat":43.27068,"lon":5.38324,"is_reserved":false,"is_disabled":false,"rental_uris":{"android":"levelo://app?vid=3d7b1bec-2a06-47da-a7d0-796cda99d14f","ios":"levelo://app?vid=3d7b1bec-2a06-47da-a7d0-796cda99d14f"},"vehicle_type_id":"4","last_reported":1773323701,"current_range_meters":17200,"station_id":"st_d3n2fo6cfp8s73cte1j0","pricing_plan_id":"cebpf4jnsgd1na2vs0mg"},{"bike_id":"219ce483-5210-430f-94fd-c3fe55bcc022","system_id":"levelo_inurba_marseille","lat":43.33737,"lon":5.39178,"is_reserved":false,"is_disabled":false,"rental_uris":{"android":"levelo://app?vid=219ce483-5210-430f-94fd-c3fe55bcc022","ios":"levelo://app?vid=219ce483-5210-430f-94fd-c3fe55bcc022"},"vehicle_type_id":"4","last_reported":1773323701,"current_range_meters":36400,"station_id":"ce4bhr92rcd13ifvqhsg","pricing_plan_id":"cebpf4jnsgd1na2vs0mg"},{"bike_id":"58050a15-c5ad-4992-9d53-ca68c740d72b","system_id":"levelo_inurba_marseille","lat":43.30286,"lon":5.39179,"is_reserved":false,"is_disabled":true,"rental_uris":{"android":"levelo://app?vid=58050a15-c5ad-4992-9d53-ca68c740d72b","ios":"levelo://app?vid=58050a15-c5ad-4992-9d53-ca68c740d72b"},"vehicle_type_id":"4","last_reported":1773323701,"current_range_meters":22800,"station_id":"ce4bgkh2rcd13ifvqbk0","pricing_plan_id":"cebpf4jnsgd1na2vs0mg"},{"bike_id":"988db3b8-861f-418c-a7ec-7ae78131696e","system_id":"levelo_inurba_marseille","lat":43.24664,"lon":5.4335,"is_reserved":false,"is_disabled":false,"rental_uris":{"android":"levelo://app?vid=988db3b8-861f-418c-a7ec-7ae78131696e","ios":"levelo://app?vid=988db3b8-861f-418c-a7ec-7ae78131696e"},"vehicle_type_id":"4","last_reported":1773323701,"current_range_meters":26000,"station_id":"","pricing_plan_id":"cebpf4jnsgd1na2vs0mg"},{"bike_id":"14f7221c-2c08-43ee-906e-521a8b5108c2","system_id":"levelo_inurba_marseille","lat":43.29978,"lon":5.38488,"is_reserved":false,"is_disabled":false,"rental_uris":{"android":"levelo://app?vid=14f7221c-2c08-43ee-906e-521a8b5108c2","ios":"levelo://app?vid=14f7221c-2c08-43ee-906e-521a8b5108c2"},"vehicle_type_id":"4","last_reported":1773323701,"current_range_meters":39200,"station_id":"ce4bgj92rcd13ifvqbd0","pricing_plan_id":"cebpf4jnsgd1na2vs0mg"},{"bike_id":"dd854777-f378-4132-94e6-63027cc18b82","system_id":"levelo_inurba_marseille","lat":43.29727,"lon":5.41059,"is_reserved":false,"is_disabled":false,"rental_uris":{"android":"levelo://app?vid=dd854777-f378-4132-94e6-63027cc18b82","ios":"levelo://app?vid=dd854777-f378-4132-94e6-63027cc18b82"},"vehicle_type_id":"4","last_reported":1773323701,"current_range_meters":24400,"station_id":"","pricing_plan_id":"cebpf4jnsgd1na2vs0mg"},{"bike_id":"8834cff0-6eb6-47a0-89df-f92f2d188784","system_id":"levelo_inurba_marseille","lat":43.2963,"lon":5.38786,"is_reserved":false,"is_disabled":false,"rental_uris":{"android":"levelo://app?vid=8834cff0-6eb6-47a0-89df-f92f2d188784","ios":"levelo://app?vid=8834cff0-6eb6-47a0-89df-f92f2d188784"},"vehicle_type_id":"4","last_reported":1773323701,"current_range_meters":25600,"station_id":"","pricing_plan_id":"cebpf4jnsgd1na2vs0mg"},{"bike_id":"35a82536-c165-4433-a2e7-59ec0df78006","system_id":"levelo_inurba_marseille","lat":43.32354,"lon":5.38908,"is_reserved":false,"is_disabled":false,"rental_uris":{"android":"levelo://app?vid=35a82536-c165-4433-a2e7-59ec0df78006","ios":"levelo://app?vid=35a82536-c165-4433-a2e7-59ec0df78006"},"vehicle_type_id":"4","last_reported":1773323701,"current_range_meters":4400,"station_id":"ce4bhqp2rcd13ifvqhog","pricing_plan_id":"cebpf4jnsgd1na2vs0mg"},{"bike_id":"85b5b118-e47b-4adc-aa0c-e9bbc2d708e9","system_id":"levelo_inurba_marseille","lat":43.27397,"lon":5.42453,"is_reserved":false,"is_disabled":false,"rental_uris":{"android":"levelo://app?vid=85b5b118-e47b-4adc-aa0c-e9bbc2d708e9","ios":"levelo://app?vid=85b5b118-e47b-4adc-aa0c-e9bbc2d708e9"},"vehicle_type_id":"4","last_reported":1773323701,"current_range_meters":18000,"station_id":"","pricing_plan_id":"cebpf4jnsgd1na2vs0mg"},{"bike_id":"3c6cc61c-3043-4c66-b7fc-8fd4c373e89e","system_id":"levelo_inurba_marseille","lat":43.30165,"lon":5.38081,"is_reserved":false,"is_disabled":false,"rental_uris":{"android":"levelo://app?vid=3c6cc61c-3043-4c66-b7fc-8fd4c373e89e","ios":"levelo://app?vid=3c6cc61c-3043-4c66-b7fc-8fd4c373e89e"},"vehicle_type_id":"4","last_reported":1773323701,"current_range_meters":21600,"station_id":"ce4bgjp2rcd13ifvqbh0","pricing_plan_id":"cebpf4jnsgd1na2vs0mg"},{"bike_id":"532f1fe9-6384-4056-88f3-ddfdd084688a","system_id":"levelo_inurba_marseille","lat":43.28979,"lon":5.42582,"is_reserved":false,"is_disabled":false,"rental_uris":{"android":"levelo://app?vid=532f1fe9-6384-4056-88f3-ddfdd084688a","ios":"levelo://app?vid=532f1fe9-6384-4056-88f3-ddfdd084688a"},"vehicle_type_id":"4","last_reported":1773323701,"current_range_meters":30800,"station_id":"","pricing_plan_id":"cebpf4jnsgd1na2vs0mg"},{"bike_id":"cefa7e87-0924-4f87-b8a6-31b204ff0616","system_id":"levelo_inurba_marseille","lat":43.2958,"lon":5.37495,"is_reserved":false,"is_disabled":true,"rental_uris":{"android":"levelo://app?vid=cefa7e87-0924-4f87-b8a6-31b204ff0616","ios":"levelo://app?vid=cefa7e87-0924-4f87-b8a6-31b204ff0616"},"vehicle_type_id":"4","last_reported":1773323701,"current_range_meters":9600,"station_id":"ce4bgh92rcd13ifvqb50","pricing_plan_id":"cebpf4jnsgd1na2vs0mg"},{"bike_id":"08506998-8ae7-4962-89f3-6ccd37448f52","system_id":"levelo_inurba_marseille","lat":43.29257,"lon":5.36862,"is_reserved":false,"is_disabled":true,"rental_uris":{"android":"levelo://app?vid=08506998-8ae7-4962-89f3-6ccd37448f52","ios":"levelo://app?vid=08506998-8ae7-4962-89f3-6ccd37448f52"},"vehicle_type_id":"4","last_reported":1773323701,"current_range_meters":9200,"station_id":"ce4bhbp2rcd13ifvqesg","pricing_plan_id":"cebpf4jnsgd1na2vs0mg"},{"bike_id":"fc4795bd-7fd3-4c14-9a9b-bcc5f999d4b0","system_id":"levelo_inurba_marseille","lat":43.23968,"lon":5.36628,"is_reserved":false,"is_disabled":false,"rental_uris":{"android":"levelo://app?vid=fc4795bd-7fd3-4c14-9a9b-bcc5f999d4b0","ios":"levelo://app?vid=fc4795bd-7fd3-4c14-9a9b-bcc5f999d4b0"},"vehicle_type_id":"4","last_reported":1773323701,"current_range_meters":35600,"station_id":"ce4bhi12rcd13ifvqfp0","pricing_plan_id":"cebpf4jnsgd1na2vs0mg"},{"bike_id":"5ff99a07-b306-44ef-abe3-5b9df213ee92","system_id":"levelo_inurba_marseille","lat":43.25137,"lon":5.40319,"is_reserved":false,"is_disabled":false,"rental_uris":{"android":"levelo://app?vid=5ff99a07-b306-44ef-abe3-5b9df213ee92","ios":"levelo://app?vid=5ff99a07-b306-44ef-abe3-5b9df213ee92"},"vehicle_type_id":"4","last_reported":1773323701,"current_range_meters":37600,"station_id":"ce4bhlh2rcd13ifvqgig","pricing_plan_id":"cebpf4jnsgd1na2vs0mg"},{"bike_id":"087bf67e-da99-4e0f-bc65-642b2288c7a5","system_id":"levelo_inurba_marseille","lat":43.25527,"lon":5.37644,"is_reserved":false,"is_disabled":false,"rental_uris":{"android":"levelo://app?vid=087bf67e-da99-4e0f-bc65-642b2288c7a5","ios":"levelo://app?vid=087bf67e-da99-4e0f-bc65-642b2288c7a5"},"vehicle_type_id":"4","last_reported":1773323701,"current_range_meters":38800,"station_id":"ce4bhh12rcd13ifvqff0","pricing_plan_id":"cebpf4jnsgd1na2vs0mg"},{"bike_id":"e28e8397-d2cf-404a-a04c-e7d757ea0864","system_id":"levelo_inurba_marseille","lat":43.290227,"lon":5.381225,"is_reserved":false,"is_disabled":false,"rental_uris":{"android":"levelo://app?vid=e28e8397-d2cf-404a-a04c-e7d757ea0864","ios":"levelo://app?vid=e28e8397-d2cf-404a-a04c-e7d757ea0864"},"vehicle_type_id":"4","last_reported":1773323701,"current_range_meters":20000,"station_id":"ce4bh4p2rcd13ifvqe1g","pricing_plan_id":"cebpf4jnsgd1na2vs0mg"},{"bike_id":"d10417da-18fa-464c-8c1a-3edbe1f03711","system_id":"levelo_inurba_marseille","lat":43.30138,"lon":5.37401,"is_reserved":false,"is_disabled":false,"rental_uris":{"android":"levelo://app?vid=d10417da-18fa-464c-8c1a-3edbe1f03711","ios":"levelo://app?vid=d10417da-18fa-464c-8c1a-3edbe1f03711"},"vehicle_type_id":"4","last_reported":1773323701,"current_range_meters":39200,"station_id":"ce4bgs92rcd13ifvqcc0","pricing_plan_id":"cebpf4jnsgd1na2vs0mg"},{"bike_id":"73cf0e35-cb02-4543-a855-fc58ba106378","system_id":"levelo_inurba_marseille","lat":43.30509,"lon":5.36576,"is_reserved":false,"is_disabled":false,"rental_uris":{"android":"levelo://app?vid=73cf0e35-cb02-4543-a855-fc58ba106378","ios":"levelo://app?vid=73cf0e35-cb02-4543-a855-fc58ba106378"},"vehicle_type_id":"4","last_reported":1773323701,"current_range_meters":25200,"station_id":"","pricing_plan_id":"cebpf4jnsgd1na2vs0mg"},{"bike_id":"9ef5200f-9014-497d-be16-41d4d67c6e84","system_id":"levelo_inurba_marseille","lat":43.30528,"lon":5.36699,"is_reserved":false,"is_disabled":false,"rental_uris":{"android":"levelo://app?vid=9ef5200f-9014-497d-be16-41d4d67c6e84","ios":"levelo://app?vid=9ef5200f-9014-497d-be16-41d4d67c6e84"},"vehicle_type_id":"4","last_reported":1773323701,"current_range_meters":30000,"station_id":"ce4bgrp2rcd13ifvqc9g","pricing_plan_id":"cebpf4jnsgd1na2vs0mg"},{"bike_id":"b94c3b6d-7912-4bb7-bd16-b874ff101a3d","system_id":"levelo_inurba_marseille","lat":43.24803,"lon":5.37457,"is_reserved":false,"is_disabled":false,"rental_uris":{"android":"levelo://app?vid=b94c3b6d-7912-4bb7-bd16-b874ff101a3d","ios":"levelo://app?vid=b94c3b6d-7912-4bb7-bd16-b874ff101a3d"},"vehicle_type_id":"4","last_reported":1773323701,"current_range_meters":25600,"station_id":"ce4bhgh2rcd13ifvqfb0","pricing_plan_id":"cebpf4jnsgd1na2vs0mg"},{"bike_id":"acf3f37d-c224-4635-8d04-0096fa9cc908","system_id":"levelo_inurba_marseille","lat":43.30365,"lon":5.42451,"is_reserved":false,"is_disabled":false,"rental_uris":{"android":"levelo://app?vid=acf3f37d-c224-4635-8d04-0096fa9cc908","ios":"levelo://app?vid=acf3f37d-c224-4635-8d04-0096fa9cc908"},"vehicle_type_id":"4","last_reported":1773323701,"current_range_meters":30400,"station_id":"ce4bhoh2rcd13ifvqh6g","pricing_plan_id":"cebpf4jnsgd1na2vs0mg"},{"bike_id":"1866c223-50ab-4283-b8a6-28a247e511e9","system_id":"levelo_inurba_marseille","lat":43.33145,"lon":5.39264,"is_reserved":false,"is_disabled":false,"rental_uris":{"android":"levelo://app?vid=1866c223-50ab-4283-b8a6-28a247e511e9","ios":"levelo://app?vid=1866c223-50ab-4283-b8a6-28a247e511e9"},"vehicle_type_id":"4","last_reported":1773323701,"current_range_meters":39200,"station_id":"","pricing_plan_id":"cebpf4jnsgd1na2vs0mg"},{"bike_id":"846247c3-7ba9-4141-9376-a46067afdc1d","system_id":"levelo_inurba_marseille","lat":43.21194,"lon":5.35079,"is_reserved":false,"is_disabled":false,"rental_uris":{"android":"levelo://app?vid=846247c3-7ba9-4141-9376-a46067afdc1d","ios":"levelo://app?vid=846247c3-7ba9-4141-9376-a46067afdc1d"},"vehicle_type_id":"4","last_reported":1773323701,"current_range_meters":28400,"station_id":"st_cvj6sg6p6f1abm77japg","pricing_plan_id":"cebpf4jnsgd1na2vs0mg"},{"bike_id":"7714c663-6076-4790-82c6-ae579f1bc1aa","system_id":"levelo_inurba_marseille","lat":43.30166,"lon":5.38061,"is_reserved":false,"is_disabled":false,"rental_uris":{"android":"levelo://app?vid=7714c663-6076-4790-82c6-ae579f1bc1aa","ios":"levelo://app?vid=7714c663-6076-4790-82c6-ae579f1bc1aa"},"vehicle_type_id":"4","last_reported":1773323701,"current_range_meters":11200,"station_id":"ce4bgjp2rcd13ifvqbh0","pricing_plan_id":"cebpf4jnsgd1na2vs0mg"},{"bike_id":"501e576d-45af-40a5-b387-768fec574b8d","system_id":"levelo_inurba_marseille","lat":43.27501,"lon":5.42456,"is_reserved":false,"is_disabled":false,"rental_uris":{"android":"levelo://app?vid=501e576d-45af-40a5-b387-768fec574b8d","ios":"levelo://app?vid=501e576d-45af-40a5-b387-768fec574b8d"},"vehicle_type_id":"4","last_reported":1773323701,"current_range_meters":27200,"station_id":"ce4bhn92rcd13ifvqgrg","pricing_plan_id":"cebpf4jnsgd1na2vs0mg"},{"bike_id":"1a067d96-050e-44a3-8b21-d8d3429506cc","system_id":"levelo_inurba_marseille","lat":43.27676,"lon":5.38905,"is_reserved":false,"is_disabled":false,"rental_uris":{"android":"levelo://app?vid=1a067d96-050e-44a3-8b21-d8d3429506cc","ios":"levelo://app?vid=1a067d96-050e-44a3-8b21-d8d3429506cc"},"vehicle_type_id":"4","last_reported":1773323701,"current_range_meters":39200,"station_id":"ce4bhi12rcd13ifvqfo0","pricing_plan_id":"cebpf4jnsgd1na2vs0mg"},{"bike_id":"74cb2b6f-9305-47f1-bb68-6c880d035389","system_id":"levelo_inurba_marseille","lat":43.29624,"lon":5.37153,"is_reserved":false,"is_disabled":false,"rental_uris":{"android":"levelo://app?vid=74cb2b6f-9305-47f1-bb68-6c880d035389","ios":"levelo://app?vid=74cb2b6f-9305-47f1-bb68-6c880d035389"},"vehicle_type_id":"4","last_reported":1773323701,"current_range_meters":40000,"station_id":"ce4bgnh2rcd13ifvqc0g","pricing_plan_id":"cebpf4jnsgd1na2vs0mg"},{"bike_id":"8ca21b58-74ad-4b24-8718-44fd40a2cd88","system_id":"levelo_inurba_marseille","lat":43.2902,"lon":5.3813,"is_reserved":false,"is_disabled":false,"rental_uris":{"android":"levelo://app?vid=8ca21b58-74ad-4b24-8718-44fd40a2cd88","ios":"levelo://app?vid=8ca21b58-74ad-4b24-8718-44fd40a2cd88"},"vehicle_type_id":"4","last_reported":1773323701,"current_range_meters":39200,"station_id":"ce4bh4p2rcd13ifvqe1g","pricing_plan_id":"cebpf4jnsgd1na2vs0mg"},{"bike_id":"85027943-df55-416f-9da1-ea4ca84b0bd0","system_id":"levelo_inurba_marseille","lat":43.29168,"lon":5.37164,"is_reserved":false,"is_disabled":false,"rental_uris":{"android":"levelo://app?vid=85027943-df55-416f-9da1-ea4ca84b0bd0","ios":"levelo://app?vid=85027943-df55-416f-9da1-ea4ca84b0bd0"},"vehicle_type_id":"4","last_reported":1773323701,"current_range_meters":28000,"station_id":"ce4bha92rcd13ifvqeh0","pricing_plan_id":"cebpf4jnsgd1na2vs0mg"},{"bike_id":"665ff0f7-9c34-4bed-a0c8-a90ca1b75ea6","system_id":"levelo_inurba_marseille","lat":43.25582,"lon":5.38223,"is_reserved":false,"is_disabled":false,"rental_uris":{"android":"levelo://app?vid=665ff0f7-9c34-4bed-a0c8-a90ca1b75ea6","ios":"levelo://app?vid=665ff0f7-9c34-4bed-a0c8-a90ca1b75ea6"},"vehicle_type_id":"4","last_reported":1773323701,"current_range_meters":30800,"station_id":"ce4bhih2rcd13ifvqfs0","pricing_plan_id":"cebpf4jnsgd1na2vs0mg"},{"bike_id":"d2bcd2b3-b9c0-44b8-b65e-328220c5307e","system_id":"levelo_inurba_marseille","lat":43.29116,"lon":5.43276,"is_reserved":false,"is_disabled":false,"rental_uris":{"android":"levelo://app?vid=d2bcd2b3-b9c0-44b8-b65e-328220c5307e","ios":"levelo://app?vid=d2bcd2b3-b9c0-44b8-b65e-328220c5307e"},"vehicle_type_id":"4","last_reported":1773323701,"current_range_meters":39200,"station_id":"","pricing_plan_id":"cebpf4jnsgd1na2vs0mg"},{"bike_id":"7d538e1b-80d7-4048-8273-aeb629a41021","system_id":"levelo_inurba_marseille","lat":43.33646,"lon":5.4102,"is_reserved":false,"is_disabled":false,"rental_uris":{"android":"levelo://app?vid=7d538e1b-80d7-4048-8273-aeb629a41021","ios":"levelo://app?vid=7d538e1b-80d7-4048-8273-aeb629a41021"},"vehicle_type_id":"4","last_reported":1773323701,"current_range_meters":36800,"station_id":"ce4bhqh2rcd13ifvqhmg","pricing_plan_id":"cebpf4jnsgd1na2vs0mg"},{"bike_id":"b8f4b9ea-cff0-4c69-82aa-0114c0bd8bea","system_id":"levelo_inurba_marseille","lat":43.2599,"lon":5.40802,"is_reserved":false,"is_disabled":false,"rental_uris":{"android":"levelo://app?vid=b8f4b9ea-cff0-4c69-82aa-0114c0bd8bea","ios":"levelo://app?vid=b8f4b9ea-cff0-4c69-82aa-0114c0bd8bea"},"vehicle_type_id":"4","last_reported":1773323701,"current_range_meters":29600,"station_id":"","pricing_plan_id":"cebpf4jnsgd1na2vs0mg"},{"bike_id":"a50db47c-b4f2-4a58-ae7d-0a4f7384612e","system_id":"levelo_inurba_marseille","lat":43.29982,"lon":5.37436,"is_reserved":false,"is_disabled":false,"rental_uris":{"android":"levelo://app?vid=a50db47c-b4f2-4a58-ae7d-0a4f7384612e","ios":"levelo://app?vid=a50db47c-b4f2-4a58-ae7d-0a4f7384612e"},"vehicle_type_id":"4","last_reported":1773323701,"current_range_meters":32000,"station_id":"","pricing_plan_id":"cebpf4jnsgd1na2vs0mg"},{"bike_id":"896440e6-cef8-4268-bb86-ac2c6e2de747","system_id":"levelo_inurba_marseille","lat":43.28478,"lon":5.48399,"is_reserved":false,"is_disabled":false,"rental_uris":{"android":"levelo://app?vid=896440e6-cef8-4268-bb86-ac2c6e2de747","ios":"levelo://app?vid=896440e6-cef8-4268-bb86-ac2c6e2de747"},"vehicle_type_id":"4","last_reported":1773323701,"current_range_meters":30000,"station_id":"","pricing_plan_id":"cebpf4jnsgd1na2vs0mg"},{"bike_id":"7de3d8fd-c841-4ee8-b09d-54066ad7edd2","system_id":"levelo_inurba_marseille","lat":43.28266,"lon":5.35056,"is_reserved":false,"is_disabled":false,"rental_uris":{"android":"levelo://app?vid=7de3d8fd-c841-4ee8-b09d-54066ad7edd2","ios":"levelo://app?vid=7de3d8fd-c841-4ee8-b09d-54066ad7edd2"},"vehicle_type_id":"4","last_reported":1773323701,"current_range_meters":30400,"station_id":"ce4bhbp2rcd13ifvqerg","pricing_plan_id":"cebpf4jnsgd1na2vs0mg"},{"bike_id":"c7edf450-6aa2-45f0-bd13-d0472387380d","system_id":"levelo_inurba_marseille","lat":43.30805,"lon":5.40189,"is_reserved":false,"is_disabled":false,"rental_uris":{"android":"levelo://app?vid=c7edf450-6aa2-45f0-bd13-d0472387380d","ios":"levelo://app?vid=c7edf450-6aa2-45f0-bd13-d0472387380d"},"vehicle_type_id":"4","last_reported":1773323701,"current_range_meters":36800,"station_id":"","pricing_plan_id":"cebpf4jnsgd1na2vs0mg"},{"bike_id":"2c1215f2-9624-4e50-bbbb-a53264cdd31e","system_id":"levelo_inurba_marseille","lat":43.28482,"lon":5.4839,"is_reserved":false,"is_disabled":false,"rental_uris":{"android":"levelo://app?vid=2c1215f2-9624-4e50-bbbb-a53264cdd31e","ios":"levelo://app?vid=2c1215f2-9624-4e50-bbbb-a53264cdd31e"},"vehicle_type_id":"4","last_reported":1773323701,"current_range_meters":18000,"station_id":"","pricing_plan_id":"cebpf4jnsgd1na2vs0mg"},{"bike_id":"d3021de4-6e3a-44cd-95eb-48f8bb5c9c5b","system_id":"levelo_inurba_marseille","lat":43.32473,"lon":5.38284,"is_reserved":false,"is_disabled":false,"rental_uris":{"android":"levelo://app?vid=d3021de4-6e3a-44cd-95eb-48f8bb5c9c5b","ios":"levelo://app?vid=d3021de4-6e3a-44cd-95eb-48f8bb5c9c5b"},"vehicle_type_id":"4","last_reported":1773323701,"current_range_meters":28000,"station_id":"st_d4asgbiv49dc73anf9m0","pricing_plan_id":"cebpf4jnsgd1na2vs0mg"},{"bike_id":"c1db54c2-038e-4f3d-a503-c0e3fc6c96ed","system_id":"levelo_inurba_marseille","lat":43.33554,"lon":5.37448,"is_reserved":false,"is_disabled":false,"rental_uris":{"android":"levelo://app?vid=c1db54c2-038e-4f3d-a503-c0e3fc6c96ed","ios":"levelo://app?vid=c1db54c2-038e-4f3d-a503-c0e3fc6c96ed"},"vehicle_type_id":"4","last_reported":1773323701,"current_range_meters":14000,"station_id":"st_d46tts09ee8s73dlu43g","pricing_plan_id":"cebpf4jnsgd1na2vs0mg"},{"bike_id":"a0ab89fd-d4e3-4039-8377-577b0acf001d","system_id":"levelo_inurba_marseille","lat":43.24372,"lon":5.4411,"is_reserved":false,"is_disabled":true,"rental_uris":{"android":"levelo://app?vid=a0ab89fd-d4e3-4039-8377-577b0acf001d","ios":"levelo://app?vid=a0ab89fd-d4e3-4039-8377-577b0acf001d"},"vehicle_type_id":"4","last_reported":1773323701,"current_range_meters":8400,"station_id":"","pricing_plan_id":"cebpf4jnsgd1na2vs0mg"},{"bike_id":"930ea616-6c00-4a13-8756-007cb9a9e055","system_id":"levelo_inurba_marseille","lat":43.28712,"lon":5.37925,"is_reserved":false,"is_disabled":false,"rental_uris":{"android":"levelo://app?vid=930ea616-6c00-4a13-8756-007cb9a9e055","ios":"levelo://app?vid=930ea616-6c00-4a13-8756-007cb9a9e055"},"vehicle_type_id":"4","last_reported":1773323701,"current_range_meters":20800,"station_id":"ce4bh9p2rcd13ifvqec0","pricing_plan_id":"cebpf4jnsgd1na2vs0mg"},{"bike_id":"98311f95-0c58-4b24-bcd7-12135454d120","system_id":"levelo_inurba_marseille","lat":43.29276,"lon":5.36843,"is_reserved":false,"is_disabled":false,"rental_uris":{"android":"levelo://app?vid=98311f95-0c58-4b24-bcd7-12135454d120","ios":"levelo://app?vid=98311f95-0c58-4b24-bcd7-12135454d120"},"vehicle_type_id":"4","last_reported":1773323701,"current_range_meters":28000,"station_id":"ce4bhbp2rcd13ifvqesg","pricing_plan_id":"cebpf4jnsgd1na2vs0mg"},{"bike_id":"607e26c4-ab8e-4bfd-b1d5-07a9ab72dc71","system_id":"levelo_inurba_marseille","lat":43.3058,"lon":5.3652,"is_reserved":false,"is_disabled":false,"rental_uris":{"android":"levelo://app?vid=607e26c4-ab8e-4bfd-b1d5-07a9ab72dc71","ios":"levelo://app?vid=607e26c4-ab8e-4bfd-b1d5-07a9ab72dc71"},"vehicle_type_id":"4","last_reported":1773323701,"current_range_meters":35600,"station_id":"ce4bgs12rcd13ifvqcag","pricing_plan_id":"cebpf4jnsgd1na2vs0mg"},{"bike_id":"48095d59-6ef5-49df-85b8-b58fde43fb8e","system_id":"levelo_inurba_marseille","lat":43.29049,"lon":5.359,"is_reserved":false,"is_disabled":false,"rental_uris":{"android":"levelo://app?vid=48095d59-6ef5-49df-85b8-b58fde43fb8e","ios":"levelo://app?vid=48095d59-6ef5-49df-85b8-b58fde43fb8e"},"vehicle_type_id":"4","last_reported":1773323701,"current_range_meters":39200,"station_id":"ce4bha92rcd13ifvqeg0","pricing_plan_id":"cebpf4jnsgd1na2vs0mg"},{"bike_id":"074abf32-ac3f-4657-8880-be02438a7ff0","system_id":"levelo_inurba_marseille","lat":43.23191,"lon":5.39997,"is_reserved":false,"is_disabled":false,"rental_uris":{"android":"levelo://app?vid=074abf32-ac3f-4657-8880-be02438a7ff0","ios":"levelo://app?vid=074abf32-ac3f-4657-8880-be02438a7ff0"},"vehicle_type_id":"4","last_reported":1773323701,"current_range_meters":39200,"station_id":"ce4bhn12rcd13ifvqgqg","pricing_plan_id":"cebpf4jnsgd1na2vs0mg"},{"bike_id":"99024087-35c6-4e5e-ac7e-d816c0bf3496","system_id":"levelo_inurba_marseille","lat":43.27499,"lon":5.4245,"is_reserved":false,"is_disabled":false,"rental_uris":{"android":"levelo://app?vid=99024087-35c6-4e5e-ac7e-d816c0bf3496","ios":"levelo://app?vid=99024087-35c6-4e5e-ac7e-d816c0bf3496"},"vehicle_type_id":"4","last_reported":1773323701,"current_range_meters":39200,"station_id":"ce4bhn92rcd13ifvqgrg","pricing_plan_id":"cebpf4jnsgd1na2vs0mg"},{"bike_id":"e8b7d766-9ece-4870-a1b8-5b316a1b8e67","system_id":"levelo_inurba_marseille","lat":43.22569,"lon":5.41618,"is_reserved":false,"is_disabled":false,"rental_uris":{"android":"levelo://app?vid=e8b7d766-9ece-4870-a1b8-5b316a1b8e67","ios":"levelo://app?vid=e8b7d766-9ece-4870-a1b8-5b316a1b8e67"},"vehicle_type_id":"4","last_reported":1773323701,"current_range_meters":14800,"station_id":"st_d2o4gvlbi1j2169b742g","pricing_plan_id":"cebpf4jnsgd1na2vs0mg"},{"bike_id":"d6e33741-be01-4184-a659-f0a031ff17ef","system_id":"levelo_inurba_marseille","lat":43.28224,"lon":5.39017,"is_reserved":false,"is_disabled":true,"rental_uris":{"android":"levelo://app?vid=d6e33741-be01-4184-a659-f0a031ff17ef","ios":"levelo://app?vid=d6e33741-be01-4184-a659-f0a031ff17ef"},"vehicle_type_id":"4","last_reported":1773323701,"current_range_meters":38400,"station_id":"ce4bhn92rcd13ifvqgsg","pricing_plan_id":"cebpf4jnsgd1na2vs0mg"},{"bike_id":"7fec08d5-ee68-460a-ac18-925555054430","system_id":"levelo_inurba_marseille","lat":43.26196,"lon":5.37444,"is_reserved":false,"is_disabled":false,"rental_uris":{"android":"levelo://app?vid=7fec08d5-ee68-460a-ac18-925555054430","ios":"levelo://app?vid=7fec08d5-ee68-460a-ac18-925555054430"},"vehicle_type_id":"4","last_reported":1773323701,"current_range_meters":12800,"station_id":"ce4bhgp2rcd13ifvqfc0","pricing_plan_id":"cebpf4jnsgd1na2vs0mg"},{"bike_id":"042ce79c-9ecd-4951-9599-5cd7652fcf66","system_id":"levelo_inurba_marseille","lat":43.23397,"lon":5.41232,"is_reserved":false,"is_disabled":false,"rental_uris":{"android":"levelo://app?vid=042ce79c-9ecd-4951-9599-5cd7652fcf66","ios":"levelo://app?vid=042ce79c-9ecd-4951-9599-5cd7652fcf66"},"vehicle_type_id":"4","last_reported":1773323701,"current_range_meters":9600,"station_id":"","pricing_plan_id":"cebpf4jnsgd1na2vs0mg"},{"bike_id":"7d60e954-8740-4b77-8b08-34d5244da699","system_id":"levelo_inurba_marseille","lat":43.30142,"lon":5.37405,"is_reserved":false,"is_disabled":false,"rental_uris":{"android":"levelo://app?vid=7d60e954-8740-4b77-8b08-34d5244da699","ios":"levelo://app?vid=7d60e954-8740-4b77-8b08-34d5244da699"},"vehicle_type_id":"4","last_reported":1773323701,"current_range_meters":9200,"station_id":"ce4bgs92rcd13ifvqcc0","pricing_plan_id":"cebpf4jnsgd1na2vs0mg"},{"bike_id":"e50c6797-fb66-441b-97d0-c7fbbc3eb9c6","system_id":"levelo_inurba_marseille","lat":43.31708,"lon":5.43715,"is_reserved":false,"is_disabled":false,"rental_uris":{"android":"levelo://app?vid=e50c6797-fb66-441b-97d0-c7fbbc3eb9c6","ios":"levelo://app?vid=e50c6797-fb66-441b-97d0-c7fbbc3eb9c6"},"vehicle_type_id":"4","last_reported":1773323701,"current_range_meters":26800,"station_id":"ce4bhp92rcd13ifvqhcg","pricing_plan_id":"cebpf4jnsgd1na2vs0mg"},{"bike_id":"d1fb0142-922f-4143-8813-38d811c947e9","system_id":"levelo_inurba_marseille","lat":43.29567,"lon":5.39981,"is_reserved":false,"is_disabled":false,"rental_uris":{"android":"levelo://app?vid=d1fb0142-922f-4143-8813-38d811c947e9","ios":"levelo://app?vid=d1fb0142-922f-4143-8813-38d811c947e9"},"vehicle_type_id":"4","last_reported":1773323701,"current_range_meters":35200,"station_id":"ce4bh312rcd13ifvqdj0","pricing_plan_id":"cebpf4jnsgd1na2vs0mg"},{"bike_id":"d936ee88-e6c5-41eb-94c9-c0f089a32b91","system_id":"levelo_inurba_marseille","lat":43.31189,"lon":5.37715,"is_reserved":false,"is_disabled":false,"rental_uris":{"android":"levelo://app?vid=d936ee88-e6c5-41eb-94c9-c0f089a32b91","ios":"levelo://app?vid=d936ee88-e6c5-41eb-94c9-c0f089a32b91"},"vehicle_type_id":"4","last_reported":1773323701,"current_range_meters":30000,"station_id":"","pricing_plan_id":"cebpf4jnsgd1na2vs0mg"},{"bike_id":"7801af74-40b4-43f9-8e46-17e15e38cfea","system_id":"levelo_inurba_marseille","lat":43.336141,"lon":5.410089,"is_reserved":false,"is_disabled":true,"rental_uris":{"android":"levelo://app?vid=7801af74-40b4-43f9-8e46-17e15e38cfea","ios":"levelo://app?vid=7801af74-40b4-43f9-8e46-17e15e38cfea"},"vehicle_type_id":"4","last_reported":1773323701,"current_range_meters":0,"station_id":"","pricing_plan_id":"cebpf4jnsgd1na2vs0mg"},{"bike_id":"e8badaa0-d513-4502-b39a-a15ea8302cd2","system_id":"levelo_inurba_marseille","lat":43.27523,"lon":5.42422,"is_reserved":false,"is_disabled":false,"rental_uris":{"android":"levelo://app?vid=e8badaa0-d513-4502-b39a-a15ea8302cd2","ios":"levelo://app?vid=e8badaa0-d513-4502-b39a-a15ea8302cd2"},"vehicle_type_id":"4","last_reported":1773323701,"current_range_meters":30800,"station_id":"ce4bhn92rcd13ifvqgrg","pricing_plan_id":"cebpf4jnsgd1na2vs0mg"},{"bike_id":"8d4e09f3-78ef-46f2-b861-00e9f1068815","system_id":"levelo_inurba_marseille","lat":43.32483,"lon":5.3658,"is_reserved":false,"is_disabled":false,"rental_uris":{"android":"levelo://app?vid=8d4e09f3-78ef-46f2-b861-00e9f1068815","ios":"levelo://app?vid=8d4e09f3-78ef-46f2-b861-00e9f1068815"},"vehicle_type_id":"4","last_reported":1773323701,"current_range_meters":17200,"station_id":"ce4bhs12rcd13ifvqhvg","pricing_plan_id":"cebpf4jnsgd1na2vs0mg"},{"bike_id":"7c5d90d1-8ba7-4d11-a859-9263fa5d367b","system_id":"levelo_inurba_marseille","lat":43.337444,"lon":5.374475,"is_reserved":false,"is_disabled":true,"rental_uris":{"android":"levelo://app?vid=7c5d90d1-8ba7-4d11-a859-9263fa5d367b","ios":"levelo://app?vid=7c5d90d1-8ba7-4d11-a859-9263fa5d367b"},"vehicle_type_id":"4","last_reported":1773323701,"current_range_meters":7200,"station_id":"","pricing_plan_id":"cebpf4jnsgd1na2vs0mg"},{"bike_id":"5cda9bdd-967e-484a-826a-c19bc9336072","system_id":"levelo_inurba_marseille","lat":43.29628,"lon":5.40591,"is_reserved":false,"is_disabled":false,"rental_uris":{"android":"levelo://app?vid=5cda9bdd-967e-484a-826a-c19bc9336072","ios":"levelo://app?vid=5cda9bdd-967e-484a-826a-c19bc9336072"},"vehicle_type_id":"4","last_reported":1773323701,"current_range_meters":27200,"station_id":"ce4bh0h2rcd13ifvqd60","pricing_plan_id":"cebpf4jnsgd1na2vs0mg"},{"bike_id":"54aee12d-ec42-42f4-b083-5a25c36bd147","system_id":"levelo_inurba_marseille","lat":43.28293,"lon":5.35052,"is_reserved":false,"is_disabled":false,"rental_uris":{"android":"levelo://app?vid=54aee12d-ec42-42f4-b083-5a25c36bd147","ios":"levelo://app?vid=54aee12d-ec42-42f4-b083-5a25c36bd147"},"vehicle_type_id":"4","last_reported":1773323701,"current_range_meters":17200,"station_id":"ce4bhbp2rcd13ifvqerg","pricing_plan_id":"cebpf4jnsgd1na2vs0mg"},{"bike_id":"2747c85c-374e-45b4-84a4-d941c63b9167","system_id":"levelo_inurba_marseille","lat":43.31367,"lon":5.38498,"is_reserved":false,"is_disabled":false,"rental_uris":{"android":"levelo://app?vid=2747c85c-374e-45b4-84a4-d941c63b9167","ios":"levelo://app?vid=2747c85c-374e-45b4-84a4-d941c63b9167"},"vehicle_type_id":"4","last_reported":1773323701,"current_range_meters":38400,"station_id":"ce4bgt92rcd13ifvqcf0","pricing_plan_id":"cebpf4jnsgd1na2vs0mg"},{"bike_id":"b27431d4-5a07-448c-ae86-4b30066a8d4a","system_id":"levelo_inurba_marseille","lat":43.29217,"lon":5.36018,"is_reserved":false,"is_disabled":false,"rental_uris":{"android":"levelo://app?vid=b27431d4-5a07-448c-ae86-4b30066a8d4a","ios":"levelo://app?vid=b27431d4-5a07-448c-ae86-4b30066a8d4a"},"vehicle_type_id":"4","last_reported":1773323701,"current_range_meters":38000,"station_id":"ce4bhbh2rcd13ifvqeqg","pricing_plan_id":"cebpf4jnsgd1na2vs0mg"},{"bike_id":"f62cbee2-12e5-4cdd-bfbc-04088f9f32fa","system_id":"levelo_inurba_marseille","lat":43.28475,"lon":5.48399,"is_reserved":false,"is_disabled":false,"rental_uris":{"android":"levelo://app?vid=f62cbee2-12e5-4cdd-bfbc-04088f9f32fa","ios":"levelo://app?vid=f62cbee2-12e5-4cdd-bfbc-04088f9f32fa"},"vehicle_type_id":"4","last_reported":1773323701,"current_range_meters":16400,"station_id":"","pricing_plan_id":"cebpf4jnsgd1na2vs0mg"},{"bike_id":"189d0b9d-d153-4529-b6d8-b512a602901a","system_id":"levelo_inurba_marseille","lat":43.30554,"lon":5.36491,"is_reserved":false,"is_disabled":false,"rental_uris":{"android":"levelo://app?vid=189d0b9d-d153-4529-b6d8-b512a602901a","ios":"levelo://app?vid=189d0b9d-d153-4529-b6d8-b512a602901a"},"vehicle_type_id":"4","last_reported":1773323701,"current_range_meters":29600,"station_id":"","pricing_plan_id":"cebpf4jnsgd1na2vs0mg"},{"bike_id":"19789858-1ce6-4714-be96-8a45f06c1294","system_id":"levelo_inurba_marseille","lat":43.29539,"lon":5.42272,"is_reserved":false,"is_disabled":false,"rental_uris":{"android":"levelo://app?vid=19789858-1ce6-4714-be96-8a45f06c1294","ios":"levelo://app?vid=19789858-1ce6-4714-be96-8a45f06c1294"},"vehicle_type_id":"4","last_reported":1773323701,"current_range_meters":40000,"station_id":"ce4bhph2rcd13ifvqhdg","pricing_plan_id":"cebpf4jnsgd1na2vs0mg"},{"bike_id":"681fca49-d7d0-4d64-ba5f-a1615360789c","system_id":"levelo_inurba_marseille","lat":43.25824,"lon":5.39422,"is_reserved":false,"is_disabled":false,"rental_uris":{"android":"levelo://app?vid=681fca49-d7d0-4d64-ba5f-a1615360789c","ios":"levelo://app?vid=681fca49-d7d0-4d64-ba5f-a1615360789c"},"vehicle_type_id":"4","last_reported":1773323701,"current_range_meters":32800,"station_id":"ce4bhip2rcd13ifvqft0","pricing_plan_id":"cebpf4jnsgd1na2vs0mg"},{"bike_id":"e824a880-56b7-440e-8a54-db91d8597347","system_id":"levelo_inurba_marseille","lat":43.23185,"lon":5.35572,"is_reserved":false,"is_disabled":false,"rental_uris":{"android":"levelo://app?vid=e824a880-56b7-440e-8a54-db91d8597347","ios":"levelo://app?vid=e824a880-56b7-440e-8a54-db91d8597347"},"vehicle_type_id":"4","last_reported":1773323701,"current_range_meters":16400,"station_id":"ce4bhu92rcd13ifvqi70","pricing_plan_id":"cebpf4jnsgd1na2vs0mg"},{"bike_id":"ba3a231f-10a0-4302-b0e7-08f11861cd04","system_id":"levelo_inurba_marseille","lat":43.28476,"lon":5.48392,"is_reserved":false,"is_disabled":false,"rental_uris":{"android":"levelo://app?vid=ba3a231f-10a0-4302-b0e7-08f11861cd04","ios":"levelo://app?vid=ba3a231f-10a0-4302-b0e7-08f11861cd04"},"vehicle_type_id":"4","last_reported":1773323701,"current_range_meters":36800,"station_id":"","pricing_plan_id":"cebpf4jnsgd1na2vs0mg"},{"bike_id":"2f280020-4fd0-4c35-a3e5-87e99fea2ecd","system_id":"levelo_inurba_marseille","lat":43.29608,"lon":5.37699,"is_reserved":false,"is_disabled":true,"rental_uris":{"android":"levelo://app?vid=2f280020-4fd0-4c35-a3e5-87e99fea2ecd","ios":"levelo://app?vid=2f280020-4fd0-4c35-a3e5-87e99fea2ecd"},"vehicle_type_id":"4","last_reported":1773323701,"current_range_meters":28800,"station_id":"ce4bgi92rcd13ifvqb90","pricing_plan_id":"cebpf4jnsgd1na2vs0mg"},{"bike_id":"03f09e59-d972-46d2-824d-098cfbd29613","system_id":"levelo_inurba_marseille","lat":43.27219,"lon":5.39151,"is_reserved":false,"is_disabled":false,"rental_uris":{"android":"levelo://app?vid=03f09e59-d972-46d2-824d-098cfbd29613","ios":"levelo://app?vid=03f09e59-d972-46d2-824d-098cfbd29613"},"vehicle_type_id":"4","last_reported":1773323701,"current_range_meters":27200,"station_id":"ce4bhhp2rcd13ifvqfm0","pricing_plan_id":"cebpf4jnsgd1na2vs0mg"},{"bike_id":"be671c5b-fb45-47d4-8232-4da9e39592ca","system_id":"levelo_inurba_marseille","lat":43.26207,"lon":5.37433,"is_reserved":false,"is_disabled":false,"rental_uris":{"android":"levelo://app?vid=be671c5b-fb45-47d4-8232-4da9e39592ca","ios":"levelo://app?vid=be671c5b-fb45-47d4-8232-4da9e39592ca"},"vehicle_type_id":"4","last_reported":1773323701,"current_range_meters":16800,"station_id":"ce4bhgp2rcd13ifvqfc0","pricing_plan_id":"cebpf4jnsgd1na2vs0mg"},{"bike_id":"352c9f7d-89b4-42e5-9e2e-76d972a274bd","system_id":"levelo_inurba_marseille","lat":43.28901,"lon":5.43248,"is_reserved":false,"is_disabled":false,"rental_uris":{"android":"levelo://app?vid=352c9f7d-89b4-42e5-9e2e-76d972a274bd","ios":"levelo://app?vid=352c9f7d-89b4-42e5-9e2e-76d972a274bd"},"vehicle_type_id":"4","last_reported":1773323701,"current_range_meters":7200,"station_id":"","pricing_plan_id":"cebpf4jnsgd1na2vs0mg"},{"bike_id":"770b4d76-4606-48de-965d-2fca1615dcdd","system_id":"levelo_inurba_marseille","lat":43.3354,"lon":5.41165,"is_reserved":false,"is_disabled":false,"rental_uris":{"android":"levelo://app?vid=770b4d76-4606-48de-965d-2fca1615dcdd","ios":"levelo://app?vid=770b4d76-4606-48de-965d-2fca1615dcdd"},"vehicle_type_id":"4","last_reported":1773323701,"current_range_meters":36800,"station_id":"ce4bhqh2rcd13ifvqhmg","pricing_plan_id":"cebpf4jnsgd1na2vs0mg"},{"bike_id":"0dd89ec4-0d2e-4df7-a3b5-779fd740a555","system_id":"levelo_inurba_marseille","lat":43.2959,"lon":5.38082,"is_reserved":false,"is_disabled":true,"rental_uris":{"android":"levelo://app?vid=0dd89ec4-0d2e-4df7-a3b5-779fd740a555","ios":"levelo://app?vid=0dd89ec4-0d2e-4df7-a3b5-779fd740a555"},"vehicle_type_id":"4","last_reported":1773323701,"current_range_meters":0,"station_id":"ce4bgl12rcd13ifvqbo0","pricing_plan_id":"cebpf4jnsgd1na2vs0mg"},{"bike_id":"c59a5209-1b70-42df-8250-859beecf23e1","system_id":"levelo_inurba_marseille","lat":43.23195,"lon":5.35543,"is_reserved":false,"is_disabled":false,"rental_uris":{"android":"levelo://app?vid=c59a5209-1b70-42df-8250-859beecf23e1","ios":"levelo://app?vid=c59a5209-1b70-42df-8250-859beecf23e1"},"vehicle_type_id":"4","last_reported":1773323701,"current_range_meters":35600,"station_id":"ce4bhu92rcd13ifvqi70","pricing_plan_id":"cebpf4jnsgd1na2vs0mg"},{"bike_id":"7b8622cc-88aa-410b-a2e9-d82d79a17652","system_id":"levelo_inurba_marseille","lat":43.29275,"lon":5.37627,"is_reserved":false,"is_disabled":false,"rental_uris":{"android":"levelo://app?vid=7b8622cc-88aa-410b-a2e9-d82d79a17652","ios":"levelo://app?vid=7b8622cc-88aa-410b-a2e9-d82d79a17652"},"vehicle_type_id":"4","last_reported":1773323701,"current_range_meters":14800,"station_id":"ce4bgi12rcd13ifvqb80","pricing_plan_id":"cebpf4jnsgd1na2vs0mg"},{"bike_id":"fed428a6-a508-4132-94d7-783075e10fe3","system_id":"levelo_inurba_marseille","lat":43.32358,"lon":5.36737,"is_reserved":false,"is_disabled":false,"rental_uris":{"android":"levelo://app?vid=fed428a6-a508-4132-94d7-783075e10fe3","ios":"levelo://app?vid=fed428a6-a508-4132-94d7-783075e10fe3"},"vehicle_type_id":"4","last_reported":1773323701,"current_range_meters":31200,"station_id":"ce4bhsh2rcd13ifvqi2g","pricing_plan_id":"cebpf4jnsgd1na2vs0mg"},{"bike_id":"6d613a8c-5dd4-4c60-a497-f30cd6c62a42","system_id":"levelo_inurba_marseille","lat":43.26934,"lon":5.38903,"is_reserved":false,"is_disabled":false,"rental_uris":{"android":"levelo://app?vid=6d613a8c-5dd4-4c60-a497-f30cd6c62a42","ios":"levelo://app?vid=6d613a8c-5dd4-4c60-a497-f30cd6c62a42"},"vehicle_type_id":"4","last_reported":1773323701,"current_range_meters":38000,"station_id":"ce4bhhh2rcd13ifvqfl0","pricing_plan_id":"cebpf4jnsgd1na2vs0mg"},{"bike_id":"016ab96f-ed46-4703-9034-3e2855b0c3e3","system_id":"levelo_inurba_marseille","lat":43.27319,"lon":5.39096,"is_reserved":false,"is_disabled":false,"rental_uris":{"android":"levelo://app?vid=016ab96f-ed46-4703-9034-3e2855b0c3e3","ios":"levelo://app?vid=016ab96f-ed46-4703-9034-3e2855b0c3e3"},"vehicle_type_id":"4","last_reported":1773323701,"current_range_meters":23200,"station_id":"ce4bhgp2rcd13ifvqfe0","pricing_plan_id":"cebpf4jnsgd1na2vs0mg"},{"bike_id":"1927e9b2-b07e-46ab-979b-24795223d997","system_id":"levelo_inurba_marseille","lat":43.27972,"lon":5.38742,"is_reserved":false,"is_disabled":false,"rental_uris":{"android":"levelo://app?vid=1927e9b2-b07e-46ab-979b-24795223d997","ios":"levelo://app?vid=1927e9b2-b07e-46ab-979b-24795223d997"},"vehicle_type_id":"4","last_reported":1773323701,"current_range_meters":24400,"station_id":"ce4bhg12rcd13ifvqf80","pricing_plan_id":"cebpf4jnsgd1na2vs0mg"},{"bike_id":"e55c52e9-43cb-4f3d-ab3b-c275a0e2d597","system_id":"levelo_inurba_marseille","lat":43.30544,"lon":5.36512,"is_reserved":false,"is_disabled":false,"rental_uris":{"android":"levelo://app?vid=e55c52e9-43cb-4f3d-ab3b-c275a0e2d597","ios":"levelo://app?vid=e55c52e9-43cb-4f3d-ab3b-c275a0e2d597"},"vehicle_type_id":"4","last_reported":1773323701,"current_range_meters":24400,"station_id":"ce4bgs12rcd13ifvqcag","pricing_plan_id":"cebpf4jnsgd1na2vs0mg"},{"bike_id":"a6308c57-1a36-41de-bb48-5ab4640b043f","system_id":"levelo_inurba_marseille","lat":43.296,"lon":5.3672,"is_reserved":false,"is_disabled":false,"rental_uris":{"android":"levelo://app?vid=a6308c57-1a36-41de-bb48-5ab4640b043f","ios":"levelo://app?vid=a6308c57-1a36-41de-bb48-5ab4640b043f"},"vehicle_type_id":"4","last_reported":1773323701,"current_range_meters":23200,"station_id":"ce4bgph2rcd13ifvqc2g","pricing_plan_id":"cebpf4jnsgd1na2vs0mg"},{"bike_id":"035b30d5-a74b-4e35-8731-fb649d854586","system_id":"levelo_inurba_marseille","lat":43.29217,"lon":5.36052,"is_reserved":false,"is_disabled":false,"rental_uris":{"android":"levelo://app?vid=035b30d5-a74b-4e35-8731-fb649d854586","ios":"levelo://app?vid=035b30d5-a74b-4e35-8731-fb649d854586"},"vehicle_type_id":"4","last_reported":1773323701,"current_range_meters":25600,"station_id":"ce4bhbh2rcd13ifvqeqg","pricing_plan_id":"cebpf4jnsgd1na2vs0mg"},{"bike_id":"e8e891cf-164b-4375-8667-e5eaa1ef09df","system_id":"levelo_inurba_marseille","lat":43.31768,"lon":5.3901,"is_reserved":false,"is_disabled":false,"rental_uris":{"android":"levelo://app?vid=e8e891cf-164b-4375-8667-e5eaa1ef09df","ios":"levelo://app?vid=e8e891cf-164b-4375-8667-e5eaa1ef09df"},"vehicle_type_id":"4","last_reported":1773323701,"current_range_meters":35200,"station_id":"ce4bhqp2rcd13ifvqhng","pricing_plan_id":"cebpf4jnsgd1na2vs0mg"},{"bike_id":"77044ba6-284b-43f3-8fd5-1abc415f09db","system_id":"levelo_inurba_marseille","lat":43.25579,"lon":5.38236,"is_reserved":false,"is_disabled":false,"rental_uris":{"android":"levelo://app?vid=77044ba6-284b-43f3-8fd5-1abc415f09db","ios":"levelo://app?vid=77044ba6-284b-43f3-8fd5-1abc415f09db"},"vehicle_type_id":"4","last_reported":1773323701,"current_range_meters":37600,"station_id":"ce4bhih2rcd13ifvqfs0","pricing_plan_id":"cebpf4jnsgd1na2vs0mg"},{"bike_id":"a540b441-3928-4042-84dc-78cbd8de6fd0","system_id":"levelo_inurba_marseille","lat":43.24414,"lon":5.37039,"is_reserved":false,"is_disabled":false,"rental_uris":{"android":"levelo://app?vid=a540b441-3928-4042-84dc-78cbd8de6fd0","ios":"levelo://app?vid=a540b441-3928-4042-84dc-78cbd8de6fd0"},"vehicle_type_id":"4","last_reported":1773323701,"current_range_meters":30400,"station_id":"ce4bhhh2rcd13ifvqfk0","pricing_plan_id":"cebpf4jnsgd1na2vs0mg"},{"bike_id":"b2a69c97-4339-4083-90d9-b3414ae4bb10","system_id":"levelo_inurba_marseille","lat":43.31488,"lon":5.373115,"is_reserved":false,"is_disabled":false,"rental_uris":{"android":"levelo://app?vid=b2a69c97-4339-4083-90d9-b3414ae4bb10","ios":"levelo://app?vid=b2a69c97-4339-4083-90d9-b3414ae4bb10"},"vehicle_type_id":"4","last_reported":1773323701,"current_range_meters":38800,"station_id":"ce4bgt12rcd13ifvqcd0","pricing_plan_id":"cebpf4jnsgd1na2vs0mg"},{"bike_id":"32bd028c-4df1-4648-ba2a-263dd3d46a56","system_id":"levelo_inurba_marseille","lat":43.27685,"lon":5.38896,"is_reserved":false,"is_disabled":false,"rental_uris":{"android":"levelo://app?vid=32bd028c-4df1-4648-ba2a-263dd3d46a56","ios":"levelo://app?vid=32bd028c-4df1-4648-ba2a-263dd3d46a56"},"vehicle_type_id":"4","last_reported":1773323701,"current_range_meters":38800,"station_id":"ce4bhi12rcd13ifvqfo0","pricing_plan_id":"cebpf4jnsgd1na2vs0mg"},{"bike_id":"672d863a-85dc-48f1-9d52-795e08c77044","system_id":"levelo_inurba_marseille","lat":43.29268,"lon":5.384395,"is_reserved":false,"is_disabled":false,"rental_uris":{"android":"levelo://app?vid=672d863a-85dc-48f1-9d52-795e08c77044","ios":"levelo://app?vid=672d863a-85dc-48f1-9d52-795e08c77044"},"vehicle_type_id":"4","last_reported":1773323701,"current_range_meters":24800,"station_id":"","pricing_plan_id":"cebpf4jnsgd1na2vs0mg"},{"bike_id":"e7931f5b-9389-4b5a-bfc0-66c0cd246d9e","system_id":"levelo_inurba_marseille","lat":43.29769,"lon":5.37094,"is_reserved":false,"is_disabled":false,"rental_uris":{"android":"levelo://app?vid=e7931f5b-9389-4b5a-bfc0-66c0cd246d9e","ios":"levelo://app?vid=e7931f5b-9389-4b5a-bfc0-66c0cd246d9e"},"vehicle_type_id":"4","last_reported":1773323701,"current_range_meters":22000,"station_id":"ce4bgop2rcd13ifvqc1g","pricing_plan_id":"cebpf4jnsgd1na2vs0mg"},{"bike_id":"4d9955e1-63cd-4eb1-84d6-f2acfdd55e89","system_id":"levelo_inurba_marseille","lat":43.28416,"lon":5.34988,"is_reserved":false,"is_disabled":false,"rental_uris":{"android":"levelo://app?vid=4d9955e1-63cd-4eb1-84d6-f2acfdd55e89","ios":"levelo://app?vid=4d9955e1-63cd-4eb1-84d6-f2acfdd55e89"},"vehicle_type_id":"4","last_reported":1773323701,"current_range_meters":14800,"station_id":"ce4bhbh2rcd13ifvqepg","pricing_plan_id":"cebpf4jnsgd1na2vs0mg"},{"bike_id":"eb7402b0-d2c7-4043-aa11-cd75870274a3","system_id":"levelo_inurba_marseille","lat":43.2681,"lon":5.40276,"is_reserved":false,"is_disabled":false,"rental_uris":{"android":"levelo://app?vid=eb7402b0-d2c7-4043-aa11-cd75870274a3","ios":"levelo://app?vid=eb7402b0-d2c7-4043-aa11-cd75870274a3"},"vehicle_type_id":"4","last_reported":1773323701,"current_range_meters":26000,"station_id":"ce501612rcd8frsf0b60","pricing_plan_id":"cebpf4jnsgd1na2vs0mg"},{"bike_id":"0fd5312c-f8ec-4035-a155-168eb8feb6fe","system_id":"levelo_inurba_marseille","lat":43.24551,"lon":5.39522,"is_reserved":false,"is_disabled":false,"rental_uris":{"android":"levelo://app?vid=0fd5312c-f8ec-4035-a155-168eb8feb6fe","ios":"levelo://app?vid=0fd5312c-f8ec-4035-a155-168eb8feb6fe"},"vehicle_type_id":"4","last_reported":1773323701,"current_range_meters":38400,"station_id":"ce4bhlp2rcd13ifvqgjg","pricing_plan_id":"cebpf4jnsgd1na2vs0mg"},{"bike_id":"d70e7c8d-7228-4bba-bc24-c8ffa4cc6c2a","system_id":"levelo_inurba_marseille","lat":43.24385,"lon":5.37963,"is_reserved":false,"is_disabled":false,"rental_uris":{"android":"levelo://app?vid=d70e7c8d-7228-4bba-bc24-c8ffa4cc6c2a","ios":"levelo://app?vid=d70e7c8d-7228-4bba-bc24-c8ffa4cc6c2a"},"vehicle_type_id":"4","last_reported":1773323701,"current_range_meters":19200,"station_id":"","pricing_plan_id":"cebpf4jnsgd1na2vs0mg"},{"bike_id":"d551195e-f5b0-490f-bac9-9dae68d902a4","system_id":"levelo_inurba_marseille","lat":43.21754,"lon":5.34579,"is_reserved":false,"is_disabled":false,"rental_uris":{"android":"levelo://app?vid=d551195e-f5b0-490f-bac9-9dae68d902a4","ios":"levelo://app?vid=d551195e-f5b0-490f-bac9-9dae68d902a4"},"vehicle_type_id":"4","last_reported":1773323701,"current_range_meters":33200,"station_id":"st_cvj6r9ubvosntc0bgbag","pricing_plan_id":"cebpf4jnsgd1na2vs0mg"},{"bike_id":"17092a17-ecc2-4869-9543-a7b9eb4bf6ef","system_id":"levelo_inurba_marseille","lat":43.21191,"lon":5.35073,"is_reserved":false,"is_disabled":false,"rental_uris":{"android":"levelo://app?vid=17092a17-ecc2-4869-9543-a7b9eb4bf6ef","ios":"levelo://app?vid=17092a17-ecc2-4869-9543-a7b9eb4bf6ef"},"vehicle_type_id":"4","last_reported":1773323701,"current_range_meters":12000,"station_id":"st_cvj6sg6p6f1abm77japg","pricing_plan_id":"cebpf4jnsgd1na2vs0mg"},{"bike_id":"0a2f9b28-6219-4106-b011-3026133a767c","system_id":"levelo_inurba_marseille","lat":43.29562,"lon":5.38137,"is_reserved":false,"is_disabled":true,"rental_uris":{"android":"levelo://app?vid=0a2f9b28-6219-4106-b011-3026133a767c","ios":"levelo://app?vid=0a2f9b28-6219-4106-b011-3026133a767c"},"vehicle_type_id":"4","last_reported":1773323701,"current_range_meters":34000,"station_id":"ce4bgl12rcd13ifvqbo0","pricing_plan_id":"cebpf4jnsgd1na2vs0mg"},{"bike_id":"de9f5ea3-1c64-41f7-966d-7a991e6dbd13","system_id":"levelo_inurba_marseille","lat":43.30382,"lon":5.42479,"is_reserved":false,"is_disabled":false,"rental_uris":{"android":"levelo://app?vid=de9f5ea3-1c64-41f7-966d-7a991e6dbd13","ios":"levelo://app?vid=de9f5ea3-1c64-41f7-966d-7a991e6dbd13"},"vehicle_type_id":"4","last_reported":1773323701,"current_range_meters":29600,"station_id":"ce4bhoh2rcd13ifvqh6g","pricing_plan_id":"cebpf4jnsgd1na2vs0mg"},{"bike_id":"72407e16-e36a-469f-a6bf-4e6c142e8810","system_id":"levelo_inurba_marseille","lat":43.27487,"lon":5.42465,"is_reserved":false,"is_disabled":false,"rental_uris":{"android":"levelo://app?vid=72407e16-e36a-469f-a6bf-4e6c142e8810","ios":"levelo://app?vid=72407e16-e36a-469f-a6bf-4e6c142e8810"},"vehicle_type_id":"4","last_reported":1773323701,"current_range_meters":36400,"station_id":"ce4bhn92rcd13ifvqgrg","pricing_plan_id":"cebpf4jnsgd1na2vs0mg"},{"bike_id":"500493ac-2647-42dd-9494-cc16e913d247","system_id":"levelo_inurba_marseille","lat":43.27844,"lon":5.39212,"is_reserved":false,"is_disabled":false,"rental_uris":{"android":"levelo://app?vid=500493ac-2647-42dd-9494-cc16e913d247","ios":"levelo://app?vid=500493ac-2647-42dd-9494-cc16e913d247"},"vehicle_type_id":"4","last_reported":1773323701,"current_range_meters":4800,"station_id":"ce4bhjp2rcd13ifvqga0","pricing_plan_id":"cebpf4jnsgd1na2vs0mg"},{"bike_id":"bf68a59d-5a4d-4deb-95b3-2c3f3536f407","system_id":"levelo_inurba_marseille","lat":43.29792,"lon":5.38094,"is_reserved":false,"is_disabled":false,"rental_uris":{"android":"levelo://app?vid=bf68a59d-5a4d-4deb-95b3-2c3f3536f407","ios":"levelo://app?vid=bf68a59d-5a4d-4deb-95b3-2c3f3536f407"},"vehicle_type_id":"4","last_reported":1773323701,"current_range_meters":16800,"station_id":"ce4bgip2rcd13ifvqbb0","pricing_plan_id":"cebpf4jnsgd1na2vs0mg"},{"bike_id":"c73dc152-9938-46ce-972e-77003c30697b","system_id":"levelo_inurba_marseille","lat":43.25848,"lon":5.39408,"is_reserved":false,"is_disabled":false,"rental_uris":{"android":"levelo://app?vid=c73dc152-9938-46ce-972e-77003c30697b","ios":"levelo://app?vid=c73dc152-9938-46ce-972e-77003c30697b"},"vehicle_type_id":"4","last_reported":1773323701,"current_range_meters":36800,"station_id":"ce4bhip2rcd13ifvqft0","pricing_plan_id":"cebpf4jnsgd1na2vs0mg"},{"bike_id":"e17b8e76-0f76-40aa-a687-3f87eeadab84","system_id":"levelo_inurba_marseille","lat":43.26798,"lon":5.40254,"is_reserved":false,"is_disabled":false,"rental_uris":{"android":"levelo://app?vid=e17b8e76-0f76-40aa-a687-3f87eeadab84","ios":"levelo://app?vid=e17b8e76-0f76-40aa-a687-3f87eeadab84"},"vehicle_type_id":"4","last_reported":1773323701,"current_range_meters":32000,"station_id":"ce501612rcd8frsf0b60","pricing_plan_id":"cebpf4jnsgd1na2vs0mg"},{"bike_id":"e58a0337-ccee-4dc0-b528-1696aeec6127","system_id":"levelo_inurba_marseille","lat":43.27842,"lon":5.39195,"is_reserved":false,"is_disabled":false,"rental_uris":{"android":"levelo://app?vid=e58a0337-ccee-4dc0-b528-1696aeec6127","ios":"levelo://app?vid=e58a0337-ccee-4dc0-b528-1696aeec6127"},"vehicle_type_id":"4","last_reported":1773323701,"current_range_meters":38800,"station_id":"ce4bhjp2rcd13ifvqga0","pricing_plan_id":"cebpf4jnsgd1na2vs0mg"},{"bike_id":"a975d39d-4a14-4e0c-8235-9aa6495c9757","system_id":"levelo_inurba_marseille","lat":43.27415,"lon":5.42475,"is_reserved":false,"is_disabled":true,"rental_uris":{"android":"levelo://app?vid=a975d39d-4a14-4e0c-8235-9aa6495c9757","ios":"levelo://app?vid=a975d39d-4a14-4e0c-8235-9aa6495c9757"},"vehicle_type_id":"4","last_reported":1773323701,"current_range_meters":30000,"station_id":"","pricing_plan_id":"cebpf4jnsgd1na2vs0mg"},{"bike_id":"42c23f21-e078-4684-bab5-a30fd2bf0118","system_id":"levelo_inurba_marseille","lat":43.29721,"lon":5.37705,"is_reserved":false,"is_disabled":true,"rental_uris":{"android":"levelo://app?vid=42c23f21-e078-4684-bab5-a30fd2bf0118","ios":"levelo://app?vid=42c23f21-e078-4684-bab5-a30fd2bf0118"},"vehicle_type_id":"4","last_reported":1773323701,"current_range_meters":39200,"station_id":"ce4bgkh2rcd13ifvqbl0","pricing_plan_id":"cebpf4jnsgd1na2vs0mg"},{"bike_id":"1148854b-3377-4e91-ae8d-323db33734cc","system_id":"levelo_inurba_marseille","lat":43.29018,"lon":5.38123,"is_reserved":false,"is_disabled":false,"rental_uris":{"android":"levelo://app?vid=1148854b-3377-4e91-ae8d-323db33734cc","ios":"levelo://app?vid=1148854b-3377-4e91-ae8d-323db33734cc"},"vehicle_type_id":"4","last_reported":1773323701,"current_range_meters":18800,"station_id":"ce4bh4p2rcd13ifvqe1g","pricing_plan_id":"cebpf4jnsgd1na2vs0mg"},{"bike_id":"bee871d3-07ca-4830-9795-16242e3d8f72","system_id":"levelo_inurba_marseille","lat":43.27502,"lon":5.42465,"is_reserved":false,"is_disabled":false,"rental_uris":{"android":"levelo://app?vid=bee871d3-07ca-4830-9795-16242e3d8f72","ios":"levelo://app?vid=bee871d3-07ca-4830-9795-16242e3d8f72"},"vehicle_type_id":"4","last_reported":1773323701,"current_range_meters":33200,"station_id":"ce4bhn92rcd13ifvqgrg","pricing_plan_id":"cebpf4jnsgd1na2vs0mg"},{"bike_id":"648ef0c3-dc3d-4c0b-a0fa-86816163a300","system_id":"levelo_inurba_marseille","lat":43.25008,"lon":5.38928,"is_reserved":false,"is_disabled":false,"rental_uris":{"android":"levelo://app?vid=648ef0c3-dc3d-4c0b-a0fa-86816163a300","ios":"levelo://app?vid=648ef0c3-dc3d-4c0b-a0fa-86816163a300"},"vehicle_type_id":"4","last_reported":1773323701,"current_range_meters":39200,"station_id":"ce4bhgp2rcd13ifvqfd0","pricing_plan_id":"cebpf4jnsgd1na2vs0mg"},{"bike_id":"b7baf039-eccc-470e-b14a-764f2206b215","system_id":"levelo_inurba_marseille","lat":43.32033,"lon":5.41569,"is_reserved":false,"is_disabled":false,"rental_uris":{"android":"levelo://app?vid=b7baf039-eccc-470e-b14a-764f2206b215","ios":"levelo://app?vid=b7baf039-eccc-470e-b14a-764f2206b215"},"vehicle_type_id":"4","last_reported":1773323701,"current_range_meters":38000,"station_id":"ce4bhq92rcd13ifvqhkg","pricing_plan_id":"cebpf4jnsgd1na2vs0mg"},{"bike_id":"8353becb-09ec-45b5-a24b-8f6218c436aa","system_id":"levelo_inurba_marseille","lat":43.24152,"lon":5.39671,"is_reserved":false,"is_disabled":true,"rental_uris":{"android":"levelo://app?vid=8353becb-09ec-45b5-a24b-8f6218c436aa","ios":"levelo://app?vid=8353becb-09ec-45b5-a24b-8f6218c436aa"},"vehicle_type_id":"4","last_reported":1773323701,"current_range_meters":7200,"station_id":"ce4bhn12rcd13ifvqgpg","pricing_plan_id":"cebpf4jnsgd1na2vs0mg"},{"bike_id":"e99c9edd-3050-4618-8d36-cd73b8428723","system_id":"levelo_inurba_marseille","lat":43.3415,"lon":5.40908,"is_reserved":false,"is_disabled":false,"rental_uris":{"android":"levelo://app?vid=e99c9edd-3050-4618-8d36-cd73b8428723","ios":"levelo://app?vid=e99c9edd-3050-4618-8d36-cd73b8428723"},"vehicle_type_id":"4","last_reported":1773323701,"current_range_meters":38000,"station_id":"ce4bhqh2rcd13ifvqhlg","pricing_plan_id":"cebpf4jnsgd1na2vs0mg"},{"bike_id":"54bf9eed-4ee5-4a7a-8e08-f054363abff2","system_id":"levelo_inurba_marseille","lat":43.23154,"lon":5.43709,"is_reserved":false,"is_disabled":false,"rental_uris":{"android":"levelo://app?vid=54bf9eed-4ee5-4a7a-8e08-f054363abff2","ios":"levelo://app?vid=54bf9eed-4ee5-4a7a-8e08-f054363abff2"},"vehicle_type_id":"4","last_reported":1773323701,"current_range_meters":20000,"station_id":"ce4bhmp2rcd13ifvqgog","pricing_plan_id":"cebpf4jnsgd1na2vs0mg"},{"bike_id":"eaea9a02-90be-4a9f-b6d8-28175064e3dd","system_id":"levelo_inurba_marseille","lat":43.27416,"lon":5.39422,"is_reserved":false,"is_disabled":false,"rental_uris":{"android":"levelo://app?vid=eaea9a02-90be-4a9f-b6d8-28175064e3dd","ios":"levelo://app?vid=eaea9a02-90be-4a9f-b6d8-28175064e3dd"},"vehicle_type_id":"4","last_reported":1773323701,"current_range_meters":39200,"station_id":"ce4bhdp2rcd13ifvqf20","pricing_plan_id":"cebpf4jnsgd1na2vs0mg"},{"bike_id":"22851193-2dc4-42f2-8eb5-e7d0f3df0f19","system_id":"levelo_inurba_marseille","lat":43.25724,"lon":5.41096,"is_reserved":false,"is_disabled":false,"rental_uris":{"android":"levelo://app?vid=22851193-2dc4-42f2-8eb5-e7d0f3df0f19","ios":"levelo://app?vid=22851193-2dc4-42f2-8eb5-e7d0f3df0f19"},"vehicle_type_id":"4","last_reported":1773323701,"current_range_meters":33200,"station_id":"ce4bhkp2rcd13ifvqgd0","pricing_plan_id":"cebpf4jnsgd1na2vs0mg"},{"bike_id":"32ac5d0e-ae28-4478-ad22-93086f84b7a9","system_id":"levelo_inurba_marseille","lat":43.28408,"lon":5.34993,"is_reserved":false,"is_disabled":false,"rental_uris":{"android":"levelo://app?vid=32ac5d0e-ae28-4478-ad22-93086f84b7a9","ios":"levelo://app?vid=32ac5d0e-ae28-4478-ad22-93086f84b7a9"},"vehicle_type_id":"4","last_reported":1773323701,"current_range_meters":17200,"station_id":"ce4bhbh2rcd13ifvqepg","pricing_plan_id":"cebpf4jnsgd1na2vs0mg"},{"bike_id":"a63d22a1-9803-47da-97c5-9eb5069b8019","system_id":"levelo_inurba_marseille","lat":43.2583,"lon":5.39444,"is_reserved":false,"is_disabled":false,"rental_uris":{"android":"levelo://app?vid=a63d22a1-9803-47da-97c5-9eb5069b8019","ios":"levelo://app?vid=a63d22a1-9803-47da-97c5-9eb5069b8019"},"vehicle_type_id":"4","last_reported":1773323701,"current_range_meters":36800,"station_id":"ce4bhip2rcd13ifvqft0","pricing_plan_id":"cebpf4jnsgd1na2vs0mg"},{"bike_id":"214d589e-9fbf-460b-9f35-0a59f4813b59","system_id":"levelo_inurba_marseille","lat":43.27374,"lon":5.36252,"is_reserved":false,"is_disabled":false,"rental_uris":{"android":"levelo://app?vid=214d589e-9fbf-460b-9f35-0a59f4813b59","ios":"levelo://app?vid=214d589e-9fbf-460b-9f35-0a59f4813b59"},"vehicle_type_id":"4","last_reported":1773323701,"current_range_meters":33600,"station_id":"ce4bhbh2rcd13ifvqeo0","pricing_plan_id":"cebpf4jnsgd1na2vs0mg"},{"bike_id":"712f73a5-ccbd-4df8-a2bf-f8199628c205","system_id":"levelo_inurba_marseille","lat":43.25937,"lon":5.40897,"is_reserved":false,"is_disabled":false,"rental_uris":{"android":"levelo://app?vid=712f73a5-ccbd-4df8-a2bf-f8199628c205","ios":"levelo://app?vid=712f73a5-ccbd-4df8-a2bf-f8199628c205"},"vehicle_type_id":"4","last_reported":1773323701,"current_range_meters":39200,"station_id":"ce4bhm92rcd13ifvqglg","pricing_plan_id":"cebpf4jnsgd1na2vs0mg"},{"bike_id":"83cfba9f-efeb-47ab-979a-b88615e72865","system_id":"levelo_inurba_marseille","lat":43.27201,"lon":5.3917,"is_reserved":false,"is_disabled":false,"rental_uris":{"android":"levelo://app?vid=83cfba9f-efeb-47ab-979a-b88615e72865","ios":"levelo://app?vid=83cfba9f-efeb-47ab-979a-b88615e72865"},"vehicle_type_id":"4","last_reported":1773323701,"current_range_meters":39200,"station_id":"ce4bhhp2rcd13ifvqfm0","pricing_plan_id":"cebpf4jnsgd1na2vs0mg"},{"bike_id":"8b2e521b-1101-44fe-9d4a-0344f080c81c","system_id":"levelo_inurba_marseille","lat":43.28479,"lon":5.48401,"is_reserved":false,"is_disabled":false,"rental_uris":{"android":"levelo://app?vid=8b2e521b-1101-44fe-9d4a-0344f080c81c","ios":"levelo://app?vid=8b2e521b-1101-44fe-9d4a-0344f080c81c"},"vehicle_type_id":"4","last_reported":1773323701,"current_range_meters":33200,"station_id":"","pricing_plan_id":"cebpf4jnsgd1na2vs0mg"},{"bike_id":"7814c3e3-4ac3-4b10-8dfa-88d309b2e93b","system_id":"levelo_inurba_marseille","lat":43.2679,"lon":5.39397,"is_reserved":false,"is_disabled":false,"rental_uris":{"android":"levelo://app?vid=7814c3e3-4ac3-4b10-8dfa-88d309b2e93b","ios":"levelo://app?vid=7814c3e3-4ac3-4b10-8dfa-88d309b2e93b"},"vehicle_type_id":"4","last_reported":1773323701,"current_range_meters":39200,"station_id":"ce4bhh12rcd13ifvqfg0","pricing_plan_id":"cebpf4jnsgd1na2vs0mg"},{"bike_id":"2d0fe126-58cc-44cf-add9-20297236455a","system_id":"levelo_inurba_marseille","lat":43.30935,"lon":5.40143,"is_reserved":false,"is_disabled":false,"rental_uris":{"android":"levelo://app?vid=2d0fe126-58cc-44cf-add9-20297236455a","ios":"levelo://app?vid=2d0fe126-58cc-44cf-add9-20297236455a"},"vehicle_type_id":"4","last_reported":1773323701,"current_range_meters":26000,"station_id":"ce4bgvp2rcd13ifvqct0","pricing_plan_id":"cebpf4jnsgd1na2vs0mg"},{"bike_id":"2bdb709a-2e89-4b8c-80ee-9c5ba134d8bd","system_id":"levelo_inurba_marseille","lat":43.24474,"lon":5.42534,"is_reserved":false,"is_disabled":false,"rental_uris":{"android":"levelo://app?vid=2bdb709a-2e89-4b8c-80ee-9c5ba134d8bd","ios":"levelo://app?vid=2bdb709a-2e89-4b8c-80ee-9c5ba134d8bd"},"vehicle_type_id":"4","last_reported":1773323701,"current_range_meters":31200,"station_id":"st_d4a3vfp97mjs738cd8kg","pricing_plan_id":"cebpf4jnsgd1na2vs0mg"},{"bike_id":"b25d2da3-e55a-45fd-ac7e-cf696fba5f30","system_id":"levelo_inurba_marseille","lat":43.2751,"lon":5.42456,"is_reserved":false,"is_disabled":false,"rental_uris":{"android":"levelo://app?vid=b25d2da3-e55a-45fd-ac7e-cf696fba5f30","ios":"levelo://app?vid=b25d2da3-e55a-45fd-ac7e-cf696fba5f30"},"vehicle_type_id":"4","last_reported":1773323701,"current_range_meters":3200,"station_id":"ce4bhn92rcd13ifvqgrg","pricing_plan_id":"cebpf4jnsgd1na2vs0mg"},{"bike_id":"279b31e6-f012-4d9c-a7c8-086a36e72b5f","system_id":"levelo_inurba_marseille","lat":43.29544,"lon":5.38547,"is_reserved":false,"is_disabled":true,"rental_uris":{"android":"levelo://app?vid=279b31e6-f012-4d9c-a7c8-086a36e72b5f","ios":"levelo://app?vid=279b31e6-f012-4d9c-a7c8-086a36e72b5f"},"vehicle_type_id":"4","last_reported":1773323701,"current_range_meters":19600,"station_id":"ce4bgih2rcd13ifvqba0","pricing_plan_id":"cebpf4jnsgd1na2vs0mg"},{"bike_id":"98d1559e-d2bf-470b-aa3b-e89fc9e63aa5","system_id":"levelo_inurba_marseille","lat":43.24083,"lon":5.3776,"is_reserved":false,"is_disabled":false,"rental_uris":{"android":"levelo://app?vid=98d1559e-d2bf-470b-aa3b-e89fc9e63aa5","ios":"levelo://app?vid=98d1559e-d2bf-470b-aa3b-e89fc9e63aa5"},"vehicle_type_id":"4","last_reported":1773323701,"current_range_meters":25600,"station_id":"ce4bhnp2rcd13ifvqgvg","pricing_plan_id":"cebpf4jnsgd1na2vs0mg"},{"bike_id":"65a7fe50-2450-4c8f-8e44-981be7bdae37","system_id":"levelo_inurba_marseille","lat":43.24731,"lon":5.38232,"is_reserved":false,"is_disabled":false,"rental_uris":{"android":"levelo://app?vid=65a7fe50-2450-4c8f-8e44-981be7bdae37","ios":"levelo://app?vid=65a7fe50-2450-4c8f-8e44-981be7bdae37"},"vehicle_type_id":"4","last_reported":1773323701,"current_range_meters":16400,"station_id":"","pricing_plan_id":"cebpf4jnsgd1na2vs0mg"},{"bike_id":"d02665ab-d65f-47fa-a858-71c81c1727d7","system_id":"levelo_inurba_marseille","lat":43.28412,"lon":5.34987,"is_reserved":false,"is_disabled":false,"rental_uris":{"android":"levelo://app?vid=d02665ab-d65f-47fa-a858-71c81c1727d7","ios":"levelo://app?vid=d02665ab-d65f-47fa-a858-71c81c1727d7"},"vehicle_type_id":"4","last_reported":1773323701,"current_range_meters":38800,"station_id":"ce4bhbh2rcd13ifvqepg","pricing_plan_id":"cebpf4jnsgd1na2vs0mg"},{"bike_id":"f0c3fede-8a05-4ff5-b5c4-0d3936817562","system_id":"levelo_inurba_marseille","lat":43.2408,"lon":5.37741,"is_reserved":false,"is_disabled":false,"rental_uris":{"android":"levelo://app?vid=f0c3fede-8a05-4ff5-b5c4-0d3936817562","ios":"levelo://app?vid=f0c3fede-8a05-4ff5-b5c4-0d3936817562"},"vehicle_type_id":"4","last_reported":1773323701,"current_range_meters":16400,"station_id":"ce4bhnp2rcd13ifvqgvg","pricing_plan_id":"cebpf4jnsgd1na2vs0mg"},{"bike_id":"9cd54147-d4d2-4841-a939-835c9b1f3553","system_id":"levelo_inurba_marseille","lat":43.29836,"lon":5.36267,"is_reserved":false,"is_disabled":false,"rental_uris":{"android":"levelo://app?vid=9cd54147-d4d2-4841-a939-835c9b1f3553","ios":"levelo://app?vid=9cd54147-d4d2-4841-a939-835c9b1f3553"},"vehicle_type_id":"4","last_reported":1773323701,"current_range_meters":38400,"station_id":"ce4bgpp2rcd13ifvqc3g","pricing_plan_id":"cebpf4jnsgd1na2vs0mg"},{"bike_id":"dce6c543-aeef-4398-ab50-136bbdfc8403","system_id":"levelo_inurba_marseille","lat":43.296316,"lon":5.371762,"is_reserved":false,"is_disabled":false,"rental_uris":{"android":"levelo://app?vid=dce6c543-aeef-4398-ab50-136bbdfc8403","ios":"levelo://app?vid=dce6c543-aeef-4398-ab50-136bbdfc8403"},"vehicle_type_id":"4","last_reported":1773323701,"current_range_meters":34800,"station_id":"ce4bgnh2rcd13ifvqc0g","pricing_plan_id":"cebpf4jnsgd1na2vs0mg"},{"bike_id":"0d885400-9f2b-4b20-b925-1afc4ed51363","system_id":"levelo_inurba_marseille","lat":43.2917,"lon":5.37173,"is_reserved":false,"is_disabled":false,"rental_uris":{"android":"levelo://app?vid=0d885400-9f2b-4b20-b925-1afc4ed51363","ios":"levelo://app?vid=0d885400-9f2b-4b20-b925-1afc4ed51363"},"vehicle_type_id":"4","last_reported":1773323701,"current_range_meters":37600,"station_id":"ce4bha92rcd13ifvqeh0","pricing_plan_id":"cebpf4jnsgd1na2vs0mg"},{"bike_id":"2ec0d240-9fa8-4251-9c9b-1cc6d98b3d6c","system_id":"levelo_inurba_marseille","lat":43.25599,"lon":5.38176,"is_reserved":false,"is_disabled":false,"rental_uris":{"android":"levelo://app?vid=2ec0d240-9fa8-4251-9c9b-1cc6d98b3d6c","ios":"levelo://app?vid=2ec0d240-9fa8-4251-9c9b-1cc6d98b3d6c"},"vehicle_type_id":"4","last_reported":1773323701,"current_range_meters":25200,"station_id":"","pricing_plan_id":"cebpf4jnsgd1na2vs0mg"},{"bike_id":"26a6b2e2-002a-4072-a1a2-b594f4e8b66c","system_id":"levelo_inurba_marseille","lat":43.30874,"lon":5.37311,"is_reserved":false,"is_disabled":false,"rental_uris":{"android":"levelo://app?vid=26a6b2e2-002a-4072-a1a2-b594f4e8b66c","ios":"levelo://app?vid=26a6b2e2-002a-4072-a1a2-b594f4e8b66c"},"vehicle_type_id":"4","last_reported":1773323701,"current_range_meters":28800,"station_id":"","pricing_plan_id":"cebpf4jnsgd1na2vs0mg"},{"bike_id":"34da4a33-43be-4234-816f-fdd3330c4484","system_id":"levelo_inurba_marseille","lat":43.23969,"lon":5.36636,"is_reserved":false,"is_disabled":false,"rental_uris":{"android":"levelo://app?vid=34da4a33-43be-4234-816f-fdd3330c4484","ios":"levelo://app?vid=34da4a33-43be-4234-816f-fdd3330c4484"},"vehicle_type_id":"4","last_reported":1773323701,"current_range_meters":39200,"station_id":"ce4bhi12rcd13ifvqfp0","pricing_plan_id":"cebpf4jnsgd1na2vs0mg"},{"bike_id":"5427f33b-9c12-4d35-9e4f-95e705df3b08","system_id":"levelo_inurba_marseille","lat":43.29632,"lon":5.37181,"is_reserved":false,"is_disabled":false,"rental_uris":{"android":"levelo://app?vid=5427f33b-9c12-4d35-9e4f-95e705df3b08","ios":"levelo://app?vid=5427f33b-9c12-4d35-9e4f-95e705df3b08"},"vehicle_type_id":"4","last_reported":1773323701,"current_range_meters":40000,"station_id":"ce4bgnh2rcd13ifvqc0g","pricing_plan_id":"cebpf4jnsgd1na2vs0mg"},{"bike_id":"df608bc1-596d-4999-8ab7-7ccc722b52ef","system_id":"levelo_inurba_marseille","lat":43.28959,"lon":5.36398,"is_reserved":false,"is_disabled":false,"rental_uris":{"android":"levelo://app?vid=df608bc1-596d-4999-8ab7-7ccc722b52ef","ios":"levelo://app?vid=df608bc1-596d-4999-8ab7-7ccc722b52ef"},"vehicle_type_id":"4","last_reported":1773323701,"current_range_meters":14800,"station_id":"ce4bhc92rcd13ifvqetg","pricing_plan_id":"cebpf4jnsgd1na2vs0mg"},{"bike_id":"612341de-7244-4e5d-b91e-d9b2217c798a","system_id":"levelo_inurba_marseille","lat":43.27921,"lon":5.39585,"is_reserved":false,"is_disabled":false,"rental_uris":{"android":"levelo://app?vid=612341de-7244-4e5d-b91e-d9b2217c798a","ios":"levelo://app?vid=612341de-7244-4e5d-b91e-d9b2217c798a"},"vehicle_type_id":"4","last_reported":1773323701,"current_range_meters":39200,"station_id":"ce4bhf92rcd13ifvqf40","pricing_plan_id":"cebpf4jnsgd1na2vs0mg"},{"bike_id":"3c51948e-7f4f-4a86-9754-93396c950e1e","system_id":"levelo_inurba_marseille","lat":43.296347,"lon":5.377393,"is_reserved":false,"is_disabled":false,"rental_uris":{"android":"levelo://app?vid=3c51948e-7f4f-4a86-9754-93396c950e1e","ios":"levelo://app?vid=3c51948e-7f4f-4a86-9754-93396c950e1e"},"vehicle_type_id":"4","last_reported":1773323701,"current_range_meters":24000,"station_id":"ce4bgs92rcd13ifvqcc0","pricing_plan_id":"cebpf4jnsgd1na2vs0mg"},{"bike_id":"b3ec3554-eb1f-4735-9561-8fa9053610e4","system_id":"levelo_inurba_marseille","lat":43.24417,"lon":5.37027,"is_reserved":false,"is_disabled":false,"rental_uris":{"android":"levelo://app?vid=b3ec3554-eb1f-4735-9561-8fa9053610e4","ios":"levelo://app?vid=b3ec3554-eb1f-4735-9561-8fa9053610e4"},"vehicle_type_id":"4","last_reported":1773323701,"current_range_meters":40000,"station_id":"ce4bhhh2rcd13ifvqfk0","pricing_plan_id":"cebpf4jnsgd1na2vs0mg"},{"bike_id":"90bd2d1f-82d1-4564-b345-0f67ac79399c","system_id":"levelo_inurba_marseille","lat":43.30277,"lon":5.37699,"is_reserved":false,"is_disabled":false,"rental_uris":{"android":"levelo://app?vid=90bd2d1f-82d1-4564-b345-0f67ac79399c","ios":"levelo://app?vid=90bd2d1f-82d1-4564-b345-0f67ac79399c"},"vehicle_type_id":"4","last_reported":1773323701,"current_range_meters":8400,"station_id":"ce4bguh2rcd13ifvqcj0","pricing_plan_id":"cebpf4jnsgd1na2vs0mg"},{"bike_id":"f7dafe7c-4b45-481f-a427-ab6708f3f1d8","system_id":"levelo_inurba_marseille","lat":43.28156,"lon":5.42638,"is_reserved":false,"is_disabled":false,"rental_uris":{"android":"levelo://app?vid=f7dafe7c-4b45-481f-a427-ab6708f3f1d8","ios":"levelo://app?vid=f7dafe7c-4b45-481f-a427-ab6708f3f1d8"},"vehicle_type_id":"4","last_reported":1773323701,"current_range_meters":39200,"station_id":"ce4bhnh2rcd13ifvqgug","pricing_plan_id":"cebpf4jnsgd1na2vs0mg"},{"bike_id":"148c32aa-39dc-496a-88cd-a6eb6e3f19a4","system_id":"levelo_inurba_marseille","lat":43.30917,"lon":5.3686,"is_reserved":false,"is_disabled":false,"rental_uris":{"android":"levelo://app?vid=148c32aa-39dc-496a-88cd-a6eb6e3f19a4","ios":"levelo://app?vid=148c32aa-39dc-496a-88cd-a6eb6e3f19a4"},"vehicle_type_id":"4","last_reported":1773323701,"current_range_meters":39200,"station_id":"ce4bgn92rcd13ifvqbvg","pricing_plan_id":"cebpf4jnsgd1na2vs0mg"},{"bike_id":"4cd63f56-88f2-44dc-8d79-97be63a73aac","system_id":"levelo_inurba_marseille","lat":43.33159,"lon":5.37673,"is_reserved":false,"is_disabled":false,"rental_uris":{"android":"levelo://app?vid=4cd63f56-88f2-44dc-8d79-97be63a73aac","ios":"levelo://app?vid=4cd63f56-88f2-44dc-8d79-97be63a73aac"},"vehicle_type_id":"4","last_reported":1773323701,"current_range_meters":9200,"station_id":"st_d46cu089ee8s73dldbu0","pricing_plan_id":"cebpf4jnsgd1na2vs0mg"},{"bike_id":"4bfb174a-06d3-4562-9b73-992b914fe592","system_id":"levelo_inurba_marseille","lat":43.31349,"lon":5.3669,"is_reserved":false,"is_disabled":false,"rental_uris":{"android":"levelo://app?vid=4bfb174a-06d3-4562-9b73-992b914fe592","ios":"levelo://app?vid=4bfb174a-06d3-4562-9b73-992b914fe592"},"vehicle_type_id":"4","last_reported":1773323701,"current_range_meters":39200,"station_id":"ce4bgr92rcd13ifvqc6g","pricing_plan_id":"cebpf4jnsgd1na2vs0mg"},{"bike_id":"d42faadd-34dd-4614-8599-4d096fe82a23","system_id":"levelo_inurba_marseille","lat":43.28666,"lon":5.36359,"is_reserved":false,"is_disabled":false,"rental_uris":{"android":"levelo://app?vid=d42faadd-34dd-4614-8599-4d096fe82a23","ios":"levelo://app?vid=d42faadd-34dd-4614-8599-4d096fe82a23"},"vehicle_type_id":"4","last_reported":1773323701,"current_range_meters":21600,"station_id":"ce4bhah2rcd13ifvqej0","pricing_plan_id":"cebpf4jnsgd1na2vs0mg"},{"bike_id":"0bb7a7c1-1e5d-4e7e-83dc-a8f45c1825e4","system_id":"levelo_inurba_marseille","lat":43.28719,"lon":5.37925,"is_reserved":false,"is_disabled":false,"rental_uris":{"android":"levelo://app?vid=0bb7a7c1-1e5d-4e7e-83dc-a8f45c1825e4","ios":"levelo://app?vid=0bb7a7c1-1e5d-4e7e-83dc-a8f45c1825e4"},"vehicle_type_id":"4","last_reported":1773323701,"current_range_meters":30400,"station_id":"ce4bh9p2rcd13ifvqec0","pricing_plan_id":"cebpf4jnsgd1na2vs0mg"},{"bike_id":"3d06c2fe-a971-4660-91da-da3c39c76241","system_id":"levelo_inurba_marseille","lat":43.33581,"lon":5.40959,"is_reserved":false,"is_disabled":false,"rental_uris":{"android":"levelo://app?vid=3d06c2fe-a971-4660-91da-da3c39c76241","ios":"levelo://app?vid=3d06c2fe-a971-4660-91da-da3c39c76241"},"vehicle_type_id":"4","last_reported":1773323701,"current_range_meters":38800,"station_id":"","pricing_plan_id":"cebpf4jnsgd1na2vs0mg"},{"bike_id":"05e28071-265b-4d5c-bcaf-12dc4f5c6740","system_id":"levelo_inurba_marseille","lat":43.27373,"lon":5.36264,"is_reserved":false,"is_disabled":false,"rental_uris":{"android":"levelo://app?vid=05e28071-265b-4d5c-bcaf-12dc4f5c6740","ios":"levelo://app?vid=05e28071-265b-4d5c-bcaf-12dc4f5c6740"},"vehicle_type_id":"4","last_reported":1773323701,"current_range_meters":39200,"station_id":"ce4bhbh2rcd13ifvqeo0","pricing_plan_id":"cebpf4jnsgd1na2vs0mg"},{"bike_id":"fec8704e-579f-4fd4-adbf-52fc3cc5788d","system_id":"levelo_inurba_marseille","lat":43.27214,"lon":5.39201,"is_reserved":false,"is_disabled":true,"rental_uris":{"android":"levelo://app?vid=fec8704e-579f-4fd4-adbf-52fc3cc5788d","ios":"levelo://app?vid=fec8704e-579f-4fd4-adbf-52fc3cc5788d"},"vehicle_type_id":"4","last_reported":1773323701,"current_range_meters":0,"station_id":"ce4bhhp2rcd13ifvqfm0","pricing_plan_id":"cebpf4jnsgd1na2vs0mg"},