{"last_updated":1726002493,"ttl":30,"version":"2.2","data":{"bikes":[{"bike_id":"61ec69dc-0887-45a0-9a18-564e7d706b0b","system_id":"levelo_inurba_marseille","lat":43.24083,"lon":5.3774,"is_reserved":false,"is_disabled":false,"rental_uris":{"android":"levelo://app?vid=61ec69dc-0887-45a0-9a18-564e7d706b0b","ios":"levelo://app?vid=61ec69dc-0887-45a0-9a18-564e7d706b0b"},"vehicle_type_id":"4","last_reported":1726002493,"current_range_meters":31200,"station_id":"ce4bhnp2rcd13ifvqgvg","pricing_plan_id":"cebpf4jnsgd1na2vs0mg"},{"bike_id":"86102a50-ccab-4015-8475-8708efffc18e","system_id":"levelo_inurba_marseille","lat":43.29996,"lon":5.37185,"is_reserved":false,"is_disabled":false,"rental_uris":{"android":"levelo://app?vid=86102a50-ccab-4015-8475-8708efffc18e","ios":"levelo://app?vid=86102a50-ccab-4015-8475-8708efffc18e"},"vehicle_type_id":"4","last_reported":1726002493,"current_range_meters":38800,"station_id":"ce4bgr92rcd13ifvqc7g","pricing_plan_id":"cebpf4jnsgd1na2vs0mg"},{"bike_id":"deb946a8-ccc7-48a3-a464-79c8b8dd0d59","system_id":"levelo_inurba_marseille","lat":43.27906,"lon":5.38026,"is_reserved":false,"is_disabled":false,"rental_uris":{"android":"levelo://app?vid=deb946a8-ccc7-48a3-a464-79c8b8dd0d59","ios":"levelo://app?vid=deb946a8-ccc7-48a3-a464-79c8b8dd0d59"},"vehicle_type_id":"4","last_reported":1726002493,"current_range_meters":29600,"station_id":"ce4bhf92rcd13ifvqf50","pricing_plan_id":"cebpf4jnsgd1na2vs0mg"},{"bike_id":"27d1c871-393d-4565-bc78-48beaec1f84f","system_id":"levelo_inurba_marseille","lat":43.31486,"lon":5.37311,"is_reserved":false,"is_disabled":false,"rental_uris":{"android":"levelo://app?vid=27d1c871-393d-4565-bc78-48beaec1f84f","ios":"levelo://app?vid=27d1c871-393d-4565-bc78-48beaec1f84f"},"vehicle_type_id":"4","last_reported":1726002493,"current_range_meters":25200,"station_id":"ce4bgt12rcd13ifvqcd0","pricing_plan_id":"cebpf4jnsgd1na2vs0mg"},{"bike_id":"8baf78c1-8fc6-48c8-84a2-7b5ce34657ff","system_id":"levelo_inurba_marseille","lat":43.31362,"lon":5.38497,"is_reserved":false,"is_disabled":false,"rental_uris":{"android":"levelo://app?vid=8baf78c1-8fc6-48c8-84a2-7b5ce34657ff","ios":"levelo://app?vid=8baf78c1-8fc6-48c8-84a2-7b5ce34657ff"},"vehicle_type_id":"4","last_reported":1726002493,"current_range_meters":38800,"station_id":"ce4bgt92rcd13ifvqcf0","pricing_plan_id":"cebpf4jnsgd1na2vs0mg"},{"bike_id":"ae764c61-26f3-4559-afd1-6a8589a0aa9d","system_id":"levelo_inurba_marseille","lat":43.31755,"lon":5.39013,"is_reserved":false,"is_disabled":false,"rental_uris":{"android":"levelo://app?vid=ae764c61-26f3-4559-afd1-6a8589a0aa9d","ios":"levelo://app?vid=ae764c61-26f3-4559-afd1-6a8589a0aa9d"},"vehicle_type_id":"4","last_reported":1726002493,"current_range_meters":26000,"station_id":"ce4bhqp2rcd13ifvqhng","pricing_plan_id":"cebpf4jnsgd1na2vs0mg"},{"bike_id":"46a85b19-7bbb-429e-b7e3-ab14b4cc354d","system_id":"levelo_inurba_marseille","lat":43.29569,"lon":5.39967,"is_reserved":false,"is_disabled":false,"rental_uris":{"android":"levelo://app?vid=46a85b19-7bbb-429e-b7e3-ab14b4cc354d","ios":"levelo://app?vid=46a85b19-7bbb-429e-b7e3-ab14b4cc354d"},"vehicle_type_id":"4","last_reported":1726002493,"current_range_meters":28400,"station_id":"ce4bh312rcd13ifvqdj0","pricing_plan_id":"cebpf4jnsgd1na2vs0mg"},{"bike_id":"55180cec-6fc8-439f-b699-ab81b32d2283","system_id":"levelo_inurba_marseille","lat":43.26502,"lon":5.39548,"is_reserved":false,"is_disabled":false,"rental_uris":{"android":"levelo://app?vid=55180cec-6fc8-439f-b699-ab81b32d2283","ios":"levelo://app?vid=55180cec-6fc8-439f-b699-ab81b32d2283"},"vehicle_type_id":"4","last_reported":1726002493,"current_range_meters":24000,"station_id":"ce4bhi12rcd13ifvqfq0","pricing_plan_id":"cebpf4jnsgd1na2vs0mg"},{"bike_id":"b156709b-3a60-4094-8167-8ddfaeda87ca","system_id":"levelo_inurba_marseille","lat":43.304319,"lon":5.39741,"is_reserved":false,"is_disabled":false,"rental_uris":{"android":"levelo://app?vid=b156709b-3a60-4094-8167-8ddfaeda87ca","ios":"levelo://app?vid=b156709b-3a60-4094-8167-8ddfaeda87ca"},"vehicle_type_id":"4","last_reported":1726002493,"current_range_meters":16400,"station_id":"ce4bh092rcd13ifvqd20","pricing_plan_id":"cebpf4jnsgd1na2vs0mg"},{"bike_id":"9b4e0646-c8d7-4d7f-a814-9f0e924b4926","system_id":"levelo_inurba_marseille","lat":43.28698,"lon":5.3739,"is_reserved":false,"is_disabled":false,"rental_uris":{"android":"levelo://app?vid=9b4e0646-c8d7-4d7f-a814-9f0e924b4926","ios":"levelo://app?vid=9b4e0646-c8d7-4d7f-a814-9f0e924b4926"},"vehicle_type_id":"4","last_reported":1726002493,"current_range_meters":19200,"station_id":"ce4bh3p2rcd13ifvqdq0","pricing_plan_id":"cebpf4jnsgd1na2vs0mg"},{"bike_id":"95e7fdc8-bf5f-4f9c-aaac-a84bae7d977c","system_id":"levelo_inurba_marseille","lat":43.27065,"lon":5.42278,"is_reserved":false,"is_disabled":false,"rental_uris":{"android":"levelo://app?vid=95e7fdc8-bf5f-4f9c-aaac-a84bae7d977c","ios":"levelo://app?vid=95e7fdc8-bf5f-4f9c-aaac-a84bae7d977c"},"vehicle_type_id":"4","last_reported":1726002493,"current_range_meters":38000,"station_id":"ce4bhk92rcd13ifvqgb0","pricing_plan_id":"cebpf4jnsgd1na2vs0mg"},{"bike_id":"59420e78-e31d-4434-9efc-99bbaf1cff95","system_id":"levelo_inurba_marseille","lat":43.29528,"lon":5.39041,"is_reserved":false,"is_disabled":false,"rental_uris":{"android":"levelo://app?vid=59420e78-e31d-4434-9efc-99bbaf1cff95","ios":"levelo://app?vid=59420e78-e31d-4434-9efc-99bbaf1cff95"},"vehicle_type_id":"4","last_reported":1726002493,"current_range_meters":38800,"station_id":"ce4bh3p2rcd13ifvqdp0","pricing_plan_id":"cebpf4jnsgd1na2vs0mg"},{"bike_id":"bc825033-2c11-4ba5-950c-4a8ed15e1219","system_id":"levelo_inurba_marseille","lat":43.27816,"lon":5.40713,"is_reserved":false,"is_disabled":false,"rental_uris":{"android":"levelo://app?vid=bc825033-2c11-4ba5-950c-4a8ed15e1219","ios":"levelo://app?vid=bc825033-2c11-4ba5-950c-4a8ed15e1219"},"vehicle_type_id":"4","last_reported":1726002493,"current_range_meters":24000,"station_id":"ce4bhnh2rcd13ifvqgtg","pricing_plan_id":"cebpf4jnsgd1na2vs0mg"},{"bike_id":"656de1c9-1df9-4517-bf24-ea61677ca715","system_id":"levelo_inurba_marseille","lat":43.28934,"lon":5.36643,"is_reserved":false,"is_disabled":false,"rental_uris":{"android":"levelo://app?vid=656de1c9-1df9-4517-bf24-ea61677ca715","ios":"levelo://app?vid=656de1c9-1df9-4517-bf24-ea61677ca715"},"vehicle_type_id":"4","last_reported":1726002493,"current_range_meters":24400,"station_id":"ce4bhap2rcd13ifvqek0","pricing_plan_id":"cebpf4jnsgd1na2vs0mg"},{"bike_id":"f34747ce-f309-4326-987e-7bc67d09e8c3","system_id":"levelo_inurba_marseille","lat":43.32291,"lon":5.3826,"is_reserved":false,"is_disabled":false,"rental_uris":{"android":"levelo://app?vid=f34747ce-f309-4326-987e-7bc67d09e8c3","ios":"levelo://app?vid=f34747ce-f309-4326-987e-7bc67d09e8c3"},"vehicle_type_id":"4","last_reported":1726002493,"current_range_meters":39200,"station_id":"ce4bhr12rcd13ifvqhqg","pricing_plan_id":"cebpf4jnsgd1na2vs0mg"},{"bike_id":"962bb7a3-05a7-49bc-9a49-5d193216f960","system_id":"levelo_inurba_marseille","lat":43.31763,"lon":5.39021,"is_reserved":false,"is_disabled":false,"rental_uris":{"android":"levelo://app?vid=962bb7a3-05a7-49bc-9a49-5d193216f960","ios":"levelo://app?vid=962bb7a3-05a7-49bc-9a49-5d193216f960"},"vehicle_type_id":"4","last_reported":1726002493,"current_range_meters":28400,"station_id":"ce4bhqp2rcd13ifvqhng","pricing_plan_id":"cebpf4jnsgd1na2vs0mg"},{"bike_id":"b0c418e3-7076-4b48-86c9-8b078567e702","system_id":"levelo_inurba_marseille","lat":43.24082,"lon":5.3775,"is_reserved":false,"is_disabled":false,"rental_uris":{"android":"levelo://app?vid=b0c418e3-7076-4b48-86c9-8b078567e702","ios":"levelo://app?vid=b0c418e3-7076-4b48-86c9-8b078567e702"},"vehicle_type_id":"4","last_reported":1726002493,"current_range_meters":28400,"station_id":"ce4bhnp2rcd13ifvqgvg","pricing_plan_id":"cebpf4jnsgd1na2vs0mg"},{"bike_id":"ad5debd7-3e1e-4e58-90c2-90bc3f69340e","system_id":"levelo_inurba_marseille","lat":43.341421,"lon":5.408986,"is_reserved":false,"is_disabled":false,"rental_uris":{"android":"levelo://app?vid=ad5debd7-3e1e-4e58-90c2-90bc3f69340e","ios":"levelo://app?vid=ad5debd7-3e1e-4e58-90c2-90bc3f69340e"},"vehicle_type_id":"4","last_reported":1726002493,"current_range_meters":24000,"station_id":"ce4bhqh2rcd13ifvqhlg","pricing_plan_id":"cebpf4jnsgd1na2vs0mg"},{"bike_id":"3a610c72-f44c-428a-ba87-6ec4a94fc829","system_id":"levelo_inurba_marseille","lat":43.29227,"lon":5.36049,"is_reserved":false,"is_disabled":false,"rental_uris":{"android":"levelo://app?vid=3a610c72-f44c-428a-ba87-6ec4a94fc829","ios":"levelo://app?vid=3a610c72-f44c-428a-ba87-6ec4a94fc829"},"vehicle_type_id":"4","last_reported":1726002493,"current_range_meters":36000,"station_id":"ce4bhbh2rcd13ifvqeqg","pricing_plan_id":"cebpf4jnsgd1na2vs0mg"},{"bike_id":"8edfeb55-de73-452a-bc85-fade63dbfc59","system_id":"levelo_inurba_marseille","lat":43.30258,"lon":5.40079,"is_reserved":false,"is_disabled":false,"rental_uris":{"android":"levelo://app?vid=8edfeb55-de73-452a-bc85-fade63dbfc59","ios":"levelo://app?vid=8edfeb55-de73-452a-bc85-fade63dbfc59"},"vehicle_type_id":"4","last_reported":1726002493,"current_range_meters":23200,"station_id":"ce4bgvh2rcd13ifvqcs0","pricing_plan_id":"cebpf4jnsgd1na2vs0mg"},{"bike_id":"ee4607c9-6955-4e13-b7d5-aec07ce4d086","system_id":"levelo_inurba_marseille","lat":43.31697,"lon":5.40476,"is_reserved":false,"is_disabled":false,"rental_uris":{"android":"levelo://app?vid=ee4607c9-6955-4e13-b7d5-aec07ce4d086","ios":"levelo://app?vid=ee4607c9-6955-4e13-b7d5-aec07ce4d086"},"vehicle_type_id":"4","last_reported":1726002493,"current_range_meters":16800,"station_id":"ce4bh012rcd13ifvqd00","pricing_plan_id":"cebpf4jnsgd1na2vs0mg"},{"bike_id":"24f8399c-3f6b-4afe-b89d-f716cc994be8","system_id":"levelo_inurba_marseille","lat":43.28458,"lon":5.35886,"is_reserved":false,"is_disabled":false,"rental_uris":{"android":"levelo://app?vid=24f8399c-3f6b-4afe-b89d-f716cc994be8","ios":"levelo://app?vid=24f8399c-3f6b-4afe-b89d-f716cc994be8"},"vehicle_type_id":"4","last_reported":1726002493,"current_range_meters":38400,"station_id":"ce4bhah2rcd13ifvqei0","pricing_plan_id":"cebpf4jnsgd1na2vs0mg"},{"bike_id":"a5378d9e-ab88-4132-955c-51d09adec59d","system_id":"levelo_inurba_marseille","lat":43.28036,"lon":5.36945,"is_reserved":false,"is_disabled":false,"rental_uris":{"android":"levelo://app?vid=a5378d9e-ab88-4132-955c-51d09adec59d","ios":"levelo://app?vid=a5378d9e-ab88-4132-955c-51d09adec59d"},"vehicle_type_id":"4","last_reported":1726002493,"current_range_meters":37600,"station_id":"ce4bha12rcd13ifvqef0","pricing_plan_id":"cebpf4jnsgd1na2vs0mg"},{"bike_id":"79c048a7-5de8-4f6b-a4ee-caa7e8248925","system_id":"levelo_inurba_marseille","lat":43.24072,"lon":5.37765,"is_reserved":false,"is_disabled":false,"rental_uris":{"android":"levelo://app?vid=79c048a7-5de8-4f6b-a4ee-caa7e8248925","ios":"levelo://app?vid=79c048a7-5de8-4f6b-a4ee-caa7e8248925"},"vehicle_type_id":"4","last_reported":1726002493,"current_range_meters":24400,"station_id":"ce4bhnp2rcd13ifvqgvg","pricing_plan_id":"cebpf4jnsgd1na2vs0mg"},{"bike_id":"6c02a711-e0d4-4009-9d44-fba5428f55b2","system_id":"levelo_inurba_marseille","lat":43.23193,"lon":5.35557,"is_reserved":false,"is_disabled":false,"rental_uris":{"android":"levelo://app?vid=6c02a711-e0d4-4009-9d44-fba5428f55b2","ios":"levelo://app?vid=6c02a711-e0d4-4009-9d44-fba5428f55b2"},"vehicle_type_id":"4","last_reported":1726002493,"current_range_meters":7200,"station_id":"ce4bhu92rcd13ifvqi70","pricing_plan_id":"cebpf4jnsgd1na2vs0mg"},{"bike_id":"96080650-1ebc-4559-bc4b-5e61d6a85a17","system_id":"levelo_inurba_marseille","lat":43.31227,"lon":5.36866,"is_reserved":false,"is_disabled":false,"rental_uris":{"android":"levelo://app?vid=96080650-1ebc-4559-bc4b-5e61d6a85a17","ios":"levelo://app?vid=96080650-1ebc-4559-bc4b-5e61d6a85a17"},"vehicle_type_id":"4","last_reported":1726002493,"current_range_meters":38800,"station_id":"ce4bgl92rcd13ifvqbq0","pricing_plan_id":"cebpf4jnsgd1na2vs0mg"},{"bike_id":"be1826e9-54cd-4f89-b161-981acf4a2010","system_id":"levelo_inurba_marseille","lat":43.28699,"lon":5.37397,"is_reserved":false,"is_disabled":false,"rental_uris":{"android":"levelo://app?vid=be1826e9-54cd-4f89-b161-981acf4a2010","ios":"levelo://app?vid=be1826e9-54cd-4f89-b161-981acf4a2010"},"vehicle_type_id":"4","last_reported":1726002493,"current_range_meters":5600,"station_id":"ce4bh3p2rcd13ifvqdq0","pricing_plan_id":"cebpf4jnsgd1na2vs0mg"},{"bike_id":"94fc363a-6381-44ae-99ed-b883e863bbe6","system_id":"levelo_inurba_marseille","lat":43.30887,"lon":5.39652,"is_reserved":false,"is_disabled":false,"rental_uris":{"android":"levelo://app?vid=94fc363a-6381-44ae-99ed-b883e863bbe6","ios":"levelo://app?vid=94fc363a-6381-44ae-99ed-b883e863bbe6"},"vehicle_type_id":"4","last_reported":1726002493,"current_range_meters":4000,"station_id":"ce4bh012rcd13ifvqcv0","pricing_plan_id":"cebpf4jnsgd1na2vs0mg"},{"bike_id":"b59d6bb8-aefb-4db8-b3f2-f169f342ddcd","system_id":"levelo_inurba_marseille","lat":43.32364,"lon":5.38889,"is_reserved":false,"is_disabled":false,"rental_uris":{"android":"levelo://app?vid=b59d6bb8-aefb-4db8-b3f2-f169f342ddcd","ios":"levelo://app?vid=b59d6bb8-aefb-4db8-b3f2-f169f342ddcd"},"vehicle_type_id":"4","last_reported":1726002493,"current_range_meters":6400,"station_id":"ce4bhqp2rcd13ifvqhog","pricing_plan_id":"cebpf4jnsgd1na2vs0mg"},{"bike_id":"783428b3-8d12-4df0-9684-836cb2f47e07","system_id":"levelo_inurba_marseille","lat":43.27558,"lon":5.38424,"is_reserved":false,"is_disabled":false,"rental_uris":{"android":"levelo://app?vid=783428b3-8d12-4df0-9684-836cb2f47e07","ios":"levelo://app?vid=783428b3-8d12-4df0-9684-836cb2f47e07"},"vehicle_type_id":"4","last_reported":1726002493,"current_range_meters":36000,"station_id":"ce4bhh92rcd13ifvqfi0","pricing_plan_id":"cebpf4jnsgd1na2vs0mg"},{"bike_id":"3c1219b6-feb0-4ae0-807c-a32a8b70e988","system_id":"levelo_inurba_marseille","lat":43.31531,"lon":5.38026,"is_reserved":false,"is_disabled":false,"rental_uris":{"android":"levelo://app?vid=3c1219b6-feb0-4ae0-807c-a32a8b70e988","ios":"levelo://app?vid=3c1219b6-feb0-4ae0-807c-a32a8b70e988"},"vehicle_type_id":"4","last_reported":1726002493,"current_range_meters":28000,"station_id":"ce4bhsp2rcd13ifvqi50","pricing_plan_id":"cebpf4jnsgd1na2vs0mg"},{"bike_id":"dda4c138-678e-4beb-8c1c-7229be4997a5","system_id":"levelo_inurba_marseille","lat":43.26191,"lon":5.37457,"is_reserved":false,"is_disabled":false,"rental_uris":{"android":"levelo://app?vid=dda4c138-678e-4beb-8c1c-7229be4997a5","ios":"levelo://app?vid=dda4c138-678e-4beb-8c1c-7229be4997a5"},"vehicle_type_id":"4","last_reported":1726002493,"current_range_meters":27600,"station_id":"ce4bhgp2rcd13ifvqfc0","pricing_plan_id":"cebpf4jnsgd1na2vs0mg"},{"bike_id":"082638c5-5449-47b0-a8f1-d12dc77dae1d","system_id":"levelo_inurba_marseille","lat":43.29692,"lon":5.36602,"is_reserved":false,"is_disabled":false,"rental_uris":{"android":"levelo://app?vid=082638c5-5449-47b0-a8f1-d12dc77dae1d","ios":"levelo://app?vid=082638c5-5449-47b0-a8f1-d12dc77dae1d"},"vehicle_type_id":"4","last_reported":1726002493,"current_range_meters":32800,"station_id":"ce4bgn12rcd13ifvqbt0","pricing_plan_id":"cebpf4jnsgd1na2vs0mg"},{"bike_id":"d94cf20d-19e4-4d88-bbb3-72b7a4c6baa3","system_id":"levelo_inurba_marseille","lat":43.32294,"lon":5.38263,"is_reserved":false,"is_disabled":false,"rental_uris":{"android":"levelo://app?vid=d94cf20d-19e4-4d88-bbb3-72b7a4c6baa3","ios":"levelo://app?vid=d94cf20d-19e4-4d88-bbb3-72b7a4c6baa3"},"vehicle_type_id":"4","last_reported":1726002493,"current_range_meters":38800,"station_id":"ce4bhr12rcd13ifvqhqg","pricing_plan_id":"cebpf4jnsgd1na2vs0mg"},{"bike_id":"00ca710c-aa25-453d-b5eb-9286e939dc6d","system_id":"levelo_inurba_marseille","lat":43.29552,"lon":5.42281,"is_reserved":false,"is_disabled":false,"rental_uris":{"android":"levelo://app?vid=00ca710c-aa25-453d-b5eb-9286e939dc6d","ios":"levelo://app?vid=00ca710c-aa25-453d-b5eb-9286e939dc6d"},"vehicle_type_id":"4","last_reported":1726002493,"current_range_meters":23200,"station_id":"ce4bhph2rcd13ifvqhdg","pricing_plan_id":"cebpf4jnsgd1na2vs0mg"},{"bike_id":"a36a6131-7175-4d21-afcf-16a3b952996a","system_id":"levelo_inurba_marseille","lat":43.3082,"lon":5.37648,"is_reserved":false,"is_disabled":false,"rental_uris":{"android":"levelo://app?vid=a36a6131-7175-4d21-afcf-16a3b952996a","ios":"levelo://app?vid=a36a6131-7175-4d21-afcf-16a3b952996a"},"vehicle_type_id":"4","last_reported":1726002493,"current_range_meters":13600,"station_id":"ce4bgv92rcd13ifvqcq0","pricing_plan_id":"cebpf4jnsgd1na2vs0mg"},{"bike_id":"2e23597d-e77d-486c-a95e-6cdb71b1bd53","system_id":"levelo_inurba_marseille","lat":43.32364,"lon":5.3889,"is_reserved":false,"is_disabled":false,"rental_uris":{"android":"levelo://app?vid=2e23597d-e77d-486c-a95e-6cdb71b1bd53","ios":"levelo://app?vid=2e23597d-e77d-486c-a95e-6cdb71b1bd53"},"vehicle_type_id":"4","last_reported":1726002493,"current_range_meters":12400,"station_id":"ce4bhqp2rcd13ifvqhog","pricing_plan_id":"cebpf4jnsgd1na2vs0mg"},{"bike_id":"c91e8f4c-4a91-4aa2-8534-b9dfdc67f4f6","system_id":"levelo_inurba_marseille","lat":43.302831,"lon":5.377083,"is_reserved":false,"is_disabled":false,"rental_uris":{"android":"levelo://app?vid=c91e8f4c-4a91-4aa2-8534-b9dfdc67f4f6","ios":"levelo://app?vid=c91e8f4c-4a91-4aa2-8534-b9dfdc67f4f6"},"vehicle_type_id":"4","last_reported":1726002493,"current_range_meters":10800,"station_id":"ce4bguh2rcd13ifvqcj0","pricing_plan_id":"cebpf4jnsgd1na2vs0mg"},{"bike_id":"af29e765-80ea-48b7-873e-9075e9bf27db","system_id":"levelo_inurba_marseille","lat":43.28024,"lon":5.36967,"is_reserved":false,"is_disabled":false,"rental_uris":{"android":"levelo://app?vid=af29e765-80ea-48b7-873e-9075e9bf27db","ios":"levelo://app?vid=af29e765-80ea-48b7-873e-9075e9bf27db"},"vehicle_type_id":"4","last_reported":1726002493,"current_range_meters":18800,"station_id":"ce4bha12rcd13ifvqef0","pricing_plan_id":"cebpf4jnsgd1na2vs0mg"},{"bike_id":"6ac0385a-09c3-4112-8eb3-5351bb9c2a07","system_id":"levelo_inurba_marseille","lat":43.28461,"lon":5.35894,"is_reserved":false,"is_disabled":false,"rental_uris":{"android":"levelo://app?vid=6ac0385a-09c3-4112-8eb3-5351bb9c2a07","ios":"levelo://app?vid=6ac0385a-09c3-4112-8eb3-5351bb9c2a07"},"vehicle_type_id":"4","last_reported":1726002493,"current_range_meters":38800,"station_id":"ce4bhah2rcd13ifvqei0","pricing_plan_id":"cebpf4jnsgd1na2vs0mg"},{"bike_id":"b77681a4-4ed0-4be8-bbd7-2dc7c4cd333c","system_id":"levelo_inurba_marseille","lat":43.31755,"lon":5.39024,"is_reserved":false,"is_disabled":false,"rental_uris":{"android":"levelo://app?vid=b77681a4-4ed0-4be8-bbd7-2dc7c4cd333c","ios":"levelo://app?vid=b77681a4-4ed0-4be8-bbd7-2dc7c4cd333c"},"vehicle_type_id":"4","last_reported":1726002493,"current_range_meters":32000,"station_id":"ce4bhqp2rcd13ifvqhng","pricing_plan_id":"cebpf4jnsgd1na2vs0mg"},{"bike_id":"2677d685-b10c-4f45-8bee-2406491f91a3","system_id":"levelo_inurba_marseille","lat":43.30601,"lon":5.37226,"is_reserved":false,"is_disabled":false,"rental_uris":{"android":"levelo://app?vid=2677d685-b10c-4f45-8bee-2406491f91a3","ios":"levelo://app?vid=2677d685-b10c-4f45-8bee-2406491f91a3"},"vehicle_type_id":"4","last_reported":1726002493,"current_range_meters":16400,"station_id":"ce4bgqh2rcd13ifvqc4g","pricing_plan_id":"cebpf4jnsgd1na2vs0mg"},{"bike_id":"52a0f38d-3211-4d2e-b296-7d2f78d43ba6","system_id":"levelo_inurba_marseille","lat":43.272615,"lon":5.410556,"is_reserved":false,"is_disabled":false,"rental_uris":{"android":"levelo://app?vid=52a0f38d-3211-4d2e-b296-7d2f78d43ba6","ios":"levelo://app?vid=52a0f38d-3211-4d2e-b296-7d2f78d43ba6"},"vehicle_type_id":"4","last_reported":1726002493,"current_range_meters":2800,"station_id":"ce4bhl12rcd13ifvqgf0","pricing_plan_id":"cebpf4jnsgd1na2vs0mg"},{"bike_id":"044c6c19-928b-49be-810d-1a1364296b66","system_id":"levelo_inurba_marseille","lat":43.27811,"lon":5.40711,"is_reserved":false,"is_disabled":false,"rental_uris":{"android":"levelo://app?vid=044c6c19-928b-49be-810d-1a1364296b66","ios":"levelo://app?vid=044c6c19-928b-49be-810d-1a1364296b66"},"vehicle_type_id":"4","last_reported":1726002493,"current_range_meters":22400,"station_id":"ce4bhnh2rcd13ifvqgtg","pricing_plan_id":"cebpf4jnsgd1na2vs0mg"},{"bike_id":"eefefcc6-11cd-4d33-991c-12b4a6414c9b","system_id":"levelo_inurba_marseille","lat":43.28031,"lon":5.36951,"is_reserved":false,"is_disabled":false,"rental_uris":{"android":"levelo://app?vid=eefefcc6-11cd-4d33-991c-12b4a6414c9b","ios":"levelo://app?vid=eefefcc6-11cd-4d33-991c-12b4a6414c9b"},"vehicle_type_id":"4","last_reported":1726002493,"current_range_meters":38800,"station_id":"ce4bha12rcd13ifvqef0","pricing_plan_id":"cebpf4jnsgd1na2vs0mg"},{"bike_id":"c3cf595f-e8dd-441b-b6ea-6bb140fdf2bf","system_id":"levelo_inurba_marseille","lat":43.29309,"lon":5.37178,"is_reserved":false,"is_disabled":false,"rental_uris":{"android":"levelo://app?vid=c3cf595f-e8dd-441b-b6ea-6bb140fdf2bf","ios":"levelo://app?vid=c3cf595f-e8dd-441b-b6ea-6bb140fdf2bf"},"vehicle_type_id":"4","last_reported":1726002493,"current_range_meters":30400,"station_id":"ce4bgh92rcd13ifvqb40","pricing_plan_id":"cebpf4jnsgd1na2vs0mg"},{"bike_id":"f1ea8c6f-65c6-4c34-b89c-98dd712d80c3","system_id":"levelo_inurba_marseille","lat":43.24073,"lon":5.37749,"is_reserved":false,"is_disabled":false,"rental_uris":{"android":"levelo://app?vid=f1ea8c6f-65c6-4c34-b89c-98dd712d80c3","ios":"levelo://app?vid=f1ea8c6f-65c6-4c34-b89c-98dd712d80c3"},"vehicle_type_id":"4","last_reported":1726002493,"current_range_meters":24800,"station_id":"ce4bhnp2rcd13ifvqgvg","pricing_plan_id":"cebpf4jnsgd1na2vs0mg"},{"bike_id":"02606485-4a5f-4034-8f3c-5224b8485de4","system_id":"levelo_inurba_marseille","lat":43.26783,"lon":5.39421,"is_reserved":false,"is_disabled":false,"rental_uris":{"android":"levelo://app?vid=02606485-4a5f-4034-8f3c-5224b8485de4","ios":"levelo://app?vid=02606485-4a5f-4034-8f3c-5224b8485de4"},"vehicle_type_id":"4","last_reported":1726002493,"current_range_meters":26000,"station_id":"ce4bhh12rcd13ifvqfg0","pricing_plan_id":"cebpf4jnsgd1na2vs0mg"},{"bike_id":"db96a872-51f4-421d-869a-16504d358561","system_id":"levelo_inurba_marseille","lat":43.30568,"lon":5.38428,"is_reserved":false,"is_disabled":false,"rental_uris":{"android":"levelo://app?vid=db96a872-51f4-421d-869a-16504d358561","ios":"levelo://app?vid=db96a872-51f4-421d-869a-16504d358561"},"vehicle_type_id":"4","last_reported":1726002493,"current_range_meters":32400,"station_id":"ce4bgg92rcd13ifvqb30","pricing_plan_id":"cebpf4jnsgd1na2vs0mg"},{"bike_id":"1a0da594-9d57-4523-9b59-5374c2af6a63","system_id":"levelo_inurba_marseille","lat":43.28724,"lon":5.36093,"is_reserved":false,"is_disabled":false,"rental_uris":{"android":"levelo://app?vid=1a0da594-9d57-4523-9b59-5374c2af6a63","ios":"levelo://app?vid=1a0da594-9d57-4523-9b59-5374c2af6a63"},"vehicle_type_id":"4","last_reported":1726002493,"current_range_meters":35200,"station_id":"cki0cbj6b192h4jlfktg","pricing_plan_id":"cebpf4jnsgd1na2vs0mg"},{"bike_id":"cfc4154e-0853-489e-8835-a4d6f4fd8fe1","system_id":"levelo_inurba_marseille","lat":43.27916,"lon":5.3958,"is_reserved":false,"is_disabled":false,"rental_uris":{"android":"levelo://app?vid=cfc4154e-0853-489e-8835-a4d6f4fd8fe1","ios":"levelo://app?vid=cfc4154e-0853-489e-8835-a4d6f4fd8fe1"},"vehicle_type_id":"4","last_reported":1726002493,"current_range_meters":30400,"station_id":"ce4bhf92rcd13ifvqf40","pricing_plan_id":"cebpf4jnsgd1na2vs0mg"},{"bike_id":"c19b3b06-dd40-414d-8bb5-7da222403898","system_id":"levelo_inurba_marseille","lat":43.33726,"lon":5.39187,"is_reserved":false,"is_disabled":false,"rental_uris":{"android":"levelo://app?vid=c19b3b06-dd40-414d-8bb5-7da222403898","ios":"levelo://app?vid=c19b3b06-dd40-414d-8bb5-7da222403898"},"vehicle_type_id":"4","last_reported":1726002493,"current_range_meters":34800,"station_id":"ce4bhr92rcd13ifvqhsg","pricing_plan_id":"cebpf4jnsgd1na2vs0mg"},{"bike_id":"5d352641-3593-4267-b2f1-8ab039017e05","system_id":"levelo_inurba_marseille","lat":43.23196,"lon":5.35554,"is_reserved":false,"is_disabled":false,"rental_uris":{"android":"levelo://app?vid=5d352641-3593-4267-b2f1-8ab039017e05","ios":"levelo://app?vid=5d352641-3593-4267-b2f1-8ab039017e05"},"vehicle_type_id":"4","last_reported":1726002493,"current_range_meters":38000,"station_id":"ce4bhu92rcd13ifvqi70","pricing_plan_id":"cebpf4jnsgd1na2vs0mg"},{"bike_id":"2ac32525-0517-4db4-9d06-3cf3b6bf5196","system_id":"levelo_inurba_marseille","lat":43.28722,"lon":5.36098,"is_reserved":false,"is_disabled":false,"rental_uris":{"android":"levelo://app?vid=2ac32525-0517-4db4-9d06-3cf3b6bf5196","ios":"levelo://app?vid=2ac32525-0517-4db4-9d06-3cf3b6bf5196"},"vehicle_type_id":"4","last_reported":1726002493,"current_range_meters":18000,"station_id":"cki0cbj6b192h4jlfktg","pricing_plan_id":"cebpf4jnsgd1na2vs0mg"},{"bike_id":"c22bf776-82f1-423d-83f3-ab20051eb388","system_id":"levelo_inurba_marseille","lat":43.33612,"lon":5.41029,"is_reserved":false,"is_disabled":false,"rental_uris":{"android":"levelo://app?vid=c22bf776-82f1-423d-83f3-ab20051eb388","ios":"levelo://app?vid=c22bf776-82f1-423d-83f3-ab20051eb388"},"vehicle_type_id":"4","last_reported":1726002493,"current_range_meters":8000,"station_id":"ce4bhqh2rcd13ifvqhmg","pricing_plan_id":"cebpf4jnsgd1na2vs0mg"},{"bike_id":"ff7bca58-8493-4759-b627-0547a887ea61","system_id":"levelo_inurba_marseille","lat":43.30137,"lon":5.39863,"is_reserved":false,"is_disabled":false,"rental_uris":{"android":"levelo://app?vid=ff7bca58-8493-4759-b627-0547a887ea61","ios":"levelo://app?vid=ff7bca58-8493-4759-b627-0547a887ea61"},"vehicle_type_id":"4","last_reported":1726002493,"current_range_meters":36400,"station_id":"ce4bh0h2rcd13ifvqd40","pricing_plan_id":"cebpf4jnsgd1na2vs0mg"},{"bike_id":"7c28f853-fb94-4dfe-9706-a5dfbefcce5b","system_id":"levelo_inurba_marseille","lat":43.33728,"lon":5.39173,"is_reserved":false,"is_disabled":false,"rental_uris":{"android":"levelo://app?vid=7c28f853-fb94-4dfe-9706-a5dfbefcce5b","ios":"levelo://app?vid=7c28f853-fb94-4dfe-9706-a5dfbefcce5b"},"vehicle_type_id":"4","last_reported":1726002493,"current_range_meters":38800,"station_id":"ce4bhr92rcd13ifvqhsg","pricing_plan_id":"cebpf4jnsgd1na2vs0mg"},{"bike_id":"20b710bf-db49-498c-854e-997cf71cc110","system_id":"levelo_inurba_marseille","lat":43.29002,"lon":5.35609,"is_reserved":false,"is_disabled":false,"rental_uris":{"android":"levelo://app?vid=20b710bf-db49-498c-854e-997cf71cc110","ios":"levelo://app?vid=20b710bf-db49-498c-854e-997cf71cc110"},"vehicle_type_id":"4","last_reported":1726002493,"current_range_meters":5600,"station_id":"ce4bhb92rcd13ifvqen0","pricing_plan_id":"cebpf4jnsgd1na2vs0mg"},{"bike_id":"9b9547b7-77e2-4c32-9975-f0a65876f133","system_id":"levelo_inurba_marseille","lat":43.28041,"lon":5.36944,"is_reserved":false,"is_disabled":false,"rental_uris":{"android":"levelo://app?vid=9b9547b7-77e2-4c32-9975-f0a65876f133","ios":"levelo://app?vid=9b9547b7-77e2-4c32-9975-f0a65876f133"},"vehicle_type_id":"4","last_reported":1726002493,"current_range_meters":38000,"station_id":"ce4bha12rcd13ifvqef0","pricing_plan_id":"cebpf4jnsgd1na2vs0mg"},{"bike_id":"ee0efcc0-0594-4a83-85d9-439b7eb0d1d1","system_id":"levelo_inurba_marseille","lat":43.23057,"lon":5.35493,"is_reserved":false,"is_disabled":false,"rental_uris":{"android":"levelo://app?vid=ee0efcc0-0594-4a83-85d9-439b7eb0d1d1","ios":"levelo://app?vid=ee0efcc0-0594-4a83-85d9-439b7eb0d1d1"},"vehicle_type_id":"4","last_reported":1726002493,"current_range_meters":38800,"station_id":"cpo3342slgdg3j2ifvpg","pricing_plan_id":"cebpf4jnsgd1na2vs0mg"},{"bike_id":"723c073e-5c6a-4fb9-a382-e8ea44a73076","system_id":"levelo_inurba_marseille","lat":43.29555,"lon":5.42287,"is_reserved":false,"is_disabled":false,"rental_uris":{"android":"levelo://app?vid=723c073e-5c6a-4fb9-a382-e8ea44a73076","ios":"levelo://app?vid=723c073e-5c6a-4fb9-a382-e8ea44a73076"},"vehicle_type_id":"4","last_reported":1726002493,"current_range_meters":30800,"station_id":"ce4bhph2rcd13ifvqhdg","pricing_plan_id":"cebpf4jnsgd1na2vs0mg"},{"bike_id":"2aad4b02-945c-4d35-b3a5-85b3d17dc503","system_id":"levelo_inurba_marseille","lat":43.32296,"lon":5.38255,"is_reserved":false,"is_disabled":false,"rental_uris":{"android":"levelo://app?vid=2aad4b02-945c-4d35-b3a5-85b3d17dc503","ios":"levelo://app?vid=2aad4b02-945c-4d35-b3a5-85b3d17dc503"},"vehicle_type_id":"4","last_reported":1726002493,"current_range_meters":6800,"station_id":"ce4bhr12rcd13ifvqhqg","pricing_plan_id":"cebpf4jnsgd1na2vs0mg"},{"bike_id":"6073408b-b4fc-4eeb-ac9e-351084b1cf63","system_id":"levelo_inurba_marseille","lat":43.24814,"lon":5.37461,"is_reserved":false,"is_disabled":false,"rental_uris":{"android":"levelo://app?vid=6073408b-b4fc-4eeb-ac9e-351084b1cf63","ios":"levelo://app?vid=6073408b-b4fc-4eeb-ac9e-351084b1cf63"},"vehicle_type_id":"4","last_reported":1726002493,"current_range_meters":30000,"station_id":"ce4bhgh2rcd13ifvqfb0","pricing_plan_id":"cebpf4jnsgd1na2vs0mg"},{"bike_id":"b3154663-e456-4f9c-b708-ddf2c310f70e","system_id":"levelo_inurba_marseille","lat":43.28708,"lon":5.3739,"is_reserved":false,"is_disabled":false,"rental_uris":{"android":"levelo://app?vid=b3154663-e456-4f9c-b708-ddf2c310f70e","ios":"levelo://app?vid=b3154663-e456-4f9c-b708-ddf2c310f70e"},"vehicle_type_id":"4","last_reported":1726002493,"current_range_meters":7200,"station_id":"ce4bh3p2rcd13ifvqdq0","pricing_plan_id":"cebpf4jnsgd1na2vs0mg"},{"bike_id":"daaba00f-3008-4d46-b3ae-5d03b02d09cc","system_id":"levelo_inurba_marseille","lat":43.24812,"lon":5.37459,"is_reserved":false,"is_disabled":false,"rental_uris":{"android":"levelo://app?vid=daaba00f-3008-4d46-b3ae-5d03b02d09cc","ios":"levelo://app?vid=daaba00f-3008-4d46-b3ae-5d03b02d09cc"},"vehicle_type_id":"4","last_reported":1726002493,"current_range_meters":36800,"station_id":"ce4bhgh2rcd13ifvqfb0","pricing_plan_id":"cebpf4jnsgd1na2vs0mg"},{"bike_id":"84c57252-713c-40a5-aa21-80642013bf5d","system_id":"levelo_inurba_marseille","lat":43.31166,"lon":5.38726,"is_reserved":false,"is_disabled":false,"rental_uris":{"android":"levelo://app?vid=84c57252-713c-40a5-aa21-80642013bf5d","ios":"levelo://app?vid=84c57252-713c-40a5-aa21-80642013bf5d"},"vehicle_type_id":"4","last_reported":1726002493,"current_range_meters":5600,"station_id":"ce4bgv12rcd13ifvqcp0","pricing_plan_id":"cebpf4jnsgd1na2vs0mg"},{"bike_id":"087e0913-97cb-4be6-af1f-86ff2ddedf5b","system_id":"levelo_inurba_marseille","lat":43.29572,"lon":5.3997,"is_reserved":false,"is_disabled":false,"rental_uris":{"android":"levelo://app?vid=087e0913-97cb-4be6-af1f-86ff2ddedf5b","ios":"levelo://app?vid=087e0913-97cb-4be6-af1f-86ff2ddedf5b"},"vehicle_type_id":"4","last_reported":1726002493,"current_range_meters":30800,"station_id":"ce4bh312rcd13ifvqdj0","pricing_plan_id":"cebpf4jnsgd1na2vs0mg"},{"bike_id":"af67cb29-c79d-435b-a7c0-0fdbf5bf4b4f","system_id":"levelo_inurba_marseille","lat":43.30602,"lon":5.37224,"is_reserved":false,"is_disabled":false,"rental_uris":{"android":"levelo://app?vid=af67cb29-c79d-435b-a7c0-0fdbf5bf4b4f","ios":"levelo://app?vid=af67cb29-c79d-435b-a7c0-0fdbf5bf4b4f"},"vehicle_type_id":"4","last_reported":1726002493,"current_range_meters":2000,"station_id":"ce4bgqh2rcd13ifvqc4g","pricing_plan_id":"cebpf4jnsgd1na2vs0mg"},{"bike_id":"a41e32a9-535f-4424-a3a9-8eca692f9b0f","system_id":"levelo_inurba_marseille","lat":43.26681,"lon":5.38273,"is_reserved":false,"is_disabled":false,"rental_uris":{"android":"levelo://app?vid=a41e32a9-535f-4424-a3a9-8eca692f9b0f","ios":"levelo://app?vid=a41e32a9-535f-4424-a3a9-8eca692f9b0f"},"vehicle_type_id":"4","last_reported":1726002493,"current_range_meters":38400,"station_id":"ce4bhg92rcd13ifvqf90","pricing_plan_id":"cebpf4jnsgd1na2vs0mg"},{"bike_id":"3a5232c5-cc45-44ea-84c3-d1e824e620d9","system_id":"levelo_inurba_marseille","lat":43.31999,"lon":5.38151,"is_reserved":false,"is_disabled":false,"rental_uris":{"android":"levelo://app?vid=3a5232c5-cc45-44ea-84c3-d1e824e620d9","ios":"levelo://app?vid=3a5232c5-cc45-44ea-84c3-d1e824e620d9"},"vehicle_type_id":"4","last_reported":1726002493,"current_range_meters":22400,"station_id":"ce4bhr12rcd13ifvqhpg","pricing_plan_id":"cebpf4jnsgd1na2vs0mg"},{"bike_id":"c4a11cd6-597d-4826-ad55-56b34d91dddb","system_id":"levelo_inurba_marseille","lat":43.24079,"lon":5.37765,"is_reserved":false,"is_disabled":false,"rental_uris":{"android":"levelo://app?vid=c4a11cd6-597d-4826-ad55-56b34d91dddb","ios":"levelo://app?vid=c4a11cd6-597d-4826-ad55-56b34d91dddb"},"vehicle_type_id":"4","last_reported":1726002493,"current_range_meters":15200,"station_id":"ce4bhnp2rcd13ifvqgvg","pricing_plan_id":"cebpf4jnsgd1na2vs0mg"},{"bike_id":"d54594b9-a6b7-4d66-b6dc-634366005ad6","system_id":"levelo_inurba_marseille","lat":43.31499,"lon":5.37309,"is_reserved":false,"is_disabled":false,"rental_uris":{"android":"levelo://app?vid=d54594b9-a6b7-4d66-b6dc-634366005ad6","ios":"levelo://app?vid=d54594b9-a6b7-4d66-b6dc-634366005ad6"},"vehicle_type_id":"4","last_reported":1726002493,"current_range_meters":16800,"station_id":"ce4bgt12rcd13ifvqcd0","pricing_plan_id":"cebpf4jnsgd1na2vs0mg"},{"bike_id":"d479c876-2159-43b6-a8cf-685fded57ab7","system_id":"levelo_inurba_marseille","lat":43.32365,"lon":5.38882,"is_reserved":false,"is_disabled":false,"rental_uris":{"android":"levelo://app?vid=d479c876-2159-43b6-a8cf-685fded57ab7","ios":"levelo://app?vid=d479c876-2159-43b6-a8cf-685fded57ab7"},"vehicle_type_id":"4","last_reported":1726002493,"current_range_meters":8000,"station_id":"ce4bhqp2rcd13ifvqhog","pricing_plan_id":"cebpf4jnsgd1na2vs0mg"},{"bike_id":"b02406c7-9bcc-4f4f-b2a0-db482974a705","system_id":"levelo_inurba_marseille","lat":43.23187,"lon":5.39983,"is_reserved":false,"is_disabled":false,"rental_uris":{"android":"levelo://app?vid=b02406c7-9bcc-4f4f-b2a0-db482974a705","ios":"levelo://app?vid=b02406c7-9bcc-4f4f-b2a0-db482974a705"},"vehicle_type_id":"4","last_reported":1726002493,"current_range_meters":23200,"station_id":"ce4bhn12rcd13ifvqgqg","pricing_plan_id":"cebpf4jnsgd1na2vs0mg"},{"bike_id":"502599a9-0fd7-4d67-ab54-668eb8998d53","system_id":"levelo_inurba_marseille","lat":43.288386,"lon":5.360657,"is_reserved":false,"is_disabled":false,"rental_uris":{"android":"levelo://app?vid=502599a9-0fd7-4d67-ab54-668eb8998d53","ios":"levelo://app?vid=502599a9-0fd7-4d67-ab54-668eb8998d53"},"vehicle_type_id":"4","last_reported":1726002493,"current_range_meters":30400,"station_id":"cki0cbj6b192h4jlfktg","pricing_plan_id":"cebpf4jnsgd1na2vs0mg"},{"bike_id":"71dddd00-5804-4f12-b266-482c87e0b2bc","system_id":"levelo_inurba_marseille","lat":43.30279,"lon":5.37699,"is_reserved":false,"is_disabled":false,"rental_uris":{"android":"levelo://app?vid=71dddd00-5804-4f12-b266-482c87e0b2bc","ios":"levelo://app?vid=71dddd00-5804-4f12-b266-482c87e0b2bc"},"vehicle_type_id":"4","last_reported":1726002493,"current_range_meters":34000,"station_id":"ce4bguh2rcd13ifvqcj0","pricing_plan_id":"cebpf4jnsgd1na2vs0mg"},{"bike_id":"aa48e06d-2a80-4fd2-abe7-d40b52d43407","system_id":"levelo_inurba_marseille","lat":43.28729,"lon":5.3608,"is_reserved":false,"is_disabled":false,"rental_uris":{"android":"levelo://app?vid=aa48e06d-2a80-4fd2-abe7-d40b52d43407","ios":"levelo://app?vid=aa48e06d-2a80-4fd2-abe7-d40b52d43407"},"vehicle_type_id":"4","last_reported":1726002493,"current_range_meters":24000,"station_id":"cki0cbj6b192h4jlfktg","pricing_plan_id":"cebpf4jnsgd1na2vs0mg"},{"bike_id":"40906c97-bfd2-4a7a-a1ff-4c8c7ec85d9c","system_id":"levelo_inurba_marseille","lat":43.29253,"lon":5.40904,"is_reserved":false,"is_disabled":false,"rental_uris":{"android":"levelo://app?vid=40906c97-bfd2-4a7a-a1ff-4c8c7ec85d9c","ios":"levelo://app?vid=40906c97-bfd2-4a7a-a1ff-4c8c7ec85d9c"},"vehicle_type_id":"4","last_reported":1726002493,"current_range_meters":32000,"station_id":"ce4bh192rcd13ifvqdc0","pricing_plan_id":"cebpf4jnsgd1na2vs0mg"},{"bike_id":"6f8ceca9-efdc-4afc-832a-772ca41bad51","system_id":"levelo_inurba_marseille","lat":43.316686,"lon":5.424032,"is_reserved":false,"is_disabled":false,"rental_uris":{"android":"levelo://app?vid=6f8ceca9-efdc-4afc-832a-772ca41bad51","ios":"levelo://app?vid=6f8ceca9-efdc-4afc-832a-772ca41bad51"},"vehicle_type_id":"4","last_reported":1726002493,"current_range_meters":32800,"station_id":"ce4bhp92rcd13ifvqhbg","pricing_plan_id":"cebpf4jnsgd1na2vs0mg"},{"bike_id":"9ab5287d-e0da-4d85-a4c5-9ff97a78a028","system_id":"levelo_inurba_marseille","lat":43.25489,"lon":5.37649,"is_reserved":false,"is_disabled":false,"rental_uris":{"android":"levelo://app?vid=9ab5287d-e0da-4d85-a4c5-9ff97a78a028","ios":"levelo://app?vid=9ab5287d-e0da-4d85-a4c5-9ff97a78a028"},"vehicle_type_id":"4","last_reported":1726002493,"current_range_meters":30400,"station_id":"ce4bhh12rcd13ifvqff0","pricing_plan_id":"cebpf4jnsgd1na2vs0mg"},{"bike_id":"4b740380-435b-4ce9-9b96-3da5fb37bac6","system_id":"levelo_inurba_marseille","lat":43.30965,"lon":5.40072,"is_reserved":false,"is_disabled":false,"rental_uris":{"android":"levelo://app?vid=4b740380-435b-4ce9-9b96-3da5fb37bac6","ios":"levelo://app?vid=4b740380-435b-4ce9-9b96-3da5fb37bac6"},"vehicle_type_id":"4","last_reported":1726002493,"current_range_meters":11200,"station_id":"ce4bhpp2rcd13ifvqhgg","pricing_plan_id":"cebpf4jnsgd1na2vs0mg"},{"bike_id":"7b2b6aa9-d9ad-475c-a16f-abdf3eec6d77","system_id":"levelo_inurba_marseille","lat":43.2293,"lon":5.35379,"is_reserved":false,"is_disabled":false,"rental_uris":{"android":"levelo://app?vid=7b2b6aa9-d9ad-475c-a16f-abdf3eec6d77","ios":"levelo://app?vid=7b2b6aa9-d9ad-475c-a16f-abdf3eec6d77"},"vehicle_type_id":"4","last_reported":1726002493,"current_range_meters":20000,"station_id":"cpo3532slgdg3j2ikp40","pricing_plan_id":"cebpf4jnsgd1na2vs0mg"},{"bike_id":"ff227ad7-5145-445f-aa3e-c67ab06800ce","system_id":"levelo_inurba_marseille","lat":43.30431,"lon":5.38903,"is_reserved":false,"is_disabled":false,"rental_uris":{"android":"levelo://app?vid=ff227ad7-5145-445f-aa3e-c67ab06800ce","ios":"levelo://app?vid=ff227ad7-5145-445f-aa3e-c67ab06800ce"},"vehicle_type_id":"4","last_reported":1726002493,"current_range_meters":36800,"station_id":"ce4bgk12rcd13ifvqbi0","pricing_plan_id":"cebpf4jnsgd1na2vs0mg"},{"bike_id":"252f5fa2-8e1d-4049-b504-0cdb6366283f","system_id":"levelo_inurba_marseille","lat":43.27811,"lon":5.40712,"is_reserved":false,"is_disabled":false,"rental_uris":{"android":"levelo://app?vid=252f5fa2-8e1d-4049-b504-0cdb6366283f","ios":"levelo://app?vid=252f5fa2-8e1d-4049-b504-0cdb6366283f"},"vehicle_type_id":"4","last_reported":1726002493,"current_range_meters":27600,"station_id":"ce4bhnh2rcd13ifvqgtg","pricing_plan_id":"cebpf4jnsgd1na2vs0mg"},{"bike_id":"8cdc2b56-5f7c-4759-80d2-b8b55c458b9a","system_id":"levelo_inurba_marseille","lat":43.265113,"lon":5.39537,"is_reserved":false,"is_disabled":false,"rental_uris":{"android":"levelo://app?vid=8cdc2b56-5f7c-4759-80d2-b8b55c458b9a","ios":"levelo://app?vid=8cdc2b56-5f7c-4759-80d2-b8b55c458b9a"},"vehicle_type_id":"4","last_reported":1726002493,"current_range_meters":2800,"station_id":"ce4bhi12rcd13ifvqfq0","pricing_plan_id":"cebpf4jnsgd1na2vs0mg"},{"bike_id":"7f4ea667-56df-4b26-bd46-3e71bc3cc245","system_id":"levelo_inurba_marseille","lat":43.29314,"lon":5.35558,"is_reserved":false,"is_disabled":false,"rental_uris":{"android":"levelo://app?vid=7f4ea667-56df-4b26-bd46-3e71bc3cc245","ios":"levelo://app?vid=7f4ea667-56df-4b26-bd46-3e71bc3cc245"},"vehicle_type_id":"4","last_reported":1726002493,"current_range_meters":6800,"station_id":"","pricing_plan_id":"cebpf4jnsgd1na2vs0mg"},{"bike_id":"3b163329-75e0-42ce-a395-e2936b5dfbec","system_id":"levelo_inurba_marseille","lat":43.2956,"lon":5.42288,"is_reserved":false,"is_disabled":false,"rental_uris":{"android":"levelo://app?vid=3b163329-75e0-42ce-a395-e2936b5dfbec","ios":"levelo://app?vid=3b163329-75e0-42ce-a395-e2936b5dfbec"},"vehicle_type_id":"4","last_reported":1726002493,"current_range_meters":18800,"station_id":"ce4bhph2rcd13ifvqhdg","pricing_plan_id":"cebpf4jnsgd1na2vs0mg"},{"bike_id":"d3c8ea6e-d01d-4d9e-9557-beffc1884ace","system_id":"levelo_inurba_marseille","lat":43.32285,"lon":5.38284,"is_reserved":false,"is_disabled":false,"rental_uris":{"android":"levelo://app?vid=d3c8ea6e-d01d-4d9e-9557-beffc1884ace","ios":"levelo://app?vid=d3c8ea6e-d01d-4d9e-9557-beffc1884ace"},"vehicle_type_id":"4","last_reported":1726002493,"current_range_meters":38800,"station_id":"ce4bhr12rcd13ifvqhqg","pricing_plan_id":"cebpf4jnsgd1na2vs0mg"},{"bike_id":"25d9a4ed-b3a2-4cb5-aa38-45aee598f7cc","system_id":"levelo_inurba_marseille","lat":43.31334,"lon":5.39726,"is_reserved":false,"is_disabled":false,"rental_uris":{"android":"levelo://app?vid=25d9a4ed-b3a2-4cb5-aa38-45aee598f7cc","ios":"levelo://app?vid=25d9a4ed-b3a2-4cb5-aa38-45aee598f7cc"},"vehicle_type_id":"4","last_reported":1726002493,"current_range_meters":3600,"station_id":"ce4bgvp2rcd13ifvqcu0","pricing_plan_id":"cebpf4jnsgd1na2vs0mg"},{"bike_id":"4b6020ac-6f7c-49d8-a279-afedbd336735","system_id":"levelo_inurba_marseille","lat":43.31998,"lon":5.38155,"is_reserved":false,"is_disabled":false,"rental_uris":{"android":"levelo://app?vid=4b6020ac-6f7c-49d8-a279-afedbd336735","ios":"levelo://app?vid=4b6020ac-6f7c-49d8-a279-afedbd336735"},"vehicle_type_id":"4","last_reported":1726002493,"current_range_meters":22800,"station_id":"ce4bhr12rcd13ifvqhpg","pricing_plan_id":"cebpf4jnsgd1na2vs0mg"},{"bike_id":"507f99d3-0b82-4a35-89e2-98eb58769a71","system_id":"levelo_inurba_marseille","lat":43.23192,"lon":5.35549,"is_reserved":false,"is_disabled":false,"rental_uris":{"android":"levelo://app?vid=507f99d3-0b82-4a35-89e2-98eb58769a71","ios":"levelo://app?vid=507f99d3-0b82-4a35-89e2-98eb58769a71"},"vehicle_type_id":"4","last_reported":1726002493,"current_range_meters":15200,"station_id":"ce4bhu92rcd13ifvqi70","pricing_plan_id":"cebpf4jnsgd1na2vs0mg"},{"bike_id":"55655b5f-2417-4cb9-a662-d6cecf83fcf4","system_id":"levelo_inurba_marseille","lat":43.31075,"lon":5.38111,"is_reserved":false,"is_disabled":false,"rental_uris":{"android":"levelo://app?vid=55655b5f-2417-4cb9-a662-d6cecf83fcf4","ios":"levelo://app?vid=55655b5f-2417-4cb9-a662-d6cecf83fcf4"},"vehicle_type_id":"4","last_reported":1726002493,"current_range_meters":22000,"station_id":"","pricing_plan_id":"cebpf4jnsgd1na2vs0mg"},{"bike_id":"24ea4db4-bcd3-4773-a10c-e0451f1c0df9","system_id":"levelo_inurba_marseille","lat":43.28036,"lon":5.3694,"is_reserved":false,"is_disabled":false,"rental_uris":{"android":"levelo://app?vid=24ea4db4-bcd3-4773-a10c-e0451f1c0df9","ios":"levelo://app?vid=24ea4db4-bcd3-4773-a10c-e0451f1c0df9"},"vehicle_type_id":"4","last_reported":1726002493,"current_range_meters":36800,"station_id":"ce4bha12rcd13ifvqef0","pricing_plan_id":"cebpf4jnsgd1na2vs0mg"},{"bike_id":"36e02e03-11f3-41ac-9b0f-93c4017adc48","system_id":"levelo_inurba_marseille","lat":43.27354,"lon":5.41599,"is_reserved":false,"is_disabled":false,"rental_uris":{"android":"levelo://app?vid=36e02e03-11f3-41ac-9b0f-93c4017adc48","ios":"levelo://app?vid=36e02e03-11f3-41ac-9b0f-93c4017adc48"},"vehicle_type_id":"4","last_reported":1726002493,"current_range_meters":4800,"station_id":"","pricing_plan_id":"cebpf4jnsgd1na2vs0mg"},{"bike_id":"a96df557-eb85-482a-a2f9-6a35f4bb1ec1","system_id":"levelo_inurba_marseille","lat":43.31683,"lon":5.40472,"is_reserved":false,"is_disabled":false,"rental_uris":{"android":"levelo://app?vid=a96df557-eb85-482a-a2f9-6a35f4bb1ec1","ios":"levelo://app?vid=a96df557-eb85-482a-a2f9-6a35f4bb1ec1"},"vehicle_type_id":"4","last_reported":1726002493,"current_range_meters":32800,"station_id":"ce4bh012rcd13ifvqd00","pricing_plan_id":"cebpf4jnsgd1na2vs0mg"},{"bike_id":"36973a74-dcb5-42a3-b6ab-222146836943","system_id":"levelo_inurba_marseille","lat":43.3176,"lon":5.39009,"is_reserved":false,"is_disabled":false,"rental_uris":{"android":"levelo://app?vid=36973a74-dcb5-42a3-b6ab-222146836943","ios":"levelo://app?vid=36973a74-dcb5-42a3-b6ab-222146836943"},"vehicle_type_id":"4","last_reported":1726002493,"current_range_meters":17200,"station_id":"ce4bhqp2rcd13ifvqhng","pricing_plan_id":"cebpf4jnsgd1na2vs0mg"},{"bike_id":"4dc41bf5-9ea0-4e32-a6f7-f44ecc919c2a","system_id":"levelo_inurba_marseille","lat":43.317088,"lon":5.377489,"is_reserved":false,"is_disabled":false,"rental_uris":{"android":"levelo://app?vid=4dc41bf5-9ea0-4e32-a6f7-f44ecc919c2a","ios":"levelo://app?vid=4dc41bf5-9ea0-4e32-a6f7-f44ecc919c2a"},"vehicle_type_id":"4","last_reported":1726002493,"current_range_meters":38800,"station_id":"ce4bgth2rcd13ifvqch0","pricing_plan_id":"cebpf4jnsgd1na2vs0mg"},{"bike_id":"4dee8e14-2651-4989-821f-b3dba2009f28","system_id":"levelo_inurba_marseille","lat":43.25725,"lon":5.41112,"is_reserved":false,"is_disabled":false,"rental_uris":{"android":"levelo://app?vid=4dee8e14-2651-4989-821f-b3dba2009f28","ios":"levelo://app?vid=4dee8e14-2651-4989-821f-b3dba2009f28"},"vehicle_type_id":"4","last_reported":1726002493,"current_range_meters":25200,"station_id":"ce4bhkp2rcd13ifvqgd0","pricing_plan_id":"cebpf4jnsgd1na2vs0mg"},{"bike_id":"bb4252ca-bc6f-48c1-8265-ef768f01384a","system_id":"levelo_inurba_marseille","lat":43.283813,"lon":5.380858,"is_reserved":false,"is_disabled":false,"rental_uris":{"android":"levelo://app?vid=bb4252ca-bc6f-48c1-8265-ef768f01384a","ios":"levelo://app?vid=bb4252ca-bc6f-48c1-8265-ef768f01384a"},"vehicle_type_id":"4","last_reported":1726002493,"current_range_meters":6000,"station_id":"ce4bh412rcd13ifvqdr0","pricing_plan_id":"cebpf4jnsgd1na2vs0mg"},{"bike_id":"9042a679-e579-498b-bc4f-3859be122eff","system_id":"levelo_inurba_marseille","lat":43.31763,"lon":5.3901,"is_reserved":false,"is_disabled":false,"rental_uris":{"android":"levelo://app?vid=9042a679-e579-498b-bc4f-3859be122eff","ios":"levelo://app?vid=9042a679-e579-498b-bc4f-3859be122eff"},"vehicle_type_id":"4","last_reported":1726002493,"current_range_meters":6400,"station_id":"ce4bhqp2rcd13ifvqhng","pricing_plan_id":"cebpf4jnsgd1na2vs0mg"},{"bike_id":"b24bcaac-1ebb-42e7-886a-a6b3b2b9eba8","system_id":"levelo_inurba_marseille","lat":43.28456,"lon":5.3589,"is_reserved":false,"is_disabled":false,"rental_uris":{"android":"levelo://app?vid=b24bcaac-1ebb-42e7-886a-a6b3b2b9eba8","ios":"levelo://app?vid=b24bcaac-1ebb-42e7-886a-a6b3b2b9eba8"},"vehicle_type_id":"4","last_reported":1726002493,"current_range_meters":35200,"station_id":"ce4bhah2rcd13ifvqei0","pricing_plan_id":"cebpf4jnsgd1na2vs0mg"},{"bike_id":"c8556cf0-f832-42b6-92cc-1120f0bf955c","system_id":"levelo_inurba_marseille","lat":43.31758,"lon":5.39017,"is_reserved":false,"is_disabled":false,"rental_uris":{"android":"levelo://app?vid=c8556cf0-f832-42b6-92cc-1120f0bf955c","ios":"levelo://app?vid=c8556cf0-f832-42b6-92cc-1120f0bf955c"},"vehicle_type_id":"4","last_reported":1726002493,"current_range_meters":33200,"station_id":"ce4bhqp2rcd13ifvqhng","pricing_plan_id":"cebpf4jnsgd1na2vs0mg"},{"bike_id":"e7f1ce34-711f-4386-95b9-fe5f61acdbcc","system_id":"levelo_inurba_marseille","lat":43.27384,"lon":5.36265,"is_reserved":false,"is_disabled":false,"rental_uris":{"android":"levelo://app?vid=e7f1ce34-711f-4386-95b9-fe5f61acdbcc","ios":"levelo://app?vid=e7f1ce34-711f-4386-95b9-fe5f61acdbcc"},"vehicle_type_id":"4","last_reported":1726002493,"current_range_meters":34800,"station_id":"ce4bhbh2rcd13ifvqeo0","pricing_plan_id":"cebpf4jnsgd1na2vs0mg"},{"bike_id":"5876c5ef-9fac-478d-bd3c-ea1780c21005","system_id":"levelo_inurba_marseille","lat":43.33762,"lon":5.3745,"is_reserved":false,"is_disabled":false,"rental_uris":{"android":"levelo://app?vid=5876c5ef-9fac-478d-bd3c-ea1780c21005","ios":"levelo://app?vid=5876c5ef-9fac-478d-bd3c-ea1780c21005"},"vehicle_type_id":"4","last_reported":1726002493,"current_range_meters":35200,"station_id":"","pricing_plan_id":"cebpf4jnsgd1na2vs0mg"},{"bike_id":"3ef293cb-6b10-47c2-a61b-1c747b67c2aa","system_id":"levelo_inurba_marseille","lat":43.22931,"lon":5.35376,"is_reserved":false,"is_disabled":false,"rental_uris":{"android":"levelo://app?vid=3ef293cb-6b10-47c2-a61b-1c747b67c2aa","ios":"levelo://app?vid=3ef293cb-6b10-47c2-a61b-1c747b67c2aa"},"vehicle_type_id":"4","last_reported":1726002493,"current_range_meters":38400,"station_id":"cpo3532slgdg3j2ikp40","pricing_plan_id":"cebpf4jnsgd1na2vs0mg"},{"bike_id":"9658173f-729f-44c0-b272-df35fcc2e649","system_id":"levelo_inurba_marseille","lat":43.34144,"lon":5.40904,"is_reserved":false,"is_disabled":false,"rental_uris":{"android":"levelo://app?vid=9658173f-729f-44c0-b272-df35fcc2e649","ios":"levelo://app?vid=9658173f-729f-44c0-b272-df35fcc2e649"},"vehicle_type_id":"4","last_reported":1726002493,"current_range_meters":33200,"station_id":"ce4bhqh2rcd13ifvqhlg","pricing_plan_id":"cebpf4jnsgd1na2vs0mg"},{"bike_id":"ac68cfcd-c622-4cae-a4f4-25995a94d109","system_id":"levelo_inurba_marseille","lat":43.3266,"lon":5.40998,"is_reserved":false,"is_disabled":false,"rental_uris":{"android":"levelo://app?vid=ac68cfcd-c622-4cae-a4f4-25995a94d109","ios":"levelo://app?vid=ac68cfcd-c622-4cae-a4f4-25995a94d109"},"vehicle_type_id":"4","last_reported":1726002493,"current_range_meters":36800,"station_id":"ce4bhpp2rcd13ifvqhgg","pricing_plan_id":"cebpf4jnsgd1na2vs0mg"},{"bike_id":"9d97c6b7-d5ff-4ca7-999e-9c4395e89c55","system_id":"levelo_inurba_marseille","lat":43.24071,"lon":5.37765,"is_reserved":false,"is_disabled":false,"rental_uris":{"android":"levelo://app?vid=9d97c6b7-d5ff-4ca7-999e-9c4395e89c55","ios":"levelo://app?vid=9d97c6b7-d5ff-4ca7-999e-9c4395e89c55"},"vehicle_type_id":"4","last_reported":1726002493,"current_range_meters":38800,"station_id":"ce4bhnp2rcd13ifvqgvg","pricing_plan_id":"cebpf4jnsgd1na2vs0mg"},{"bike_id":"e72f9d1f-419f-450b-86df-c8dd274dc578","system_id":"levelo_inurba_marseille","lat":43.31754,"lon":5.3902,"is_reserved":false,"is_disabled":false,"rental_uris":{"android":"levelo://app?vid=e72f9d1f-419f-450b-86df-c8dd274dc578","ios":"levelo://app?vid=e72f9d1f-419f-450b-86df-c8dd274dc578"},"vehicle_type_id":"4","last_reported":1726002493,"current_range_meters":11200,"station_id":"ce4bhqp2rcd13ifvqhng","pricing_plan_id":"cebpf4jnsgd1na2vs0mg"},{"bike_id":"7abb3655-b461-4e13-bc97-8c353f282d6b","system_id":"levelo_inurba_marseille","lat":43.23182,"lon":5.39984,"is_reserved":false,"is_disabled":false,"rental_uris":{"android":"levelo://app?vid=7abb3655-b461-4e13-bc97-8c353f282d6b","ios":"levelo://app?vid=7abb3655-b461-4e13-bc97-8c353f282d6b"},"vehicle_type_id":"4","last_reported":1726002493,"current_range_meters":8400,"station_id":"ce4bhn12rcd13ifvqgqg","pricing_plan_id":"cebpf4jnsgd1na2vs0mg"},{"bike_id":"3f48e559-de96-42ea-88b9-925d9064e054","system_id":"levelo_inurba_marseille","lat":43.31371,"lon":5.38493,"is_reserved":false,"is_disabled":false,"rental_uris":{"android":"levelo://app?vid=3f48e559-de96-42ea-88b9-925d9064e054","ios":"levelo://app?vid=3f48e559-de96-42ea-88b9-925d9064e054"},"vehicle_type_id":"4","last_reported":1726002493,"current_range_meters":10800,"station_id":"ce4bgt92rcd13ifvqcf0","pricing_plan_id":"cebpf4jnsgd1na2vs0mg"},{"bike_id":"574ddf14-ed43-4b63-88dd-4fcac25f6263","system_id":"levelo_inurba_marseille","lat":43.291703,"lon":5.360426,"is_reserved":false,"is_disabled":false,"rental_uris":{"android":"levelo://app?vid=574ddf14-ed43-4b63-88dd-4fcac25f6263","ios":"levelo://app?vid=574ddf14-ed43-4b63-88dd-4fcac25f6263"},"vehicle_type_id":"4","last_reported":1726002493,"current_range_meters":29600,"station_id":"ce4bhah2rcd13ifvqei0","pricing_plan_id":"cebpf4jnsgd1na2vs0mg"},{"bike_id":"2d3e3ae7-05b6-4fc0-a64a-df935b3f58a2","system_id":"levelo_inurba_marseille","lat":43.31071,"lon":5.38354,"is_reserved":false,"is_disabled":false,"rental_uris":{"android":"levelo://app?vid=2d3e3ae7-05b6-4fc0-a64a-df935b3f58a2","ios":"levelo://app?vid=2d3e3ae7-05b6-4fc0-a64a-df935b3f58a2"},"vehicle_type_id":"4","last_reported":1726002493,"current_range_meters":38800,"station_id":"ce4bgv92rcd13ifvqcr0","pricing_plan_id":"cebpf4jnsgd1na2vs0mg"},{"bike_id":"1836bf3a-473d-4a07-8219-109d380fba4b","system_id":"levelo_inurba_marseille","lat":43.30952,"lon":5.39042,"is_reserved":false,"is_disabled":false,"rental_uris":{"android":"levelo://app?vid=1836bf3a-473d-4a07-8219-109d380fba4b","ios":"levelo://app?vid=1836bf3a-473d-4a07-8219-109d380fba4b"},"vehicle_type_id":"4","last_reported":1726002493,"current_range_meters":15200,"station_id":"ce4bgup2rcd13ifvqco0","pricing_plan_id":"cebpf4jnsgd1na2vs0mg"},{"bike_id":"09ffcbdf-58a8-4a2b-b359-e87abe1f9d3d","system_id":"levelo_inurba_marseille","lat":43.28663,"lon":5.36355,"is_reserved":false,"is_disabled":false,"rental_uris":{"android":"levelo://app?vid=09ffcbdf-58a8-4a2b-b359-e87abe1f9d3d","ios":"levelo://app?vid=09ffcbdf-58a8-4a2b-b359-e87abe1f9d3d"},"vehicle_type_id":"4","last_reported":1726002493,"current_range_meters":36400,"station_id":"ce4bhah2rcd13ifvqej0","pricing_plan_id":"cebpf4jnsgd1na2vs0mg"},{"bike_id":"efc07193-6a27-4621-a593-eee5190ed64b","system_id":"levelo_inurba_marseille","lat":43.29781,"lon":5.3712,"is_reserved":false,"is_disabled":false,"rental_uris":{"android":"levelo://app?vid=efc07193-6a27-4621-a593-eee5190ed64b","ios":"levelo://app?vid=efc07193-6a27-4621-a593-eee5190ed64b"},"vehicle_type_id":"4","last_reported":1726002493,"current_range_meters":32400,"station_id":"ce4bgop2rcd13ifvqc1g","pricing_plan_id":"cebpf4jnsgd1na2vs0mg"},{"bike_id":"6193a3b5-4741-4e20-892f-71f4056d0de9","system_id":"levelo_inurba_marseille","lat":43.23188,"lon":5.39994,"is_reserved":false,"is_disabled":false,"rental_uris":{"android":"levelo://app?vid=6193a3b5-4741-4e20-892f-71f4056d0de9","ios":"levelo://app?vid=6193a3b5-4741-4e20-892f-71f4056d0de9"},"vehicle_type_id":"4","last_reported":1726002493,"current_range_meters":36400,"station_id":"ce4bhn12rcd13ifvqgqg","pricing_plan_id":"cebpf4jnsgd1na2vs0mg"},{"bike_id":"1bc6d034-1c4e-4b81-95f7-9274b014bd03","system_id":"levelo_inurba_marseille","lat":43.28462,"lon":5.35897,"is_reserved":false,"is_disabled":false,"rental_uris":{"android":"levelo://app?vid=1bc6d034-1c4e-4b81-95f7-9274b014bd03","ios":"levelo://app?vid=1bc6d034-1c4e-4b81-95f7-9274b014bd03"},"vehicle_type_id":"4","last_reported":1726002493,"current_range_meters":32800,"station_id":"ce4bhah2rcd13ifvqei0","pricing_plan_id":"cebpf4jnsgd1na2vs0mg"},{"bike_id":"5e2608d4-e8f7-4b65-abbb-6f7b0a13c326","system_id":"levelo_inurba_marseille","lat":43.28443,"lon":5.3919,"is_reserved":false,"is_disabled":false,"rental_uris":{"android":"levelo://app?vid=5e2608d4-e8f7-4b65-abbb-6f7b0a13c326","ios":"levelo://app?vid=5e2608d4-e8f7-4b65-abbb-6f7b0a13c326"},"vehicle_type_id":"4","last_reported":1726002493,"current_range_meters":32000,"station_id":"ce4bhoh2rcd13ifvqh5g","pricing_plan_id":"cebpf4jnsgd1na2vs0mg"},{"bike_id":"c280655b-da46-4f44-b4b9-5550f40c0e7d","system_id":"levelo_inurba_marseille","lat":43.32289,"lon":5.38268,"is_reserved":false,"is_disabled":false,"rental_uris":{"android":"levelo://app?vid=c280655b-da46-4f44-b4b9-5550f40c0e7d","ios":"levelo://app?vid=c280655b-da46-4f44-b4b9-5550f40c0e7d"},"vehicle_type_id":"4","last_reported":1726002493,"current_range_meters":22000,"station_id":"ce4bhr12rcd13ifvqhqg","pricing_plan_id":"cebpf4jnsgd1na2vs0mg"},{"bike_id":"d366d7a4-0426-4053-8099-780658e44800","system_id":"levelo_inurba_marseille","lat":43.31172,"lon":5.38713,"is_reserved":false,"is_disabled":false,"rental_uris":{"android":"levelo://app?vid=d366d7a4-0426-4053-8099-780658e44800","ios":"levelo://app?vid=d366d7a4-0426-4053-8099-780658e44800"},"vehicle_type_id":"4","last_reported":1726002493,"current_range_meters":12000,"station_id":"ce4bgv12rcd13ifvqcp0","pricing_plan_id":"cebpf4jnsgd1na2vs0mg"},{"bike_id":"c25508be-a553-4e86-b959-6cf74594e042","system_id":"levelo_inurba_marseille","lat":43.31171,"lon":5.38713,"is_reserved":false,"is_disabled":false,"rental_uris":{"android":"levelo://app?vid=c25508be-a553-4e86-b959-6cf74594e042","ios":"levelo://app?vid=c25508be-a553-4e86-b959-6cf74594e042"},"vehicle_type_id":"4","last_reported":1726002493,"current_range_meters":22400,"station_id":"ce4bgv12rcd13ifvqcp0","pricing_plan_id":"cebpf4jnsgd1na2vs0mg"},{"bike_id":"c8e0fcb6-1d3f-4d83-b861-1f56e6b3ab2c","system_id":"levelo_inurba_marseille","lat":43.32292,"lon":5.38257,"is_reserved":false,"is_disabled":false,"rental_uris":{"android":"levelo://app?vid=c8e0fcb6-1d3f-4d83-b861-1f56e6b3ab2c","ios":"levelo://app?vid=c8e0fcb6-1d3f-4d83-b861-1f56e6b3ab2c"},"vehicle_type_id":"4","last_reported":1726002493,"current_range_meters":34800,"station_id":"ce4bhr12rcd13ifvqhqg","pricing_plan_id":"cebpf4jnsgd1na2vs0mg"},{"bike_id":"6776db5f-50cd-4d20-b245-c2e33644fee2","system_id":"levelo_inurba_marseille","lat":43.30885,"lon":5.372,"is_reserved":false,"is_disabled":false,"rental_uris":{"android":"levelo://app?vid=6776db5f-50cd-4d20-b245-c2e33644fee2","ios":"levelo://app?vid=6776db5f-50cd-4d20-b245-c2e33644fee2"},"vehicle_type_id":"4","last_reported":1726002493,"current_range_meters":19200,"station_id":"ce4bguh2rcd13ifvqckg","pricing_plan_id":"cebpf4jnsgd1na2vs0mg"},{"bike_id":"a29b6e33-c460-4cfc-a7e7-bf10de0b992f","system_id":"levelo_inurba_marseille","lat":43.26935,"lon":5.3892,"is_reserved":false,"is_disabled":false,"rental_uris":{"android":"levelo://app?vid=a29b6e33-c460-4cfc-a7e7-bf10de0b992f","ios":"levelo://app?vid=a29b6e33-c460-4cfc-a7e7-bf10de0b992f"},"vehicle_type_id":"4","last_reported":1726002493,"current_range_meters":9200,"station_id":"ce4bhhh2rcd13ifvqfl0","pricing_plan_id":"cebpf4jnsgd1na2vs0mg"},{"bike_id":"2eefbf25-f93b-4995-be57-cb3603b6bd3a","system_id":"levelo_inurba_marseille","lat":43.29624,"lon":5.37717,"is_reserved":false,"is_disabled":false,"rental_uris":{"android":"levelo://app?vid=2eefbf25-f93b-4995-be57-cb3603b6bd3a","ios":"levelo://app?vid=2eefbf25-f93b-4995-be57-cb3603b6bd3a"},"vehicle_type_id":"4","last_reported":1726002493,"current_range_meters":18800,"station_id":"ce4bgi92rcd13ifvqb90","pricing_plan_id":"cebpf4jnsgd1na2vs0mg"},{"bike_id":"14a41efa-2620-45bb-9d5d-04b90077f047","system_id":"levelo_inurba_marseille","lat":43.27821,"lon":5.40712,"is_reserved":false,"is_disabled":false,"rental_uris":{"android":"levelo://app?vid=14a41efa-2620-45bb-9d5d-04b90077f047","ios":"levelo://app?vid=14a41efa-2620-45bb-9d5d-04b90077f047"},"vehicle_type_id":"4","last_reported":1726002493,"current_range_meters":35200,"station_id":"ce4bhnh2rcd13ifvqgtg","pricing_plan_id":"cebpf4jnsgd1na2vs0mg"},{"bike_id":"61ae0702-59ac-4df9-a3df-3ffcc0cc3543","system_id":"levelo_inurba_marseille","lat":43.31331,"lon":5.39694,"is_reserved":false,"is_disabled":false,"rental_uris":{"android":"levelo://app?vid=61ae0702-59ac-4df9-a3df-3ffcc0cc3543","ios":"levelo://app?vid=61ae0702-59ac-4df9-a3df-3ffcc0cc3543"},"vehicle_type_id":"4","last_reported":1726002493,"current_range_meters":35600,"station_id":"ce4bgvp2rcd13ifvqcu0","pricing_plan_id":"cebpf4jnsgd1na2vs0mg"},{"bike_id":"0d542ff1-a6db-4734-b6d3-2959e000dad3","system_id":"levelo_inurba_marseille","lat":43.28034,"lon":5.36956,"is_reserved":false,"is_disabled":false,"rental_uris":{"android":"levelo://app?vid=0d542ff1-a6db-4734-b6d3-2959e000dad3","ios":"levelo://app?vid=0d542ff1-a6db-4734-b6d3-2959e000dad3"},"vehicle_type_id":"4","last_reported":1726002493,"current_range_meters":24800,"station_id":"ce4bha12rcd13ifvqef0","pricing_plan_id":"cebpf4jnsgd1na2vs0mg"},{"bike_id":"7e5f0e30-797c-44bd-86dd-a18e8c6e4bf0","system_id":"levelo_inurba_marseille","lat":43.29307,"lon":5.37172,"is_reserved":false,"is_disabled":false,"rental_uris":{"android":"levelo://app?vid=7e5f0e30-797c-44bd-86dd-a18e8c6e4bf0","ios":"levelo://app?vid=7e5f0e30-797c-44bd-86dd-a18e8c6e4bf0"},"vehicle_type_id":"4","last_reported":1726002493,"current_range_meters":17200,"station_id":"ce4bgh92rcd13ifvqb40","pricing_plan_id":"cebpf4jnsgd1na2vs0mg"},{"bike_id":"b979827e-ffa2-4465-8490-36166590de00","system_id":"levelo_inurba_marseille","lat":43.24074,"lon":5.37767,"is_reserved":false,"is_disabled":false,"rental_uris":{"android":"levelo://app?vid=b979827e-ffa2-4465-8490-36166590de00","ios":"levelo://app?vid=b979827e-ffa2-4465-8490-36166590de00"},"vehicle_type_id":"4","last_reported":1726002493,"current_range_meters":38400,"station_id":"ce4bhnp2rcd13ifvqgvg","pricing_plan_id":"cebpf4jnsgd1na2vs0mg"},{"bike_id":"1e37aa65-1da8-4e7b-8eb6-12706c16aa26","system_id":"levelo_inurba_marseille","lat":43.29536,"lon":5.3751,"is_reserved":false,"is_disabled":false,"rental_uris":{"android":"levelo://app?vid=1e37aa65-1da8-4e7b-8eb6-12706c16aa26","ios":"levelo://app?vid=1e37aa65-1da8-4e7b-8eb6-12706c16aa26"},"vehicle_type_id":"4","last_reported":1726002493,"current_range_meters":15200,"station_id":"ce4bgkp2rcd13ifvqbmg","pricing_plan_id":"cebpf4jnsgd1na2vs0mg"},{"bike_id":"1a1a9292-1a7e-4b3a-8749-ddcaec5cb477","system_id":"levelo_inurba_marseille","lat":43.33024,"lon":5.3904,"is_reserved":false,"is_disabled":false,"rental_uris":{"android":"levelo://app?vid=1a1a9292-1a7e-4b3a-8749-ddcaec5cb477","ios":"levelo://app?vid=1a1a9292-1a7e-4b3a-8749-ddcaec5cb477"},"vehicle_type_id":"4","last_reported":1726002493,"current_range_meters":18800,"station_id":"ce4bhr92rcd13ifvqhrg","pricing_plan_id":"cebpf4jnsgd1na2vs0mg"},{"bike_id":"69eda0f2-b4e3-4334-adca-4d6836fcc9fd","system_id":"levelo_inurba_marseille","lat":43.32288,"lon":5.38283,"is_reserved":false,"is_disabled":false,"rental_uris":{"android":"levelo://app?vid=69eda0f2-b4e3-4334-adca-4d6836fcc9fd","ios":"levelo://app?vid=69eda0f2-b4e3-4334-adca-4d6836fcc9fd"},"vehicle_type_id":"4","last_reported":1726002493,"current_range_meters":36000,"station_id":"ce4bhr12rcd13ifvqhqg","pricing_plan_id":"cebpf4jnsgd1na2vs0mg"},{"bike_id":"927e3da6-e7cc-4a5c-a064-82f01ba43a49","system_id":"levelo_inurba_marseille","lat":43.32048,"lon":5.41566,"is_reserved":false,"is_disabled":false,"rental_uris":{"android":"levelo://app?vid=927e3da6-e7cc-4a5c-a064-82f01ba43a49","ios":"levelo://app?vid=927e3da6-e7cc-4a5c-a064-82f01ba43a49"},"vehicle_type_id":"4","last_reported":1726002493,"current_range_meters":9200,"station_id":"ce4bhq92rcd13ifvqhkg","pricing_plan_id":"cebpf4jnsgd1na2vs0mg"},{"bike_id":"55145fae-a8cb-41b8-a97f-efce85464954","system_id":"levelo_inurba_marseille","lat":43.33753,"lon":5.37457,"is_reserved":false,"is_disabled":false,"rental_uris":{"android":"levelo://app?vid=55145fae-a8cb-41b8-a97f-efce85464954","ios":"levelo://app?vid=55145fae-a8cb-41b8-a97f-efce85464954"},"vehicle_type_id":"4","last_reported":1726002493,"current_range_meters":31200,"station_id":"","pricing_plan_id":"cebpf4jnsgd1na2vs0mg"},{"bike_id":"f400d370-a20e-4ced-86f0-64f62510749c","system_id":"levelo_inurba_marseille","lat":43.3237,"lon":5.38926,"is_reserved":false,"is_disabled":false,"rental_uris":{"android":"levelo://app?vid=f400d370-a20e-4ced-86f0-64f62510749c","ios":"levelo://app?vid=f400d370-a20e-4ced-86f0-64f62510749c"},"vehicle_type_id":"4","last_reported":1726002493,"current_range_meters":16800,"station_id":"","pricing_plan_id":"cebpf4jnsgd1na2vs0mg"},{"bike_id":"2d373ca3-327d-438d-b32c-aab28c132fb9","system_id":"levelo_inurba_marseille","lat":43.311142,"lon":5.409731,"is_reserved":false,"is_disabled":false,"rental_uris":{"android":"levelo://app?vid=2d373ca3-327d-438d-b32c-aab28c132fb9","ios":"levelo://app?vid=2d373ca3-327d-438d-b32c-aab28c132fb9"},"vehicle_type_id":"4","last_reported":1726002493,"current_range_meters":12000,"station_id":"","pricing_plan_id":"cebpf4jnsgd1na2vs0mg"},{"bike_id":"6b556058-d0b4-4003-a757-2a88c17f4ca7","system_id":"levelo_inurba_marseille","lat":43.31165,"lon":5.3872,"is_reserved":false,"is_disabled":false,"rental_uris":{"android":"levelo://app?vid=6b556058-d0b4-4003-a757-2a88c17f4ca7","ios":"levelo://app?vid=6b556058-d0b4-4003-a757-2a88c17f4ca7"},"vehicle_type_id":"4","last_reported":1726002493,"current_range_meters":14800,"station_id":"ce4bgv12rcd13ifvqcp0","pricing_plan_id":"cebpf4jnsgd1na2vs0mg"},{"bike_id":"e9d8c7b2-62a1-4e01-b449-32058adc2bb5","system_id":"levelo_inurba_marseille","lat":43.3117,"lon":5.38723,"is_reserved":false,"is_disabled":false,"rental_uris":{"android":"levelo://app?vid=e9d8c7b2-62a1-4e01-b449-32058adc2bb5","ios":"levelo://app?vid=e9d8c7b2-62a1-4e01-b449-32058adc2bb5"},"vehicle_type_id":"4","last_reported":1726002493,"current_range_meters":27200,"station_id":"ce4bgv12rcd13ifvqcp0","pricing_plan_id":"cebpf4jnsgd1na2vs0mg"},{"bike_id":"4f98b9a6-3078-458b-b605-3b0ed6341dd8","system_id":"levelo_inurba_marseille","lat":43.287037,"lon":5.375093,"is_reserved":false,"is_disabled":false,"rental_uris":{"android":"levelo://app?vid=4f98b9a6-3078-458b-b605-3b0ed6341dd8","ios":"levelo://app?vid=4f98b9a6-3078-458b-b605-3b0ed6341dd8"},"vehicle_type_id":"4","last_reported":1726002493,"current_range_meters":32000,"station_id":"","pricing_plan_id":"cebpf4jnsgd1na2vs0mg"},{"bike_id":"ea9209fc-77dd-43b3-8045-ae005db5164f","system_id":"levelo_inurba_marseille","lat":43.32366,"lon":5.38878,"is_reserved":false,"is_disabled":false,"rental_uris":{"android":"levelo://app?vid=ea9209fc-77dd-43b3-8045-ae005db5164f","ios":"levelo://app?vid=ea9209fc-77dd-43b3-8045-ae005db5164f"},"vehicle_type_id":"4","last_reported":1726002493,"current_range_meters":8800,"station_id":"ce4bhqp2rcd13ifvqhog","pricing_plan_id":"cebpf4jnsgd1na2vs0mg"},{"bike_id":"c5d03476-a480-44e0-83b9-e79f13116993","system_id":"levelo_inurba_marseille","lat":43.29622,"lon":5.37175,"is_reserved":false,"is_disabled":false,"rental_uris":{"android":"levelo://app?vid=c5d03476-a480-44e0-83b9-e79f13116993","ios":"levelo://app?vid=c5d03476-a480-44e0-83b9-e79f13116993"},"vehicle_type_id":"4","last_reported":1726002493,"current_range_meters":22400,"station_id":"ce4bgnh2rcd13ifvqc0g","pricing_plan_id":"cebpf4jnsgd1na2vs0mg"},{"bike_id":"b7bce295-1a4e-42f1-bc7d-76436ffca4f2","system_id":"levelo_inurba_marseille","lat":43.23962,"lon":5.36634,"is_reserved":false,"is_disabled":false,"rental_uris":{"android":"levelo://app?vid=b7bce295-1a4e-42f1-bc7d-76436ffca4f2","ios":"levelo://app?vid=b7bce295-1a4e-42f1-bc7d-76436ffca4f2"},"vehicle_type_id":"4","last_reported":1726002493,"current_range_meters":29600,"station_id":"ce4bhi12rcd13ifvqfp0","pricing_plan_id":"cebpf4jnsgd1na2vs0mg"},{"bike_id":"b8c53ace-3353-404c-807f-3367f3e67022","system_id":"levelo_inurba_marseille","lat":43.31754,"lon":5.39017,"is_reserved":false,"is_disabled":false,"rental_uris":{"android":"levelo://app?vid=b8c53ace-3353-404c-807f-3367f3e67022","ios":"levelo://app?vid=b8c53ace-3353-404c-807f-3367f3e67022"},"vehicle_type_id":"4","last_reported":1726002493,"current_range_meters":38400,"station_id":"ce4bhqp2rcd13ifvqhng","pricing_plan_id":"cebpf4jnsgd1na2vs0mg"},{"bike_id":"28a6dc6f-0df2-4ce0-8e42-abef2c4254c2","system_id":"levelo_inurba_marseille","lat":43.29899,"lon":5.43676,"is_reserved":false,"is_disabled":false,"rental_uris":{"android":"levelo://app?vid=28a6dc6f-0df2-4ce0-8e42-abef2c4254c2","ios":"levelo://app?vid=28a6dc6f-0df2-4ce0-8e42-abef2c4254c2"},"vehicle_type_id":"4","last_reported":1726002493,"current_range_meters":6400,"station_id":"ce4bhpp2rcd13ifvqhfg","pricing_plan_id":"cebpf4jnsgd1na2vs0mg"},{"bike_id":"b499e2d2-eeb2-42cc-9001-4156281f6e55","system_id":"levelo_inurba_marseille","lat":43.31694,"lon":5.40473,"is_reserved":false,"is_disabled":false,"rental_uris":{"android":"levelo://app?vid=b499e2d2-eeb2-42cc-9001-4156281f6e55","ios":"levelo://app?vid=b499e2d2-eeb2-42cc-9001-4156281f6e55"},"vehicle_type_id":"4","last_reported":1726002493,"current_range_meters":18000,"station_id":"ce4bh012rcd13ifvqd00","pricing_plan_id":"cebpf4jnsgd1na2vs0mg"},{"bike_id":"e3ff2ff2-1096-4b7a-a3a2-7928d38557b8","system_id":"levelo_inurba_marseille","lat":43.27812,"lon":5.40712,"is_reserved":false,"is_disabled":false,"rental_uris":{"android":"levelo://app?vid=e3ff2ff2-1096-4b7a-a3a2-7928d38557b8","ios":"levelo://app?vid=e3ff2ff2-1096-4b7a-a3a2-7928d38557b8"},"vehicle_type_id":"4","last_reported":1726002493,"current_range_meters":12800,"station_id":"ce4bhnh2rcd13ifvqgtg","pricing_plan_id":"cebpf4jnsgd1na2vs0mg"},{"bike_id":"56764b47-a21c-4e62-9cae-270df7d487ad","system_id":"levelo_inurba_marseille","lat":43.31177,"lon":5.38719,"is_reserved":false,"is_disabled":false,"rental_uris":{"android":"levelo://app?vid=56764b47-a21c-4e62-9cae-270df7d487ad","ios":"levelo://app?vid=56764b47-a21c-4e62-9cae-270df7d487ad"},"vehicle_type_id":"4","last_reported":1726002493,"current_range_meters":27200,"station_id":"ce4bgv12rcd13ifvqcp0","pricing_plan_id":"cebpf4jnsgd1na2vs0mg"},{"bike_id":"f9588990-7de1-4e0b-979b-31419c532106","system_id":"levelo_inurba_marseille","lat":43.28033,"lon":5.3695,"is_reserved":false,"is_disabled":false,"rental_uris":{"android":"levelo://app?vid=f9588990-7de1-4e0b-979b-31419c532106","ios":"levelo://app?vid=f9588990-7de1-4e0b-979b-31419c532106"},"vehicle_type_id":"4","last_reported":1726002493,"current_range_meters":12400,"station_id":"ce4bha12rcd13ifvqef0","pricing_plan_id":"cebpf4jnsgd1na2vs0mg"},{"bike_id":"ea547e96-58db-43e3-871c-6a5edbb3f391","system_id":"levelo_inurba_marseille","lat":43.27174,"lon":5.40996,"is_reserved":false,"is_disabled":false,"rental_uris":{"android":"levelo://app?vid=ea547e96-58db-43e3-871c-6a5edbb3f391","ios":"levelo://app?vid=ea547e96-58db-43e3-871c-6a5edbb3f391"},"vehicle_type_id":"4","last_reported":1726002493,"current_range_meters":21600,"station_id":"ce4bhl12rcd13ifvqgf0","pricing_plan_id":"cebpf4jnsgd1na2vs0mg"},{"bike_id":"d5df1b6d-3d3d-4339-90f3-edaf4836f9b3","system_id":"levelo_inurba_marseille","lat":43.28725,"lon":5.36087,"is_reserved":false,"is_disabled":false,"rental_uris":{"android":"levelo://app?vid=d5df1b6d-3d3d-4339-90f3-edaf4836f9b3","ios":"levelo://app?vid=d5df1b6d-3d3d-4339-90f3-edaf4836f9b3"},"vehicle_type_id":"4","last_reported":1726002493,"current_range_meters":12000,"station_id":"cki0cbj6b192h4jlfktg","pricing_plan_id":"cebpf4jnsgd1na2vs0mg"},{"bike_id":"2dfb5171-15aa-4d8e-83fc-de16ea1eed2e","system_id":"levelo_inurba_marseille","lat":43.24076,"lon":5.37756,"is_reserved":false,"is_disabled":false,"rental_uris":{"android":"levelo://app?vid=2dfb5171-15aa-4d8e-83fc-de16ea1eed2e","ios":"levelo://app?vid=2dfb5171-15aa-4d8e-83fc-de16ea1eed2e"},"vehicle_type_id":"4","last_reported":1726002493,"current_range_meters":36000,"station_id":"ce4bhnp2rcd13ifvqgvg","pricing_plan_id":"cebpf4jnsgd1na2vs0mg"},{"bike_id":"cec1f9c3-f935-49fa-9c33-44dd73c28b4d","system_id":"levelo_inurba_marseille","lat":43.323918,"lon":5.366336,"is_reserved":false,"is_disabled":false,"rental_uris":{"android":"levelo://app?vid=cec1f9c3-f935-49fa-9c33-44dd73c28b4d","ios":"levelo://app?vid=cec1f9c3-f935-49fa-9c33-44dd73c28b4d"},"vehicle_type_id":"4","last_reported":1726002493,"current_range_meters":38800,"station_id":"","pricing_plan_id":"cebpf4jnsgd1na2vs0mg"},{"bike_id":"36f58328-8f54-4fcf-bcca-0a753cccddb2","system_id":"levelo_inurba_marseille","lat":43.23195,"lon":5.35558,"is_reserved":false,"is_disabled":false,"rental_uris":{"android":"levelo://app?vid=36f58328-8f54-4fcf-bcca-0a753cccddb2","ios":"levelo://app?vid=36f58328-8f54-4fcf-bcca-0a753cccddb2"},"vehicle_type_id":"4","last_reported":1726002493,"current_range_meters":20000,"station_id":"ce4bhu92rcd13ifvqi70","pricing_plan_id":"cebpf4jnsgd1na2vs0mg"},{"bike_id":"44f32411-a978-4e5c-8794-5490ed45ba7d","system_id":"levelo_inurba_marseille","lat":43.33762,"lon":5.37432,"is_reserved":false,"is_disabled":false,"rental_uris":{"android":"levelo://app?vid=44f32411-a978-4e5c-8794-5490ed45ba7d","ios":"levelo://app?vid=44f32411-a978-4e5c-8794-5490ed45ba7d"},"vehicle_type_id":"4","last_reported":1726002493,"current_range_meters":37600,"station_id":"","pricing_plan_id":"cebpf4jnsgd1na2vs0mg"},{"bike_id":"a5637a8b-38f0-4dcf-bb5c-f0548702728e","system_id":"levelo_inurba_marseille","lat":43.24075,"lon":5.37763,"is_reserved":false,"is_disabled":false,"rental_uris":{"android":"levelo://app?vid=a5637a8b-38f0-4dcf-bb5c-f0548702728e","ios":"levelo://app?vid=a5637a8b-38f0-4dcf-bb5c-f0548702728e"},"vehicle_type_id":"4","last_reported":1726002493,"current_range_meters":38800,"station_id":"ce4bhnp2rcd13ifvqgvg","pricing_plan_id":"cebpf4jnsgd1na2vs0mg"},{"bike_id":"79f64d9a-0036-473d-83fd-0fcc1964ce05","system_id":"levelo_inurba_marseille","lat":43.26804,"lon":5.40274,"is_reserved":false,"is_disabled":false,"rental_uris":{"android":"levelo://app?vid=79f64d9a-0036-473d-83fd-0fcc1964ce05","ios":"levelo://app?vid=79f64d9a-0036-473d-83fd-0fcc1964ce05"},"vehicle_type_id":"4","last_reported":1726002493,"current_range_meters":21600,"station_id":"ce501612rcd8frsf0b60","pricing_plan_id":"cebpf4jnsgd1na2vs0mg"},{"bike_id":"2eeb4b6e-2b09-41d0-87d3-25a8d99cd11c","system_id":"levelo_inurba_marseille","lat":43.28445,"lon":5.39207,"is_reserved":false,"is_disabled":false,"rental_uris":{"android":"levelo://app?vid=2eeb4b6e-2b09-41d0-87d3-25a8d99cd11c","ios":"levelo://app?vid=2eeb4b6e-2b09-41d0-87d3-25a8d99cd11c"},"vehicle_type_id":"4","last_reported":1726002493,"current_range_meters":26800,"station_id":"ce4bhoh2rcd13ifvqh5g","pricing_plan_id":"cebpf4jnsgd1na2vs0mg"},{"bike_id":"11aafc86-65b8-4e04-9a5e-a2cc3898b813","system_id":"levelo_inurba_marseille","lat":43.29243,"lon":5.40919,"is_reserved":false,"is_disabled":false,"rental_uris":{"android":"levelo://app?vid=11aafc86-65b8-4e04-9a5e-a2cc3898b813","ios":"levelo://app?vid=11aafc86-65b8-4e04-9a5e-a2cc3898b813"},"vehicle_type_id":"4","last_reported":1726002493,"current_range_meters":4000,"station_id":"ce4bh192rcd13ifvqdc0","pricing_plan_id":"cebpf4jnsgd1na2vs0mg"},{"bike_id":"01a9d190-f5a0-4eda-b7c1-457da88c2b6b","system_id":"levelo_inurba_marseille","lat":43.24667,"lon":5.38172,"is_reserved":false,"is_disabled":false,"rental_uris":{"android":"levelo://app?vid=01a9d190-f5a0-4eda-b7c1-457da88c2b6b","ios":"levelo://app?vid=01a9d190-f5a0-4eda-b7c1-457da88c2b6b"},"vehicle_type_id":"4","last_reported":1726002493,"current_range_meters":12800,"station_id":"ce4bhih2rcd13ifvqfr0","pricing_plan_id":"cebpf4jnsgd1na2vs0mg"},{"bike_id":"8fb9a2de-2e39-4cee-9a2d-1ba3230acc6a","system_id":"levelo_inurba_marseille","lat":43.31764,"lon":5.39015,"is_reserved":false,"is_disabled":false,"rental_uris":{"android":"levelo://app?vid=8fb9a2de-2e39-4cee-9a2d-1ba3230acc6a","ios":"levelo://app?vid=8fb9a2de-2e39-4cee-9a2d-1ba3230acc6a"},"vehicle_type_id":"4","last_reported":1726002493,"current_range_meters":4800,"station_id":"ce4bhqp2rcd13ifvqhng","pricing_plan_id":"cebpf4jnsgd1na2vs0mg"},{"bike_id":"cfe2ee3f-a78f-4dd0-a62c-9c0e66ca6e70","system_id":"levelo_inurba_marseille","lat":43.27942,"lon":5.4105,"is_reserved":false,"is_disabled":false,"rental_uris":{"android":"levelo://app?vid=cfe2ee3f-a78f-4dd0-a62c-9c0e66ca6e70","ios":"levelo://app?vid=cfe2ee3f-a78f-4dd0-a62c-9c0e66ca6e70"},"vehicle_type_id":"4","last_reported":1726002493,"current_range_meters":24000,"station_id":"ce4bhnp2rcd13ifvqh0g","pricing_plan_id":"cebpf4jnsgd1na2vs0mg"},{"bike_id":"ff5456c0-0937-4c45-a295-0bf6b477c0b7","system_id":"levelo_inurba_marseille","lat":43.28942,"lon":5.36641,"is_reserved":false,"is_disabled":false,"rental_uris":{"android":"levelo://app?vid=ff5456c0-0937-4c45-a295-0bf6b477c0b7","ios":"levelo://app?vid=ff5456c0-0937-4c45-a295-0bf6b477c0b7"},"vehicle_type_id":"4","last_reported":1726002493,"current_range_meters":23200,"station_id":"ce4bhap2rcd13ifvqek0","pricing_plan_id":"cebpf4jnsgd1na2vs0mg"},{"bike_id":"176109d2-c7f3-4f00-811b-e73328885cdc","system_id":"levelo_inurba_marseille","lat":43.30894,"lon":5.39655,"is_reserved":false,"is_disabled":false,"rental_uris":{"android":"levelo://app?vid=176109d2-c7f3-4f00-811b-e73328885cdc","ios":"levelo://app?vid=176109d2-c7f3-4f00-811b-e73328885cdc"},"vehicle_type_id":"4","last_reported":1726002493,"current_range_meters":5600,"station_id":"ce4bh012rcd13ifvqcv0","pricing_plan_id":"cebpf4jnsgd1na2vs0mg"},{"bike_id":"d09c54b8-d10f-4c3f-ae6e-29e2e9758bbe","system_id":"levelo_inurba_marseille","lat":43.26553,"lon":5.37286,"is_reserved":false,"is_disabled":false,"rental_uris":{"android":"levelo://app?vid=d09c54b8-d10f-4c3f-ae6e-29e2e9758bbe","ios":"levelo://app?vid=d09c54b8-d10f-4c3f-ae6e-29e2e9758bbe"},"vehicle_type_id":"4","last_reported":1726002493,"current_range_meters":32400,"station_id":"ce4bhg12rcd13ifvqf70","pricing_plan_id":"cebpf4jnsgd1na2vs0mg"},{"bike_id":"2bea9a92-b81d-450c-8f6a-bb1bdc43a1cd","system_id":"levelo_inurba_marseille","lat":43.3136,"lon":5.38488,"is_reserved":false,"is_disabled":false,"rental_uris":{"android":"levelo://app?vid=2bea9a92-b81d-450c-8f6a-bb1bdc43a1cd","ios":"levelo://app?vid=2bea9a92-b81d-450c-8f6a-bb1bdc43a1cd"},"vehicle_type_id":"4","last_reported":1726002493,"current_range_meters":38800,"station_id":"ce4bgt92rcd13ifvqcf0","pricing_plan_id":"cebpf4jnsgd1na2vs0mg"},{"bike_id":"eb130d77-197d-43a5-a7b7-8fb7f18705de","system_id":"levelo_inurba_marseille","lat":43.25582,"lon":5.38231,"is_reserved":false,"is_disabled":false,"rental_uris":{"android":"levelo://app?vid=eb130d77-197d-43a5-a7b7-8fb7f18705de","ios":"levelo://app?vid=eb130d77-197d-43a5-a7b7-8fb7f18705de"},"vehicle_type_id":"4","last_reported":1726002493,"current_range_meters":19600,"station_id":"ce4bhih2rcd13ifvqfs0","pricing_plan_id":"cebpf4jnsgd1na2vs0mg"},{"bike_id":"7bb4f9de-7cd3-453d-9762-d2bc34a00f75","system_id":"levelo_inurba_marseille","lat":43.28457,"lon":5.35888,"is_reserved":false,"is_disabled":false,"rental_uris":{"android":"levelo://app?vid=7bb4f9de-7cd3-453d-9762-d2bc34a00f75","ios":"levelo://app?vid=7bb4f9de-7cd3-453d-9762-d2bc34a00f75"},"vehicle_type_id":"4","last_reported":1726002493,"current_range_meters":35200,"station_id":"ce4bhah2rcd13ifvqei0","pricing_plan_id":"cebpf4jnsgd1na2vs0mg"},{"bike_id":"3bfff435-780c-430e-a884-b7e0a240cebc","system_id":"levelo_inurba_marseille","lat":43.28749,"lon":5.3913,"is_reserved":false,"is_disabled":false,"rental_uris":{"android":"levelo://app?vid=3bfff435-780c-430e-a884-b7e0a240cebc","ios":"levelo://app?vid=3bfff435-780c-430e-a884-b7e0a240cebc"},"vehicle_type_id":"4","last_reported":1726002493,"current_range_meters":21600,"station_id":"","pricing_plan_id":"cebpf4jnsgd1na2vs0mg"},{"bike_id":"69db742a-3d2e-4820-9d16-4adcfc83ca33","system_id":"levelo_inurba_marseille","lat":43.23184,"lon":5.39986,"is_reserved":false,"is_disabled":false,"rental_uris":{"android":"levelo://app?vid=69db742a-3d2e-4820-9d16-4adcfc83ca33","ios":"levelo://app?vid=69db742a-3d2e-4820-9d16-4adcfc83ca33"},"vehicle_type_id":"4","last_reported":1726002493,"current_range_meters":2800,"station_id":"ce4bhn12rcd13ifvqgqg","pricing_plan_id":"cebpf4jnsgd1na2vs0mg"},{"bike_id":"1cb5037e-5368-4516-93d7-c94332265d17","system_id":"levelo_inurba_marseille","lat":43.27383,"lon":5.3626,"is_reserved":false,"is_disabled":false,"rental_uris":{"android":"levelo://app?vid=1cb5037e-5368-4516-93d7-c94332265d17","ios":"levelo://app?vid=1cb5037e-5368-4516-93d7-c94332265d17"},"vehicle_type_id":"4","last_reported":1726002493,"current_range_meters":28000,"station_id":"ce4bhbh2rcd13ifvqeo0","pricing_plan_id":"cebpf4jnsgd1na2vs0mg"},{"bike_id":"0941c135-d42e-447a-a698-090c3be03bb8","system_id":"levelo_inurba_marseille","lat":43.32007,"lon":5.38171,"is_reserved":false,"is_disabled":false,"rental_uris":{"android":"levelo://app?vid=0941c135-d42e-447a-a698-090c3be03bb8","ios":"levelo://app?vid=0941c135-d42e-447a-a698-090c3be03bb8"},"vehicle_type_id":"4","last_reported":1726002493,"current_range_meters":38800,"station_id":"ce4bhr12rcd13ifvqhpg","pricing_plan_id":"cebpf4jnsgd1na2vs0mg"},{"bike_id":"ee41233d-7057-4ec4-b3c6-63f582836de8","system_id":"levelo_inurba_marseille","lat":43.22936,"lon":5.35377,"is_reserved":false,"is_disabled":false,"rental_uris":{"android":"levelo://app?vid=ee41233d-7057-4ec4-b3c6-63f582836de8","ios":"levelo://app?vid=ee41233d-7057-4ec4-b3c6-63f582836de8"},"vehicle_type_id":"4","last_reported":1726002493,"current_range_meters":36000,"station_id":"cpo3532slgdg3j2ikp40","pricing_plan_id":"cebpf4jnsgd1na2vs0mg"},{"bike_id":"aceaa97a-b654-4426-aee8-30a89abe4327","system_id":"levelo_inurba_marseille","lat":43.23965,"lon":5.36629,"is_reserved":false,"is_disabled":false,"rental_uris":{"android":"levelo://app?vid=aceaa97a-b654-4426-aee8-30a89abe4327","ios":"levelo://app?vid=aceaa97a-b654-4426-aee8-30a89abe4327"},"vehicle_type_id":"4","last_reported":1726002493,"current_range_meters":38000,"station_id":"ce4bhi12rcd13ifvqfp0","pricing_plan_id":"cebpf4jnsgd1na2vs0mg"},{"bike_id":"dabbe92a-2374-457c-86e2-10a9cb75d8f7","system_id":"levelo_inurba_marseille","lat":43.30406,"lon":5.39736,"is_reserved":false,"is_disabled":false,"rental_uris":{"android":"levelo://app?vid=dabbe92a-2374-457c-86e2-10a9cb75d8f7","ios":"levelo://app?vid=dabbe92a-2374-457c-86e2-10a9cb75d8f7"},"vehicle_type_id":"4","last_reported":1726002493,"current_range_meters":35600,"station_id":"ce4bh092rcd13ifvqd20","pricing_plan_id":"cebpf4jnsgd1na2vs0mg"},{"bike_id":"020750db-73d4-416b-839a-955167bdd7b3","system_id":"levelo_inurba_marseille","lat":43.295844,"lon":5.375197,"is_reserved":false,"is_disabled":false,"rental_uris":{"android":"levelo://app?vid=020750db-73d4-416b-839a-955167bdd7b3","ios":"levelo://app?vid=020750db-73d4-416b-839a-955167bdd7b3"},"vehicle_type_id":"4","last_reported":1726002493,"current_range_meters":25600,"station_id":"ce4bgh92rcd13ifvqb50","pricing_plan_id":"cebpf4jnsgd1na2vs0mg"},{"bike_id":"2c812d90-5116-4e8a-9aae-596c2aa02e96","system_id":"levelo_inurba_marseille","lat":43.31711,"lon":5.37755,"is_reserved":false,"is_disabled":false,"rental_uris":{"android":"levelo://app?vid=2c812d90-5116-4e8a-9aae-596c2aa02e96","ios":"levelo://app?vid=2c812d90-5116-4e8a-9aae-596c2aa02e96"},"vehicle_type_id":"4","last_reported":1726002493,"current_range_meters":27200,"station_id":"ce4bgth2rcd13ifvqch0","pricing_plan_id":"cebpf4jnsgd1na2vs0mg"},{"bike_id":"98f29b41-a731-4f4e-b60c-0786b2083592","system_id":"levelo_inurba_marseille","lat":43.27615,"lon":5.36115,"is_reserved":false,"is_disabled":false,"rental_uris":{"android":"levelo://app?vid=98f29b41-a731-4f4e-b60c-0786b2083592","ios":"levelo://app?vid=98f29b41-a731-4f4e-b60c-0786b2083592"},"vehicle_type_id":"4","last_reported":1726002493,"current_range_meters":35200,"station_id":"ce4bgj92rcd13ifvqbe0","pricing_plan_id":"cebpf4jnsgd1na2vs0mg"},{"bike_id":"67f614c9-4413-4776-8269-d2feab715d9f","system_id":"levelo_inurba_marseille","lat":43.24997,"lon":5.38928,"is_reserved":false,"is_disabled":false,"rental_uris":{"android":"levelo://app?vid=67f614c9-4413-4776-8269-d2feab715d9f","ios":"levelo://app?vid=67f614c9-4413-4776-8269-d2feab715d9f"},"vehicle_type_id":"4","last_reported":1726002493,"current_range_meters":7200,"station_id":"ce4bhgp2rcd13ifvqfd0","pricing_plan_id":"cebpf4jnsgd1na2vs0mg"},{"bike_id":"20e99fee-7f5e-4fd9-8345-d42fb0592de3","system_id":"levelo_inurba_marseille","lat":43.33754,"lon":5.37451,"is_reserved":false,"is_disabled":false,"rental_uris":{"android":"levelo://app?vid=20e99fee-7f5e-4fd9-8345-d42fb0592de3","ios":"levelo://app?vid=20e99fee-7f5e-4fd9-8345-d42fb0592de3"},"vehicle_type_id":"4","last_reported":1726002493,"current_range_meters":18800,"station_id":"","pricing_plan_id":"cebpf4jnsgd1na2vs0mg"},{"bike_id":"0f714000-caaf-421f-a6e5-47bc61e07244","system_id":"levelo_inurba_marseille","lat":43.33722,"lon":5.39193,"is_reserved":false,"is_disabled":false,"rental_uris":{"android":"levelo://app?vid=0f714000-caaf-421f-a6e5-47bc61e07244","ios":"levelo://app?vid=0f714000-caaf-421f-a6e5-47bc61e07244"},"vehicle_type_id":"4","last_reported":1726002493,"current_range_meters":6400,"station_id":"ce4bhr92rcd13ifvqhsg","pricing_plan_id":"cebpf4jnsgd1na2vs0mg"},{"bike_id":"205b78d7-b50b-4790-9273-3bc7d02b4d72","system_id":"levelo_inurba_marseille","lat":43.279367,"lon":5.410495,"is_reserved":false,"is_disabled":false,"rental_uris":{"android":"levelo://app?vid=205b78d7-b50b-4790-9273-3bc7d02b4d72","ios":"levelo://app?vid=205b78d7-b50b-4790-9273-3bc7d02b4d72"},"vehicle_type_id":"4","last_reported":1726002493,"current_range_meters":18000,"station_id":"ce4bhnp2rcd13ifvqh0g","pricing_plan_id":"cebpf4jnsgd1na2vs0mg"},{"bike_id":"c75a1e75-5fb5-46ba-a214-1808791c393f","system_id":"levelo_inurba_marseille","lat":43.28441,"lon":5.39186,"is_reserved":false,"is_disabled":false,"rental_uris":{"android":"levelo://app?vid=c75a1e75-5fb5-46ba-a214-1808791c393f","ios":"levelo://app?vid=c75a1e75-5fb5-46ba-a214-1808791c393f"},"vehicle_type_id":"4","last_reported":1726002493,"current_range_meters":20000,"station_id":"ce4bhoh2rcd13ifvqh5g","pricing_plan_id":"cebpf4jnsgd1na2vs0mg"},{"bike_id":"3e518be1-e400-4157-b833-7627046e8d7a","system_id":"levelo_inurba_marseille","lat":43.28041,"lon":5.36938,"is_reserved":false,"is_disabled":false,"rental_uris":{"android":"levelo://app?vid=3e518be1-e400-4157-b833-7627046e8d7a","ios":"levelo://app?vid=3e518be1-e400-4157-b833-7627046e8d7a"},"vehicle_type_id":"4","last_reported":1726002493,"current_range_meters":38400,"station_id":"ce4bha12rcd13ifvqef0","pricing_plan_id":"cebpf4jnsgd1na2vs0mg"},{"bike_id":"be6e8250-baac-40a2-9970-5cd87232a03c","system_id":"levelo_inurba_marseille","lat":43.29955,"lon":5.4132,"is_reserved":false,"is_disabled":false,"rental_uris":{"android":"levelo://app?vid=be6e8250-baac-40a2-9970-5cd87232a03c","ios":"levelo://app?vid=be6e8250-baac-40a2-9970-5cd87232a03c"},"vehicle_type_id":"4","last_reported":1726002493,"current_range_meters":3200,"station_id":"ce4bhp12rcd13ifvqh9g","pricing_plan_id":"cebpf4jnsgd1na2vs0mg"},{"bike_id":"f00edb0e-355c-483e-ac9f-ccf569162eff","system_id":"levelo_inurba_marseille","lat":43.24081,"lon":5.37746,"is_reserved":false,"is_disabled":false,"rental_uris":{"android":"levelo://app?vid=f00edb0e-355c-483e-ac9f-ccf569162eff","ios":"levelo://app?vid=f00edb0e-355c-483e-ac9f-ccf569162eff"},"vehicle_type_id":"4","last_reported":1726002493,"current_range_meters":38800,"station_id":"ce4bhnp2rcd13ifvqgvg","pricing_plan_id":"cebpf4jnsgd1na2vs0mg"},{"bike_id":"315a96c3-54da-4c48-a2b2-80e3e6d1d7b4","system_id":"levelo_inurba_marseille","lat":43.29275,"lon":5.36845,"is_reserved":false,"is_disabled":false,"rental_uris":{"android":"levelo://app?vid=315a96c3-54da-4c48-a2b2-80e3e6d1d7b4","ios":"levelo://app?vid=315a96c3-54da-4c48-a2b2-80e3e6d1d7b4"},"vehicle_type_id":"4","last_reported":1726002493,"current_range_meters":4400,"station_id":"ce4bhbp2rcd13ifvqesg","pricing_plan_id":"cebpf4jnsgd1na2vs0mg"},{"bike_id":"6a2020d8-fb53-4f6c-8713-d557cfb809f0","system_id":"levelo_inurba_marseille","lat":43.23957,"lon":5.36633,"is_reserved":false,"is_disabled":false,"rental_uris":{"android":"levelo://app?vid=6a2020d8-fb53-4f6c-8713-d557cfb809f0","ios":"levelo://app?vid=6a2020d8-fb53-4f6c-8713-d557cfb809f0"},"vehicle_type_id":"4","last_reported":1726002493,"current_range_meters":37600,"station_id":"ce4bhi12rcd13ifvqfp0","pricing_plan_id":"cebpf4jnsgd1na2vs0mg"},{"bike_id":"60677ae6-03ac-4cbe-be62-d4e69cd4051f","system_id":"levelo_inurba_marseille","lat":43.279884,"lon":5.38731,"is_reserved":false,"is_disabled":false,"rental_uris":{"android":"levelo://app?vid=60677ae6-03ac-4cbe-be62-d4e69cd4051f","ios":"levelo://app?vid=60677ae6-03ac-4cbe-be62-d4e69cd4051f"},"vehicle_type_id":"4","last_reported":1726002493,"current_range_meters":24800,"station_id":"ce4bhg12rcd13ifvqf80","pricing_plan_id":"cebpf4jnsgd1na2vs0mg"},{"bike_id":"43666cc4-9de2-4278-ada6-42d1072583b7","system_id":"levelo_inurba_marseille","lat":43.30882,"lon":5.39649,"is_reserved":false,"is_disabled":false,"rental_uris":{"android":"levelo://app?vid=43666cc4-9de2-4278-ada6-42d1072583b7","ios":"levelo://app?vid=43666cc4-9de2-4278-ada6-42d1072583b7"},"vehicle_type_id":"4","last_reported":1726002493,"current_range_meters":22400,"station_id":"ce4bh012rcd13ifvqcv0","pricing_plan_id":"cebpf4jnsgd1na2vs0mg"},{"bike_id":"a692a50d-15e4-4f55-bfea-62e48ce084cb","system_id":"levelo_inurba_marseille","lat":43.3122,"lon":5.36854,"is_reserved":false,"is_disabled":false,"rental_uris":{"android":"levelo://app?vid=a692a50d-15e4-4f55-bfea-62e48ce084cb","ios":"levelo://app?vid=a692a50d-15e4-4f55-bfea-62e48ce084cb"},"vehicle_type_id":"4","last_reported":1726002493,"current_range_meters":18000,"station_id":"ce4bgl92rcd13ifvqbq0","pricing_plan_id":"cebpf4jnsgd1na2vs0mg"},{"bike_id":"c5c303de-07b0-4724-b4c7-88ad7315dc47","system_id":"levelo_inurba_marseille","lat":43.31528,"lon":5.38037,"is_reserved":false,"is_disabled":false,"rental_uris":{"android":"levelo://app?vid=c5c303de-07b0-4724-b4c7-88ad7315dc47","ios":"levelo://app?vid=c5c303de-07b0-4724-b4c7-88ad7315dc47"},"vehicle_type_id":"4","last_reported":1726002493,"current_range_meters":30000,"station_id":"ce4bhsp2rcd13ifvqi50","pricing_plan_id":"cebpf4jnsgd1na2vs0mg"},{"bike_id":"4585435e-e295-47c6-91c8-84154bf22c7c","system_id":"levelo_inurba_marseille","lat":43.29799,"lon":5.40404,"is_reserved":false,"is_disabled":false,"rental_uris":{"android":"levelo://app?vid=4585435e-e295-47c6-91c8-84154bf22c7c","ios":"levelo://app?vid=4585435e-e295-47c6-91c8-84154bf22c7c"},"vehicle_type_id":"4","last_reported":1726002493,"current_range_meters":34800,"station_id":"ce4bh112rcd13ifvqd90","pricing_plan_id":"cebpf4jnsgd1na2vs0mg"},{"bike_id":"6b414398-ce27-41ee-8b33-a0afc0ebb947","system_id":"levelo_inurba_marseille","lat":43.26808,"lon":5.4027,"is_reserved":false,"is_disabled":false,"rental_uris":{"android":"levelo://app?vid=6b414398-ce27-41ee-8b33-a0afc0ebb947","ios":"levelo://app?vid=6b414398-ce27-41ee-8b33-a0afc0ebb947"},"vehicle_type_id":"4","last_reported":1726002493,"current_range_meters":4800,"station_id":"ce501612rcd8frsf0b60","pricing_plan_id":"cebpf4jnsgd1na2vs0mg"},{"bike_id":"9344412a-5ba2-4a35-961f-0b96f9810fe9","system_id":"levelo_inurba_marseille","lat":43.28157,"lon":5.42644,"is_reserved":false,"is_disabled":false,"rental_uris":{"android":"levelo://app?vid=9344412a-5ba2-4a35-961f-0b96f9810fe9","ios":"levelo://app?vid=9344412a-5ba2-4a35-961f-0b96f9810fe9"},"vehicle_type_id":"4","last_reported":1726002493,"current_range_meters":20800,"station_id":"ce4bhnh2rcd13ifvqgug","pricing_plan_id":"cebpf4jnsgd1na2vs0mg"},{"bike_id":"901065e9-53ce-4f97-93bd-803c0f292316","system_id":"levelo_inurba_marseille","lat":43.299171,"lon":5.39725,"is_reserved":false,"is_disabled":false,"rental_uris":{"android":"levelo://app?vid=901065e9-53ce-4f97-93bd-803c0f292316","ios":"levelo://app?vid=901065e9-53ce-4f97-93bd-803c0f292316"},"vehicle_type_id":"4","last_reported":1726002493,"current_range_meters":34000,"station_id":"ce4bh0h2rcd13ifvqd50","pricing_plan_id":"cebpf4jnsgd1na2vs0mg"},{"bike_id":"6083c8fd-673d-4152-81ee-1bcd378ef7c7","system_id":"levelo_inurba_marseille","lat":43.28467,"lon":5.35895,"is_reserved":false,"is_disabled":false,"rental_uris":{"android":"levelo://app?vid=6083c8fd-673d-4152-81ee-1bcd378ef7c7","ios":"levelo://app?vid=6083c8fd-673d-4152-81ee-1bcd378ef7c7"},"vehicle_type_id":"4","last_reported":1726002493,"current_range_meters":14400,"station_id":"ce4bhah2rcd13ifvqei0","pricing_plan_id":"cebpf4jnsgd1na2vs0mg"},{"bike_id":"bf629fcd-aee6-4743-8bdb-803fed732dae","system_id":"levelo_inurba_marseille","lat":43.25869,"lon":5.39894,"is_reserved":false,"is_disabled":false,"rental_uris":{"android":"levelo://app?vid=bf629fcd-aee6-4743-8bdb-803fed732dae","ios":"levelo://app?vid=bf629fcd-aee6-4743-8bdb-803fed732dae"},"vehicle_type_id":"4","last_reported":1726002493,"current_range_meters":17200,"station_id":"ce4bhl92rcd13ifvqghg","pricing_plan_id":"cebpf4jnsgd1na2vs0mg"},{"bike_id":"91b8e8d3-e6fd-4709-a3ec-77dfa591c0bc","system_id":"levelo_inurba_marseille","lat":43.29278,"lon":5.36853,"is_reserved":false,"is_disabled":false,"rental_uris":{"android":"levelo://app?vid=91b8e8d3-e6fd-4709-a3ec-77dfa591c0bc","ios":"levelo://app?vid=91b8e8d3-e6fd-4709-a3ec-77dfa591c0bc"},"vehicle_type_id":"4","last_reported":1726002493,"current_range_meters":39200,"station_id":"ce4bhbp2rcd13ifvqesg","pricing_plan_id":"cebpf4jnsgd1na2vs0mg"},{"bike_id":"bc5f882e-fc56-4dcc-93cb-5b1239a9c129","system_id":"levelo_inurba_marseille","lat":43.279907,"lon":5.405411,"is_reserved":false,"is_disabled":false,"rental_uris":{"android":"levelo://app?vid=bc5f882e-fc56-4dcc-93cb-5b1239a9c129","ios":"levelo://app?vid=bc5f882e-fc56-4dcc-93cb-5b1239a9c129"},"vehicle_type_id":"4","last_reported":1726002493,"current_range_meters":19600,"station_id":"","pricing_plan_id":"cebpf4jnsgd1na2vs0mg"},{"bike_id":"230e3a22-1a03-408c-b711-7f167a488065","system_id":"levelo_inurba_marseille","lat":43.30554,"lon":5.38139,"is_reserved":false,"is_disabled":false,"rental_uris":{"android":"levelo://app?vid=230e3a22-1a03-408c-b711-7f167a488065","ios":"levelo://app?vid=230e3a22-1a03-408c-b711-7f167a488065"},"vehicle_type_id":"4","last_reported":1726002493,"current_range_meters":12000,"station_id":"ce4bgup2rcd13ifvqcn0","pricing_plan_id":"cebpf4jnsgd1na2vs0mg"},{"bike_id":"0cf8c7e1-626e-4ff2-8b01-db024dee4cff","system_id":"levelo_inurba_marseille","lat":43.27812,"lon":5.40714,"is_reserved":false,"is_disabled":false,"rental_uris":{"android":"levelo://app?vid=0cf8c7e1-626e-4ff2-8b01-db024dee4cff","ios":"levelo://app?vid=0cf8c7e1-626e-4ff2-8b01-db024dee4cff"},"vehicle_type_id":"4","last_reported":1726002493,"current_range_meters":6000,"station_id":"ce4bhnh2rcd13ifvqgtg","pricing_plan_id":"cebpf4jnsgd1na2vs0mg"},{"bike_id":"a90f7586-8422-4f39-b47b-f594bec72c79","system_id":"levelo_inurba_marseille","lat":43.24391,"lon":5.37061,"is_reserved":false,"is_disabled":false,"rental_uris":{"android":"levelo://app?vid=a90f7586-8422-4f39-b47b-f594bec72c79","ios":"levelo://app?vid=a90f7586-8422-4f39-b47b-f594bec72c79"},"vehicle_type_id":"4","last_reported":1726002493,"current_range_meters":27600,"station_id":"ce4bhhh2rcd13ifvqfk0","pricing_plan_id":"cebpf4jnsgd1na2vs0mg"},{"bike_id":"607c7408-9538-4b91-9ea5-d996bb50e636","system_id":"levelo_inurba_marseille","lat":43.29271,"lon":5.36847,"is_reserved":false,"is_disabled":false,"rental_uris":{"android":"levelo://app?vid=607c7408-9538-4b91-9ea5-d996bb50e636","ios":"levelo://app?vid=607c7408-9538-4b91-9ea5-d996bb50e636"},"vehicle_type_id":"4","last_reported":1726002493,"current_range_meters":37600,"station_id":"ce4bhbp2rcd13ifvqesg","pricing_plan_id":"cebpf4jnsgd1na2vs0mg"},{"bike_id":"4f3693d8-d47d-4890-8615-590986333220","system_id":"levelo_inurba_marseille","lat":43.31168,"lon":5.38718,"is_reserved":false,"is_disabled":false,"rental_uris":{"android":"levelo://app?vid=4f3693d8-d47d-4890-8615-590986333220","ios":"levelo://app?vid=4f3693d8-d47d-4890-8615-590986333220"},"vehicle_type_id":"4","last_reported":1726002493,"current_range_meters":33600,"station_id":"ce4bgv12rcd13ifvqcp0","pricing_plan_id":"cebpf4jnsgd1na2vs0mg"},{"bike_id":"dc903249-8ed9-4f32-a859-374772bb715e","system_id":"levelo_inurba_marseille","lat":43.29624,"lon":5.40596,"is_reserved":false,"is_disabled":false,"rental_uris":{"android":"levelo://app?vid=dc903249-8ed9-4f32-a859-374772bb715e","ios":"levelo://app?vid=dc903249-8ed9-4f32-a859-374772bb715e"},"vehicle_type_id":"4","last_reported":1726002493,"current_range_meters":3200,"station_id":"ce4bh0h2rcd13ifvqd60","pricing_plan_id":"cebpf4jnsgd1na2vs0mg"},{"bike_id":"bb9cd97a-0d53-4025-85d6-bf60ecc1b620","system_id":"levelo_inurba_marseille","lat":43.29552,"lon":5.42294,"is_reserved":false,"is_disabled":false,"rental_uris":{"android":"levelo://app?vid=bb9cd97a-0d53-4025-85d6-bf60ecc1b620","ios":"levelo://app?vid=bb9cd97a-0d53-4025-85d6-bf60ecc1b620"},"vehicle_type_id":"4","last_reported":1726002493,"current_range_meters":4800,"station_id":"ce4bhph2rcd13ifvqhdg","pricing_plan_id":"cebpf4jnsgd1na2vs0mg"},{"bike_id":"17ec70e8-2555-4186-bd47-780fe50304c3","system_id":"levelo_inurba_marseille","lat":43.2408,"lon":5.37728,"is_reserved":false,"is_disabled":false,"rental_uris":{"android":"levelo://app?vid=17ec70e8-2555-4186-bd47-780fe50304c3","ios":"levelo://app?vid=17ec70e8-2555-4186-bd47-780fe50304c3"},"vehicle_type_id":"4","last_reported":1726002493,"current_range_meters":28800,"station_id":"ce4bhnp2rcd13ifvqgvg","pricing_plan_id":"cebpf4jnsgd1na2vs0mg"},{"bike_id":"d614662d-389f-436d-9e90-0609c52f0540","system_id":"levelo_inurba_marseille","lat":43.31705,"lon":5.37727,"is_reserved":false,"is_disabled":false,"rental_uris":{"android":"levelo://app?vid=d614662d-389f-436d-9e90-0609c52f0540","ios":"levelo://app?vid=d614662d-389f-436d-9e90-0609c52f0540"},"vehicle_type_id":"4","last_reported":1726002493,"current_range_meters":39200,"station_id":"ce4bgth2rcd13ifvqch0","pricing_plan_id":"cebpf4jnsgd1na2vs0mg"},{"bike_id":"488e9265-24a0-43b6-9814-fa68e131ab6b","system_id":"levelo_inurba_marseille","lat":43.31371,"lon":5.38495,"is_reserved":false,"is_disabled":false,"rental_uris":{"android":"levelo://app?vid=488e9265-24a0-43b6-9814-fa68e131ab6b","ios":"levelo://app?vid=488e9265-24a0-43b6-9814-fa68e131ab6b"},"vehicle_type_id":"4","last_reported":1726002493,"current_range_meters":36400,"station_id":"ce4bgt92rcd13ifvqcf0","pricing_plan_id":"cebpf4jnsgd1na2vs0mg"},{"bike_id":"8082d7b6-3f37-4f9f-958a-ba026a6e9485","system_id":"levelo_inurba_marseille","lat":43.23962,"lon":5.36627,"is_reserved":false,"is_disabled":false,"rental_uris":{"android":"levelo://app?vid=8082d7b6-3f37-4f9f-958a-ba026a6e9485","ios":"levelo://app?vid=8082d7b6-3f37-4f9f-958a-ba026a6e9485"},"vehicle_type_id":"4","last_reported":1726002493,"current_range_meters":12800,"station_id":"ce4bhi12rcd13ifvqfp0","pricing_plan_id":"cebpf4jnsgd1na2vs0mg"},{"bike_id":"0b873e3d-5177-4b00-9590-fc5c775c42e9","system_id":"levelo_inurba_marseille","lat":43.32055,"lon":5.41554,"is_reserved":false,"is_disabled":false,"rental_uris":{"android":"levelo://app?vid=0b873e3d-5177-4b00-9590-fc5c775c42e9","ios":"levelo://app?vid=0b873e3d-5177-4b00-9590-fc5c775c42e9"},"vehicle_type_id":"4","last_reported":1726002493,"current_range_meters":15200,"station_id":"ce4bhq92rcd13ifvqhkg","pricing_plan_id":"cebpf4jnsgd1na2vs0mg"},{"bike_id":"7190e5c7-1ace-4486-82cb-9421972e6672","system_id":"levelo_inurba_marseille","lat":43.26558,"lon":5.37296,"is_reserved":false,"is_disabled":false,"rental_uris":{"android":"levelo://app?vid=7190e5c7-1ace-4486-82cb-9421972e6672","ios":"levelo://app?vid=7190e5c7-1ace-4486-82cb-9421972e6672"},"vehicle_type_id":"4","last_reported":1726002493,"current_range_meters":26800,"station_id":"ce4bhg12rcd13ifvqf70","pricing_plan_id":"cebpf4jnsgd1na2vs0mg"},{"bike_id":"78a102e1-c7a7-4f25-8fa2-7a5e0a01ae77","system_id":"levelo_inurba_marseille","lat":43.28554,"lon":5.39502,"is_reserved":false,"is_disabled":false,"rental_uris":{"android":"levelo://app?vid=78a102e1-c7a7-4f25-8fa2-7a5e0a01ae77","ios":"levelo://app?vid=78a102e1-c7a7-4f25-8fa2-7a5e0a01ae77"},"vehicle_type_id":"4","last_reported":1726002493,"current_range_meters":8000,"station_id":"ce4bh292rcd13ifvqdg0","pricing_plan_id":"cebpf4jnsgd1na2vs0mg"},{"bike_id":"63e18cc3-1426-44dc-8e3c-57c07098b592","system_id":"levelo_inurba_marseille","lat":43.30311,"lon":5.36892,"is_reserved":false,"is_disabled":false,"rental_uris":{"android":"levelo://app?vid=63e18cc3-1426-44dc-8e3c-57c07098b592","ios":"levelo://app?vid=63e18cc3-1426-44dc-8e3c-57c07098b592"},"vehicle_type_id":"4","last_reported":1726002493,"current_range_meters":16800,"station_id":"ce4bgqh2rcd13ifvqc5g","pricing_plan_id":"cebpf4jnsgd1na2vs0mg"},{"bike_id":"44c7f72f-afac-4027-8f81-6ffa7b045cce","system_id":"levelo_inurba_marseille","lat":43.28467,"lon":5.35889,"is_reserved":false,"is_disabled":false,"rental_uris":{"android":"levelo://app?vid=44c7f72f-afac-4027-8f81-6ffa7b045cce","ios":"levelo://app?vid=44c7f72f-afac-4027-8f81-6ffa7b045cce"},"vehicle_type_id":"4","last_reported":1726002493,"current_range_meters":38800,"station_id":"ce4bhah2rcd13ifvqei0","pricing_plan_id":"cebpf4jnsgd1na2vs0mg"},{"bike_id":"1cac1a74-4d91-4e4c-a71d-9d0bf55bf6e8","system_id":"levelo_inurba_marseille","lat":43.28463,"lon":5.3589,"is_reserved":false,"is_disabled":false,"rental_uris":{"android":"levelo://app?vid=1cac1a74-4d91-4e4c-a71d-9d0bf55bf6e8","ios":"levelo://app?vid=1cac1a74-4d91-4e4c-a71d-9d0bf55bf6e8"},"vehicle_type_id":"4","last_reported":1726002493,"current_range_meters":4400,"station_id":"ce4bhah2rcd13ifvqei0","pricing_plan_id":"cebpf4jnsgd1na2vs0mg"},{"bike_id":"e2427abc-072d-44bf-85a9-422cec2ceea5","system_id":"levelo_inurba_marseille","lat":43.30884,"lon":5.3964,"is_reserved":false,"is_disabled":false,"rental_uris":{"android":"levelo://app?vid=e2427abc-072d-44bf-85a9-422cec2ceea5","ios":"levelo://app?vid=e2427abc-072d-44bf-85a9-422cec2ceea5"},"vehicle_type_id":"4","last_reported":1726002493,"current_range_meters":22400,"station_id":"ce4bh012rcd13ifvqcv0","pricing_plan_id":"cebpf4jnsgd1na2vs0mg"},