{"last_updated":1715890084,"ttl":30,"version":"2.2","data":{"bikes":[{"bike_id":"417197a5-80b8-4bf0-a4bf-111f094be7bc","system_id":"levelo_inurba_marseille","lat":43.313391,"lon":5.36706,"is_reserved":false,"is_disabled":false,"rental_uris":{"android":"levelo://app?vid=417197a5-80b8-4bf0-a4bf-111f094be7bc","ios":"levelo://app?vid=417197a5-80b8-4bf0-a4bf-111f094be7bc"},"vehicle_type_id":"4","last_reported":1715890084,"current_range_meters":21200,"station_id":"ce4bgr92rcd13ifvqc6g","pricing_plan_id":"cebpf4jnsgd1na2vs0mg"},{"bike_id":"1a994ba2-da46-4284-906c-edad4cabddc4","system_id":"levelo_inurba_marseille","lat":43.314811,"lon":5.373104,"is_reserved":false,"is_disabled":false,"rental_uris":{"android":"levelo://app?vid=1a994ba2-da46-4284-906c-edad4cabddc4","ios":"levelo://app?vid=1a994ba2-da46-4284-906c-edad4cabddc4"},"vehicle_type_id":"4","last_reported":1715890084,"current_range_meters":31600,"station_id":"ce4bgt12rcd13ifvqcd0","pricing_plan_id":"cebpf4jnsgd1na2vs0mg"},{"bike_id":"ad4d9652-6f6f-4906-b6e5-30b2bf1a2825","system_id":"levelo_inurba_marseille","lat":43.314811,"lon":5.373103,"is_reserved":false,"is_disabled":false,"rental_uris":{"android":"levelo://app?vid=ad4d9652-6f6f-4906-b6e5-30b2bf1a2825","ios":"levelo://app?vid=ad4d9652-6f6f-4906-b6e5-30b2bf1a2825"},"vehicle_type_id":"4","last_reported":1715890084,"current_range_meters":9200,"station_id":"ce4bgt12rcd13ifvqcd0","pricing_plan_id":"cebpf4jnsgd1na2vs0mg"},{"bike_id":"de613e53-18ee-4d52-9f9f-46893903a9eb","system_id":"levelo_inurba_marseille","lat":43.309034,"lon":5.371783,"is_reserved":false,"is_disabled":false,"rental_uris":{"android":"levelo://app?vid=de613e53-18ee-4d52-9f9f-46893903a9eb","ios":"levelo://app?vid=de613e53-18ee-4d52-9f9f-46893903a9eb"},"vehicle_type_id":"4","last_reported":1715890084,"current_range_meters":4800,"station_id":"ce4bguh2rcd13ifvqckg","pricing_plan_id":"cebpf4jnsgd1na2vs0mg"},{"bike_id":"36b8e3b3-a662-401f-95be-eca2583539cc","system_id":"levelo_inurba_marseille","lat":43.30537,"lon":5.367345,"is_reserved":false,"is_disabled":false,"rental_uris":{"android":"levelo://app?vid=36b8e3b3-a662-401f-95be-eca2583539cc","ios":"levelo://app?vid=36b8e3b3-a662-401f-95be-eca2583539cc"},"vehicle_type_id":"4","last_reported":1715890084,"current_range_meters":1600,"station_id":"ce4bgrp2rcd13ifvqc9g","pricing_plan_id":"cebpf4jnsgd1na2vs0mg"},{"bike_id":"855b0105-1d9a-4afd-98cb-bcc629456968","system_id":"levelo_inurba_marseille","lat":43.305706,"lon":5.365654,"is_reserved":false,"is_disabled":false,"rental_uris":{"android":"levelo://app?vid=855b0105-1d9a-4afd-98cb-bcc629456968","ios":"levelo://app?vid=855b0105-1d9a-4afd-98cb-bcc629456968"},"vehicle_type_id":"4","last_reported":1715890084,"current_range_meters":800,"station_id":"ce4bgs12rcd13ifvqcag","pricing_plan_id":"cebpf4jnsgd1na2vs0mg"},{"bike_id":"85024c99-dfcc-4b3c-865b-f841b45f9324","system_id":"levelo_inurba_marseille","lat":43.305989,"lon":5.37225,"is_reserved":false,"is_disabled":false,"rental_uris":{"android":"levelo://app?vid=85024c99-dfcc-4b3c-865b-f841b45f9324","ios":"levelo://app?vid=85024c99-dfcc-4b3c-865b-f841b45f9324"},"vehicle_type_id":"4","last_reported":1715890084,"current_range_meters":6000,"station_id":"ce4bgqh2rcd13ifvqc4g","pricing_plan_id":"cebpf4jnsgd1na2vs0mg"},{"bike_id":"72833883-667d-4432-93b8-4488876e9167","system_id":"levelo_inurba_marseille","lat":43.305989,"lon":5.37225,"is_reserved":false,"is_disabled":false,"rental_uris":{"android":"levelo://app?vid=72833883-667d-4432-93b8-4488876e9167","ios":"levelo://app?vid=72833883-667d-4432-93b8-4488876e9167"},"vehicle_type_id":"4","last_reported":1715890084,"current_range_meters":0,"station_id":"ce4bgqh2rcd13ifvqc4g","pricing_plan_id":"cebpf4jnsgd1na2vs0mg"},{"bike_id":"33226fe4-7434-4f75-9e91-177f0fb9cc73","system_id":"levelo_inurba_marseille","lat":43.311174,"lon":5.37764,"is_reserved":false,"is_disabled":false,"rental_uris":{"android":"levelo://app?vid=33226fe4-7434-4f75-9e91-177f0fb9cc73","ios":"levelo://app?vid=33226fe4-7434-4f75-9e91-177f0fb9cc73"},"vehicle_type_id":"4","last_reported":1715890084,"current_range_meters":0,"station_id":"ce4bgt92rcd13ifvqcg0","pricing_plan_id":"cebpf4jnsgd1na2vs0mg"},{"bike_id":"b7af2549-1069-4cf4-bff8-e55576ddc503","system_id":"levelo_inurba_marseille","lat":43.311125,"lon":5.377624,"is_reserved":false,"is_disabled":false,"rental_uris":{"android":"levelo://app?vid=b7af2549-1069-4cf4-bff8-e55576ddc503","ios":"levelo://app?vid=b7af2549-1069-4cf4-bff8-e55576ddc503"},"vehicle_type_id":"4","last_reported":1715890084,"current_range_meters":16400,"station_id":"ce4bgt92rcd13ifvqcg0","pricing_plan_id":"cebpf4jnsgd1na2vs0mg"},{"bike_id":"8bf25f1a-855f-4e7c-933e-63b58d5715de","system_id":"levelo_inurba_marseille","lat":43.311125,"lon":5.377624,"is_reserved":false,"is_disabled":false,"rental_uris":{"android":"levelo://app?vid=8bf25f1a-855f-4e7c-933e-63b58d5715de","ios":"levelo://app?vid=8bf25f1a-855f-4e7c-933e-63b58d5715de"},"vehicle_type_id":"4","last_reported":1715890084,"current_range_meters":0,"station_id":"ce4bgt92rcd13ifvqcg0","pricing_plan_id":"cebpf4jnsgd1na2vs0mg"},{"bike_id":"4eb0bd6c-f26b-4082-879c-121904180c1b","system_id":"levelo_inurba_marseille","lat":43.307945,"lon":5.376487,"is_reserved":false,"is_disabled":false,"rental_uris":{"android":"levelo://app?vid=4eb0bd6c-f26b-4082-879c-121904180c1b","ios":"levelo://app?vid=4eb0bd6c-f26b-4082-879c-121904180c1b"},"vehicle_type_id":"4","last_reported":1715890084,"current_range_meters":7600,"station_id":"ce4bgv92rcd13ifvqcq0","pricing_plan_id":"cebpf4jnsgd1na2vs0mg"},{"bike_id":"255d94ca-bb5b-49b1-ac5b-188bc134e2d3","system_id":"levelo_inurba_marseille","lat":43.307945,"lon":5.376487,"is_reserved":false,"is_disabled":false,"rental_uris":{"android":"levelo://app?vid=255d94ca-bb5b-49b1-ac5b-188bc134e2d3","ios":"levelo://app?vid=255d94ca-bb5b-49b1-ac5b-188bc134e2d3"},"vehicle_type_id":"4","last_reported":1715890084,"current_range_meters":0,"station_id":"ce4bgv92rcd13ifvqcq0","pricing_plan_id":"cebpf4jnsgd1na2vs0mg"},{"bike_id":"d7d528ce-80b9-4d1b-9f56-4c96d0ce33c5","system_id":"levelo_inurba_marseille","lat":43.3079,"lon":5.37645,"is_reserved":false,"is_disabled":false,"rental_uris":{"android":"levelo://app?vid=d7d528ce-80b9-4d1b-9f56-4c96d0ce33c5","ios":"levelo://app?vid=d7d528ce-80b9-4d1b-9f56-4c96d0ce33c5"},"vehicle_type_id":"4","last_reported":1715890084,"current_range_meters":17600,"station_id":"","pricing_plan_id":"cebpf4jnsgd1na2vs0mg"},{"bike_id":"e77da31e-8334-4fdf-9171-8226f5ffd254","system_id":"levelo_inurba_marseille","lat":43.307945,"lon":5.376487,"is_reserved":false,"is_disabled":false,"rental_uris":{"android":"levelo://app?vid=e77da31e-8334-4fdf-9171-8226f5ffd254","ios":"levelo://app?vid=e77da31e-8334-4fdf-9171-8226f5ffd254"},"vehicle_type_id":"4","last_reported":1715890084,"current_range_meters":5200,"station_id":"ce4bgv92rcd13ifvqcq0","pricing_plan_id":"cebpf4jnsgd1na2vs0mg"},{"bike_id":"00b8153a-3560-4106-be92-c75c7c5871b1","system_id":"levelo_inurba_marseille","lat":43.307945,"lon":5.376487,"is_reserved":false,"is_disabled":false,"rental_uris":{"android":"levelo://app?vid=00b8153a-3560-4106-be92-c75c7c5871b1","ios":"levelo://app?vid=00b8153a-3560-4106-be92-c75c7c5871b1"},"vehicle_type_id":"4","last_reported":1715890084,"current_range_meters":2000,"station_id":"ce4bgv92rcd13ifvqcq0","pricing_plan_id":"cebpf4jnsgd1na2vs0mg"},{"bike_id":"69e6d258-9318-4b33-b7fa-8d459e98967f","system_id":"levelo_inurba_marseille","lat":43.317075,"lon":5.377367,"is_reserved":false,"is_disabled":false,"rental_uris":{"android":"levelo://app?vid=69e6d258-9318-4b33-b7fa-8d459e98967f","ios":"levelo://app?vid=69e6d258-9318-4b33-b7fa-8d459e98967f"},"vehicle_type_id":"4","last_reported":1715890084,"current_range_meters":29200,"station_id":"ce4bgth2rcd13ifvqch0","pricing_plan_id":"cebpf4jnsgd1na2vs0mg"},{"bike_id":"7c1c63bc-d82e-40e3-9322-8bb2f55c8905","system_id":"levelo_inurba_marseille","lat":43.315293,"lon":5.380349,"is_reserved":false,"is_disabled":false,"rental_uris":{"android":"levelo://app?vid=7c1c63bc-d82e-40e3-9322-8bb2f55c8905","ios":"levelo://app?vid=7c1c63bc-d82e-40e3-9322-8bb2f55c8905"},"vehicle_type_id":"4","last_reported":1715890084,"current_range_meters":8800,"station_id":"ce4bhsp2rcd13ifvqi50","pricing_plan_id":"cebpf4jnsgd1na2vs0mg"},{"bike_id":"8447718f-fce8-43d6-b90a-91a035e542e0","system_id":"levelo_inurba_marseille","lat":43.315289,"lon":5.380349,"is_reserved":false,"is_disabled":false,"rental_uris":{"android":"levelo://app?vid=8447718f-fce8-43d6-b90a-91a035e542e0","ios":"levelo://app?vid=8447718f-fce8-43d6-b90a-91a035e542e0"},"vehicle_type_id":"4","last_reported":1715890084,"current_range_meters":19200,"station_id":"ce4bhsp2rcd13ifvqi50","pricing_plan_id":"cebpf4jnsgd1na2vs0mg"},{"bike_id":"ec995286-839e-443b-9d6e-fd92de388ecf","system_id":"levelo_inurba_marseille","lat":43.30304,"lon":5.368987,"is_reserved":false,"is_disabled":false,"rental_uris":{"android":"levelo://app?vid=ec995286-839e-443b-9d6e-fd92de388ecf","ios":"levelo://app?vid=ec995286-839e-443b-9d6e-fd92de388ecf"},"vehicle_type_id":"4","last_reported":1715890084,"current_range_meters":14800,"station_id":"ce4bgqh2rcd13ifvqc5g","pricing_plan_id":"cebpf4jnsgd1na2vs0mg"},{"bike_id":"c1f4fc3c-1807-4917-a68b-c311caa26f18","system_id":"levelo_inurba_marseille","lat":43.315289,"lon":5.380349,"is_reserved":false,"is_disabled":false,"rental_uris":{"android":"levelo://app?vid=c1f4fc3c-1807-4917-a68b-c311caa26f18","ios":"levelo://app?vid=c1f4fc3c-1807-4917-a68b-c311caa26f18"},"vehicle_type_id":"4","last_reported":1715890084,"current_range_meters":9200,"station_id":"ce4bhsp2rcd13ifvqi50","pricing_plan_id":"cebpf4jnsgd1na2vs0mg"},{"bike_id":"03d775c9-52ed-4d68-8973-e6d272928a9f","system_id":"levelo_inurba_marseille","lat":43.315289,"lon":5.380349,"is_reserved":false,"is_disabled":false,"rental_uris":{"android":"levelo://app?vid=03d775c9-52ed-4d68-8973-e6d272928a9f","ios":"levelo://app?vid=03d775c9-52ed-4d68-8973-e6d272928a9f"},"vehicle_type_id":"4","last_reported":1715890084,"current_range_meters":14800,"station_id":"ce4bhsp2rcd13ifvqi50","pricing_plan_id":"cebpf4jnsgd1na2vs0mg"},{"bike_id":"260de430-e254-4280-b86a-45b30466b754","system_id":"levelo_inurba_marseille","lat":43.315293,"lon":5.380349,"is_reserved":false,"is_disabled":false,"rental_uris":{"android":"levelo://app?vid=260de430-e254-4280-b86a-45b30466b754","ios":"levelo://app?vid=260de430-e254-4280-b86a-45b30466b754"},"vehicle_type_id":"4","last_reported":1715890084,"current_range_meters":18000,"station_id":"ce4bhsp2rcd13ifvqi50","pricing_plan_id":"cebpf4jnsgd1na2vs0mg"},{"bike_id":"0bbc01aa-6635-4419-bc2c-7896de7d62f3","system_id":"levelo_inurba_marseille","lat":43.315289,"lon":5.380349,"is_reserved":false,"is_disabled":false,"rental_uris":{"android":"levelo://app?vid=0bbc01aa-6635-4419-bc2c-7896de7d62f3","ios":"levelo://app?vid=0bbc01aa-6635-4419-bc2c-7896de7d62f3"},"vehicle_type_id":"4","last_reported":1715890084,"current_range_meters":10000,"station_id":"ce4bhsp2rcd13ifvqi50","pricing_plan_id":"cebpf4jnsgd1na2vs0mg"},{"bike_id":"092c9fcc-8cd1-4059-939a-e3ee1d8448ee","system_id":"levelo_inurba_marseille","lat":43.301824,"lon":5.366052,"is_reserved":false,"is_disabled":false,"rental_uris":{"android":"levelo://app?vid=092c9fcc-8cd1-4059-939a-e3ee1d8448ee","ios":"levelo://app?vid=092c9fcc-8cd1-4059-939a-e3ee1d8448ee"},"vehicle_type_id":"4","last_reported":1715890084,"current_range_meters":0,"station_id":"ce4bgrh2rcd13ifvqc8g","pricing_plan_id":"cebpf4jnsgd1na2vs0mg"},{"bike_id":"2473e808-f212-4f98-a493-56124c8a78fc","system_id":"levelo_inurba_marseille","lat":43.324771,"lon":5.36557,"is_reserved":false,"is_disabled":false,"rental_uris":{"android":"levelo://app?vid=2473e808-f212-4f98-a493-56124c8a78fc","ios":"levelo://app?vid=2473e808-f212-4f98-a493-56124c8a78fc"},"vehicle_type_id":"4","last_reported":1715890084,"current_range_meters":10800,"station_id":"ce4bhs12rcd13ifvqhvg","pricing_plan_id":"cebpf4jnsgd1na2vs0mg"},{"bike_id":"0919dd6c-0d0e-407c-89ae-01cc4f78ef93","system_id":"levelo_inurba_marseille","lat":43.30809,"lon":5.3815,"is_reserved":false,"is_disabled":false,"rental_uris":{"android":"levelo://app?vid=0919dd6c-0d0e-407c-89ae-01cc4f78ef93","ios":"levelo://app?vid=0919dd6c-0d0e-407c-89ae-01cc4f78ef93"},"vehicle_type_id":"4","last_reported":1715890084,"current_range_meters":0,"station_id":"ce4bgt12rcd13ifvqce0","pricing_plan_id":"cebpf4jnsgd1na2vs0mg"},{"bike_id":"62ed3a60-b6dd-4e90-a4cc-b4d53622423d","system_id":"levelo_inurba_marseille","lat":43.308012,"lon":5.381511,"is_reserved":false,"is_disabled":false,"rental_uris":{"android":"levelo://app?vid=62ed3a60-b6dd-4e90-a4cc-b4d53622423d","ios":"levelo://app?vid=62ed3a60-b6dd-4e90-a4cc-b4d53622423d"},"vehicle_type_id":"4","last_reported":1715890084,"current_range_meters":7200,"station_id":"ce4bgt12rcd13ifvqce0","pricing_plan_id":"cebpf4jnsgd1na2vs0mg"},{"bike_id":"ac199408-8741-4ee9-ba7d-1c9d27db6519","system_id":"levelo_inurba_marseille","lat":43.308012,"lon":5.381511,"is_reserved":false,"is_disabled":false,"rental_uris":{"android":"levelo://app?vid=ac199408-8741-4ee9-ba7d-1c9d27db6519","ios":"levelo://app?vid=ac199408-8741-4ee9-ba7d-1c9d27db6519"},"vehicle_type_id":"4","last_reported":1715890084,"current_range_meters":0,"station_id":"ce4bgt12rcd13ifvqce0","pricing_plan_id":"cebpf4jnsgd1na2vs0mg"},{"bike_id":"ae85f742-b1ce-4d15-869b-251f3d381c46","system_id":"levelo_inurba_marseille","lat":43.307921,"lon":5.381651,"is_reserved":false,"is_disabled":false,"rental_uris":{"android":"levelo://app?vid=ae85f742-b1ce-4d15-869b-251f3d381c46","ios":"levelo://app?vid=ae85f742-b1ce-4d15-869b-251f3d381c46"},"vehicle_type_id":"4","last_reported":1715890084,"current_range_meters":0,"station_id":"ce4bgt12rcd13ifvqce0","pricing_plan_id":"cebpf4jnsgd1na2vs0mg"},{"bike_id":"14f04ee2-436b-4afb-875f-24a6151aa3c5","system_id":"levelo_inurba_marseille","lat":43.304606,"lon":5.379026,"is_reserved":false,"is_disabled":false,"rental_uris":{"android":"levelo://app?vid=14f04ee2-436b-4afb-875f-24a6151aa3c5","ios":"levelo://app?vid=14f04ee2-436b-4afb-875f-24a6151aa3c5"},"vehicle_type_id":"4","last_reported":1715890084,"current_range_meters":24400,"station_id":"ce4bgup2rcd13ifvqcn0","pricing_plan_id":"cebpf4jnsgd1na2vs0mg"},{"bike_id":"620b0b3c-125b-457a-8889-7347bb5edfdd","system_id":"levelo_inurba_marseille","lat":43.324771,"lon":5.36557,"is_reserved":false,"is_disabled":false,"rental_uris":{"android":"levelo://app?vid=620b0b3c-125b-457a-8889-7347bb5edfdd","ios":"levelo://app?vid=620b0b3c-125b-457a-8889-7347bb5edfdd"},"vehicle_type_id":"4","last_reported":1715890084,"current_range_meters":8800,"station_id":"ce4bhs12rcd13ifvqhvg","pricing_plan_id":"cebpf4jnsgd1na2vs0mg"},{"bike_id":"9a11686b-ee6c-49ad-92a8-dcb7fd327d59","system_id":"levelo_inurba_marseille","lat":43.324771,"lon":5.36557,"is_reserved":false,"is_disabled":false,"rental_uris":{"android":"levelo://app?vid=9a11686b-ee6c-49ad-92a8-dcb7fd327d59","ios":"levelo://app?vid=9a11686b-ee6c-49ad-92a8-dcb7fd327d59"},"vehicle_type_id":"4","last_reported":1715890084,"current_range_meters":30000,"station_id":"ce4bhs12rcd13ifvqhvg","pricing_plan_id":"cebpf4jnsgd1na2vs0mg"},{"bike_id":"4068cb99-41b7-441a-a80a-0b66c675f515","system_id":"levelo_inurba_marseille","lat":43.32478,"lon":5.36557,"is_reserved":false,"is_disabled":false,"rental_uris":{"android":"levelo://app?vid=4068cb99-41b7-441a-a80a-0b66c675f515","ios":"levelo://app?vid=4068cb99-41b7-441a-a80a-0b66c675f515"},"vehicle_type_id":"4","last_reported":1715890084,"current_range_meters":3200,"station_id":"ce4bhs12rcd13ifvqhvg","pricing_plan_id":"cebpf4jnsgd1na2vs0mg"},{"bike_id":"4aaabbe7-1810-4f71-a7bf-ce6fbaddfc44","system_id":"levelo_inurba_marseille","lat":43.32481,"lon":5.36557,"is_reserved":false,"is_disabled":false,"rental_uris":{"android":"levelo://app?vid=4aaabbe7-1810-4f71-a7bf-ce6fbaddfc44","ios":"levelo://app?vid=4aaabbe7-1810-4f71-a7bf-ce6fbaddfc44"},"vehicle_type_id":"4","last_reported":1715890084,"current_range_meters":10400,"station_id":"ce4bhs12rcd13ifvqhvg","pricing_plan_id":"cebpf4jnsgd1na2vs0mg"},{"bike_id":"adbb1178-8581-429f-a6cb-94e233b41a29","system_id":"levelo_inurba_marseille","lat":43.324771,"lon":5.36557,"is_reserved":false,"is_disabled":false,"rental_uris":{"android":"levelo://app?vid=adbb1178-8581-429f-a6cb-94e233b41a29","ios":"levelo://app?vid=adbb1178-8581-429f-a6cb-94e233b41a29"},"vehicle_type_id":"4","last_reported":1715890084,"current_range_meters":12400,"station_id":"ce4bhs12rcd13ifvqhvg","pricing_plan_id":"cebpf4jnsgd1na2vs0mg"},{"bike_id":"1dc34fd3-5c10-4699-a06b-4a9bc187d6a8","system_id":"levelo_inurba_marseille","lat":43.324771,"lon":5.36557,"is_reserved":false,"is_disabled":false,"rental_uris":{"android":"levelo://app?vid=1dc34fd3-5c10-4699-a06b-4a9bc187d6a8","ios":"levelo://app?vid=1dc34fd3-5c10-4699-a06b-4a9bc187d6a8"},"vehicle_type_id":"4","last_reported":1715890084,"current_range_meters":1600,"station_id":"ce4bhs12rcd13ifvqhvg","pricing_plan_id":"cebpf4jnsgd1na2vs0mg"},{"bike_id":"1d42bf85-5061-47f2-b60a-a2cf2ce294df","system_id":"levelo_inurba_marseille","lat":43.324771,"lon":5.36557,"is_reserved":false,"is_disabled":false,"rental_uris":{"android":"levelo://app?vid=1d42bf85-5061-47f2-b60a-a2cf2ce294df","ios":"levelo://app?vid=1d42bf85-5061-47f2-b60a-a2cf2ce294df"},"vehicle_type_id":"4","last_reported":1715890084,"current_range_meters":5600,"station_id":"ce4bhs12rcd13ifvqhvg","pricing_plan_id":"cebpf4jnsgd1na2vs0mg"},{"bike_id":"6688cdcf-82c2-47de-ae4b-e929628ed47f","system_id":"levelo_inurba_marseille","lat":43.324771,"lon":5.36557,"is_reserved":false,"is_disabled":false,"rental_uris":{"android":"levelo://app?vid=6688cdcf-82c2-47de-ae4b-e929628ed47f","ios":"levelo://app?vid=6688cdcf-82c2-47de-ae4b-e929628ed47f"},"vehicle_type_id":"4","last_reported":1715890084,"current_range_meters":6800,"station_id":"ce4bhs12rcd13ifvqhvg","pricing_plan_id":"cebpf4jnsgd1na2vs0mg"},{"bike_id":"de363a9b-b8dd-4f25-97c4-05ca23eea0b0","system_id":"levelo_inurba_marseille","lat":43.324771,"lon":5.36557,"is_reserved":false,"is_disabled":false,"rental_uris":{"android":"levelo://app?vid=de363a9b-b8dd-4f25-97c4-05ca23eea0b0","ios":"levelo://app?vid=de363a9b-b8dd-4f25-97c4-05ca23eea0b0"},"vehicle_type_id":"4","last_reported":1715890084,"current_range_meters":8400,"station_id":"ce4bhs12rcd13ifvqhvg","pricing_plan_id":"cebpf4jnsgd1na2vs0mg"},{"bike_id":"6d08af9f-1648-48e2-98e1-cdb303c3e117","system_id":"levelo_inurba_marseille","lat":43.310804,"lon":5.38359,"is_reserved":false,"is_disabled":false,"rental_uris":{"android":"levelo://app?vid=6d08af9f-1648-48e2-98e1-cdb303c3e117","ios":"levelo://app?vid=6d08af9f-1648-48e2-98e1-cdb303c3e117"},"vehicle_type_id":"4","last_reported":1715890084,"current_range_meters":10800,"station_id":"ce4bgv92rcd13ifvqcr0","pricing_plan_id":"cebpf4jnsgd1na2vs0mg"},{"bike_id":"d58f1d0a-cf27-4d2f-be10-3b346d01d607","system_id":"levelo_inurba_marseille","lat":43.301442,"lon":5.374202,"is_reserved":false,"is_disabled":false,"rental_uris":{"android":"levelo://app?vid=d58f1d0a-cf27-4d2f-be10-3b346d01d607","ios":"levelo://app?vid=d58f1d0a-cf27-4d2f-be10-3b346d01d607"},"vehicle_type_id":"4","last_reported":1715890084,"current_range_meters":0,"station_id":"ce4bgs92rcd13ifvqcc0","pricing_plan_id":"cebpf4jnsgd1na2vs0mg"},{"bike_id":"194c40e9-9ac8-4d75-b2c8-7e8626179d50","system_id":"levelo_inurba_marseille","lat":43.310804,"lon":5.38359,"is_reserved":false,"is_disabled":false,"rental_uris":{"android":"levelo://app?vid=194c40e9-9ac8-4d75-b2c8-7e8626179d50","ios":"levelo://app?vid=194c40e9-9ac8-4d75-b2c8-7e8626179d50"},"vehicle_type_id":"4","last_reported":1715890084,"current_range_meters":8000,"station_id":"ce4bgv92rcd13ifvqcr0","pricing_plan_id":"cebpf4jnsgd1na2vs0mg"},{"bike_id":"da335ed9-3925-4ec8-b8ba-c774f6366d5f","system_id":"levelo_inurba_marseille","lat":43.319935,"lon":5.381699,"is_reserved":false,"is_disabled":false,"rental_uris":{"android":"levelo://app?vid=da335ed9-3925-4ec8-b8ba-c774f6366d5f","ios":"levelo://app?vid=da335ed9-3925-4ec8-b8ba-c774f6366d5f"},"vehicle_type_id":"4","last_reported":1715890084,"current_range_meters":16400,"station_id":"ce4bhr12rcd13ifvqhpg","pricing_plan_id":"cebpf4jnsgd1na2vs0mg"},{"bike_id":"56222d48-ec25-417e-99a9-cb88bcc969c6","system_id":"levelo_inurba_marseille","lat":43.319935,"lon":5.381699,"is_reserved":false,"is_disabled":false,"rental_uris":{"android":"levelo://app?vid=56222d48-ec25-417e-99a9-cb88bcc969c6","ios":"levelo://app?vid=56222d48-ec25-417e-99a9-cb88bcc969c6"},"vehicle_type_id":"4","last_reported":1715890084,"current_range_meters":29200,"station_id":"ce4bhr12rcd13ifvqhpg","pricing_plan_id":"cebpf4jnsgd1na2vs0mg"},{"bike_id":"16258643-5f01-47a6-b9de-af3a643d8019","system_id":"levelo_inurba_marseille","lat":43.319935,"lon":5.381699,"is_reserved":false,"is_disabled":false,"rental_uris":{"android":"levelo://app?vid=16258643-5f01-47a6-b9de-af3a643d8019","ios":"levelo://app?vid=16258643-5f01-47a6-b9de-af3a643d8019"},"vehicle_type_id":"4","last_reported":1715890084,"current_range_meters":30800,"station_id":"ce4bhr12rcd13ifvqhpg","pricing_plan_id":"cebpf4jnsgd1na2vs0mg"},{"bike_id":"63fa3d9b-c220-4f9c-bfcb-4f6b0aacb59e","system_id":"levelo_inurba_marseille","lat":43.319935,"lon":5.381699,"is_reserved":false,"is_disabled":false,"rental_uris":{"android":"levelo://app?vid=63fa3d9b-c220-4f9c-bfcb-4f6b0aacb59e","ios":"levelo://app?vid=63fa3d9b-c220-4f9c-bfcb-4f6b0aacb59e"},"vehicle_type_id":"4","last_reported":1715890084,"current_range_meters":20000,"station_id":"ce4bhr12rcd13ifvqhpg","pricing_plan_id":"cebpf4jnsgd1na2vs0mg"},{"bike_id":"2e628343-0ee8-4e12-9daf-0599b06ed690","system_id":"levelo_inurba_marseille","lat":43.31996,"lon":5.38147,"is_reserved":false,"is_disabled":false,"rental_uris":{"android":"levelo://app?vid=2e628343-0ee8-4e12-9daf-0599b06ed690","ios":"levelo://app?vid=2e628343-0ee8-4e12-9daf-0599b06ed690"},"vehicle_type_id":"4","last_reported":1715890084,"current_range_meters":26400,"station_id":"ce4bhr12rcd13ifvqhpg","pricing_plan_id":"cebpf4jnsgd1na2vs0mg"},{"bike_id":"e43c108e-d7fa-47da-9c29-4ce8297d8550","system_id":"levelo_inurba_marseille","lat":43.31993,"lon":5.38156,"is_reserved":false,"is_disabled":false,"rental_uris":{"android":"levelo://app?vid=e43c108e-d7fa-47da-9c29-4ce8297d8550","ios":"levelo://app?vid=e43c108e-d7fa-47da-9c29-4ce8297d8550"},"vehicle_type_id":"4","last_reported":1715890084,"current_range_meters":28400,"station_id":"ce4bhr12rcd13ifvqhpg","pricing_plan_id":"cebpf4jnsgd1na2vs0mg"},{"bike_id":"aa324bb1-a6ce-4300-aff6-8eb1c1612623","system_id":"levelo_inurba_marseille","lat":43.319971,"lon":5.381526,"is_reserved":false,"is_disabled":false,"rental_uris":{"android":"levelo://app?vid=aa324bb1-a6ce-4300-aff6-8eb1c1612623","ios":"levelo://app?vid=aa324bb1-a6ce-4300-aff6-8eb1c1612623"},"vehicle_type_id":"4","last_reported":1715890084,"current_range_meters":26400,"station_id":"ce4bhr12rcd13ifvqhpg","pricing_plan_id":"cebpf4jnsgd1na2vs0mg"},{"bike_id":"53c1f0d9-2d06-4c22-be70-d67fca222396","system_id":"levelo_inurba_marseille","lat":43.31998,"lon":5.38157,"is_reserved":false,"is_disabled":false,"rental_uris":{"android":"levelo://app?vid=53c1f0d9-2d06-4c22-be70-d67fca222396","ios":"levelo://app?vid=53c1f0d9-2d06-4c22-be70-d67fca222396"},"vehicle_type_id":"4","last_reported":1715890084,"current_range_meters":7200,"station_id":"ce4bhr12rcd13ifvqhpg","pricing_plan_id":"cebpf4jnsgd1na2vs0mg"},{"bike_id":"30b8569e-197c-4628-a708-49e3945dda75","system_id":"levelo_inurba_marseille","lat":43.31995,"lon":5.38164,"is_reserved":false,"is_disabled":false,"rental_uris":{"android":"levelo://app?vid=30b8569e-197c-4628-a708-49e3945dda75","ios":"levelo://app?vid=30b8569e-197c-4628-a708-49e3945dda75"},"vehicle_type_id":"4","last_reported":1715890084,"current_range_meters":0,"station_id":"ce4bhr12rcd13ifvqhpg","pricing_plan_id":"cebpf4jnsgd1na2vs0mg"},{"bike_id":"087e45a1-10fd-428d-82c7-a9d9c1488db2","system_id":"levelo_inurba_marseille","lat":43.319688,"lon":5.382393,"is_reserved":false,"is_disabled":false,"rental_uris":{"android":"levelo://app?vid=087e45a1-10fd-428d-82c7-a9d9c1488db2","ios":"levelo://app?vid=087e45a1-10fd-428d-82c7-a9d9c1488db2"},"vehicle_type_id":"4","last_reported":1715890084,"current_range_meters":0,"station_id":"ce4bhr12rcd13ifvqhpg","pricing_plan_id":"cebpf4jnsgd1na2vs0mg"},{"bike_id":"fdc9904c-a637-4a8f-88fe-c2055eaa59d3","system_id":"levelo_inurba_marseille","lat":43.299209,"lon":5.365547,"is_reserved":false,"is_disabled":false,"rental_uris":{"android":"levelo://app?vid=fdc9904c-a637-4a8f-88fe-c2055eaa59d3","ios":"levelo://app?vid=fdc9904c-a637-4a8f-88fe-c2055eaa59d3"},"vehicle_type_id":"4","last_reported":1715890084,"current_range_meters":7200,"station_id":"ce4bgm92rcd13ifvqbr0","pricing_plan_id":"cebpf4jnsgd1na2vs0mg"},{"bike_id":"6c60cc7e-a780-4545-aa6a-2997ffb7ce0e","system_id":"levelo_inurba_marseille","lat":43.29941,"lon":5.36535,"is_reserved":false,"is_disabled":false,"rental_uris":{"android":"levelo://app?vid=6c60cc7e-a780-4545-aa6a-2997ffb7ce0e","ios":"levelo://app?vid=6c60cc7e-a780-4545-aa6a-2997ffb7ce0e"},"vehicle_type_id":"4","last_reported":1715890084,"current_range_meters":0,"station_id":"ce4bgm92rcd13ifvqbr0","pricing_plan_id":"cebpf4jnsgd1na2vs0mg"},{"bike_id":"4683311c-2b46-42c6-b2dc-f6f4a9fb306f","system_id":"levelo_inurba_marseille","lat":43.299222,"lon":5.365554,"is_reserved":false,"is_disabled":false,"rental_uris":{"android":"levelo://app?vid=4683311c-2b46-42c6-b2dc-f6f4a9fb306f","ios":"levelo://app?vid=4683311c-2b46-42c6-b2dc-f6f4a9fb306f"},"vehicle_type_id":"4","last_reported":1715890084,"current_range_meters":1600,"station_id":"ce4bgm92rcd13ifvqbr0","pricing_plan_id":"cebpf4jnsgd1na2vs0mg"},{"bike_id":"d918b813-13d2-4187-b9e6-00fd26d06871","system_id":"levelo_inurba_marseille","lat":43.299222,"lon":5.365554,"is_reserved":false,"is_disabled":false,"rental_uris":{"android":"levelo://app?vid=d918b813-13d2-4187-b9e6-00fd26d06871","ios":"levelo://app?vid=d918b813-13d2-4187-b9e6-00fd26d06871"},"vehicle_type_id":"4","last_reported":1715890084,"current_range_meters":17200,"station_id":"ce4bgm92rcd13ifvqbr0","pricing_plan_id":"cebpf4jnsgd1na2vs0mg"},{"bike_id":"1521cf57-9114-496c-92de-80998c42d449","system_id":"levelo_inurba_marseille","lat":43.299784,"lon":5.371854,"is_reserved":false,"is_disabled":false,"rental_uris":{"android":"levelo://app?vid=1521cf57-9114-496c-92de-80998c42d449","ios":"levelo://app?vid=1521cf57-9114-496c-92de-80998c42d449"},"vehicle_type_id":"4","last_reported":1715890084,"current_range_meters":0,"station_id":"ce4bgr92rcd13ifvqc7g","pricing_plan_id":"cebpf4jnsgd1na2vs0mg"},{"bike_id":"7caa5352-907e-4a23-abb7-f460e3203172","system_id":"levelo_inurba_marseille","lat":43.30143,"lon":5.37413,"is_reserved":false,"is_disabled":false,"rental_uris":{"android":"levelo://app?vid=7caa5352-907e-4a23-abb7-f460e3203172","ios":"levelo://app?vid=7caa5352-907e-4a23-abb7-f460e3203172"},"vehicle_type_id":"4","last_reported":1715890084,"current_range_meters":26000,"station_id":"ce4bgs92rcd13ifvqcc0","pricing_plan_id":"cebpf4jnsgd1na2vs0mg"},{"bike_id":"79d47e4c-ca9a-486a-a559-bb06d18421d6","system_id":"levelo_inurba_marseille","lat":43.29973,"lon":5.37179,"is_reserved":false,"is_disabled":false,"rental_uris":{"android":"levelo://app?vid=79d47e4c-ca9a-486a-a559-bb06d18421d6","ios":"levelo://app?vid=79d47e4c-ca9a-486a-a559-bb06d18421d6"},"vehicle_type_id":"4","last_reported":1715890084,"current_range_meters":14400,"station_id":"ce4bgr92rcd13ifvqc7g","pricing_plan_id":"cebpf4jnsgd1na2vs0mg"},{"bike_id":"e5fd1d7e-3b96-445f-92f9-52b0e0643843","system_id":"levelo_inurba_marseille","lat":43.313571,"lon":5.384829,"is_reserved":false,"is_disabled":false,"rental_uris":{"android":"levelo://app?vid=e5fd1d7e-3b96-445f-92f9-52b0e0643843","ios":"levelo://app?vid=e5fd1d7e-3b96-445f-92f9-52b0e0643843"},"vehicle_type_id":"4","last_reported":1715890084,"current_range_meters":0,"station_id":"ce4bgt92rcd13ifvqcf0","pricing_plan_id":"cebpf4jnsgd1na2vs0mg"},{"bike_id":"57259f0c-2687-477f-adc9-8b6ffbacc63b","system_id":"levelo_inurba_marseille","lat":43.299708,"lon":5.375669,"is_reserved":false,"is_disabled":false,"rental_uris":{"android":"levelo://app?vid=57259f0c-2687-477f-adc9-8b6ffbacc63b","ios":"levelo://app?vid=57259f0c-2687-477f-adc9-8b6ffbacc63b"},"vehicle_type_id":"4","last_reported":1715890084,"current_range_meters":2400,"station_id":"ce4bgjh2rcd13ifvqbg0","pricing_plan_id":"cebpf4jnsgd1na2vs0mg"},{"bike_id":"01061087-8a89-4405-b7af-c235ebd72f24","system_id":"levelo_inurba_marseille","lat":43.298433,"lon":5.362774,"is_reserved":false,"is_disabled":false,"rental_uris":{"android":"levelo://app?vid=01061087-8a89-4405-b7af-c235ebd72f24","ios":"levelo://app?vid=01061087-8a89-4405-b7af-c235ebd72f24"},"vehicle_type_id":"4","last_reported":1715890084,"current_range_meters":0,"station_id":"ce4bgpp2rcd13ifvqc3g","pricing_plan_id":"cebpf4jnsgd1na2vs0mg"},{"bike_id":"a8420d12-5ea1-4553-ba77-74153419b9a1","system_id":"levelo_inurba_marseille","lat":43.305432,"lon":5.384261,"is_reserved":false,"is_disabled":false,"rental_uris":{"android":"levelo://app?vid=a8420d12-5ea1-4553-ba77-74153419b9a1","ios":"levelo://app?vid=a8420d12-5ea1-4553-ba77-74153419b9a1"},"vehicle_type_id":"4","last_reported":1715890084,"current_range_meters":28400,"station_id":"ce4bgg92rcd13ifvqb30","pricing_plan_id":"cebpf4jnsgd1na2vs0mg"},{"bike_id":"0c4eb777-e5e3-4e3a-851d-89925a8a8d85","system_id":"levelo_inurba_marseille","lat":43.305364,"lon":5.384119,"is_reserved":false,"is_disabled":false,"rental_uris":{"android":"levelo://app?vid=0c4eb777-e5e3-4e3a-851d-89925a8a8d85","ios":"levelo://app?vid=0c4eb777-e5e3-4e3a-851d-89925a8a8d85"},"vehicle_type_id":"4","last_reported":1715890084,"current_range_meters":31200,"station_id":"ce4bgg92rcd13ifvqb30","pricing_plan_id":"cebpf4jnsgd1na2vs0mg"},{"bike_id":"8e445249-ed3f-4da8-8e5b-378d7ef9f22b","system_id":"levelo_inurba_marseille","lat":43.299243,"lon":5.374807,"is_reserved":false,"is_disabled":false,"rental_uris":{"android":"levelo://app?vid=8e445249-ed3f-4da8-8e5b-378d7ef9f22b","ios":"levelo://app?vid=8e445249-ed3f-4da8-8e5b-378d7ef9f22b"},"vehicle_type_id":"4","last_reported":1715890084,"current_range_meters":26400,"station_id":"ce4bgjh2rcd13ifvqbg0","pricing_plan_id":"cebpf4jnsgd1na2vs0mg"},{"bike_id":"41284e42-b40f-46d2-a365-aa2e4bc9193e","system_id":"levelo_inurba_marseille","lat":43.299243,"lon":5.37481,"is_reserved":false,"is_disabled":false,"rental_uris":{"android":"levelo://app?vid=41284e42-b40f-46d2-a365-aa2e4bc9193e","ios":"levelo://app?vid=41284e42-b40f-46d2-a365-aa2e4bc9193e"},"vehicle_type_id":"4","last_reported":1715890084,"current_range_meters":6000,"station_id":"ce4bgjh2rcd13ifvqbg0","pricing_plan_id":"cebpf4jnsgd1na2vs0mg"},{"bike_id":"441815cb-4509-4ccf-8abc-f2dd5b924ffb","system_id":"levelo_inurba_marseille","lat":43.311722,"lon":5.387247,"is_reserved":false,"is_disabled":false,"rental_uris":{"android":"levelo://app?vid=441815cb-4509-4ccf-8abc-f2dd5b924ffb","ios":"levelo://app?vid=441815cb-4509-4ccf-8abc-f2dd5b924ffb"},"vehicle_type_id":"4","last_reported":1715890084,"current_range_meters":9200,"station_id":"ce4bgv12rcd13ifvqcp0","pricing_plan_id":"cebpf4jnsgd1na2vs0mg"},{"bike_id":"d025c4fe-48a8-4249-83cf-d9e6596fb70b","system_id":"levelo_inurba_marseille","lat":43.322872,"lon":5.382756,"is_reserved":false,"is_disabled":false,"rental_uris":{"android":"levelo://app?vid=d025c4fe-48a8-4249-83cf-d9e6596fb70b","ios":"levelo://app?vid=d025c4fe-48a8-4249-83cf-d9e6596fb70b"},"vehicle_type_id":"4","last_reported":1715890084,"current_range_meters":31200,"station_id":"ce4bhr12rcd13ifvqhqg","pricing_plan_id":"cebpf4jnsgd1na2vs0mg"},{"bike_id":"a453a480-6a23-4978-85ad-70d53df79b57","system_id":"levelo_inurba_marseille","lat":43.297774,"lon":5.370875,"is_reserved":false,"is_disabled":false,"rental_uris":{"android":"levelo://app?vid=a453a480-6a23-4978-85ad-70d53df79b57","ios":"levelo://app?vid=a453a480-6a23-4978-85ad-70d53df79b57"},"vehicle_type_id":"4","last_reported":1715890084,"current_range_meters":15200,"station_id":"ce4bgop2rcd13ifvqc1g","pricing_plan_id":"cebpf4jnsgd1na2vs0mg"},{"bike_id":"56815445-0f8a-4347-a24f-f005cddedae1","system_id":"levelo_inurba_marseille","lat":43.322872,"lon":5.382756,"is_reserved":false,"is_disabled":false,"rental_uris":{"android":"levelo://app?vid=56815445-0f8a-4347-a24f-f005cddedae1","ios":"levelo://app?vid=56815445-0f8a-4347-a24f-f005cddedae1"},"vehicle_type_id":"4","last_reported":1715890084,"current_range_meters":31200,"station_id":"ce4bhr12rcd13ifvqhqg","pricing_plan_id":"cebpf4jnsgd1na2vs0mg"},{"bike_id":"1e471816-8c97-4c4e-9efa-19d83afd8033","system_id":"levelo_inurba_marseille","lat":43.322872,"lon":5.382756,"is_reserved":false,"is_disabled":false,"rental_uris":{"android":"levelo://app?vid=1e471816-8c97-4c4e-9efa-19d83afd8033","ios":"levelo://app?vid=1e471816-8c97-4c4e-9efa-19d83afd8033"},"vehicle_type_id":"4","last_reported":1715890084,"current_range_meters":8000,"station_id":"ce4bhr12rcd13ifvqhqg","pricing_plan_id":"cebpf4jnsgd1na2vs0mg"},{"bike_id":"c8a67132-4667-4c92-9737-2fac64d22bb6","system_id":"levelo_inurba_marseille","lat":43.322872,"lon":5.382756,"is_reserved":false,"is_disabled":false,"rental_uris":{"android":"levelo://app?vid=c8a67132-4667-4c92-9737-2fac64d22bb6","ios":"levelo://app?vid=c8a67132-4667-4c92-9737-2fac64d22bb6"},"vehicle_type_id":"4","last_reported":1715890084,"current_range_meters":8800,"station_id":"ce4bhr12rcd13ifvqhqg","pricing_plan_id":"cebpf4jnsgd1na2vs0mg"},{"bike_id":"525e9806-58ac-4278-82ca-7c9ff69c7bab","system_id":"levelo_inurba_marseille","lat":43.297163,"lon":5.365866,"is_reserved":false,"is_disabled":false,"rental_uris":{"android":"levelo://app?vid=525e9806-58ac-4278-82ca-7c9ff69c7bab","ios":"levelo://app?vid=525e9806-58ac-4278-82ca-7c9ff69c7bab"},"vehicle_type_id":"4","last_reported":1715890084,"current_range_meters":16000,"station_id":"ce4bgn12rcd13ifvqbt0","pricing_plan_id":"cebpf4jnsgd1na2vs0mg"},{"bike_id":"538d2e4b-943b-47ac-8814-25efd428d866","system_id":"levelo_inurba_marseille","lat":43.297163,"lon":5.365866,"is_reserved":false,"is_disabled":false,"rental_uris":{"android":"levelo://app?vid=538d2e4b-943b-47ac-8814-25efd428d866","ios":"levelo://app?vid=538d2e4b-943b-47ac-8814-25efd428d866"},"vehicle_type_id":"4","last_reported":1715890084,"current_range_meters":19600,"station_id":"ce4bgn12rcd13ifvqbt0","pricing_plan_id":"cebpf4jnsgd1na2vs0mg"},{"bike_id":"23ea0c56-6b3e-40d0-80c8-364638025765","system_id":"levelo_inurba_marseille","lat":43.297163,"lon":5.365866,"is_reserved":false,"is_disabled":false,"rental_uris":{"android":"levelo://app?vid=23ea0c56-6b3e-40d0-80c8-364638025765","ios":"levelo://app?vid=23ea0c56-6b3e-40d0-80c8-364638025765"},"vehicle_type_id":"4","last_reported":1715890084,"current_range_meters":10400,"station_id":"ce4bgn12rcd13ifvqbt0","pricing_plan_id":"cebpf4jnsgd1na2vs0mg"},{"bike_id":"c069d8ab-893b-4d11-8a9a-b9c8d6a91f3c","system_id":"levelo_inurba_marseille","lat":43.297078,"lon":5.366043,"is_reserved":false,"is_disabled":false,"rental_uris":{"android":"levelo://app?vid=c069d8ab-893b-4d11-8a9a-b9c8d6a91f3c","ios":"levelo://app?vid=c069d8ab-893b-4d11-8a9a-b9c8d6a91f3c"},"vehicle_type_id":"4","last_reported":1715890084,"current_range_meters":4000,"station_id":"ce4bgn12rcd13ifvqbt0","pricing_plan_id":"cebpf4jnsgd1na2vs0mg"},{"bike_id":"7303f911-0a65-438c-a263-b0005c1191ac","system_id":"levelo_inurba_marseille","lat":43.29573,"lon":5.367355,"is_reserved":false,"is_disabled":false,"rental_uris":{"android":"levelo://app?vid=7303f911-0a65-438c-a263-b0005c1191ac","ios":"levelo://app?vid=7303f911-0a65-438c-a263-b0005c1191ac"},"vehicle_type_id":"4","last_reported":1715890084,"current_range_meters":23600,"station_id":"ce4bgph2rcd13ifvqc2g","pricing_plan_id":"cebpf4jnsgd1na2vs0mg"},{"bike_id":"acaf848c-7013-4ffc-99dd-e5cb969d8697","system_id":"levelo_inurba_marseille","lat":43.29628,"lon":5.37149,"is_reserved":false,"is_disabled":false,"rental_uris":{"android":"levelo://app?vid=acaf848c-7013-4ffc-99dd-e5cb969d8697","ios":"levelo://app?vid=acaf848c-7013-4ffc-99dd-e5cb969d8697"},"vehicle_type_id":"4","last_reported":1715890084,"current_range_meters":0,"station_id":"ce4bgnh2rcd13ifvqc0g","pricing_plan_id":"cebpf4jnsgd1na2vs0mg"},{"bike_id":"078a5ef1-40f0-47fd-ae87-c2df64c3a23c","system_id":"levelo_inurba_marseille","lat":43.296129,"lon":5.370777,"is_reserved":false,"is_disabled":false,"rental_uris":{"android":"levelo://app?vid=078a5ef1-40f0-47fd-ae87-c2df64c3a23c","ios":"levelo://app?vid=078a5ef1-40f0-47fd-ae87-c2df64c3a23c"},"vehicle_type_id":"4","last_reported":1715890084,"current_range_meters":0,"station_id":"ce4bgnh2rcd13ifvqc0g","pricing_plan_id":"cebpf4jnsgd1na2vs0mg"},{"bike_id":"693e37d1-6301-4e41-a127-7a8ee5d8c8e2","system_id":"levelo_inurba_marseille","lat":43.29573,"lon":5.367355,"is_reserved":false,"is_disabled":false,"rental_uris":{"android":"levelo://app?vid=693e37d1-6301-4e41-a127-7a8ee5d8c8e2","ios":"levelo://app?vid=693e37d1-6301-4e41-a127-7a8ee5d8c8e2"},"vehicle_type_id":"4","last_reported":1715890084,"current_range_meters":17600,"station_id":"ce4bgph2rcd13ifvqc2g","pricing_plan_id":"cebpf4jnsgd1na2vs0mg"},{"bike_id":"7b360f79-5905-4537-b0b5-eb0324d68239","system_id":"levelo_inurba_marseille","lat":43.29573,"lon":5.367355,"is_reserved":false,"is_disabled":false,"rental_uris":{"android":"levelo://app?vid=7b360f79-5905-4537-b0b5-eb0324d68239","ios":"levelo://app?vid=7b360f79-5905-4537-b0b5-eb0324d68239"},"vehicle_type_id":"4","last_reported":1715890084,"current_range_meters":15200,"station_id":"ce4bgph2rcd13ifvqc2g","pricing_plan_id":"cebpf4jnsgd1na2vs0mg"},{"bike_id":"c8a6e03c-dcb7-4ee2-8848-6bc04979c632","system_id":"levelo_inurba_marseille","lat":43.29619,"lon":5.3717,"is_reserved":false,"is_disabled":false,"rental_uris":{"android":"levelo://app?vid=c8a6e03c-dcb7-4ee2-8848-6bc04979c632","ios":"levelo://app?vid=c8a6e03c-dcb7-4ee2-8848-6bc04979c632"},"vehicle_type_id":"4","last_reported":1715890084,"current_range_meters":0,"station_id":"ce4bgnh2rcd13ifvqc0g","pricing_plan_id":"cebpf4jnsgd1na2vs0mg"},{"bike_id":"0edf90f9-fcd6-4959-9c13-fea72aa26ebd","system_id":"levelo_inurba_marseille","lat":43.29573,"lon":5.367355,"is_reserved":false,"is_disabled":false,"rental_uris":{"android":"levelo://app?vid=0edf90f9-fcd6-4959-9c13-fea72aa26ebd","ios":"levelo://app?vid=0edf90f9-fcd6-4959-9c13-fea72aa26ebd"},"vehicle_type_id":"4","last_reported":1715890084,"current_range_meters":800,"station_id":"ce4bgph2rcd13ifvqc2g","pricing_plan_id":"cebpf4jnsgd1na2vs0mg"},{"bike_id":"40da408c-eb0f-4e1f-88d6-04014cd138fe","system_id":"levelo_inurba_marseille","lat":43.29617,"lon":5.36034,"is_reserved":false,"is_disabled":false,"rental_uris":{"android":"levelo://app?vid=40da408c-eb0f-4e1f-88d6-04014cd138fe","ios":"levelo://app?vid=40da408c-eb0f-4e1f-88d6-04014cd138fe"},"vehicle_type_id":"4","last_reported":1715890084,"current_range_meters":400,"station_id":"","pricing_plan_id":"cebpf4jnsgd1na2vs0mg"},{"bike_id":"1491b971-12c1-4097-b952-5a55884cd3f6","system_id":"levelo_inurba_marseille","lat":43.309589,"lon":5.390258,"is_reserved":false,"is_disabled":false,"rental_uris":{"android":"levelo://app?vid=1491b971-12c1-4097-b952-5a55884cd3f6","ios":"levelo://app?vid=1491b971-12c1-4097-b952-5a55884cd3f6"},"vehicle_type_id":"4","last_reported":1715890084,"current_range_meters":26800,"station_id":"ce4bgup2rcd13ifvqco0","pricing_plan_id":"cebpf4jnsgd1na2vs0mg"},{"bike_id":"45a216b6-11b5-49f4-8709-37425f3107b8","system_id":"levelo_inurba_marseille","lat":43.299028,"lon":5.381509,"is_reserved":false,"is_disabled":false,"rental_uris":{"android":"levelo://app?vid=45a216b6-11b5-49f4-8709-37425f3107b8","ios":"levelo://app?vid=45a216b6-11b5-49f4-8709-37425f3107b8"},"vehicle_type_id":"4","last_reported":1715890084,"current_range_meters":18000,"station_id":"ce4bgj12rcd13ifvqbc0","pricing_plan_id":"cebpf4jnsgd1na2vs0mg"},{"bike_id":"db30b31b-8286-45a1-ae9e-d01eb4787f63","system_id":"levelo_inurba_marseille","lat":43.317473,"lon":5.390135,"is_reserved":false,"is_disabled":false,"rental_uris":{"android":"levelo://app?vid=db30b31b-8286-45a1-ae9e-d01eb4787f63","ios":"levelo://app?vid=db30b31b-8286-45a1-ae9e-d01eb4787f63"},"vehicle_type_id":"4","last_reported":1715890084,"current_range_meters":17200,"station_id":"","pricing_plan_id":"cebpf4jnsgd1na2vs0mg"},{"bike_id":"07825401-8d2b-42a7-ac90-6cb0d0b9fdff","system_id":"levelo_inurba_marseille","lat":43.317557,"lon":5.390173,"is_reserved":false,"is_disabled":false,"rental_uris":{"android":"levelo://app?vid=07825401-8d2b-42a7-ac90-6cb0d0b9fdff","ios":"levelo://app?vid=07825401-8d2b-42a7-ac90-6cb0d0b9fdff"},"vehicle_type_id":"4","last_reported":1715890084,"current_range_meters":30800,"station_id":"ce4bhqp2rcd13ifvqhng","pricing_plan_id":"cebpf4jnsgd1na2vs0mg"},{"bike_id":"01c13e3a-9f2e-4361-8878-4995e9699e1d","system_id":"levelo_inurba_marseille","lat":43.3176,"lon":5.39012,"is_reserved":false,"is_disabled":false,"rental_uris":{"android":"levelo://app?vid=01c13e3a-9f2e-4361-8878-4995e9699e1d","ios":"levelo://app?vid=01c13e3a-9f2e-4361-8878-4995e9699e1d"},"vehicle_type_id":"4","last_reported":1715890084,"current_range_meters":18800,"station_id":"ce4bhqp2rcd13ifvqhng","pricing_plan_id":"cebpf4jnsgd1na2vs0mg"},{"bike_id":"d51f7e4d-e989-468e-bb7d-fcf7de56820b","system_id":"levelo_inurba_marseille","lat":43.31755,"lon":5.39014,"is_reserved":false,"is_disabled":false,"rental_uris":{"android":"levelo://app?vid=d51f7e4d-e989-468e-bb7d-fcf7de56820b","ios":"levelo://app?vid=d51f7e4d-e989-468e-bb7d-fcf7de56820b"},"vehicle_type_id":"4","last_reported":1715890084,"current_range_meters":27600,"station_id":"ce4bhqp2rcd13ifvqhng","pricing_plan_id":"cebpf4jnsgd1na2vs0mg"},{"bike_id":"002261be-df7c-443a-86c6-b0288c455c8f","system_id":"levelo_inurba_marseille","lat":43.317557,"lon":5.390173,"is_reserved":false,"is_disabled":false,"rental_uris":{"android":"levelo://app?vid=002261be-df7c-443a-86c6-b0288c455c8f","ios":"levelo://app?vid=002261be-df7c-443a-86c6-b0288c455c8f"},"vehicle_type_id":"4","last_reported":1715890084,"current_range_meters":28400,"station_id":"ce4bhqp2rcd13ifvqhng","pricing_plan_id":"cebpf4jnsgd1na2vs0mg"},{"bike_id":"c2ab7238-1aed-4023-bea1-5c727787f915","system_id":"levelo_inurba_marseille","lat":43.317557,"lon":5.390173,"is_reserved":false,"is_disabled":false,"rental_uris":{"android":"levelo://app?vid=c2ab7238-1aed-4023-bea1-5c727787f915","ios":"levelo://app?vid=c2ab7238-1aed-4023-bea1-5c727787f915"},"vehicle_type_id":"4","last_reported":1715890084,"current_range_meters":17200,"station_id":"ce4bhqp2rcd13ifvqhng","pricing_plan_id":"cebpf4jnsgd1na2vs0mg"},{"bike_id":"1c39cebd-2262-4c5a-98a9-2205eb8676dc","system_id":"levelo_inurba_marseille","lat":43.317557,"lon":5.390173,"is_reserved":false,"is_disabled":false,"rental_uris":{"android":"levelo://app?vid=1c39cebd-2262-4c5a-98a9-2205eb8676dc","ios":"levelo://app?vid=1c39cebd-2262-4c5a-98a9-2205eb8676dc"},"vehicle_type_id":"4","last_reported":1715890084,"current_range_meters":0,"station_id":"ce4bhqp2rcd13ifvqhng","pricing_plan_id":"cebpf4jnsgd1na2vs0mg"},{"bike_id":"e1d7d674-aeec-4b8d-8f89-e0f0335566d3","system_id":"levelo_inurba_marseille","lat":43.317557,"lon":5.390173,"is_reserved":false,"is_disabled":false,"rental_uris":{"android":"levelo://app?vid=e1d7d674-aeec-4b8d-8f89-e0f0335566d3","ios":"levelo://app?vid=e1d7d674-aeec-4b8d-8f89-e0f0335566d3"},"vehicle_type_id":"4","last_reported":1715890084,"current_range_meters":14400,"station_id":"ce4bhqp2rcd13ifvqhng","pricing_plan_id":"cebpf4jnsgd1na2vs0mg"},{"bike_id":"e437e9b9-5725-478d-b03f-d687624af374","system_id":"levelo_inurba_marseille","lat":43.317557,"lon":5.390173,"is_reserved":false,"is_disabled":false,"rental_uris":{"android":"levelo://app?vid=e437e9b9-5725-478d-b03f-d687624af374","ios":"levelo://app?vid=e437e9b9-5725-478d-b03f-d687624af374"},"vehicle_type_id":"4","last_reported":1715890084,"current_range_meters":14800,"station_id":"ce4bhqp2rcd13ifvqhng","pricing_plan_id":"cebpf4jnsgd1na2vs0mg"},{"bike_id":"2ceffeba-6b70-4e5e-a5a2-4adeb3787935","system_id":"levelo_inurba_marseille","lat":43.31753,"lon":5.39034,"is_reserved":false,"is_disabled":false,"rental_uris":{"android":"levelo://app?vid=2ceffeba-6b70-4e5e-a5a2-4adeb3787935","ios":"levelo://app?vid=2ceffeba-6b70-4e5e-a5a2-4adeb3787935"},"vehicle_type_id":"4","last_reported":1715890084,"current_range_meters":6000,"station_id":"ce4bhqp2rcd13ifvqhng","pricing_plan_id":"cebpf4jnsgd1na2vs0mg"},{"bike_id":"e11cd21e-70cd-4f14-aa11-bcd32a944b8b","system_id":"levelo_inurba_marseille","lat":43.317953,"lon":5.390178,"is_reserved":false,"is_disabled":false,"rental_uris":{"android":"levelo://app?vid=e11cd21e-70cd-4f14-aa11-bcd32a944b8b","ios":"levelo://app?vid=e11cd21e-70cd-4f14-aa11-bcd32a944b8b"},"vehicle_type_id":"4","last_reported":1715890084,"current_range_meters":24400,"station_id":"ce4bhqp2rcd13ifvqhng","pricing_plan_id":"cebpf4jnsgd1na2vs0mg"},{"bike_id":"002ffdf9-7488-4f9d-824a-ad1ad9f09d8b","system_id":"levelo_inurba_marseille","lat":43.30241,"lon":5.38681,"is_reserved":false,"is_disabled":false,"rental_uris":{"android":"levelo://app?vid=002ffdf9-7488-4f9d-824a-ad1ad9f09d8b","ios":"levelo://app?vid=002ffdf9-7488-4f9d-824a-ad1ad9f09d8b"},"vehicle_type_id":"4","last_reported":1715890084,"current_range_meters":400,"station_id":"","pricing_plan_id":"cebpf4jnsgd1na2vs0mg"},{"bike_id":"56ffdba4-f2ad-4629-90b5-b5474237b4a3","system_id":"levelo_inurba_marseille","lat":43.298037,"lon":5.381066,"is_reserved":false,"is_disabled":false,"rental_uris":{"android":"levelo://app?vid=56ffdba4-f2ad-4629-90b5-b5474237b4a3","ios":"levelo://app?vid=56ffdba4-f2ad-4629-90b5-b5474237b4a3"},"vehicle_type_id":"4","last_reported":1715890084,"current_range_meters":800,"station_id":"ce4bgip2rcd13ifvqbb0","pricing_plan_id":"cebpf4jnsgd1na2vs0mg"},{"bike_id":"bfccb6fa-bf82-492c-81cb-66b0f14992cc","system_id":"levelo_inurba_marseille","lat":43.304349,"lon":5.38876,"is_reserved":false,"is_disabled":false,"rental_uris":{"android":"levelo://app?vid=bfccb6fa-bf82-492c-81cb-66b0f14992cc","ios":"levelo://app?vid=bfccb6fa-bf82-492c-81cb-66b0f14992cc"},"vehicle_type_id":"4","last_reported":1715890084,"current_range_meters":6800,"station_id":"ce4bgk12rcd13ifvqbi0","pricing_plan_id":"cebpf4jnsgd1na2vs0mg"},{"bike_id":"b797b98c-b054-4436-90b5-31c4e3a1adec","system_id":"levelo_inurba_marseille","lat":43.304374,"lon":5.388851,"is_reserved":false,"is_disabled":false,"rental_uris":{"android":"levelo://app?vid=b797b98c-b054-4436-90b5-31c4e3a1adec","ios":"levelo://app?vid=b797b98c-b054-4436-90b5-31c4e3a1adec"},"vehicle_type_id":"4","last_reported":1715890084,"current_range_meters":3200,"station_id":"ce4bgk12rcd13ifvqbi0","pricing_plan_id":"cebpf4jnsgd1na2vs0mg"},{"bike_id":"355feff7-fcf1-4c4e-a42a-7221b21c7b38","system_id":"levelo_inurba_marseille","lat":43.298037,"lon":5.381066,"is_reserved":false,"is_disabled":false,"rental_uris":{"android":"levelo://app?vid=355feff7-fcf1-4c4e-a42a-7221b21c7b38","ios":"levelo://app?vid=355feff7-fcf1-4c4e-a42a-7221b21c7b38"},"vehicle_type_id":"4","last_reported":1715890084,"current_range_meters":11600,"station_id":"ce4bgip2rcd13ifvqbb0","pricing_plan_id":"cebpf4jnsgd1na2vs0mg"},{"bike_id":"b4aa6e21-3525-4481-9d84-067b7f58a910","system_id":"levelo_inurba_marseille","lat":43.304372,"lon":5.388942,"is_reserved":false,"is_disabled":false,"rental_uris":{"android":"levelo://app?vid=b4aa6e21-3525-4481-9d84-067b7f58a910","ios":"levelo://app?vid=b4aa6e21-3525-4481-9d84-067b7f58a910"},"vehicle_type_id":"4","last_reported":1715890084,"current_range_meters":30800,"station_id":"ce4bgk12rcd13ifvqbi0","pricing_plan_id":"cebpf4jnsgd1na2vs0mg"},{"bike_id":"38652d6d-6a5c-4f1a-8d7f-8eeeba3288d9","system_id":"levelo_inurba_marseille","lat":43.297743,"lon":5.380856,"is_reserved":false,"is_disabled":false,"rental_uris":{"android":"levelo://app?vid=38652d6d-6a5c-4f1a-8d7f-8eeeba3288d9","ios":"levelo://app?vid=38652d6d-6a5c-4f1a-8d7f-8eeeba3288d9"},"vehicle_type_id":"4","last_reported":1715890084,"current_range_meters":0,"station_id":"ce4bgip2rcd13ifvqbb0","pricing_plan_id":"cebpf4jnsgd1na2vs0mg"},{"bike_id":"929737cf-16b6-49ba-8efd-76ffffc2865a","system_id":"levelo_inurba_marseille","lat":43.304253,"lon":5.38892,"is_reserved":false,"is_disabled":false,"rental_uris":{"android":"levelo://app?vid=929737cf-16b6-49ba-8efd-76ffffc2865a","ios":"levelo://app?vid=929737cf-16b6-49ba-8efd-76ffffc2865a"},"vehicle_type_id":"4","last_reported":1715890084,"current_range_meters":0,"station_id":"ce4bgk12rcd13ifvqbi0","pricing_plan_id":"cebpf4jnsgd1na2vs0mg"},{"bike_id":"bd69cf98-0f50-48f0-86f7-69fe6469aae6","system_id":"levelo_inurba_marseille","lat":43.304274,"lon":5.388873,"is_reserved":false,"is_disabled":false,"rental_uris":{"android":"levelo://app?vid=bd69cf98-0f50-48f0-86f7-69fe6469aae6","ios":"levelo://app?vid=bd69cf98-0f50-48f0-86f7-69fe6469aae6"},"vehicle_type_id":"4","last_reported":1715890084,"current_range_meters":25200,"station_id":"ce4bgk12rcd13ifvqbi0","pricing_plan_id":"cebpf4jnsgd1na2vs0mg"},{"bike_id":"e42ab553-a1fc-43d8-b950-bb68035eb2d5","system_id":"levelo_inurba_marseille","lat":43.295748,"lon":5.37522,"is_reserved":false,"is_disabled":false,"rental_uris":{"android":"levelo://app?vid=e42ab553-a1fc-43d8-b950-bb68035eb2d5","ios":"levelo://app?vid=e42ab553-a1fc-43d8-b950-bb68035eb2d5"},"vehicle_type_id":"4","last_reported":1715890084,"current_range_meters":800,"station_id":"ce4bgh92rcd13ifvqb50","pricing_plan_id":"cebpf4jnsgd1na2vs0mg"},{"bike_id":"c492fa89-912f-4caa-9785-31e539f892e8","system_id":"levelo_inurba_marseille","lat":43.296263,"lon":5.377094,"is_reserved":false,"is_disabled":false,"rental_uris":{"android":"levelo://app?vid=c492fa89-912f-4caa-9785-31e539f892e8","ios":"levelo://app?vid=c492fa89-912f-4caa-9785-31e539f892e8"},"vehicle_type_id":"4","last_reported":1715890084,"current_range_meters":26400,"station_id":"ce4bgi92rcd13ifvqb90","pricing_plan_id":"cebpf4jnsgd1na2vs0mg"},{"bike_id":"335013c9-9d00-4887-9f42-a6213354c66c","system_id":"levelo_inurba_marseille","lat":43.297774,"lon":5.370875,"is_reserved":false,"is_disabled":false,"rental_uris":{"android":"levelo://app?vid=335013c9-9d00-4887-9f42-a6213354c66c","ios":"levelo://app?vid=335013c9-9d00-4887-9f42-a6213354c66c"},"vehicle_type_id":"4","last_reported":1715890084,"current_range_meters":8000,"station_id":"ce4bgop2rcd13ifvqc1g","pricing_plan_id":"cebpf4jnsgd1na2vs0mg"},{"bike_id":"3fdaac36-ccfe-46f7-a560-3dd713db2599","system_id":"levelo_inurba_marseille","lat":43.299707,"lon":5.384859,"is_reserved":false,"is_disabled":false,"rental_uris":{"android":"levelo://app?vid=3fdaac36-ccfe-46f7-a560-3dd713db2599","ios":"levelo://app?vid=3fdaac36-ccfe-46f7-a560-3dd713db2599"},"vehicle_type_id":"4","last_reported":1715890084,"current_range_meters":4400,"station_id":"ce4bgj92rcd13ifvqbd0","pricing_plan_id":"cebpf4jnsgd1na2vs0mg"},{"bike_id":"288bebcd-3665-4122-8515-ac7f55e36d9d","system_id":"levelo_inurba_marseille","lat":43.299707,"lon":5.384859,"is_reserved":false,"is_disabled":false,"rental_uris":{"android":"levelo://app?vid=288bebcd-3665-4122-8515-ac7f55e36d9d","ios":"levelo://app?vid=288bebcd-3665-4122-8515-ac7f55e36d9d"},"vehicle_type_id":"4","last_reported":1715890084,"current_range_meters":30000,"station_id":"ce4bgj92rcd13ifvqbd0","pricing_plan_id":"cebpf4jnsgd1na2vs0mg"},{"bike_id":"842e9133-968d-4e02-b566-7723981efbb2","system_id":"levelo_inurba_marseille","lat":43.303834,"lon":5.389168,"is_reserved":false,"is_disabled":false,"rental_uris":{"android":"levelo://app?vid=842e9133-968d-4e02-b566-7723981efbb2","ios":"levelo://app?vid=842e9133-968d-4e02-b566-7723981efbb2"},"vehicle_type_id":"4","last_reported":1715890084,"current_range_meters":9600,"station_id":"ce4bgk12rcd13ifvqbi0","pricing_plan_id":"cebpf4jnsgd1na2vs0mg"},{"bike_id":"5f78ca54-30b7-4de1-a624-34c356a39970","system_id":"levelo_inurba_marseille","lat":43.29972,"lon":5.38497,"is_reserved":false,"is_disabled":false,"rental_uris":{"android":"levelo://app?vid=5f78ca54-30b7-4de1-a624-34c356a39970","ios":"levelo://app?vid=5f78ca54-30b7-4de1-a624-34c356a39970"},"vehicle_type_id":"4","last_reported":1715890084,"current_range_meters":6800,"station_id":"ce4bgj92rcd13ifvqbd0","pricing_plan_id":"cebpf4jnsgd1na2vs0mg"},{"bike_id":"200a4e60-34ca-423e-89a0-4e221bdf273e","system_id":"levelo_inurba_marseille","lat":43.299592,"lon":5.384961,"is_reserved":false,"is_disabled":false,"rental_uris":{"android":"levelo://app?vid=200a4e60-34ca-423e-89a0-4e221bdf273e","ios":"levelo://app?vid=200a4e60-34ca-423e-89a0-4e221bdf273e"},"vehicle_type_id":"4","last_reported":1715890084,"current_range_meters":5600,"station_id":"ce4bgj92rcd13ifvqbd0","pricing_plan_id":"cebpf4jnsgd1na2vs0mg"},{"bike_id":"6bd983bf-9794-408c-b5e4-fba5596ef635","system_id":"levelo_inurba_marseille","lat":43.303687,"lon":5.38927,"is_reserved":false,"is_disabled":false,"rental_uris":{"android":"levelo://app?vid=6bd983bf-9794-408c-b5e4-fba5596ef635","ios":"levelo://app?vid=6bd983bf-9794-408c-b5e4-fba5596ef635"},"vehicle_type_id":"4","last_reported":1715890084,"current_range_meters":0,"station_id":"ce4bgk12rcd13ifvqbi0","pricing_plan_id":"cebpf4jnsgd1na2vs0mg"},{"bike_id":"dc9129fc-06fd-45a2-8f94-08b9a76d4ecc","system_id":"levelo_inurba_marseille","lat":43.299562,"lon":5.385054,"is_reserved":false,"is_disabled":false,"rental_uris":{"android":"levelo://app?vid=dc9129fc-06fd-45a2-8f94-08b9a76d4ecc","ios":"levelo://app?vid=dc9129fc-06fd-45a2-8f94-08b9a76d4ecc"},"vehicle_type_id":"4","last_reported":1715890084,"current_range_meters":0,"station_id":"ce4bgj92rcd13ifvqbd0","pricing_plan_id":"cebpf4jnsgd1na2vs0mg"},{"bike_id":"b5085b82-1b49-4264-9115-c183033ba2c8","system_id":"levelo_inurba_marseille","lat":43.285848,"lon":5.350787,"is_reserved":false,"is_disabled":false,"rental_uris":{"android":"levelo://app?vid=b5085b82-1b49-4264-9115-c183033ba2c8","ios":"levelo://app?vid=b5085b82-1b49-4264-9115-c183033ba2c8"},"vehicle_type_id":"4","last_reported":1715890084,"current_range_meters":13600,"station_id":"ce4bhch2rcd13ifvqeug","pricing_plan_id":"cebpf4jnsgd1na2vs0mg"},{"bike_id":"5b4b8a84-27b4-406e-acbd-fe4889c9fc4f","system_id":"levelo_inurba_marseille","lat":43.294978,"lon":5.374974,"is_reserved":false,"is_disabled":false,"rental_uris":{"android":"levelo://app?vid=5b4b8a84-27b4-406e-acbd-fe4889c9fc4f","ios":"levelo://app?vid=5b4b8a84-27b4-406e-acbd-fe4889c9fc4f"},"vehicle_type_id":"4","last_reported":1715890084,"current_range_meters":26400,"station_id":"ce4bgkp2rcd13ifvqbmg","pricing_plan_id":"cebpf4jnsgd1na2vs0mg"},{"bike_id":"eb5cbeed-fc60-4d57-b757-7d25e4629316","system_id":"levelo_inurba_marseille","lat":43.299724,"lon":5.384848,"is_reserved":false,"is_disabled":false,"rental_uris":{"android":"levelo://app?vid=eb5cbeed-fc60-4d57-b757-7d25e4629316","ios":"levelo://app?vid=eb5cbeed-fc60-4d57-b757-7d25e4629316"},"vehicle_type_id":"4","last_reported":1715890084,"current_range_meters":17200,"station_id":"ce4bgj92rcd13ifvqbd0","pricing_plan_id":"cebpf4jnsgd1na2vs0mg"},{"bike_id":"8a260ea9-3f84-4a24-b739-3925c0c69077","system_id":"levelo_inurba_marseille","lat":43.32361,"lon":5.38877,"is_reserved":false,"is_disabled":false,"rental_uris":{"android":"levelo://app?vid=8a260ea9-3f84-4a24-b739-3925c0c69077","ios":"levelo://app?vid=8a260ea9-3f84-4a24-b739-3925c0c69077"},"vehicle_type_id":"4","last_reported":1715890084,"current_range_meters":1200,"station_id":"ce4bhqp2rcd13ifvqhog","pricing_plan_id":"cebpf4jnsgd1na2vs0mg"},{"bike_id":"fb45128d-a139-4ee8-b56a-382d48d14156","system_id":"levelo_inurba_marseille","lat":43.323626,"lon":5.388809,"is_reserved":false,"is_disabled":false,"rental_uris":{"android":"levelo://app?vid=fb45128d-a139-4ee8-b56a-382d48d14156","ios":"levelo://app?vid=fb45128d-a139-4ee8-b56a-382d48d14156"},"vehicle_type_id":"4","last_reported":1715890084,"current_range_meters":3600,"station_id":"ce4bhqp2rcd13ifvqhog","pricing_plan_id":"cebpf4jnsgd1na2vs0mg"},{"bike_id":"1714363d-4721-4693-b457-887770a196b9","system_id":"levelo_inurba_marseille","lat":43.32367,"lon":5.38885,"is_reserved":false,"is_disabled":false,"rental_uris":{"android":"levelo://app?vid=1714363d-4721-4693-b457-887770a196b9","ios":"levelo://app?vid=1714363d-4721-4693-b457-887770a196b9"},"vehicle_type_id":"4","last_reported":1715890084,"current_range_meters":14800,"station_id":"ce4bhqp2rcd13ifvqhog","pricing_plan_id":"cebpf4jnsgd1na2vs0mg"},{"bike_id":"20148224-2b5e-4e33-83b6-26a456194df7","system_id":"levelo_inurba_marseille","lat":43.32366,"lon":5.38886,"is_reserved":false,"is_disabled":false,"rental_uris":{"android":"levelo://app?vid=20148224-2b5e-4e33-83b6-26a456194df7","ios":"levelo://app?vid=20148224-2b5e-4e33-83b6-26a456194df7"},"vehicle_type_id":"4","last_reported":1715890084,"current_range_meters":6400,"station_id":"ce4bhqp2rcd13ifvqhog","pricing_plan_id":"cebpf4jnsgd1na2vs0mg"},{"bike_id":"acd0b809-79e3-4991-8789-a38812ccd4e3","system_id":"levelo_inurba_marseille","lat":43.32366,"lon":5.38888,"is_reserved":false,"is_disabled":false,"rental_uris":{"android":"levelo://app?vid=acd0b809-79e3-4991-8789-a38812ccd4e3","ios":"levelo://app?vid=acd0b809-79e3-4991-8789-a38812ccd4e3"},"vehicle_type_id":"4","last_reported":1715890084,"current_range_meters":0,"station_id":"ce4bhqp2rcd13ifvqhog","pricing_plan_id":"cebpf4jnsgd1na2vs0mg"},{"bike_id":"8acf44be-3023-4d9a-9fbe-e438f63062a0","system_id":"levelo_inurba_marseille","lat":43.32367,"lon":5.388836,"is_reserved":false,"is_disabled":false,"rental_uris":{"android":"levelo://app?vid=8acf44be-3023-4d9a-9fbe-e438f63062a0","ios":"levelo://app?vid=8acf44be-3023-4d9a-9fbe-e438f63062a0"},"vehicle_type_id":"4","last_reported":1715890084,"current_range_meters":4800,"station_id":"ce4bhqp2rcd13ifvqhog","pricing_plan_id":"cebpf4jnsgd1na2vs0mg"},{"bike_id":"97dc8cc6-3d88-47f1-89c1-90bfbcbc810b","system_id":"levelo_inurba_marseille","lat":43.29602,"lon":5.381084,"is_reserved":false,"is_disabled":false,"rental_uris":{"android":"levelo://app?vid=97dc8cc6-3d88-47f1-89c1-90bfbcbc810b","ios":"levelo://app?vid=97dc8cc6-3d88-47f1-89c1-90bfbcbc810b"},"vehicle_type_id":"4","last_reported":1715890084,"current_range_meters":21600,"station_id":"ce4bgl12rcd13ifvqbo0","pricing_plan_id":"cebpf4jnsgd1na2vs0mg"},{"bike_id":"cf6febc0-8fff-4685-8327-62cea1d7fdca","system_id":"levelo_inurba_marseille","lat":43.29602,"lon":5.381084,"is_reserved":false,"is_disabled":false,"rental_uris":{"android":"levelo://app?vid=cf6febc0-8fff-4685-8327-62cea1d7fdca","ios":"levelo://app?vid=cf6febc0-8fff-4685-8327-62cea1d7fdca"},"vehicle_type_id":"4","last_reported":1715890084,"current_range_meters":26800,"station_id":"ce4bgl12rcd13ifvqbo0","pricing_plan_id":"cebpf4jnsgd1na2vs0mg"},{"bike_id":"28743bbf-c40a-4f0f-8a7a-98d5ddd97091","system_id":"levelo_inurba_marseille","lat":43.29602,"lon":5.381084,"is_reserved":false,"is_disabled":false,"rental_uris":{"android":"levelo://app?vid=28743bbf-c40a-4f0f-8a7a-98d5ddd97091","ios":"levelo://app?vid=28743bbf-c40a-4f0f-8a7a-98d5ddd97091"},"vehicle_type_id":"4","last_reported":1715890084,"current_range_meters":24400,"station_id":"ce4bgl12rcd13ifvqbo0","pricing_plan_id":"cebpf4jnsgd1na2vs0mg"},{"bike_id":"e540353e-0537-47b3-bb95-9643c7fb27dc","system_id":"levelo_inurba_marseille","lat":43.29529,"lon":5.385581,"is_reserved":false,"is_disabled":false,"rental_uris":{"android":"levelo://app?vid=e540353e-0537-47b3-bb95-9643c7fb27dc","ios":"levelo://app?vid=e540353e-0537-47b3-bb95-9643c7fb27dc"},"vehicle_type_id":"4","last_reported":1715890084,"current_range_meters":24800,"station_id":"ce4bgih2rcd13ifvqba0","pricing_plan_id":"cebpf4jnsgd1na2vs0mg"},{"bike_id":"db80e1ab-cbb2-4a19-b3fc-6655a5c1531b","system_id":"levelo_inurba_marseille","lat":43.293259,"lon":5.371586,"is_reserved":false,"is_disabled":false,"rental_uris":{"android":"levelo://app?vid=db80e1ab-cbb2-4a19-b3fc-6655a5c1531b","ios":"levelo://app?vid=db80e1ab-cbb2-4a19-b3fc-6655a5c1531b"},"vehicle_type_id":"4","last_reported":1715890084,"current_range_meters":30000,"station_id":"ce4bgh92rcd13ifvqb40","pricing_plan_id":"cebpf4jnsgd1na2vs0mg"},{"bike_id":"f8573aee-7438-4612-bedf-aca282876aaa","system_id":"levelo_inurba_marseille","lat":43.293066,"lon":5.371769,"is_reserved":false,"is_disabled":false,"rental_uris":{"android":"levelo://app?vid=f8573aee-7438-4612-bedf-aca282876aaa","ios":"levelo://app?vid=f8573aee-7438-4612-bedf-aca282876aaa"},"vehicle_type_id":"4","last_reported":1715890084,"current_range_meters":0,"station_id":"ce4bgh92rcd13ifvqb40","pricing_plan_id":"cebpf4jnsgd1na2vs0mg"},{"bike_id":"d12cd8ca-e83c-449d-8eeb-85e774b4389a","system_id":"levelo_inurba_marseille","lat":43.29307,"lon":5.37182,"is_reserved":false,"is_disabled":false,"rental_uris":{"android":"levelo://app?vid=d12cd8ca-e83c-449d-8eeb-85e774b4389a","ios":"levelo://app?vid=d12cd8ca-e83c-449d-8eeb-85e774b4389a"},"vehicle_type_id":"4","last_reported":1715890084,"current_range_meters":0,"station_id":"ce4bgh92rcd13ifvqb40","pricing_plan_id":"cebpf4jnsgd1na2vs0mg"},{"bike_id":"91b540d6-a39e-45d1-8ce9-b8764febb88b","system_id":"levelo_inurba_marseille","lat":43.292749,"lon":5.368402,"is_reserved":false,"is_disabled":false,"rental_uris":{"android":"levelo://app?vid=91b540d6-a39e-45d1-8ce9-b8764febb88b","ios":"levelo://app?vid=91b540d6-a39e-45d1-8ce9-b8764febb88b"},"vehicle_type_id":"4","last_reported":1715890084,"current_range_meters":0,"station_id":"ce4bhbp2rcd13ifvqesg","pricing_plan_id":"cebpf4jnsgd1na2vs0mg"},{"bike_id":"7f7b8cf9-849e-40f2-82d9-ce30554dc25f","system_id":"levelo_inurba_marseille","lat":43.30288,"lon":5.39138,"is_reserved":false,"is_disabled":false,"rental_uris":{"android":"levelo://app?vid=7f7b8cf9-849e-40f2-82d9-ce30554dc25f","ios":"levelo://app?vid=7f7b8cf9-849e-40f2-82d9-ce30554dc25f"},"vehicle_type_id":"4","last_reported":1715890084,"current_range_meters":4000,"station_id":"ce4bh0h2rcd13ifvqd40","pricing_plan_id":"cebpf4jnsgd1na2vs0mg"},{"bike_id":"0b731abf-43a1-44fe-9a38-9688f6a6114b","system_id":"levelo_inurba_marseille","lat":43.29304,"lon":5.3746,"is_reserved":false,"is_disabled":false,"rental_uris":{"android":"levelo://app?vid=0b731abf-43a1-44fe-9a38-9688f6a6114b","ios":"levelo://app?vid=0b731abf-43a1-44fe-9a38-9688f6a6114b"},"vehicle_type_id":"4","last_reported":1715890084,"current_range_meters":0,"station_id":"ce4bgi12rcd13ifvqb70","pricing_plan_id":"cebpf4jnsgd1na2vs0mg"},{"bike_id":"8404a504-3652-4622-86e5-e9727d83eaa7","system_id":"levelo_inurba_marseille","lat":43.305994,"lon":5.393687,"is_reserved":false,"is_disabled":false,"rental_uris":{"android":"levelo://app?vid=8404a504-3652-4622-86e5-e9727d83eaa7","ios":"levelo://app?vid=8404a504-3652-4622-86e5-e9727d83eaa7"},"vehicle_type_id":"4","last_reported":1715890084,"current_range_meters":800,"station_id":"ce4bh0p2rcd13ifvqd80","pricing_plan_id":"cebpf4jnsgd1na2vs0mg"},{"bike_id":"dd8b3b18-5e31-4292-8a83-566bf24c75f2","system_id":"levelo_inurba_marseille","lat":43.29303,"lon":5.374659,"is_reserved":false,"is_disabled":false,"rental_uris":{"android":"levelo://app?vid=dd8b3b18-5e31-4292-8a83-566bf24c75f2","ios":"levelo://app?vid=dd8b3b18-5e31-4292-8a83-566bf24c75f2"},"vehicle_type_id":"4","last_reported":1715890084,"current_range_meters":0,"station_id":"ce4bgi12rcd13ifvqb70","pricing_plan_id":"cebpf4jnsgd1na2vs0mg"},{"bike_id":"31334c3b-0a67-4ea8-a68a-27d113de2d74","system_id":"levelo_inurba_marseille","lat":43.305994,"lon":5.393687,"is_reserved":false,"is_disabled":false,"rental_uris":{"android":"levelo://app?vid=31334c3b-0a67-4ea8-a68a-27d113de2d74","ios":"levelo://app?vid=31334c3b-0a67-4ea8-a68a-27d113de2d74"},"vehicle_type_id":"4","last_reported":1715890084,"current_range_meters":0,"station_id":"ce4bh0p2rcd13ifvqd80","pricing_plan_id":"cebpf4jnsgd1na2vs0mg"},{"bike_id":"41f73424-7192-47dd-a48f-5f1f0324ac6d","system_id":"levelo_inurba_marseille","lat":43.306188,"lon":5.393719,"is_reserved":false,"is_disabled":false,"rental_uris":{"android":"levelo://app?vid=41f73424-7192-47dd-a48f-5f1f0324ac6d","ios":"levelo://app?vid=41f73424-7192-47dd-a48f-5f1f0324ac6d"},"vehicle_type_id":"4","last_reported":1715890084,"current_range_meters":2000,"station_id":"ce4bh012rcd13ifvqcv0","pricing_plan_id":"cebpf4jnsgd1na2vs0mg"},{"bike_id":"6f5d6498-f548-433b-92c6-c28d7c3e537d","system_id":"levelo_inurba_marseille","lat":43.305874,"lon":5.393615,"is_reserved":false,"is_disabled":false,"rental_uris":{"android":"levelo://app?vid=6f5d6498-f548-433b-92c6-c28d7c3e537d","ios":"levelo://app?vid=6f5d6498-f548-433b-92c6-c28d7c3e537d"},"vehicle_type_id":"4","last_reported":1715890084,"current_range_meters":0,"station_id":"ce4bh0p2rcd13ifvqd80","pricing_plan_id":"cebpf4jnsgd1na2vs0mg"},{"bike_id":"0f4a25b1-c8ea-4995-acae-779c3fd4b59a","system_id":"levelo_inurba_marseille","lat":43.30085,"lon":5.390856,"is_reserved":false,"is_disabled":false,"rental_uris":{"android":"levelo://app?vid=0f4a25b1-c8ea-4995-acae-779c3fd4b59a","ios":"levelo://app?vid=0f4a25b1-c8ea-4995-acae-779c3fd4b59a"},"vehicle_type_id":"4","last_reported":1715890084,"current_range_meters":19200,"station_id":"ce4bh192rcd13ifvqdb0","pricing_plan_id":"cebpf4jnsgd1na2vs0mg"},{"bike_id":"8d3cb6c5-a99f-4284-b3ab-680f993bda5d","system_id":"levelo_inurba_marseille","lat":43.29678,"lon":5.38499,"is_reserved":false,"is_disabled":false,"rental_uris":{"android":"levelo://app?vid=8d3cb6c5-a99f-4284-b3ab-680f993bda5d","ios":"levelo://app?vid=8d3cb6c5-a99f-4284-b3ab-680f993bda5d"},"vehicle_type_id":"4","last_reported":1715890084,"current_range_meters":4000,"station_id":"","pricing_plan_id":"cebpf4jnsgd1na2vs0mg"},{"bike_id":"0febdd4b-71c5-4af3-889c-8762ff330e9f","system_id":"levelo_inurba_marseille","lat":43.302992,"lon":5.392136,"is_reserved":false,"is_disabled":false,"rental_uris":{"android":"levelo://app?vid=0febdd4b-71c5-4af3-889c-8762ff330e9f","ios":"levelo://app?vid=0febdd4b-71c5-4af3-889c-8762ff330e9f"},"vehicle_type_id":"4","last_reported":1715890084,"current_range_meters":20800,"station_id":"ce4bgkh2rcd13ifvqbk0","pricing_plan_id":"cebpf4jnsgd1na2vs0mg"},{"bike_id":"6c3d8d6f-2476-497a-bd6e-7874ecc7fc85","system_id":"levelo_inurba_marseille","lat":43.298954,"lon":5.388331,"is_reserved":false,"is_disabled":false,"rental_uris":{"android":"levelo://app?vid=6c3d8d6f-2476-497a-bd6e-7874ecc7fc85","ios":"levelo://app?vid=6c3d8d6f-2476-497a-bd6e-7874ecc7fc85"},"vehicle_type_id":"4","last_reported":1715890084,"current_range_meters":8400,"station_id":"","pricing_plan_id":"cebpf4jnsgd1na2vs0mg"},{"bike_id":"8c82ea02-a513-4674-8c10-543b9d6d7f92","system_id":"levelo_inurba_marseille","lat":43.29222,"lon":5.36075,"is_reserved":false,"is_disabled":false,"rental_uris":{"android":"levelo://app?vid=8c82ea02-a513-4674-8c10-543b9d6d7f92","ios":"levelo://app?vid=8c82ea02-a513-4674-8c10-543b9d6d7f92"},"vehicle_type_id":"4","last_reported":1715890084,"current_range_meters":22000,"station_id":"","pricing_plan_id":"cebpf4jnsgd1na2vs0mg"},{"bike_id":"76eb7a7c-6ac0-4267-b7b9-7f89d52fbd6e","system_id":"levelo_inurba_marseille","lat":43.298764,"lon":5.388973,"is_reserved":false,"is_disabled":false,"rental_uris":{"android":"levelo://app?vid=76eb7a7c-6ac0-4267-b7b9-7f89d52fbd6e","ios":"levelo://app?vid=76eb7a7c-6ac0-4267-b7b9-7f89d52fbd6e"},"vehicle_type_id":"4","last_reported":1715890084,"current_range_meters":0,"station_id":"ce4bh392rcd13ifvqdl0","pricing_plan_id":"cebpf4jnsgd1na2vs0mg"},{"bike_id":"1009783c-0b5e-477c-8e34-2880b40716a2","system_id":"levelo_inurba_marseille","lat":43.298764,"lon":5.388973,"is_reserved":false,"is_disabled":false,"rental_uris":{"android":"levelo://app?vid=1009783c-0b5e-477c-8e34-2880b40716a2","ios":"levelo://app?vid=1009783c-0b5e-477c-8e34-2880b40716a2"},"vehicle_type_id":"4","last_reported":1715890084,"current_range_meters":2400,"station_id":"ce4bh392rcd13ifvqdl0","pricing_plan_id":"cebpf4jnsgd1na2vs0mg"},{"bike_id":"c85a3be7-6bf3-4544-872a-2aa36957affd","system_id":"levelo_inurba_marseille","lat":43.29879,"lon":5.38912,"is_reserved":false,"is_disabled":false,"rental_uris":{"android":"levelo://app?vid=c85a3be7-6bf3-4544-872a-2aa36957affd","ios":"levelo://app?vid=c85a3be7-6bf3-4544-872a-2aa36957affd"},"vehicle_type_id":"4","last_reported":1715890084,"current_range_meters":4000,"station_id":"ce4bh392rcd13ifvqdl0","pricing_plan_id":"cebpf4jnsgd1na2vs0mg"},{"bike_id":"447eba37-8bfd-4224-9fbe-2546ccc119fa","system_id":"levelo_inurba_marseille","lat":43.298764,"lon":5.388973,"is_reserved":false,"is_disabled":false,"rental_uris":{"android":"levelo://app?vid=447eba37-8bfd-4224-9fbe-2546ccc119fa","ios":"levelo://app?vid=447eba37-8bfd-4224-9fbe-2546ccc119fa"},"vehicle_type_id":"4","last_reported":1715890084,"current_range_meters":12000,"station_id":"ce4bh392rcd13ifvqdl0","pricing_plan_id":"cebpf4jnsgd1na2vs0mg"},{"bike_id":"428aefff-7d2f-490d-a308-1b6fcbb03863","system_id":"levelo_inurba_marseille","lat":43.29529,"lon":5.385581,"is_reserved":false,"is_disabled":false,"rental_uris":{"android":"levelo://app?vid=428aefff-7d2f-490d-a308-1b6fcbb03863","ios":"levelo://app?vid=428aefff-7d2f-490d-a308-1b6fcbb03863"},"vehicle_type_id":"4","last_reported":1715890084,"current_range_meters":22400,"station_id":"ce4bgih2rcd13ifvqba0","pricing_plan_id":"cebpf4jnsgd1na2vs0mg"},{"bike_id":"288c1767-2ab0-413a-bd62-38f552ba729d","system_id":"levelo_inurba_marseille","lat":43.309047,"lon":5.396551,"is_reserved":false,"is_disabled":false,"rental_uris":{"android":"levelo://app?vid=288c1767-2ab0-413a-bd62-38f552ba729d","ios":"levelo://app?vid=288c1767-2ab0-413a-bd62-38f552ba729d"},"vehicle_type_id":"4","last_reported":1715890084,"current_range_meters":20000,"station_id":"ce4bh012rcd13ifvqcv0","pricing_plan_id":"cebpf4jnsgd1na2vs0mg"},{"bike_id":"6f62b53e-f424-4648-87c1-2c8d4b4b72ec","system_id":"levelo_inurba_marseille","lat":43.291994,"lon":5.357886,"is_reserved":false,"is_disabled":false,"rental_uris":{"android":"levelo://app?vid=6f62b53e-f424-4648-87c1-2c8d4b4b72ec","ios":"levelo://app?vid=6f62b53e-f424-4648-87c1-2c8d4b4b72ec"},"vehicle_type_id":"4","last_reported":1715890084,"current_range_meters":0,"station_id":"ce4bhb12rcd13ifvqel0","pricing_plan_id":"cebpf4jnsgd1na2vs0mg"},{"bike_id":"e93a772c-c898-4eca-a6f7-e5f0bcedd3a4","system_id":"levelo_inurba_marseille","lat":43.308898,"lon":5.39653,"is_reserved":false,"is_disabled":false,"rental_uris":{"android":"levelo://app?vid=e93a772c-c898-4eca-a6f7-e5f0bcedd3a4","ios":"levelo://app?vid=e93a772c-c898-4eca-a6f7-e5f0bcedd3a4"},"vehicle_type_id":"4","last_reported":1715890084,"current_range_meters":1200,"station_id":"ce4bh012rcd13ifvqcv0","pricing_plan_id":"cebpf4jnsgd1na2vs0mg"},{"bike_id":"435611a6-9904-4e47-bce9-4ba75cd167e5","system_id":"levelo_inurba_marseille","lat":43.308785,"lon":5.396532,"is_reserved":false,"is_disabled":false,"rental_uris":{"android":"levelo://app?vid=435611a6-9904-4e47-bce9-4ba75cd167e5","ios":"levelo://app?vid=435611a6-9904-4e47-bce9-4ba75cd167e5"},"vehicle_type_id":"4","last_reported":1715890084,"current_range_meters":0,"station_id":"ce4bh012rcd13ifvqcv0","pricing_plan_id":"cebpf4jnsgd1na2vs0mg"},{"bike_id":"1a80ca7a-47a2-4ffd-99d1-c0d5cd7d8c77","system_id":"levelo_inurba_marseille","lat":43.309038,"lon":5.396546,"is_reserved":false,"is_disabled":false,"rental_uris":{"android":"levelo://app?vid=1a80ca7a-47a2-4ffd-99d1-c0d5cd7d8c77","ios":"levelo://app?vid=1a80ca7a-47a2-4ffd-99d1-c0d5cd7d8c77"},"vehicle_type_id":"4","last_reported":1715890084,"current_range_meters":400,"station_id":"ce4bh012rcd13ifvqcv0","pricing_plan_id":"cebpf4jnsgd1na2vs0mg"},{"bike_id":"d87f784d-5353-468e-b28f-b2377dd2c931","system_id":"levelo_inurba_marseille","lat":43.29529,"lon":5.385581,"is_reserved":false,"is_disabled":false,"rental_uris":{"android":"levelo://app?vid=d87f784d-5353-468e-b28f-b2377dd2c931","ios":"levelo://app?vid=d87f784d-5353-468e-b28f-b2377dd2c931"},"vehicle_type_id":"4","last_reported":1715890084,"current_range_meters":22400,"station_id":"ce4bgih2rcd13ifvqba0","pricing_plan_id":"cebpf4jnsgd1na2vs0mg"},{"bike_id":"3f88c336-a369-4133-8c88-2e7b07b65b16","system_id":"levelo_inurba_marseille","lat":43.295397,"lon":5.385475,"is_reserved":false,"is_disabled":false,"rental_uris":{"android":"levelo://app?vid=3f88c336-a369-4133-8c88-2e7b07b65b16","ios":"levelo://app?vid=3f88c336-a369-4133-8c88-2e7b07b65b16"},"vehicle_type_id":"4","last_reported":1715890084,"current_range_meters":8400,"station_id":"ce4bgih2rcd13ifvqba0","pricing_plan_id":"cebpf4jnsgd1na2vs0mg"},{"bike_id":"aa12ae33-05ca-4630-9a1c-59b1c04e1be6","system_id":"levelo_inurba_marseille","lat":43.29538,"lon":5.38548,"is_reserved":false,"is_disabled":false,"rental_uris":{"android":"levelo://app?vid=aa12ae33-05ca-4630-9a1c-59b1c04e1be6","ios":"levelo://app?vid=aa12ae33-05ca-4630-9a1c-59b1c04e1be6"},"vehicle_type_id":"4","last_reported":1715890084,"current_range_meters":24800,"station_id":"ce4bgih2rcd13ifvqba0","pricing_plan_id":"cebpf4jnsgd1na2vs0mg"},{"bike_id":"b43dbbe6-fc9c-45ca-94b5-2817a7e00d3a","system_id":"levelo_inurba_marseille","lat":43.29529,"lon":5.385581,"is_reserved":false,"is_disabled":false,"rental_uris":{"android":"levelo://app?vid=b43dbbe6-fc9c-45ca-94b5-2817a7e00d3a","ios":"levelo://app?vid=b43dbbe6-fc9c-45ca-94b5-2817a7e00d3a"},"vehicle_type_id":"4","last_reported":1715890084,"current_range_meters":4000,"station_id":"ce4bgih2rcd13ifvqba0","pricing_plan_id":"cebpf4jnsgd1na2vs0mg"},{"bike_id":"3d6fa835-f7bc-40a0-b3a7-5f88c4611b6b","system_id":"levelo_inurba_marseille","lat":43.29529,"lon":5.385581,"is_reserved":false,"is_disabled":false,"rental_uris":{"android":"levelo://app?vid=3d6fa835-f7bc-40a0-b3a7-5f88c4611b6b","ios":"levelo://app?vid=3d6fa835-f7bc-40a0-b3a7-5f88c4611b6b"},"vehicle_type_id":"4","last_reported":1715890084,"current_range_meters":28800,"station_id":"ce4bgih2rcd13ifvqba0","pricing_plan_id":"cebpf4jnsgd1na2vs0mg"},{"bike_id":"8fa148ba-ec14-40bd-9413-7413e1a22197","system_id":"levelo_inurba_marseille","lat":43.29529,"lon":5.385581,"is_reserved":false,"is_disabled":false,"rental_uris":{"android":"levelo://app?vid=8fa148ba-ec14-40bd-9413-7413e1a22197","ios":"levelo://app?vid=8fa148ba-ec14-40bd-9413-7413e1a22197"},"vehicle_type_id":"4","last_reported":1715890084,"current_range_meters":7200,"station_id":"ce4bgih2rcd13ifvqba0","pricing_plan_id":"cebpf4jnsgd1na2vs0mg"},{"bike_id":"e0c0d55a-ef66-442d-ab2d-cfc8b4535518","system_id":"levelo_inurba_marseille","lat":43.295346,"lon":5.385469,"is_reserved":false,"is_disabled":false,"rental_uris":{"android":"levelo://app?vid=e0c0d55a-ef66-442d-ab2d-cfc8b4535518","ios":"levelo://app?vid=e0c0d55a-ef66-442d-ab2d-cfc8b4535518"},"vehicle_type_id":"4","last_reported":1715890084,"current_range_meters":28400,"station_id":"ce4bgih2rcd13ifvqba0","pricing_plan_id":"cebpf4jnsgd1na2vs0mg"},{"bike_id":"478676e7-c19f-4bde-a360-1f9bf60f601c","system_id":"levelo_inurba_marseille","lat":43.29529,"lon":5.385581,"is_reserved":false,"is_disabled":false,"rental_uris":{"android":"levelo://app?vid=478676e7-c19f-4bde-a360-1f9bf60f601c","ios":"levelo://app?vid=478676e7-c19f-4bde-a360-1f9bf60f601c"},"vehicle_type_id":"4","last_reported":1715890084,"current_range_meters":27200,"station_id":"ce4bgih2rcd13ifvqba0","pricing_plan_id":"cebpf4jnsgd1na2vs0mg"},{"bike_id":"1f069f8d-b25f-4005-a791-6a0745499d4d","system_id":"levelo_inurba_marseille","lat":43.29529,"lon":5.385581,"is_reserved":false,"is_disabled":false,"rental_uris":{"android":"levelo://app?vid=1f069f8d-b25f-4005-a791-6a0745499d4d","ios":"levelo://app?vid=1f069f8d-b25f-4005-a791-6a0745499d4d"},"vehicle_type_id":"4","last_reported":1715890084,"current_range_meters":6400,"station_id":"ce4bgih2rcd13ifvqba0","pricing_plan_id":"cebpf4jnsgd1na2vs0mg"},{"bike_id":"d461c7eb-44c8-4a4e-aa3d-18d3c4355ade","system_id":"levelo_inurba_marseille","lat":43.29529,"lon":5.385581,"is_reserved":false,"is_disabled":false,"rental_uris":{"android":"levelo://app?vid=d461c7eb-44c8-4a4e-aa3d-18d3c4355ade","ios":"levelo://app?vid=d461c7eb-44c8-4a4e-aa3d-18d3c4355ade"},"vehicle_type_id":"4","last_reported":1715890084,"current_range_meters":10000,"station_id":"ce4bgih2rcd13ifvqba0","pricing_plan_id":"cebpf4jnsgd1na2vs0mg"},{"bike_id":"74306da5-2a55-4b00-b7d8-2059d8d946ab","system_id":"levelo_inurba_marseille","lat":43.2954,"lon":5.3856,"is_reserved":false,"is_disabled":false,"rental_uris":{"android":"levelo://app?vid=74306da5-2a55-4b00-b7d8-2059d8d946ab","ios":"levelo://app?vid=74306da5-2a55-4b00-b7d8-2059d8d946ab"},"vehicle_type_id":"4","last_reported":1715890084,"current_range_meters":27600,"station_id":"ce4bgih2rcd13ifvqba0","pricing_plan_id":"cebpf4jnsgd1na2vs0mg"},{"bike_id":"1a7f10df-a8fd-42e5-848d-30f1fee12fe6","system_id":"levelo_inurba_marseille","lat":43.29529,"lon":5.385581,"is_reserved":false,"is_disabled":false,"rental_uris":{"android":"levelo://app?vid=1a7f10df-a8fd-42e5-848d-30f1fee12fe6","ios":"levelo://app?vid=1a7f10df-a8fd-42e5-848d-30f1fee12fe6"},"vehicle_type_id":"4","last_reported":1715890084,"current_range_meters":24000,"station_id":"ce4bgih2rcd13ifvqba0","pricing_plan_id":"cebpf4jnsgd1na2vs0mg"},{"bike_id":"db3ff2fd-344f-49e3-a15c-a0c713e65a03","system_id":"levelo_inurba_marseille","lat":43.29532,"lon":5.3855,"is_reserved":false,"is_disabled":false,"rental_uris":{"android":"levelo://app?vid=db3ff2fd-344f-49e3-a15c-a0c713e65a03","ios":"levelo://app?vid=db3ff2fd-344f-49e3-a15c-a0c713e65a03"},"vehicle_type_id":"4","last_reported":1715890084,"current_range_meters":0,"station_id":"ce4bgih2rcd13ifvqba0","pricing_plan_id":"cebpf4jnsgd1na2vs0mg"},{"bike_id":"9e1613e9-67a5-476e-9a28-8447ad49b754","system_id":"levelo_inurba_marseille","lat":43.29534,"lon":5.38554,"is_reserved":false,"is_disabled":false,"rental_uris":{"android":"levelo://app?vid=9e1613e9-67a5-476e-9a28-8447ad49b754","ios":"levelo://app?vid=9e1613e9-67a5-476e-9a28-8447ad49b754"},"vehicle_type_id":"4","last_reported":1715890084,"current_range_meters":24800,"station_id":"ce4bgih2rcd13ifvqba0","pricing_plan_id":"cebpf4jnsgd1na2vs0mg"},{"bike_id":"1f3fb231-a6fc-4397-b5cc-050b1a23ba56","system_id":"levelo_inurba_marseille","lat":43.29533,"lon":5.38554,"is_reserved":false,"is_disabled":false,"rental_uris":{"android":"levelo://app?vid=1f3fb231-a6fc-4397-b5cc-050b1a23ba56","ios":"levelo://app?vid=1f3fb231-a6fc-4397-b5cc-050b1a23ba56"},"vehicle_type_id":"4","last_reported":1715890084,"current_range_meters":4000,"station_id":"ce4bgih2rcd13ifvqba0","pricing_plan_id":"cebpf4jnsgd1na2vs0mg"},{"bike_id":"23d992e8-08d1-42dd-8837-df390ab00b6d","system_id":"levelo_inurba_marseille","lat":43.29529,"lon":5.385581,"is_reserved":false,"is_disabled":false,"rental_uris":{"android":"levelo://app?vid=23d992e8-08d1-42dd-8837-df390ab00b6d","ios":"levelo://app?vid=23d992e8-08d1-42dd-8837-df390ab00b6d"},"vehicle_type_id":"4","last_reported":1715890084,"current_range_meters":28800,"station_id":"ce4bgih2rcd13ifvqba0","pricing_plan_id":"cebpf4jnsgd1na2vs0mg"},{"bike_id":"57fac5a3-3160-42a6-9794-f91e8b65f17e","system_id":"levelo_inurba_marseille","lat":43.29529,"lon":5.385581,"is_reserved":false,"is_disabled":false,"rental_uris":{"android":"levelo://app?vid=57fac5a3-3160-42a6-9794-f91e8b65f17e","ios":"levelo://app?vid=57fac5a3-3160-42a6-9794-f91e8b65f17e"},"vehicle_type_id":"4","last_reported":1715890084,"current_range_meters":2800,"station_id":"ce4bgih2rcd13ifvqba0","pricing_plan_id":"cebpf4jnsgd1na2vs0mg"},{"bike_id":"2d7c78fa-5ac3-44b0-a5b3-afc28f04e188","system_id":"levelo_inurba_marseille","lat":43.29529,"lon":5.38554,"is_reserved":false,"is_disabled":false,"rental_uris":{"android":"levelo://app?vid=2d7c78fa-5ac3-44b0-a5b3-afc28f04e188","ios":"levelo://app?vid=2d7c78fa-5ac3-44b0-a5b3-afc28f04e188"},"vehicle_type_id":"4","last_reported":1715890084,"current_range_meters":3200,"station_id":"ce4bgih2rcd13ifvqba0","pricing_plan_id":"cebpf4jnsgd1na2vs0mg"},{"bike_id":"42872ed5-892a-430d-81b9-6ac39cc57e38","system_id":"levelo_inurba_marseille","lat":43.29529,"lon":5.385581,"is_reserved":false,"is_disabled":false,"rental_uris":{"android":"levelo://app?vid=42872ed5-892a-430d-81b9-6ac39cc57e38","ios":"levelo://app?vid=42872ed5-892a-430d-81b9-6ac39cc57e38"},"vehicle_type_id":"4","last_reported":1715890084,"current_range_meters":0,"station_id":"ce4bgih2rcd13ifvqba0","pricing_plan_id":"cebpf4jnsgd1na2vs0mg"},{"bike_id":"8892001a-b95b-4aad-b484-1a397cd15e91","system_id":"levelo_inurba_marseille","lat":43.295271,"lon":5.385776,"is_reserved":false,"is_disabled":false,"rental_uris":{"android":"levelo://app?vid=8892001a-b95b-4aad-b484-1a397cd15e91","ios":"levelo://app?vid=8892001a-b95b-4aad-b484-1a397cd15e91"},"vehicle_type_id":"4","last_reported":1715890084,"current_range_meters":22400,"station_id":"ce4bgih2rcd13ifvqba0","pricing_plan_id":"cebpf4jnsgd1na2vs0mg"},{"bike_id":"16d36d59-8ab5-49df-9440-0cf2fcd3143b","system_id":"levelo_inurba_marseille","lat":43.290779,"lon":5.371482,"is_reserved":false,"is_disabled":false,"rental_uris":{"android":"levelo://app?vid=16d36d59-8ab5-49df-9440-0cf2fcd3143b","ios":"levelo://app?vid=16d36d59-8ab5-49df-9440-0cf2fcd3143b"},"vehicle_type_id":"4","last_reported":1715890084,"current_range_meters":0,"station_id":"ce4bh5p2rcd13ifvqe4g","pricing_plan_id":"cebpf4jnsgd1na2vs0mg"},{"bike_id":"4ad42614-7f3b-44d2-a9b3-c3d9203efc4a","system_id":"levelo_inurba_marseille","lat":43.29473,"lon":5.385701,"is_reserved":false,"is_disabled":false,"rental_uris":{"android":"levelo://app?vid=4ad42614-7f3b-44d2-a9b3-c3d9203efc4a","ios":"levelo://app?vid=4ad42614-7f3b-44d2-a9b3-c3d9203efc4a"},"vehicle_type_id":"4","last_reported":1715890084,"current_range_meters":22800,"station_id":"ce4bgih2rcd13ifvqba0","pricing_plan_id":"cebpf4jnsgd1na2vs0mg"},{"bike_id":"e3cb22c5-5830-49a1-b59d-9201fcb693ea","system_id":"levelo_inurba_marseille","lat":43.292644,"lon":5.384257,"is_reserved":false,"is_disabled":false,"rental_uris":{"android":"levelo://app?vid=e3cb22c5-5830-49a1-b59d-9201fcb693ea","ios":"levelo://app?vid=e3cb22c5-5830-49a1-b59d-9201fcb693ea"},"vehicle_type_id":"4","last_reported":1715890084,"current_range_meters":12400,"station_id":"ce4bh692rcd13ifvqea0","pricing_plan_id":"cebpf4jnsgd1na2vs0mg"},{"bike_id":"7b80cbf2-60f2-4a75-8428-03829676b4ad","system_id":"levelo_inurba_marseille","lat":43.302008,"lon":5.394694,"is_reserved":false,"is_disabled":false,"rental_uris":{"android":"levelo://app?vid=7b80cbf2-60f2-4a75-8428-03829676b4ad","ios":"levelo://app?vid=7b80cbf2-60f2-4a75-8428-03829676b4ad"},"vehicle_type_id":"4","last_reported":1715890084,"current_range_meters":8400,"station_id":"ce4bh0p2rcd13ifvqd70","pricing_plan_id":"cebpf4jnsgd1na2vs0mg"},{"bike_id":"5b32d619-d808-4b38-8820-8e950137c6ca","system_id":"levelo_inurba_marseille","lat":43.302068,"lon":5.394709,"is_reserved":false,"is_disabled":false,"rental_uris":{"android":"levelo://app?vid=5b32d619-d808-4b38-8820-8e950137c6ca","ios":"levelo://app?vid=5b32d619-d808-4b38-8820-8e950137c6ca"},"vehicle_type_id":"4","last_reported":1715890084,"current_range_meters":0,"station_id":"ce4bh0p2rcd13ifvqd70","pricing_plan_id":"cebpf4jnsgd1na2vs0mg"},{"bike_id":"61e44773-96fd-46b6-9a02-486153fe52d5","system_id":"levelo_inurba_marseille","lat":43.302008,"lon":5.394694,"is_reserved":false,"is_disabled":false,"rental_uris":{"android":"levelo://app?vid=61e44773-96fd-46b6-9a02-486153fe52d5","ios":"levelo://app?vid=61e44773-96fd-46b6-9a02-486153fe52d5"},"vehicle_type_id":"4","last_reported":1715890084,"current_range_meters":19600,"station_id":"ce4bh0p2rcd13ifvqd70","pricing_plan_id":"cebpf4jnsgd1na2vs0mg"},{"bike_id":"cc27c2a5-4161-4730-8566-001e3657eac7","system_id":"levelo_inurba_marseille","lat":43.290624,"lon":5.359245,"is_reserved":false,"is_disabled":false,"rental_uris":{"android":"levelo://app?vid=cc27c2a5-4161-4730-8566-001e3657eac7","ios":"levelo://app?vid=cc27c2a5-4161-4730-8566-001e3657eac7"},"vehicle_type_id":"4","last_reported":1715890084,"current_range_meters":4400,"station_id":"ce4bha92rcd13ifvqeg0","pricing_plan_id":"cebpf4jnsgd1na2vs0mg"},{"bike_id":"c2d1279b-8182-4f86-bea8-ab0ed0d966a4","system_id":"levelo_inurba_marseille","lat":43.292642,"lon":5.384254,"is_reserved":false,"is_disabled":false,"rental_uris":{"android":"levelo://app?vid=c2d1279b-8182-4f86-bea8-ab0ed0d966a4","ios":"levelo://app?vid=c2d1279b-8182-4f86-bea8-ab0ed0d966a4"},"vehicle_type_id":"4","last_reported":1715890084,"current_range_meters":800,"station_id":"ce4bh692rcd13ifvqea0","pricing_plan_id":"cebpf4jnsgd1na2vs0mg"},{"bike_id":"f6c5e735-be46-40c0-9422-77a85ffcd316","system_id":"levelo_inurba_marseille","lat":43.294267,"lon":5.386139,"is_reserved":false,"is_disabled":false,"rental_uris":{"android":"levelo://app?vid=f6c5e735-be46-40c0-9422-77a85ffcd316","ios":"levelo://app?vid=f6c5e735-be46-40c0-9422-77a85ffcd316"},"vehicle_type_id":"4","last_reported":1715890084,"current_range_meters":31200,"station_id":"ce4bh2h2rcd13ifvqdh0","pricing_plan_id":"cebpf4jnsgd1na2vs0mg"},{"bike_id":"6ea5ca5b-a042-40e7-bfa1-47e49e6a4316","system_id":"levelo_inurba_marseille","lat":43.294254,"lon":5.386155,"is_reserved":false,"is_disabled":false,"rental_uris":{"android":"levelo://app?vid=6ea5ca5b-a042-40e7-bfa1-47e49e6a4316","ios":"levelo://app?vid=6ea5ca5b-a042-40e7-bfa1-47e49e6a4316"},"vehicle_type_id":"4","last_reported":1715890084,"current_range_meters":20800,"station_id":"ce4bh2h2rcd13ifvqdh0","pricing_plan_id":"cebpf4jnsgd1na2vs0mg"},{"bike_id":"32a578b6-2462-4a41-aae9-ea287bee034a","system_id":"levelo_inurba_marseille","lat":43.294242,"lon":5.386176,"is_reserved":false,"is_disabled":false,"rental_uris":{"android":"levelo://app?vid=32a578b6-2462-4a41-aae9-ea287bee034a","ios":"levelo://app?vid=32a578b6-2462-4a41-aae9-ea287bee034a"},"vehicle_type_id":"4","last_reported":1715890084,"current_range_meters":4800,"station_id":"ce4bh2h2rcd13ifvqdh0","pricing_plan_id":"cebpf4jnsgd1na2vs0mg"},{"bike_id":"73c5e037-8a4b-4e62-a446-5a37f4806394","system_id":"levelo_inurba_marseille","lat":43.289526,"lon":5.366371,"is_reserved":false,"is_disabled":false,"rental_uris":{"android":"levelo://app?vid=73c5e037-8a4b-4e62-a446-5a37f4806394","ios":"levelo://app?vid=73c5e037-8a4b-4e62-a446-5a37f4806394"},"vehicle_type_id":"4","last_reported":1715890084,"current_range_meters":0,"station_id":"ce4bhap2rcd13ifvqek0","pricing_plan_id":"cebpf4jnsgd1na2vs0mg"},{"bike_id":"e5861718-3469-46a3-a23b-b83fa0255d34","system_id":"levelo_inurba_marseille","lat":43.294162,"lon":5.386292,"is_reserved":false,"is_disabled":false,"rental_uris":{"android":"levelo://app?vid=e5861718-3469-46a3-a23b-b83fa0255d34","ios":"levelo://app?vid=e5861718-3469-46a3-a23b-b83fa0255d34"},"vehicle_type_id":"4","last_reported":1715890084,"current_range_meters":31200,"station_id":"ce4bh2h2rcd13ifvqdh0","pricing_plan_id":"cebpf4jnsgd1na2vs0mg"},{"bike_id":"e5222ba1-abc4-4684-a4d2-876916f2574e","system_id":"levelo_inurba_marseille","lat":43.29421,"lon":5.38622,"is_reserved":false,"is_disabled":false,"rental_uris":{"android":"levelo://app?vid=e5222ba1-abc4-4684-a4d2-876916f2574e","ios":"levelo://app?vid=e5222ba1-abc4-4684-a4d2-876916f2574e"},"vehicle_type_id":"4","last_reported":1715890084,"current_range_meters":400,"station_id":"ce4bh2h2rcd13ifvqdh0","pricing_plan_id":"cebpf4jnsgd1na2vs0mg"},{"bike_id":"5e440368-1534-4d35-8228-221b73b47f73","system_id":"levelo_inurba_marseille","lat":43.294197,"lon":5.386224,"is_reserved":false,"is_disabled":false,"rental_uris":{"android":"levelo://app?vid=5e440368-1534-4d35-8228-221b73b47f73","ios":"levelo://app?vid=5e440368-1534-4d35-8228-221b73b47f73"},"vehicle_type_id":"4","last_reported":1715890084,"current_range_meters":29600,"station_id":"ce4bh2h2rcd13ifvqdh0","pricing_plan_id":"cebpf4jnsgd1na2vs0mg"},{"bike_id":"720a33ad-1df1-4224-ab32-8a6b393c8c08","system_id":"levelo_inurba_marseille","lat":43.29422,"lon":5.38628,"is_reserved":false,"is_disabled":false,"rental_uris":{"android":"levelo://app?vid=720a33ad-1df1-4224-ab32-8a6b393c8c08","ios":"levelo://app?vid=720a33ad-1df1-4224-ab32-8a6b393c8c08"},"vehicle_type_id":"4","last_reported":1715890084,"current_range_meters":28000,"station_id":"","pricing_plan_id":"cebpf4jnsgd1na2vs0mg"},{"bike_id":"f5ca18e2-a906-453c-b3a9-8cfc58e55ffb","system_id":"levelo_inurba_marseille","lat":43.29419,"lon":5.386237,"is_reserved":false,"is_disabled":false,"rental_uris":{"android":"levelo://app?vid=f5ca18e2-a906-453c-b3a9-8cfc58e55ffb","ios":"levelo://app?vid=f5ca18e2-a906-453c-b3a9-8cfc58e55ffb"},"vehicle_type_id":"4","last_reported":1715890084,"current_range_meters":1200,"station_id":"ce4bh2h2rcd13ifvqdh0","pricing_plan_id":"cebpf4jnsgd1na2vs0mg"},{"bike_id":"f88d0134-7d05-4f64-ba05-95a7c709e31e","system_id":"levelo_inurba_marseille","lat":43.29421,"lon":5.38628,"is_reserved":false,"is_disabled":false,"rental_uris":{"android":"levelo://app?vid=f88d0134-7d05-4f64-ba05-95a7c709e31e","ios":"levelo://app?vid=f88d0134-7d05-4f64-ba05-95a7c709e31e"},"vehicle_type_id":"4","last_reported":1715890084,"current_range_meters":8800,"station_id":"ce4bh2h2rcd13ifvqdh0","pricing_plan_id":"cebpf4jnsgd1na2vs0mg"},{"bike_id":"03a9cd01-508b-4ca9-a0b5-e47690d9052e","system_id":"levelo_inurba_marseille","lat":43.29415,"lon":5.3862,"is_reserved":false,"is_disabled":false,"rental_uris":{"android":"levelo://app?vid=03a9cd01-508b-4ca9-a0b5-e47690d9052e","ios":"levelo://app?vid=03a9cd01-508b-4ca9-a0b5-e47690d9052e"},"vehicle_type_id":"4","last_reported":1715890084,"current_range_meters":2400,"station_id":"ce4bh2h2rcd13ifvqdh0","pricing_plan_id":"cebpf4jnsgd1na2vs0mg"},{"bike_id":"92fccd29-9761-434f-8d17-f41d2117827a","system_id":"levelo_inurba_marseille","lat":43.29415,"lon":5.38623,"is_reserved":false,"is_disabled":false,"rental_uris":{"android":"levelo://app?vid=92fccd29-9761-434f-8d17-f41d2117827a","ios":"levelo://app?vid=92fccd29-9761-434f-8d17-f41d2117827a"},"vehicle_type_id":"4","last_reported":1715890084,"current_range_meters":4800,"station_id":"ce4bh2h2rcd13ifvqdh0","pricing_plan_id":"cebpf4jnsgd1na2vs0mg"},{"bike_id":"546480af-9be5-49e0-bd0a-fe47d3c5015c","system_id":"levelo_inurba_marseille","lat":43.29417,"lon":5.38627,"is_reserved":false,"is_disabled":false,"rental_uris":{"android":"levelo://app?vid=546480af-9be5-49e0-bd0a-fe47d3c5015c","ios":"levelo://app?vid=546480af-9be5-49e0-bd0a-fe47d3c5015c"},"vehicle_type_id":"4","last_reported":1715890084,"current_range_meters":28400,"station_id":"ce4bh2h2rcd13ifvqdh0","pricing_plan_id":"cebpf4jnsgd1na2vs0mg"},{"bike_id":"e0eafe54-ef80-47e1-9405-e295550653fd","system_id":"levelo_inurba_marseille","lat":43.294162,"lon":5.386292,"is_reserved":false,"is_disabled":false,"rental_uris":{"android":"levelo://app?vid=e0eafe54-ef80-47e1-9405-e295550653fd","ios":"levelo://app?vid=e0eafe54-ef80-47e1-9405-e295550653fd"},"vehicle_type_id":"4","last_reported":1715890084,"current_range_meters":12800,"station_id":"ce4bh2h2rcd13ifvqdh0","pricing_plan_id":"cebpf4jnsgd1na2vs0mg"},{"bike_id":"49a12974-2d57-4970-ba9d-c616acbf5e8c","system_id":"levelo_inurba_marseille","lat":43.294156,"lon":5.386289,"is_reserved":false,"is_disabled":false,"rental_uris":{"android":"levelo://app?vid=49a12974-2d57-4970-ba9d-c616acbf5e8c","ios":"levelo://app?vid=49a12974-2d57-4970-ba9d-c616acbf5e8c"},"vehicle_type_id":"4","last_reported":1715890084,"current_range_meters":400,"station_id":"ce4bh2h2rcd13ifvqdh0","pricing_plan_id":"cebpf4jnsgd1na2vs0mg"},{"bike_id":"b757d21d-8ed1-4768-adb0-e1c6608d2799","system_id":"levelo_inurba_marseille","lat":43.29415,"lon":5.38628,"is_reserved":false,"is_disabled":false,"rental_uris":{"android":"levelo://app?vid=b757d21d-8ed1-4768-adb0-e1c6608d2799","ios":"levelo://app?vid=b757d21d-8ed1-4768-adb0-e1c6608d2799"},"vehicle_type_id":"4","last_reported":1715890084,"current_range_meters":30800,"station_id":"ce4bh2h2rcd13ifvqdh0","pricing_plan_id":"cebpf4jnsgd1na2vs0mg"},{"bike_id":"fa51e096-2b82-4218-9d36-5f3d935aea43","system_id":"levelo_inurba_marseille","lat":43.29417,"lon":5.38632,"is_reserved":false,"is_disabled":false,"rental_uris":{"android":"levelo://app?vid=fa51e096-2b82-4218-9d36-5f3d935aea43","ios":"levelo://app?vid=fa51e096-2b82-4218-9d36-5f3d935aea43"},"vehicle_type_id":"4","last_reported":1715890084,"current_range_meters":4000,"station_id":"ce4bh2h2rcd13ifvqdh0","pricing_plan_id":"cebpf4jnsgd1na2vs0mg"},{"bike_id":"513b8b0c-572b-4079-8026-d32e9adad40d","system_id":"levelo_inurba_marseille","lat":43.29416,"lon":5.38632,"is_reserved":false,"is_disabled":false,"rental_uris":{"android":"levelo://app?vid=513b8b0c-572b-4079-8026-d32e9adad40d","ios":"levelo://app?vid=513b8b0c-572b-4079-8026-d32e9adad40d"},"vehicle_type_id":"4","last_reported":1715890084,"current_range_meters":14800,"station_id":"ce4bh2h2rcd13ifvqdh0","pricing_plan_id":"cebpf4jnsgd1na2vs0mg"},{"bike_id":"e52f9899-caf2-4265-8700-6e57275b97cd","system_id":"levelo_inurba_marseille","lat":43.289184,"lon":5.366408,"is_reserved":false,"is_disabled":false,"rental_uris":{"android":"levelo://app?vid=e52f9899-caf2-4265-8700-6e57275b97cd","ios":"levelo://app?vid=e52f9899-caf2-4265-8700-6e57275b97cd"},"vehicle_type_id":"4","last_reported":1715890084,"current_range_meters":4800,"station_id":"ce4bhap2rcd13ifvqek0","pricing_plan_id":"cebpf4jnsgd1na2vs0mg"},{"bike_id":"b5a43a95-aa42-499b-b624-e8ff361fdcb7","system_id":"levelo_inurba_marseille","lat":43.289468,"lon":5.363719,"is_reserved":false,"is_disabled":false,"rental_uris":{"android":"levelo://app?vid=b5a43a95-aa42-499b-b624-e8ff361fdcb7","ios":"levelo://app?vid=b5a43a95-aa42-499b-b624-e8ff361fdcb7"},"vehicle_type_id":"4","last_reported":1715890084,"current_range_meters":15600,"station_id":"ce4bhc92rcd13ifvqetg","pricing_plan_id":"cebpf4jnsgd1na2vs0mg"},{"bike_id":"a29003c1-dfda-4acd-91d7-5792273780ef","system_id":"levelo_inurba_marseille","lat":43.29412,"lon":5.38631,"is_reserved":false,"is_disabled":false,"rental_uris":{"android":"levelo://app?vid=a29003c1-dfda-4acd-91d7-5792273780ef","ios":"levelo://app?vid=a29003c1-dfda-4acd-91d7-5792273780ef"},"vehicle_type_id":"4","last_reported":1715890084,"current_range_meters":26800,"station_id":"ce4bh2h2rcd13ifvqdh0","pricing_plan_id":"cebpf4jnsgd1na2vs0mg"},{"bike_id":"52964f19-0a56-4dc5-9461-1f08377c988b","system_id":"levelo_inurba_marseille","lat":43.292644,"lon":5.384257,"is_reserved":false,"is_disabled":false,"rental_uris":{"android":"levelo://app?vid=52964f19-0a56-4dc5-9461-1f08377c988b","ios":"levelo://app?vid=52964f19-0a56-4dc5-9461-1f08377c988b"},"vehicle_type_id":"4","last_reported":1715890084,"current_range_meters":16400,"station_id":"ce4bh692rcd13ifvqea0","pricing_plan_id":"cebpf4jnsgd1na2vs0mg"},{"bike_id":"9f1b9d0b-84ee-45fb-ae7a-f126ee33d3de","system_id":"levelo_inurba_marseille","lat":43.289184,"lon":5.366408,"is_reserved":false,"is_disabled":false,"rental_uris":{"android":"levelo://app?vid=9f1b9d0b-84ee-45fb-ae7a-f126ee33d3de","ios":"levelo://app?vid=9f1b9d0b-84ee-45fb-ae7a-f126ee33d3de"},"vehicle_type_id":"4","last_reported":1715890084,"current_range_meters":800,"station_id":"ce4bhap2rcd13ifvqek0","pricing_plan_id":"cebpf4jnsgd1na2vs0mg"},{"bike_id":"74f0db2d-e23a-4cd6-a1c6-4d699a803994","system_id":"levelo_inurba_marseille","lat":43.2941,"lon":5.38639,"is_reserved":false,"is_disabled":false,"rental_uris":{"android":"levelo://app?vid=74f0db2d-e23a-4cd6-a1c6-4d699a803994","ios":"levelo://app?vid=74f0db2d-e23a-4cd6-a1c6-4d699a803994"},"vehicle_type_id":"4","last_reported":1715890084,"current_range_meters":28400,"station_id":"ce4bh2h2rcd13ifvqdh0","pricing_plan_id":"cebpf4jnsgd1na2vs0mg"},{"bike_id":"41b1ba4e-26f3-4e6e-a08f-16dec0974233","system_id":"levelo_inurba_marseille","lat":43.289376,"lon":5.363959,"is_reserved":false,"is_disabled":false,"rental_uris":{"android":"levelo://app?vid=41b1ba4e-26f3-4e6e-a08f-16dec0974233","ios":"levelo://app?vid=41b1ba4e-26f3-4e6e-a08f-16dec0974233"},"vehicle_type_id":"4","last_reported":1715890084,"current_range_meters":0,"station_id":"ce4bhc92rcd13ifvqetg","pricing_plan_id":"cebpf4jnsgd1na2vs0mg"},{"bike_id":"402627f4-f78b-40c7-aa7b-cec152f9993e","system_id":"levelo_inurba_marseille","lat":43.30271,"lon":5.396315,"is_reserved":false,"is_disabled":false,"rental_uris":{"android":"levelo://app?vid=402627f4-f78b-40c7-aa7b-cec152f9993e","ios":"levelo://app?vid=402627f4-f78b-40c7-aa7b-cec152f9993e"},"vehicle_type_id":"4","last_reported":1715890084,"current_range_meters":14000,"station_id":"","pricing_plan_id":"cebpf4jnsgd1na2vs0mg"},{"bike_id":"e22b0da0-4b16-4396-a410-65a9a4de4ebc","system_id":"levelo_inurba_marseille","lat":43.292644,"lon":5.384257,"is_reserved":false,"is_disabled":false,"rental_uris":{"android":"levelo://app?vid=e22b0da0-4b16-4396-a410-65a9a4de4ebc","ios":"levelo://app?vid=e22b0da0-4b16-4396-a410-65a9a4de4ebc"},"vehicle_type_id":"4","last_reported":1715890084,"current_range_meters":9200,"station_id":"ce4bh692rcd13ifvqea0","pricing_plan_id":"cebpf4jnsgd1na2vs0mg"},{"bike_id":"1d902572-774c-4669-b7ff-40032d18e10a","system_id":"levelo_inurba_marseille","lat":43.292695,"lon":5.38438,"is_reserved":false,"is_disabled":false,"rental_uris":{"android":"levelo://app?vid=1d902572-774c-4669-b7ff-40032d18e10a","ios":"levelo://app?vid=1d902572-774c-4669-b7ff-40032d18e10a"},"vehicle_type_id":"4","last_reported":1715890084,"current_range_meters":5600,"station_id":"ce4bh692rcd13ifvqea0","pricing_plan_id":"cebpf4jnsgd1na2vs0mg"},{"bike_id":"98c9fe07-af21-4d29-b98f-27dd62852f3e","system_id":"levelo_inurba_marseille","lat":43.29259,"lon":5.38428,"is_reserved":false,"is_disabled":false,"rental_uris":{"android":"levelo://app?vid=98c9fe07-af21-4d29-b98f-27dd62852f3e","ios":"levelo://app?vid=98c9fe07-af21-4d29-b98f-27dd62852f3e"},"vehicle_type_id":"4","last_reported":1715890084,"current_range_meters":0,"station_id":"ce4bh692rcd13ifvqea0","pricing_plan_id":"cebpf4jnsgd1na2vs0mg"},{"bike_id":"36380cab-5a11-45cd-b406-736a8f607549","system_id":"levelo_inurba_marseille","lat":43.292644,"lon":5.384257,"is_reserved":false,"is_disabled":false,"rental_uris":{"android":"levelo://app?vid=36380cab-5a11-45cd-b406-736a8f607549","ios":"levelo://app?vid=36380cab-5a11-45cd-b406-736a8f607549"},"vehicle_type_id":"4","last_reported":1715890084,"current_range_meters":20000,"station_id":"ce4bh692rcd13ifvqea0","pricing_plan_id":"cebpf4jnsgd1na2vs0mg"},{"bike_id":"09337310-6798-4c9d-8555-1a2e0f434a47","system_id":"levelo_inurba_marseille","lat":43.292644,"lon":5.384257,"is_reserved":false,"is_disabled":false,"rental_uris":{"android":"levelo://app?vid=09337310-6798-4c9d-8555-1a2e0f434a47","ios":"levelo://app?vid=09337310-6798-4c9d-8555-1a2e0f434a47"},"vehicle_type_id":"4","last_reported":1715890084,"current_range_meters":7200,"station_id":"ce4bh692rcd13ifvqea0","pricing_plan_id":"cebpf4jnsgd1na2vs0mg"},{"bike_id":"53e3c99e-125d-4c91-81ed-069104380e89","system_id":"levelo_inurba_marseille","lat":43.29269,"lon":5.38454,"is_reserved":false,"is_disabled":false,"rental_uris":{"android":"levelo://app?vid=53e3c99e-125d-4c91-81ed-069104380e89","ios":"levelo://app?vid=53e3c99e-125d-4c91-81ed-069104380e89"},"vehicle_type_id":"4","last_reported":1715890084,"current_range_meters":0,"station_id":"ce4bh692rcd13ifvqea0","pricing_plan_id":"cebpf4jnsgd1na2vs0mg"},{"bike_id":"7da9a42c-15f7-4aa9-88fb-ebf0b5ffa253","system_id":"levelo_inurba_marseille","lat":43.29264,"lon":5.384435,"is_reserved":false,"is_disabled":false,"rental_uris":{"android":"levelo://app?vid=7da9a42c-15f7-4aa9-88fb-ebf0b5ffa253","ios":"levelo://app?vid=7da9a42c-15f7-4aa9-88fb-ebf0b5ffa253"},"vehicle_type_id":"4","last_reported":1715890084,"current_range_meters":0,"station_id":"ce4bh692rcd13ifvqea0","pricing_plan_id":"cebpf4jnsgd1na2vs0mg"},{"bike_id":"20f6076f-7dae-4bea-af3a-4a561ce53ada","system_id":"levelo_inurba_marseille","lat":43.292608,"lon":5.384395,"is_reserved":false,"is_disabled":false,"rental_uris":{"android":"levelo://app?vid=20f6076f-7dae-4bea-af3a-4a561ce53ada","ios":"levelo://app?vid=20f6076f-7dae-4bea-af3a-4a561ce53ada"},"vehicle_type_id":"4","last_reported":1715890084,"current_range_meters":0,"station_id":"ce4bh692rcd13ifvqea0","pricing_plan_id":"cebpf4jnsgd1na2vs0mg"},{"bike_id":"1818022c-24ff-46e1-b197-8f627421f230","system_id":"levelo_inurba_marseille","lat":43.304296,"lon":5.397513,"is_reserved":false,"is_disabled":false,"rental_uris":{"android":"levelo://app?vid=1818022c-24ff-46e1-b197-8f627421f230","ios":"levelo://app?vid=1818022c-24ff-46e1-b197-8f627421f230"},"vehicle_type_id":"4","last_reported":1715890084,"current_range_meters":3600,"station_id":"ce4bh092rcd13ifvqd20","pricing_plan_id":"cebpf4jnsgd1na2vs0mg"},