{"last_updated":1711800681,"ttl":30,"version":"2.2","data":{"bikes":[{"bike_id":"8b13a83b-a79a-47ef-bdff-fdb74d01c4c6","system_id":"levelo_inurba_marseille","lat":43.31341,"lon":5.367098,"is_reserved":false,"is_disabled":false,"rental_uris":{"android":"levelo://app?vid=8b13a83b-a79a-47ef-bdff-fdb74d01c4c6","ios":"levelo://app?vid=8b13a83b-a79a-47ef-bdff-fdb74d01c4c6"},"vehicle_type_id":"4","last_reported":1711800681,"current_range_meters":26400,"station_id":"ce4bgr92rcd13ifvqc6g","pricing_plan_id":"cebpf4jnsgd1na2vs0mg"},{"bike_id":"cbb5fdc6-6f1b-4cbd-a00c-627e85c497a6","system_id":"levelo_inurba_marseille","lat":43.312239,"lon":5.368562,"is_reserved":false,"is_disabled":false,"rental_uris":{"android":"levelo://app?vid=cbb5fdc6-6f1b-4cbd-a00c-627e85c497a6","ios":"levelo://app?vid=cbb5fdc6-6f1b-4cbd-a00c-627e85c497a6"},"vehicle_type_id":"4","last_reported":1711800681,"current_range_meters":30000,"station_id":"ce4bgl92rcd13ifvqbq0","pricing_plan_id":"cebpf4jnsgd1na2vs0mg"},{"bike_id":"32b9863d-41ab-48b0-84f3-5e27d410c43f","system_id":"levelo_inurba_marseille","lat":43.312239,"lon":5.368562,"is_reserved":false,"is_disabled":false,"rental_uris":{"android":"levelo://app?vid=32b9863d-41ab-48b0-84f3-5e27d410c43f","ios":"levelo://app?vid=32b9863d-41ab-48b0-84f3-5e27d410c43f"},"vehicle_type_id":"4","last_reported":1711800681,"current_range_meters":22400,"station_id":"ce4bgl92rcd13ifvqbq0","pricing_plan_id":"cebpf4jnsgd1na2vs0mg"},{"bike_id":"6944e138-2f53-4ac0-9f2d-86f20491b7c9","system_id":"levelo_inurba_marseille","lat":43.312239,"lon":5.368562,"is_reserved":false,"is_disabled":false,"rental_uris":{"android":"levelo://app?vid=6944e138-2f53-4ac0-9f2d-86f20491b7c9","ios":"levelo://app?vid=6944e138-2f53-4ac0-9f2d-86f20491b7c9"},"vehicle_type_id":"4","last_reported":1711800681,"current_range_meters":24800,"station_id":"ce4bgl92rcd13ifvqbq0","pricing_plan_id":"cebpf4jnsgd1na2vs0mg"},{"bike_id":"53734418-90e3-4e76-82d5-97fd20e24dfa","system_id":"levelo_inurba_marseille","lat":43.312239,"lon":5.368562,"is_reserved":false,"is_disabled":false,"rental_uris":{"android":"levelo://app?vid=53734418-90e3-4e76-82d5-97fd20e24dfa","ios":"levelo://app?vid=53734418-90e3-4e76-82d5-97fd20e24dfa"},"vehicle_type_id":"4","last_reported":1711800681,"current_range_meters":12800,"station_id":"ce4bgl92rcd13ifvqbq0","pricing_plan_id":"cebpf4jnsgd1na2vs0mg"},{"bike_id":"f6242d56-4455-4fba-a4dd-37d52101dc00","system_id":"levelo_inurba_marseille","lat":43.312239,"lon":5.368562,"is_reserved":false,"is_disabled":false,"rental_uris":{"android":"levelo://app?vid=f6242d56-4455-4fba-a4dd-37d52101dc00","ios":"levelo://app?vid=f6242d56-4455-4fba-a4dd-37d52101dc00"},"vehicle_type_id":"4","last_reported":1711800681,"current_range_meters":23600,"station_id":"ce4bgl92rcd13ifvqbq0","pricing_plan_id":"cebpf4jnsgd1na2vs0mg"},{"bike_id":"97f59fd8-2076-4bbb-86da-d383514de1eb","system_id":"levelo_inurba_marseille","lat":43.312239,"lon":5.368562,"is_reserved":false,"is_disabled":false,"rental_uris":{"android":"levelo://app?vid=97f59fd8-2076-4bbb-86da-d383514de1eb","ios":"levelo://app?vid=97f59fd8-2076-4bbb-86da-d383514de1eb"},"vehicle_type_id":"4","last_reported":1711800681,"current_range_meters":28800,"station_id":"ce4bgl92rcd13ifvqbq0","pricing_plan_id":"cebpf4jnsgd1na2vs0mg"},{"bike_id":"f1e4e62b-094d-4a8d-8c8a-e9e3f79c46b6","system_id":"levelo_inurba_marseille","lat":43.296935,"lon":5.376544,"is_reserved":false,"is_disabled":false,"rental_uris":{"android":"levelo://app?vid=f1e4e62b-094d-4a8d-8c8a-e9e3f79c46b6","ios":"levelo://app?vid=f1e4e62b-094d-4a8d-8c8a-e9e3f79c46b6"},"vehicle_type_id":"4","last_reported":1711800681,"current_range_meters":6000,"station_id":"ce4bgkh2rcd13ifvqbl0","pricing_plan_id":"cebpf4jnsgd1na2vs0mg"},{"bike_id":"1f0a0345-d75c-45a0-b3c8-e79b010188d1","system_id":"levelo_inurba_marseille","lat":43.309076,"lon":5.368465,"is_reserved":false,"is_disabled":false,"rental_uris":{"android":"levelo://app?vid=1f0a0345-d75c-45a0-b3c8-e79b010188d1","ios":"levelo://app?vid=1f0a0345-d75c-45a0-b3c8-e79b010188d1"},"vehicle_type_id":"4","last_reported":1711800681,"current_range_meters":24400,"station_id":"ce4bgn92rcd13ifvqbvg","pricing_plan_id":"cebpf4jnsgd1na2vs0mg"},{"bike_id":"edce2ee1-29d9-4948-9d48-7fe3f870004b","system_id":"levelo_inurba_marseille","lat":43.31488,"lon":5.37301,"is_reserved":false,"is_disabled":false,"rental_uris":{"android":"levelo://app?vid=edce2ee1-29d9-4948-9d48-7fe3f870004b","ios":"levelo://app?vid=edce2ee1-29d9-4948-9d48-7fe3f870004b"},"vehicle_type_id":"4","last_reported":1711800681,"current_range_meters":19200,"station_id":"ce4bgt12rcd13ifvqcd0","pricing_plan_id":"cebpf4jnsgd1na2vs0mg"},{"bike_id":"434f9364-0c67-453c-b00d-822cd882a909","system_id":"levelo_inurba_marseille","lat":43.305368,"lon":5.367343,"is_reserved":false,"is_disabled":false,"rental_uris":{"android":"levelo://app?vid=434f9364-0c67-453c-b00d-822cd882a909","ios":"levelo://app?vid=434f9364-0c67-453c-b00d-822cd882a909"},"vehicle_type_id":"4","last_reported":1711800681,"current_range_meters":19600,"station_id":"ce4bgrp2rcd13ifvqc9g","pricing_plan_id":"cebpf4jnsgd1na2vs0mg"},{"bike_id":"db8b105a-a2ea-40b8-bfa6-bbe8ac352999","system_id":"levelo_inurba_marseille","lat":43.305368,"lon":5.367343,"is_reserved":false,"is_disabled":false,"rental_uris":{"android":"levelo://app?vid=db8b105a-a2ea-40b8-bfa6-bbe8ac352999","ios":"levelo://app?vid=db8b105a-a2ea-40b8-bfa6-bbe8ac352999"},"vehicle_type_id":"4","last_reported":1711800681,"current_range_meters":400,"station_id":"ce4bgrp2rcd13ifvqc9g","pricing_plan_id":"cebpf4jnsgd1na2vs0mg"},{"bike_id":"102f4575-d9fa-417a-90ee-589587119c2a","system_id":"levelo_inurba_marseille","lat":43.305368,"lon":5.367343,"is_reserved":false,"is_disabled":false,"rental_uris":{"android":"levelo://app?vid=102f4575-d9fa-417a-90ee-589587119c2a","ios":"levelo://app?vid=102f4575-d9fa-417a-90ee-589587119c2a"},"vehicle_type_id":"4","last_reported":1711800681,"current_range_meters":14000,"station_id":"ce4bgrp2rcd13ifvqc9g","pricing_plan_id":"cebpf4jnsgd1na2vs0mg"},{"bike_id":"7238ae9b-e41f-4464-933c-4464d39c2a70","system_id":"levelo_inurba_marseille","lat":43.30557,"lon":5.36529,"is_reserved":false,"is_disabled":false,"rental_uris":{"android":"levelo://app?vid=7238ae9b-e41f-4464-933c-4464d39c2a70","ios":"levelo://app?vid=7238ae9b-e41f-4464-933c-4464d39c2a70"},"vehicle_type_id":"4","last_reported":1711800681,"current_range_meters":20800,"station_id":"ce4bgs12rcd13ifvqcag","pricing_plan_id":"cebpf4jnsgd1na2vs0mg"},{"bike_id":"6b48ef7b-463f-44dd-8c77-733c88a4dd55","system_id":"levelo_inurba_marseille","lat":43.305368,"lon":5.367343,"is_reserved":false,"is_disabled":false,"rental_uris":{"android":"levelo://app?vid=6b48ef7b-463f-44dd-8c77-733c88a4dd55","ios":"levelo://app?vid=6b48ef7b-463f-44dd-8c77-733c88a4dd55"},"vehicle_type_id":"4","last_reported":1711800681,"current_range_meters":18800,"station_id":"ce4bgrp2rcd13ifvqc9g","pricing_plan_id":"cebpf4jnsgd1na2vs0mg"},{"bike_id":"b1f83896-e5d3-43c2-862a-6935b3c79510","system_id":"levelo_inurba_marseille","lat":43.305368,"lon":5.367343,"is_reserved":false,"is_disabled":false,"rental_uris":{"android":"levelo://app?vid=b1f83896-e5d3-43c2-862a-6935b3c79510","ios":"levelo://app?vid=b1f83896-e5d3-43c2-862a-6935b3c79510"},"vehicle_type_id":"4","last_reported":1711800681,"current_range_meters":20800,"station_id":"ce4bgrp2rcd13ifvqc9g","pricing_plan_id":"cebpf4jnsgd1na2vs0mg"},{"bike_id":"72a0710e-ec2d-435e-80f1-76f64f2c79da","system_id":"levelo_inurba_marseille","lat":43.30551,"lon":5.36547,"is_reserved":false,"is_disabled":false,"rental_uris":{"android":"levelo://app?vid=72a0710e-ec2d-435e-80f1-76f64f2c79da","ios":"levelo://app?vid=72a0710e-ec2d-435e-80f1-76f64f2c79da"},"vehicle_type_id":"4","last_reported":1711800681,"current_range_meters":2800,"station_id":"ce4bgs12rcd13ifvqcag","pricing_plan_id":"cebpf4jnsgd1na2vs0mg"},{"bike_id":"8f26f6e3-6845-471d-87c7-ffed3070fcdd","system_id":"levelo_inurba_marseille","lat":43.30537,"lon":5.367345,"is_reserved":false,"is_disabled":false,"rental_uris":{"android":"levelo://app?vid=8f26f6e3-6845-471d-87c7-ffed3070fcdd","ios":"levelo://app?vid=8f26f6e3-6845-471d-87c7-ffed3070fcdd"},"vehicle_type_id":"4","last_reported":1711800681,"current_range_meters":26800,"station_id":"ce4bgrp2rcd13ifvqc9g","pricing_plan_id":"cebpf4jnsgd1na2vs0mg"},{"bike_id":"62eb2ca6-05f2-4417-9fbd-a4cda7323997","system_id":"levelo_inurba_marseille","lat":43.30537,"lon":5.36721,"is_reserved":false,"is_disabled":false,"rental_uris":{"android":"levelo://app?vid=62eb2ca6-05f2-4417-9fbd-a4cda7323997","ios":"levelo://app?vid=62eb2ca6-05f2-4417-9fbd-a4cda7323997"},"vehicle_type_id":"4","last_reported":1711800681,"current_range_meters":23600,"station_id":"ce4bgrp2rcd13ifvqc9g","pricing_plan_id":"cebpf4jnsgd1na2vs0mg"},{"bike_id":"6c0e618c-61a9-4970-916d-d8461846f16a","system_id":"levelo_inurba_marseille","lat":43.305714,"lon":5.365633,"is_reserved":false,"is_disabled":false,"rental_uris":{"android":"levelo://app?vid=6c0e618c-61a9-4970-916d-d8461846f16a","ios":"levelo://app?vid=6c0e618c-61a9-4970-916d-d8461846f16a"},"vehicle_type_id":"4","last_reported":1711800681,"current_range_meters":24000,"station_id":"ce4bgs12rcd13ifvqcag","pricing_plan_id":"cebpf4jnsgd1na2vs0mg"},{"bike_id":"3a09f8dd-1a62-4bdc-a171-1f4a4263964d","system_id":"levelo_inurba_marseille","lat":43.305714,"lon":5.365633,"is_reserved":false,"is_disabled":false,"rental_uris":{"android":"levelo://app?vid=3a09f8dd-1a62-4bdc-a171-1f4a4263964d","ios":"levelo://app?vid=3a09f8dd-1a62-4bdc-a171-1f4a4263964d"},"vehicle_type_id":"4","last_reported":1711800681,"current_range_meters":14800,"station_id":"ce4bgs12rcd13ifvqcag","pricing_plan_id":"cebpf4jnsgd1na2vs0mg"},{"bike_id":"9ec74220-8747-4368-af33-c8781c36f048","system_id":"levelo_inurba_marseille","lat":43.30534,"lon":5.36697,"is_reserved":false,"is_disabled":false,"rental_uris":{"android":"levelo://app?vid=9ec74220-8747-4368-af33-c8781c36f048","ios":"levelo://app?vid=9ec74220-8747-4368-af33-c8781c36f048"},"vehicle_type_id":"4","last_reported":1711800681,"current_range_meters":13600,"station_id":"ce4bgrp2rcd13ifvqc9g","pricing_plan_id":"cebpf4jnsgd1na2vs0mg"},{"bike_id":"0cd0b489-6d87-47a2-a4fc-a0a7c579d407","system_id":"levelo_inurba_marseille","lat":43.305706,"lon":5.365654,"is_reserved":false,"is_disabled":false,"rental_uris":{"android":"levelo://app?vid=0cd0b489-6d87-47a2-a4fc-a0a7c579d407","ios":"levelo://app?vid=0cd0b489-6d87-47a2-a4fc-a0a7c579d407"},"vehicle_type_id":"4","last_reported":1711800681,"current_range_meters":1200,"station_id":"ce4bgs12rcd13ifvqcag","pricing_plan_id":"cebpf4jnsgd1na2vs0mg"},{"bike_id":"3ee743d4-663c-44b4-a63d-47f8eecf9382","system_id":"levelo_inurba_marseille","lat":43.305368,"lon":5.367343,"is_reserved":false,"is_disabled":false,"rental_uris":{"android":"levelo://app?vid=3ee743d4-663c-44b4-a63d-47f8eecf9382","ios":"levelo://app?vid=3ee743d4-663c-44b4-a63d-47f8eecf9382"},"vehicle_type_id":"4","last_reported":1711800681,"current_range_meters":18000,"station_id":"ce4bgrp2rcd13ifvqc9g","pricing_plan_id":"cebpf4jnsgd1na2vs0mg"},{"bike_id":"d7ce38ee-4dc9-4e8e-a058-9ed5d37039ce","system_id":"levelo_inurba_marseille","lat":43.305368,"lon":5.367343,"is_reserved":false,"is_disabled":false,"rental_uris":{"android":"levelo://app?vid=d7ce38ee-4dc9-4e8e-a058-9ed5d37039ce","ios":"levelo://app?vid=d7ce38ee-4dc9-4e8e-a058-9ed5d37039ce"},"vehicle_type_id":"4","last_reported":1711800681,"current_range_meters":21600,"station_id":"ce4bgrp2rcd13ifvqc9g","pricing_plan_id":"cebpf4jnsgd1na2vs0mg"},{"bike_id":"4cc071fb-133b-4e95-abbb-e0294598f9ad","system_id":"levelo_inurba_marseille","lat":43.305706,"lon":5.365654,"is_reserved":false,"is_disabled":false,"rental_uris":{"android":"levelo://app?vid=4cc071fb-133b-4e95-abbb-e0294598f9ad","ios":"levelo://app?vid=4cc071fb-133b-4e95-abbb-e0294598f9ad"},"vehicle_type_id":"4","last_reported":1711800681,"current_range_meters":4800,"station_id":"ce4bgs12rcd13ifvqcag","pricing_plan_id":"cebpf4jnsgd1na2vs0mg"},{"bike_id":"f2466371-52d8-4fca-af73-e24932b29fa3","system_id":"levelo_inurba_marseille","lat":43.305714,"lon":5.365633,"is_reserved":false,"is_disabled":false,"rental_uris":{"android":"levelo://app?vid=f2466371-52d8-4fca-af73-e24932b29fa3","ios":"levelo://app?vid=f2466371-52d8-4fca-af73-e24932b29fa3"},"vehicle_type_id":"4","last_reported":1711800681,"current_range_meters":22000,"station_id":"ce4bgs12rcd13ifvqcag","pricing_plan_id":"cebpf4jnsgd1na2vs0mg"},{"bike_id":"93cf9784-ed2a-4620-9c08-b3a775a43968","system_id":"levelo_inurba_marseille","lat":43.305368,"lon":5.367343,"is_reserved":false,"is_disabled":false,"rental_uris":{"android":"levelo://app?vid=93cf9784-ed2a-4620-9c08-b3a775a43968","ios":"levelo://app?vid=93cf9784-ed2a-4620-9c08-b3a775a43968"},"vehicle_type_id":"4","last_reported":1711800681,"current_range_meters":18000,"station_id":"ce4bgrp2rcd13ifvqc9g","pricing_plan_id":"cebpf4jnsgd1na2vs0mg"},{"bike_id":"3b928b7d-164f-4edf-865f-7d6d7bd31946","system_id":"levelo_inurba_marseille","lat":43.30536,"lon":5.36527,"is_reserved":false,"is_disabled":false,"rental_uris":{"android":"levelo://app?vid=3b928b7d-164f-4edf-865f-7d6d7bd31946","ios":"levelo://app?vid=3b928b7d-164f-4edf-865f-7d6d7bd31946"},"vehicle_type_id":"4","last_reported":1711800681,"current_range_meters":16000,"station_id":"ce4bgs12rcd13ifvqcag","pricing_plan_id":"cebpf4jnsgd1na2vs0mg"},{"bike_id":"1f00de1c-9ef3-40de-b419-c5509166455a","system_id":"levelo_inurba_marseille","lat":43.305706,"lon":5.365654,"is_reserved":false,"is_disabled":false,"rental_uris":{"android":"levelo://app?vid=1f00de1c-9ef3-40de-b419-c5509166455a","ios":"levelo://app?vid=1f00de1c-9ef3-40de-b419-c5509166455a"},"vehicle_type_id":"4","last_reported":1711800681,"current_range_meters":19200,"station_id":"ce4bgs12rcd13ifvqcag","pricing_plan_id":"cebpf4jnsgd1na2vs0mg"},{"bike_id":"415089d5-f0c6-4544-95b9-5a1ec01be9d7","system_id":"levelo_inurba_marseille","lat":43.305706,"lon":5.365654,"is_reserved":false,"is_disabled":false,"rental_uris":{"android":"levelo://app?vid=415089d5-f0c6-4544-95b9-5a1ec01be9d7","ios":"levelo://app?vid=415089d5-f0c6-4544-95b9-5a1ec01be9d7"},"vehicle_type_id":"4","last_reported":1711800681,"current_range_meters":18800,"station_id":"ce4bgs12rcd13ifvqcag","pricing_plan_id":"cebpf4jnsgd1na2vs0mg"},{"bike_id":"6781a2ce-a59e-4738-aa22-22b96e8afbb7","system_id":"levelo_inurba_marseille","lat":43.305706,"lon":5.365654,"is_reserved":false,"is_disabled":false,"rental_uris":{"android":"levelo://app?vid=6781a2ce-a59e-4738-aa22-22b96e8afbb7","ios":"levelo://app?vid=6781a2ce-a59e-4738-aa22-22b96e8afbb7"},"vehicle_type_id":"4","last_reported":1711800681,"current_range_meters":30800,"station_id":"ce4bgs12rcd13ifvqcag","pricing_plan_id":"cebpf4jnsgd1na2vs0mg"},{"bike_id":"dd73af6d-4798-40ce-9f0a-f44c7404ad28","system_id":"levelo_inurba_marseille","lat":43.305714,"lon":5.365633,"is_reserved":false,"is_disabled":false,"rental_uris":{"android":"levelo://app?vid=dd73af6d-4798-40ce-9f0a-f44c7404ad28","ios":"levelo://app?vid=dd73af6d-4798-40ce-9f0a-f44c7404ad28"},"vehicle_type_id":"4","last_reported":1711800681,"current_range_meters":1200,"station_id":"ce4bgs12rcd13ifvqcag","pricing_plan_id":"cebpf4jnsgd1na2vs0mg"},{"bike_id":"63f94a9f-7072-4490-a918-f03492e52543","system_id":"levelo_inurba_marseille","lat":43.305989,"lon":5.37225,"is_reserved":false,"is_disabled":false,"rental_uris":{"android":"levelo://app?vid=63f94a9f-7072-4490-a918-f03492e52543","ios":"levelo://app?vid=63f94a9f-7072-4490-a918-f03492e52543"},"vehicle_type_id":"4","last_reported":1711800681,"current_range_meters":22800,"station_id":"ce4bgqh2rcd13ifvqc4g","pricing_plan_id":"cebpf4jnsgd1na2vs0mg"},{"bike_id":"c19ee9b9-f6b7-4112-9874-ff358dc04295","system_id":"levelo_inurba_marseille","lat":43.31116,"lon":5.37755,"is_reserved":false,"is_disabled":false,"rental_uris":{"android":"levelo://app?vid=c19ee9b9-f6b7-4112-9874-ff358dc04295","ios":"levelo://app?vid=c19ee9b9-f6b7-4112-9874-ff358dc04295"},"vehicle_type_id":"4","last_reported":1711800681,"current_range_meters":30000,"station_id":"ce4bgt92rcd13ifvqcg0","pricing_plan_id":"cebpf4jnsgd1na2vs0mg"},{"bike_id":"d8da6680-d24c-4b71-97db-39fc30a9fe82","system_id":"levelo_inurba_marseille","lat":43.311125,"lon":5.377624,"is_reserved":false,"is_disabled":false,"rental_uris":{"android":"levelo://app?vid=d8da6680-d24c-4b71-97db-39fc30a9fe82","ios":"levelo://app?vid=d8da6680-d24c-4b71-97db-39fc30a9fe82"},"vehicle_type_id":"4","last_reported":1711800681,"current_range_meters":9200,"station_id":"ce4bgt92rcd13ifvqcg0","pricing_plan_id":"cebpf4jnsgd1na2vs0mg"},{"bike_id":"73e9e878-212e-4472-8a0b-6b6c2ef65605","system_id":"levelo_inurba_marseille","lat":43.311229,"lon":5.377729,"is_reserved":false,"is_disabled":false,"rental_uris":{"android":"levelo://app?vid=73e9e878-212e-4472-8a0b-6b6c2ef65605","ios":"levelo://app?vid=73e9e878-212e-4472-8a0b-6b6c2ef65605"},"vehicle_type_id":"4","last_reported":1711800681,"current_range_meters":22400,"station_id":"ce4bgt92rcd13ifvqcg0","pricing_plan_id":"cebpf4jnsgd1na2vs0mg"},{"bike_id":"13f5e8da-80c2-462c-b4fa-35905fc66667","system_id":"levelo_inurba_marseille","lat":43.307945,"lon":5.376487,"is_reserved":false,"is_disabled":false,"rental_uris":{"android":"levelo://app?vid=13f5e8da-80c2-462c-b4fa-35905fc66667","ios":"levelo://app?vid=13f5e8da-80c2-462c-b4fa-35905fc66667"},"vehicle_type_id":"4","last_reported":1711800681,"current_range_meters":4400,"station_id":"ce4bgv92rcd13ifvqcq0","pricing_plan_id":"cebpf4jnsgd1na2vs0mg"},{"bike_id":"69860b7b-0c59-4354-8479-509c443a22fa","system_id":"levelo_inurba_marseille","lat":43.307945,"lon":5.376487,"is_reserved":false,"is_disabled":false,"rental_uris":{"android":"levelo://app?vid=69860b7b-0c59-4354-8479-509c443a22fa","ios":"levelo://app?vid=69860b7b-0c59-4354-8479-509c443a22fa"},"vehicle_type_id":"4","last_reported":1711800681,"current_range_meters":22000,"station_id":"ce4bgv92rcd13ifvqcq0","pricing_plan_id":"cebpf4jnsgd1na2vs0mg"},{"bike_id":"bbfed310-f5ca-41c8-bf3a-f83cd6959697","system_id":"levelo_inurba_marseille","lat":43.313254,"lon":5.37881,"is_reserved":false,"is_disabled":false,"rental_uris":{"android":"levelo://app?vid=bbfed310-f5ca-41c8-bf3a-f83cd6959697","ios":"levelo://app?vid=bbfed310-f5ca-41c8-bf3a-f83cd6959697"},"vehicle_type_id":"4","last_reported":1711800681,"current_range_meters":28400,"station_id":"","pricing_plan_id":"cebpf4jnsgd1na2vs0mg"},{"bike_id":"6bc2ebb9-74bc-4b03-a4bd-c2bbdf97dfd7","system_id":"levelo_inurba_marseille","lat":43.317075,"lon":5.377367,"is_reserved":false,"is_disabled":false,"rental_uris":{"android":"levelo://app?vid=6bc2ebb9-74bc-4b03-a4bd-c2bbdf97dfd7","ios":"levelo://app?vid=6bc2ebb9-74bc-4b03-a4bd-c2bbdf97dfd7"},"vehicle_type_id":"4","last_reported":1711800681,"current_range_meters":22000,"station_id":"ce4bgth2rcd13ifvqch0","pricing_plan_id":"cebpf4jnsgd1na2vs0mg"},{"bike_id":"f9af9566-3d1c-43b1-8ac2-15187139fe38","system_id":"levelo_inurba_marseille","lat":43.315293,"lon":5.380349,"is_reserved":false,"is_disabled":false,"rental_uris":{"android":"levelo://app?vid=f9af9566-3d1c-43b1-8ac2-15187139fe38","ios":"levelo://app?vid=f9af9566-3d1c-43b1-8ac2-15187139fe38"},"vehicle_type_id":"4","last_reported":1711800681,"current_range_meters":27600,"station_id":"ce4bhsp2rcd13ifvqi50","pricing_plan_id":"cebpf4jnsgd1na2vs0mg"},{"bike_id":"557cd642-b8d7-4934-b71e-92272ae9d50d","system_id":"levelo_inurba_marseille","lat":43.303046,"lon":5.368981,"is_reserved":false,"is_disabled":false,"rental_uris":{"android":"levelo://app?vid=557cd642-b8d7-4934-b71e-92272ae9d50d","ios":"levelo://app?vid=557cd642-b8d7-4934-b71e-92272ae9d50d"},"vehicle_type_id":"4","last_reported":1711800681,"current_range_meters":27600,"station_id":"ce4bgqh2rcd13ifvqc5g","pricing_plan_id":"cebpf4jnsgd1na2vs0mg"},{"bike_id":"25e78763-48ee-45b6-9840-e6b52f100a8e","system_id":"levelo_inurba_marseille","lat":43.303046,"lon":5.368981,"is_reserved":false,"is_disabled":false,"rental_uris":{"android":"levelo://app?vid=25e78763-48ee-45b6-9840-e6b52f100a8e","ios":"levelo://app?vid=25e78763-48ee-45b6-9840-e6b52f100a8e"},"vehicle_type_id":"4","last_reported":1711800681,"current_range_meters":800,"station_id":"ce4bgqh2rcd13ifvqc5g","pricing_plan_id":"cebpf4jnsgd1na2vs0mg"},{"bike_id":"463c2c74-1116-4372-9eb6-9075f6e754e8","system_id":"levelo_inurba_marseille","lat":43.303046,"lon":5.368981,"is_reserved":false,"is_disabled":false,"rental_uris":{"android":"levelo://app?vid=463c2c74-1116-4372-9eb6-9075f6e754e8","ios":"levelo://app?vid=463c2c74-1116-4372-9eb6-9075f6e754e8"},"vehicle_type_id":"4","last_reported":1711800681,"current_range_meters":17600,"station_id":"ce4bgqh2rcd13ifvqc5g","pricing_plan_id":"cebpf4jnsgd1na2vs0mg"},{"bike_id":"a10e836b-740f-4bff-8563-f9dbd24389bd","system_id":"levelo_inurba_marseille","lat":43.30304,"lon":5.368987,"is_reserved":false,"is_disabled":false,"rental_uris":{"android":"levelo://app?vid=a10e836b-740f-4bff-8563-f9dbd24389bd","ios":"levelo://app?vid=a10e836b-740f-4bff-8563-f9dbd24389bd"},"vehicle_type_id":"4","last_reported":1711800681,"current_range_meters":26800,"station_id":"ce4bgqh2rcd13ifvqc5g","pricing_plan_id":"cebpf4jnsgd1na2vs0mg"},{"bike_id":"d5ed8948-78d1-4d3d-8236-d1af52814665","system_id":"levelo_inurba_marseille","lat":43.315289,"lon":5.380349,"is_reserved":false,"is_disabled":false,"rental_uris":{"android":"levelo://app?vid=d5ed8948-78d1-4d3d-8236-d1af52814665","ios":"levelo://app?vid=d5ed8948-78d1-4d3d-8236-d1af52814665"},"vehicle_type_id":"4","last_reported":1711800681,"current_range_meters":7200,"station_id":"ce4bhsp2rcd13ifvqi50","pricing_plan_id":"cebpf4jnsgd1na2vs0mg"},{"bike_id":"27f17514-212e-431a-b500-3228420e509d","system_id":"levelo_inurba_marseille","lat":43.315289,"lon":5.380349,"is_reserved":false,"is_disabled":false,"rental_uris":{"android":"levelo://app?vid=27f17514-212e-431a-b500-3228420e509d","ios":"levelo://app?vid=27f17514-212e-431a-b500-3228420e509d"},"vehicle_type_id":"4","last_reported":1711800681,"current_range_meters":31200,"station_id":"ce4bhsp2rcd13ifvqi50","pricing_plan_id":"cebpf4jnsgd1na2vs0mg"},{"bike_id":"09463fda-bdd8-4140-a7d1-db33a8dc9b22","system_id":"levelo_inurba_marseille","lat":43.315293,"lon":5.380349,"is_reserved":false,"is_disabled":false,"rental_uris":{"android":"levelo://app?vid=09463fda-bdd8-4140-a7d1-db33a8dc9b22","ios":"levelo://app?vid=09463fda-bdd8-4140-a7d1-db33a8dc9b22"},"vehicle_type_id":"4","last_reported":1711800681,"current_range_meters":26400,"station_id":"ce4bhsp2rcd13ifvqi50","pricing_plan_id":"cebpf4jnsgd1na2vs0mg"},{"bike_id":"7b4db143-407b-420f-baa7-6494a5536f74","system_id":"levelo_inurba_marseille","lat":43.302957,"lon":5.372327,"is_reserved":false,"is_disabled":false,"rental_uris":{"android":"levelo://app?vid=7b4db143-407b-420f-baa7-6494a5536f74","ios":"levelo://app?vid=7b4db143-407b-420f-baa7-6494a5536f74"},"vehicle_type_id":"4","last_reported":1711800681,"current_range_meters":23200,"station_id":"","pricing_plan_id":"cebpf4jnsgd1na2vs0mg"},{"bike_id":"67e5521f-cf93-473a-9ab8-cc692c39256d","system_id":"levelo_inurba_marseille","lat":43.301939,"lon":5.366286,"is_reserved":false,"is_disabled":false,"rental_uris":{"android":"levelo://app?vid=67e5521f-cf93-473a-9ab8-cc692c39256d","ios":"levelo://app?vid=67e5521f-cf93-473a-9ab8-cc692c39256d"},"vehicle_type_id":"4","last_reported":1711800681,"current_range_meters":16400,"station_id":"ce4bgrh2rcd13ifvqc8g","pricing_plan_id":"cebpf4jnsgd1na2vs0mg"},{"bike_id":"4fedd1d8-76f4-4705-a295-aba2ba8c2bc4","system_id":"levelo_inurba_marseille","lat":43.301935,"lon":5.36619,"is_reserved":false,"is_disabled":false,"rental_uris":{"android":"levelo://app?vid=4fedd1d8-76f4-4705-a295-aba2ba8c2bc4","ios":"levelo://app?vid=4fedd1d8-76f4-4705-a295-aba2ba8c2bc4"},"vehicle_type_id":"4","last_reported":1711800681,"current_range_meters":2000,"station_id":"ce4bgrh2rcd13ifvqc8g","pricing_plan_id":"cebpf4jnsgd1na2vs0mg"},{"bike_id":"837529a5-32dd-4e73-9a96-9cf1025fbfeb","system_id":"levelo_inurba_marseille","lat":43.301939,"lon":5.366286,"is_reserved":false,"is_disabled":false,"rental_uris":{"android":"levelo://app?vid=837529a5-32dd-4e73-9a96-9cf1025fbfeb","ios":"levelo://app?vid=837529a5-32dd-4e73-9a96-9cf1025fbfeb"},"vehicle_type_id":"4","last_reported":1711800681,"current_range_meters":23600,"station_id":"ce4bgrh2rcd13ifvqc8g","pricing_plan_id":"cebpf4jnsgd1na2vs0mg"},{"bike_id":"78f8b1bb-891a-4ec1-8365-9ff1a3d96eb0","system_id":"levelo_inurba_marseille","lat":43.301939,"lon":5.366286,"is_reserved":false,"is_disabled":false,"rental_uris":{"android":"levelo://app?vid=78f8b1bb-891a-4ec1-8365-9ff1a3d96eb0","ios":"levelo://app?vid=78f8b1bb-891a-4ec1-8365-9ff1a3d96eb0"},"vehicle_type_id":"4","last_reported":1711800681,"current_range_meters":1600,"station_id":"ce4bgrh2rcd13ifvqc8g","pricing_plan_id":"cebpf4jnsgd1na2vs0mg"},{"bike_id":"05c70344-c468-410c-ba12-23f8d14d71b0","system_id":"levelo_inurba_marseille","lat":43.301939,"lon":5.366286,"is_reserved":false,"is_disabled":false,"rental_uris":{"android":"levelo://app?vid=05c70344-c468-410c-ba12-23f8d14d71b0","ios":"levelo://app?vid=05c70344-c468-410c-ba12-23f8d14d71b0"},"vehicle_type_id":"4","last_reported":1711800681,"current_range_meters":26800,"station_id":"ce4bgrh2rcd13ifvqc8g","pricing_plan_id":"cebpf4jnsgd1na2vs0mg"},{"bike_id":"b199c428-7e78-421a-af3f-8359090d0c31","system_id":"levelo_inurba_marseille","lat":43.301939,"lon":5.366286,"is_reserved":false,"is_disabled":false,"rental_uris":{"android":"levelo://app?vid=b199c428-7e78-421a-af3f-8359090d0c31","ios":"levelo://app?vid=b199c428-7e78-421a-af3f-8359090d0c31"},"vehicle_type_id":"4","last_reported":1711800681,"current_range_meters":22400,"station_id":"ce4bgrh2rcd13ifvqc8g","pricing_plan_id":"cebpf4jnsgd1na2vs0mg"},{"bike_id":"c7ffee71-bd8d-48a3-bd89-ffe22f799605","system_id":"levelo_inurba_marseille","lat":43.30184,"lon":5.36607,"is_reserved":false,"is_disabled":false,"rental_uris":{"android":"levelo://app?vid=c7ffee71-bd8d-48a3-bd89-ffe22f799605","ios":"levelo://app?vid=c7ffee71-bd8d-48a3-bd89-ffe22f799605"},"vehicle_type_id":"4","last_reported":1711800681,"current_range_meters":1200,"station_id":"ce4bgrh2rcd13ifvqc8g","pricing_plan_id":"cebpf4jnsgd1na2vs0mg"},{"bike_id":"a60a17eb-5daa-4c71-ad02-d4aeec7f0bb5","system_id":"levelo_inurba_marseille","lat":43.301939,"lon":5.366286,"is_reserved":false,"is_disabled":false,"rental_uris":{"android":"levelo://app?vid=a60a17eb-5daa-4c71-ad02-d4aeec7f0bb5","ios":"levelo://app?vid=a60a17eb-5daa-4c71-ad02-d4aeec7f0bb5"},"vehicle_type_id":"4","last_reported":1711800681,"current_range_meters":27600,"station_id":"ce4bgrh2rcd13ifvqc8g","pricing_plan_id":"cebpf4jnsgd1na2vs0mg"},{"bike_id":"9008ee88-769a-46a9-a99a-080641a6e4a9","system_id":"levelo_inurba_marseille","lat":43.308012,"lon":5.381511,"is_reserved":false,"is_disabled":false,"rental_uris":{"android":"levelo://app?vid=9008ee88-769a-46a9-a99a-080641a6e4a9","ios":"levelo://app?vid=9008ee88-769a-46a9-a99a-080641a6e4a9"},"vehicle_type_id":"4","last_reported":1711800681,"current_range_meters":26400,"station_id":"ce4bgt12rcd13ifvqce0","pricing_plan_id":"cebpf4jnsgd1na2vs0mg"},{"bike_id":"4585be65-b12d-45d8-99e9-f567b90ca95d","system_id":"levelo_inurba_marseille","lat":43.308012,"lon":5.381511,"is_reserved":false,"is_disabled":false,"rental_uris":{"android":"levelo://app?vid=4585be65-b12d-45d8-99e9-f567b90ca95d","ios":"levelo://app?vid=4585be65-b12d-45d8-99e9-f567b90ca95d"},"vehicle_type_id":"4","last_reported":1711800681,"current_range_meters":29200,"station_id":"ce4bgt12rcd13ifvqce0","pricing_plan_id":"cebpf4jnsgd1na2vs0mg"},{"bike_id":"15290e61-bedb-451b-b589-d6d84b2cfbbb","system_id":"levelo_inurba_marseille","lat":43.308012,"lon":5.381511,"is_reserved":false,"is_disabled":false,"rental_uris":{"android":"levelo://app?vid=15290e61-bedb-451b-b589-d6d84b2cfbbb","ios":"levelo://app?vid=15290e61-bedb-451b-b589-d6d84b2cfbbb"},"vehicle_type_id":"4","last_reported":1711800681,"current_range_meters":0,"station_id":"ce4bgt12rcd13ifvqce0","pricing_plan_id":"cebpf4jnsgd1na2vs0mg"},{"bike_id":"cea2d4d5-e5c9-4312-8fc4-8f2ad1bb3fe7","system_id":"levelo_inurba_marseille","lat":43.308012,"lon":5.381511,"is_reserved":false,"is_disabled":false,"rental_uris":{"android":"levelo://app?vid=cea2d4d5-e5c9-4312-8fc4-8f2ad1bb3fe7","ios":"levelo://app?vid=cea2d4d5-e5c9-4312-8fc4-8f2ad1bb3fe7"},"vehicle_type_id":"4","last_reported":1711800681,"current_range_meters":22000,"station_id":"ce4bgt12rcd13ifvqce0","pricing_plan_id":"cebpf4jnsgd1na2vs0mg"},{"bike_id":"494e485c-71c3-4434-8805-97ece8da433d","system_id":"levelo_inurba_marseille","lat":43.304606,"lon":5.379026,"is_reserved":false,"is_disabled":false,"rental_uris":{"android":"levelo://app?vid=494e485c-71c3-4434-8805-97ece8da433d","ios":"levelo://app?vid=494e485c-71c3-4434-8805-97ece8da433d"},"vehicle_type_id":"4","last_reported":1711800681,"current_range_meters":9200,"station_id":"ce4bgup2rcd13ifvqcn0","pricing_plan_id":"cebpf4jnsgd1na2vs0mg"},{"bike_id":"245904a5-a865-4047-a3ae-7a90d6ce6826","system_id":"levelo_inurba_marseille","lat":43.304606,"lon":5.379026,"is_reserved":false,"is_disabled":false,"rental_uris":{"android":"levelo://app?vid=245904a5-a865-4047-a3ae-7a90d6ce6826","ios":"levelo://app?vid=245904a5-a865-4047-a3ae-7a90d6ce6826"},"vehicle_type_id":"4","last_reported":1711800681,"current_range_meters":11600,"station_id":"ce4bgup2rcd13ifvqcn0","pricing_plan_id":"cebpf4jnsgd1na2vs0mg"},{"bike_id":"cab416e0-f39c-4b04-8eea-d473a2d7b0c1","system_id":"levelo_inurba_marseille","lat":43.304606,"lon":5.379026,"is_reserved":false,"is_disabled":false,"rental_uris":{"android":"levelo://app?vid=cab416e0-f39c-4b04-8eea-d473a2d7b0c1","ios":"levelo://app?vid=cab416e0-f39c-4b04-8eea-d473a2d7b0c1"},"vehicle_type_id":"4","last_reported":1711800681,"current_range_meters":18400,"station_id":"ce4bgup2rcd13ifvqcn0","pricing_plan_id":"cebpf4jnsgd1na2vs0mg"},{"bike_id":"4d4789c4-3185-4670-9e57-4a9dcf80756d","system_id":"levelo_inurba_marseille","lat":43.304606,"lon":5.379026,"is_reserved":false,"is_disabled":false,"rental_uris":{"android":"levelo://app?vid=4d4789c4-3185-4670-9e57-4a9dcf80756d","ios":"levelo://app?vid=4d4789c4-3185-4670-9e57-4a9dcf80756d"},"vehicle_type_id":"4","last_reported":1711800681,"current_range_meters":24000,"station_id":"ce4bgup2rcd13ifvqcn0","pricing_plan_id":"cebpf4jnsgd1na2vs0mg"},{"bike_id":"5364248b-1229-470b-b163-a5fc95865eb0","system_id":"levelo_inurba_marseille","lat":43.304606,"lon":5.379026,"is_reserved":false,"is_disabled":false,"rental_uris":{"android":"levelo://app?vid=5364248b-1229-470b-b163-a5fc95865eb0","ios":"levelo://app?vid=5364248b-1229-470b-b163-a5fc95865eb0"},"vehicle_type_id":"4","last_reported":1711800681,"current_range_meters":16800,"station_id":"ce4bgup2rcd13ifvqcn0","pricing_plan_id":"cebpf4jnsgd1na2vs0mg"},{"bike_id":"72a6bb51-fe23-4a1f-8d5b-364e5147216c","system_id":"levelo_inurba_marseille","lat":43.304606,"lon":5.379026,"is_reserved":false,"is_disabled":false,"rental_uris":{"android":"levelo://app?vid=72a6bb51-fe23-4a1f-8d5b-364e5147216c","ios":"levelo://app?vid=72a6bb51-fe23-4a1f-8d5b-364e5147216c"},"vehicle_type_id":"4","last_reported":1711800681,"current_range_meters":31200,"station_id":"ce4bgup2rcd13ifvqcn0","pricing_plan_id":"cebpf4jnsgd1na2vs0mg"},{"bike_id":"8061bd21-02b5-4815-89c8-3b831945482c","system_id":"levelo_inurba_marseille","lat":43.304606,"lon":5.379026,"is_reserved":false,"is_disabled":false,"rental_uris":{"android":"levelo://app?vid=8061bd21-02b5-4815-89c8-3b831945482c","ios":"levelo://app?vid=8061bd21-02b5-4815-89c8-3b831945482c"},"vehicle_type_id":"4","last_reported":1711800681,"current_range_meters":31200,"station_id":"ce4bgup2rcd13ifvqcn0","pricing_plan_id":"cebpf4jnsgd1na2vs0mg"},{"bike_id":"8e29f93e-63b8-44b4-9d89-4d982ae85e9a","system_id":"levelo_inurba_marseille","lat":43.304606,"lon":5.379026,"is_reserved":false,"is_disabled":false,"rental_uris":{"android":"levelo://app?vid=8e29f93e-63b8-44b4-9d89-4d982ae85e9a","ios":"levelo://app?vid=8e29f93e-63b8-44b4-9d89-4d982ae85e9a"},"vehicle_type_id":"4","last_reported":1711800681,"current_range_meters":8800,"station_id":"ce4bgup2rcd13ifvqcn0","pricing_plan_id":"cebpf4jnsgd1na2vs0mg"},{"bike_id":"3956a73a-8081-4bee-9d3e-2e08ce977d4b","system_id":"levelo_inurba_marseille","lat":43.304606,"lon":5.379026,"is_reserved":false,"is_disabled":false,"rental_uris":{"android":"levelo://app?vid=3956a73a-8081-4bee-9d3e-2e08ce977d4b","ios":"levelo://app?vid=3956a73a-8081-4bee-9d3e-2e08ce977d4b"},"vehicle_type_id":"4","last_reported":1711800681,"current_range_meters":9600,"station_id":"ce4bgup2rcd13ifvqcn0","pricing_plan_id":"cebpf4jnsgd1na2vs0mg"},{"bike_id":"15e27233-cc39-4b48-861e-12123fd5f5e6","system_id":"levelo_inurba_marseille","lat":43.304606,"lon":5.379026,"is_reserved":false,"is_disabled":false,"rental_uris":{"android":"levelo://app?vid=15e27233-cc39-4b48-861e-12123fd5f5e6","ios":"levelo://app?vid=15e27233-cc39-4b48-861e-12123fd5f5e6"},"vehicle_type_id":"4","last_reported":1711800681,"current_range_meters":28400,"station_id":"ce4bgup2rcd13ifvqcn0","pricing_plan_id":"cebpf4jnsgd1na2vs0mg"},{"bike_id":"2cba9fea-407b-4827-ad24-9adda3f59f34","system_id":"levelo_inurba_marseille","lat":43.304606,"lon":5.379026,"is_reserved":false,"is_disabled":false,"rental_uris":{"android":"levelo://app?vid=2cba9fea-407b-4827-ad24-9adda3f59f34","ios":"levelo://app?vid=2cba9fea-407b-4827-ad24-9adda3f59f34"},"vehicle_type_id":"4","last_reported":1711800681,"current_range_meters":10800,"station_id":"ce4bgup2rcd13ifvqcn0","pricing_plan_id":"cebpf4jnsgd1na2vs0mg"},{"bike_id":"7c337f45-2ef4-4535-85d1-fa56daab3c0f","system_id":"levelo_inurba_marseille","lat":43.304606,"lon":5.379026,"is_reserved":false,"is_disabled":false,"rental_uris":{"android":"levelo://app?vid=7c337f45-2ef4-4535-85d1-fa56daab3c0f","ios":"levelo://app?vid=7c337f45-2ef4-4535-85d1-fa56daab3c0f"},"vehicle_type_id":"4","last_reported":1711800681,"current_range_meters":20800,"station_id":"ce4bgup2rcd13ifvqcn0","pricing_plan_id":"cebpf4jnsgd1na2vs0mg"},{"bike_id":"897ff2b8-b15e-4e7c-a2c9-accce86fb46b","system_id":"levelo_inurba_marseille","lat":43.304606,"lon":5.379026,"is_reserved":false,"is_disabled":false,"rental_uris":{"android":"levelo://app?vid=897ff2b8-b15e-4e7c-a2c9-accce86fb46b","ios":"levelo://app?vid=897ff2b8-b15e-4e7c-a2c9-accce86fb46b"},"vehicle_type_id":"4","last_reported":1711800681,"current_range_meters":1200,"station_id":"ce4bgup2rcd13ifvqcn0","pricing_plan_id":"cebpf4jnsgd1na2vs0mg"},{"bike_id":"048da24c-8b46-450e-abeb-5522a251f4bc","system_id":"levelo_inurba_marseille","lat":43.304606,"lon":5.379026,"is_reserved":false,"is_disabled":false,"rental_uris":{"android":"levelo://app?vid=048da24c-8b46-450e-abeb-5522a251f4bc","ios":"levelo://app?vid=048da24c-8b46-450e-abeb-5522a251f4bc"},"vehicle_type_id":"4","last_reported":1711800681,"current_range_meters":4800,"station_id":"ce4bgup2rcd13ifvqcn0","pricing_plan_id":"cebpf4jnsgd1na2vs0mg"},{"bike_id":"30a87b6b-afed-40a5-8c64-c7a39b5ccce6","system_id":"levelo_inurba_marseille","lat":43.304606,"lon":5.379026,"is_reserved":false,"is_disabled":false,"rental_uris":{"android":"levelo://app?vid=30a87b6b-afed-40a5-8c64-c7a39b5ccce6","ios":"levelo://app?vid=30a87b6b-afed-40a5-8c64-c7a39b5ccce6"},"vehicle_type_id":"4","last_reported":1711800681,"current_range_meters":27200,"station_id":"ce4bgup2rcd13ifvqcn0","pricing_plan_id":"cebpf4jnsgd1na2vs0mg"},{"bike_id":"a13f6bf9-78ed-47f8-b808-287b9ac81837","system_id":"levelo_inurba_marseille","lat":43.304606,"lon":5.379026,"is_reserved":false,"is_disabled":false,"rental_uris":{"android":"levelo://app?vid=a13f6bf9-78ed-47f8-b808-287b9ac81837","ios":"levelo://app?vid=a13f6bf9-78ed-47f8-b808-287b9ac81837"},"vehicle_type_id":"4","last_reported":1711800681,"current_range_meters":14000,"station_id":"ce4bgup2rcd13ifvqcn0","pricing_plan_id":"cebpf4jnsgd1na2vs0mg"},{"bike_id":"ac29d862-82b9-4ae5-a471-3b99e2d57c87","system_id":"levelo_inurba_marseille","lat":43.304606,"lon":5.379026,"is_reserved":false,"is_disabled":false,"rental_uris":{"android":"levelo://app?vid=ac29d862-82b9-4ae5-a471-3b99e2d57c87","ios":"levelo://app?vid=ac29d862-82b9-4ae5-a471-3b99e2d57c87"},"vehicle_type_id":"4","last_reported":1711800681,"current_range_meters":1200,"station_id":"ce4bgup2rcd13ifvqcn0","pricing_plan_id":"cebpf4jnsgd1na2vs0mg"},{"bike_id":"59936621-7a7b-4909-8b29-61d07f5e1615","system_id":"levelo_inurba_marseille","lat":43.304606,"lon":5.379026,"is_reserved":false,"is_disabled":false,"rental_uris":{"android":"levelo://app?vid=59936621-7a7b-4909-8b29-61d07f5e1615","ios":"levelo://app?vid=59936621-7a7b-4909-8b29-61d07f5e1615"},"vehicle_type_id":"4","last_reported":1711800681,"current_range_meters":13600,"station_id":"ce4bgup2rcd13ifvqcn0","pricing_plan_id":"cebpf4jnsgd1na2vs0mg"},{"bike_id":"aa77a654-1995-458b-b0c1-b212d2ba939a","system_id":"levelo_inurba_marseille","lat":43.3047,"lon":5.37916,"is_reserved":false,"is_disabled":false,"rental_uris":{"android":"levelo://app?vid=aa77a654-1995-458b-b0c1-b212d2ba939a","ios":"levelo://app?vid=aa77a654-1995-458b-b0c1-b212d2ba939a"},"vehicle_type_id":"4","last_reported":1711800681,"current_range_meters":0,"station_id":"ce4bgup2rcd13ifvqcn0","pricing_plan_id":"cebpf4jnsgd1na2vs0mg"},{"bike_id":"802275b7-6313-493c-b038-f58a686ea2e0","system_id":"levelo_inurba_marseille","lat":43.304606,"lon":5.379026,"is_reserved":false,"is_disabled":false,"rental_uris":{"android":"levelo://app?vid=802275b7-6313-493c-b038-f58a686ea2e0","ios":"levelo://app?vid=802275b7-6313-493c-b038-f58a686ea2e0"},"vehicle_type_id":"4","last_reported":1711800681,"current_range_meters":28400,"station_id":"ce4bgup2rcd13ifvqcn0","pricing_plan_id":"cebpf4jnsgd1na2vs0mg"},{"bike_id":"81846aa7-ff08-4754-8a36-5d3c691b1fdf","system_id":"levelo_inurba_marseille","lat":43.304606,"lon":5.379026,"is_reserved":false,"is_disabled":false,"rental_uris":{"android":"levelo://app?vid=81846aa7-ff08-4754-8a36-5d3c691b1fdf","ios":"levelo://app?vid=81846aa7-ff08-4754-8a36-5d3c691b1fdf"},"vehicle_type_id":"4","last_reported":1711800681,"current_range_meters":24800,"station_id":"ce4bgup2rcd13ifvqcn0","pricing_plan_id":"cebpf4jnsgd1na2vs0mg"},{"bike_id":"e63939d2-b355-4917-8b11-a0bb53bddfab","system_id":"levelo_inurba_marseille","lat":43.304606,"lon":5.379026,"is_reserved":false,"is_disabled":false,"rental_uris":{"android":"levelo://app?vid=e63939d2-b355-4917-8b11-a0bb53bddfab","ios":"levelo://app?vid=e63939d2-b355-4917-8b11-a0bb53bddfab"},"vehicle_type_id":"4","last_reported":1711800681,"current_range_meters":24000,"station_id":"ce4bgup2rcd13ifvqcn0","pricing_plan_id":"cebpf4jnsgd1na2vs0mg"},{"bike_id":"061e4cef-4291-4253-a24a-3363962fdd5a","system_id":"levelo_inurba_marseille","lat":43.304606,"lon":5.379026,"is_reserved":false,"is_disabled":false,"rental_uris":{"android":"levelo://app?vid=061e4cef-4291-4253-a24a-3363962fdd5a","ios":"levelo://app?vid=061e4cef-4291-4253-a24a-3363962fdd5a"},"vehicle_type_id":"4","last_reported":1711800681,"current_range_meters":13200,"station_id":"ce4bgup2rcd13ifvqcn0","pricing_plan_id":"cebpf4jnsgd1na2vs0mg"},{"bike_id":"a0e5fd4d-e777-4621-b786-78a71bf5ff23","system_id":"levelo_inurba_marseille","lat":43.304606,"lon":5.379026,"is_reserved":false,"is_disabled":false,"rental_uris":{"android":"levelo://app?vid=a0e5fd4d-e777-4621-b786-78a71bf5ff23","ios":"levelo://app?vid=a0e5fd4d-e777-4621-b786-78a71bf5ff23"},"vehicle_type_id":"4","last_reported":1711800681,"current_range_meters":14800,"station_id":"ce4bgup2rcd13ifvqcn0","pricing_plan_id":"cebpf4jnsgd1na2vs0mg"},{"bike_id":"5540ebe9-6aee-4006-86cc-1d85822a0a84","system_id":"levelo_inurba_marseille","lat":43.304606,"lon":5.379026,"is_reserved":false,"is_disabled":false,"rental_uris":{"android":"levelo://app?vid=5540ebe9-6aee-4006-86cc-1d85822a0a84","ios":"levelo://app?vid=5540ebe9-6aee-4006-86cc-1d85822a0a84"},"vehicle_type_id":"4","last_reported":1711800681,"current_range_meters":13200,"station_id":"ce4bgup2rcd13ifvqcn0","pricing_plan_id":"cebpf4jnsgd1na2vs0mg"},{"bike_id":"9d06c776-4b2d-4c2f-a500-020aef6cf302","system_id":"levelo_inurba_marseille","lat":43.304606,"lon":5.379026,"is_reserved":false,"is_disabled":false,"rental_uris":{"android":"levelo://app?vid=9d06c776-4b2d-4c2f-a500-020aef6cf302","ios":"levelo://app?vid=9d06c776-4b2d-4c2f-a500-020aef6cf302"},"vehicle_type_id":"4","last_reported":1711800681,"current_range_meters":29200,"station_id":"ce4bgup2rcd13ifvqcn0","pricing_plan_id":"cebpf4jnsgd1na2vs0mg"},{"bike_id":"01e62389-bc08-419f-9d8e-8a237cbe9b4f","system_id":"levelo_inurba_marseille","lat":43.304606,"lon":5.379026,"is_reserved":false,"is_disabled":false,"rental_uris":{"android":"levelo://app?vid=01e62389-bc08-419f-9d8e-8a237cbe9b4f","ios":"levelo://app?vid=01e62389-bc08-419f-9d8e-8a237cbe9b4f"},"vehicle_type_id":"4","last_reported":1711800681,"current_range_meters":26000,"station_id":"ce4bgup2rcd13ifvqcn0","pricing_plan_id":"cebpf4jnsgd1na2vs0mg"},{"bike_id":"5986fa3f-e80a-4648-af21-43cfae3d80da","system_id":"levelo_inurba_marseille","lat":43.304606,"lon":5.379026,"is_reserved":false,"is_disabled":false,"rental_uris":{"android":"levelo://app?vid=5986fa3f-e80a-4648-af21-43cfae3d80da","ios":"levelo://app?vid=5986fa3f-e80a-4648-af21-43cfae3d80da"},"vehicle_type_id":"4","last_reported":1711800681,"current_range_meters":9200,"station_id":"ce4bgup2rcd13ifvqcn0","pricing_plan_id":"cebpf4jnsgd1na2vs0mg"},{"bike_id":"acf8e29d-b4ef-4938-865d-b3dfbbdbaec7","system_id":"levelo_inurba_marseille","lat":43.304606,"lon":5.379026,"is_reserved":false,"is_disabled":false,"rental_uris":{"android":"levelo://app?vid=acf8e29d-b4ef-4938-865d-b3dfbbdbaec7","ios":"levelo://app?vid=acf8e29d-b4ef-4938-865d-b3dfbbdbaec7"},"vehicle_type_id":"4","last_reported":1711800681,"current_range_meters":27200,"station_id":"ce4bgup2rcd13ifvqcn0","pricing_plan_id":"cebpf4jnsgd1na2vs0mg"},{"bike_id":"028fa585-8142-42c6-be85-f2090a11872b","system_id":"levelo_inurba_marseille","lat":43.304606,"lon":5.379026,"is_reserved":false,"is_disabled":false,"rental_uris":{"android":"levelo://app?vid=028fa585-8142-42c6-be85-f2090a11872b","ios":"levelo://app?vid=028fa585-8142-42c6-be85-f2090a11872b"},"vehicle_type_id":"4","last_reported":1711800681,"current_range_meters":18400,"station_id":"ce4bgup2rcd13ifvqcn0","pricing_plan_id":"cebpf4jnsgd1na2vs0mg"},{"bike_id":"d5a69b20-2970-48c0-8600-269f136df1f4","system_id":"levelo_inurba_marseille","lat":43.304606,"lon":5.379026,"is_reserved":false,"is_disabled":false,"rental_uris":{"android":"levelo://app?vid=d5a69b20-2970-48c0-8600-269f136df1f4","ios":"levelo://app?vid=d5a69b20-2970-48c0-8600-269f136df1f4"},"vehicle_type_id":"4","last_reported":1711800681,"current_range_meters":28400,"station_id":"ce4bgup2rcd13ifvqcn0","pricing_plan_id":"cebpf4jnsgd1na2vs0mg"},{"bike_id":"0242e022-dc9b-4053-a13a-cf6398c41475","system_id":"levelo_inurba_marseille","lat":43.304606,"lon":5.379026,"is_reserved":false,"is_disabled":false,"rental_uris":{"android":"levelo://app?vid=0242e022-dc9b-4053-a13a-cf6398c41475","ios":"levelo://app?vid=0242e022-dc9b-4053-a13a-cf6398c41475"},"vehicle_type_id":"4","last_reported":1711800681,"current_range_meters":21600,"station_id":"ce4bgup2rcd13ifvqcn0","pricing_plan_id":"cebpf4jnsgd1na2vs0mg"},{"bike_id":"a45a75b8-15dd-445f-b27d-460de7982910","system_id":"levelo_inurba_marseille","lat":43.324745,"lon":5.365759,"is_reserved":false,"is_disabled":false,"rental_uris":{"android":"levelo://app?vid=a45a75b8-15dd-445f-b27d-460de7982910","ios":"levelo://app?vid=a45a75b8-15dd-445f-b27d-460de7982910"},"vehicle_type_id":"4","last_reported":1711800681,"current_range_meters":22000,"station_id":"ce4bhs12rcd13ifvqhvg","pricing_plan_id":"cebpf4jnsgd1na2vs0mg"},{"bike_id":"06eee105-6409-4182-868b-60d0ce253928","system_id":"levelo_inurba_marseille","lat":43.304606,"lon":5.379026,"is_reserved":false,"is_disabled":false,"rental_uris":{"android":"levelo://app?vid=06eee105-6409-4182-868b-60d0ce253928","ios":"levelo://app?vid=06eee105-6409-4182-868b-60d0ce253928"},"vehicle_type_id":"4","last_reported":1711800681,"current_range_meters":17200,"station_id":"ce4bgup2rcd13ifvqcn0","pricing_plan_id":"cebpf4jnsgd1na2vs0mg"},{"bike_id":"ebefea91-e11d-4a88-a148-f29a215f5db2","system_id":"levelo_inurba_marseille","lat":43.304606,"lon":5.379026,"is_reserved":false,"is_disabled":false,"rental_uris":{"android":"levelo://app?vid=ebefea91-e11d-4a88-a148-f29a215f5db2","ios":"levelo://app?vid=ebefea91-e11d-4a88-a148-f29a215f5db2"},"vehicle_type_id":"4","last_reported":1711800681,"current_range_meters":28000,"station_id":"ce4bgup2rcd13ifvqcn0","pricing_plan_id":"cebpf4jnsgd1na2vs0mg"},{"bike_id":"48ed63f9-f817-4003-a334-dcf77105a022","system_id":"levelo_inurba_marseille","lat":43.304606,"lon":5.379026,"is_reserved":false,"is_disabled":false,"rental_uris":{"android":"levelo://app?vid=48ed63f9-f817-4003-a334-dcf77105a022","ios":"levelo://app?vid=48ed63f9-f817-4003-a334-dcf77105a022"},"vehicle_type_id":"4","last_reported":1711800681,"current_range_meters":4800,"station_id":"ce4bgup2rcd13ifvqcn0","pricing_plan_id":"cebpf4jnsgd1na2vs0mg"},{"bike_id":"9ed1b25f-6bae-4fb6-803d-a2205da3eb17","system_id":"levelo_inurba_marseille","lat":43.304606,"lon":5.379026,"is_reserved":false,"is_disabled":false,"rental_uris":{"android":"levelo://app?vid=9ed1b25f-6bae-4fb6-803d-a2205da3eb17","ios":"levelo://app?vid=9ed1b25f-6bae-4fb6-803d-a2205da3eb17"},"vehicle_type_id":"4","last_reported":1711800681,"current_range_meters":26400,"station_id":"ce4bgup2rcd13ifvqcn0","pricing_plan_id":"cebpf4jnsgd1na2vs0mg"},{"bike_id":"640f9d42-89e6-4c56-a222-b1620aa3e053","system_id":"levelo_inurba_marseille","lat":43.324771,"lon":5.36557,"is_reserved":false,"is_disabled":false,"rental_uris":{"android":"levelo://app?vid=640f9d42-89e6-4c56-a222-b1620aa3e053","ios":"levelo://app?vid=640f9d42-89e6-4c56-a222-b1620aa3e053"},"vehicle_type_id":"4","last_reported":1711800681,"current_range_meters":25600,"station_id":"ce4bhs12rcd13ifvqhvg","pricing_plan_id":"cebpf4jnsgd1na2vs0mg"},{"bike_id":"b7df2112-1ac1-4fe2-9a8c-2e0dd8a1a220","system_id":"levelo_inurba_marseille","lat":43.304606,"lon":5.379026,"is_reserved":false,"is_disabled":false,"rental_uris":{"android":"levelo://app?vid=b7df2112-1ac1-4fe2-9a8c-2e0dd8a1a220","ios":"levelo://app?vid=b7df2112-1ac1-4fe2-9a8c-2e0dd8a1a220"},"vehicle_type_id":"4","last_reported":1711800681,"current_range_meters":16000,"station_id":"ce4bgup2rcd13ifvqcn0","pricing_plan_id":"cebpf4jnsgd1na2vs0mg"},{"bike_id":"c8b46e22-5a91-4494-8347-b2361b86313b","system_id":"levelo_inurba_marseille","lat":43.304606,"lon":5.379026,"is_reserved":false,"is_disabled":false,"rental_uris":{"android":"levelo://app?vid=c8b46e22-5a91-4494-8347-b2361b86313b","ios":"levelo://app?vid=c8b46e22-5a91-4494-8347-b2361b86313b"},"vehicle_type_id":"4","last_reported":1711800681,"current_range_meters":27200,"station_id":"ce4bgup2rcd13ifvqcn0","pricing_plan_id":"cebpf4jnsgd1na2vs0mg"},{"bike_id":"e9f0dc36-def8-49f8-b1c8-927d9f09638a","system_id":"levelo_inurba_marseille","lat":43.324761,"lon":5.365663,"is_reserved":false,"is_disabled":false,"rental_uris":{"android":"levelo://app?vid=e9f0dc36-def8-49f8-b1c8-927d9f09638a","ios":"levelo://app?vid=e9f0dc36-def8-49f8-b1c8-927d9f09638a"},"vehicle_type_id":"4","last_reported":1711800681,"current_range_meters":5200,"station_id":"ce4bhs12rcd13ifvqhvg","pricing_plan_id":"cebpf4jnsgd1na2vs0mg"},{"bike_id":"a2bde227-df6b-4242-8bb4-d7c2b776a084","system_id":"levelo_inurba_marseille","lat":43.304606,"lon":5.379026,"is_reserved":false,"is_disabled":false,"rental_uris":{"android":"levelo://app?vid=a2bde227-df6b-4242-8bb4-d7c2b776a084","ios":"levelo://app?vid=a2bde227-df6b-4242-8bb4-d7c2b776a084"},"vehicle_type_id":"4","last_reported":1711800681,"current_range_meters":16400,"station_id":"ce4bgup2rcd13ifvqcn0","pricing_plan_id":"cebpf4jnsgd1na2vs0mg"},{"bike_id":"60a3f65a-6f55-44a2-b4b9-157239c6c101","system_id":"levelo_inurba_marseille","lat":43.324771,"lon":5.36557,"is_reserved":false,"is_disabled":false,"rental_uris":{"android":"levelo://app?vid=60a3f65a-6f55-44a2-b4b9-157239c6c101","ios":"levelo://app?vid=60a3f65a-6f55-44a2-b4b9-157239c6c101"},"vehicle_type_id":"4","last_reported":1711800681,"current_range_meters":14400,"station_id":"ce4bhs12rcd13ifvqhvg","pricing_plan_id":"cebpf4jnsgd1na2vs0mg"},{"bike_id":"f6f72ee2-3f0f-4fe4-910a-0ab1c3a2398f","system_id":"levelo_inurba_marseille","lat":43.324771,"lon":5.36557,"is_reserved":false,"is_disabled":false,"rental_uris":{"android":"levelo://app?vid=f6f72ee2-3f0f-4fe4-910a-0ab1c3a2398f","ios":"levelo://app?vid=f6f72ee2-3f0f-4fe4-910a-0ab1c3a2398f"},"vehicle_type_id":"4","last_reported":1711800681,"current_range_meters":3200,"station_id":"ce4bhs12rcd13ifvqhvg","pricing_plan_id":"cebpf4jnsgd1na2vs0mg"},{"bike_id":"00843c3f-3e5b-42bd-94fc-ceac4fdf1dd1","system_id":"levelo_inurba_marseille","lat":43.304606,"lon":5.379026,"is_reserved":false,"is_disabled":false,"rental_uris":{"android":"levelo://app?vid=00843c3f-3e5b-42bd-94fc-ceac4fdf1dd1","ios":"levelo://app?vid=00843c3f-3e5b-42bd-94fc-ceac4fdf1dd1"},"vehicle_type_id":"4","last_reported":1711800681,"current_range_meters":17600,"station_id":"ce4bgup2rcd13ifvqcn0","pricing_plan_id":"cebpf4jnsgd1na2vs0mg"},{"bike_id":"d7e593ae-0e04-4801-88d6-585d610f28a0","system_id":"levelo_inurba_marseille","lat":43.324771,"lon":5.36557,"is_reserved":false,"is_disabled":false,"rental_uris":{"android":"levelo://app?vid=d7e593ae-0e04-4801-88d6-585d610f28a0","ios":"levelo://app?vid=d7e593ae-0e04-4801-88d6-585d610f28a0"},"vehicle_type_id":"4","last_reported":1711800681,"current_range_meters":18800,"station_id":"ce4bhs12rcd13ifvqhvg","pricing_plan_id":"cebpf4jnsgd1na2vs0mg"},{"bike_id":"c869395a-bd57-4a11-bc69-fe4102640f5e","system_id":"levelo_inurba_marseille","lat":43.304606,"lon":5.379026,"is_reserved":false,"is_disabled":false,"rental_uris":{"android":"levelo://app?vid=c869395a-bd57-4a11-bc69-fe4102640f5e","ios":"levelo://app?vid=c869395a-bd57-4a11-bc69-fe4102640f5e"},"vehicle_type_id":"4","last_reported":1711800681,"current_range_meters":21600,"station_id":"ce4bgup2rcd13ifvqcn0","pricing_plan_id":"cebpf4jnsgd1na2vs0mg"},{"bike_id":"4cce7423-2bd2-4e46-8abc-f17e3aabdda8","system_id":"levelo_inurba_marseille","lat":43.324771,"lon":5.36557,"is_reserved":false,"is_disabled":false,"rental_uris":{"android":"levelo://app?vid=4cce7423-2bd2-4e46-8abc-f17e3aabdda8","ios":"levelo://app?vid=4cce7423-2bd2-4e46-8abc-f17e3aabdda8"},"vehicle_type_id":"4","last_reported":1711800681,"current_range_meters":29600,"station_id":"ce4bhs12rcd13ifvqhvg","pricing_plan_id":"cebpf4jnsgd1na2vs0mg"},{"bike_id":"45664fe7-5f37-4d8d-9989-45aa0dcbca0e","system_id":"levelo_inurba_marseille","lat":43.324798,"lon":5.365664,"is_reserved":false,"is_disabled":false,"rental_uris":{"android":"levelo://app?vid=45664fe7-5f37-4d8d-9989-45aa0dcbca0e","ios":"levelo://app?vid=45664fe7-5f37-4d8d-9989-45aa0dcbca0e"},"vehicle_type_id":"4","last_reported":1711800681,"current_range_meters":17600,"station_id":"ce4bhs12rcd13ifvqhvg","pricing_plan_id":"cebpf4jnsgd1na2vs0mg"},{"bike_id":"79e8212a-4e8a-4609-a711-24469872564e","system_id":"levelo_inurba_marseille","lat":43.304606,"lon":5.379026,"is_reserved":false,"is_disabled":false,"rental_uris":{"android":"levelo://app?vid=79e8212a-4e8a-4609-a711-24469872564e","ios":"levelo://app?vid=79e8212a-4e8a-4609-a711-24469872564e"},"vehicle_type_id":"4","last_reported":1711800681,"current_range_meters":31200,"station_id":"ce4bgup2rcd13ifvqcn0","pricing_plan_id":"cebpf4jnsgd1na2vs0mg"},{"bike_id":"1c910cc3-4a27-4080-9e90-12d858b1b014","system_id":"levelo_inurba_marseille","lat":43.324832,"lon":5.365681,"is_reserved":false,"is_disabled":false,"rental_uris":{"android":"levelo://app?vid=1c910cc3-4a27-4080-9e90-12d858b1b014","ios":"levelo://app?vid=1c910cc3-4a27-4080-9e90-12d858b1b014"},"vehicle_type_id":"4","last_reported":1711800681,"current_range_meters":3200,"station_id":"ce4bhs12rcd13ifvqhvg","pricing_plan_id":"cebpf4jnsgd1na2vs0mg"},{"bike_id":"6a4e94c0-7ffd-415b-99ab-c007b692d856","system_id":"levelo_inurba_marseille","lat":43.324831,"lon":5.365622,"is_reserved":false,"is_disabled":false,"rental_uris":{"android":"levelo://app?vid=6a4e94c0-7ffd-415b-99ab-c007b692d856","ios":"levelo://app?vid=6a4e94c0-7ffd-415b-99ab-c007b692d856"},"vehicle_type_id":"4","last_reported":1711800681,"current_range_meters":2000,"station_id":"ce4bhs12rcd13ifvqhvg","pricing_plan_id":"cebpf4jnsgd1na2vs0mg"},{"bike_id":"aa743647-c687-4c18-9573-cc4278716104","system_id":"levelo_inurba_marseille","lat":43.304606,"lon":5.379026,"is_reserved":false,"is_disabled":false,"rental_uris":{"android":"levelo://app?vid=aa743647-c687-4c18-9573-cc4278716104","ios":"levelo://app?vid=aa743647-c687-4c18-9573-cc4278716104"},"vehicle_type_id":"4","last_reported":1711800681,"current_range_meters":5600,"station_id":"ce4bgup2rcd13ifvqcn0","pricing_plan_id":"cebpf4jnsgd1na2vs0mg"},{"bike_id":"44479db2-3a93-4620-80a5-2a74a28f1856","system_id":"levelo_inurba_marseille","lat":43.310804,"lon":5.38359,"is_reserved":false,"is_disabled":false,"rental_uris":{"android":"levelo://app?vid=44479db2-3a93-4620-80a5-2a74a28f1856","ios":"levelo://app?vid=44479db2-3a93-4620-80a5-2a74a28f1856"},"vehicle_type_id":"4","last_reported":1711800681,"current_range_meters":19600,"station_id":"ce4bgv92rcd13ifvqcr0","pricing_plan_id":"cebpf4jnsgd1na2vs0mg"},{"bike_id":"9eb9da0d-8a27-482c-83fb-35b6b2f9b748","system_id":"levelo_inurba_marseille","lat":43.310804,"lon":5.38359,"is_reserved":false,"is_disabled":false,"rental_uris":{"android":"levelo://app?vid=9eb9da0d-8a27-482c-83fb-35b6b2f9b748","ios":"levelo://app?vid=9eb9da0d-8a27-482c-83fb-35b6b2f9b748"},"vehicle_type_id":"4","last_reported":1711800681,"current_range_meters":5200,"station_id":"ce4bgv92rcd13ifvqcr0","pricing_plan_id":"cebpf4jnsgd1na2vs0mg"},{"bike_id":"876d0eb2-fb48-40c0-b6ba-e273ac02e670","system_id":"levelo_inurba_marseille","lat":43.302784,"lon":5.377158,"is_reserved":false,"is_disabled":false,"rental_uris":{"android":"levelo://app?vid=876d0eb2-fb48-40c0-b6ba-e273ac02e670","ios":"levelo://app?vid=876d0eb2-fb48-40c0-b6ba-e273ac02e670"},"vehicle_type_id":"4","last_reported":1711800681,"current_range_meters":21600,"station_id":"ce4bguh2rcd13ifvqcj0","pricing_plan_id":"cebpf4jnsgd1na2vs0mg"},{"bike_id":"5172c493-fc03-4bf9-ba68-4edcc5a553c4","system_id":"levelo_inurba_marseille","lat":43.31546,"lon":5.38351,"is_reserved":false,"is_disabled":false,"rental_uris":{"android":"levelo://app?vid=5172c493-fc03-4bf9-ba68-4edcc5a553c4","ios":"levelo://app?vid=5172c493-fc03-4bf9-ba68-4edcc5a553c4"},"vehicle_type_id":"4","last_reported":1711800681,"current_range_meters":0,"station_id":"","pricing_plan_id":"cebpf4jnsgd1na2vs0mg"},{"bike_id":"21b34f6f-bb1b-42b6-9743-fc32b5a71996","system_id":"levelo_inurba_marseille","lat":43.302784,"lon":5.377158,"is_reserved":false,"is_disabled":false,"rental_uris":{"android":"levelo://app?vid=21b34f6f-bb1b-42b6-9743-fc32b5a71996","ios":"levelo://app?vid=21b34f6f-bb1b-42b6-9743-fc32b5a71996"},"vehicle_type_id":"4","last_reported":1711800681,"current_range_meters":0,"station_id":"ce4bguh2rcd13ifvqcj0","pricing_plan_id":"cebpf4jnsgd1na2vs0mg"},{"bike_id":"37947acf-fc84-4f1b-97c1-91724c7d04ed","system_id":"levelo_inurba_marseille","lat":43.319935,"lon":5.381699,"is_reserved":false,"is_disabled":false,"rental_uris":{"android":"levelo://app?vid=37947acf-fc84-4f1b-97c1-91724c7d04ed","ios":"levelo://app?vid=37947acf-fc84-4f1b-97c1-91724c7d04ed"},"vehicle_type_id":"4","last_reported":1711800681,"current_range_meters":21600,"station_id":"ce4bhr12rcd13ifvqhpg","pricing_plan_id":"cebpf4jnsgd1na2vs0mg"},{"bike_id":"4944a12e-5c58-44f4-aa11-8eea87217e38","system_id":"levelo_inurba_marseille","lat":43.319935,"lon":5.381699,"is_reserved":false,"is_disabled":false,"rental_uris":{"android":"levelo://app?vid=4944a12e-5c58-44f4-aa11-8eea87217e38","ios":"levelo://app?vid=4944a12e-5c58-44f4-aa11-8eea87217e38"},"vehicle_type_id":"4","last_reported":1711800681,"current_range_meters":1600,"station_id":"ce4bhr12rcd13ifvqhpg","pricing_plan_id":"cebpf4jnsgd1na2vs0mg"},{"bike_id":"a8790c77-e016-421b-96f7-4bcac9f4c1e4","system_id":"levelo_inurba_marseille","lat":43.319935,"lon":5.381699,"is_reserved":false,"is_disabled":false,"rental_uris":{"android":"levelo://app?vid=a8790c77-e016-421b-96f7-4bcac9f4c1e4","ios":"levelo://app?vid=a8790c77-e016-421b-96f7-4bcac9f4c1e4"},"vehicle_type_id":"4","last_reported":1711800681,"current_range_meters":0,"station_id":"ce4bhr12rcd13ifvqhpg","pricing_plan_id":"cebpf4jnsgd1na2vs0mg"},{"bike_id":"d306d35f-a858-4dd8-b4ab-40e83db84d15","system_id":"levelo_inurba_marseille","lat":43.313571,"lon":5.384829,"is_reserved":false,"is_disabled":false,"rental_uris":{"android":"levelo://app?vid=d306d35f-a858-4dd8-b4ab-40e83db84d15","ios":"levelo://app?vid=d306d35f-a858-4dd8-b4ab-40e83db84d15"},"vehicle_type_id":"4","last_reported":1711800681,"current_range_meters":23600,"station_id":"ce4bgt92rcd13ifvqcf0","pricing_plan_id":"cebpf4jnsgd1na2vs0mg"},{"bike_id":"70a48484-2e89-467b-b18e-3627dd2cac9b","system_id":"levelo_inurba_marseille","lat":43.299724,"lon":5.371829,"is_reserved":false,"is_disabled":false,"rental_uris":{"android":"levelo://app?vid=70a48484-2e89-467b-b18e-3627dd2cac9b","ios":"levelo://app?vid=70a48484-2e89-467b-b18e-3627dd2cac9b"},"vehicle_type_id":"4","last_reported":1711800681,"current_range_meters":8000,"station_id":"ce4bgr92rcd13ifvqc7g","pricing_plan_id":"cebpf4jnsgd1na2vs0mg"},{"bike_id":"74565f2b-83a0-48ad-bddb-697e4a7fac64","system_id":"levelo_inurba_marseille","lat":43.299724,"lon":5.371829,"is_reserved":false,"is_disabled":false,"rental_uris":{"android":"levelo://app?vid=74565f2b-83a0-48ad-bddb-697e4a7fac64","ios":"levelo://app?vid=74565f2b-83a0-48ad-bddb-697e4a7fac64"},"vehicle_type_id":"4","last_reported":1711800681,"current_range_meters":20400,"station_id":"ce4bgr92rcd13ifvqc7g","pricing_plan_id":"cebpf4jnsgd1na2vs0mg"},{"bike_id":"22a36852-f939-443f-a7f4-6aa331f67744","system_id":"levelo_inurba_marseille","lat":43.299222,"lon":5.365554,"is_reserved":false,"is_disabled":false,"rental_uris":{"android":"levelo://app?vid=22a36852-f939-443f-a7f4-6aa331f67744","ios":"levelo://app?vid=22a36852-f939-443f-a7f4-6aa331f67744"},"vehicle_type_id":"4","last_reported":1711800681,"current_range_meters":31200,"station_id":"ce4bgm92rcd13ifvqbr0","pricing_plan_id":"cebpf4jnsgd1na2vs0mg"},{"bike_id":"d5d78d51-25d6-4331-afe3-c3c05addf305","system_id":"levelo_inurba_marseille","lat":43.299209,"lon":5.365547,"is_reserved":false,"is_disabled":false,"rental_uris":{"android":"levelo://app?vid=d5d78d51-25d6-4331-afe3-c3c05addf305","ios":"levelo://app?vid=d5d78d51-25d6-4331-afe3-c3c05addf305"},"vehicle_type_id":"4","last_reported":1711800681,"current_range_meters":31200,"station_id":"ce4bgm92rcd13ifvqbr0","pricing_plan_id":"cebpf4jnsgd1na2vs0mg"},{"bike_id":"13bef4cb-e1d2-4aa6-b93e-0873e66d5161","system_id":"levelo_inurba_marseille","lat":43.311522,"lon":5.386746,"is_reserved":false,"is_disabled":false,"rental_uris":{"android":"levelo://app?vid=13bef4cb-e1d2-4aa6-b93e-0873e66d5161","ios":"levelo://app?vid=13bef4cb-e1d2-4aa6-b93e-0873e66d5161"},"vehicle_type_id":"4","last_reported":1711800681,"current_range_meters":10800,"station_id":"ce4bgv12rcd13ifvqcp0","pricing_plan_id":"cebpf4jnsgd1na2vs0mg"},{"bike_id":"d11e283f-9c62-4714-a9fb-1e345f053c65","system_id":"levelo_inurba_marseille","lat":43.298433,"lon":5.362774,"is_reserved":false,"is_disabled":false,"rental_uris":{"android":"levelo://app?vid=d11e283f-9c62-4714-a9fb-1e345f053c65","ios":"levelo://app?vid=d11e283f-9c62-4714-a9fb-1e345f053c65"},"vehicle_type_id":"4","last_reported":1711800681,"current_range_meters":30000,"station_id":"ce4bgpp2rcd13ifvqc3g","pricing_plan_id":"cebpf4jnsgd1na2vs0mg"},{"bike_id":"9201a4c7-4e63-4585-bb8e-6dcac218f2b1","system_id":"levelo_inurba_marseille","lat":43.298433,"lon":5.362774,"is_reserved":false,"is_disabled":false,"rental_uris":{"android":"levelo://app?vid=9201a4c7-4e63-4585-bb8e-6dcac218f2b1","ios":"levelo://app?vid=9201a4c7-4e63-4585-bb8e-6dcac218f2b1"},"vehicle_type_id":"4","last_reported":1711800681,"current_range_meters":31600,"station_id":"ce4bgpp2rcd13ifvqc3g","pricing_plan_id":"cebpf4jnsgd1na2vs0mg"},{"bike_id":"3adbe1a0-f399-41ba-9f46-c3e9008d4e3e","system_id":"levelo_inurba_marseille","lat":43.298433,"lon":5.362774,"is_reserved":false,"is_disabled":false,"rental_uris":{"android":"levelo://app?vid=3adbe1a0-f399-41ba-9f46-c3e9008d4e3e","ios":"levelo://app?vid=3adbe1a0-f399-41ba-9f46-c3e9008d4e3e"},"vehicle_type_id":"4","last_reported":1711800681,"current_range_meters":27200,"station_id":"ce4bgpp2rcd13ifvqc3g","pricing_plan_id":"cebpf4jnsgd1na2vs0mg"},{"bike_id":"09db48c0-ba22-4f38-af83-1fd184355bbc","system_id":"levelo_inurba_marseille","lat":43.298433,"lon":5.362774,"is_reserved":false,"is_disabled":false,"rental_uris":{"android":"levelo://app?vid=09db48c0-ba22-4f38-af83-1fd184355bbc","ios":"levelo://app?vid=09db48c0-ba22-4f38-af83-1fd184355bbc"},"vehicle_type_id":"4","last_reported":1711800681,"current_range_meters":22000,"station_id":"ce4bgpp2rcd13ifvqc3g","pricing_plan_id":"cebpf4jnsgd1na2vs0mg"},{"bike_id":"f6a78244-9476-45bc-acbe-1b4a5604c5cc","system_id":"levelo_inurba_marseille","lat":43.296935,"lon":5.376544,"is_reserved":false,"is_disabled":false,"rental_uris":{"android":"levelo://app?vid=f6a78244-9476-45bc-acbe-1b4a5604c5cc","ios":"levelo://app?vid=f6a78244-9476-45bc-acbe-1b4a5604c5cc"},"vehicle_type_id":"4","last_reported":1711800681,"current_range_meters":28000,"station_id":"ce4bgkh2rcd13ifvqbl0","pricing_plan_id":"cebpf4jnsgd1na2vs0mg"},{"bike_id":"9d4341bb-6791-4845-94d5-3bb5be7bfbf5","system_id":"levelo_inurba_marseille","lat":43.29848,"lon":5.36273,"is_reserved":false,"is_disabled":false,"rental_uris":{"android":"levelo://app?vid=9d4341bb-6791-4845-94d5-3bb5be7bfbf5","ios":"levelo://app?vid=9d4341bb-6791-4845-94d5-3bb5be7bfbf5"},"vehicle_type_id":"4","last_reported":1711800681,"current_range_meters":24400,"station_id":"ce4bgpp2rcd13ifvqc3g","pricing_plan_id":"cebpf4jnsgd1na2vs0mg"},{"bike_id":"8d3d3fd1-2230-4afd-b992-40e3d5226c58","system_id":"levelo_inurba_marseille","lat":43.298433,"lon":5.362774,"is_reserved":false,"is_disabled":false,"rental_uris":{"android":"levelo://app?vid=8d3d3fd1-2230-4afd-b992-40e3d5226c58","ios":"levelo://app?vid=8d3d3fd1-2230-4afd-b992-40e3d5226c58"},"vehicle_type_id":"4","last_reported":1711800681,"current_range_meters":31200,"station_id":"ce4bgpp2rcd13ifvqc3g","pricing_plan_id":"cebpf4jnsgd1na2vs0mg"},{"bike_id":"ab8c824b-44cf-4603-9261-7f48c4a77ec0","system_id":"levelo_inurba_marseille","lat":43.298433,"lon":5.362774,"is_reserved":false,"is_disabled":false,"rental_uris":{"android":"levelo://app?vid=ab8c824b-44cf-4603-9261-7f48c4a77ec0","ios":"levelo://app?vid=ab8c824b-44cf-4603-9261-7f48c4a77ec0"},"vehicle_type_id":"4","last_reported":1711800681,"current_range_meters":26400,"station_id":"ce4bgpp2rcd13ifvqc3g","pricing_plan_id":"cebpf4jnsgd1na2vs0mg"},{"bike_id":"fdc78b4c-ee5d-40cb-a7b6-0929cd0b30b0","system_id":"levelo_inurba_marseille","lat":43.29845,"lon":5.36276,"is_reserved":false,"is_disabled":false,"rental_uris":{"android":"levelo://app?vid=fdc78b4c-ee5d-40cb-a7b6-0929cd0b30b0","ios":"levelo://app?vid=fdc78b4c-ee5d-40cb-a7b6-0929cd0b30b0"},"vehicle_type_id":"4","last_reported":1711800681,"current_range_meters":12800,"station_id":"ce4bgpp2rcd13ifvqc3g","pricing_plan_id":"cebpf4jnsgd1na2vs0mg"},{"bike_id":"55acaf70-9507-4daa-bead-2fec50a18423","system_id":"levelo_inurba_marseille","lat":43.29846,"lon":5.36269,"is_reserved":false,"is_disabled":false,"rental_uris":{"android":"levelo://app?vid=55acaf70-9507-4daa-bead-2fec50a18423","ios":"levelo://app?vid=55acaf70-9507-4daa-bead-2fec50a18423"},"vehicle_type_id":"4","last_reported":1711800681,"current_range_meters":26400,"station_id":"ce4bgpp2rcd13ifvqc3g","pricing_plan_id":"cebpf4jnsgd1na2vs0mg"},{"bike_id":"996f5ef0-afd8-4663-8db9-752dc2c8911a","system_id":"levelo_inurba_marseille","lat":43.29845,"lon":5.36268,"is_reserved":false,"is_disabled":false,"rental_uris":{"android":"levelo://app?vid=996f5ef0-afd8-4663-8db9-752dc2c8911a","ios":"levelo://app?vid=996f5ef0-afd8-4663-8db9-752dc2c8911a"},"vehicle_type_id":"4","last_reported":1711800681,"current_range_meters":27200,"station_id":"ce4bgpp2rcd13ifvqc3g","pricing_plan_id":"cebpf4jnsgd1na2vs0mg"},{"bike_id":"e747311f-63ab-46e5-aed0-bd5f047854f9","system_id":"levelo_inurba_marseille","lat":43.299204,"lon":5.374531,"is_reserved":false,"is_disabled":false,"rental_uris":{"android":"levelo://app?vid=e747311f-63ab-46e5-aed0-bd5f047854f9","ios":"levelo://app?vid=e747311f-63ab-46e5-aed0-bd5f047854f9"},"vehicle_type_id":"4","last_reported":1711800681,"current_range_meters":13600,"station_id":"ce4bgjh2rcd13ifvqbg0","pricing_plan_id":"cebpf4jnsgd1na2vs0mg"},{"bike_id":"8f780e09-80e5-4a5b-8141-54d96a0d7e20","system_id":"levelo_inurba_marseille","lat":43.298433,"lon":5.362774,"is_reserved":false,"is_disabled":false,"rental_uris":{"android":"levelo://app?vid=8f780e09-80e5-4a5b-8141-54d96a0d7e20","ios":"levelo://app?vid=8f780e09-80e5-4a5b-8141-54d96a0d7e20"},"vehicle_type_id":"4","last_reported":1711800681,"current_range_meters":12000,"station_id":"ce4bgpp2rcd13ifvqc3g","pricing_plan_id":"cebpf4jnsgd1na2vs0mg"},{"bike_id":"ee374cf8-0ee1-43f6-8ed8-bac812d8b334","system_id":"levelo_inurba_marseille","lat":43.29843,"lon":5.36273,"is_reserved":false,"is_disabled":false,"rental_uris":{"android":"levelo://app?vid=ee374cf8-0ee1-43f6-8ed8-bac812d8b334","ios":"levelo://app?vid=ee374cf8-0ee1-43f6-8ed8-bac812d8b334"},"vehicle_type_id":"4","last_reported":1711800681,"current_range_meters":3600,"station_id":"ce4bgpp2rcd13ifvqc3g","pricing_plan_id":"cebpf4jnsgd1na2vs0mg"},{"bike_id":"05d43898-6c9d-47cd-a3dc-adbb77c1201c","system_id":"levelo_inurba_marseille","lat":43.298422,"lon":5.362756,"is_reserved":false,"is_disabled":false,"rental_uris":{"android":"levelo://app?vid=05d43898-6c9d-47cd-a3dc-adbb77c1201c","ios":"levelo://app?vid=05d43898-6c9d-47cd-a3dc-adbb77c1201c"},"vehicle_type_id":"4","last_reported":1711800681,"current_range_meters":26800,"station_id":"ce4bgpp2rcd13ifvqc3g","pricing_plan_id":"cebpf4jnsgd1na2vs0mg"},{"bike_id":"702cf221-54aa-4419-8eb3-af010db9f255","system_id":"levelo_inurba_marseille","lat":43.305364,"lon":5.384119,"is_reserved":false,"is_disabled":false,"rental_uris":{"android":"levelo://app?vid=702cf221-54aa-4419-8eb3-af010db9f255","ios":"levelo://app?vid=702cf221-54aa-4419-8eb3-af010db9f255"},"vehicle_type_id":"4","last_reported":1711800681,"current_range_meters":14800,"station_id":"ce4bgg92rcd13ifvqb30","pricing_plan_id":"cebpf4jnsgd1na2vs0mg"},{"bike_id":"753e99c6-0aad-4be8-808c-4b26cab21d4c","system_id":"levelo_inurba_marseille","lat":43.29833,"lon":5.36292,"is_reserved":false,"is_disabled":false,"rental_uris":{"android":"levelo://app?vid=753e99c6-0aad-4be8-808c-4b26cab21d4c","ios":"levelo://app?vid=753e99c6-0aad-4be8-808c-4b26cab21d4c"},"vehicle_type_id":"4","last_reported":1711800681,"current_range_meters":23600,"station_id":"ce4bgpp2rcd13ifvqc3g","pricing_plan_id":"cebpf4jnsgd1na2vs0mg"},{"bike_id":"cfd7ed96-21ff-4248-a796-d36c7c96c9b1","system_id":"levelo_inurba_marseille","lat":43.311706,"lon":5.387115,"is_reserved":false,"is_disabled":false,"rental_uris":{"android":"levelo://app?vid=cfd7ed96-21ff-4248-a796-d36c7c96c9b1","ios":"levelo://app?vid=cfd7ed96-21ff-4248-a796-d36c7c96c9b1"},"vehicle_type_id":"4","last_reported":1711800681,"current_range_meters":400,"station_id":"ce4bh392rcd13ifvqdm0","pricing_plan_id":"cebpf4jnsgd1na2vs0mg"},{"bike_id":"1dc25d97-921c-448a-975a-005501e3c2de","system_id":"levelo_inurba_marseille","lat":43.311722,"lon":5.387247,"is_reserved":false,"is_disabled":false,"rental_uris":{"android":"levelo://app?vid=1dc25d97-921c-448a-975a-005501e3c2de","ios":"levelo://app?vid=1dc25d97-921c-448a-975a-005501e3c2de"},"vehicle_type_id":"4","last_reported":1711800681,"current_range_meters":11200,"station_id":"ce4bgv12rcd13ifvqcp0","pricing_plan_id":"cebpf4jnsgd1na2vs0mg"},{"bike_id":"c8ee9356-d4b9-4ba8-86d2-d65b0a980b82","system_id":"levelo_inurba_marseille","lat":43.29953,"lon":5.37648,"is_reserved":false,"is_disabled":false,"rental_uris":{"android":"levelo://app?vid=c8ee9356-d4b9-4ba8-86d2-d65b0a980b82","ios":"levelo://app?vid=c8ee9356-d4b9-4ba8-86d2-d65b0a980b82"},"vehicle_type_id":"4","last_reported":1711800681,"current_range_meters":24000,"station_id":"","pricing_plan_id":"cebpf4jnsgd1na2vs0mg"},{"bike_id":"7657c744-4dc8-4d50-a782-a343d59ff34d","system_id":"levelo_inurba_marseille","lat":43.297774,"lon":5.370875,"is_reserved":false,"is_disabled":false,"rental_uris":{"android":"levelo://app?vid=7657c744-4dc8-4d50-a782-a343d59ff34d","ios":"levelo://app?vid=7657c744-4dc8-4d50-a782-a343d59ff34d"},"vehicle_type_id":"4","last_reported":1711800681,"current_range_meters":20800,"station_id":"ce4bgop2rcd13ifvqc1g","pricing_plan_id":"cebpf4jnsgd1na2vs0mg"},{"bike_id":"474423a0-7a15-44a4-966d-0de6f2d49aa7","system_id":"levelo_inurba_marseille","lat":43.297794,"lon":5.370888,"is_reserved":false,"is_disabled":false,"rental_uris":{"android":"levelo://app?vid=474423a0-7a15-44a4-966d-0de6f2d49aa7","ios":"levelo://app?vid=474423a0-7a15-44a4-966d-0de6f2d49aa7"},"vehicle_type_id":"4","last_reported":1711800681,"current_range_meters":6400,"station_id":"ce4bgop2rcd13ifvqc1g","pricing_plan_id":"cebpf4jnsgd1na2vs0mg"},{"bike_id":"fd92d8de-9aca-4363-8201-1084f265ef76","system_id":"levelo_inurba_marseille","lat":43.322872,"lon":5.382756,"is_reserved":false,"is_disabled":false,"rental_uris":{"android":"levelo://app?vid=fd92d8de-9aca-4363-8201-1084f265ef76","ios":"levelo://app?vid=fd92d8de-9aca-4363-8201-1084f265ef76"},"vehicle_type_id":"4","last_reported":1711800681,"current_range_meters":24000,"station_id":"ce4bhr12rcd13ifvqhqg","pricing_plan_id":"cebpf4jnsgd1na2vs0mg"},{"bike_id":"c1803e3c-5844-4500-9148-3f73efb6092e","system_id":"levelo_inurba_marseille","lat":43.322872,"lon":5.382756,"is_reserved":false,"is_disabled":false,"rental_uris":{"android":"levelo://app?vid=c1803e3c-5844-4500-9148-3f73efb6092e","ios":"levelo://app?vid=c1803e3c-5844-4500-9148-3f73efb6092e"},"vehicle_type_id":"4","last_reported":1711800681,"current_range_meters":8400,"station_id":"ce4bhr12rcd13ifvqhqg","pricing_plan_id":"cebpf4jnsgd1na2vs0mg"},{"bike_id":"af91ee66-ebec-4e5f-b566-646a8b5863b7","system_id":"levelo_inurba_marseille","lat":43.322872,"lon":5.382756,"is_reserved":false,"is_disabled":false,"rental_uris":{"android":"levelo://app?vid=af91ee66-ebec-4e5f-b566-646a8b5863b7","ios":"levelo://app?vid=af91ee66-ebec-4e5f-b566-646a8b5863b7"},"vehicle_type_id":"4","last_reported":1711800681,"current_range_meters":13200,"station_id":"ce4bhr12rcd13ifvqhqg","pricing_plan_id":"cebpf4jnsgd1na2vs0mg"},{"bike_id":"ce56e763-e1bb-4144-8985-4701a7ad4ba0","system_id":"levelo_inurba_marseille","lat":43.297774,"lon":5.370875,"is_reserved":false,"is_disabled":false,"rental_uris":{"android":"levelo://app?vid=ce56e763-e1bb-4144-8985-4701a7ad4ba0","ios":"levelo://app?vid=ce56e763-e1bb-4144-8985-4701a7ad4ba0"},"vehicle_type_id":"4","last_reported":1711800681,"current_range_meters":31600,"station_id":"ce4bgop2rcd13ifvqc1g","pricing_plan_id":"cebpf4jnsgd1na2vs0mg"},{"bike_id":"c498f0aa-dc5b-447d-b8b8-76f3fa7beed2","system_id":"levelo_inurba_marseille","lat":43.322872,"lon":5.382756,"is_reserved":false,"is_disabled":false,"rental_uris":{"android":"levelo://app?vid=c498f0aa-dc5b-447d-b8b8-76f3fa7beed2","ios":"levelo://app?vid=c498f0aa-dc5b-447d-b8b8-76f3fa7beed2"},"vehicle_type_id":"4","last_reported":1711800681,"current_range_meters":20800,"station_id":"ce4bhr12rcd13ifvqhqg","pricing_plan_id":"cebpf4jnsgd1na2vs0mg"},{"bike_id":"b1d3a55d-d224-44ee-b72d-6025267eda0c","system_id":"levelo_inurba_marseille","lat":43.322872,"lon":5.382756,"is_reserved":false,"is_disabled":false,"rental_uris":{"android":"levelo://app?vid=b1d3a55d-d224-44ee-b72d-6025267eda0c","ios":"levelo://app?vid=b1d3a55d-d224-44ee-b72d-6025267eda0c"},"vehicle_type_id":"4","last_reported":1711800681,"current_range_meters":9200,"station_id":"ce4bhr12rcd13ifvqhqg","pricing_plan_id":"cebpf4jnsgd1na2vs0mg"},{"bike_id":"6db4ba56-cdbd-44f6-826d-1abf96302385","system_id":"levelo_inurba_marseille","lat":43.322872,"lon":5.382756,"is_reserved":false,"is_disabled":false,"rental_uris":{"android":"levelo://app?vid=6db4ba56-cdbd-44f6-826d-1abf96302385","ios":"levelo://app?vid=6db4ba56-cdbd-44f6-826d-1abf96302385"},"vehicle_type_id":"4","last_reported":1711800681,"current_range_meters":31200,"station_id":"ce4bhr12rcd13ifvqhqg","pricing_plan_id":"cebpf4jnsgd1na2vs0mg"},{"bike_id":"618463bd-1676-4831-9f37-a13ac3641e2c","system_id":"levelo_inurba_marseille","lat":43.29711,"lon":5.36591,"is_reserved":false,"is_disabled":false,"rental_uris":{"android":"levelo://app?vid=618463bd-1676-4831-9f37-a13ac3641e2c","ios":"levelo://app?vid=618463bd-1676-4831-9f37-a13ac3641e2c"},"vehicle_type_id":"4","last_reported":1711800681,"current_range_meters":0,"station_id":"ce4bgn12rcd13ifvqbt0","pricing_plan_id":"cebpf4jnsgd1na2vs0mg"},{"bike_id":"f79864d3-4fb7-4457-8744-742c9fe436ed","system_id":"levelo_inurba_marseille","lat":43.2968,"lon":5.37291,"is_reserved":false,"is_disabled":false,"rental_uris":{"android":"levelo://app?vid=f79864d3-4fb7-4457-8744-742c9fe436ed","ios":"levelo://app?vid=f79864d3-4fb7-4457-8744-742c9fe436ed"},"vehicle_type_id":"4","last_reported":1711800681,"current_range_meters":25600,"station_id":"ce4bgk12rcd13ifvqbj0","pricing_plan_id":"cebpf4jnsgd1na2vs0mg"},{"bike_id":"b2e9e6fe-bfc2-49d8-8a7b-78dc564812ac","system_id":"levelo_inurba_marseille","lat":43.298803,"lon":5.379401,"is_reserved":false,"is_disabled":false,"rental_uris":{"android":"levelo://app?vid=b2e9e6fe-bfc2-49d8-8a7b-78dc564812ac","ios":"levelo://app?vid=b2e9e6fe-bfc2-49d8-8a7b-78dc564812ac"},"vehicle_type_id":"4","last_reported":1711800681,"current_range_meters":12000,"station_id":"","pricing_plan_id":"cebpf4jnsgd1na2vs0mg"},{"bike_id":"08c07119-c0d3-4eca-8153-bb461aa2bdd5","system_id":"levelo_inurba_marseille","lat":43.296131,"lon":5.370791,"is_reserved":false,"is_disabled":false,"rental_uris":{"android":"levelo://app?vid=08c07119-c0d3-4eca-8153-bb461aa2bdd5","ios":"levelo://app?vid=08c07119-c0d3-4eca-8153-bb461aa2bdd5"},"vehicle_type_id":"4","last_reported":1711800681,"current_range_meters":22000,"station_id":"ce4bgnh2rcd13ifvqc0g","pricing_plan_id":"cebpf4jnsgd1na2vs0mg"},{"bike_id":"a0763e79-4125-4983-8c05-172b695ac5c6","system_id":"levelo_inurba_marseille","lat":43.296131,"lon":5.370791,"is_reserved":false,"is_disabled":false,"rental_uris":{"android":"levelo://app?vid=a0763e79-4125-4983-8c05-172b695ac5c6","ios":"levelo://app?vid=a0763e79-4125-4983-8c05-172b695ac5c6"},"vehicle_type_id":"4","last_reported":1711800681,"current_range_meters":7200,"station_id":"ce4bgnh2rcd13ifvqc0g","pricing_plan_id":"cebpf4jnsgd1na2vs0mg"},{"bike_id":"903f5a86-e186-434c-a11d-1d77f85a2086","system_id":"levelo_inurba_marseille","lat":43.29623,"lon":5.3717,"is_reserved":false,"is_disabled":false,"rental_uris":{"android":"levelo://app?vid=903f5a86-e186-434c-a11d-1d77f85a2086","ios":"levelo://app?vid=903f5a86-e186-434c-a11d-1d77f85a2086"},"vehicle_type_id":"4","last_reported":1711800681,"current_range_meters":16400,"station_id":"ce4bgnh2rcd13ifvqc0g","pricing_plan_id":"cebpf4jnsgd1na2vs0mg"},{"bike_id":"00227275-25ff-4f7e-a426-9123dc1e3a95","system_id":"levelo_inurba_marseille","lat":43.260219,"lon":5.37546,"is_reserved":false,"is_disabled":false,"rental_uris":{"android":"levelo://app?vid=00227275-25ff-4f7e-a426-9123dc1e3a95","ios":"levelo://app?vid=00227275-25ff-4f7e-a426-9123dc1e3a95"},"vehicle_type_id":"4","last_reported":1711800681,"current_range_meters":0,"station_id":"ce4bhgh2rcd13ifvqfa0","pricing_plan_id":"cebpf4jnsgd1na2vs0mg"},{"bike_id":"a1945f30-71cc-4228-9675-0f9181558682","system_id":"levelo_inurba_marseille","lat":43.296131,"lon":5.370773,"is_reserved":false,"is_disabled":false,"rental_uris":{"android":"levelo://app?vid=a1945f30-71cc-4228-9675-0f9181558682","ios":"levelo://app?vid=a1945f30-71cc-4228-9675-0f9181558682"},"vehicle_type_id":"4","last_reported":1711800681,"current_range_meters":12000,"station_id":"ce4bgnh2rcd13ifvqc0g","pricing_plan_id":"cebpf4jnsgd1na2vs0mg"},{"bike_id":"2f0af91a-6233-4600-a13a-100dd82a6a24","system_id":"levelo_inurba_marseille","lat":43.29621,"lon":5.37181,"is_reserved":false,"is_disabled":false,"rental_uris":{"android":"levelo://app?vid=2f0af91a-6233-4600-a13a-100dd82a6a24","ios":"levelo://app?vid=2f0af91a-6233-4600-a13a-100dd82a6a24"},"vehicle_type_id":"4","last_reported":1711800681,"current_range_meters":28400,"station_id":"ce4bgnh2rcd13ifvqc0g","pricing_plan_id":"cebpf4jnsgd1na2vs0mg"},{"bike_id":"3adc41fa-2515-4997-a245-9bc0fcce8ffd","system_id":"levelo_inurba_marseille","lat":43.296131,"lon":5.370773,"is_reserved":false,"is_disabled":false,"rental_uris":{"android":"levelo://app?vid=3adc41fa-2515-4997-a245-9bc0fcce8ffd","ios":"levelo://app?vid=3adc41fa-2515-4997-a245-9bc0fcce8ffd"},"vehicle_type_id":"4","last_reported":1711800681,"current_range_meters":28000,"station_id":"ce4bgnh2rcd13ifvqc0g","pricing_plan_id":"cebpf4jnsgd1na2vs0mg"},{"bike_id":"6ee73c97-f9db-492b-a719-ac221ed9f540","system_id":"levelo_inurba_marseille","lat":43.296131,"lon":5.370791,"is_reserved":false,"is_disabled":false,"rental_uris":{"android":"levelo://app?vid=6ee73c97-f9db-492b-a719-ac221ed9f540","ios":"levelo://app?vid=6ee73c97-f9db-492b-a719-ac221ed9f540"},"vehicle_type_id":"4","last_reported":1711800681,"current_range_meters":31200,"station_id":"ce4bgnh2rcd13ifvqc0g","pricing_plan_id":"cebpf4jnsgd1na2vs0mg"},{"bike_id":"92730ca2-a564-4371-8a2a-8c3eb79ac17a","system_id":"levelo_inurba_marseille","lat":43.29573,"lon":5.367355,"is_reserved":false,"is_disabled":false,"rental_uris":{"android":"levelo://app?vid=92730ca2-a564-4371-8a2a-8c3eb79ac17a","ios":"levelo://app?vid=92730ca2-a564-4371-8a2a-8c3eb79ac17a"},"vehicle_type_id":"4","last_reported":1711800681,"current_range_meters":23200,"station_id":"ce4bgph2rcd13ifvqc2g","pricing_plan_id":"cebpf4jnsgd1na2vs0mg"},{"bike_id":"d58ae278-7dd7-47dd-a2c8-4ad54638c867","system_id":"levelo_inurba_marseille","lat":43.29573,"lon":5.367355,"is_reserved":false,"is_disabled":false,"rental_uris":{"android":"levelo://app?vid=d58ae278-7dd7-47dd-a2c8-4ad54638c867","ios":"levelo://app?vid=d58ae278-7dd7-47dd-a2c8-4ad54638c867"},"vehicle_type_id":"4","last_reported":1711800681,"current_range_meters":27600,"station_id":"ce4bgph2rcd13ifvqc2g","pricing_plan_id":"cebpf4jnsgd1na2vs0mg"},{"bike_id":"0167ed8b-5755-499c-96d5-4ac9a3b13388","system_id":"levelo_inurba_marseille","lat":43.296935,"lon":5.376544,"is_reserved":false,"is_disabled":false,"rental_uris":{"android":"levelo://app?vid=0167ed8b-5755-499c-96d5-4ac9a3b13388","ios":"levelo://app?vid=0167ed8b-5755-499c-96d5-4ac9a3b13388"},"vehicle_type_id":"4","last_reported":1711800681,"current_range_meters":6800,"station_id":"ce4bgkh2rcd13ifvqbl0","pricing_plan_id":"cebpf4jnsgd1na2vs0mg"},{"bike_id":"7808032a-fa36-4060-9b7d-a4161c7954a6","system_id":"levelo_inurba_marseille","lat":43.29727,"lon":5.37682,"is_reserved":false,"is_disabled":false,"rental_uris":{"android":"levelo://app?vid=7808032a-fa36-4060-9b7d-a4161c7954a6","ios":"levelo://app?vid=7808032a-fa36-4060-9b7d-a4161c7954a6"},"vehicle_type_id":"4","last_reported":1711800681,"current_range_meters":3200,"station_id":"ce4bgkh2rcd13ifvqbl0","pricing_plan_id":"cebpf4jnsgd1na2vs0mg"},{"bike_id":"52f799e2-65e3-4f19-a8d5-ce40f77b77c3","system_id":"levelo_inurba_marseille","lat":43.296921,"lon":5.376579,"is_reserved":false,"is_disabled":false,"rental_uris":{"android":"levelo://app?vid=52f799e2-65e3-4f19-a8d5-ce40f77b77c3","ios":"levelo://app?vid=52f799e2-65e3-4f19-a8d5-ce40f77b77c3"},"vehicle_type_id":"4","last_reported":1711800681,"current_range_meters":31200,"station_id":"ce4bgkh2rcd13ifvqbl0","pricing_plan_id":"cebpf4jnsgd1na2vs0mg"},{"bike_id":"3557179b-5015-4a0c-8130-33dbf0dea7e9","system_id":"levelo_inurba_marseille","lat":43.296935,"lon":5.376544,"is_reserved":false,"is_disabled":false,"rental_uris":{"android":"levelo://app?vid=3557179b-5015-4a0c-8130-33dbf0dea7e9","ios":"levelo://app?vid=3557179b-5015-4a0c-8130-33dbf0dea7e9"},"vehicle_type_id":"4","last_reported":1711800681,"current_range_meters":18400,"station_id":"ce4bgkh2rcd13ifvqbl0","pricing_plan_id":"cebpf4jnsgd1na2vs0mg"},{"bike_id":"37432661-2d48-448e-a967-0bb4f3aafe0f","system_id":"levelo_inurba_marseille","lat":43.297249,"lon":5.376883,"is_reserved":false,"is_disabled":false,"rental_uris":{"android":"levelo://app?vid=37432661-2d48-448e-a967-0bb4f3aafe0f","ios":"levelo://app?vid=37432661-2d48-448e-a967-0bb4f3aafe0f"},"vehicle_type_id":"4","last_reported":1711800681,"current_range_meters":31200,"station_id":"ce4bgkh2rcd13ifvqbl0","pricing_plan_id":"cebpf4jnsgd1na2vs0mg"},{"bike_id":"11ee061f-2a4b-4957-b636-e926edf5d726","system_id":"levelo_inurba_marseille","lat":43.296935,"lon":5.376544,"is_reserved":false,"is_disabled":false,"rental_uris":{"android":"levelo://app?vid=11ee061f-2a4b-4957-b636-e926edf5d726","ios":"levelo://app?vid=11ee061f-2a4b-4957-b636-e926edf5d726"},"vehicle_type_id":"4","last_reported":1711800681,"current_range_meters":11200,"station_id":"ce4bgkh2rcd13ifvqbl0","pricing_plan_id":"cebpf4jnsgd1na2vs0mg"},{"bike_id":"490ff4bc-1c8c-4128-9958-527d02c92013","system_id":"levelo_inurba_marseille","lat":43.297224,"lon":5.37688,"is_reserved":false,"is_disabled":false,"rental_uris":{"android":"levelo://app?vid=490ff4bc-1c8c-4128-9958-527d02c92013","ios":"levelo://app?vid=490ff4bc-1c8c-4128-9958-527d02c92013"},"vehicle_type_id":"4","last_reported":1711800681,"current_range_meters":12800,"station_id":"ce4bgkh2rcd13ifvqbl0","pricing_plan_id":"cebpf4jnsgd1na2vs0mg"},{"bike_id":"ab7abf28-469d-4ec7-b535-064ae98d454b","system_id":"levelo_inurba_marseille","lat":43.296921,"lon":5.376579,"is_reserved":false,"is_disabled":false,"rental_uris":{"android":"levelo://app?vid=ab7abf28-469d-4ec7-b535-064ae98d454b","ios":"levelo://app?vid=ab7abf28-469d-4ec7-b535-064ae98d454b"},"vehicle_type_id":"4","last_reported":1711800681,"current_range_meters":29200,"station_id":"ce4bgkh2rcd13ifvqbl0","pricing_plan_id":"cebpf4jnsgd1na2vs0mg"},{"bike_id":"d8bc4076-623a-42f6-b605-62e1e91bed8f","system_id":"levelo_inurba_marseille","lat":43.296935,"lon":5.376544,"is_reserved":false,"is_disabled":false,"rental_uris":{"android":"levelo://app?vid=d8bc4076-623a-42f6-b605-62e1e91bed8f","ios":"levelo://app?vid=d8bc4076-623a-42f6-b605-62e1e91bed8f"},"vehicle_type_id":"4","last_reported":1711800681,"current_range_meters":8400,"station_id":"ce4bgkh2rcd13ifvqbl0","pricing_plan_id":"cebpf4jnsgd1na2vs0mg"},{"bike_id":"789bcaa4-239c-4b00-be91-019333db9142","system_id":"levelo_inurba_marseille","lat":43.296935,"lon":5.376544,"is_reserved":false,"is_disabled":false,"rental_uris":{"android":"levelo://app?vid=789bcaa4-239c-4b00-be91-019333db9142","ios":"levelo://app?vid=789bcaa4-239c-4b00-be91-019333db9142"},"vehicle_type_id":"4","last_reported":1711800681,"current_range_meters":10800,"station_id":"ce4bgkh2rcd13ifvqbl0","pricing_plan_id":"cebpf4jnsgd1na2vs0mg"},{"bike_id":"ea5d0582-7ae9-4663-9b9f-e48a07e231e1","system_id":"levelo_inurba_marseille","lat":43.301117,"lon":5.398795,"is_reserved":false,"is_disabled":false,"rental_uris":{"android":"levelo://app?vid=ea5d0582-7ae9-4663-9b9f-e48a07e231e1","ios":"levelo://app?vid=ea5d0582-7ae9-4663-9b9f-e48a07e231e1"},"vehicle_type_id":"4","last_reported":1711800681,"current_range_meters":12800,"station_id":"ce4bh0h2rcd13ifvqd40","pricing_plan_id":"cebpf4jnsgd1na2vs0mg"},{"bike_id":"1165f996-a28c-453a-925f-1328a2e5c29e","system_id":"levelo_inurba_marseille","lat":43.30948,"lon":5.39021,"is_reserved":false,"is_disabled":false,"rental_uris":{"android":"levelo://app?vid=1165f996-a28c-453a-925f-1328a2e5c29e","ios":"levelo://app?vid=1165f996-a28c-453a-925f-1328a2e5c29e"},"vehicle_type_id":"4","last_reported":1711800681,"current_range_meters":14400,"station_id":"ce4bgup2rcd13ifvqco0","pricing_plan_id":"cebpf4jnsgd1na2vs0mg"},{"bike_id":"ea270515-3b94-478a-8da2-485e52d8b611","system_id":"levelo_inurba_marseille","lat":43.2971,"lon":5.37698,"is_reserved":false,"is_disabled":false,"rental_uris":{"android":"levelo://app?vid=ea270515-3b94-478a-8da2-485e52d8b611","ios":"levelo://app?vid=ea270515-3b94-478a-8da2-485e52d8b611"},"vehicle_type_id":"4","last_reported":1711800681,"current_range_meters":14000,"station_id":"ce4bgkh2rcd13ifvqbl0","pricing_plan_id":"cebpf4jnsgd1na2vs0mg"},{"bike_id":"7af5941b-231c-4cc8-8905-0bc94b95eaf4","system_id":"levelo_inurba_marseille","lat":43.296935,"lon":5.376544,"is_reserved":false,"is_disabled":false,"rental_uris":{"android":"levelo://app?vid=7af5941b-231c-4cc8-8905-0bc94b95eaf4","ios":"levelo://app?vid=7af5941b-231c-4cc8-8905-0bc94b95eaf4"},"vehicle_type_id":"4","last_reported":1711800681,"current_range_meters":21200,"station_id":"ce4bgkh2rcd13ifvqbl0","pricing_plan_id":"cebpf4jnsgd1na2vs0mg"},{"bike_id":"8a85c94b-74b8-4031-a0c5-7d2faf0b37ca","system_id":"levelo_inurba_marseille","lat":43.299028,"lon":5.381509,"is_reserved":false,"is_disabled":false,"rental_uris":{"android":"levelo://app?vid=8a85c94b-74b8-4031-a0c5-7d2faf0b37ca","ios":"levelo://app?vid=8a85c94b-74b8-4031-a0c5-7d2faf0b37ca"},"vehicle_type_id":"4","last_reported":1711800681,"current_range_meters":26800,"station_id":"ce4bgj12rcd13ifvqbc0","pricing_plan_id":"cebpf4jnsgd1na2vs0mg"},{"bike_id":"34fda28b-f609-4667-967b-de3870b0f90f","system_id":"levelo_inurba_marseille","lat":43.309589,"lon":5.390258,"is_reserved":false,"is_disabled":false,"rental_uris":{"android":"levelo://app?vid=34fda28b-f609-4667-967b-de3870b0f90f","ios":"levelo://app?vid=34fda28b-f609-4667-967b-de3870b0f90f"},"vehicle_type_id":"4","last_reported":1711800681,"current_range_meters":30400,"station_id":"ce4bgup2rcd13ifvqco0","pricing_plan_id":"cebpf4jnsgd1na2vs0mg"},{"bike_id":"369c7ff3-758a-4880-bdee-a89e4721282f","system_id":"levelo_inurba_marseille","lat":43.309589,"lon":5.390258,"is_reserved":false,"is_disabled":false,"rental_uris":{"android":"levelo://app?vid=369c7ff3-758a-4880-bdee-a89e4721282f","ios":"levelo://app?vid=369c7ff3-758a-4880-bdee-a89e4721282f"},"vehicle_type_id":"4","last_reported":1711800681,"current_range_meters":18000,"station_id":"ce4bgup2rcd13ifvqco0","pricing_plan_id":"cebpf4jnsgd1na2vs0mg"},{"bike_id":"1bd865bc-6e7e-4af2-a24f-733c9802842b","system_id":"levelo_inurba_marseille","lat":43.299028,"lon":5.381509,"is_reserved":false,"is_disabled":false,"rental_uris":{"android":"levelo://app?vid=1bd865bc-6e7e-4af2-a24f-733c9802842b","ios":"levelo://app?vid=1bd865bc-6e7e-4af2-a24f-733c9802842b"},"vehicle_type_id":"4","last_reported":1711800681,"current_range_meters":25200,"station_id":"ce4bgj12rcd13ifvqbc0","pricing_plan_id":"cebpf4jnsgd1na2vs0mg"},{"bike_id":"5117c950-fd06-4234-8489-0b0705ca1059","system_id":"levelo_inurba_marseille","lat":43.309589,"lon":5.390258,"is_reserved":false,"is_disabled":false,"rental_uris":{"android":"levelo://app?vid=5117c950-fd06-4234-8489-0b0705ca1059","ios":"levelo://app?vid=5117c950-fd06-4234-8489-0b0705ca1059"},"vehicle_type_id":"4","last_reported":1711800681,"current_range_meters":18000,"station_id":"ce4bgup2rcd13ifvqco0","pricing_plan_id":"cebpf4jnsgd1na2vs0mg"},{"bike_id":"654f21c7-3597-4a18-aa83-885ea7363c2b","system_id":"levelo_inurba_marseille","lat":43.30952,"lon":5.39028,"is_reserved":false,"is_disabled":false,"rental_uris":{"android":"levelo://app?vid=654f21c7-3597-4a18-aa83-885ea7363c2b","ios":"levelo://app?vid=654f21c7-3597-4a18-aa83-885ea7363c2b"},"vehicle_type_id":"4","last_reported":1711800681,"current_range_meters":6800,"station_id":"ce4bgup2rcd13ifvqco0","pricing_plan_id":"cebpf4jnsgd1na2vs0mg"},{"bike_id":"06590680-8db3-44c2-8761-d3f3a66eb2c9","system_id":"levelo_inurba_marseille","lat":43.296935,"lon":5.376544,"is_reserved":false,"is_disabled":false,"rental_uris":{"android":"levelo://app?vid=06590680-8db3-44c2-8761-d3f3a66eb2c9","ios":"levelo://app?vid=06590680-8db3-44c2-8761-d3f3a66eb2c9"},"vehicle_type_id":"4","last_reported":1711800681,"current_range_meters":17600,"station_id":"ce4bgkh2rcd13ifvqbl0","pricing_plan_id":"cebpf4jnsgd1na2vs0mg"},{"bike_id":"447dc815-be03-45e7-a2d0-5c75ea4ea556","system_id":"levelo_inurba_marseille","lat":43.299028,"lon":5.381509,"is_reserved":false,"is_disabled":false,"rental_uris":{"android":"levelo://app?vid=447dc815-be03-45e7-a2d0-5c75ea4ea556","ios":"levelo://app?vid=447dc815-be03-45e7-a2d0-5c75ea4ea556"},"vehicle_type_id":"4","last_reported":1711800681,"current_range_meters":31600,"station_id":"ce4bgj12rcd13ifvqbc0","pricing_plan_id":"cebpf4jnsgd1na2vs0mg"},{"bike_id":"55f7a83c-b716-46c7-ab2f-c61a837a7451","system_id":"levelo_inurba_marseille","lat":43.299028,"lon":5.381509,"is_reserved":false,"is_disabled":false,"rental_uris":{"android":"levelo://app?vid=55f7a83c-b716-46c7-ab2f-c61a837a7451","ios":"levelo://app?vid=55f7a83c-b716-46c7-ab2f-c61a837a7451"},"vehicle_type_id":"4","last_reported":1711800681,"current_range_meters":7600,"station_id":"ce4bgj12rcd13ifvqbc0","pricing_plan_id":"cebpf4jnsgd1na2vs0mg"},{"bike_id":"5a37d1f3-75d1-4d04-a48b-0e986b09b4d2","system_id":"levelo_inurba_marseille","lat":43.299028,"lon":5.381509,"is_reserved":false,"is_disabled":false,"rental_uris":{"android":"levelo://app?vid=5a37d1f3-75d1-4d04-a48b-0e986b09b4d2","ios":"levelo://app?vid=5a37d1f3-75d1-4d04-a48b-0e986b09b4d2"},"vehicle_type_id":"4","last_reported":1711800681,"current_range_meters":0,"station_id":"ce4bgj12rcd13ifvqbc0","pricing_plan_id":"cebpf4jnsgd1na2vs0mg"},{"bike_id":"caf9dcc4-9e0b-49f3-ab93-a7867c6808ce","system_id":"levelo_inurba_marseille","lat":43.299028,"lon":5.381509,"is_reserved":false,"is_disabled":false,"rental_uris":{"android":"levelo://app?vid=caf9dcc4-9e0b-49f3-ab93-a7867c6808ce","ios":"levelo://app?vid=caf9dcc4-9e0b-49f3-ab93-a7867c6808ce"},"vehicle_type_id":"4","last_reported":1711800681,"current_range_meters":24800,"station_id":"ce4bgj12rcd13ifvqbc0","pricing_plan_id":"cebpf4jnsgd1na2vs0mg"},{"bike_id":"06b59736-2094-40af-a83d-82316dfc12ec","system_id":"levelo_inurba_marseille","lat":43.299028,"lon":5.381509,"is_reserved":false,"is_disabled":false,"rental_uris":{"android":"levelo://app?vid=06b59736-2094-40af-a83d-82316dfc12ec","ios":"levelo://app?vid=06b59736-2094-40af-a83d-82316dfc12ec"},"vehicle_type_id":"4","last_reported":1711800681,"current_range_meters":24400,"station_id":"ce4bgj12rcd13ifvqbc0","pricing_plan_id":"cebpf4jnsgd1na2vs0mg"},{"bike_id":"fd4a48aa-cd0c-4e09-8c0a-28feb8e0ccda","system_id":"levelo_inurba_marseille","lat":43.299028,"lon":5.381509,"is_reserved":false,"is_disabled":false,"rental_uris":{"android":"levelo://app?vid=fd4a48aa-cd0c-4e09-8c0a-28feb8e0ccda","ios":"levelo://app?vid=fd4a48aa-cd0c-4e09-8c0a-28feb8e0ccda"},"vehicle_type_id":"4","last_reported":1711800681,"current_range_meters":21600,"station_id":"ce4bgj12rcd13ifvqbc0","pricing_plan_id":"cebpf4jnsgd1na2vs0mg"},{"bike_id":"a9ed1080-9dad-48c6-b6ce-4341eb402764","system_id":"levelo_inurba_marseille","lat":43.309589,"lon":5.390258,"is_reserved":false,"is_disabled":false,"rental_uris":{"android":"levelo://app?vid=a9ed1080-9dad-48c6-b6ce-4341eb402764","ios":"levelo://app?vid=a9ed1080-9dad-48c6-b6ce-4341eb402764"},"vehicle_type_id":"4","last_reported":1711800681,"current_range_meters":19200,"station_id":"ce4bgup2rcd13ifvqco0","pricing_plan_id":"cebpf4jnsgd1na2vs0mg"},{"bike_id":"88f2ec1f-77a8-4099-94a5-22c628c7fefa","system_id":"levelo_inurba_marseille","lat":43.309589,"lon":5.390258,"is_reserved":false,"is_disabled":false,"rental_uris":{"android":"levelo://app?vid=88f2ec1f-77a8-4099-94a5-22c628c7fefa","ios":"levelo://app?vid=88f2ec1f-77a8-4099-94a5-22c628c7fefa"},"vehicle_type_id":"4","last_reported":1711800681,"current_range_meters":31200,"station_id":"ce4bgup2rcd13ifvqco0","pricing_plan_id":"cebpf4jnsgd1na2vs0mg"},{"bike_id":"ed769e5d-c755-4059-8a9f-305d18547bf4","system_id":"levelo_inurba_marseille","lat":43.299028,"lon":5.381509,"is_reserved":false,"is_disabled":false,"rental_uris":{"android":"levelo://app?vid=ed769e5d-c755-4059-8a9f-305d18547bf4","ios":"levelo://app?vid=ed769e5d-c755-4059-8a9f-305d18547bf4"},"vehicle_type_id":"4","last_reported":1711800681,"current_range_meters":16000,"station_id":"ce4bgj12rcd13ifvqbc0","pricing_plan_id":"cebpf4jnsgd1na2vs0mg"},{"bike_id":"7f7934c2-886e-48c0-a5a1-8b25ae9c9909","system_id":"levelo_inurba_marseille","lat":43.299028,"lon":5.381509,"is_reserved":false,"is_disabled":false,"rental_uris":{"android":"levelo://app?vid=7f7934c2-886e-48c0-a5a1-8b25ae9c9909","ios":"levelo://app?vid=7f7934c2-886e-48c0-a5a1-8b25ae9c9909"},"vehicle_type_id":"4","last_reported":1711800681,"current_range_meters":31600,"station_id":"ce4bgj12rcd13ifvqbc0","pricing_plan_id":"cebpf4jnsgd1na2vs0mg"},{"bike_id":"6c814c04-6f13-49eb-8e72-3fdeb963638f","system_id":"levelo_inurba_marseille","lat":43.309589,"lon":5.390258,"is_reserved":false,"is_disabled":false,"rental_uris":{"android":"levelo://app?vid=6c814c04-6f13-49eb-8e72-3fdeb963638f","ios":"levelo://app?vid=6c814c04-6f13-49eb-8e72-3fdeb963638f"},"vehicle_type_id":"4","last_reported":1711800681,"current_range_meters":31200,"station_id":"ce4bgup2rcd13ifvqco0","pricing_plan_id":"cebpf4jnsgd1na2vs0mg"},{"bike_id":"cf82ee1a-b678-4827-bcf0-affd80c62a07","system_id":"levelo_inurba_marseille","lat":43.309589,"lon":5.390258,"is_reserved":false,"is_disabled":false,"rental_uris":{"android":"levelo://app?vid=cf82ee1a-b678-4827-bcf0-affd80c62a07","ios":"levelo://app?vid=cf82ee1a-b678-4827-bcf0-affd80c62a07"},"vehicle_type_id":"4","last_reported":1711800681,"current_range_meters":6800,"station_id":"ce4bgup2rcd13ifvqco0","pricing_plan_id":"cebpf4jnsgd1na2vs0mg"},{"bike_id":"e4785808-09b5-4a3d-9ced-cc3d58489382","system_id":"levelo_inurba_marseille","lat":43.309589,"lon":5.390258,"is_reserved":false,"is_disabled":false,"rental_uris":{"android":"levelo://app?vid=e4785808-09b5-4a3d-9ced-cc3d58489382","ios":"levelo://app?vid=e4785808-09b5-4a3d-9ced-cc3d58489382"},"vehicle_type_id":"4","last_reported":1711800681,"current_range_meters":30800,"station_id":"ce4bgup2rcd13ifvqco0","pricing_plan_id":"cebpf4jnsgd1na2vs0mg"},{"bike_id":"29dbc1a7-bd7e-40bc-9118-0410452cee35","system_id":"levelo_inurba_marseille","lat":43.309589,"lon":5.390258,"is_reserved":false,"is_disabled":false,"rental_uris":{"android":"levelo://app?vid=29dbc1a7-bd7e-40bc-9118-0410452cee35","ios":"levelo://app?vid=29dbc1a7-bd7e-40bc-9118-0410452cee35"},"vehicle_type_id":"4","last_reported":1711800681,"current_range_meters":12800,"station_id":"ce4bgup2rcd13ifvqco0","pricing_plan_id":"cebpf4jnsgd1na2vs0mg"},{"bike_id":"92142d26-328b-49d5-8baa-6b6c20f17faa","system_id":"levelo_inurba_marseille","lat":43.309589,"lon":5.390258,"is_reserved":false,"is_disabled":false,"rental_uris":{"android":"levelo://app?vid=92142d26-328b-49d5-8baa-6b6c20f17faa","ios":"levelo://app?vid=92142d26-328b-49d5-8baa-6b6c20f17faa"},"vehicle_type_id":"4","last_reported":1711800681,"current_range_meters":29200,"station_id":"ce4bgup2rcd13ifvqco0","pricing_plan_id":"cebpf4jnsgd1na2vs0mg"},{"bike_id":"3ac75a27-7d20-4b50-a2e8-5d2bdaf44d12","system_id":"levelo_inurba_marseille","lat":43.309589,"lon":5.390258,"is_reserved":false,"is_disabled":false,"rental_uris":{"android":"levelo://app?vid=3ac75a27-7d20-4b50-a2e8-5d2bdaf44d12","ios":"levelo://app?vid=3ac75a27-7d20-4b50-a2e8-5d2bdaf44d12"},"vehicle_type_id":"4","last_reported":1711800681,"current_range_meters":23600,"station_id":"ce4bgup2rcd13ifvqco0","pricing_plan_id":"cebpf4jnsgd1na2vs0mg"},{"bike_id":"f03629cd-6ac1-4e69-af82-522ef8ded4cd","system_id":"levelo_inurba_marseille","lat":43.309589,"lon":5.390258,"is_reserved":false,"is_disabled":false,"rental_uris":{"android":"levelo://app?vid=f03629cd-6ac1-4e69-af82-522ef8ded4cd","ios":"levelo://app?vid=f03629cd-6ac1-4e69-af82-522ef8ded4cd"},"vehicle_type_id":"4","last_reported":1711800681,"current_range_meters":25600,"station_id":"ce4bgup2rcd13ifvqco0","pricing_plan_id":"cebpf4jnsgd1na2vs0mg"},{"bike_id":"2a83c29a-2f33-4dcd-8bbb-3aeee3376f49","system_id":"levelo_inurba_marseille","lat":43.309589,"lon":5.390258,"is_reserved":false,"is_disabled":false,"rental_uris":{"android":"levelo://app?vid=2a83c29a-2f33-4dcd-8bbb-3aeee3376f49","ios":"levelo://app?vid=2a83c29a-2f33-4dcd-8bbb-3aeee3376f49"},"vehicle_type_id":"4","last_reported":1711800681,"current_range_meters":6400,"station_id":"ce4bgup2rcd13ifvqco0","pricing_plan_id":"cebpf4jnsgd1na2vs0mg"},{"bike_id":"8d689d51-ae40-49c3-b407-1e5b4eada5e0","system_id":"levelo_inurba_marseille","lat":43.299028,"lon":5.381509,"is_reserved":false,"is_disabled":false,"rental_uris":{"android":"levelo://app?vid=8d689d51-ae40-49c3-b407-1e5b4eada5e0","ios":"levelo://app?vid=8d689d51-ae40-49c3-b407-1e5b4eada5e0"},"vehicle_type_id":"4","last_reported":1711800681,"current_range_meters":29600,"station_id":"ce4bgj12rcd13ifvqbc0","pricing_plan_id":"cebpf4jnsgd1na2vs0mg"},{"bike_id":"4e4cca9d-ca86-4053-8f34-c29e772e09f9","system_id":"levelo_inurba_marseille","lat":43.309589,"lon":5.390258,"is_reserved":false,"is_disabled":false,"rental_uris":{"android":"levelo://app?vid=4e4cca9d-ca86-4053-8f34-c29e772e09f9","ios":"levelo://app?vid=4e4cca9d-ca86-4053-8f34-c29e772e09f9"},"vehicle_type_id":"4","last_reported":1711800681,"current_range_meters":25600,"station_id":"ce4bgup2rcd13ifvqco0","pricing_plan_id":"cebpf4jnsgd1na2vs0mg"},{"bike_id":"323e87fa-bde1-4844-b4b7-5f7321cfb4a0","system_id":"levelo_inurba_marseille","lat":43.309589,"lon":5.390258,"is_reserved":false,"is_disabled":false,"rental_uris":{"android":"levelo://app?vid=323e87fa-bde1-4844-b4b7-5f7321cfb4a0","ios":"levelo://app?vid=323e87fa-bde1-4844-b4b7-5f7321cfb4a0"},"vehicle_type_id":"4","last_reported":1711800681,"current_range_meters":17200,"station_id":"ce4bgup2rcd13ifvqco0","pricing_plan_id":"cebpf4jnsgd1na2vs0mg"},{"bike_id":"acd2b3a0-e0f7-4352-ac30-6e6c7f6e5183","system_id":"levelo_inurba_marseille","lat":43.309589,"lon":5.390258,"is_reserved":false,"is_disabled":false,"rental_uris":{"android":"levelo://app?vid=acd2b3a0-e0f7-4352-ac30-6e6c7f6e5183","ios":"levelo://app?vid=acd2b3a0-e0f7-4352-ac30-6e6c7f6e5183"},"vehicle_type_id":"4","last_reported":1711800681,"current_range_meters":20000,"station_id":"ce4bgup2rcd13ifvqco0","pricing_plan_id":"cebpf4jnsgd1na2vs0mg"},{"bike_id":"23d680db-6130-4ec7-91ff-9cd9aabe3061","system_id":"levelo_inurba_marseille","lat":43.309589,"lon":5.390258,"is_reserved":false,"is_disabled":false,"rental_uris":{"android":"levelo://app?vid=23d680db-6130-4ec7-91ff-9cd9aabe3061","ios":"levelo://app?vid=23d680db-6130-4ec7-91ff-9cd9aabe3061"},"vehicle_type_id":"4","last_reported":1711800681,"current_range_meters":25600,"station_id":"ce4bgup2rcd13ifvqco0","pricing_plan_id":"cebpf4jnsgd1na2vs0mg"},{"bike_id":"53ec3e53-f232-4635-a8ae-aeb20508621f","system_id":"levelo_inurba_marseille","lat":43.30962,"lon":5.39057,"is_reserved":false,"is_disabled":false,"rental_uris":{"android":"levelo://app?vid=53ec3e53-f232-4635-a8ae-aeb20508621f","ios":"levelo://app?vid=53ec3e53-f232-4635-a8ae-aeb20508621f"},"vehicle_type_id":"4","last_reported":1711800681,"current_range_meters":13600,"station_id":"ce4bgup2rcd13ifvqco0","pricing_plan_id":"cebpf4jnsgd1na2vs0mg"},{"bike_id":"b3cbb073-baf1-463c-8bfd-8c3e9ef7bb12","system_id":"levelo_inurba_marseille","lat":43.317505,"lon":5.390075,"is_reserved":false,"is_disabled":false,"rental_uris":{"android":"levelo://app?vid=b3cbb073-baf1-463c-8bfd-8c3e9ef7bb12","ios":"levelo://app?vid=b3cbb073-baf1-463c-8bfd-8c3e9ef7bb12"},"vehicle_type_id":"4","last_reported":1711800681,"current_range_meters":24000,"station_id":"ce4bhqp2rcd13ifvqhng","pricing_plan_id":"cebpf4jnsgd1na2vs0mg"},{"bike_id":"65a33db8-e524-48b2-b9c9-115cdef710d4","system_id":"levelo_inurba_marseille","lat":43.317557,"lon":5.390173,"is_reserved":false,"is_disabled":false,"rental_uris":{"android":"levelo://app?vid=65a33db8-e524-48b2-b9c9-115cdef710d4","ios":"levelo://app?vid=65a33db8-e524-48b2-b9c9-115cdef710d4"},"vehicle_type_id":"4","last_reported":1711800681,"current_range_meters":22800,"station_id":"ce4bhqp2rcd13ifvqhng","pricing_plan_id":"cebpf4jnsgd1na2vs0mg"},