{"last_updated":1741763356,"ttl":60,"version":"2.2","data":{"bikes":[{"bike_id":"472fc3c9-ff81-4115-97ad-d3af3a7c64d6","system_id":"levelo_inurba_marseille","lat":43.27182,"lon":5.40991,"is_reserved":false,"is_disabled":false,"rental_uris":{"android":"levelo://app?vid=472fc3c9-ff81-4115-97ad-d3af3a7c64d6","ios":"levelo://app?vid=472fc3c9-ff81-4115-97ad-d3af3a7c64d6"},"vehicle_type_id":"4","last_reported":1741763356,"current_range_meters":2800,"station_id":"ce4bhl12rcd13ifvqgf0","pricing_plan_id":"cebpf4jnsgd1na2vs0mg"},{"bike_id":"a886c57a-6972-459c-bdb0-88b313abc0cf","system_id":"levelo_inurba_marseille","lat":43.26572,"lon":5.39007,"is_reserved":false,"is_disabled":false,"rental_uris":{"android":"levelo://app?vid=a886c57a-6972-459c-bdb0-88b313abc0cf","ios":"levelo://app?vid=a886c57a-6972-459c-bdb0-88b313abc0cf"},"vehicle_type_id":"4","last_reported":1741763356,"current_range_meters":3200,"station_id":"ce4bhe12rcd13ifvqf30","pricing_plan_id":"cebpf4jnsgd1na2vs0mg"},{"bike_id":"e39abb12-930e-48dd-99aa-b54f1c6dbc09","system_id":"levelo_inurba_marseille","lat":43.2657,"lon":5.39011,"is_reserved":false,"is_disabled":false,"rental_uris":{"android":"levelo://app?vid=e39abb12-930e-48dd-99aa-b54f1c6dbc09","ios":"levelo://app?vid=e39abb12-930e-48dd-99aa-b54f1c6dbc09"},"vehicle_type_id":"4","last_reported":1741763356,"current_range_meters":3200,"station_id":"ce4bhe12rcd13ifvqf30","pricing_plan_id":"cebpf4jnsgd1na2vs0mg"},{"bike_id":"dc42e161-3661-4fd6-b581-259d0f327bf6","system_id":"levelo_inurba_marseille","lat":43.23191,"lon":5.39969,"is_reserved":false,"is_disabled":false,"rental_uris":{"android":"levelo://app?vid=dc42e161-3661-4fd6-b581-259d0f327bf6","ios":"levelo://app?vid=dc42e161-3661-4fd6-b581-259d0f327bf6"},"vehicle_type_id":"4","last_reported":1741763356,"current_range_meters":3600,"station_id":"ce4bhn12rcd13ifvqgqg","pricing_plan_id":"cebpf4jnsgd1na2vs0mg"},{"bike_id":"4feaeccf-49fe-405c-a485-91465488e9ae","system_id":"levelo_inurba_marseille","lat":43.287953,"lon":5.391591,"is_reserved":false,"is_disabled":false,"rental_uris":{"android":"levelo://app?vid=4feaeccf-49fe-405c-a485-91465488e9ae","ios":"levelo://app?vid=4feaeccf-49fe-405c-a485-91465488e9ae"},"vehicle_type_id":"4","last_reported":1741763356,"current_range_meters":3600,"station_id":"ce4bh3h2rcd13ifvqdn0","pricing_plan_id":"cebpf4jnsgd1na2vs0mg"},{"bike_id":"b71f0815-9355-4dad-be71-b0aed315a63a","system_id":"levelo_inurba_marseille","lat":43.3056,"lon":5.37268,"is_reserved":false,"is_disabled":false,"rental_uris":{"android":"levelo://app?vid=b71f0815-9355-4dad-be71-b0aed315a63a","ios":"levelo://app?vid=b71f0815-9355-4dad-be71-b0aed315a63a"},"vehicle_type_id":"4","last_reported":1741763356,"current_range_meters":3600,"station_id":"ce4bgqh2rcd13ifvqc4g","pricing_plan_id":"cebpf4jnsgd1na2vs0mg"},{"bike_id":"8995567a-bbbb-458e-bafe-9865f80201b0","system_id":"levelo_inurba_marseille","lat":43.305943,"lon":5.393587,"is_reserved":false,"is_disabled":false,"rental_uris":{"android":"levelo://app?vid=8995567a-bbbb-458e-bafe-9865f80201b0","ios":"levelo://app?vid=8995567a-bbbb-458e-bafe-9865f80201b0"},"vehicle_type_id":"4","last_reported":1741763356,"current_range_meters":4000,"station_id":"ce4bhb12rcd13ifvqem0","pricing_plan_id":"cebpf4jnsgd1na2vs0mg"},{"bike_id":"eedda6f3-e03e-496f-9bd0-de31bfd30ce3","system_id":"levelo_inurba_marseille","lat":43.27819,"lon":5.40721,"is_reserved":false,"is_disabled":false,"rental_uris":{"android":"levelo://app?vid=eedda6f3-e03e-496f-9bd0-de31bfd30ce3","ios":"levelo://app?vid=eedda6f3-e03e-496f-9bd0-de31bfd30ce3"},"vehicle_type_id":"4","last_reported":1741763356,"current_range_meters":4400,"station_id":"ce4bhnh2rcd13ifvqgtg","pricing_plan_id":"cebpf4jnsgd1na2vs0mg"},{"bike_id":"c86d68f5-55ee-4a68-ba82-758fa1373f1d","system_id":"levelo_inurba_marseille","lat":43.317105,"lon":5.437001,"is_reserved":false,"is_disabled":false,"rental_uris":{"android":"levelo://app?vid=c86d68f5-55ee-4a68-ba82-758fa1373f1d","ios":"levelo://app?vid=c86d68f5-55ee-4a68-ba82-758fa1373f1d"},"vehicle_type_id":"4","last_reported":1741763356,"current_range_meters":4400,"station_id":"ce4bhp92rcd13ifvqhcg","pricing_plan_id":"cebpf4jnsgd1na2vs0mg"},{"bike_id":"6b42988a-de91-4a30-b407-bb1347588844","system_id":"levelo_inurba_marseille","lat":43.27817,"lon":5.4073,"is_reserved":false,"is_disabled":false,"rental_uris":{"android":"levelo://app?vid=6b42988a-de91-4a30-b407-bb1347588844","ios":"levelo://app?vid=6b42988a-de91-4a30-b407-bb1347588844"},"vehicle_type_id":"4","last_reported":1741763356,"current_range_meters":4400,"station_id":"ce4bhnh2rcd13ifvqgtg","pricing_plan_id":"cebpf4jnsgd1na2vs0mg"},{"bike_id":"b4755530-6e6b-4eee-836c-9f929c48377e","system_id":"levelo_inurba_marseille","lat":43.29786,"lon":5.38099,"is_reserved":false,"is_disabled":false,"rental_uris":{"android":"levelo://app?vid=b4755530-6e6b-4eee-836c-9f929c48377e","ios":"levelo://app?vid=b4755530-6e6b-4eee-836c-9f929c48377e"},"vehicle_type_id":"4","last_reported":1741763356,"current_range_meters":4800,"station_id":"ce4bgip2rcd13ifvqbb0","pricing_plan_id":"cebpf4jnsgd1na2vs0mg"},{"bike_id":"613eee2d-c2eb-46c7-b602-001e2ddc5623","system_id":"levelo_inurba_marseille","lat":43.3014,"lon":5.38087,"is_reserved":false,"is_disabled":false,"rental_uris":{"android":"levelo://app?vid=613eee2d-c2eb-46c7-b602-001e2ddc5623","ios":"levelo://app?vid=613eee2d-c2eb-46c7-b602-001e2ddc5623"},"vehicle_type_id":"4","last_reported":1741763356,"current_range_meters":4400,"station_id":"ce4bgjp2rcd13ifvqbh0","pricing_plan_id":"cebpf4jnsgd1na2vs0mg"},{"bike_id":"03690356-08e9-4ea7-b9a3-8e88bf471e93","system_id":"levelo_inurba_marseille","lat":43.337444,"lon":5.374475,"is_reserved":false,"is_disabled":true,"rental_uris":{"android":"levelo://app?vid=03690356-08e9-4ea7-b9a3-8e88bf471e93","ios":"levelo://app?vid=03690356-08e9-4ea7-b9a3-8e88bf471e93"},"vehicle_type_id":"4","last_reported":1741763356,"current_range_meters":4800,"station_id":"","pricing_plan_id":"cebpf4jnsgd1na2vs0mg"},{"bike_id":"4ba6d13c-4fd2-4892-98a5-70997d35b452","system_id":"levelo_inurba_marseille","lat":43.30793,"lon":5.38174,"is_reserved":false,"is_disabled":false,"rental_uris":{"android":"levelo://app?vid=4ba6d13c-4fd2-4892-98a5-70997d35b452","ios":"levelo://app?vid=4ba6d13c-4fd2-4892-98a5-70997d35b452"},"vehicle_type_id":"4","last_reported":1741763356,"current_range_meters":5600,"station_id":"ce4bgt12rcd13ifvqce0","pricing_plan_id":"cebpf4jnsgd1na2vs0mg"},{"bike_id":"5a75ca89-85d6-49a0-868a-a6f699a3efcf","system_id":"levelo_inurba_marseille","lat":43.2841,"lon":5.34988,"is_reserved":false,"is_disabled":false,"rental_uris":{"android":"levelo://app?vid=5a75ca89-85d6-49a0-868a-a6f699a3efcf","ios":"levelo://app?vid=5a75ca89-85d6-49a0-868a-a6f699a3efcf"},"vehicle_type_id":"4","last_reported":1741763356,"current_range_meters":5600,"station_id":"ce4bhbh2rcd13ifvqepg","pricing_plan_id":"cebpf4jnsgd1na2vs0mg"},{"bike_id":"5da83c6c-b448-43ca-8b01-8ecb4a475849","system_id":"levelo_inurba_marseille","lat":43.26955,"lon":5.38632,"is_reserved":false,"is_disabled":false,"rental_uris":{"android":"levelo://app?vid=5da83c6c-b448-43ca-8b01-8ecb4a475849","ios":"levelo://app?vid=5da83c6c-b448-43ca-8b01-8ecb4a475849"},"vehicle_type_id":"4","last_reported":1741763356,"current_range_meters":6000,"station_id":"ce4bhh92rcd13ifvqfh0","pricing_plan_id":"cebpf4jnsgd1na2vs0mg"},{"bike_id":"cbd6f8ee-d91a-4c06-a50f-8aefa40d8ceb","system_id":"levelo_inurba_marseille","lat":43.29897,"lon":5.43704,"is_reserved":false,"is_disabled":false,"rental_uris":{"android":"levelo://app?vid=cbd6f8ee-d91a-4c06-a50f-8aefa40d8ceb","ios":"levelo://app?vid=cbd6f8ee-d91a-4c06-a50f-8aefa40d8ceb"},"vehicle_type_id":"4","last_reported":1741763356,"current_range_meters":6000,"station_id":"","pricing_plan_id":"cebpf4jnsgd1na2vs0mg"},{"bike_id":"09bbb690-af86-458c-bbad-70d10e2033ee","system_id":"levelo_inurba_marseille","lat":43.23061,"lon":5.3548,"is_reserved":false,"is_disabled":false,"rental_uris":{"android":"levelo://app?vid=09bbb690-af86-458c-bbad-70d10e2033ee","ios":"levelo://app?vid=09bbb690-af86-458c-bbad-70d10e2033ee"},"vehicle_type_id":"4","last_reported":1741763356,"current_range_meters":6000,"station_id":"cpo3342slgdg3j2ifvpg","pricing_plan_id":"cebpf4jnsgd1na2vs0mg"},{"bike_id":"0b6a8ca9-e9ca-4293-a06b-55f5dcadb99b","system_id":"levelo_inurba_marseille","lat":43.28128,"lon":5.44604,"is_reserved":false,"is_disabled":false,"rental_uris":{"android":"levelo://app?vid=0b6a8ca9-e9ca-4293-a06b-55f5dcadb99b","ios":"levelo://app?vid=0b6a8ca9-e9ca-4293-a06b-55f5dcadb99b"},"vehicle_type_id":"4","last_reported":1741763356,"current_range_meters":6400,"station_id":"","pricing_plan_id":"cebpf4jnsgd1na2vs0mg"},{"bike_id":"0712dce4-a5b7-4794-81b3-f27312a8f84e","system_id":"levelo_inurba_marseille","lat":43.309503,"lon":5.390244,"is_reserved":false,"is_disabled":false,"rental_uris":{"android":"levelo://app?vid=0712dce4-a5b7-4794-81b3-f27312a8f84e","ios":"levelo://app?vid=0712dce4-a5b7-4794-81b3-f27312a8f84e"},"vehicle_type_id":"4","last_reported":1741763356,"current_range_meters":6400,"station_id":"ce4bgup2rcd13ifvqco0","pricing_plan_id":"cebpf4jnsgd1na2vs0mg"},{"bike_id":"bf2feb02-4272-4476-92f9-9420844c4078","system_id":"levelo_inurba_marseille","lat":43.31163,"lon":5.3757,"is_reserved":false,"is_disabled":false,"rental_uris":{"android":"levelo://app?vid=bf2feb02-4272-4476-92f9-9420844c4078","ios":"levelo://app?vid=bf2feb02-4272-4476-92f9-9420844c4078"},"vehicle_type_id":"4","last_reported":1741763356,"current_range_meters":6400,"station_id":"","pricing_plan_id":"cebpf4jnsgd1na2vs0mg"},{"bike_id":"3f583f27-ac3d-4232-8052-4534255555ce","system_id":"levelo_inurba_marseille","lat":43.30146,"lon":5.38081,"is_reserved":false,"is_disabled":false,"rental_uris":{"android":"levelo://app?vid=3f583f27-ac3d-4232-8052-4534255555ce","ios":"levelo://app?vid=3f583f27-ac3d-4232-8052-4534255555ce"},"vehicle_type_id":"4","last_reported":1741763356,"current_range_meters":6400,"station_id":"ce4bgjp2rcd13ifvqbh0","pricing_plan_id":"cebpf4jnsgd1na2vs0mg"},{"bike_id":"3bfcd74d-53e6-4773-a3ba-ccaff6147af1","system_id":"levelo_inurba_marseille","lat":43.25888,"lon":5.40948,"is_reserved":false,"is_disabled":false,"rental_uris":{"android":"levelo://app?vid=3bfcd74d-53e6-4773-a3ba-ccaff6147af1","ios":"levelo://app?vid=3bfcd74d-53e6-4773-a3ba-ccaff6147af1"},"vehicle_type_id":"4","last_reported":1741763356,"current_range_meters":6800,"station_id":"","pricing_plan_id":"cebpf4jnsgd1na2vs0mg"},{"bike_id":"74a1feae-7826-497c-8902-71de67cbde10","system_id":"levelo_inurba_marseille","lat":43.29564,"lon":5.39972,"is_reserved":false,"is_disabled":true,"rental_uris":{"android":"levelo://app?vid=74a1feae-7826-497c-8902-71de67cbde10","ios":"levelo://app?vid=74a1feae-7826-497c-8902-71de67cbde10"},"vehicle_type_id":"4","last_reported":1741763356,"current_range_meters":6800,"station_id":"ce4bh312rcd13ifvqdj0","pricing_plan_id":"cebpf4jnsgd1na2vs0mg"},{"bike_id":"ad1c692c-8e84-456e-97bd-1da151af1ddd","system_id":"levelo_inurba_marseille","lat":43.31686,"lon":5.40475,"is_reserved":false,"is_disabled":false,"rental_uris":{"android":"levelo://app?vid=ad1c692c-8e84-456e-97bd-1da151af1ddd","ios":"levelo://app?vid=ad1c692c-8e84-456e-97bd-1da151af1ddd"},"vehicle_type_id":"4","last_reported":1741763356,"current_range_meters":6800,"station_id":"ce4bh012rcd13ifvqd00","pricing_plan_id":"cebpf4jnsgd1na2vs0mg"},{"bike_id":"cca0d75c-792f-4b34-827d-4297c6f790de","system_id":"levelo_inurba_marseille","lat":43.29979,"lon":5.37172,"is_reserved":false,"is_disabled":false,"rental_uris":{"android":"levelo://app?vid=cca0d75c-792f-4b34-827d-4297c6f790de","ios":"levelo://app?vid=cca0d75c-792f-4b34-827d-4297c6f790de"},"vehicle_type_id":"4","last_reported":1741763356,"current_range_meters":6800,"station_id":"ce4bgr92rcd13ifvqc7g","pricing_plan_id":"cebpf4jnsgd1na2vs0mg"},{"bike_id":"9919f138-0ca1-45a0-bca5-0755917d4808","system_id":"levelo_inurba_marseille","lat":43.26149,"lon":5.40449,"is_reserved":false,"is_disabled":false,"rental_uris":{"android":"levelo://app?vid=9919f138-0ca1-45a0-bca5-0755917d4808","ios":"levelo://app?vid=9919f138-0ca1-45a0-bca5-0755917d4808"},"vehicle_type_id":"4","last_reported":1741763356,"current_range_meters":6800,"station_id":"ce4bhmh2rcd13ifvqgmg","pricing_plan_id":"cebpf4jnsgd1na2vs0mg"},{"bike_id":"b03a6552-e136-4a69-a72c-41bffe34eac9","system_id":"levelo_inurba_marseille","lat":43.27504,"lon":5.42447,"is_reserved":false,"is_disabled":false,"rental_uris":{"android":"levelo://app?vid=b03a6552-e136-4a69-a72c-41bffe34eac9","ios":"levelo://app?vid=b03a6552-e136-4a69-a72c-41bffe34eac9"},"vehicle_type_id":"4","last_reported":1741763356,"current_range_meters":6800,"station_id":"ce4bhn92rcd13ifvqgrg","pricing_plan_id":"cebpf4jnsgd1na2vs0mg"},{"bike_id":"4004cd83-7832-479a-b42c-67f973543029","system_id":"levelo_inurba_marseille","lat":43.25723,"lon":5.41111,"is_reserved":false,"is_disabled":false,"rental_uris":{"android":"levelo://app?vid=4004cd83-7832-479a-b42c-67f973543029","ios":"levelo://app?vid=4004cd83-7832-479a-b42c-67f973543029"},"vehicle_type_id":"4","last_reported":1741763356,"current_range_meters":6800,"station_id":"ce4bhkp2rcd13ifvqgd0","pricing_plan_id":"cebpf4jnsgd1na2vs0mg"},{"bike_id":"80771939-f406-42f7-81c5-33180fd8a338","system_id":"levelo_inurba_marseille","lat":43.23189,"lon":5.35557,"is_reserved":false,"is_disabled":false,"rental_uris":{"android":"levelo://app?vid=80771939-f406-42f7-81c5-33180fd8a338","ios":"levelo://app?vid=80771939-f406-42f7-81c5-33180fd8a338"},"vehicle_type_id":"4","last_reported":1741763356,"current_range_meters":6800,"station_id":"ce4bhu92rcd13ifvqi70","pricing_plan_id":"cebpf4jnsgd1na2vs0mg"},{"bike_id":"81796f00-29cc-476e-8ca7-4df9a9c9a825","system_id":"levelo_inurba_marseille","lat":43.30969,"lon":5.51122,"is_reserved":false,"is_disabled":true,"rental_uris":{"android":"levelo://app?vid=81796f00-29cc-476e-8ca7-4df9a9c9a825","ios":"levelo://app?vid=81796f00-29cc-476e-8ca7-4df9a9c9a825"},"vehicle_type_id":"4","last_reported":1741763356,"current_range_meters":6800,"station_id":"","pricing_plan_id":"cebpf4jnsgd1na2vs0mg"},{"bike_id":"5f34d638-1a0b-44ad-9b11-23f80039dc55","system_id":"levelo_inurba_marseille","lat":43.3046,"lon":5.37906,"is_reserved":false,"is_disabled":false,"rental_uris":{"android":"levelo://app?vid=5f34d638-1a0b-44ad-9b11-23f80039dc55","ios":"levelo://app?vid=5f34d638-1a0b-44ad-9b11-23f80039dc55"},"vehicle_type_id":"4","last_reported":1741763356,"current_range_meters":7200,"station_id":"ce4bgup2rcd13ifvqcn0","pricing_plan_id":"cebpf4jnsgd1na2vs0mg"},{"bike_id":"a6907114-91e5-4406-958d-4b895c3084d0","system_id":"levelo_inurba_marseille","lat":43.29893,"lon":5.43661,"is_reserved":false,"is_disabled":true,"rental_uris":{"android":"levelo://app?vid=a6907114-91e5-4406-958d-4b895c3084d0","ios":"levelo://app?vid=a6907114-91e5-4406-958d-4b895c3084d0"},"vehicle_type_id":"4","last_reported":1741763356,"current_range_meters":7200,"station_id":"ce4bhpp2rcd13ifvqhfg","pricing_plan_id":"cebpf4jnsgd1na2vs0mg"},{"bike_id":"a8228521-4771-4ece-8a9b-c9ea63854cf9","system_id":"levelo_inurba_marseille","lat":43.30149,"lon":5.38071,"is_reserved":false,"is_disabled":false,"rental_uris":{"android":"levelo://app?vid=a8228521-4771-4ece-8a9b-c9ea63854cf9","ios":"levelo://app?vid=a8228521-4771-4ece-8a9b-c9ea63854cf9"},"vehicle_type_id":"4","last_reported":1741763356,"current_range_meters":7200,"station_id":"ce4bgjp2rcd13ifvqbh0","pricing_plan_id":"cebpf4jnsgd1na2vs0mg"},{"bike_id":"bd1d3a97-cdb0-4713-bcf8-3c6ba25a9aef","system_id":"levelo_inurba_marseille","lat":43.26066,"lon":5.39398,"is_reserved":false,"is_disabled":false,"rental_uris":{"android":"levelo://app?vid=bd1d3a97-cdb0-4713-bcf8-3c6ba25a9aef","ios":"levelo://app?vid=bd1d3a97-cdb0-4713-bcf8-3c6ba25a9aef"},"vehicle_type_id":"4","last_reported":1741763356,"current_range_meters":7200,"station_id":"ce4bhh92rcd13ifvqfj0","pricing_plan_id":"cebpf4jnsgd1na2vs0mg"},{"bike_id":"58d1b5b3-d322-4418-97d0-3066ec3d9afc","system_id":"levelo_inurba_marseille","lat":43.231987,"lon":5.355433,"is_reserved":false,"is_disabled":false,"rental_uris":{"android":"levelo://app?vid=58d1b5b3-d322-4418-97d0-3066ec3d9afc","ios":"levelo://app?vid=58d1b5b3-d322-4418-97d0-3066ec3d9afc"},"vehicle_type_id":"4","last_reported":1741763356,"current_range_meters":7200,"station_id":"ce4bhu92rcd13ifvqi70","pricing_plan_id":"cebpf4jnsgd1na2vs0mg"},{"bike_id":"b9680ac6-d12e-4a12-9dd8-1396db5e067b","system_id":"levelo_inurba_marseille","lat":43.23152,"lon":5.43697,"is_reserved":false,"is_disabled":false,"rental_uris":{"android":"levelo://app?vid=b9680ac6-d12e-4a12-9dd8-1396db5e067b","ios":"levelo://app?vid=b9680ac6-d12e-4a12-9dd8-1396db5e067b"},"vehicle_type_id":"4","last_reported":1741763356,"current_range_meters":8000,"station_id":"ce4bhmp2rcd13ifvqgog","pricing_plan_id":"cebpf4jnsgd1na2vs0mg"},{"bike_id":"9b75f73b-4e4f-4d50-8655-4ca7749a5646","system_id":"levelo_inurba_marseille","lat":43.27803,"lon":5.40747,"is_reserved":false,"is_disabled":false,"rental_uris":{"android":"levelo://app?vid=9b75f73b-4e4f-4d50-8655-4ca7749a5646","ios":"levelo://app?vid=9b75f73b-4e4f-4d50-8655-4ca7749a5646"},"vehicle_type_id":"4","last_reported":1741763356,"current_range_meters":8000,"station_id":"ce4bhnh2rcd13ifvqgtg","pricing_plan_id":"cebpf4jnsgd1na2vs0mg"},{"bike_id":"7df65097-2bd2-46b0-967e-6803f6b7785c","system_id":"levelo_inurba_marseille","lat":43.27057,"lon":5.40266,"is_reserved":false,"is_disabled":false,"rental_uris":{"android":"levelo://app?vid=7df65097-2bd2-46b0-967e-6803f6b7785c","ios":"levelo://app?vid=7df65097-2bd2-46b0-967e-6803f6b7785c"},"vehicle_type_id":"4","last_reported":1741763356,"current_range_meters":8000,"station_id":"ce4bhk92rcd13ifvqgc0","pricing_plan_id":"cebpf4jnsgd1na2vs0mg"},{"bike_id":"edbd6b3d-0dbc-44fc-bd7e-5fe2bf66f53c","system_id":"levelo_inurba_marseille","lat":43.30592,"lon":5.39362,"is_reserved":false,"is_disabled":false,"rental_uris":{"android":"levelo://app?vid=edbd6b3d-0dbc-44fc-bd7e-5fe2bf66f53c","ios":"levelo://app?vid=edbd6b3d-0dbc-44fc-bd7e-5fe2bf66f53c"},"vehicle_type_id":"4","last_reported":1741763356,"current_range_meters":4800,"station_id":"ce4bh0p2rcd13ifvqd80","pricing_plan_id":"cebpf4jnsgd1na2vs0mg"},{"bike_id":"bfe76b26-4cce-4a8d-8e2e-190cbae21f24","system_id":"levelo_inurba_marseille","lat":43.271795,"lon":5.409826,"is_reserved":false,"is_disabled":false,"rental_uris":{"android":"levelo://app?vid=bfe76b26-4cce-4a8d-8e2e-190cbae21f24","ios":"levelo://app?vid=bfe76b26-4cce-4a8d-8e2e-190cbae21f24"},"vehicle_type_id":"4","last_reported":1741763356,"current_range_meters":8000,"station_id":"ce4bhl12rcd13ifvqgf0","pricing_plan_id":"cebpf4jnsgd1na2vs0mg"},{"bike_id":"4da6e87e-32bb-4685-8631-6f726d483cfb","system_id":"levelo_inurba_marseille","lat":43.28935,"lon":5.36638,"is_reserved":false,"is_disabled":false,"rental_uris":{"android":"levelo://app?vid=4da6e87e-32bb-4685-8631-6f726d483cfb","ios":"levelo://app?vid=4da6e87e-32bb-4685-8631-6f726d483cfb"},"vehicle_type_id":"4","last_reported":1741763356,"current_range_meters":7200,"station_id":"ce4bhap2rcd13ifvqek0","pricing_plan_id":"cebpf4jnsgd1na2vs0mg"},{"bike_id":"c835eee2-01bf-4ff1-a164-4c90e0a065d9","system_id":"levelo_inurba_marseille","lat":43.25004,"lon":5.3895,"is_reserved":false,"is_disabled":false,"rental_uris":{"android":"levelo://app?vid=c835eee2-01bf-4ff1-a164-4c90e0a065d9","ios":"levelo://app?vid=c835eee2-01bf-4ff1-a164-4c90e0a065d9"},"vehicle_type_id":"4","last_reported":1741763356,"current_range_meters":8000,"station_id":"ce4bhgp2rcd13ifvqfd0","pricing_plan_id":"cebpf4jnsgd1na2vs0mg"},{"bike_id":"f640465e-8c9e-425a-8e36-08d8d5201bf6","system_id":"levelo_inurba_marseille","lat":43.231961,"lon":5.35547,"is_reserved":false,"is_disabled":false,"rental_uris":{"android":"levelo://app?vid=f640465e-8c9e-425a-8e36-08d8d5201bf6","ios":"levelo://app?vid=f640465e-8c9e-425a-8e36-08d8d5201bf6"},"vehicle_type_id":"4","last_reported":1741763356,"current_range_meters":8000,"station_id":"ce4bhu92rcd13ifvqi70","pricing_plan_id":"cebpf4jnsgd1na2vs0mg"},{"bike_id":"2b2b213a-823d-4eb7-868e-97146b595f37","system_id":"levelo_inurba_marseille","lat":43.2455,"lon":5.39535,"is_reserved":false,"is_disabled":false,"rental_uris":{"android":"levelo://app?vid=2b2b213a-823d-4eb7-868e-97146b595f37","ios":"levelo://app?vid=2b2b213a-823d-4eb7-868e-97146b595f37"},"vehicle_type_id":"4","last_reported":1741763356,"current_range_meters":8000,"station_id":"ce4bhlp2rcd13ifvqgjg","pricing_plan_id":"cebpf4jnsgd1na2vs0mg"},{"bike_id":"05388ace-665a-4114-a828-939b708a2589","system_id":"levelo_inurba_marseille","lat":43.23192,"lon":5.39977,"is_reserved":false,"is_disabled":false,"rental_uris":{"android":"levelo://app?vid=05388ace-665a-4114-a828-939b708a2589","ios":"levelo://app?vid=05388ace-665a-4114-a828-939b708a2589"},"vehicle_type_id":"4","last_reported":1741763356,"current_range_meters":8000,"station_id":"ce4bhn12rcd13ifvqgqg","pricing_plan_id":"cebpf4jnsgd1na2vs0mg"},{"bike_id":"d5122b3c-6de5-4ed1-9446-480d17073c56","system_id":"levelo_inurba_marseille","lat":43.28439,"lon":5.35902,"is_reserved":false,"is_disabled":false,"rental_uris":{"android":"levelo://app?vid=d5122b3c-6de5-4ed1-9446-480d17073c56","ios":"levelo://app?vid=d5122b3c-6de5-4ed1-9446-480d17073c56"},"vehicle_type_id":"4","last_reported":1741763356,"current_range_meters":8400,"station_id":"ce4bhah2rcd13ifvqei0","pricing_plan_id":"cebpf4jnsgd1na2vs0mg"},{"bike_id":"c0f5ebcd-b15b-4473-98db-668b6a2c649a","system_id":"levelo_inurba_marseille","lat":43.27503,"lon":5.42457,"is_reserved":false,"is_disabled":false,"rental_uris":{"android":"levelo://app?vid=c0f5ebcd-b15b-4473-98db-668b6a2c649a","ios":"levelo://app?vid=c0f5ebcd-b15b-4473-98db-668b6a2c649a"},"vehicle_type_id":"4","last_reported":1741763356,"current_range_meters":8400,"station_id":"ce4bhn92rcd13ifvqgrg","pricing_plan_id":"cebpf4jnsgd1na2vs0mg"},{"bike_id":"35040239-ce0d-4394-85b0-24a49c5c7515","system_id":"levelo_inurba_marseille","lat":43.28476,"lon":5.38421,"is_reserved":false,"is_disabled":false,"rental_uris":{"android":"levelo://app?vid=35040239-ce0d-4394-85b0-24a49c5c7515","ios":"levelo://app?vid=35040239-ce0d-4394-85b0-24a49c5c7515"},"vehicle_type_id":"4","last_reported":1741763356,"current_range_meters":8400,"station_id":"ce4bh512rcd13ifvqe3g","pricing_plan_id":"cebpf4jnsgd1na2vs0mg"},{"bike_id":"44dbb355-a933-4b4d-98ce-ec6964e918d0","system_id":"levelo_inurba_marseille","lat":43.29621,"lon":5.40602,"is_reserved":false,"is_disabled":false,"rental_uris":{"android":"levelo://app?vid=44dbb355-a933-4b4d-98ce-ec6964e918d0","ios":"levelo://app?vid=44dbb355-a933-4b4d-98ce-ec6964e918d0"},"vehicle_type_id":"4","last_reported":1741763356,"current_range_meters":8400,"station_id":"ce4bh0h2rcd13ifvqd60","pricing_plan_id":"cebpf4jnsgd1na2vs0mg"},{"bike_id":"9219bd7b-8404-4edb-81c5-245886222e49","system_id":"levelo_inurba_marseille","lat":43.2872,"lon":5.37392,"is_reserved":false,"is_disabled":false,"rental_uris":{"android":"levelo://app?vid=9219bd7b-8404-4edb-81c5-245886222e49","ios":"levelo://app?vid=9219bd7b-8404-4edb-81c5-245886222e49"},"vehicle_type_id":"4","last_reported":1741763356,"current_range_meters":8400,"station_id":"ce4bh3p2rcd13ifvqdq0","pricing_plan_id":"cebpf4jnsgd1na2vs0mg"},{"bike_id":"241d79a7-8164-4ee5-8d3f-2565e2e0b3e8","system_id":"levelo_inurba_marseille","lat":43.313679,"lon":5.379785,"is_reserved":false,"is_disabled":false,"rental_uris":{"android":"levelo://app?vid=241d79a7-8164-4ee5-8d3f-2565e2e0b3e8","ios":"levelo://app?vid=241d79a7-8164-4ee5-8d3f-2565e2e0b3e8"},"vehicle_type_id":"4","last_reported":1741763356,"current_range_meters":8400,"station_id":"","pricing_plan_id":"cebpf4jnsgd1na2vs0mg"},{"bike_id":"415e7a31-245d-4ead-9f33-dad092a04302","system_id":"levelo_inurba_marseille","lat":43.23057,"lon":5.35508,"is_reserved":false,"is_disabled":false,"rental_uris":{"android":"levelo://app?vid=415e7a31-245d-4ead-9f33-dad092a04302","ios":"levelo://app?vid=415e7a31-245d-4ead-9f33-dad092a04302"},"vehicle_type_id":"4","last_reported":1741763356,"current_range_meters":8800,"station_id":"cpo3342slgdg3j2ifvpg","pricing_plan_id":"cebpf4jnsgd1na2vs0mg"},{"bike_id":"60ee13cf-44a1-4e0e-9eb6-02f69d58169e","system_id":"levelo_inurba_marseille","lat":43.31363,"lon":5.38505,"is_reserved":false,"is_disabled":false,"rental_uris":{"android":"levelo://app?vid=60ee13cf-44a1-4e0e-9eb6-02f69d58169e","ios":"levelo://app?vid=60ee13cf-44a1-4e0e-9eb6-02f69d58169e"},"vehicle_type_id":"4","last_reported":1741763356,"current_range_meters":8800,"station_id":"ce4bgt92rcd13ifvqcf0","pricing_plan_id":"cebpf4jnsgd1na2vs0mg"},{"bike_id":"9acab34d-76c9-4fd5-bed6-0265a89df8bb","system_id":"levelo_inurba_marseille","lat":43.25693,"lon":5.41102,"is_reserved":false,"is_disabled":false,"rental_uris":{"android":"levelo://app?vid=9acab34d-76c9-4fd5-bed6-0265a89df8bb","ios":"levelo://app?vid=9acab34d-76c9-4fd5-bed6-0265a89df8bb"},"vehicle_type_id":"4","last_reported":1741763356,"current_range_meters":8800,"station_id":"ce4bhkp2rcd13ifvqgd0","pricing_plan_id":"cebpf4jnsgd1na2vs0mg"},{"bike_id":"8f36d88f-9188-4659-bc5d-ae5c7216d1ae","system_id":"levelo_inurba_marseille","lat":43.23187,"lon":5.39984,"is_reserved":false,"is_disabled":false,"rental_uris":{"android":"levelo://app?vid=8f36d88f-9188-4659-bc5d-ae5c7216d1ae","ios":"levelo://app?vid=8f36d88f-9188-4659-bc5d-ae5c7216d1ae"},"vehicle_type_id":"4","last_reported":1741763356,"current_range_meters":8800,"station_id":"ce4bhn12rcd13ifvqgqg","pricing_plan_id":"cebpf4jnsgd1na2vs0mg"},{"bike_id":"b675a24b-8e28-4321-83f6-8d6f90c24fb0","system_id":"levelo_inurba_marseille","lat":43.29037,"lon":5.3997,"is_reserved":false,"is_disabled":false,"rental_uris":{"android":"levelo://app?vid=b675a24b-8e28-4321-83f6-8d6f90c24fb0","ios":"levelo://app?vid=b675a24b-8e28-4321-83f6-8d6f90c24fb0"},"vehicle_type_id":"4","last_reported":1741763356,"current_range_meters":8800,"station_id":"ce4bh392rcd13ifvqdm0","pricing_plan_id":"cebpf4jnsgd1na2vs0mg"},{"bike_id":"30a3a008-7160-4279-8740-ac0a8591383d","system_id":"levelo_inurba_marseille","lat":43.245458,"lon":5.395306,"is_reserved":false,"is_disabled":false,"rental_uris":{"android":"levelo://app?vid=30a3a008-7160-4279-8740-ac0a8591383d","ios":"levelo://app?vid=30a3a008-7160-4279-8740-ac0a8591383d"},"vehicle_type_id":"4","last_reported":1741763356,"current_range_meters":8800,"station_id":"ce4bhlp2rcd13ifvqgjg","pricing_plan_id":"cebpf4jnsgd1na2vs0mg"},{"bike_id":"530a533a-e2f4-4a77-accb-cf20c71b4586","system_id":"levelo_inurba_marseille","lat":43.23185,"lon":5.39987,"is_reserved":false,"is_disabled":false,"rental_uris":{"android":"levelo://app?vid=530a533a-e2f4-4a77-accb-cf20c71b4586","ios":"levelo://app?vid=530a533a-e2f4-4a77-accb-cf20c71b4586"},"vehicle_type_id":"4","last_reported":1741763356,"current_range_meters":8800,"station_id":"ce4bhn12rcd13ifvqgqg","pricing_plan_id":"cebpf4jnsgd1na2vs0mg"},{"bike_id":"43d0ef6a-42fb-47a5-90d6-0b47f3cfa71e","system_id":"levelo_inurba_marseille","lat":43.29612,"lon":5.38095,"is_reserved":false,"is_disabled":false,"rental_uris":{"android":"levelo://app?vid=43d0ef6a-42fb-47a5-90d6-0b47f3cfa71e","ios":"levelo://app?vid=43d0ef6a-42fb-47a5-90d6-0b47f3cfa71e"},"vehicle_type_id":"4","last_reported":1741763356,"current_range_meters":8800,"station_id":"ce4bgl12rcd13ifvqbo0","pricing_plan_id":"cebpf4jnsgd1na2vs0mg"},{"bike_id":"e0882758-540a-4ac9-8b1c-c6cbff85ff33","system_id":"levelo_inurba_marseille","lat":43.29918,"lon":5.3978,"is_reserved":false,"is_disabled":false,"rental_uris":{"android":"levelo://app?vid=e0882758-540a-4ac9-8b1c-c6cbff85ff33","ios":"levelo://app?vid=e0882758-540a-4ac9-8b1c-c6cbff85ff33"},"vehicle_type_id":"4","last_reported":1741763356,"current_range_meters":9200,"station_id":"","pricing_plan_id":"cebpf4jnsgd1na2vs0mg"},{"bike_id":"ebdc0adc-86d4-4882-8983-2d6c86413625","system_id":"levelo_inurba_marseille","lat":43.23162,"lon":5.43734,"is_reserved":false,"is_disabled":false,"rental_uris":{"android":"levelo://app?vid=ebdc0adc-86d4-4882-8983-2d6c86413625","ios":"levelo://app?vid=ebdc0adc-86d4-4882-8983-2d6c86413625"},"vehicle_type_id":"4","last_reported":1741763356,"current_range_meters":9200,"station_id":"ce4bhmp2rcd13ifvqgog","pricing_plan_id":"cebpf4jnsgd1na2vs0mg"},{"bike_id":"20c1e358-1c7f-4912-9588-5a74dcb84090","system_id":"levelo_inurba_marseille","lat":43.250036,"lon":5.389248,"is_reserved":false,"is_disabled":false,"rental_uris":{"android":"levelo://app?vid=20c1e358-1c7f-4912-9588-5a74dcb84090","ios":"levelo://app?vid=20c1e358-1c7f-4912-9588-5a74dcb84090"},"vehicle_type_id":"4","last_reported":1741763356,"current_range_meters":9200,"station_id":"ce4bhgp2rcd13ifvqfd0","pricing_plan_id":"cebpf4jnsgd1na2vs0mg"},{"bike_id":"e684ff0d-ffbb-4303-9c2e-1cebf7f952f3","system_id":"levelo_inurba_marseille","lat":43.26528,"lon":5.39045,"is_reserved":false,"is_disabled":false,"rental_uris":{"android":"levelo://app?vid=e684ff0d-ffbb-4303-9c2e-1cebf7f952f3","ios":"levelo://app?vid=e684ff0d-ffbb-4303-9c2e-1cebf7f952f3"},"vehicle_type_id":"4","last_reported":1741763356,"current_range_meters":9600,"station_id":"ce4bhe12rcd13ifvqf30","pricing_plan_id":"cebpf4jnsgd1na2vs0mg"},{"bike_id":"72ab2c75-5587-494f-826f-81e3a01ecd70","system_id":"levelo_inurba_marseille","lat":43.229399,"lon":5.353742,"is_reserved":false,"is_disabled":false,"rental_uris":{"android":"levelo://app?vid=72ab2c75-5587-494f-826f-81e3a01ecd70","ios":"levelo://app?vid=72ab2c75-5587-494f-826f-81e3a01ecd70"},"vehicle_type_id":"4","last_reported":1741763356,"current_range_meters":9600,"station_id":"cpo3532slgdg3j2ikp40","pricing_plan_id":"cebpf4jnsgd1na2vs0mg"},{"bike_id":"1e383331-4cf9-4f27-840c-e013f13c25d8","system_id":"levelo_inurba_marseille","lat":43.23201,"lon":5.39964,"is_reserved":false,"is_disabled":false,"rental_uris":{"android":"levelo://app?vid=1e383331-4cf9-4f27-840c-e013f13c25d8","ios":"levelo://app?vid=1e383331-4cf9-4f27-840c-e013f13c25d8"},"vehicle_type_id":"4","last_reported":1741763356,"current_range_meters":9600,"station_id":"ce4bhn12rcd13ifvqgqg","pricing_plan_id":"cebpf4jnsgd1na2vs0mg"},{"bike_id":"9880b3b3-4334-44f1-88d3-e581c8981652","system_id":"levelo_inurba_marseille","lat":43.270629,"lon":5.402631,"is_reserved":false,"is_disabled":false,"rental_uris":{"android":"levelo://app?vid=9880b3b3-4334-44f1-88d3-e581c8981652","ios":"levelo://app?vid=9880b3b3-4334-44f1-88d3-e581c8981652"},"vehicle_type_id":"4","last_reported":1741763356,"current_range_meters":9600,"station_id":"ce4bhk92rcd13ifvqgc0","pricing_plan_id":"cebpf4jnsgd1na2vs0mg"},{"bike_id":"47fa1a31-5bb3-4522-abd9-b87b4a821178","system_id":"levelo_inurba_marseille","lat":43.27825,"lon":5.40686,"is_reserved":false,"is_disabled":false,"rental_uris":{"android":"levelo://app?vid=47fa1a31-5bb3-4522-abd9-b87b4a821178","ios":"levelo://app?vid=47fa1a31-5bb3-4522-abd9-b87b4a821178"},"vehicle_type_id":"4","last_reported":1741763356,"current_range_meters":9600,"station_id":"ce4bhnh2rcd13ifvqgtg","pricing_plan_id":"cebpf4jnsgd1na2vs0mg"},{"bike_id":"a16a390d-04f2-47dc-b847-388635707bb5","system_id":"levelo_inurba_marseille","lat":43.28457,"lon":5.35895,"is_reserved":false,"is_disabled":false,"rental_uris":{"android":"levelo://app?vid=a16a390d-04f2-47dc-b847-388635707bb5","ios":"levelo://app?vid=a16a390d-04f2-47dc-b847-388635707bb5"},"vehicle_type_id":"4","last_reported":1741763356,"current_range_meters":9600,"station_id":"ce4bhah2rcd13ifvqei0","pricing_plan_id":"cebpf4jnsgd1na2vs0mg"},{"bike_id":"29a2eadf-a51e-4030-aaa6-2edfad4c2148","system_id":"levelo_inurba_marseille","lat":43.28463,"lon":5.35898,"is_reserved":false,"is_disabled":false,"rental_uris":{"android":"levelo://app?vid=29a2eadf-a51e-4030-aaa6-2edfad4c2148","ios":"levelo://app?vid=29a2eadf-a51e-4030-aaa6-2edfad4c2148"},"vehicle_type_id":"4","last_reported":1741763356,"current_range_meters":9600,"station_id":"ce4bhah2rcd13ifvqei0","pricing_plan_id":"cebpf4jnsgd1na2vs0mg"},{"bike_id":"9776d519-3376-4f51-aaa3-2da63911d7cc","system_id":"levelo_inurba_marseille","lat":43.250902,"lon":5.395126,"is_reserved":false,"is_disabled":false,"rental_uris":{"android":"levelo://app?vid=9776d519-3376-4f51-aaa3-2da63911d7cc","ios":"levelo://app?vid=9776d519-3376-4f51-aaa3-2da63911d7cc"},"vehicle_type_id":"4","last_reported":1741763356,"current_range_meters":9600,"station_id":"ce4bhm12rcd13ifvqgkg","pricing_plan_id":"cebpf4jnsgd1na2vs0mg"},{"bike_id":"2931d81f-abb3-45b8-9224-dc3fce2fae31","system_id":"levelo_inurba_marseille","lat":43.323676,"lon":5.367564,"is_reserved":false,"is_disabled":false,"rental_uris":{"android":"levelo://app?vid=2931d81f-abb3-45b8-9224-dc3fce2fae31","ios":"levelo://app?vid=2931d81f-abb3-45b8-9224-dc3fce2fae31"},"vehicle_type_id":"4","last_reported":1741763356,"current_range_meters":9600,"station_id":"ce4bhsh2rcd13ifvqi2g","pricing_plan_id":"cebpf4jnsgd1na2vs0mg"},{"bike_id":"af17ab6c-edea-4ca0-b906-4163cd2a8103","system_id":"levelo_inurba_marseille","lat":43.29603,"lon":5.3809,"is_reserved":false,"is_disabled":false,"rental_uris":{"android":"levelo://app?vid=af17ab6c-edea-4ca0-b906-4163cd2a8103","ios":"levelo://app?vid=af17ab6c-edea-4ca0-b906-4163cd2a8103"},"vehicle_type_id":"4","last_reported":1741763356,"current_range_meters":9600,"station_id":"ce4bgl12rcd13ifvqbo0","pricing_plan_id":"cebpf4jnsgd1na2vs0mg"},{"bike_id":"c1fdf776-5ff6-4f38-96ad-d3bee4a7cebb","system_id":"levelo_inurba_marseille","lat":43.23134,"lon":5.43754,"is_reserved":false,"is_disabled":false,"rental_uris":{"android":"levelo://app?vid=c1fdf776-5ff6-4f38-96ad-d3bee4a7cebb","ios":"levelo://app?vid=c1fdf776-5ff6-4f38-96ad-d3bee4a7cebb"},"vehicle_type_id":"4","last_reported":1741763356,"current_range_meters":9600,"station_id":"ce4bhmp2rcd13ifvqgog","pricing_plan_id":"cebpf4jnsgd1na2vs0mg"},{"bike_id":"4848fd4b-8d5b-44de-b68c-542611eaa9c3","system_id":"levelo_inurba_marseille","lat":43.30189,"lon":5.39487,"is_reserved":false,"is_disabled":false,"rental_uris":{"android":"levelo://app?vid=4848fd4b-8d5b-44de-b68c-542611eaa9c3","ios":"levelo://app?vid=4848fd4b-8d5b-44de-b68c-542611eaa9c3"},"vehicle_type_id":"4","last_reported":1741763356,"current_range_meters":9600,"station_id":"ce4bh0p2rcd13ifvqd70","pricing_plan_id":"cebpf4jnsgd1na2vs0mg"},{"bike_id":"0117055b-abaa-4782-a83e-c23d24cb8a2e","system_id":"levelo_inurba_marseille","lat":43.24617,"lon":5.38942,"is_reserved":false,"is_disabled":false,"rental_uris":{"android":"levelo://app?vid=0117055b-abaa-4782-a83e-c23d24cb8a2e","ios":"levelo://app?vid=0117055b-abaa-4782-a83e-c23d24cb8a2e"},"vehicle_type_id":"4","last_reported":1741763356,"current_range_meters":9600,"station_id":"ce4bhg12rcd13ifvqf60","pricing_plan_id":"cebpf4jnsgd1na2vs0mg"},{"bike_id":"a5490b0d-6778-4c0c-960c-3aa0b15c8435","system_id":"levelo_inurba_marseille","lat":43.31075,"lon":5.37878,"is_reserved":false,"is_disabled":false,"rental_uris":{"android":"levelo://app?vid=a5490b0d-6778-4c0c-960c-3aa0b15c8435","ios":"levelo://app?vid=a5490b0d-6778-4c0c-960c-3aa0b15c8435"},"vehicle_type_id":"4","last_reported":1741763356,"current_range_meters":10000,"station_id":"","pricing_plan_id":"cebpf4jnsgd1na2vs0mg"},{"bike_id":"9294a26b-c088-4208-917f-c73e3c4f5f46","system_id":"levelo_inurba_marseille","lat":43.30373,"lon":5.40783,"is_reserved":false,"is_disabled":false,"rental_uris":{"android":"levelo://app?vid=9294a26b-c088-4208-917f-c73e3c4f5f46","ios":"levelo://app?vid=9294a26b-c088-4208-917f-c73e3c4f5f46"},"vehicle_type_id":"4","last_reported":1741763356,"current_range_meters":10000,"station_id":"","pricing_plan_id":"cebpf4jnsgd1na2vs0mg"},{"bike_id":"9c775991-61d5-42d4-b148-d34afa9109e3","system_id":"levelo_inurba_marseille","lat":43.24074,"lon":5.37764,"is_reserved":false,"is_disabled":false,"rental_uris":{"android":"levelo://app?vid=9c775991-61d5-42d4-b148-d34afa9109e3","ios":"levelo://app?vid=9c775991-61d5-42d4-b148-d34afa9109e3"},"vehicle_type_id":"4","last_reported":1741763356,"current_range_meters":10000,"station_id":"ce4bhnp2rcd13ifvqgvg","pricing_plan_id":"cebpf4jnsgd1na2vs0mg"},{"bike_id":"511a478b-16c6-4549-a89d-177a4b1ec633","system_id":"levelo_inurba_marseille","lat":43.265614,"lon":5.372881,"is_reserved":false,"is_disabled":false,"rental_uris":{"android":"levelo://app?vid=511a478b-16c6-4549-a89d-177a4b1ec633","ios":"levelo://app?vid=511a478b-16c6-4549-a89d-177a4b1ec633"},"vehicle_type_id":"4","last_reported":1741763356,"current_range_meters":10000,"station_id":"ce4bhg12rcd13ifvqf70","pricing_plan_id":"cebpf4jnsgd1na2vs0mg"},{"bike_id":"139f61a0-1708-413f-9bf4-abbef24cd53a","system_id":"levelo_inurba_marseille","lat":43.29437,"lon":5.39777,"is_reserved":false,"is_disabled":false,"rental_uris":{"android":"levelo://app?vid=139f61a0-1708-413f-9bf4-abbef24cd53a","ios":"levelo://app?vid=139f61a0-1708-413f-9bf4-abbef24cd53a"},"vehicle_type_id":"4","last_reported":1741763356,"current_range_meters":9600,"station_id":"ce4bh3h2rcd13ifvqdo0","pricing_plan_id":"cebpf4jnsgd1na2vs0mg"},{"bike_id":"8dee66dd-a753-4e90-9df0-a75f60b0d66f","system_id":"levelo_inurba_marseille","lat":43.285706,"lon":5.424839,"is_reserved":false,"is_disabled":false,"rental_uris":{"android":"levelo://app?vid=8dee66dd-a753-4e90-9df0-a75f60b0d66f","ios":"levelo://app?vid=8dee66dd-a753-4e90-9df0-a75f60b0d66f"},"vehicle_type_id":"4","last_reported":1741763356,"current_range_meters":10800,"station_id":"","pricing_plan_id":"cebpf4jnsgd1na2vs0mg"},{"bike_id":"d7157a7c-193f-4dc6-a104-3f50ef2311fe","system_id":"levelo_inurba_marseille","lat":43.30461,"lon":5.37915,"is_reserved":false,"is_disabled":false,"rental_uris":{"android":"levelo://app?vid=d7157a7c-193f-4dc6-a104-3f50ef2311fe","ios":"levelo://app?vid=d7157a7c-193f-4dc6-a104-3f50ef2311fe"},"vehicle_type_id":"4","last_reported":1741763356,"current_range_meters":10800,"station_id":"ce4bgup2rcd13ifvqcn0","pricing_plan_id":"cebpf4jnsgd1na2vs0mg"},{"bike_id":"03fcef79-f017-4d15-a10d-891c5cd96db2","system_id":"levelo_inurba_marseille","lat":43.23064,"lon":5.35487,"is_reserved":false,"is_disabled":false,"rental_uris":{"android":"levelo://app?vid=03fcef79-f017-4d15-a10d-891c5cd96db2","ios":"levelo://app?vid=03fcef79-f017-4d15-a10d-891c5cd96db2"},"vehicle_type_id":"4","last_reported":1741763356,"current_range_meters":10800,"station_id":"cpo3342slgdg3j2ifvpg","pricing_plan_id":"cebpf4jnsgd1na2vs0mg"},{"bike_id":"9bff66c8-e4e3-405d-9aec-21280891a638","system_id":"levelo_inurba_marseille","lat":43.30587,"lon":5.39361,"is_reserved":false,"is_disabled":false,"rental_uris":{"android":"levelo://app?vid=9bff66c8-e4e3-405d-9aec-21280891a638","ios":"levelo://app?vid=9bff66c8-e4e3-405d-9aec-21280891a638"},"vehicle_type_id":"4","last_reported":1741763356,"current_range_meters":10800,"station_id":"ce4bh0p2rcd13ifvqd80","pricing_plan_id":"cebpf4jnsgd1na2vs0mg"},{"bike_id":"f829a819-671e-4b71-9c22-56c5f8047725","system_id":"levelo_inurba_marseille","lat":43.32361,"lon":5.36762,"is_reserved":false,"is_disabled":false,"rental_uris":{"android":"levelo://app?vid=f829a819-671e-4b71-9c22-56c5f8047725","ios":"levelo://app?vid=f829a819-671e-4b71-9c22-56c5f8047725"},"vehicle_type_id":"4","last_reported":1741763356,"current_range_meters":10800,"station_id":"ce4bhsh2rcd13ifvqi2g","pricing_plan_id":"cebpf4jnsgd1na2vs0mg"},{"bike_id":"28ddcdf4-024a-4f42-80ff-fb3bac3f5f61","system_id":"levelo_inurba_marseille","lat":43.24156,"lon":5.36413,"is_reserved":false,"is_disabled":false,"rental_uris":{"android":"levelo://app?vid=28ddcdf4-024a-4f42-80ff-fb3bac3f5f61","ios":"levelo://app?vid=28ddcdf4-024a-4f42-80ff-fb3bac3f5f61"},"vehicle_type_id":"4","last_reported":1741763356,"current_range_meters":11200,"station_id":"cpo36qri1sfpv3e86is0","pricing_plan_id":"cebpf4jnsgd1na2vs0mg"},{"bike_id":"d4031ff3-7df8-4153-b5c5-c6dcddcb0625","system_id":"levelo_inurba_marseille","lat":43.24549,"lon":5.39526,"is_reserved":false,"is_disabled":false,"rental_uris":{"android":"levelo://app?vid=d4031ff3-7df8-4153-b5c5-c6dcddcb0625","ios":"levelo://app?vid=d4031ff3-7df8-4153-b5c5-c6dcddcb0625"},"vehicle_type_id":"4","last_reported":1741763356,"current_range_meters":11200,"station_id":"ce4bhlp2rcd13ifvqgjg","pricing_plan_id":"cebpf4jnsgd1na2vs0mg"},{"bike_id":"73e322c8-7ded-47ba-9855-1e50f41f6948","system_id":"levelo_inurba_marseille","lat":43.30464,"lon":5.37932,"is_reserved":false,"is_disabled":false,"rental_uris":{"android":"levelo://app?vid=73e322c8-7ded-47ba-9855-1e50f41f6948","ios":"levelo://app?vid=73e322c8-7ded-47ba-9855-1e50f41f6948"},"vehicle_type_id":"4","last_reported":1741763356,"current_range_meters":11200,"station_id":"ce4bgup2rcd13ifvqcn0","pricing_plan_id":"cebpf4jnsgd1na2vs0mg"},{"bike_id":"9c3411cb-59fc-4a5c-ab49-dac7eae588af","system_id":"levelo_inurba_marseille","lat":43.24077,"lon":5.37763,"is_reserved":false,"is_disabled":false,"rental_uris":{"android":"levelo://app?vid=9c3411cb-59fc-4a5c-ab49-dac7eae588af","ios":"levelo://app?vid=9c3411cb-59fc-4a5c-ab49-dac7eae588af"},"vehicle_type_id":"4","last_reported":1741763356,"current_range_meters":11200,"station_id":"ce4bhnp2rcd13ifvqgvg","pricing_plan_id":"cebpf4jnsgd1na2vs0mg"},{"bike_id":"f089405c-d65a-4a6b-a39c-5cde3f352c4b","system_id":"levelo_inurba_marseille","lat":43.303673,"lon":5.368195,"is_reserved":false,"is_disabled":false,"rental_uris":{"android":"levelo://app?vid=f089405c-d65a-4a6b-a39c-5cde3f352c4b","ios":"levelo://app?vid=f089405c-d65a-4a6b-a39c-5cde3f352c4b"},"vehicle_type_id":"4","last_reported":1741763356,"current_range_meters":11200,"station_id":"ce4bgrp2rcd13ifvqc9g","pricing_plan_id":"cebpf4jnsgd1na2vs0mg"},{"bike_id":"1ed1a68a-1459-44c6-8baf-85fcda1e78ae","system_id":"levelo_inurba_marseille","lat":43.24387,"lon":5.37056,"is_reserved":false,"is_disabled":false,"rental_uris":{"android":"levelo://app?vid=1ed1a68a-1459-44c6-8baf-85fcda1e78ae","ios":"levelo://app?vid=1ed1a68a-1459-44c6-8baf-85fcda1e78ae"},"vehicle_type_id":"4","last_reported":1741763356,"current_range_meters":11600,"station_id":"ce4bhhh2rcd13ifvqfk0","pricing_plan_id":"cebpf4jnsgd1na2vs0mg"},{"bike_id":"65ab0346-837e-4ad8-8d4d-c6c7ffee11b5","system_id":"levelo_inurba_marseille","lat":43.33392,"lon":5.40071,"is_reserved":false,"is_disabled":false,"rental_uris":{"android":"levelo://app?vid=65ab0346-837e-4ad8-8d4d-c6c7ffee11b5","ios":"levelo://app?vid=65ab0346-837e-4ad8-8d4d-c6c7ffee11b5"},"vehicle_type_id":"4","last_reported":1741763356,"current_range_meters":11600,"station_id":"","pricing_plan_id":"cebpf4jnsgd1na2vs0mg"},{"bike_id":"a4a48685-89ff-40d9-8887-3bc1ac03d06f","system_id":"levelo_inurba_marseille","lat":43.31338,"lon":5.39667,"is_reserved":false,"is_disabled":false,"rental_uris":{"android":"levelo://app?vid=a4a48685-89ff-40d9-8887-3bc1ac03d06f","ios":"levelo://app?vid=a4a48685-89ff-40d9-8887-3bc1ac03d06f"},"vehicle_type_id":"4","last_reported":1741763356,"current_range_meters":11600,"station_id":"ce4bgvp2rcd13ifvqcu0","pricing_plan_id":"cebpf4jnsgd1na2vs0mg"},{"bike_id":"57100b44-3342-49de-bcd5-1a06ba862b40","system_id":"levelo_inurba_marseille","lat":43.29274,"lon":5.40149,"is_reserved":false,"is_disabled":false,"rental_uris":{"android":"levelo://app?vid=57100b44-3342-49de-bcd5-1a06ba862b40","ios":"levelo://app?vid=57100b44-3342-49de-bcd5-1a06ba862b40"},"vehicle_type_id":"4","last_reported":1741763356,"current_range_meters":11200,"station_id":"ce4bh312rcd13ifvqdk0","pricing_plan_id":"cebpf4jnsgd1na2vs0mg"},{"bike_id":"ec5d08ce-934d-49b5-9a73-c20b44942d11","system_id":"levelo_inurba_marseille","lat":43.31433,"lon":5.37511,"is_reserved":false,"is_disabled":false,"rental_uris":{"android":"levelo://app?vid=ec5d08ce-934d-49b5-9a73-c20b44942d11","ios":"levelo://app?vid=ec5d08ce-934d-49b5-9a73-c20b44942d11"},"vehicle_type_id":"4","last_reported":1741763356,"current_range_meters":11600,"station_id":"","pricing_plan_id":"cebpf4jnsgd1na2vs0mg"},{"bike_id":"25937fb7-9dcc-40e4-8919-d293a5121ca0","system_id":"levelo_inurba_marseille","lat":43.28709,"lon":5.3794,"is_reserved":false,"is_disabled":false,"rental_uris":{"android":"levelo://app?vid=25937fb7-9dcc-40e4-8919-d293a5121ca0","ios":"levelo://app?vid=25937fb7-9dcc-40e4-8919-d293a5121ca0"},"vehicle_type_id":"4","last_reported":1741763356,"current_range_meters":11600,"station_id":"ce4bh9p2rcd13ifvqec0","pricing_plan_id":"cebpf4jnsgd1na2vs0mg"},{"bike_id":"2d24c24a-8203-4ed5-9cb1-77fb4086f4ed","system_id":"levelo_inurba_marseille","lat":43.29891,"lon":5.39755,"is_reserved":false,"is_disabled":false,"rental_uris":{"android":"levelo://app?vid=2d24c24a-8203-4ed5-9cb1-77fb4086f4ed","ios":"levelo://app?vid=2d24c24a-8203-4ed5-9cb1-77fb4086f4ed"},"vehicle_type_id":"4","last_reported":1741763356,"current_range_meters":11600,"station_id":"ce4bh0h2rcd13ifvqd50","pricing_plan_id":"cebpf4jnsgd1na2vs0mg"},{"bike_id":"5317488a-5edb-4d42-8bda-9a2f0e18d100","system_id":"levelo_inurba_marseille","lat":43.262148,"lon":5.40439,"is_reserved":false,"is_disabled":false,"rental_uris":{"android":"levelo://app?vid=5317488a-5edb-4d42-8bda-9a2f0e18d100","ios":"levelo://app?vid=5317488a-5edb-4d42-8bda-9a2f0e18d100"},"vehicle_type_id":"4","last_reported":1741763356,"current_range_meters":11600,"station_id":"ce4bhmh2rcd13ifvqgmg","pricing_plan_id":"cebpf4jnsgd1na2vs0mg"},{"bike_id":"92574190-5672-42af-956f-546c757a93c5","system_id":"levelo_inurba_marseille","lat":43.29189,"lon":5.39305,"is_reserved":false,"is_disabled":false,"rental_uris":{"android":"levelo://app?vid=92574190-5672-42af-956f-546c757a93c5","ios":"levelo://app?vid=92574190-5672-42af-956f-546c757a93c5"},"vehicle_type_id":"4","last_reported":1741763356,"current_range_meters":11600,"station_id":"ce4bh192rcd13ifvqdd0","pricing_plan_id":"cebpf4jnsgd1na2vs0mg"},{"bike_id":"a4ce6389-69c8-41eb-a2cb-27e113df5153","system_id":"levelo_inurba_marseille","lat":43.286,"lon":5.35119,"is_reserved":false,"is_disabled":false,"rental_uris":{"android":"levelo://app?vid=a4ce6389-69c8-41eb-a2cb-27e113df5153","ios":"levelo://app?vid=a4ce6389-69c8-41eb-a2cb-27e113df5153"},"vehicle_type_id":"4","last_reported":1741763356,"current_range_meters":12000,"station_id":"ce4bhch2rcd13ifvqeug","pricing_plan_id":"cebpf4jnsgd1na2vs0mg"},{"bike_id":"d34c486a-1f4c-4633-aedb-8d2096ade05a","system_id":"levelo_inurba_marseille","lat":43.30795,"lon":5.43525,"is_reserved":false,"is_disabled":false,"rental_uris":{"android":"levelo://app?vid=d34c486a-1f4c-4633-aedb-8d2096ade05a","ios":"levelo://app?vid=d34c486a-1f4c-4633-aedb-8d2096ade05a"},"vehicle_type_id":"4","last_reported":1741763356,"current_range_meters":12000,"station_id":"ce4bhph2rcd13ifvqheg","pricing_plan_id":"cebpf4jnsgd1na2vs0mg"},{"bike_id":"51bb4d06-8f06-4c81-9967-3f775de2b65e","system_id":"levelo_inurba_marseille","lat":43.24175,"lon":5.36389,"is_reserved":false,"is_disabled":false,"rental_uris":{"android":"levelo://app?vid=51bb4d06-8f06-4c81-9967-3f775de2b65e","ios":"levelo://app?vid=51bb4d06-8f06-4c81-9967-3f775de2b65e"},"vehicle_type_id":"4","last_reported":1741763356,"current_range_meters":12000,"station_id":"cpo36qri1sfpv3e86is0","pricing_plan_id":"cebpf4jnsgd1na2vs0mg"},{"bike_id":"0eecd69f-4814-4099-9308-41706ca678d7","system_id":"levelo_inurba_marseille","lat":43.29922,"lon":5.36529,"is_reserved":false,"is_disabled":false,"rental_uris":{"android":"levelo://app?vid=0eecd69f-4814-4099-9308-41706ca678d7","ios":"levelo://app?vid=0eecd69f-4814-4099-9308-41706ca678d7"},"vehicle_type_id":"4","last_reported":1741763356,"current_range_meters":12000,"station_id":"ce4bgm92rcd13ifvqbr0","pricing_plan_id":"cebpf4jnsgd1na2vs0mg"},{"bike_id":"f0b9dc09-9d86-4da8-968b-f39b4f9aafef","system_id":"levelo_inurba_marseille","lat":43.29037,"lon":5.3756,"is_reserved":false,"is_disabled":false,"rental_uris":{"android":"levelo://app?vid=f0b9dc09-9d86-4da8-968b-f39b4f9aafef","ios":"levelo://app?vid=f0b9dc09-9d86-4da8-968b-f39b4f9aafef"},"vehicle_type_id":"4","last_reported":1741763356,"current_range_meters":12000,"station_id":"ce4bh692rcd13ifvqe90","pricing_plan_id":"cebpf4jnsgd1na2vs0mg"},{"bike_id":"85c28da3-2cd7-4728-8ad6-8dee79cd68af","system_id":"levelo_inurba_marseille","lat":43.30251,"lon":5.38679,"is_reserved":false,"is_disabled":true,"rental_uris":{"android":"levelo://app?vid=85c28da3-2cd7-4728-8ad6-8dee79cd68af","ios":"levelo://app?vid=85c28da3-2cd7-4728-8ad6-8dee79cd68af"},"vehicle_type_id":"4","last_reported":1741763356,"current_range_meters":12000,"station_id":"ce4bgg92rcd13ifvqb30","pricing_plan_id":"cebpf4jnsgd1na2vs0mg"},{"bike_id":"0a995a9a-6122-4f4b-b298-a8b06cbca7e2","system_id":"levelo_inurba_marseille","lat":43.25007,"lon":5.38919,"is_reserved":false,"is_disabled":false,"rental_uris":{"android":"levelo://app?vid=0a995a9a-6122-4f4b-b298-a8b06cbca7e2","ios":"levelo://app?vid=0a995a9a-6122-4f4b-b298-a8b06cbca7e2"},"vehicle_type_id":"4","last_reported":1741763356,"current_range_meters":12400,"station_id":"ce4bhgp2rcd13ifvqfd0","pricing_plan_id":"cebpf4jnsgd1na2vs0mg"},{"bike_id":"eb1ba1b6-2e87-45ed-8cf3-925b9709627f","system_id":"levelo_inurba_marseille","lat":43.29347,"lon":5.39326,"is_reserved":false,"is_disabled":false,"rental_uris":{"android":"levelo://app?vid=eb1ba1b6-2e87-45ed-8cf3-925b9709627f","ios":"levelo://app?vid=eb1ba1b6-2e87-45ed-8cf3-925b9709627f"},"vehicle_type_id":"4","last_reported":1741763356,"current_range_meters":12400,"station_id":"ce4bh3p2rcd13ifvqdp0","pricing_plan_id":"cebpf4jnsgd1na2vs0mg"},{"bike_id":"0a6985ed-b84c-4033-8e3e-05aa091718f5","system_id":"levelo_inurba_marseille","lat":43.29914,"lon":5.39746,"is_reserved":false,"is_disabled":false,"rental_uris":{"android":"levelo://app?vid=0a6985ed-b84c-4033-8e3e-05aa091718f5","ios":"levelo://app?vid=0a6985ed-b84c-4033-8e3e-05aa091718f5"},"vehicle_type_id":"4","last_reported":1741763356,"current_range_meters":12400,"station_id":"","pricing_plan_id":"cebpf4jnsgd1na2vs0mg"},{"bike_id":"2f8ecfaf-2a87-4f10-80ec-10a7eb94a1da","system_id":"levelo_inurba_marseille","lat":43.31512,"lon":5.38042,"is_reserved":false,"is_disabled":false,"rental_uris":{"android":"levelo://app?vid=2f8ecfaf-2a87-4f10-80ec-10a7eb94a1da","ios":"levelo://app?vid=2f8ecfaf-2a87-4f10-80ec-10a7eb94a1da"},"vehicle_type_id":"4","last_reported":1741763356,"current_range_meters":12400,"station_id":"ce4bhsp2rcd13ifvqi50","pricing_plan_id":"cebpf4jnsgd1na2vs0mg"},{"bike_id":"6dbc9b4a-c5a1-4dbf-a00f-5bb7462d2694","system_id":"levelo_inurba_marseille","lat":43.28114,"lon":5.39871,"is_reserved":false,"is_disabled":true,"rental_uris":{"android":"levelo://app?vid=6dbc9b4a-c5a1-4dbf-a00f-5bb7462d2694","ios":"levelo://app?vid=6dbc9b4a-c5a1-4dbf-a00f-5bb7462d2694"},"vehicle_type_id":"4","last_reported":1741763356,"current_range_meters":12800,"station_id":"","pricing_plan_id":"cebpf4jnsgd1na2vs0mg"},{"bike_id":"dcc1ab31-4eab-4a4e-a9ab-4fad30575bdb","system_id":"levelo_inurba_marseille","lat":43.3013,"lon":5.37432,"is_reserved":false,"is_disabled":true,"rental_uris":{"android":"levelo://app?vid=dcc1ab31-4eab-4a4e-a9ab-4fad30575bdb","ios":"levelo://app?vid=dcc1ab31-4eab-4a4e-a9ab-4fad30575bdb"},"vehicle_type_id":"4","last_reported":1741763356,"current_range_meters":12800,"station_id":"ce4bgs92rcd13ifvqcc0","pricing_plan_id":"cebpf4jnsgd1na2vs0mg"},{"bike_id":"c2f95749-a7d5-4b70-9006-713e024c3c78","system_id":"levelo_inurba_marseille","lat":43.29847,"lon":5.36285,"is_reserved":false,"is_disabled":false,"rental_uris":{"android":"levelo://app?vid=c2f95749-a7d5-4b70-9006-713e024c3c78","ios":"levelo://app?vid=c2f95749-a7d5-4b70-9006-713e024c3c78"},"vehicle_type_id":"4","last_reported":1741763356,"current_range_meters":12800,"station_id":"ce4bgpp2rcd13ifvqc3g","pricing_plan_id":"cebpf4jnsgd1na2vs0mg"},{"bike_id":"200c1668-b403-444f-a98b-38324d934d8b","system_id":"levelo_inurba_marseille","lat":43.3156,"lon":5.38044,"is_reserved":false,"is_disabled":false,"rental_uris":{"android":"levelo://app?vid=200c1668-b403-444f-a98b-38324d934d8b","ios":"levelo://app?vid=200c1668-b403-444f-a98b-38324d934d8b"},"vehicle_type_id":"4","last_reported":1741763356,"current_range_meters":12800,"station_id":"ce4bhsp2rcd13ifvqi50","pricing_plan_id":"cebpf4jnsgd1na2vs0mg"},{"bike_id":"bd4f393d-c78e-4515-afb5-df2dec73c5d0","system_id":"levelo_inurba_marseille","lat":43.30556,"lon":5.36577,"is_reserved":false,"is_disabled":false,"rental_uris":{"android":"levelo://app?vid=bd4f393d-c78e-4515-afb5-df2dec73c5d0","ios":"levelo://app?vid=bd4f393d-c78e-4515-afb5-df2dec73c5d0"},"vehicle_type_id":"4","last_reported":1741763356,"current_range_meters":12800,"station_id":"ce4bgs12rcd13ifvqcag","pricing_plan_id":"cebpf4jnsgd1na2vs0mg"},{"bike_id":"2bba966b-eb20-455a-9401-586a11d193eb","system_id":"levelo_inurba_marseille","lat":43.30456,"lon":5.37923,"is_reserved":false,"is_disabled":false,"rental_uris":{"android":"levelo://app?vid=2bba966b-eb20-455a-9401-586a11d193eb","ios":"levelo://app?vid=2bba966b-eb20-455a-9401-586a11d193eb"},"vehicle_type_id":"4","last_reported":1741763356,"current_range_meters":12400,"station_id":"ce4bgup2rcd13ifvqcn0","pricing_plan_id":"cebpf4jnsgd1na2vs0mg"},{"bike_id":"b44022d5-a3c8-45f9-9984-eaba76929c7b","system_id":"levelo_inurba_marseille","lat":43.27791,"lon":5.40745,"is_reserved":false,"is_disabled":false,"rental_uris":{"android":"levelo://app?vid=b44022d5-a3c8-45f9-9984-eaba76929c7b","ios":"levelo://app?vid=b44022d5-a3c8-45f9-9984-eaba76929c7b"},"vehicle_type_id":"4","last_reported":1741763356,"current_range_meters":12800,"station_id":"ce4bhnh2rcd13ifvqgtg","pricing_plan_id":"cebpf4jnsgd1na2vs0mg"},{"bike_id":"45345445-a78a-493f-a730-c619602e3241","system_id":"levelo_inurba_marseille","lat":43.256089,"lon":5.385492,"is_reserved":false,"is_disabled":false,"rental_uris":{"android":"levelo://app?vid=45345445-a78a-493f-a730-c619602e3241","ios":"levelo://app?vid=45345445-a78a-493f-a730-c619602e3241"},"vehicle_type_id":"4","last_reported":1741763356,"current_range_meters":12800,"station_id":"","pricing_plan_id":"cebpf4jnsgd1na2vs0mg"},{"bike_id":"6c5be0de-7ae5-4443-b67d-718e2bfeb46c","system_id":"levelo_inurba_marseille","lat":43.28607,"lon":5.35122,"is_reserved":false,"is_disabled":false,"rental_uris":{"android":"levelo://app?vid=6c5be0de-7ae5-4443-b67d-718e2bfeb46c","ios":"levelo://app?vid=6c5be0de-7ae5-4443-b67d-718e2bfeb46c"},"vehicle_type_id":"4","last_reported":1741763356,"current_range_meters":12800,"station_id":"ce4bhch2rcd13ifvqeug","pricing_plan_id":"cebpf4jnsgd1na2vs0mg"},{"bike_id":"8c80fec3-0ced-456e-afb4-12e117658f5c","system_id":"levelo_inurba_marseille","lat":43.29884,"lon":5.38919,"is_reserved":false,"is_disabled":false,"rental_uris":{"android":"levelo://app?vid=8c80fec3-0ced-456e-afb4-12e117658f5c","ios":"levelo://app?vid=8c80fec3-0ced-456e-afb4-12e117658f5c"},"vehicle_type_id":"4","last_reported":1741763356,"current_range_meters":13600,"station_id":"ce4bh392rcd13ifvqdl0","pricing_plan_id":"cebpf4jnsgd1na2vs0mg"},{"bike_id":"90c19d0c-ef69-4351-973f-1f233f8cc14d","system_id":"levelo_inurba_marseille","lat":43.279948,"lon":5.416541,"is_reserved":false,"is_disabled":false,"rental_uris":{"android":"levelo://app?vid=90c19d0c-ef69-4351-973f-1f233f8cc14d","ios":"levelo://app?vid=90c19d0c-ef69-4351-973f-1f233f8cc14d"},"vehicle_type_id":"4","last_reported":1741763356,"current_range_meters":13600,"station_id":"ce4bho12rcd13ifvqh1g","pricing_plan_id":"cebpf4jnsgd1na2vs0mg"},{"bike_id":"fb55f9d1-18dc-4569-919c-3c5a2e705317","system_id":"levelo_inurba_marseille","lat":43.324844,"lon":5.365821,"is_reserved":false,"is_disabled":false,"rental_uris":{"android":"levelo://app?vid=fb55f9d1-18dc-4569-919c-3c5a2e705317","ios":"levelo://app?vid=fb55f9d1-18dc-4569-919c-3c5a2e705317"},"vehicle_type_id":"4","last_reported":1741763356,"current_range_meters":13600,"station_id":"ce4bhs12rcd13ifvqhvg","pricing_plan_id":"cebpf4jnsgd1na2vs0mg"},{"bike_id":"a5502eed-dac4-4ea9-87e0-fe659cec6f6c","system_id":"levelo_inurba_marseille","lat":43.305547,"lon":5.365163,"is_reserved":false,"is_disabled":true,"rental_uris":{"android":"levelo://app?vid=a5502eed-dac4-4ea9-87e0-fe659cec6f6c","ios":"levelo://app?vid=a5502eed-dac4-4ea9-87e0-fe659cec6f6c"},"vehicle_type_id":"4","last_reported":1741763356,"current_range_meters":13600,"station_id":"ce4bgs12rcd13ifvqcag","pricing_plan_id":"cebpf4jnsgd1na2vs0mg"},{"bike_id":"dff25119-56dd-41f3-ac1d-586314948a71","system_id":"levelo_inurba_marseille","lat":43.27506,"lon":5.42442,"is_reserved":false,"is_disabled":false,"rental_uris":{"android":"levelo://app?vid=dff25119-56dd-41f3-ac1d-586314948a71","ios":"levelo://app?vid=dff25119-56dd-41f3-ac1d-586314948a71"},"vehicle_type_id":"4","last_reported":1741763356,"current_range_meters":13600,"station_id":"ce4bhn92rcd13ifvqgrg","pricing_plan_id":"cebpf4jnsgd1na2vs0mg"},{"bike_id":"f8c04101-9686-47e6-a7f9-580ac6b22f40","system_id":"levelo_inurba_marseille","lat":43.30469,"lon":5.3792,"is_reserved":false,"is_disabled":false,"rental_uris":{"android":"levelo://app?vid=f8c04101-9686-47e6-a7f9-580ac6b22f40","ios":"levelo://app?vid=f8c04101-9686-47e6-a7f9-580ac6b22f40"},"vehicle_type_id":"4","last_reported":1741763356,"current_range_meters":14000,"station_id":"ce4bgup2rcd13ifvqcn0","pricing_plan_id":"cebpf4jnsgd1na2vs0mg"},{"bike_id":"2292d452-080d-44d7-bf0a-d0e9cf6f1d25","system_id":"levelo_inurba_marseille","lat":43.279999,"lon":5.400178,"is_reserved":false,"is_disabled":false,"rental_uris":{"android":"levelo://app?vid=2292d452-080d-44d7-bf0a-d0e9cf6f1d25","ios":"levelo://app?vid=2292d452-080d-44d7-bf0a-d0e9cf6f1d25"},"vehicle_type_id":"4","last_reported":1741763356,"current_range_meters":14000,"station_id":"ce4bho92rcd13ifvqh4g","pricing_plan_id":"cebpf4jnsgd1na2vs0mg"},{"bike_id":"58795e39-6150-4b43-ba4b-c397fb3a50c3","system_id":"levelo_inurba_marseille","lat":43.31467,"lon":5.37324,"is_reserved":false,"is_disabled":false,"rental_uris":{"android":"levelo://app?vid=58795e39-6150-4b43-ba4b-c397fb3a50c3","ios":"levelo://app?vid=58795e39-6150-4b43-ba4b-c397fb3a50c3"},"vehicle_type_id":"4","last_reported":1741763356,"current_range_meters":14000,"station_id":"ce4bgt12rcd13ifvqcd0","pricing_plan_id":"cebpf4jnsgd1na2vs0mg"},{"bike_id":"868f56a8-092f-4fb5-97a5-fed5075995ad","system_id":"levelo_inurba_marseille","lat":43.28435,"lon":5.39203,"is_reserved":false,"is_disabled":false,"rental_uris":{"android":"levelo://app?vid=868f56a8-092f-4fb5-97a5-fed5075995ad","ios":"levelo://app?vid=868f56a8-092f-4fb5-97a5-fed5075995ad"},"vehicle_type_id":"4","last_reported":1741763356,"current_range_meters":14000,"station_id":"ce4bhoh2rcd13ifvqh5g","pricing_plan_id":"cebpf4jnsgd1na2vs0mg"},{"bike_id":"168ee47d-6429-4495-a5aa-9d9eff0c5b7e","system_id":"levelo_inurba_marseille","lat":43.30468,"lon":5.379,"is_reserved":false,"is_disabled":false,"rental_uris":{"android":"levelo://app?vid=168ee47d-6429-4495-a5aa-9d9eff0c5b7e","ios":"levelo://app?vid=168ee47d-6429-4495-a5aa-9d9eff0c5b7e"},"vehicle_type_id":"4","last_reported":1741763356,"current_range_meters":14400,"station_id":"ce4bgup2rcd13ifvqcn0","pricing_plan_id":"cebpf4jnsgd1na2vs0mg"},{"bike_id":"507abd02-8c10-470e-b802-dadd3ef21f5c","system_id":"levelo_inurba_marseille","lat":43.28074,"lon":5.39668,"is_reserved":false,"is_disabled":false,"rental_uris":{"android":"levelo://app?vid=507abd02-8c10-470e-b802-dadd3ef21f5c","ios":"levelo://app?vid=507abd02-8c10-470e-b802-dadd3ef21f5c"},"vehicle_type_id":"4","last_reported":1741763356,"current_range_meters":14400,"station_id":"ce4bho12rcd13ifvqh2g","pricing_plan_id":"cebpf4jnsgd1na2vs0mg"},{"bike_id":"e0718395-0e2e-4a7a-a474-5a05d3f79c13","system_id":"levelo_inurba_marseille","lat":43.28434,"lon":5.37524,"is_reserved":false,"is_disabled":true,"rental_uris":{"android":"levelo://app?vid=e0718395-0e2e-4a7a-a474-5a05d3f79c13","ios":"levelo://app?vid=e0718395-0e2e-4a7a-a474-5a05d3f79c13"},"vehicle_type_id":"4","last_reported":1741763356,"current_range_meters":14800,"station_id":"ce4bh412rcd13ifvqds0","pricing_plan_id":"cebpf4jnsgd1na2vs0mg"},{"bike_id":"9b665522-2639-45b0-bd52-d9f8cfad2bac","system_id":"levelo_inurba_marseille","lat":43.25727,"lon":5.41109,"is_reserved":false,"is_disabled":false,"rental_uris":{"android":"levelo://app?vid=9b665522-2639-45b0-bd52-d9f8cfad2bac","ios":"levelo://app?vid=9b665522-2639-45b0-bd52-d9f8cfad2bac"},"vehicle_type_id":"4","last_reported":1741763356,"current_range_meters":14800,"station_id":"ce4bhkp2rcd13ifvqgd0","pricing_plan_id":"cebpf4jnsgd1na2vs0mg"},{"bike_id":"47000039-4034-4ec5-a69e-eabf345d8859","system_id":"levelo_inurba_marseille","lat":43.27933,"lon":5.41051,"is_reserved":false,"is_disabled":false,"rental_uris":{"android":"levelo://app?vid=47000039-4034-4ec5-a69e-eabf345d8859","ios":"levelo://app?vid=47000039-4034-4ec5-a69e-eabf345d8859"},"vehicle_type_id":"4","last_reported":1741763356,"current_range_meters":14800,"station_id":"ce4bhnp2rcd13ifvqh0g","pricing_plan_id":"cebpf4jnsgd1na2vs0mg"},{"bike_id":"55460cd7-9b41-4f6b-8ca9-a135ac7ebf19","system_id":"levelo_inurba_marseille","lat":43.25083,"lon":5.39525,"is_reserved":false,"is_disabled":false,"rental_uris":{"android":"levelo://app?vid=55460cd7-9b41-4f6b-8ca9-a135ac7ebf19","ios":"levelo://app?vid=55460cd7-9b41-4f6b-8ca9-a135ac7ebf19"},"vehicle_type_id":"4","last_reported":1741763356,"current_range_meters":14800,"station_id":"ce4bhm12rcd13ifvqgkg","pricing_plan_id":"cebpf4jnsgd1na2vs0mg"},{"bike_id":"e7e88df6-f1ca-46bb-bd71-ae3d4a6f7eeb","system_id":"levelo_inurba_marseille","lat":43.299146,"lon":5.374751,"is_reserved":false,"is_disabled":false,"rental_uris":{"android":"levelo://app?vid=e7e88df6-f1ca-46bb-bd71-ae3d4a6f7eeb","ios":"levelo://app?vid=e7e88df6-f1ca-46bb-bd71-ae3d4a6f7eeb"},"vehicle_type_id":"4","last_reported":1741763356,"current_range_meters":15200,"station_id":"ce4bgjh2rcd13ifvqbg0","pricing_plan_id":"cebpf4jnsgd1na2vs0mg"},{"bike_id":"4c607265-c996-4d9b-81fd-daa80dd99e32","system_id":"levelo_inurba_marseille","lat":43.28704,"lon":5.38459,"is_reserved":false,"is_disabled":false,"rental_uris":{"android":"levelo://app?vid=4c607265-c996-4d9b-81fd-daa80dd99e32","ios":"levelo://app?vid=4c607265-c996-4d9b-81fd-daa80dd99e32"},"vehicle_type_id":"4","last_reported":1741763356,"current_range_meters":15200,"station_id":"","pricing_plan_id":"cebpf4jnsgd1na2vs0mg"},{"bike_id":"9582fe28-f1d6-4bd6-9ab7-3c2f8c3be60b","system_id":"levelo_inurba_marseille","lat":43.2869,"lon":5.37428,"is_reserved":false,"is_disabled":false,"rental_uris":{"android":"levelo://app?vid=9582fe28-f1d6-4bd6-9ab7-3c2f8c3be60b","ios":"levelo://app?vid=9582fe28-f1d6-4bd6-9ab7-3c2f8c3be60b"},"vehicle_type_id":"4","last_reported":1741763356,"current_range_meters":15200,"station_id":"ce4bh3p2rcd13ifvqdq0","pricing_plan_id":"cebpf4jnsgd1na2vs0mg"},{"bike_id":"5ab0cfa0-18fa-4e38-b126-3bae65fd3aae","system_id":"levelo_inurba_marseille","lat":43.30584,"lon":5.39355,"is_reserved":false,"is_disabled":false,"rental_uris":{"android":"levelo://app?vid=5ab0cfa0-18fa-4e38-b126-3bae65fd3aae","ios":"levelo://app?vid=5ab0cfa0-18fa-4e38-b126-3bae65fd3aae"},"vehicle_type_id":"4","last_reported":1741763356,"current_range_meters":15200,"station_id":"ce4bh0p2rcd13ifvqd80","pricing_plan_id":"cebpf4jnsgd1na2vs0mg"},{"bike_id":"3362db76-1dd6-46ad-9bcb-c9531dba285a","system_id":"levelo_inurba_marseille","lat":43.27499,"lon":5.42446,"is_reserved":false,"is_disabled":false,"rental_uris":{"android":"levelo://app?vid=3362db76-1dd6-46ad-9bcb-c9531dba285a","ios":"levelo://app?vid=3362db76-1dd6-46ad-9bcb-c9531dba285a"},"vehicle_type_id":"4","last_reported":1741763356,"current_range_meters":16000,"station_id":"ce4bhn92rcd13ifvqgrg","pricing_plan_id":"cebpf4jnsgd1na2vs0mg"},{"bike_id":"6f4c9526-e882-40d0-bbc5-c3775986ec76","system_id":"levelo_inurba_marseille","lat":43.24067,"lon":5.37752,"is_reserved":false,"is_disabled":false,"rental_uris":{"android":"levelo://app?vid=6f4c9526-e882-40d0-bbc5-c3775986ec76","ios":"levelo://app?vid=6f4c9526-e882-40d0-bbc5-c3775986ec76"},"vehicle_type_id":"4","last_reported":1741763356,"current_range_meters":16000,"station_id":"ce4bhnp2rcd13ifvqgvg","pricing_plan_id":"cebpf4jnsgd1na2vs0mg"},{"bike_id":"5e36b6b8-6e77-45ed-9597-025342e46c0b","system_id":"levelo_inurba_marseille","lat":43.25502,"lon":5.37653,"is_reserved":false,"is_disabled":false,"rental_uris":{"android":"levelo://app?vid=5e36b6b8-6e77-45ed-9597-025342e46c0b","ios":"levelo://app?vid=5e36b6b8-6e77-45ed-9597-025342e46c0b"},"vehicle_type_id":"4","last_reported":1741763356,"current_range_meters":16000,"station_id":"ce4bhh12rcd13ifvqff0","pricing_plan_id":"cebpf4jnsgd1na2vs0mg"},{"bike_id":"824822a6-4f18-4999-a206-69f8e174637e","system_id":"levelo_inurba_marseille","lat":43.297152,"lon":5.366172,"is_reserved":false,"is_disabled":false,"rental_uris":{"android":"levelo://app?vid=824822a6-4f18-4999-a206-69f8e174637e","ios":"levelo://app?vid=824822a6-4f18-4999-a206-69f8e174637e"},"vehicle_type_id":"4","last_reported":1741763356,"current_range_meters":16000,"station_id":"ce4bgn12rcd13ifvqbt0","pricing_plan_id":"cebpf4jnsgd1na2vs0mg"},{"bike_id":"331918fe-1779-45ee-94b0-32fed6e4c7e6","system_id":"levelo_inurba_marseille","lat":43.280411,"lon":5.369518,"is_reserved":false,"is_disabled":false,"rental_uris":{"android":"levelo://app?vid=331918fe-1779-45ee-94b0-32fed6e4c7e6","ios":"levelo://app?vid=331918fe-1779-45ee-94b0-32fed6e4c7e6"},"vehicle_type_id":"4","last_reported":1741763356,"current_range_meters":16000,"station_id":"ce4bha12rcd13ifvqef0","pricing_plan_id":"cebpf4jnsgd1na2vs0mg"},{"bike_id":"5ea7cedc-bf33-4785-8ab8-b8c936819fa1","system_id":"levelo_inurba_marseille","lat":43.3046,"lon":5.37921,"is_reserved":false,"is_disabled":false,"rental_uris":{"android":"levelo://app?vid=5ea7cedc-bf33-4785-8ab8-b8c936819fa1","ios":"levelo://app?vid=5ea7cedc-bf33-4785-8ab8-b8c936819fa1"},"vehicle_type_id":"4","last_reported":1741763356,"current_range_meters":16400,"station_id":"ce4bgup2rcd13ifvqcn0","pricing_plan_id":"cebpf4jnsgd1na2vs0mg"},{"bike_id":"1af10756-976b-44f2-9b40-c91a054865a7","system_id":"levelo_inurba_marseille","lat":43.28719,"lon":5.37935,"is_reserved":false,"is_disabled":false,"rental_uris":{"android":"levelo://app?vid=1af10756-976b-44f2-9b40-c91a054865a7","ios":"levelo://app?vid=1af10756-976b-44f2-9b40-c91a054865a7"},"vehicle_type_id":"4","last_reported":1741763356,"current_range_meters":16400,"station_id":"ce4bh9p2rcd13ifvqec0","pricing_plan_id":"cebpf4jnsgd1na2vs0mg"},{"bike_id":"5e010522-ee63-447e-9bd0-e4572fe6d490","system_id":"levelo_inurba_marseille","lat":43.29601,"lon":5.36913,"is_reserved":false,"is_disabled":false,"rental_uris":{"android":"levelo://app?vid=5e010522-ee63-447e-9bd0-e4572fe6d490","ios":"levelo://app?vid=5e010522-ee63-447e-9bd0-e4572fe6d490"},"vehicle_type_id":"4","last_reported":1741763356,"current_range_meters":16400,"station_id":"","pricing_plan_id":"cebpf4jnsgd1na2vs0mg"},{"bike_id":"d3ac1ba6-6349-4d47-99e4-9f85d3ef1aa5","system_id":"levelo_inurba_marseille","lat":43.28417,"lon":5.36991,"is_reserved":false,"is_disabled":false,"rental_uris":{"android":"levelo://app?vid=d3ac1ba6-6349-4d47-99e4-9f85d3ef1aa5","ios":"levelo://app?vid=d3ac1ba6-6349-4d47-99e4-9f85d3ef1aa5"},"vehicle_type_id":"4","last_reported":1741763356,"current_range_meters":16400,"station_id":"","pricing_plan_id":"cebpf4jnsgd1na2vs0mg"},{"bike_id":"d4df08b0-e4dd-4c4b-ac7e-66a43d848ae1","system_id":"levelo_inurba_marseille","lat":43.31239,"lon":5.36858,"is_reserved":false,"is_disabled":false,"rental_uris":{"android":"levelo://app?vid=d4df08b0-e4dd-4c4b-ac7e-66a43d848ae1","ios":"levelo://app?vid=d4df08b0-e4dd-4c4b-ac7e-66a43d848ae1"},"vehicle_type_id":"4","last_reported":1741763356,"current_range_meters":16400,"station_id":"ce4bgl92rcd13ifvqbq0","pricing_plan_id":"cebpf4jnsgd1na2vs0mg"},{"bike_id":"7036c5b0-e372-48ba-af5b-4e047d751a83","system_id":"levelo_inurba_marseille","lat":43.27489,"lon":5.42457,"is_reserved":false,"is_disabled":false,"rental_uris":{"android":"levelo://app?vid=7036c5b0-e372-48ba-af5b-4e047d751a83","ios":"levelo://app?vid=7036c5b0-e372-48ba-af5b-4e047d751a83"},"vehicle_type_id":"4","last_reported":1741763356,"current_range_meters":16000,"station_id":"ce4bhn92rcd13ifvqgrg","pricing_plan_id":"cebpf4jnsgd1na2vs0mg"},{"bike_id":"4723e261-3bb3-4c47-8d8a-380d19e894eb","system_id":"levelo_inurba_marseille","lat":43.2904,"lon":5.39957,"is_reserved":false,"is_disabled":false,"rental_uris":{"android":"levelo://app?vid=4723e261-3bb3-4c47-8d8a-380d19e894eb","ios":"levelo://app?vid=4723e261-3bb3-4c47-8d8a-380d19e894eb"},"vehicle_type_id":"4","last_reported":1741763356,"current_range_meters":16400,"station_id":"ce4bh392rcd13ifvqdm0","pricing_plan_id":"cebpf4jnsgd1na2vs0mg"},{"bike_id":"c8f5a7aa-328f-49c1-a785-9624fa888d07","system_id":"levelo_inurba_marseille","lat":43.24978,"lon":5.38939,"is_reserved":false,"is_disabled":false,"rental_uris":{"android":"levelo://app?vid=c8f5a7aa-328f-49c1-a785-9624fa888d07","ios":"levelo://app?vid=c8f5a7aa-328f-49c1-a785-9624fa888d07"},"vehicle_type_id":"4","last_reported":1741763356,"current_range_meters":16400,"station_id":"ce4bhgp2rcd13ifvqfd0","pricing_plan_id":"cebpf4jnsgd1na2vs0mg"},{"bike_id":"40f01558-976f-40a5-a87f-d967d7fcf512","system_id":"levelo_inurba_marseille","lat":43.29232,"lon":5.39303,"is_reserved":false,"is_disabled":false,"rental_uris":{"android":"levelo://app?vid=40f01558-976f-40a5-a87f-d967d7fcf512","ios":"levelo://app?vid=40f01558-976f-40a5-a87f-d967d7fcf512"},"vehicle_type_id":"4","last_reported":1741763356,"current_range_meters":16800,"station_id":"ce4bh192rcd13ifvqdd0","pricing_plan_id":"cebpf4jnsgd1na2vs0mg"},{"bike_id":"4002d046-0222-4bc1-b5f8-671267dbd181","system_id":"levelo_inurba_marseille","lat":43.3022,"lon":5.39473,"is_reserved":false,"is_disabled":false,"rental_uris":{"android":"levelo://app?vid=4002d046-0222-4bc1-b5f8-671267dbd181","ios":"levelo://app?vid=4002d046-0222-4bc1-b5f8-671267dbd181"},"vehicle_type_id":"4","last_reported":1741763356,"current_range_meters":16400,"station_id":"ce4bh0p2rcd13ifvqd70","pricing_plan_id":"cebpf4jnsgd1na2vs0mg"},{"bike_id":"9ee3b534-911c-448d-bb36-2434c5536575","system_id":"levelo_inurba_marseille","lat":43.24547,"lon":5.39541,"is_reserved":false,"is_disabled":false,"rental_uris":{"android":"levelo://app?vid=9ee3b534-911c-448d-bb36-2434c5536575","ios":"levelo://app?vid=9ee3b534-911c-448d-bb36-2434c5536575"},"vehicle_type_id":"4","last_reported":1741763356,"current_range_meters":16800,"station_id":"ce4bhlp2rcd13ifvqgjg","pricing_plan_id":"cebpf4jnsgd1na2vs0mg"},{"bike_id":"b479f388-c785-4947-8169-e12f78c8d169","system_id":"levelo_inurba_marseille","lat":43.23205,"lon":5.39948,"is_reserved":false,"is_disabled":false,"rental_uris":{"android":"levelo://app?vid=b479f388-c785-4947-8169-e12f78c8d169","ios":"levelo://app?vid=b479f388-c785-4947-8169-e12f78c8d169"},"vehicle_type_id":"4","last_reported":1741763356,"current_range_meters":16800,"station_id":"","pricing_plan_id":"cebpf4jnsgd1na2vs0mg"},{"bike_id":"9d810279-5e21-47cb-9182-562ccec63b6e","system_id":"levelo_inurba_marseille","lat":43.297912,"lon":5.393512,"is_reserved":false,"is_disabled":false,"rental_uris":{"android":"levelo://app?vid=9d810279-5e21-47cb-9182-562ccec63b6e","ios":"levelo://app?vid=9d810279-5e21-47cb-9182-562ccec63b6e"},"vehicle_type_id":"4","last_reported":1741763356,"current_range_meters":16800,"station_id":"ce4bh4p2rcd13ifvqe0g","pricing_plan_id":"cebpf4jnsgd1na2vs0mg"},{"bike_id":"99461914-1cf4-49f8-9004-31bbab81a716","system_id":"levelo_inurba_marseille","lat":43.295287,"lon":5.390391,"is_reserved":false,"is_disabled":false,"rental_uris":{"android":"levelo://app?vid=99461914-1cf4-49f8-9004-31bbab81a716","ios":"levelo://app?vid=99461914-1cf4-49f8-9004-31bbab81a716"},"vehicle_type_id":"4","last_reported":1741763356,"current_range_meters":16800,"station_id":"ce4bh3p2rcd13ifvqdp0","pricing_plan_id":"cebpf4jnsgd1na2vs0mg"},{"bike_id":"d1235ce3-1007-4d2d-9e28-ea39398a63a8","system_id":"levelo_inurba_marseille","lat":43.231994,"lon":5.355491,"is_reserved":false,"is_disabled":false,"rental_uris":{"android":"levelo://app?vid=d1235ce3-1007-4d2d-9e28-ea39398a63a8","ios":"levelo://app?vid=d1235ce3-1007-4d2d-9e28-ea39398a63a8"},"vehicle_type_id":"4","last_reported":1741763356,"current_range_meters":16800,"station_id":"ce4bhu92rcd13ifvqi70","pricing_plan_id":"cebpf4jnsgd1na2vs0mg"},{"bike_id":"11793746-d27a-4849-b74e-2c168d01e0f3","system_id":"levelo_inurba_marseille","lat":43.2695,"lon":5.38631,"is_reserved":false,"is_disabled":false,"rental_uris":{"android":"levelo://app?vid=11793746-d27a-4849-b74e-2c168d01e0f3","ios":"levelo://app?vid=11793746-d27a-4849-b74e-2c168d01e0f3"},"vehicle_type_id":"4","last_reported":1741763356,"current_range_meters":16800,"station_id":"ce4bhh92rcd13ifvqfh0","pricing_plan_id":"cebpf4jnsgd1na2vs0mg"},{"bike_id":"215579c0-e08c-4b6b-ac57-2577878d50ac","system_id":"levelo_inurba_marseille","lat":43.24175,"lon":5.39734,"is_reserved":false,"is_disabled":false,"rental_uris":{"android":"levelo://app?vid=215579c0-e08c-4b6b-ac57-2577878d50ac","ios":"levelo://app?vid=215579c0-e08c-4b6b-ac57-2577878d50ac"},"vehicle_type_id":"4","last_reported":1741763356,"current_range_meters":16800,"station_id":"ce4bhn12rcd13ifvqgpg","pricing_plan_id":"cebpf4jnsgd1na2vs0mg"},{"bike_id":"94f5e6d2-6c80-463d-87f0-6ea8471a3fca","system_id":"levelo_inurba_marseille","lat":43.23055,"lon":5.35495,"is_reserved":false,"is_disabled":false,"rental_uris":{"android":"levelo://app?vid=94f5e6d2-6c80-463d-87f0-6ea8471a3fca","ios":"levelo://app?vid=94f5e6d2-6c80-463d-87f0-6ea8471a3fca"},"vehicle_type_id":"4","last_reported":1741763356,"current_range_meters":16800,"station_id":"cpo3342slgdg3j2ifvpg","pricing_plan_id":"cebpf4jnsgd1na2vs0mg"},{"bike_id":"0118782e-a9be-4c57-a3c6-f989e8d3b9bf","system_id":"levelo_inurba_marseille","lat":43.24179,"lon":5.39725,"is_reserved":false,"is_disabled":false,"rental_uris":{"android":"levelo://app?vid=0118782e-a9be-4c57-a3c6-f989e8d3b9bf","ios":"levelo://app?vid=0118782e-a9be-4c57-a3c6-f989e8d3b9bf"},"vehicle_type_id":"4","last_reported":1741763356,"current_range_meters":16800,"station_id":"ce4bhn12rcd13ifvqgpg","pricing_plan_id":"cebpf4jnsgd1na2vs0mg"},{"bike_id":"ca762409-3e9b-49eb-b311-18b138aaa95f","system_id":"levelo_inurba_marseille","lat":43.337356,"lon":5.391917,"is_reserved":false,"is_disabled":false,"rental_uris":{"android":"levelo://app?vid=ca762409-3e9b-49eb-b311-18b138aaa95f","ios":"levelo://app?vid=ca762409-3e9b-49eb-b311-18b138aaa95f"},"vehicle_type_id":"4","last_reported":1741763356,"current_range_meters":16800,"station_id":"ce4bhr92rcd13ifvqhsg","pricing_plan_id":"cebpf4jnsgd1na2vs0mg"},{"bike_id":"59a7a8bd-e0fa-414a-8289-2e7b78727b4e","system_id":"levelo_inurba_marseille","lat":43.30899,"lon":5.40211,"is_reserved":false,"is_disabled":false,"rental_uris":{"android":"levelo://app?vid=59a7a8bd-e0fa-414a-8289-2e7b78727b4e","ios":"levelo://app?vid=59a7a8bd-e0fa-414a-8289-2e7b78727b4e"},"vehicle_type_id":"4","last_reported":1741763356,"current_range_meters":16800,"station_id":"ce4bgvp2rcd13ifvqct0","pricing_plan_id":"cebpf4jnsgd1na2vs0mg"},{"bike_id":"cefa473e-a97a-4a96-a483-db5a16038982","system_id":"levelo_inurba_marseille","lat":43.26059,"lon":5.394,"is_reserved":false,"is_disabled":false,"rental_uris":{"android":"levelo://app?vid=cefa473e-a97a-4a96-a483-db5a16038982","ios":"levelo://app?vid=cefa473e-a97a-4a96-a483-db5a16038982"},"vehicle_type_id":"4","last_reported":1741763356,"current_range_meters":16800,"station_id":"ce4bhh92rcd13ifvqfj0","pricing_plan_id":"cebpf4jnsgd1na2vs0mg"},{"bike_id":"4f845a34-b0f1-4aed-b9a2-399a79dba468","system_id":"levelo_inurba_marseille","lat":43.29701,"lon":5.36557,"is_reserved":false,"is_disabled":false,"rental_uris":{"android":"levelo://app?vid=4f845a34-b0f1-4aed-b9a2-399a79dba468","ios":"levelo://app?vid=4f845a34-b0f1-4aed-b9a2-399a79dba468"},"vehicle_type_id":"4","last_reported":1741763356,"current_range_meters":16800,"station_id":"ce4bgn12rcd13ifvqbt0","pricing_plan_id":"cebpf4jnsgd1na2vs0mg"},{"bike_id":"635cf8b9-5c45-49cb-883c-596bc1b85a9e","system_id":"levelo_inurba_marseille","lat":43.28712,"lon":5.37955,"is_reserved":false,"is_disabled":false,"rental_uris":{"android":"levelo://app?vid=635cf8b9-5c45-49cb-883c-596bc1b85a9e","ios":"levelo://app?vid=635cf8b9-5c45-49cb-883c-596bc1b85a9e"},"vehicle_type_id":"4","last_reported":1741763356,"current_range_meters":17200,"station_id":"ce4bh9p2rcd13ifvqec0","pricing_plan_id":"cebpf4jnsgd1na2vs0mg"},{"bike_id":"78328756-459b-409a-9890-775ae031e814","system_id":"levelo_inurba_marseille","lat":43.275,"lon":5.42466,"is_reserved":false,"is_disabled":false,"rental_uris":{"android":"levelo://app?vid=78328756-459b-409a-9890-775ae031e814","ios":"levelo://app?vid=78328756-459b-409a-9890-775ae031e814"},"vehicle_type_id":"4","last_reported":1741763356,"current_range_meters":17200,"station_id":"ce4bhn92rcd13ifvqgrg","pricing_plan_id":"cebpf4jnsgd1na2vs0mg"},{"bike_id":"40553fcb-a61f-45e6-a77e-1d5c9691fcbb","system_id":"levelo_inurba_marseille","lat":43.29939,"lon":5.36548,"is_reserved":false,"is_disabled":false,"rental_uris":{"android":"levelo://app?vid=40553fcb-a61f-45e6-a77e-1d5c9691fcbb","ios":"levelo://app?vid=40553fcb-a61f-45e6-a77e-1d5c9691fcbb"},"vehicle_type_id":"4","last_reported":1741763356,"current_range_meters":17200,"station_id":"ce4bgm92rcd13ifvqbr0","pricing_plan_id":"cebpf4jnsgd1na2vs0mg"},{"bike_id":"22216196-8d47-46b8-93e8-8b63b4d8d893","system_id":"levelo_inurba_marseille","lat":43.28444,"lon":5.35884,"is_reserved":false,"is_disabled":false,"rental_uris":{"android":"levelo://app?vid=22216196-8d47-46b8-93e8-8b63b4d8d893","ios":"levelo://app?vid=22216196-8d47-46b8-93e8-8b63b4d8d893"},"vehicle_type_id":"4","last_reported":1741763356,"current_range_meters":17200,"station_id":"ce4bhah2rcd13ifvqei0","pricing_plan_id":"cebpf4jnsgd1na2vs0mg"},{"bike_id":"965c6e2e-00d9-4046-b73d-f62e57eb5592","system_id":"levelo_inurba_marseille","lat":43.30951,"lon":5.39026,"is_reserved":false,"is_disabled":false,"rental_uris":{"android":"levelo://app?vid=965c6e2e-00d9-4046-b73d-f62e57eb5592","ios":"levelo://app?vid=965c6e2e-00d9-4046-b73d-f62e57eb5592"},"vehicle_type_id":"4","last_reported":1741763356,"current_range_meters":17200,"station_id":"ce4bgup2rcd13ifvqco0","pricing_plan_id":"cebpf4jnsgd1na2vs0mg"},{"bike_id":"894adb72-eba3-4c31-be33-a34cdb918fbd","system_id":"levelo_inurba_marseille","lat":43.25712,"lon":5.41071,"is_reserved":false,"is_disabled":false,"rental_uris":{"android":"levelo://app?vid=894adb72-eba3-4c31-be33-a34cdb918fbd","ios":"levelo://app?vid=894adb72-eba3-4c31-be33-a34cdb918fbd"},"vehicle_type_id":"4","last_reported":1741763356,"current_range_meters":17200,"station_id":"ce4bhkp2rcd13ifvqgd0","pricing_plan_id":"cebpf4jnsgd1na2vs0mg"},{"bike_id":"030c5f2a-3888-4687-943b-ff45950d77b6","system_id":"levelo_inurba_marseille","lat":43.27489,"lon":5.42464,"is_reserved":false,"is_disabled":false,"rental_uris":{"android":"levelo://app?vid=030c5f2a-3888-4687-943b-ff45950d77b6","ios":"levelo://app?vid=030c5f2a-3888-4687-943b-ff45950d77b6"},"vehicle_type_id":"4","last_reported":1741763356,"current_range_meters":17200,"station_id":"ce4bhn92rcd13ifvqgrg","pricing_plan_id":"cebpf4jnsgd1na2vs0mg"},{"bike_id":"6f8a817b-9683-40fa-bfa4-b740fec02c70","system_id":"levelo_inurba_marseille","lat":43.25008,"lon":5.38919,"is_reserved":false,"is_disabled":false,"rental_uris":{"android":"levelo://app?vid=6f8a817b-9683-40fa-bfa4-b740fec02c70","ios":"levelo://app?vid=6f8a817b-9683-40fa-bfa4-b740fec02c70"},"vehicle_type_id":"4","last_reported":1741763356,"current_range_meters":17200,"station_id":"ce4bhgp2rcd13ifvqfd0","pricing_plan_id":"cebpf4jnsgd1na2vs0mg"},{"bike_id":"d6dd38e8-1065-4f4a-8cf7-1647171b828a","system_id":"levelo_inurba_marseille","lat":43.28482,"lon":5.38432,"is_reserved":false,"is_disabled":false,"rental_uris":{"android":"levelo://app?vid=d6dd38e8-1065-4f4a-8cf7-1647171b828a","ios":"levelo://app?vid=d6dd38e8-1065-4f4a-8cf7-1647171b828a"},"vehicle_type_id":"4","last_reported":1741763356,"current_range_meters":17200,"station_id":"ce4bh512rcd13ifvqe3g","pricing_plan_id":"cebpf4jnsgd1na2vs0mg"},{"bike_id":"5c0c8794-752e-4101-b5af-29c941f9bdda","system_id":"levelo_inurba_marseille","lat":43.29573,"lon":5.39988,"is_reserved":false,"is_disabled":false,"rental_uris":{"android":"levelo://app?vid=5c0c8794-752e-4101-b5af-29c941f9bdda","ios":"levelo://app?vid=5c0c8794-752e-4101-b5af-29c941f9bdda"},"vehicle_type_id":"4","last_reported":1741763356,"current_range_meters":17200,"station_id":"ce4bh312rcd13ifvqdj0","pricing_plan_id":"cebpf4jnsgd1na2vs0mg"},{"bike_id":"67651cb6-eb38-489f-8577-95647d302da8","system_id":"levelo_inurba_marseille","lat":43.28449,"lon":5.37486,"is_reserved":false,"is_disabled":true,"rental_uris":{"android":"levelo://app?vid=67651cb6-eb38-489f-8577-95647d302da8","ios":"levelo://app?vid=67651cb6-eb38-489f-8577-95647d302da8"},"vehicle_type_id":"4","last_reported":1741763356,"current_range_meters":17200,"station_id":"","pricing_plan_id":"cebpf4jnsgd1na2vs0mg"},{"bike_id":"1ac1c772-cb7f-49d5-a4a8-504e460753c9","system_id":"levelo_inurba_marseille","lat":43.28938,"lon":5.39635,"is_reserved":false,"is_disabled":false,"rental_uris":{"android":"levelo://app?vid=1ac1c772-cb7f-49d5-a4a8-504e460753c9","ios":"levelo://app?vid=1ac1c772-cb7f-49d5-a4a8-504e460753c9"},"vehicle_type_id":"4","last_reported":1741763356,"current_range_meters":17200,"station_id":"ce4bh3h2rcd13ifvqdn0","pricing_plan_id":"cebpf4jnsgd1na2vs0mg"},{"bike_id":"16592d67-3195-4987-9cee-3d773c8e340a","system_id":"levelo_inurba_marseille","lat":43.29801,"lon":5.38096,"is_reserved":false,"is_disabled":false,"rental_uris":{"android":"levelo://app?vid=16592d67-3195-4987-9cee-3d773c8e340a","ios":"levelo://app?vid=16592d67-3195-4987-9cee-3d773c8e340a"},"vehicle_type_id":"4","last_reported":1741763356,"current_range_meters":17600,"station_id":"ce4bgip2rcd13ifvqbb0","pricing_plan_id":"cebpf4jnsgd1na2vs0mg"},{"bike_id":"94b30f95-19e8-4b24-809a-d279976d82ea","system_id":"levelo_inurba_marseille","lat":43.31347,"lon":5.39642,"is_reserved":false,"is_disabled":false,"rental_uris":{"android":"levelo://app?vid=94b30f95-19e8-4b24-809a-d279976d82ea","ios":"levelo://app?vid=94b30f95-19e8-4b24-809a-d279976d82ea"},"vehicle_type_id":"4","last_reported":1741763356,"current_range_meters":17600,"station_id":"ce4bgvp2rcd13ifvqcu0","pricing_plan_id":"cebpf4jnsgd1na2vs0mg"},{"bike_id":"4bf57f55-dc0d-45ad-9783-5b55a505a400","system_id":"levelo_inurba_marseille","lat":43.30269,"lon":5.37731,"is_reserved":false,"is_disabled":false,"rental_uris":{"android":"levelo://app?vid=4bf57f55-dc0d-45ad-9783-5b55a505a400","ios":"levelo://app?vid=4bf57f55-dc0d-45ad-9783-5b55a505a400"},"vehicle_type_id":"4","last_reported":1741763356,"current_range_meters":17600,"station_id":"ce4bguh2rcd13ifvqcj0","pricing_plan_id":"cebpf4jnsgd1na2vs0mg"},{"bike_id":"8e9d8244-c680-44c6-929f-7188a17b4f8e","system_id":"levelo_inurba_marseille","lat":43.29599,"lon":5.38105,"is_reserved":false,"is_disabled":false,"rental_uris":{"android":"levelo://app?vid=8e9d8244-c680-44c6-929f-7188a17b4f8e","ios":"levelo://app?vid=8e9d8244-c680-44c6-929f-7188a17b4f8e"},"vehicle_type_id":"4","last_reported":1741763356,"current_range_meters":17600,"station_id":"ce4bgl12rcd13ifvqbo0","pricing_plan_id":"cebpf4jnsgd1na2vs0mg"},{"bike_id":"e85e7281-8ded-4f9f-9074-cd43c73f5f32","system_id":"levelo_inurba_marseille","lat":43.313179,"lon":5.373406,"is_reserved":false,"is_disabled":false,"rental_uris":{"android":"levelo://app?vid=e85e7281-8ded-4f9f-9074-cd43c73f5f32","ios":"levelo://app?vid=e85e7281-8ded-4f9f-9074-cd43c73f5f32"},"vehicle_type_id":"4","last_reported":1741763356,"current_range_meters":17600,"station_id":"","pricing_plan_id":"cebpf4jnsgd1na2vs0mg"},{"bike_id":"be9fdb3b-4a3e-44ad-9f40-052b940b9b80","system_id":"levelo_inurba_marseille","lat":43.30597,"lon":5.37244,"is_reserved":false,"is_disabled":false,"rental_uris":{"android":"levelo://app?vid=be9fdb3b-4a3e-44ad-9f40-052b940b9b80","ios":"levelo://app?vid=be9fdb3b-4a3e-44ad-9f40-052b940b9b80"},"vehicle_type_id":"4","last_reported":1741763356,"current_range_meters":17600,"station_id":"ce4bgqh2rcd13ifvqc4g","pricing_plan_id":"cebpf4jnsgd1na2vs0mg"},{"bike_id":"addb6636-a45e-4be0-a32d-beda4d92e7a8","system_id":"levelo_inurba_marseille","lat":43.29191,"lon":5.35827,"is_reserved":false,"is_disabled":false,"rental_uris":{"android":"levelo://app?vid=addb6636-a45e-4be0-a32d-beda4d92e7a8","ios":"levelo://app?vid=addb6636-a45e-4be0-a32d-beda4d92e7a8"},"vehicle_type_id":"4","last_reported":1741763356,"current_range_meters":17600,"station_id":"ce4bhb12rcd13ifvqel0","pricing_plan_id":"cebpf4jnsgd1na2vs0mg"},{"bike_id":"d635fc4e-d0d5-48cd-9305-906594fe2b69","system_id":"levelo_inurba_marseille","lat":43.299371,"lon":5.365567,"is_reserved":false,"is_disabled":false,"rental_uris":{"android":"levelo://app?vid=d635fc4e-d0d5-48cd-9305-906594fe2b69","ios":"levelo://app?vid=d635fc4e-d0d5-48cd-9305-906594fe2b69"},"vehicle_type_id":"4","last_reported":1741763356,"current_range_meters":17600,"station_id":"ce4bgm92rcd13ifvqbr0","pricing_plan_id":"cebpf4jnsgd1na2vs0mg"},{"bike_id":"604fde4a-aa32-4070-8326-8074fd695f6a","system_id":"levelo_inurba_marseille","lat":43.29571,"lon":5.39988,"is_reserved":false,"is_disabled":false,"rental_uris":{"android":"levelo://app?vid=604fde4a-aa32-4070-8326-8074fd695f6a","ios":"levelo://app?vid=604fde4a-aa32-4070-8326-8074fd695f6a"},"vehicle_type_id":"4","last_reported":1741763356,"current_range_meters":17600,"station_id":"ce4bh312rcd13ifvqdj0","pricing_plan_id":"cebpf4jnsgd1na2vs0mg"},{"bike_id":"96114f57-f074-443d-9ee4-282b0360c01e","system_id":"levelo_inurba_marseille","lat":43.2871,"lon":5.37986,"is_reserved":false,"is_disabled":false,"rental_uris":{"android":"levelo://app?vid=96114f57-f074-443d-9ee4-282b0360c01e","ios":"levelo://app?vid=96114f57-f074-443d-9ee4-282b0360c01e"},"vehicle_type_id":"4","last_reported":1741763356,"current_range_meters":17600,"station_id":"ce4bh9p2rcd13ifvqec0","pricing_plan_id":"cebpf4jnsgd1na2vs0mg"},{"bike_id":"256e7937-a0a5-4a0f-8ec5-f0a87507d519","system_id":"levelo_inurba_marseille","lat":43.2919,"lon":5.39313,"is_reserved":false,"is_disabled":false,"rental_uris":{"android":"levelo://app?vid=256e7937-a0a5-4a0f-8ec5-f0a87507d519","ios":"levelo://app?vid=256e7937-a0a5-4a0f-8ec5-f0a87507d519"},"vehicle_type_id":"4","last_reported":1741763356,"current_range_meters":17600,"station_id":"ce4bh192rcd13ifvqdd0","pricing_plan_id":"cebpf4jnsgd1na2vs0mg"},{"bike_id":"8a00e9ad-204a-4dd2-9d5e-8bf3036a2fa9","system_id":"levelo_inurba_marseille","lat":43.29266,"lon":5.38439,"is_reserved":false,"is_disabled":false,"rental_uris":{"android":"levelo://app?vid=8a00e9ad-204a-4dd2-9d5e-8bf3036a2fa9","ios":"levelo://app?vid=8a00e9ad-204a-4dd2-9d5e-8bf3036a2fa9"},"vehicle_type_id":"4","last_reported":1741763356,"current_range_meters":17600,"station_id":"ce4bh692rcd13ifvqea0","pricing_plan_id":"cebpf4jnsgd1na2vs0mg"},{"bike_id":"82a0bebc-1cb5-4e3b-886e-b2c84f24c21e","system_id":"levelo_inurba_marseille","lat":43.28694,"lon":5.37391,"is_reserved":false,"is_disabled":true,"rental_uris":{"android":"levelo://app?vid=82a0bebc-1cb5-4e3b-886e-b2c84f24c21e","ios":"levelo://app?vid=82a0bebc-1cb5-4e3b-886e-b2c84f24c21e"},"vehicle_type_id":"4","last_reported":1741763356,"current_range_meters":17600,"station_id":"ce4bh3p2rcd13ifvqdq0","pricing_plan_id":"cebpf4jnsgd1na2vs0mg"},{"bike_id":"74a5c364-bf0f-4f41-a546-644d038d28a3","system_id":"levelo_inurba_marseille","lat":43.2657,"lon":5.39041,"is_reserved":false,"is_disabled":true,"rental_uris":{"android":"levelo://app?vid=74a5c364-bf0f-4f41-a546-644d038d28a3","ios":"levelo://app?vid=74a5c364-bf0f-4f41-a546-644d038d28a3"},"vehicle_type_id":"4","last_reported":1741763356,"current_range_meters":17600,"station_id":"ce4bhe12rcd13ifvqf30","pricing_plan_id":"cebpf4jnsgd1na2vs0mg"},{"bike_id":"fa79c586-ddc0-44f8-bcff-a30051995ba6","system_id":"levelo_inurba_marseille","lat":43.31516,"lon":5.38058,"is_reserved":false,"is_disabled":false,"rental_uris":{"android":"levelo://app?vid=fa79c586-ddc0-44f8-bcff-a30051995ba6","ios":"levelo://app?vid=fa79c586-ddc0-44f8-bcff-a30051995ba6"},"vehicle_type_id":"4","last_reported":1741763356,"current_range_meters":18000,"station_id":"ce4bhsp2rcd13ifvqi50","pricing_plan_id":"cebpf4jnsgd1na2vs0mg"},{"bike_id":"c4641ba1-e5a2-4cb5-81d4-d4b0c6e6a779","system_id":"levelo_inurba_marseille","lat":43.29039,"lon":5.39958,"is_reserved":false,"is_disabled":false,"rental_uris":{"android":"levelo://app?vid=c4641ba1-e5a2-4cb5-81d4-d4b0c6e6a779","ios":"levelo://app?vid=c4641ba1-e5a2-4cb5-81d4-d4b0c6e6a779"},"vehicle_type_id":"4","last_reported":1741763356,"current_range_meters":18000,"station_id":"ce4bh392rcd13ifvqdm0","pricing_plan_id":"cebpf4jnsgd1na2vs0mg"},{"bike_id":"aeaf2c4d-79fd-4d5a-8f4d-25b5a6575fc4","system_id":"levelo_inurba_marseille","lat":43.29862,"lon":5.39737,"is_reserved":false,"is_disabled":false,"rental_uris":{"android":"levelo://app?vid=aeaf2c4d-79fd-4d5a-8f4d-25b5a6575fc4","ios":"levelo://app?vid=aeaf2c4d-79fd-4d5a-8f4d-25b5a6575fc4"},"vehicle_type_id":"4","last_reported":1741763356,"current_range_meters":18000,"station_id":"ce4bh0h2rcd13ifvqd50","pricing_plan_id":"cebpf4jnsgd1na2vs0mg"},{"bike_id":"f550acae-a478-493d-8418-eb4ab17dc323","system_id":"levelo_inurba_marseille","lat":43.25008,"lon":5.3893,"is_reserved":false,"is_disabled":false,"rental_uris":{"android":"levelo://app?vid=f550acae-a478-493d-8418-eb4ab17dc323","ios":"levelo://app?vid=f550acae-a478-493d-8418-eb4ab17dc323"},"vehicle_type_id":"4","last_reported":1741763356,"current_range_meters":18000,"station_id":"ce4bhgp2rcd13ifvqfd0","pricing_plan_id":"cebpf4jnsgd1na2vs0mg"},{"bike_id":"83a2aaa2-e664-40d3-8994-2efcfc28eb8f","system_id":"levelo_inurba_marseille","lat":43.29048,"lon":5.39962,"is_reserved":false,"is_disabled":false,"rental_uris":{"android":"levelo://app?vid=83a2aaa2-e664-40d3-8994-2efcfc28eb8f","ios":"levelo://app?vid=83a2aaa2-e664-40d3-8994-2efcfc28eb8f"},"vehicle_type_id":"4","last_reported":1741763356,"current_range_meters":18000,"station_id":"ce4bh392rcd13ifvqdm0","pricing_plan_id":"cebpf4jnsgd1na2vs0mg"},{"bike_id":"906be13a-a455-4c49-ac40-3566748a4bdb","system_id":"levelo_inurba_marseille","lat":43.28983,"lon":5.37835,"is_reserved":false,"is_disabled":false,"rental_uris":{"android":"levelo://app?vid=906be13a-a455-4c49-ac40-3566748a4bdb","ios":"levelo://app?vid=906be13a-a455-4c49-ac40-3566748a4bdb"},"vehicle_type_id":"4","last_reported":1741763356,"current_range_meters":18000,"station_id":"ce4bh9p2rcd13ifvqed0","pricing_plan_id":"cebpf4jnsgd1na2vs0mg"},{"bike_id":"af50c037-0136-4da1-b570-2cc2d6a58824","system_id":"levelo_inurba_marseille","lat":43.30951,"lon":5.39032,"is_reserved":false,"is_disabled":false,"rental_uris":{"android":"levelo://app?vid=af50c037-0136-4da1-b570-2cc2d6a58824","ios":"levelo://app?vid=af50c037-0136-4da1-b570-2cc2d6a58824"},"vehicle_type_id":"4","last_reported":1741763356,"current_range_meters":18000,"station_id":"ce4bgup2rcd13ifvqco0","pricing_plan_id":"cebpf4jnsgd1na2vs0mg"},{"bike_id":"7bc207fa-a904-4019-afd3-178f2a21903d","system_id":"levelo_inurba_marseille","lat":43.24074,"lon":5.37776,"is_reserved":false,"is_disabled":false,"rental_uris":{"android":"levelo://app?vid=7bc207fa-a904-4019-afd3-178f2a21903d","ios":"levelo://app?vid=7bc207fa-a904-4019-afd3-178f2a21903d"},"vehicle_type_id":"4","last_reported":1741763356,"current_range_meters":18800,"station_id":"ce4bhnp2rcd13ifvqgvg","pricing_plan_id":"cebpf4jnsgd1na2vs0mg"},{"bike_id":"f8ebc8f4-8e5f-428c-9ca0-2dc5e34c7a14","system_id":"levelo_inurba_marseille","lat":43.30799,"lon":5.43526,"is_reserved":false,"is_disabled":false,"rental_uris":{"android":"levelo://app?vid=f8ebc8f4-8e5f-428c-9ca0-2dc5e34c7a14","ios":"levelo://app?vid=f8ebc8f4-8e5f-428c-9ca0-2dc5e34c7a14"},"vehicle_type_id":"4","last_reported":1741763356,"current_range_meters":18800,"station_id":"ce4bhph2rcd13ifvqheg","pricing_plan_id":"cebpf4jnsgd1na2vs0mg"},{"bike_id":"14141b9b-af2a-41bb-beb2-faea5e633e22","system_id":"levelo_inurba_marseille","lat":43.28704,"lon":5.37388,"is_reserved":false,"is_disabled":false,"rental_uris":{"android":"levelo://app?vid=14141b9b-af2a-41bb-beb2-faea5e633e22","ios":"levelo://app?vid=14141b9b-af2a-41bb-beb2-faea5e633e22"},"vehicle_type_id":"4","last_reported":1741763356,"current_range_meters":18800,"station_id":"ce4bh3p2rcd13ifvqdq0","pricing_plan_id":"cebpf4jnsgd1na2vs0mg"},{"bike_id":"a823fe98-0845-44f0-af70-a3e75e70ed04","system_id":"levelo_inurba_marseille","lat":43.2501,"lon":5.38918,"is_reserved":false,"is_disabled":false,"rental_uris":{"android":"levelo://app?vid=a823fe98-0845-44f0-af70-a3e75e70ed04","ios":"levelo://app?vid=a823fe98-0845-44f0-af70-a3e75e70ed04"},"vehicle_type_id":"4","last_reported":1741763356,"current_range_meters":18800,"station_id":"ce4bhgp2rcd13ifvqfd0","pricing_plan_id":"cebpf4jnsgd1na2vs0mg"},{"bike_id":"2c542a09-e66b-400a-a635-ed3442b0a9f5","system_id":"levelo_inurba_marseille","lat":43.23963,"lon":5.36636,"is_reserved":false,"is_disabled":false,"rental_uris":{"android":"levelo://app?vid=2c542a09-e66b-400a-a635-ed3442b0a9f5","ios":"levelo://app?vid=2c542a09-e66b-400a-a635-ed3442b0a9f5"},"vehicle_type_id":"4","last_reported":1741763356,"current_range_meters":18800,"station_id":"ce4bhi12rcd13ifvqfp0","pricing_plan_id":"cebpf4jnsgd1na2vs0mg"},{"bike_id":"e403288d-b468-4ea8-b33d-644efb4c82c2","system_id":"levelo_inurba_marseille","lat":43.27826,"lon":5.40734,"is_reserved":false,"is_disabled":false,"rental_uris":{"android":"levelo://app?vid=e403288d-b468-4ea8-b33d-644efb4c82c2","ios":"levelo://app?vid=e403288d-b468-4ea8-b33d-644efb4c82c2"},"vehicle_type_id":"4","last_reported":1741763356,"current_range_meters":18800,"station_id":"ce4bhnh2rcd13ifvqgtg","pricing_plan_id":"cebpf4jnsgd1na2vs0mg"},{"bike_id":"98595217-bfe2-44fb-9c78-1043b8b73160","system_id":"levelo_inurba_marseille","lat":43.25566,"lon":5.38257,"is_reserved":false,"is_disabled":true,"rental_uris":{"android":"levelo://app?vid=98595217-bfe2-44fb-9c78-1043b8b73160","ios":"levelo://app?vid=98595217-bfe2-44fb-9c78-1043b8b73160"},"vehicle_type_id":"4","last_reported":1741763356,"current_range_meters":18800,"station_id":"ce4bhih2rcd13ifvqfs0","pricing_plan_id":"cebpf4jnsgd1na2vs0mg"},{"bike_id":"59b6b5f1-f99a-4e59-8551-ed055f001bc2","system_id":"levelo_inurba_marseille","lat":43.28925,"lon":5.38395,"is_reserved":false,"is_disabled":false,"rental_uris":{"android":"levelo://app?vid=59b6b5f1-f99a-4e59-8551-ed055f001bc2","ios":"levelo://app?vid=59b6b5f1-f99a-4e59-8551-ed055f001bc2"},"vehicle_type_id":"4","last_reported":1741763356,"current_range_meters":18800,"station_id":"ce4bh612rcd13ifvqe6g","pricing_plan_id":"cebpf4jnsgd1na2vs0mg"},{"bike_id":"f73dca83-e977-4215-ba7b-45cb56e1c018","system_id":"levelo_inurba_marseille","lat":43.25096,"lon":5.39502,"is_reserved":false,"is_disabled":false,"rental_uris":{"android":"levelo://app?vid=f73dca83-e977-4215-ba7b-45cb56e1c018","ios":"levelo://app?vid=f73dca83-e977-4215-ba7b-45cb56e1c018"},"vehicle_type_id":"4","last_reported":1741763356,"current_range_meters":18800,"station_id":"ce4bhm12rcd13ifvqgkg","pricing_plan_id":"cebpf4jnsgd1na2vs0mg"},{"bike_id":"3f5fb6ab-70c9-4053-9048-00f87210aeb7","system_id":"levelo_inurba_marseille","lat":43.24538,"lon":5.39525,"is_reserved":false,"is_disabled":false,"rental_uris":{"android":"levelo://app?vid=3f5fb6ab-70c9-4053-9048-00f87210aeb7","ios":"levelo://app?vid=3f5fb6ab-70c9-4053-9048-00f87210aeb7"},"vehicle_type_id":"4","last_reported":1741763356,"current_range_meters":18800,"station_id":"ce4bhlp2rcd13ifvqgjg","pricing_plan_id":"cebpf4jnsgd1na2vs0mg"},{"bike_id":"6fe60277-c189-4151-a724-baa7b0188812","system_id":"levelo_inurba_marseille","lat":43.2841,"lon":5.35007,"is_reserved":false,"is_disabled":false,"rental_uris":{"android":"levelo://app?vid=6fe60277-c189-4151-a724-baa7b0188812","ios":"levelo://app?vid=6fe60277-c189-4151-a724-baa7b0188812"},"vehicle_type_id":"4","last_reported":1741763356,"current_range_meters":18800,"station_id":"ce4bhbh2rcd13ifvqepg","pricing_plan_id":"cebpf4jnsgd1na2vs0mg"},{"bike_id":"1088bdf3-5f6e-45cd-8b4a-1f14ec683df8","system_id":"levelo_inurba_marseille","lat":43.27208,"lon":5.39178,"is_reserved":false,"is_disabled":false,"rental_uris":{"android":"levelo://app?vid=1088bdf3-5f6e-45cd-8b4a-1f14ec683df8","ios":"levelo://app?vid=1088bdf3-5f6e-45cd-8b4a-1f14ec683df8"},"vehicle_type_id":"4","last_reported":1741763356,"current_range_meters":18800,"station_id":"ce4bhhp2rcd13ifvqfm0","pricing_plan_id":"cebpf4jnsgd1na2vs0mg"},{"bike_id":"3f74d0b7-4d3a-4bd2-9ff9-5ba012787041","system_id":"levelo_inurba_marseille","lat":43.30969,"lon":5.39032,"is_reserved":false,"is_disabled":false,"rental_uris":{"android":"levelo://app?vid=3f74d0b7-4d3a-4bd2-9ff9-5ba012787041","ios":"levelo://app?vid=3f74d0b7-4d3a-4bd2-9ff9-5ba012787041"},"vehicle_type_id":"4","last_reported":1741763356,"current_range_meters":18800,"station_id":"ce4bgup2rcd13ifvqco0","pricing_plan_id":"cebpf4jnsgd1na2vs0mg"},{"bike_id":"5167d198-5092-4014-ae89-548e22f776e7","system_id":"levelo_inurba_marseille","lat":43.25817,"lon":5.39462,"is_reserved":false,"is_disabled":false,"rental_uris":{"android":"levelo://app?vid=5167d198-5092-4014-ae89-548e22f776e7","ios":"levelo://app?vid=5167d198-5092-4014-ae89-548e22f776e7"},"vehicle_type_id":"4","last_reported":1741763356,"current_range_meters":18800,"station_id":"ce4bhip2rcd13ifvqft0","pricing_plan_id":"cebpf4jnsgd1na2vs0mg"},{"bike_id":"d499aa7d-37fe-4efe-8d86-7fc011ad17ad","system_id":"levelo_inurba_marseille","lat":43.230536,"lon":5.354966,"is_reserved":false,"is_disabled":false,"rental_uris":{"android":"levelo://app?vid=d499aa7d-37fe-4efe-8d86-7fc011ad17ad","ios":"levelo://app?vid=d499aa7d-37fe-4efe-8d86-7fc011ad17ad"},"vehicle_type_id":"4","last_reported":1741763356,"current_range_meters":18800,"station_id":"cpo3342slgdg3j2ifvpg","pricing_plan_id":"cebpf4jnsgd1na2vs0mg"},{"bike_id":"1d2c6f88-f6aa-4ae3-af08-fb9c42dc6c66","system_id":"levelo_inurba_marseille","lat":43.30421,"lon":5.38895,"is_reserved":false,"is_disabled":false,"rental_uris":{"android":"levelo://app?vid=1d2c6f88-f6aa-4ae3-af08-fb9c42dc6c66","ios":"levelo://app?vid=1d2c6f88-f6aa-4ae3-af08-fb9c42dc6c66"},"vehicle_type_id":"4","last_reported":1741763356,"current_range_meters":19200,"station_id":"ce4bgk12rcd13ifvqbi0","pricing_plan_id":"cebpf4jnsgd1na2vs0mg"},{"bike_id":"9e47fe0f-5798-4f26-887e-baacb90d1524","system_id":"levelo_inurba_marseille","lat":43.29359,"lon":5.37852,"is_reserved":false,"is_disabled":false,"rental_uris":{"android":"levelo://app?vid=9e47fe0f-5798-4f26-887e-baacb90d1524","ios":"levelo://app?vid=9e47fe0f-5798-4f26-887e-baacb90d1524"},"vehicle_type_id":"4","last_reported":1741763356,"current_range_meters":18800,"station_id":"ce4bgjh2rcd13ifvqbf0","pricing_plan_id":"cebpf4jnsgd1na2vs0mg"},{"bike_id":"b90549ec-d15f-47be-acc7-019157714ff6","system_id":"levelo_inurba_marseille","lat":43.27935,"lon":5.41043,"is_reserved":false,"is_disabled":false,"rental_uris":{"android":"levelo://app?vid=b90549ec-d15f-47be-acc7-019157714ff6","ios":"levelo://app?vid=b90549ec-d15f-47be-acc7-019157714ff6"},"vehicle_type_id":"4","last_reported":1741763356,"current_range_meters":19200,"station_id":"ce4bhnp2rcd13ifvqh0g","pricing_plan_id":"cebpf4jnsgd1na2vs0mg"},{"bike_id":"30d05b73-1021-415a-95c2-79aa29d90262","system_id":"levelo_inurba_marseille","lat":43.28411,"lon":5.37519,"is_reserved":false,"is_disabled":false,"rental_uris":{"android":"levelo://app?vid=30d05b73-1021-415a-95c2-79aa29d90262","ios":"levelo://app?vid=30d05b73-1021-415a-95c2-79aa29d90262"},"vehicle_type_id":"4","last_reported":1741763356,"current_range_meters":19200,"station_id":"ce4bh412rcd13ifvqds0","pricing_plan_id":"cebpf4jnsgd1na2vs0mg"},{"bike_id":"70274aa6-fd15-49ab-bbf0-10c4ec1127ff","system_id":"levelo_inurba_marseille","lat":43.287,"lon":5.37965,"is_reserved":false,"is_disabled":false,"rental_uris":{"android":"levelo://app?vid=70274aa6-fd15-49ab-bbf0-10c4ec1127ff","ios":"levelo://app?vid=70274aa6-fd15-49ab-bbf0-10c4ec1127ff"},"vehicle_type_id":"4","last_reported":1741763356,"current_range_meters":19200,"station_id":"ce4bh9p2rcd13ifvqec0","pricing_plan_id":"cebpf4jnsgd1na2vs0mg"},{"bike_id":"9e67eae0-a18a-4d21-b9dc-e8e3f4d62f29","system_id":"levelo_inurba_marseille","lat":43.25823,"lon":5.39433,"is_reserved":false,"is_disabled":false,"rental_uris":{"android":"levelo://app?vid=9e67eae0-a18a-4d21-b9dc-e8e3f4d62f29","ios":"levelo://app?vid=9e67eae0-a18a-4d21-b9dc-e8e3f4d62f29"},