{"last_updated":1742339370,"ttl":60,"version":"2.2","data":{"bikes":[{"bike_id":"27688198-4000-4cf4-8a93-39652f64df9b","system_id":"levelo_inurba_marseille","lat":43.27294,"lon":5.39073,"is_reserved":false,"is_disabled":false,"rental_uris":{"android":"levelo://app?vid=27688198-4000-4cf4-8a93-39652f64df9b","ios":"levelo://app?vid=27688198-4000-4cf4-8a93-39652f64df9b"},"vehicle_type_id":"4","last_reported":1742339370,"current_range_meters":3200,"station_id":"ce4bhgp2rcd13ifvqfe0","pricing_plan_id":"cebpf4jnsgd1na2vs0mg"},{"bike_id":"1dd66fe1-4a4b-4231-a39d-da5be3b4dfdd","system_id":"levelo_inurba_marseille","lat":43.28103,"lon":5.39649,"is_reserved":false,"is_disabled":false,"rental_uris":{"android":"levelo://app?vid=1dd66fe1-4a4b-4231-a39d-da5be3b4dfdd","ios":"levelo://app?vid=1dd66fe1-4a4b-4231-a39d-da5be3b4dfdd"},"vehicle_type_id":"4","last_reported":1742339370,"current_range_meters":3200,"station_id":"ce4bho12rcd13ifvqh2g","pricing_plan_id":"cebpf4jnsgd1na2vs0mg"},{"bike_id":"498ac6db-de43-4411-a390-e2854e97fb8f","system_id":"levelo_inurba_marseille","lat":43.28975,"lon":5.37832,"is_reserved":false,"is_disabled":false,"rental_uris":{"android":"levelo://app?vid=498ac6db-de43-4411-a390-e2854e97fb8f","ios":"levelo://app?vid=498ac6db-de43-4411-a390-e2854e97fb8f"},"vehicle_type_id":"4","last_reported":1742339370,"current_range_meters":2800,"station_id":"ce4bh9p2rcd13ifvqed0","pricing_plan_id":"cebpf4jnsgd1na2vs0mg"},{"bike_id":"77bd597e-e8fc-44ff-a165-abfe91b73715","system_id":"levelo_inurba_marseille","lat":43.30582,"lon":5.3722,"is_reserved":false,"is_disabled":false,"rental_uris":{"android":"levelo://app?vid=77bd597e-e8fc-44ff-a165-abfe91b73715","ios":"levelo://app?vid=77bd597e-e8fc-44ff-a165-abfe91b73715"},"vehicle_type_id":"4","last_reported":1742339370,"current_range_meters":3600,"station_id":"ce4bgqh2rcd13ifvqc4g","pricing_plan_id":"cebpf4jnsgd1na2vs0mg"},{"bike_id":"057c4299-c24d-4a02-8ede-b4bf9523726b","system_id":"levelo_inurba_marseille","lat":43.23189,"lon":5.43701,"is_reserved":false,"is_disabled":true,"rental_uris":{"android":"levelo://app?vid=057c4299-c24d-4a02-8ede-b4bf9523726b","ios":"levelo://app?vid=057c4299-c24d-4a02-8ede-b4bf9523726b"},"vehicle_type_id":"4","last_reported":1742339370,"current_range_meters":3600,"station_id":"ce4bhmp2rcd13ifvqgog","pricing_plan_id":"cebpf4jnsgd1na2vs0mg"},{"bike_id":"2b6944c5-a2aa-40cd-84e0-57806b6d534c","system_id":"levelo_inurba_marseille","lat":43.28706,"lon":5.39993,"is_reserved":false,"is_disabled":false,"rental_uris":{"android":"levelo://app?vid=2b6944c5-a2aa-40cd-84e0-57806b6d534c","ios":"levelo://app?vid=2b6944c5-a2aa-40cd-84e0-57806b6d534c"},"vehicle_type_id":"4","last_reported":1742339370,"current_range_meters":3600,"station_id":"ce4bho92rcd13ifvqh3g","pricing_plan_id":"cebpf4jnsgd1na2vs0mg"},{"bike_id":"de114150-8502-4607-a79a-c24d56d96563","system_id":"levelo_inurba_marseille","lat":43.31714,"lon":5.43706,"is_reserved":false,"is_disabled":false,"rental_uris":{"android":"levelo://app?vid=de114150-8502-4607-a79a-c24d56d96563","ios":"levelo://app?vid=de114150-8502-4607-a79a-c24d56d96563"},"vehicle_type_id":"4","last_reported":1742339370,"current_range_meters":3600,"station_id":"ce4bhp92rcd13ifvqhcg","pricing_plan_id":"cebpf4jnsgd1na2vs0mg"},{"bike_id":"a29dee85-b456-4e00-a26c-ba9040b23b94","system_id":"levelo_inurba_marseille","lat":43.326597,"lon":5.410737,"is_reserved":false,"is_disabled":false,"rental_uris":{"android":"levelo://app?vid=a29dee85-b456-4e00-a26c-ba9040b23b94","ios":"levelo://app?vid=a29dee85-b456-4e00-a26c-ba9040b23b94"},"vehicle_type_id":"4","last_reported":1742339370,"current_range_meters":4000,"station_id":"","pricing_plan_id":"cebpf4jnsgd1na2vs0mg"},{"bike_id":"b35820fe-d895-4c27-add9-b20407cfac48","system_id":"levelo_inurba_marseille","lat":43.30917,"lon":5.40152,"is_reserved":false,"is_disabled":false,"rental_uris":{"android":"levelo://app?vid=b35820fe-d895-4c27-add9-b20407cfac48","ios":"levelo://app?vid=b35820fe-d895-4c27-add9-b20407cfac48"},"vehicle_type_id":"4","last_reported":1742339370,"current_range_meters":4000,"station_id":"ce4bgvp2rcd13ifvqct0","pricing_plan_id":"cebpf4jnsgd1na2vs0mg"},{"bike_id":"a34aa44b-da8b-461c-84a7-ad3f6c56b49a","system_id":"levelo_inurba_marseille","lat":43.28423,"lon":5.34993,"is_reserved":false,"is_disabled":false,"rental_uris":{"android":"levelo://app?vid=a34aa44b-da8b-461c-84a7-ad3f6c56b49a","ios":"levelo://app?vid=a34aa44b-da8b-461c-84a7-ad3f6c56b49a"},"vehicle_type_id":"4","last_reported":1742339370,"current_range_meters":4400,"station_id":"ce4bhbh2rcd13ifvqepg","pricing_plan_id":"cebpf4jnsgd1na2vs0mg"},{"bike_id":"9ddacab4-e40d-407a-8694-2eb861a5338e","system_id":"levelo_inurba_marseille","lat":43.29028,"lon":5.38647,"is_reserved":false,"is_disabled":false,"rental_uris":{"android":"levelo://app?vid=9ddacab4-e40d-407a-8694-2eb861a5338e","ios":"levelo://app?vid=9ddacab4-e40d-407a-8694-2eb861a5338e"},"vehicle_type_id":"4","last_reported":1742339370,"current_range_meters":4400,"station_id":"ce4bh4p2rcd13ifvqe0g","pricing_plan_id":"cebpf4jnsgd1na2vs0mg"},{"bike_id":"03fa3fa4-ba5a-4ea6-a2f5-2774c7ef9edb","system_id":"levelo_inurba_marseille","lat":43.29206,"lon":5.37128,"is_reserved":false,"is_disabled":true,"rental_uris":{"android":"levelo://app?vid=03fa3fa4-ba5a-4ea6-a2f5-2774c7ef9edb","ios":"levelo://app?vid=03fa3fa4-ba5a-4ea6-a2f5-2774c7ef9edb"},"vehicle_type_id":"4","last_reported":1742339370,"current_range_meters":4400,"station_id":"ce4bha92rcd13ifvqeh0","pricing_plan_id":"cebpf4jnsgd1na2vs0mg"},{"bike_id":"6c256382-daba-4bd4-b4fd-cc16f4776a54","system_id":"levelo_inurba_marseille","lat":43.29321,"lon":5.38001,"is_reserved":false,"is_disabled":false,"rental_uris":{"android":"levelo://app?vid=6c256382-daba-4bd4-b4fd-cc16f4776a54","ios":"levelo://app?vid=6c256382-daba-4bd4-b4fd-cc16f4776a54"},"vehicle_type_id":"4","last_reported":1742339370,"current_range_meters":4800,"station_id":"","pricing_plan_id":"cebpf4jnsgd1na2vs0mg"},{"bike_id":"c6d76450-f49c-4ddf-b650-07150de804ce","system_id":"levelo_inurba_marseille","lat":43.2862,"lon":5.35102,"is_reserved":false,"is_disabled":false,"rental_uris":{"android":"levelo://app?vid=c6d76450-f49c-4ddf-b650-07150de804ce","ios":"levelo://app?vid=c6d76450-f49c-4ddf-b650-07150de804ce"},"vehicle_type_id":"4","last_reported":1742339370,"current_range_meters":4800,"station_id":"ce4bhch2rcd13ifvqeug","pricing_plan_id":"cebpf4jnsgd1na2vs0mg"},{"bike_id":"3db91aa6-845b-4ce3-9a81-55687c0461bc","system_id":"levelo_inurba_marseille","lat":43.25009,"lon":5.38927,"is_reserved":false,"is_disabled":false,"rental_uris":{"android":"levelo://app?vid=3db91aa6-845b-4ce3-9a81-55687c0461bc","ios":"levelo://app?vid=3db91aa6-845b-4ce3-9a81-55687c0461bc"},"vehicle_type_id":"4","last_reported":1742339370,"current_range_meters":4800,"station_id":"ce4bhgp2rcd13ifvqfd0","pricing_plan_id":"cebpf4jnsgd1na2vs0mg"},{"bike_id":"2665cc4b-07ed-4ae6-a66f-2b09983c709d","system_id":"levelo_inurba_marseille","lat":43.33761,"lon":5.37489,"is_reserved":false,"is_disabled":false,"rental_uris":{"android":"levelo://app?vid=2665cc4b-07ed-4ae6-a66f-2b09983c709d","ios":"levelo://app?vid=2665cc4b-07ed-4ae6-a66f-2b09983c709d"},"vehicle_type_id":"4","last_reported":1742339370,"current_range_meters":4800,"station_id":"","pricing_plan_id":"cebpf4jnsgd1na2vs0mg"},{"bike_id":"bbbd9993-f06c-4792-ac46-89b8ccb3a2e6","system_id":"levelo_inurba_marseille","lat":43.2917,"lon":5.39283,"is_reserved":false,"is_disabled":false,"rental_uris":{"android":"levelo://app?vid=bbbd9993-f06c-4792-ac46-89b8ccb3a2e6","ios":"levelo://app?vid=bbbd9993-f06c-4792-ac46-89b8ccb3a2e6"},"vehicle_type_id":"4","last_reported":1742339370,"current_range_meters":4800,"station_id":"ce4bh192rcd13ifvqdd0","pricing_plan_id":"cebpf4jnsgd1na2vs0mg"},{"bike_id":"55c83ebf-913d-48a1-abee-3e29e6909fd2","system_id":"levelo_inurba_marseille","lat":43.27991,"lon":5.41658,"is_reserved":false,"is_disabled":true,"rental_uris":{"android":"levelo://app?vid=55c83ebf-913d-48a1-abee-3e29e6909fd2","ios":"levelo://app?vid=55c83ebf-913d-48a1-abee-3e29e6909fd2"},"vehicle_type_id":"4","last_reported":1742339370,"current_range_meters":4800,"station_id":"ce4bho12rcd13ifvqh1g","pricing_plan_id":"cebpf4jnsgd1na2vs0mg"},{"bike_id":"6d8e8090-a4c7-4966-a3f4-a833922b9e5a","system_id":"levelo_inurba_marseille","lat":43.23204,"lon":5.35544,"is_reserved":false,"is_disabled":false,"rental_uris":{"android":"levelo://app?vid=6d8e8090-a4c7-4966-a3f4-a833922b9e5a","ios":"levelo://app?vid=6d8e8090-a4c7-4966-a3f4-a833922b9e5a"},"vehicle_type_id":"4","last_reported":1742339370,"current_range_meters":5600,"station_id":"ce4bhu92rcd13ifvqi70","pricing_plan_id":"cebpf4jnsgd1na2vs0mg"},{"bike_id":"dac733b1-2cc2-47f5-bf22-98e7e8139590","system_id":"levelo_inurba_marseille","lat":43.28488,"lon":5.38411,"is_reserved":false,"is_disabled":false,"rental_uris":{"android":"levelo://app?vid=dac733b1-2cc2-47f5-bf22-98e7e8139590","ios":"levelo://app?vid=dac733b1-2cc2-47f5-bf22-98e7e8139590"},"vehicle_type_id":"4","last_reported":1742339370,"current_range_meters":5600,"station_id":"ce4bh512rcd13ifvqe3g","pricing_plan_id":"cebpf4jnsgd1na2vs0mg"},{"bike_id":"80dc5fd0-289a-40fa-b0b5-c7379214243e","system_id":"levelo_inurba_marseille","lat":43.28411,"lon":5.35921,"is_reserved":false,"is_disabled":false,"rental_uris":{"android":"levelo://app?vid=80dc5fd0-289a-40fa-b0b5-c7379214243e","ios":"levelo://app?vid=80dc5fd0-289a-40fa-b0b5-c7379214243e"},"vehicle_type_id":"4","last_reported":1742339370,"current_range_meters":5600,"station_id":"ce4bhah2rcd13ifvqei0","pricing_plan_id":"cebpf4jnsgd1na2vs0mg"},{"bike_id":"6227a0ff-d0ca-42a3-9618-9e5a19927c8d","system_id":"levelo_inurba_marseille","lat":43.27951,"lon":5.41046,"is_reserved":false,"is_disabled":false,"rental_uris":{"android":"levelo://app?vid=6227a0ff-d0ca-42a3-9618-9e5a19927c8d","ios":"levelo://app?vid=6227a0ff-d0ca-42a3-9618-9e5a19927c8d"},"vehicle_type_id":"4","last_reported":1742339370,"current_range_meters":5600,"station_id":"ce4bhnp2rcd13ifvqh0g","pricing_plan_id":"cebpf4jnsgd1na2vs0mg"},{"bike_id":"b30be957-4091-4091-9689-3da66932f45e","system_id":"levelo_inurba_marseille","lat":43.28413,"lon":5.34993,"is_reserved":false,"is_disabled":false,"rental_uris":{"android":"levelo://app?vid=b30be957-4091-4091-9689-3da66932f45e","ios":"levelo://app?vid=b30be957-4091-4091-9689-3da66932f45e"},"vehicle_type_id":"4","last_reported":1742339370,"current_range_meters":5600,"station_id":"ce4bhbh2rcd13ifvqepg","pricing_plan_id":"cebpf4jnsgd1na2vs0mg"},{"bike_id":"fe358fb5-284d-4348-9311-44f909cb15f4","system_id":"levelo_inurba_marseille","lat":43.23963,"lon":5.3663,"is_reserved":false,"is_disabled":false,"rental_uris":{"android":"levelo://app?vid=fe358fb5-284d-4348-9311-44f909cb15f4","ios":"levelo://app?vid=fe358fb5-284d-4348-9311-44f909cb15f4"},"vehicle_type_id":"4","last_reported":1742339370,"current_range_meters":6000,"station_id":"ce4bhi12rcd13ifvqfp0","pricing_plan_id":"cebpf4jnsgd1na2vs0mg"},{"bike_id":"0d3accb9-853e-4df0-b9d8-4607b8048f46","system_id":"levelo_inurba_marseille","lat":43.2416,"lon":5.364,"is_reserved":false,"is_disabled":false,"rental_uris":{"android":"levelo://app?vid=0d3accb9-853e-4df0-b9d8-4607b8048f46","ios":"levelo://app?vid=0d3accb9-853e-4df0-b9d8-4607b8048f46"},"vehicle_type_id":"4","last_reported":1742339370,"current_range_meters":6000,"station_id":"cpo36qri1sfpv3e86is0","pricing_plan_id":"cebpf4jnsgd1na2vs0mg"},{"bike_id":"aa9a4b95-f2ed-407b-8ba2-60ee928fdb3f","system_id":"levelo_inurba_marseille","lat":43.29038,"lon":5.39969,"is_reserved":false,"is_disabled":false,"rental_uris":{"android":"levelo://app?vid=aa9a4b95-f2ed-407b-8ba2-60ee928fdb3f","ios":"levelo://app?vid=aa9a4b95-f2ed-407b-8ba2-60ee928fdb3f"},"vehicle_type_id":"4","last_reported":1742339370,"current_range_meters":6000,"station_id":"ce4bh392rcd13ifvqdm0","pricing_plan_id":"cebpf4jnsgd1na2vs0mg"},{"bike_id":"6b735067-2e18-4afe-aafa-41058437ea63","system_id":"levelo_inurba_marseille","lat":43.31457,"lon":5.3738,"is_reserved":false,"is_disabled":false,"rental_uris":{"android":"levelo://app?vid=6b735067-2e18-4afe-aafa-41058437ea63","ios":"levelo://app?vid=6b735067-2e18-4afe-aafa-41058437ea63"},"vehicle_type_id":"4","last_reported":1742339370,"current_range_meters":6000,"station_id":"","pricing_plan_id":"cebpf4jnsgd1na2vs0mg"},{"bike_id":"bf53558a-323c-40e3-9c37-ac64ba388e1c","system_id":"levelo_inurba_marseille","lat":43.23945,"lon":5.36623,"is_reserved":false,"is_disabled":false,"rental_uris":{"android":"levelo://app?vid=bf53558a-323c-40e3-9c37-ac64ba388e1c","ios":"levelo://app?vid=bf53558a-323c-40e3-9c37-ac64ba388e1c"},"vehicle_type_id":"4","last_reported":1742339370,"current_range_meters":6000,"station_id":"ce4bhi12rcd13ifvqfp0","pricing_plan_id":"cebpf4jnsgd1na2vs0mg"},{"bike_id":"f5c97f8a-2624-4b99-bdf9-59f10ff7cfce","system_id":"levelo_inurba_marseille","lat":43.27634,"lon":5.36137,"is_reserved":false,"is_disabled":false,"rental_uris":{"android":"levelo://app?vid=f5c97f8a-2624-4b99-bdf9-59f10ff7cfce","ios":"levelo://app?vid=f5c97f8a-2624-4b99-bdf9-59f10ff7cfce"},"vehicle_type_id":"4","last_reported":1742339370,"current_range_meters":6400,"station_id":"ce4bgj92rcd13ifvqbe0","pricing_plan_id":"cebpf4jnsgd1na2vs0mg"},{"bike_id":"df227953-74ac-4151-8017-3b7a1e24e192","system_id":"levelo_inurba_marseille","lat":43.23964,"lon":5.36621,"is_reserved":false,"is_disabled":false,"rental_uris":{"android":"levelo://app?vid=df227953-74ac-4151-8017-3b7a1e24e192","ios":"levelo://app?vid=df227953-74ac-4151-8017-3b7a1e24e192"},"vehicle_type_id":"4","last_reported":1742339370,"current_range_meters":6400,"station_id":"ce4bhi12rcd13ifvqfp0","pricing_plan_id":"cebpf4jnsgd1na2vs0mg"},{"bike_id":"db85a551-7379-4999-871e-b1611c31baae","system_id":"levelo_inurba_marseille","lat":43.27836,"lon":5.39233,"is_reserved":false,"is_disabled":false,"rental_uris":{"android":"levelo://app?vid=db85a551-7379-4999-871e-b1611c31baae","ios":"levelo://app?vid=db85a551-7379-4999-871e-b1611c31baae"},"vehicle_type_id":"4","last_reported":1742339370,"current_range_meters":6400,"station_id":"ce4bhjp2rcd13ifvqga0","pricing_plan_id":"cebpf4jnsgd1na2vs0mg"},{"bike_id":"35695dd4-791c-4486-b261-10bd7a9e52e9","system_id":"levelo_inurba_marseille","lat":43.26233,"lon":5.40452,"is_reserved":false,"is_disabled":true,"rental_uris":{"android":"levelo://app?vid=35695dd4-791c-4486-b261-10bd7a9e52e9","ios":"levelo://app?vid=35695dd4-791c-4486-b261-10bd7a9e52e9"},"vehicle_type_id":"4","last_reported":1742339370,"current_range_meters":6400,"station_id":"ce4bhmh2rcd13ifvqgmg","pricing_plan_id":"cebpf4jnsgd1na2vs0mg"},{"bike_id":"8fe7e33b-57fc-439c-ba02-015988635c80","system_id":"levelo_inurba_marseille","lat":43.27077,"lon":5.42279,"is_reserved":false,"is_disabled":true,"rental_uris":{"android":"levelo://app?vid=8fe7e33b-57fc-439c-ba02-015988635c80","ios":"levelo://app?vid=8fe7e33b-57fc-439c-ba02-015988635c80"},"vehicle_type_id":"4","last_reported":1742339370,"current_range_meters":6400,"station_id":"ce4bhk92rcd13ifvqgb0","pricing_plan_id":"cebpf4jnsgd1na2vs0mg"},{"bike_id":"97f1a9ef-23d7-46a5-a024-751b81083237","system_id":"levelo_inurba_marseille","lat":43.33023,"lon":5.39095,"is_reserved":false,"is_disabled":false,"rental_uris":{"android":"levelo://app?vid=97f1a9ef-23d7-46a5-a024-751b81083237","ios":"levelo://app?vid=97f1a9ef-23d7-46a5-a024-751b81083237"},"vehicle_type_id":"4","last_reported":1742339370,"current_range_meters":6400,"station_id":"ce4bhr92rcd13ifvqhrg","pricing_plan_id":"cebpf4jnsgd1na2vs0mg"},{"bike_id":"6368f354-6da7-4884-a394-062f1a963ed6","system_id":"levelo_inurba_marseille","lat":43.29291,"lon":5.42807,"is_reserved":false,"is_disabled":false,"rental_uris":{"android":"levelo://app?vid=6368f354-6da7-4884-a394-062f1a963ed6","ios":"levelo://app?vid=6368f354-6da7-4884-a394-062f1a963ed6"},"vehicle_type_id":"4","last_reported":1742339370,"current_range_meters":6400,"station_id":"","pricing_plan_id":"cebpf4jnsgd1na2vs0mg"},{"bike_id":"5e2fca71-0f3f-4aa4-affd-fff1472c16b4","system_id":"levelo_inurba_marseille","lat":43.24179,"lon":5.39725,"is_reserved":false,"is_disabled":false,"rental_uris":{"android":"levelo://app?vid=5e2fca71-0f3f-4aa4-affd-fff1472c16b4","ios":"levelo://app?vid=5e2fca71-0f3f-4aa4-affd-fff1472c16b4"},"vehicle_type_id":"4","last_reported":1742339370,"current_range_meters":6400,"station_id":"ce4bhn12rcd13ifvqgpg","pricing_plan_id":"cebpf4jnsgd1na2vs0mg"},{"bike_id":"b9fe0434-d515-4c50-9ed8-2ea3887cdbef","system_id":"levelo_inurba_marseille","lat":43.28078,"lon":5.39657,"is_reserved":false,"is_disabled":false,"rental_uris":{"android":"levelo://app?vid=b9fe0434-d515-4c50-9ed8-2ea3887cdbef","ios":"levelo://app?vid=b9fe0434-d515-4c50-9ed8-2ea3887cdbef"},"vehicle_type_id":"4","last_reported":1742339370,"current_range_meters":6800,"station_id":"ce4bho12rcd13ifvqh2g","pricing_plan_id":"cebpf4jnsgd1na2vs0mg"},{"bike_id":"f899b8f8-ca87-4a5c-b19e-4a179241f303","system_id":"levelo_inurba_marseille","lat":43.2867,"lon":5.36352,"is_reserved":false,"is_disabled":false,"rental_uris":{"android":"levelo://app?vid=f899b8f8-ca87-4a5c-b19e-4a179241f303","ios":"levelo://app?vid=f899b8f8-ca87-4a5c-b19e-4a179241f303"},"vehicle_type_id":"4","last_reported":1742339370,"current_range_meters":6800,"station_id":"ce4bhah2rcd13ifvqej0","pricing_plan_id":"cebpf4jnsgd1na2vs0mg"},{"bike_id":"97a1e633-c2b3-487e-8569-9036bf18d175","system_id":"levelo_inurba_marseille","lat":43.24282,"lon":5.36603,"is_reserved":false,"is_disabled":false,"rental_uris":{"android":"levelo://app?vid=97a1e633-c2b3-487e-8569-9036bf18d175","ios":"levelo://app?vid=97a1e633-c2b3-487e-8569-9036bf18d175"},"vehicle_type_id":"4","last_reported":1742339370,"current_range_meters":6800,"station_id":"cpo36qri1sfpv3e86is0","pricing_plan_id":"cebpf4jnsgd1na2vs0mg"},{"bike_id":"900606e9-1414-408c-b609-f4c9952f2d0c","system_id":"levelo_inurba_marseille","lat":43.31118,"lon":5.37765,"is_reserved":false,"is_disabled":true,"rental_uris":{"android":"levelo://app?vid=900606e9-1414-408c-b609-f4c9952f2d0c","ios":"levelo://app?vid=900606e9-1414-408c-b609-f4c9952f2d0c"},"vehicle_type_id":"4","last_reported":1742339370,"current_range_meters":6800,"station_id":"ce4bgt92rcd13ifvqcg0","pricing_plan_id":"cebpf4jnsgd1na2vs0mg"},{"bike_id":"a31c77d8-4378-47d6-8c3a-a5063f16fc9d","system_id":"levelo_inurba_marseille","lat":43.27826,"lon":5.40689,"is_reserved":false,"is_disabled":false,"rental_uris":{"android":"levelo://app?vid=a31c77d8-4378-47d6-8c3a-a5063f16fc9d","ios":"levelo://app?vid=a31c77d8-4378-47d6-8c3a-a5063f16fc9d"},"vehicle_type_id":"4","last_reported":1742339370,"current_range_meters":6800,"station_id":"ce4bhnh2rcd13ifvqgtg","pricing_plan_id":"cebpf4jnsgd1na2vs0mg"},{"bike_id":"8a4e1b2e-8fac-480b-a668-ef6a620a9814","system_id":"levelo_inurba_marseille","lat":43.2787,"lon":5.42447,"is_reserved":false,"is_disabled":false,"rental_uris":{"android":"levelo://app?vid=8a4e1b2e-8fac-480b-a668-ef6a620a9814","ios":"levelo://app?vid=8a4e1b2e-8fac-480b-a668-ef6a620a9814"},"vehicle_type_id":"4","last_reported":1742339370,"current_range_meters":6800,"station_id":"","pricing_plan_id":"cebpf4jnsgd1na2vs0mg"},{"bike_id":"8ccd8af2-2f23-47a2-8cbd-02706561a504","system_id":"levelo_inurba_marseille","lat":43.30804,"lon":5.38144,"is_reserved":false,"is_disabled":false,"rental_uris":{"android":"levelo://app?vid=8ccd8af2-2f23-47a2-8cbd-02706561a504","ios":"levelo://app?vid=8ccd8af2-2f23-47a2-8cbd-02706561a504"},"vehicle_type_id":"4","last_reported":1742339370,"current_range_meters":6800,"station_id":"ce4bgt12rcd13ifvqce0","pricing_plan_id":"cebpf4jnsgd1na2vs0mg"},{"bike_id":"fe429d9e-ab88-4ad9-b9d6-1a9de48fb5c3","system_id":"levelo_inurba_marseille","lat":43.30931,"lon":5.40142,"is_reserved":false,"is_disabled":false,"rental_uris":{"android":"levelo://app?vid=fe429d9e-ab88-4ad9-b9d6-1a9de48fb5c3","ios":"levelo://app?vid=fe429d9e-ab88-4ad9-b9d6-1a9de48fb5c3"},"vehicle_type_id":"4","last_reported":1742339370,"current_range_meters":7200,"station_id":"ce4bgvp2rcd13ifvqct0","pricing_plan_id":"cebpf4jnsgd1na2vs0mg"},{"bike_id":"956957b3-9d39-4ee3-907f-54686d3c5df0","system_id":"levelo_inurba_marseille","lat":43.30129,"lon":5.39847,"is_reserved":false,"is_disabled":false,"rental_uris":{"android":"levelo://app?vid=956957b3-9d39-4ee3-907f-54686d3c5df0","ios":"levelo://app?vid=956957b3-9d39-4ee3-907f-54686d3c5df0"},"vehicle_type_id":"4","last_reported":1742339370,"current_range_meters":7200,"station_id":"ce4bh0h2rcd13ifvqd40","pricing_plan_id":"cebpf4jnsgd1na2vs0mg"},{"bike_id":"6e874661-bb50-4aba-b5e1-20f06a0b350d","system_id":"levelo_inurba_marseille","lat":43.30799,"lon":5.3817,"is_reserved":false,"is_disabled":false,"rental_uris":{"android":"levelo://app?vid=6e874661-bb50-4aba-b5e1-20f06a0b350d","ios":"levelo://app?vid=6e874661-bb50-4aba-b5e1-20f06a0b350d"},"vehicle_type_id":"4","last_reported":1742339370,"current_range_meters":7200,"station_id":"ce4bgt12rcd13ifvqce0","pricing_plan_id":"cebpf4jnsgd1na2vs0mg"},{"bike_id":"b1d9f1af-d8f9-4b97-a270-4bf890a49af9","system_id":"levelo_inurba_marseille","lat":43.28418,"lon":5.37536,"is_reserved":false,"is_disabled":false,"rental_uris":{"android":"levelo://app?vid=b1d9f1af-d8f9-4b97-a270-4bf890a49af9","ios":"levelo://app?vid=b1d9f1af-d8f9-4b97-a270-4bf890a49af9"},"vehicle_type_id":"4","last_reported":1742339370,"current_range_meters":7200,"station_id":"ce4bh412rcd13ifvqds0","pricing_plan_id":"cebpf4jnsgd1na2vs0mg"},{"bike_id":"fe67d4d5-2efd-4a2d-8d85-86a1e84c1bb0","system_id":"levelo_inurba_marseille","lat":43.25093,"lon":5.39497,"is_reserved":false,"is_disabled":false,"rental_uris":{"android":"levelo://app?vid=fe67d4d5-2efd-4a2d-8d85-86a1e84c1bb0","ios":"levelo://app?vid=fe67d4d5-2efd-4a2d-8d85-86a1e84c1bb0"},"vehicle_type_id":"4","last_reported":1742339370,"current_range_meters":7200,"station_id":"ce4bhm12rcd13ifvqgkg","pricing_plan_id":"cebpf4jnsgd1na2vs0mg"},{"bike_id":"52bd4f14-775f-459f-9791-851d088e69cb","system_id":"levelo_inurba_marseille","lat":43.25001,"lon":5.38941,"is_reserved":false,"is_disabled":false,"rental_uris":{"android":"levelo://app?vid=52bd4f14-775f-459f-9791-851d088e69cb","ios":"levelo://app?vid=52bd4f14-775f-459f-9791-851d088e69cb"},"vehicle_type_id":"4","last_reported":1742339370,"current_range_meters":7200,"station_id":"ce4bhgp2rcd13ifvqfd0","pricing_plan_id":"cebpf4jnsgd1na2vs0mg"},{"bike_id":"bc1c6cb2-f570-411d-9fcd-cdf964b3ea03","system_id":"levelo_inurba_marseille","lat":43.31334,"lon":5.39715,"is_reserved":false,"is_disabled":false,"rental_uris":{"android":"levelo://app?vid=bc1c6cb2-f570-411d-9fcd-cdf964b3ea03","ios":"levelo://app?vid=bc1c6cb2-f570-411d-9fcd-cdf964b3ea03"},"vehicle_type_id":"4","last_reported":1742339370,"current_range_meters":7200,"station_id":"ce4bgvp2rcd13ifvqcu0","pricing_plan_id":"cebpf4jnsgd1na2vs0mg"},{"bike_id":"4f6d11f4-8d23-4e35-8c59-e818e64ce7ab","system_id":"levelo_inurba_marseille","lat":43.29528,"lon":5.43899,"is_reserved":false,"is_disabled":false,"rental_uris":{"android":"levelo://app?vid=4f6d11f4-8d23-4e35-8c59-e818e64ce7ab","ios":"levelo://app?vid=4f6d11f4-8d23-4e35-8c59-e818e64ce7ab"},"vehicle_type_id":"4","last_reported":1742339370,"current_range_meters":7200,"station_id":"","pricing_plan_id":"cebpf4jnsgd1na2vs0mg"},{"bike_id":"7d68c8c3-56ef-4fff-baa3-7cd5e60180fe","system_id":"levelo_inurba_marseille","lat":43.24646,"lon":5.38892,"is_reserved":false,"is_disabled":false,"rental_uris":{"android":"levelo://app?vid=7d68c8c3-56ef-4fff-baa3-7cd5e60180fe","ios":"levelo://app?vid=7d68c8c3-56ef-4fff-baa3-7cd5e60180fe"},"vehicle_type_id":"4","last_reported":1742339370,"current_range_meters":7200,"station_id":"ce4bhg12rcd13ifvqf60","pricing_plan_id":"cebpf4jnsgd1na2vs0mg"},{"bike_id":"c8aebf71-8f92-4a15-a86e-14c7cfbd9a29","system_id":"levelo_inurba_marseille","lat":43.29631,"lon":5.38025,"is_reserved":false,"is_disabled":false,"rental_uris":{"android":"levelo://app?vid=c8aebf71-8f92-4a15-a86e-14c7cfbd9a29","ios":"levelo://app?vid=c8aebf71-8f92-4a15-a86e-14c7cfbd9a29"},"vehicle_type_id":"4","last_reported":1742339370,"current_range_meters":7200,"station_id":"","pricing_plan_id":"cebpf4jnsgd1na2vs0mg"},{"bike_id":"8b298902-a6fa-4f9e-babb-1299b9fe1519","system_id":"levelo_inurba_marseille","lat":43.28576,"lon":5.39495,"is_reserved":false,"is_disabled":false,"rental_uris":{"android":"levelo://app?vid=8b298902-a6fa-4f9e-babb-1299b9fe1519","ios":"levelo://app?vid=8b298902-a6fa-4f9e-babb-1299b9fe1519"},"vehicle_type_id":"4","last_reported":1742339370,"current_range_meters":7200,"station_id":"ce4bh292rcd13ifvqdg0","pricing_plan_id":"cebpf4jnsgd1na2vs0mg"},{"bike_id":"7868a2a3-d6c1-4a45-bdf4-27b2c234ac8f","system_id":"levelo_inurba_marseille","lat":43.2972,"lon":5.3662,"is_reserved":false,"is_disabled":false,"rental_uris":{"android":"levelo://app?vid=7868a2a3-d6c1-4a45-bdf4-27b2c234ac8f","ios":"levelo://app?vid=7868a2a3-d6c1-4a45-bdf4-27b2c234ac8f"},"vehicle_type_id":"4","last_reported":1742339370,"current_range_meters":7200,"station_id":"ce4bgn12rcd13ifvqbt0","pricing_plan_id":"cebpf4jnsgd1na2vs0mg"},{"bike_id":"fc3c66cd-fcf5-49b9-9bc0-ad74e199a26d","system_id":"levelo_inurba_marseille","lat":43.3128,"lon":5.40171,"is_reserved":false,"is_disabled":false,"rental_uris":{"android":"levelo://app?vid=fc3c66cd-fcf5-49b9-9bc0-ad74e199a26d","ios":"levelo://app?vid=fc3c66cd-fcf5-49b9-9bc0-ad74e199a26d"},"vehicle_type_id":"4","last_reported":1742339370,"current_range_meters":7200,"station_id":"ce4bh092rcd13ifvqd30","pricing_plan_id":"cebpf4jnsgd1na2vs0mg"},{"bike_id":"512c6f9c-c273-46e6-a510-5f0cb6c1e0d4","system_id":"levelo_inurba_marseille","lat":43.29014,"lon":5.39985,"is_reserved":false,"is_disabled":false,"rental_uris":{"android":"levelo://app?vid=512c6f9c-c273-46e6-a510-5f0cb6c1e0d4","ios":"levelo://app?vid=512c6f9c-c273-46e6-a510-5f0cb6c1e0d4"},"vehicle_type_id":"4","last_reported":1742339370,"current_range_meters":8000,"station_id":"ce4bh392rcd13ifvqdm0","pricing_plan_id":"cebpf4jnsgd1na2vs0mg"},{"bike_id":"5cc7107b-4638-44b7-9016-fb56a8137a82","system_id":"levelo_inurba_marseille","lat":43.33025,"lon":5.39038,"is_reserved":false,"is_disabled":false,"rental_uris":{"android":"levelo://app?vid=5cc7107b-4638-44b7-9016-fb56a8137a82","ios":"levelo://app?vid=5cc7107b-4638-44b7-9016-fb56a8137a82"},"vehicle_type_id":"4","last_reported":1742339370,"current_range_meters":8000,"station_id":"ce4bhr92rcd13ifvqhrg","pricing_plan_id":"cebpf4jnsgd1na2vs0mg"},{"bike_id":"05f500f2-ae0f-4f51-b308-035cc001963c","system_id":"levelo_inurba_marseille","lat":43.27796,"lon":5.40717,"is_reserved":false,"is_disabled":false,"rental_uris":{"android":"levelo://app?vid=05f500f2-ae0f-4f51-b308-035cc001963c","ios":"levelo://app?vid=05f500f2-ae0f-4f51-b308-035cc001963c"},"vehicle_type_id":"4","last_reported":1742339370,"current_range_meters":8000,"station_id":"ce4bhnh2rcd13ifvqgtg","pricing_plan_id":"cebpf4jnsgd1na2vs0mg"},{"bike_id":"8528cfd6-758c-4197-aaac-800294acfea6","system_id":"levelo_inurba_marseille","lat":43.25884,"lon":5.39914,"is_reserved":false,"is_disabled":false,"rental_uris":{"android":"levelo://app?vid=8528cfd6-758c-4197-aaac-800294acfea6","ios":"levelo://app?vid=8528cfd6-758c-4197-aaac-800294acfea6"},"vehicle_type_id":"4","last_reported":1742339370,"current_range_meters":8000,"station_id":"ce4bhl92rcd13ifvqghg","pricing_plan_id":"cebpf4jnsgd1na2vs0mg"},{"bike_id":"8b58540f-1057-48ac-95ef-922b5f2bd2a2","system_id":"levelo_inurba_marseille","lat":43.28462,"lon":5.35885,"is_reserved":false,"is_disabled":false,"rental_uris":{"android":"levelo://app?vid=8b58540f-1057-48ac-95ef-922b5f2bd2a2","ios":"levelo://app?vid=8b58540f-1057-48ac-95ef-922b5f2bd2a2"},"vehicle_type_id":"4","last_reported":1742339370,"current_range_meters":8000,"station_id":"ce4bhah2rcd13ifvqei0","pricing_plan_id":"cebpf4jnsgd1na2vs0mg"},{"bike_id":"38233fcc-45aa-475d-b774-1f1525a8fb6d","system_id":"levelo_inurba_marseille","lat":43.26062,"lon":5.39391,"is_reserved":false,"is_disabled":false,"rental_uris":{"android":"levelo://app?vid=38233fcc-45aa-475d-b774-1f1525a8fb6d","ios":"levelo://app?vid=38233fcc-45aa-475d-b774-1f1525a8fb6d"},"vehicle_type_id":"4","last_reported":1742339370,"current_range_meters":8000,"station_id":"ce4bhh92rcd13ifvqfj0","pricing_plan_id":"cebpf4jnsgd1na2vs0mg"},{"bike_id":"eca5cde3-5cbf-4c2c-97d5-ef4d7982662d","system_id":"levelo_inurba_marseille","lat":43.31331,"lon":5.39699,"is_reserved":false,"is_disabled":false,"rental_uris":{"android":"levelo://app?vid=eca5cde3-5cbf-4c2c-97d5-ef4d7982662d","ios":"levelo://app?vid=eca5cde3-5cbf-4c2c-97d5-ef4d7982662d"},"vehicle_type_id":"4","last_reported":1742339370,"current_range_meters":8000,"station_id":"ce4bgvp2rcd13ifvqcu0","pricing_plan_id":"cebpf4jnsgd1na2vs0mg"},{"bike_id":"c615b7dd-2094-4974-82b8-2a84922ae42d","system_id":"levelo_inurba_marseille","lat":43.25493,"lon":5.37713,"is_reserved":false,"is_disabled":false,"rental_uris":{"android":"levelo://app?vid=c615b7dd-2094-4974-82b8-2a84922ae42d","ios":"levelo://app?vid=c615b7dd-2094-4974-82b8-2a84922ae42d"},"vehicle_type_id":"4","last_reported":1742339370,"current_range_meters":8000,"station_id":"","pricing_plan_id":"cebpf4jnsgd1na2vs0mg"},{"bike_id":"66c04a3a-9d69-4941-9191-7796f62ff29e","system_id":"levelo_inurba_marseille","lat":43.28415,"lon":5.37515,"is_reserved":false,"is_disabled":false,"rental_uris":{"android":"levelo://app?vid=66c04a3a-9d69-4941-9191-7796f62ff29e","ios":"levelo://app?vid=66c04a3a-9d69-4941-9191-7796f62ff29e"},"vehicle_type_id":"4","last_reported":1742339370,"current_range_meters":8000,"station_id":"ce4bh412rcd13ifvqds0","pricing_plan_id":"cebpf4jnsgd1na2vs0mg"},{"bike_id":"45b82e0f-05c8-4de5-b641-e0a386935fad","system_id":"levelo_inurba_marseille","lat":43.31273,"lon":5.40167,"is_reserved":false,"is_disabled":false,"rental_uris":{"android":"levelo://app?vid=45b82e0f-05c8-4de5-b641-e0a386935fad","ios":"levelo://app?vid=45b82e0f-05c8-4de5-b641-e0a386935fad"},"vehicle_type_id":"4","last_reported":1742339370,"current_range_meters":8000,"station_id":"ce4bh092rcd13ifvqd30","pricing_plan_id":"cebpf4jnsgd1na2vs0mg"},{"bike_id":"8f79f3b7-6513-4def-bb2d-05a7d82b97a5","system_id":"levelo_inurba_marseille","lat":43.24176,"lon":5.36406,"is_reserved":false,"is_disabled":false,"rental_uris":{"android":"levelo://app?vid=8f79f3b7-6513-4def-bb2d-05a7d82b97a5","ios":"levelo://app?vid=8f79f3b7-6513-4def-bb2d-05a7d82b97a5"},"vehicle_type_id":"4","last_reported":1742339370,"current_range_meters":8000,"station_id":"cpo36qri1sfpv3e86is0","pricing_plan_id":"cebpf4jnsgd1na2vs0mg"},{"bike_id":"faccb755-09d8-4857-a76e-a52465dbf53e","system_id":"levelo_inurba_marseille","lat":43.28361,"lon":5.34966,"is_reserved":false,"is_disabled":false,"rental_uris":{"android":"levelo://app?vid=faccb755-09d8-4857-a76e-a52465dbf53e","ios":"levelo://app?vid=faccb755-09d8-4857-a76e-a52465dbf53e"},"vehicle_type_id":"4","last_reported":1742339370,"current_range_meters":8400,"station_id":"","pricing_plan_id":"cebpf4jnsgd1na2vs0mg"},{"bike_id":"0b60e72b-d8b1-4266-9b63-b94b87c1ad4b","system_id":"levelo_inurba_marseille","lat":43.2319,"lon":5.40007,"is_reserved":false,"is_disabled":false,"rental_uris":{"android":"levelo://app?vid=0b60e72b-d8b1-4266-9b63-b94b87c1ad4b","ios":"levelo://app?vid=0b60e72b-d8b1-4266-9b63-b94b87c1ad4b"},"vehicle_type_id":"4","last_reported":1742339370,"current_range_meters":8400,"station_id":"ce4bhn12rcd13ifvqgqg","pricing_plan_id":"cebpf4jnsgd1na2vs0mg"},{"bike_id":"97793583-9a74-480c-8eb2-a4367ece921c","system_id":"levelo_inurba_marseille","lat":43.30808,"lon":5.37602,"is_reserved":false,"is_disabled":false,"rental_uris":{"android":"levelo://app?vid=97793583-9a74-480c-8eb2-a4367ece921c","ios":"levelo://app?vid=97793583-9a74-480c-8eb2-a4367ece921c"},"vehicle_type_id":"4","last_reported":1742339370,"current_range_meters":8400,"station_id":"ce4bgv92rcd13ifvqcq0","pricing_plan_id":"cebpf4jnsgd1na2vs0mg"},{"bike_id":"b0ad492e-66c3-4504-be0f-a38d41839c94","system_id":"levelo_inurba_marseille","lat":43.29788,"lon":5.39335,"is_reserved":false,"is_disabled":false,"rental_uris":{"android":"levelo://app?vid=b0ad492e-66c3-4504-be0f-a38d41839c94","ios":"levelo://app?vid=b0ad492e-66c3-4504-be0f-a38d41839c94"},"vehicle_type_id":"4","last_reported":1742339370,"current_range_meters":8400,"station_id":"chh1huq6cuj3fo74tm60","pricing_plan_id":"cebpf4jnsgd1na2vs0mg"},{"bike_id":"f8e329e0-c5dd-4c4c-baeb-f2151696dbb0","system_id":"levelo_inurba_marseille","lat":43.27057,"lon":5.42295,"is_reserved":false,"is_disabled":false,"rental_uris":{"android":"levelo://app?vid=f8e329e0-c5dd-4c4c-baeb-f2151696dbb0","ios":"levelo://app?vid=f8e329e0-c5dd-4c4c-baeb-f2151696dbb0"},"vehicle_type_id":"4","last_reported":1742339370,"current_range_meters":8400,"station_id":"ce4bhk92rcd13ifvqgb0","pricing_plan_id":"cebpf4jnsgd1na2vs0mg"},{"bike_id":"87abaf66-9fc5-4cf1-84c5-1f3afd52d3df","system_id":"levelo_inurba_marseille","lat":43.24818,"lon":5.37502,"is_reserved":false,"is_disabled":false,"rental_uris":{"android":"levelo://app?vid=87abaf66-9fc5-4cf1-84c5-1f3afd52d3df","ios":"levelo://app?vid=87abaf66-9fc5-4cf1-84c5-1f3afd52d3df"},"vehicle_type_id":"4","last_reported":1742339370,"current_range_meters":8400,"station_id":"","pricing_plan_id":"cebpf4jnsgd1na2vs0mg"},{"bike_id":"d0ecd06f-b344-485c-8550-9fa5bf448f53","system_id":"levelo_inurba_marseille","lat":43.25842,"lon":5.39466,"is_reserved":false,"is_disabled":false,"rental_uris":{"android":"levelo://app?vid=d0ecd06f-b344-485c-8550-9fa5bf448f53","ios":"levelo://app?vid=d0ecd06f-b344-485c-8550-9fa5bf448f53"},"vehicle_type_id":"4","last_reported":1742339370,"current_range_meters":8400,"station_id":"ce4bhip2rcd13ifvqft0","pricing_plan_id":"cebpf4jnsgd1na2vs0mg"},{"bike_id":"01ec6899-9e70-425a-a91b-c49e5fc36660","system_id":"levelo_inurba_marseille","lat":43.24798,"lon":5.37502,"is_reserved":false,"is_disabled":false,"rental_uris":{"android":"levelo://app?vid=01ec6899-9e70-425a-a91b-c49e5fc36660","ios":"levelo://app?vid=01ec6899-9e70-425a-a91b-c49e5fc36660"},"vehicle_type_id":"4","last_reported":1742339370,"current_range_meters":8400,"station_id":"ce4bhgh2rcd13ifvqfb0","pricing_plan_id":"cebpf4jnsgd1na2vs0mg"},{"bike_id":"049b5602-ba3f-4a09-ad40-b8c54e6f1cb6","system_id":"levelo_inurba_marseille","lat":43.24994,"lon":5.38925,"is_reserved":false,"is_disabled":true,"rental_uris":{"android":"levelo://app?vid=049b5602-ba3f-4a09-ad40-b8c54e6f1cb6","ios":"levelo://app?vid=049b5602-ba3f-4a09-ad40-b8c54e6f1cb6"},"vehicle_type_id":"4","last_reported":1742339370,"current_range_meters":8400,"station_id":"ce4bhgp2rcd13ifvqfd0","pricing_plan_id":"cebpf4jnsgd1na2vs0mg"},{"bike_id":"8bfc242c-df93-4661-bdab-462c9f15b0d7","system_id":"levelo_inurba_marseille","lat":43.31173,"lon":5.3875,"is_reserved":false,"is_disabled":false,"rental_uris":{"android":"levelo://app?vid=8bfc242c-df93-4661-bdab-462c9f15b0d7","ios":"levelo://app?vid=8bfc242c-df93-4661-bdab-462c9f15b0d7"},"vehicle_type_id":"4","last_reported":1742339370,"current_range_meters":8400,"station_id":"ce4bgv12rcd13ifvqcp0","pricing_plan_id":"cebpf4jnsgd1na2vs0mg"},{"bike_id":"7e0251ad-3e81-46c9-8179-7b2e32f0a8a3","system_id":"levelo_inurba_marseille","lat":43.28858,"lon":5.39306,"is_reserved":false,"is_disabled":false,"rental_uris":{"android":"levelo://app?vid=7e0251ad-3e81-46c9-8179-7b2e32f0a8a3","ios":"levelo://app?vid=7e0251ad-3e81-46c9-8179-7b2e32f0a8a3"},"vehicle_type_id":"4","last_reported":1742339370,"current_range_meters":8400,"station_id":"ce4bh2p2rcd13ifvqdi0","pricing_plan_id":"cebpf4jnsgd1na2vs0mg"},{"bike_id":"2fc9495d-c829-4229-a4db-5c8674880d7a","system_id":"levelo_inurba_marseille","lat":43.23055,"lon":5.35499,"is_reserved":false,"is_disabled":false,"rental_uris":{"android":"levelo://app?vid=2fc9495d-c829-4229-a4db-5c8674880d7a","ios":"levelo://app?vid=2fc9495d-c829-4229-a4db-5c8674880d7a"},"vehicle_type_id":"4","last_reported":1742339370,"current_range_meters":8400,"station_id":"cpo3342slgdg3j2ifvpg","pricing_plan_id":"cebpf4jnsgd1na2vs0mg"},{"bike_id":"3c4f394c-0305-4c58-97e5-6826bd9d917e","system_id":"levelo_inurba_marseille","lat":43.3248,"lon":5.36595,"is_reserved":false,"is_disabled":false,"rental_uris":{"android":"levelo://app?vid=3c4f394c-0305-4c58-97e5-6826bd9d917e","ios":"levelo://app?vid=3c4f394c-0305-4c58-97e5-6826bd9d917e"},"vehicle_type_id":"4","last_reported":1742339370,"current_range_meters":8800,"station_id":"ce4bhs12rcd13ifvqhvg","pricing_plan_id":"cebpf4jnsgd1na2vs0mg"},{"bike_id":"40a11fd4-fbc7-4f9c-bf98-c7c587ba8d90","system_id":"levelo_inurba_marseille","lat":43.27824,"lon":5.39246,"is_reserved":false,"is_disabled":false,"rental_uris":{"android":"levelo://app?vid=40a11fd4-fbc7-4f9c-bf98-c7c587ba8d90","ios":"levelo://app?vid=40a11fd4-fbc7-4f9c-bf98-c7c587ba8d90"},"vehicle_type_id":"4","last_reported":1742339370,"current_range_meters":8800,"station_id":"ce4bhjp2rcd13ifvqga0","pricing_plan_id":"cebpf4jnsgd1na2vs0mg"},{"bike_id":"31641444-e93f-4b5a-bf42-3bc2c8cd9f25","system_id":"levelo_inurba_marseille","lat":43.24692,"lon":5.38158,"is_reserved":false,"is_disabled":false,"rental_uris":{"android":"levelo://app?vid=31641444-e93f-4b5a-bf42-3bc2c8cd9f25","ios":"levelo://app?vid=31641444-e93f-4b5a-bf42-3bc2c8cd9f25"},"vehicle_type_id":"4","last_reported":1742339370,"current_range_meters":8800,"station_id":"ce4bhih2rcd13ifvqfr0","pricing_plan_id":"cebpf4jnsgd1na2vs0mg"},{"bike_id":"98a333cf-e91b-4758-81a4-0ca513ec8e1b","system_id":"levelo_inurba_marseille","lat":43.28943,"lon":5.36395,"is_reserved":false,"is_disabled":false,"rental_uris":{"android":"levelo://app?vid=98a333cf-e91b-4758-81a4-0ca513ec8e1b","ios":"levelo://app?vid=98a333cf-e91b-4758-81a4-0ca513ec8e1b"},"vehicle_type_id":"4","last_reported":1742339370,"current_range_meters":8800,"station_id":"ce4bhc92rcd13ifvqetg","pricing_plan_id":"cebpf4jnsgd1na2vs0mg"},{"bike_id":"6ae6f76c-6a01-4d75-9d3f-dfa610803a78","system_id":"levelo_inurba_marseille","lat":43.23066,"lon":5.35494,"is_reserved":false,"is_disabled":false,"rental_uris":{"android":"levelo://app?vid=6ae6f76c-6a01-4d75-9d3f-dfa610803a78","ios":"levelo://app?vid=6ae6f76c-6a01-4d75-9d3f-dfa610803a78"},"vehicle_type_id":"4","last_reported":1742339370,"current_range_meters":8800,"station_id":"cpo3342slgdg3j2ifvpg","pricing_plan_id":"cebpf4jnsgd1na2vs0mg"},{"bike_id":"519efbbc-7577-4063-8eac-658ef30e98a3","system_id":"levelo_inurba_marseille","lat":43.25005,"lon":5.38943,"is_reserved":false,"is_disabled":false,"rental_uris":{"android":"levelo://app?vid=519efbbc-7577-4063-8eac-658ef30e98a3","ios":"levelo://app?vid=519efbbc-7577-4063-8eac-658ef30e98a3"},"vehicle_type_id":"4","last_reported":1742339370,"current_range_meters":8800,"station_id":"ce4bhgp2rcd13ifvqfd0","pricing_plan_id":"cebpf4jnsgd1na2vs0mg"},{"bike_id":"cb75ecec-1de1-4c73-a9a2-c426470f3862","system_id":"levelo_inurba_marseille","lat":43.2963,"lon":5.37725,"is_reserved":false,"is_disabled":false,"rental_uris":{"android":"levelo://app?vid=cb75ecec-1de1-4c73-a9a2-c426470f3862","ios":"levelo://app?vid=cb75ecec-1de1-4c73-a9a2-c426470f3862"},"vehicle_type_id":"4","last_reported":1742339370,"current_range_meters":8800,"station_id":"ce4bgi92rcd13ifvqb90","pricing_plan_id":"cebpf4jnsgd1na2vs0mg"},{"bike_id":"253fce13-8607-4f2f-839f-40104be19b05","system_id":"levelo_inurba_marseille","lat":43.2397,"lon":5.36616,"is_reserved":false,"is_disabled":false,"rental_uris":{"android":"levelo://app?vid=253fce13-8607-4f2f-839f-40104be19b05","ios":"levelo://app?vid=253fce13-8607-4f2f-839f-40104be19b05"},"vehicle_type_id":"4","last_reported":1742339370,"current_range_meters":8800,"station_id":"ce4bhi12rcd13ifvqfp0","pricing_plan_id":"cebpf4jnsgd1na2vs0mg"},{"bike_id":"df4642c9-c3fd-4f88-b1d5-c33a4aa2259c","system_id":"levelo_inurba_marseille","lat":43.23193,"lon":5.3999,"is_reserved":false,"is_disabled":false,"rental_uris":{"android":"levelo://app?vid=df4642c9-c3fd-4f88-b1d5-c33a4aa2259c","ios":"levelo://app?vid=df4642c9-c3fd-4f88-b1d5-c33a4aa2259c"},"vehicle_type_id":"4","last_reported":1742339370,"current_range_meters":8800,"station_id":"ce4bhn12rcd13ifvqgqg","pricing_plan_id":"cebpf4jnsgd1na2vs0mg"},{"bike_id":"9f1896ef-7ca1-450d-bade-5dbfe7eb3a65","system_id":"levelo_inurba_marseille","lat":43.27957,"lon":5.38708,"is_reserved":false,"is_disabled":false,"rental_uris":{"android":"levelo://app?vid=9f1896ef-7ca1-450d-bade-5dbfe7eb3a65","ios":"levelo://app?vid=9f1896ef-7ca1-450d-bade-5dbfe7eb3a65"},"vehicle_type_id":"4","last_reported":1742339370,"current_range_meters":8800,"station_id":"ce4bhg12rcd13ifvqf80","pricing_plan_id":"cebpf4jnsgd1na2vs0mg"},{"bike_id":"3bff80ec-e94e-42a9-988b-9e0817493bec","system_id":"levelo_inurba_marseille","lat":43.23201,"lon":5.35552,"is_reserved":false,"is_disabled":false,"rental_uris":{"android":"levelo://app?vid=3bff80ec-e94e-42a9-988b-9e0817493bec","ios":"levelo://app?vid=3bff80ec-e94e-42a9-988b-9e0817493bec"},"vehicle_type_id":"4","last_reported":1742339370,"current_range_meters":8800,"station_id":"ce4bhu92rcd13ifvqi70","pricing_plan_id":"cebpf4jnsgd1na2vs0mg"},{"bike_id":"244972ac-6b8e-496c-8ff7-a07dcecb25e0","system_id":"levelo_inurba_marseille","lat":43.28083,"lon":5.39646,"is_reserved":false,"is_disabled":false,"rental_uris":{"android":"levelo://app?vid=244972ac-6b8e-496c-8ff7-a07dcecb25e0","ios":"levelo://app?vid=244972ac-6b8e-496c-8ff7-a07dcecb25e0"},"vehicle_type_id":"4","last_reported":1742339370,"current_range_meters":8800,"station_id":"ce4bho12rcd13ifvqh2g","pricing_plan_id":"cebpf4jnsgd1na2vs0mg"},{"bike_id":"f158cb0f-0380-45cd-a82f-e7d941bda018","system_id":"levelo_inurba_marseille","lat":43.31714,"lon":5.43704,"is_reserved":false,"is_disabled":false,"rental_uris":{"android":"levelo://app?vid=f158cb0f-0380-45cd-a82f-e7d941bda018","ios":"levelo://app?vid=f158cb0f-0380-45cd-a82f-e7d941bda018"},"vehicle_type_id":"4","last_reported":1742339370,"current_range_meters":9200,"station_id":"ce4bhp92rcd13ifvqhcg","pricing_plan_id":"cebpf4jnsgd1na2vs0mg"},{"bike_id":"d1069439-00e9-4aad-ad31-ab5b44b63348","system_id":"levelo_inurba_marseille","lat":43.3171,"lon":5.40472,"is_reserved":false,"is_disabled":true,"rental_uris":{"android":"levelo://app?vid=d1069439-00e9-4aad-ad31-ab5b44b63348","ios":"levelo://app?vid=d1069439-00e9-4aad-ad31-ab5b44b63348"},"vehicle_type_id":"4","last_reported":1742339370,"current_range_meters":9200,"station_id":"ce4bh012rcd13ifvqd00","pricing_plan_id":"cebpf4jnsgd1na2vs0mg"},{"bike_id":"61c41159-7a8b-45ee-a18c-926f56b3edec","system_id":"levelo_inurba_marseille","lat":43.25824,"lon":5.39418,"is_reserved":false,"is_disabled":false,"rental_uris":{"android":"levelo://app?vid=61c41159-7a8b-45ee-a18c-926f56b3edec","ios":"levelo://app?vid=61c41159-7a8b-45ee-a18c-926f56b3edec"},"vehicle_type_id":"4","last_reported":1742339370,"current_range_meters":9200,"station_id":"ce4bhip2rcd13ifvqft0","pricing_plan_id":"cebpf4jnsgd1na2vs0mg"},{"bike_id":"59f8cf95-900d-4a12-8e6f-81a600be174d","system_id":"levelo_inurba_marseille","lat":43.2885,"lon":5.35891,"is_reserved":false,"is_disabled":false,"rental_uris":{"android":"levelo://app?vid=59f8cf95-900d-4a12-8e6f-81a600be174d","ios":"levelo://app?vid=59f8cf95-900d-4a12-8e6f-81a600be174d"},"vehicle_type_id":"4","last_reported":1742339370,"current_range_meters":8800,"station_id":"ce4bhb12rcd13ifvqem0","pricing_plan_id":"cebpf4jnsgd1na2vs0mg"},{"bike_id":"2cf913f3-f9be-41c2-a2ea-01870c68e8ea","system_id":"levelo_inurba_marseille","lat":43.32293,"lon":5.38306,"is_reserved":false,"is_disabled":false,"rental_uris":{"android":"levelo://app?vid=2cf913f3-f9be-41c2-a2ea-01870c68e8ea","ios":"levelo://app?vid=2cf913f3-f9be-41c2-a2ea-01870c68e8ea"},"vehicle_type_id":"4","last_reported":1742339370,"current_range_meters":9600,"station_id":"ce4bhr12rcd13ifvqhqg","pricing_plan_id":"cebpf4jnsgd1na2vs0mg"},{"bike_id":"d00028dc-9b0d-47df-ad9d-778d21fb21b2","system_id":"levelo_inurba_marseille","lat":43.23189,"lon":5.35552,"is_reserved":false,"is_disabled":false,"rental_uris":{"android":"levelo://app?vid=d00028dc-9b0d-47df-ad9d-778d21fb21b2","ios":"levelo://app?vid=d00028dc-9b0d-47df-ad9d-778d21fb21b2"},"vehicle_type_id":"4","last_reported":1742339370,"current_range_meters":9600,"station_id":"ce4bhu92rcd13ifvqi70","pricing_plan_id":"cebpf4jnsgd1na2vs0mg"},{"bike_id":"ca1c0a28-8faf-435f-9d8b-370c3a07ff34","system_id":"levelo_inurba_marseille","lat":43.24163,"lon":5.36405,"is_reserved":false,"is_disabled":false,"rental_uris":{"android":"levelo://app?vid=ca1c0a28-8faf-435f-9d8b-370c3a07ff34","ios":"levelo://app?vid=ca1c0a28-8faf-435f-9d8b-370c3a07ff34"},"vehicle_type_id":"4","last_reported":1742339370,"current_range_meters":9600,"station_id":"cpo36qri1sfpv3e86is0","pricing_plan_id":"cebpf4jnsgd1na2vs0mg"},{"bike_id":"99fb0b41-922c-4505-98f2-ecc87f7d5047","system_id":"levelo_inurba_marseille","lat":43.30665,"lon":5.40072,"is_reserved":false,"is_disabled":false,"rental_uris":{"android":"levelo://app?vid=99fb0b41-922c-4505-98f2-ecc87f7d5047","ios":"levelo://app?vid=99fb0b41-922c-4505-98f2-ecc87f7d5047"},"vehicle_type_id":"4","last_reported":1742339370,"current_range_meters":9600,"station_id":"ce4bh112rcd13ifvqda0","pricing_plan_id":"cebpf4jnsgd1na2vs0mg"},{"bike_id":"a8766000-078c-47ff-8301-09d21e7c8d48","system_id":"levelo_inurba_marseille","lat":43.30861,"lon":5.39666,"is_reserved":false,"is_disabled":false,"rental_uris":{"android":"levelo://app?vid=a8766000-078c-47ff-8301-09d21e7c8d48","ios":"levelo://app?vid=a8766000-078c-47ff-8301-09d21e7c8d48"},"vehicle_type_id":"4","last_reported":1742339370,"current_range_meters":9600,"station_id":"ce4bh012rcd13ifvqcv0","pricing_plan_id":"cebpf4jnsgd1na2vs0mg"},{"bike_id":"a342afa1-fe1b-4de5-8f98-f3f81167fac6","system_id":"levelo_inurba_marseille","lat":43.22936,"lon":5.35382,"is_reserved":false,"is_disabled":false,"rental_uris":{"android":"levelo://app?vid=a342afa1-fe1b-4de5-8f98-f3f81167fac6","ios":"levelo://app?vid=a342afa1-fe1b-4de5-8f98-f3f81167fac6"},"vehicle_type_id":"4","last_reported":1742339370,"current_range_meters":9600,"station_id":"cpo3532slgdg3j2ikp40","pricing_plan_id":"cebpf4jnsgd1na2vs0mg"},{"bike_id":"539fc8c4-24e6-4af1-852f-0f9aae2257a1","system_id":"levelo_inurba_marseille","lat":43.23195,"lon":5.35559,"is_reserved":false,"is_disabled":false,"rental_uris":{"android":"levelo://app?vid=539fc8c4-24e6-4af1-852f-0f9aae2257a1","ios":"levelo://app?vid=539fc8c4-24e6-4af1-852f-0f9aae2257a1"},"vehicle_type_id":"4","last_reported":1742339370,"current_range_meters":9600,"station_id":"ce4bhu92rcd13ifvqi70","pricing_plan_id":"cebpf4jnsgd1na2vs0mg"},{"bike_id":"5bead0f2-5ada-420f-bea0-acb8d2ad9da4","system_id":"levelo_inurba_marseille","lat":43.23177,"lon":5.39996,"is_reserved":false,"is_disabled":false,"rental_uris":{"android":"levelo://app?vid=5bead0f2-5ada-420f-bea0-acb8d2ad9da4","ios":"levelo://app?vid=5bead0f2-5ada-420f-bea0-acb8d2ad9da4"},"vehicle_type_id":"4","last_reported":1742339370,"current_range_meters":9600,"station_id":"ce4bhn12rcd13ifvqgqg","pricing_plan_id":"cebpf4jnsgd1na2vs0mg"},{"bike_id":"94b3696b-5482-43da-8d12-ee51a98b38d7","system_id":"levelo_inurba_marseille","lat":43.30876,"lon":5.39644,"is_reserved":false,"is_disabled":false,"rental_uris":{"android":"levelo://app?vid=94b3696b-5482-43da-8d12-ee51a98b38d7","ios":"levelo://app?vid=94b3696b-5482-43da-8d12-ee51a98b38d7"},"vehicle_type_id":"4","last_reported":1742339370,"current_range_meters":9600,"station_id":"ce4bh012rcd13ifvqcv0","pricing_plan_id":"cebpf4jnsgd1na2vs0mg"},{"bike_id":"2e8e2e12-65e7-450a-83a2-d80d023fe506","system_id":"levelo_inurba_marseille","lat":43.31701,"lon":5.40445,"is_reserved":false,"is_disabled":false,"rental_uris":{"android":"levelo://app?vid=2e8e2e12-65e7-450a-83a2-d80d023fe506","ios":"levelo://app?vid=2e8e2e12-65e7-450a-83a2-d80d023fe506"},"vehicle_type_id":"4","last_reported":1742339370,"current_range_meters":9600,"station_id":"ce4bh012rcd13ifvqd00","pricing_plan_id":"cebpf4jnsgd1na2vs0mg"},{"bike_id":"e5121f0f-7c2c-40f2-9de2-92d0b04ec3be","system_id":"levelo_inurba_marseille","lat":43.30928,"lon":5.39629,"is_reserved":false,"is_disabled":false,"rental_uris":{"android":"levelo://app?vid=e5121f0f-7c2c-40f2-9de2-92d0b04ec3be","ios":"levelo://app?vid=e5121f0f-7c2c-40f2-9de2-92d0b04ec3be"},"vehicle_type_id":"4","last_reported":1742339370,"current_range_meters":9600,"station_id":"ce4bh012rcd13ifvqcv0","pricing_plan_id":"cebpf4jnsgd1na2vs0mg"},{"bike_id":"c895a5ca-3768-43b8-8781-71b97b2242ea","system_id":"levelo_inurba_marseille","lat":43.28692,"lon":5.37408,"is_reserved":false,"is_disabled":false,"rental_uris":{"android":"levelo://app?vid=c895a5ca-3768-43b8-8781-71b97b2242ea","ios":"levelo://app?vid=c895a5ca-3768-43b8-8781-71b97b2242ea"},"vehicle_type_id":"4","last_reported":1742339370,"current_range_meters":9600,"station_id":"ce4bh3p2rcd13ifvqdq0","pricing_plan_id":"cebpf4jnsgd1na2vs0mg"},{"bike_id":"89cb3140-d211-4c4d-97ca-7e01c3c4da90","system_id":"levelo_inurba_marseille","lat":43.23198,"lon":5.35561,"is_reserved":false,"is_disabled":false,"rental_uris":{"android":"levelo://app?vid=89cb3140-d211-4c4d-97ca-7e01c3c4da90","ios":"levelo://app?vid=89cb3140-d211-4c4d-97ca-7e01c3c4da90"},"vehicle_type_id":"4","last_reported":1742339370,"current_range_meters":9600,"station_id":"ce4bhu92rcd13ifvqi70","pricing_plan_id":"cebpf4jnsgd1na2vs0mg"},{"bike_id":"a8c89f12-e7b0-458f-b7a3-09032d50c758","system_id":"levelo_inurba_marseille","lat":43.27813,"lon":5.40714,"is_reserved":false,"is_disabled":false,"rental_uris":{"android":"levelo://app?vid=a8c89f12-e7b0-458f-b7a3-09032d50c758","ios":"levelo://app?vid=a8c89f12-e7b0-458f-b7a3-09032d50c758"},"vehicle_type_id":"4","last_reported":1742339370,"current_range_meters":9600,"station_id":"ce4bhnh2rcd13ifvqgtg","pricing_plan_id":"cebpf4jnsgd1na2vs0mg"},{"bike_id":"e9eef05b-c5f6-4f20-9fc3-55fb9768ade2","system_id":"levelo_inurba_marseille","lat":43.28453,"lon":5.35891,"is_reserved":false,"is_disabled":false,"rental_uris":{"android":"levelo://app?vid=e9eef05b-c5f6-4f20-9fc3-55fb9768ade2","ios":"levelo://app?vid=e9eef05b-c5f6-4f20-9fc3-55fb9768ade2"},"vehicle_type_id":"4","last_reported":1742339370,"current_range_meters":9600,"station_id":"ce4bhah2rcd13ifvqei0","pricing_plan_id":"cebpf4jnsgd1na2vs0mg"},{"bike_id":"6b162ed9-3599-4156-a34b-2df90433ae5c","system_id":"levelo_inurba_marseille","lat":43.24174,"lon":5.39749,"is_reserved":false,"is_disabled":false,"rental_uris":{"android":"levelo://app?vid=6b162ed9-3599-4156-a34b-2df90433ae5c","ios":"levelo://app?vid=6b162ed9-3599-4156-a34b-2df90433ae5c"},"vehicle_type_id":"4","last_reported":1742339370,"current_range_meters":9600,"station_id":"ce4bhn12rcd13ifvqgpg","pricing_plan_id":"cebpf4jnsgd1na2vs0mg"},{"bike_id":"402cd330-07f1-43f7-ad4d-be190f776291","system_id":"levelo_inurba_marseille","lat":43.28372,"lon":5.38621,"is_reserved":false,"is_disabled":false,"rental_uris":{"android":"levelo://app?vid=402cd330-07f1-43f7-ad4d-be190f776291","ios":"levelo://app?vid=402cd330-07f1-43f7-ad4d-be190f776291"},"vehicle_type_id":"4","last_reported":1742339370,"current_range_meters":10000,"station_id":"ce4bh492rcd13ifvqdvg","pricing_plan_id":"cebpf4jnsgd1na2vs0mg"},{"bike_id":"82fee542-6fe0-4881-abf3-bf76f21162be","system_id":"levelo_inurba_marseille","lat":43.30654,"lon":5.40077,"is_reserved":false,"is_disabled":false,"rental_uris":{"android":"levelo://app?vid=82fee542-6fe0-4881-abf3-bf76f21162be","ios":"levelo://app?vid=82fee542-6fe0-4881-abf3-bf76f21162be"},"vehicle_type_id":"4","last_reported":1742339370,"current_range_meters":10000,"station_id":"ce4bh112rcd13ifvqda0","pricing_plan_id":"cebpf4jnsgd1na2vs0mg"},{"bike_id":"cb83bb7b-da1e-4e39-8df9-8da005404b0c","system_id":"levelo_inurba_marseille","lat":43.23079,"lon":5.35512,"is_reserved":false,"is_disabled":false,"rental_uris":{"android":"levelo://app?vid=cb83bb7b-da1e-4e39-8df9-8da005404b0c","ios":"levelo://app?vid=cb83bb7b-da1e-4e39-8df9-8da005404b0c"},"vehicle_type_id":"4","last_reported":1742339370,"current_range_meters":10000,"station_id":"cpo3342slgdg3j2ifvpg","pricing_plan_id":"cebpf4jnsgd1na2vs0mg"},{"bike_id":"4b1455e3-a129-4c21-aa44-d1039bebb628","system_id":"levelo_inurba_marseille","lat":43.27813,"lon":5.40732,"is_reserved":false,"is_disabled":false,"rental_uris":{"android":"levelo://app?vid=4b1455e3-a129-4c21-aa44-d1039bebb628","ios":"levelo://app?vid=4b1455e3-a129-4c21-aa44-d1039bebb628"},"vehicle_type_id":"4","last_reported":1742339370,"current_range_meters":10000,"station_id":"ce4bhnh2rcd13ifvqgtg","pricing_plan_id":"cebpf4jnsgd1na2vs0mg"},{"bike_id":"940e816e-4f07-47f8-8676-f1878d791ee8","system_id":"levelo_inurba_marseille","lat":43.25509,"lon":5.37657,"is_reserved":false,"is_disabled":false,"rental_uris":{"android":"levelo://app?vid=940e816e-4f07-47f8-8676-f1878d791ee8","ios":"levelo://app?vid=940e816e-4f07-47f8-8676-f1878d791ee8"},"vehicle_type_id":"4","last_reported":1742339370,"current_range_meters":10000,"station_id":"ce4bhh12rcd13ifvqff0","pricing_plan_id":"cebpf4jnsgd1na2vs0mg"},{"bike_id":"8777ef92-eb8d-4856-bd98-ecafeb780344","system_id":"levelo_inurba_marseille","lat":43.2783,"lon":5.39208,"is_reserved":false,"is_disabled":false,"rental_uris":{"android":"levelo://app?vid=8777ef92-eb8d-4856-bd98-ecafeb780344","ios":"levelo://app?vid=8777ef92-eb8d-4856-bd98-ecafeb780344"},"vehicle_type_id":"4","last_reported":1742339370,"current_range_meters":10000,"station_id":"ce4bhjp2rcd13ifvqga0","pricing_plan_id":"cebpf4jnsgd1na2vs0mg"},{"bike_id":"ab11fa9b-759f-447f-a4f1-b143e2360775","system_id":"levelo_inurba_marseille","lat":43.31343,"lon":5.39171,"is_reserved":false,"is_disabled":false,"rental_uris":{"android":"levelo://app?vid=ab11fa9b-759f-447f-a4f1-b143e2360775","ios":"levelo://app?vid=ab11fa9b-759f-447f-a4f1-b143e2360775"},"vehicle_type_id":"4","last_reported":1742339370,"current_range_meters":10000,"station_id":"","pricing_plan_id":"cebpf4jnsgd1na2vs0mg"},{"bike_id":"2f1d9500-6c1e-424f-b2b7-72959f6413ad","system_id":"levelo_inurba_marseille","lat":43.30665,"lon":5.40066,"is_reserved":false,"is_disabled":false,"rental_uris":{"android":"levelo://app?vid=2f1d9500-6c1e-424f-b2b7-72959f6413ad","ios":"levelo://app?vid=2f1d9500-6c1e-424f-b2b7-72959f6413ad"},"vehicle_type_id":"4","last_reported":1742339370,"current_range_meters":10000,"station_id":"ce4bh112rcd13ifvqda0","pricing_plan_id":"cebpf4jnsgd1na2vs0mg"},{"bike_id":"501f7fd9-069d-4c8f-b512-803a0a667daa","system_id":"levelo_inurba_marseille","lat":43.31701,"lon":5.43704,"is_reserved":false,"is_disabled":false,"rental_uris":{"android":"levelo://app?vid=501f7fd9-069d-4c8f-b512-803a0a667daa","ios":"levelo://app?vid=501f7fd9-069d-4c8f-b512-803a0a667daa"},"vehicle_type_id":"4","last_reported":1742339370,"current_range_meters":10000,"station_id":"ce4bhp92rcd13ifvqhcg","pricing_plan_id":"cebpf4jnsgd1na2vs0mg"},{"bike_id":"7956a227-f2ef-4d59-908d-81de8fca89d3","system_id":"levelo_inurba_marseille","lat":43.29803,"lon":5.4041,"is_reserved":false,"is_disabled":false,"rental_uris":{"android":"levelo://app?vid=7956a227-f2ef-4d59-908d-81de8fca89d3","ios":"levelo://app?vid=7956a227-f2ef-4d59-908d-81de8fca89d3"},"vehicle_type_id":"4","last_reported":1742339370,"current_range_meters":10000,"station_id":"ce4bh112rcd13ifvqd90","pricing_plan_id":"cebpf4jnsgd1na2vs0mg"},{"bike_id":"11bffd4d-691e-479c-be44-e39bfa076b4b","system_id":"levelo_inurba_marseille","lat":43.28446,"lon":5.35897,"is_reserved":false,"is_disabled":false,"rental_uris":{"android":"levelo://app?vid=11bffd4d-691e-479c-be44-e39bfa076b4b","ios":"levelo://app?vid=11bffd4d-691e-479c-be44-e39bfa076b4b"},"vehicle_type_id":"4","last_reported":1742339370,"current_range_meters":10800,"station_id":"ce4bhah2rcd13ifvqei0","pricing_plan_id":"cebpf4jnsgd1na2vs0mg"},{"bike_id":"55998083-611e-4db5-8e11-943be60eb10b","system_id":"levelo_inurba_marseille","lat":43.29042,"lon":5.37562,"is_reserved":false,"is_disabled":false,"rental_uris":{"android":"levelo://app?vid=55998083-611e-4db5-8e11-943be60eb10b","ios":"levelo://app?vid=55998083-611e-4db5-8e11-943be60eb10b"},"vehicle_type_id":"4","last_reported":1742339370,"current_range_meters":10000,"station_id":"ce4bh0p2rcd13ifvqd70","pricing_plan_id":"cebpf4jnsgd1na2vs0mg"},{"bike_id":"5e244767-2fd5-4cae-9f0c-0a11498d0074","system_id":"levelo_inurba_marseille","lat":43.27505,"lon":5.42455,"is_reserved":false,"is_disabled":false,"rental_uris":{"android":"levelo://app?vid=5e244767-2fd5-4cae-9f0c-0a11498d0074","ios":"levelo://app?vid=5e244767-2fd5-4cae-9f0c-0a11498d0074"},"vehicle_type_id":"4","last_reported":1742339370,"current_range_meters":10800,"station_id":"ce4bhn92rcd13ifvqgrg","pricing_plan_id":"cebpf4jnsgd1na2vs0mg"},{"bike_id":"5bc5565f-17ef-4d7e-b4d1-208095449a2e","system_id":"levelo_inurba_marseille","lat":43.28856,"lon":5.39324,"is_reserved":false,"is_disabled":false,"rental_uris":{"android":"levelo://app?vid=5bc5565f-17ef-4d7e-b4d1-208095449a2e","ios":"levelo://app?vid=5bc5565f-17ef-4d7e-b4d1-208095449a2e"},"vehicle_type_id":"4","last_reported":1742339370,"current_range_meters":10800,"station_id":"ce4bh2p2rcd13ifvqdi0","pricing_plan_id":"cebpf4jnsgd1na2vs0mg"},{"bike_id":"4ccc3f56-6ae5-4d6a-9eb1-b86c5e38aaee","system_id":"levelo_inurba_marseille","lat":43.27824,"lon":5.4073,"is_reserved":false,"is_disabled":false,"rental_uris":{"android":"levelo://app?vid=4ccc3f56-6ae5-4d6a-9eb1-b86c5e38aaee","ios":"levelo://app?vid=4ccc3f56-6ae5-4d6a-9eb1-b86c5e38aaee"},"vehicle_type_id":"4","last_reported":1742339370,"current_range_meters":10800,"station_id":"ce4bhnh2rcd13ifvqgtg","pricing_plan_id":"cebpf4jnsgd1na2vs0mg"},{"bike_id":"78270302-d7b6-4dac-a9b0-d0b0726e52ad","system_id":"levelo_inurba_marseille","lat":43.28939,"lon":5.36391,"is_reserved":false,"is_disabled":false,"rental_uris":{"android":"levelo://app?vid=78270302-d7b6-4dac-a9b0-d0b0726e52ad","ios":"levelo://app?vid=78270302-d7b6-4dac-a9b0-d0b0726e52ad"},"vehicle_type_id":"4","last_reported":1742339370,"current_range_meters":10800,"station_id":"ce4bhc92rcd13ifvqetg","pricing_plan_id":"cebpf4jnsgd1na2vs0mg"},{"bike_id":"1179b381-200b-46f2-81ad-dc9a8285a090","system_id":"levelo_inurba_marseille","lat":43.28427,"lon":5.3752,"is_reserved":false,"is_disabled":false,"rental_uris":{"android":"levelo://app?vid=1179b381-200b-46f2-81ad-dc9a8285a090","ios":"levelo://app?vid=1179b381-200b-46f2-81ad-dc9a8285a090"},"vehicle_type_id":"4","last_reported":1742339370,"current_range_meters":10800,"station_id":"ce4bh412rcd13ifvqds0","pricing_plan_id":"cebpf4jnsgd1na2vs0mg"},{"bike_id":"61695125-1062-4217-b2c6-63dac939e629","system_id":"levelo_inurba_marseille","lat":43.30428,"lon":5.38898,"is_reserved":false,"is_disabled":false,"rental_uris":{"android":"levelo://app?vid=61695125-1062-4217-b2c6-63dac939e629","ios":"levelo://app?vid=61695125-1062-4217-b2c6-63dac939e629"},"vehicle_type_id":"4","last_reported":1742339370,"current_range_meters":10800,"station_id":"ce4bgk12rcd13ifvqbi0","pricing_plan_id":"cebpf4jnsgd1na2vs0mg"},{"bike_id":"64531416-61a3-4964-a1c9-d35cc9e385d9","system_id":"levelo_inurba_marseille","lat":43.28854,"lon":5.3931,"is_reserved":false,"is_disabled":false,"rental_uris":{"android":"levelo://app?vid=64531416-61a3-4964-a1c9-d35cc9e385d9","ios":"levelo://app?vid=64531416-61a3-4964-a1c9-d35cc9e385d9"},"vehicle_type_id":"4","last_reported":1742339370,"current_range_meters":10800,"station_id":"ce4bh2p2rcd13ifvqdi0","pricing_plan_id":"cebpf4jnsgd1na2vs0mg"},{"bike_id":"1f4d04b1-8f45-4926-aad8-072dc7b7d942","system_id":"levelo_inurba_marseille","lat":43.28023,"lon":5.36944,"is_reserved":false,"is_disabled":false,"rental_uris":{"android":"levelo://app?vid=1f4d04b1-8f45-4926-aad8-072dc7b7d942","ios":"levelo://app?vid=1f4d04b1-8f45-4926-aad8-072dc7b7d942"},"vehicle_type_id":"4","last_reported":1742339370,"current_range_meters":11200,"station_id":"ce4bha12rcd13ifvqef0","pricing_plan_id":"cebpf4jnsgd1na2vs0mg"},{"bike_id":"2ec39fd8-31c0-4a1c-9211-fcff72c72a67","system_id":"levelo_inurba_marseille","lat":43.28856,"lon":5.39321,"is_reserved":false,"is_disabled":false,"rental_uris":{"android":"levelo://app?vid=2ec39fd8-31c0-4a1c-9211-fcff72c72a67","ios":"levelo://app?vid=2ec39fd8-31c0-4a1c-9211-fcff72c72a67"},"vehicle_type_id":"4","last_reported":1742339370,"current_range_meters":11200,"station_id":"ce4bh2p2rcd13ifvqdi0","pricing_plan_id":"cebpf4jnsgd1na2vs0mg"},{"bike_id":"b132483d-1d99-4f2a-9ca2-8544144e934f","system_id":"levelo_inurba_marseille","lat":43.32364,"lon":5.38902,"is_reserved":false,"is_disabled":false,"rental_uris":{"android":"levelo://app?vid=b132483d-1d99-4f2a-9ca2-8544144e934f","ios":"levelo://app?vid=b132483d-1d99-4f2a-9ca2-8544144e934f"},"vehicle_type_id":"4","last_reported":1742339370,"current_range_meters":11200,"station_id":"ce4bhqp2rcd13ifvqhog","pricing_plan_id":"cebpf4jnsgd1na2vs0mg"},{"bike_id":"b98eff8b-8bbd-44cf-94d7-71a6341eecc2","system_id":"levelo_inurba_marseille","lat":43.23195,"lon":5.39995,"is_reserved":false,"is_disabled":false,"rental_uris":{"android":"levelo://app?vid=b98eff8b-8bbd-44cf-94d7-71a6341eecc2","ios":"levelo://app?vid=b98eff8b-8bbd-44cf-94d7-71a6341eecc2"},"vehicle_type_id":"4","last_reported":1742339370,"current_range_meters":11200,"station_id":"ce4bhn12rcd13ifvqgqg","pricing_plan_id":"cebpf4jnsgd1na2vs0mg"},{"bike_id":"a381e0d0-bcb7-45d3-b76d-d16a1ac24451","system_id":"levelo_inurba_marseille","lat":43.23966,"lon":5.3663,"is_reserved":false,"is_disabled":false,"rental_uris":{"android":"levelo://app?vid=a381e0d0-bcb7-45d3-b76d-d16a1ac24451","ios":"levelo://app?vid=a381e0d0-bcb7-45d3-b76d-d16a1ac24451"},"vehicle_type_id":"4","last_reported":1742339370,"current_range_meters":11200,"station_id":"ce4bhi12rcd13ifvqfp0","pricing_plan_id":"cebpf4jnsgd1na2vs0mg"},{"bike_id":"f142dc05-f5d3-4cbc-afe5-c54cd3d760d6","system_id":"levelo_inurba_marseille","lat":43.28104,"lon":5.39627,"is_reserved":false,"is_disabled":false,"rental_uris":{"android":"levelo://app?vid=f142dc05-f5d3-4cbc-afe5-c54cd3d760d6","ios":"levelo://app?vid=f142dc05-f5d3-4cbc-afe5-c54cd3d760d6"},"vehicle_type_id":"4","last_reported":1742339370,"current_range_meters":11200,"station_id":"ce4bho12rcd13ifvqh2g","pricing_plan_id":"cebpf4jnsgd1na2vs0mg"},{"bike_id":"cabc56a7-dd90-4978-a4aa-b0149cec9ec6","system_id":"levelo_inurba_marseille","lat":43.2549,"lon":5.37645,"is_reserved":false,"is_disabled":false,"rental_uris":{"android":"levelo://app?vid=cabc56a7-dd90-4978-a4aa-b0149cec9ec6","ios":"levelo://app?vid=cabc56a7-dd90-4978-a4aa-b0149cec9ec6"},"vehicle_type_id":"4","last_reported":1742339370,"current_range_meters":11200,"station_id":"ce4bhh12rcd13ifvqff0","pricing_plan_id":"cebpf4jnsgd1na2vs0mg"},{"bike_id":"62f7539b-b047-479e-84e9-11e5c010431d","system_id":"levelo_inurba_marseille","lat":43.30016,"lon":5.40008,"is_reserved":false,"is_disabled":false,"rental_uris":{"android":"levelo://app?vid=62f7539b-b047-479e-84e9-11e5c010431d","ios":"levelo://app?vid=62f7539b-b047-479e-84e9-11e5c010431d"},"vehicle_type_id":"4","last_reported":1742339370,"current_range_meters":11200,"station_id":"","pricing_plan_id":"cebpf4jnsgd1na2vs0mg"},{"bike_id":"7f61d7be-d227-44df-9b33-b8f4965e514f","system_id":"levelo_inurba_marseille","lat":43.23191,"lon":5.35553,"is_reserved":false,"is_disabled":false,"rental_uris":{"android":"levelo://app?vid=7f61d7be-d227-44df-9b33-b8f4965e514f","ios":"levelo://app?vid=7f61d7be-d227-44df-9b33-b8f4965e514f"},"vehicle_type_id":"4","last_reported":1742339370,"current_range_meters":11600,"station_id":"ce4bhu92rcd13ifvqi70","pricing_plan_id":"cebpf4jnsgd1na2vs0mg"},{"bike_id":"8abf66b0-4c7b-4a5b-9216-254c311cdf06","system_id":"levelo_inurba_marseille","lat":43.25577,"lon":5.38217,"is_reserved":false,"is_disabled":false,"rental_uris":{"android":"levelo://app?vid=8abf66b0-4c7b-4a5b-9216-254c311cdf06","ios":"levelo://app?vid=8abf66b0-4c7b-4a5b-9216-254c311cdf06"},"vehicle_type_id":"4","last_reported":1742339370,"current_range_meters":12000,"station_id":"ce4bhih2rcd13ifvqfs0","pricing_plan_id":"cebpf4jnsgd1na2vs0mg"},{"bike_id":"16ce82f4-7642-4d89-bb15-7d2b1d00ed70","system_id":"levelo_inurba_marseille","lat":43.23962,"lon":5.36635,"is_reserved":false,"is_disabled":false,"rental_uris":{"android":"levelo://app?vid=16ce82f4-7642-4d89-bb15-7d2b1d00ed70","ios":"levelo://app?vid=16ce82f4-7642-4d89-bb15-7d2b1d00ed70"},"vehicle_type_id":"4","last_reported":1742339370,"current_range_meters":11600,"station_id":"ce4bhi12rcd13ifvqfp0","pricing_plan_id":"cebpf4jnsgd1na2vs0mg"},{"bike_id":"4dfde5f1-5b7a-4544-af46-1b4f858c8262","system_id":"levelo_inurba_marseille","lat":43.28468,"lon":5.35877,"is_reserved":false,"is_disabled":false,"rental_uris":{"android":"levelo://app?vid=4dfde5f1-5b7a-4544-af46-1b4f858c8262","ios":"levelo://app?vid=4dfde5f1-5b7a-4544-af46-1b4f858c8262"},"vehicle_type_id":"4","last_reported":1742339370,"current_range_meters":11600,"station_id":"ce4bhah2rcd13ifvqei0","pricing_plan_id":"cebpf4jnsgd1na2vs0mg"},{"bike_id":"f11a08fe-db82-4383-972d-a59b584f7666","system_id":"levelo_inurba_marseille","lat":43.297477,"lon":5.380468,"is_reserved":false,"is_disabled":false,"rental_uris":{"android":"levelo://app?vid=f11a08fe-db82-4383-972d-a59b584f7666","ios":"levelo://app?vid=f11a08fe-db82-4383-972d-a59b584f7666"},"vehicle_type_id":"4","last_reported":1742339370,"current_range_meters":11200,"station_id":"ce4bh512rcd13ifvqe3g","pricing_plan_id":"cebpf4jnsgd1na2vs0mg"},{"bike_id":"9c47177a-7452-479f-9af2-f5dddd6db58b","system_id":"levelo_inurba_marseille","lat":43.3303,"lon":5.39044,"is_reserved":false,"is_disabled":false,"rental_uris":{"android":"levelo://app?vid=9c47177a-7452-479f-9af2-f5dddd6db58b","ios":"levelo://app?vid=9c47177a-7452-479f-9af2-f5dddd6db58b"},"vehicle_type_id":"4","last_reported":1742339370,"current_range_meters":11600,"station_id":"ce4bhr92rcd13ifvqhrg","pricing_plan_id":"cebpf4jnsgd1na2vs0mg"},{"bike_id":"bfa40974-876e-403f-8ee9-98898195442a","system_id":"levelo_inurba_marseille","lat":43.28462,"lon":5.35891,"is_reserved":false,"is_disabled":false,"rental_uris":{"android":"levelo://app?vid=bfa40974-876e-403f-8ee9-98898195442a","ios":"levelo://app?vid=bfa40974-876e-403f-8ee9-98898195442a"},"vehicle_type_id":"4","last_reported":1742339370,"current_range_meters":11600,"station_id":"ce4bhah2rcd13ifvqei0","pricing_plan_id":"cebpf4jnsgd1na2vs0mg"},{"bike_id":"7c3baf44-953e-4bba-9100-4685bf1e6739","system_id":"levelo_inurba_marseille","lat":43.2557,"lon":5.38257,"is_reserved":false,"is_disabled":false,"rental_uris":{"android":"levelo://app?vid=7c3baf44-953e-4bba-9100-4685bf1e6739","ios":"levelo://app?vid=7c3baf44-953e-4bba-9100-4685bf1e6739"},"vehicle_type_id":"4","last_reported":1742339370,"current_range_meters":12000,"station_id":"ce4bhih2rcd13ifvqfs0","pricing_plan_id":"cebpf4jnsgd1na2vs0mg"},{"bike_id":"ef512198-3f43-4d32-801b-f63c871c0ea6","system_id":"levelo_inurba_marseille","lat":43.28851,"lon":5.35842,"is_reserved":false,"is_disabled":false,"rental_uris":{"android":"levelo://app?vid=ef512198-3f43-4d32-801b-f63c871c0ea6","ios":"levelo://app?vid=ef512198-3f43-4d32-801b-f63c871c0ea6"},"vehicle_type_id":"4","last_reported":1742339370,"current_range_meters":12000,"station_id":"ce4bhb12rcd13ifvqem0","pricing_plan_id":"cebpf4jnsgd1na2vs0mg"},{"bike_id":"17ec25c1-1b45-4afd-9408-eee2b87d3b9c","system_id":"levelo_inurba_marseille","lat":43.28461,"lon":5.35892,"is_reserved":false,"is_disabled":false,"rental_uris":{"android":"levelo://app?vid=17ec25c1-1b45-4afd-9408-eee2b87d3b9c","ios":"levelo://app?vid=17ec25c1-1b45-4afd-9408-eee2b87d3b9c"},"vehicle_type_id":"4","last_reported":1742339370,"current_range_meters":12000,"station_id":"ce4bhah2rcd13ifvqei0","pricing_plan_id":"cebpf4jnsgd1na2vs0mg"},{"bike_id":"26836c87-2147-41b7-afed-e66458af42b2","system_id":"levelo_inurba_marseille","lat":43.2509,"lon":5.39511,"is_reserved":false,"is_disabled":false,"rental_uris":{"android":"levelo://app?vid=26836c87-2147-41b7-afed-e66458af42b2","ios":"levelo://app?vid=26836c87-2147-41b7-afed-e66458af42b2"},"vehicle_type_id":"4","last_reported":1742339370,"current_range_meters":12000,"station_id":"ce4bhm12rcd13ifvqgkg","pricing_plan_id":"cebpf4jnsgd1na2vs0mg"},{"bike_id":"c2f4da44-a44d-44d2-8be6-51648ee37d7f","system_id":"levelo_inurba_marseille","lat":43.25019,"lon":5.3894,"is_reserved":false,"is_disabled":false,"rental_uris":{"android":"levelo://app?vid=c2f4da44-a44d-44d2-8be6-51648ee37d7f","ios":"levelo://app?vid=c2f4da44-a44d-44d2-8be6-51648ee37d7f"},"vehicle_type_id":"4","last_reported":1742339370,"current_range_meters":12000,"station_id":"ce4bhgp2rcd13ifvqfd0","pricing_plan_id":"cebpf4jnsgd1na2vs0mg"},{"bike_id":"f1f53c30-eb7d-4de9-8c57-791d54fe0f0d","system_id":"levelo_inurba_marseille","lat":43.31765,"lon":5.39019,"is_reserved":false,"is_disabled":false,"rental_uris":{"android":"levelo://app?vid=f1f53c30-eb7d-4de9-8c57-791d54fe0f0d","ios":"levelo://app?vid=f1f53c30-eb7d-4de9-8c57-791d54fe0f0d"},"vehicle_type_id":"4","last_reported":1742339370,"current_range_meters":12000,"station_id":"ce4bhqp2rcd13ifvqhng","pricing_plan_id":"cebpf4jnsgd1na2vs0mg"},{"bike_id":"a5e8f473-aa6c-4777-89f9-e32962516134","system_id":"levelo_inurba_marseille","lat":43.275541,"lon":5.389525,"is_reserved":false,"is_disabled":false,"rental_uris":{"android":"levelo://app?vid=a5e8f473-aa6c-4777-89f9-e32962516134","ios":"levelo://app?vid=a5e8f473-aa6c-4777-89f9-e32962516134"},"vehicle_type_id":"4","last_reported":1742339370,"current_range_meters":11600,"station_id":"ce4bhmp2rcd13ifvqgog","pricing_plan_id":"cebpf4jnsgd1na2vs0mg"},{"bike_id":"bb78a1d1-78ba-4f37-81f4-87b10a1775a5","system_id":"levelo_inurba_marseille","lat":43.32108,"lon":5.36788,"is_reserved":false,"is_disabled":false,"rental_uris":{"android":"levelo://app?vid=bb78a1d1-78ba-4f37-81f4-87b10a1775a5","ios":"levelo://app?vid=bb78a1d1-78ba-4f37-81f4-87b10a1775a5"},"vehicle_type_id":"4","last_reported":1742339370,"current_range_meters":12400,"station_id":"ce4bhrh2rcd13ifvqhug","pricing_plan_id":"cebpf4jnsgd1na2vs0mg"},{"bike_id":"44a4af3e-84f5-4f54-943d-83cf9fa4d793","system_id":"levelo_inurba_marseille","lat":43.27825,"lon":5.40716,"is_reserved":false,"is_disabled":false,"rental_uris":{"android":"levelo://app?vid=44a4af3e-84f5-4f54-943d-83cf9fa4d793","ios":"levelo://app?vid=44a4af3e-84f5-4f54-943d-83cf9fa4d793"},"vehicle_type_id":"4","last_reported":1742339370,"current_range_meters":12400,"station_id":"ce4bhnh2rcd13ifvqgtg","pricing_plan_id":"cebpf4jnsgd1na2vs0mg"},{"bike_id":"3455258b-4135-46b9-9a26-10bf95160e40","system_id":"levelo_inurba_marseille","lat":43.23191,"lon":5.35557,"is_reserved":false,"is_disabled":false,"rental_uris":{"android":"levelo://app?vid=3455258b-4135-46b9-9a26-10bf95160e40","ios":"levelo://app?vid=3455258b-4135-46b9-9a26-10bf95160e40"},"vehicle_type_id":"4","last_reported":1742339370,"current_range_meters":12400,"station_id":"ce4bhu92rcd13ifvqi70","pricing_plan_id":"cebpf4jnsgd1na2vs0mg"},{"bike_id":"c86606fb-02b2-4f0b-bfbb-8669e1c8bf82","system_id":"levelo_inurba_marseille","lat":43.31175,"lon":5.38717,"is_reserved":false,"is_disabled":false,"rental_uris":{"android":"levelo://app?vid=c86606fb-02b2-4f0b-bfbb-8669e1c8bf82","ios":"levelo://app?vid=c86606fb-02b2-4f0b-bfbb-8669e1c8bf82"},"vehicle_type_id":"4","last_reported":1742339370,"current_range_meters":12400,"station_id":"ce4bgv12rcd13ifvqcp0","pricing_plan_id":"cebpf4jnsgd1na2vs0mg"},{"bike_id":"f31fd8fc-38af-431a-83a8-4d065c63a44e","system_id":"levelo_inurba_marseille","lat":43.28367,"lon":5.38629,"is_reserved":false,"is_disabled":false,"rental_uris":{"android":"levelo://app?vid=f31fd8fc-38af-431a-83a8-4d065c63a44e","ios":"levelo://app?vid=f31fd8fc-38af-431a-83a8-4d065c63a44e"},"vehicle_type_id":"4","last_reported":1742339370,"current_range_meters":12400,"station_id":"ce4bh492rcd13ifvqdvg","pricing_plan_id":"cebpf4jnsgd1na2vs0mg"},{"bike_id":"06a6152a-e477-491f-83ed-9b68fd573e32","system_id":"levelo_inurba_marseille","lat":43.25823,"lon":5.39436,"is_reserved":false,"is_disabled":false,"rental_uris":{"android":"levelo://app?vid=06a6152a-e477-491f-83ed-9b68fd573e32","ios":"levelo://app?vid=06a6152a-e477-491f-83ed-9b68fd573e32"},"vehicle_type_id":"4","last_reported":1742339370,"current_range_meters":12400,"station_id":"ce4bhip2rcd13ifvqft0","pricing_plan_id":"cebpf4jnsgd1na2vs0mg"},{"bike_id":"78c7f344-224f-4ee1-abbd-94f4d94ef023","system_id":"levelo_inurba_marseille","lat":43.23968,"lon":5.36642,"is_reserved":false,"is_disabled":true,"rental_uris":{"android":"levelo://app?vid=78c7f344-224f-4ee1-abbd-94f4d94ef023","ios":"levelo://app?vid=78c7f344-224f-4ee1-abbd-94f4d94ef023"},"vehicle_type_id":"4","last_reported":1742339370,"current_range_meters":12800,"station_id":"ce4bhi12rcd13ifvqfp0","pricing_plan_id":"cebpf4jnsgd1na2vs0mg"},{"bike_id":"e60c1153-ceb4-4f72-92cd-2dc1051b5e4c","system_id":"levelo_inurba_marseille","lat":43.26066,"lon":5.39392,"is_reserved":false,"is_disabled":true,"rental_uris":{"android":"levelo://app?vid=e60c1153-ceb4-4f72-92cd-2dc1051b5e4c","ios":"levelo://app?vid=e60c1153-ceb4-4f72-92cd-2dc1051b5e4c"},"vehicle_type_id":"4","last_reported":1742339370,"current_range_meters":12800,"station_id":"ce4bhh92rcd13ifvqfj0","pricing_plan_id":"cebpf4jnsgd1na2vs0mg"},{"bike_id":"9ca3bb79-a2d6-4b1d-bacb-81aee7604188","system_id":"levelo_inurba_marseille","lat":43.28563,"lon":5.39482,"is_reserved":false,"is_disabled":false,"rental_uris":{"android":"levelo://app?vid=9ca3bb79-a2d6-4b1d-bacb-81aee7604188","ios":"levelo://app?vid=9ca3bb79-a2d6-4b1d-bacb-81aee7604188"},"vehicle_type_id":"4","last_reported":1742339370,"current_range_meters":12800,"station_id":"ce4bh292rcd13ifvqdg0","pricing_plan_id":"cebpf4jnsgd1na2vs0mg"},{"bike_id":"f4165607-80d2-4e6e-8b9c-c523c42872fb","system_id":"levelo_inurba_marseille","lat":43.24793,"lon":5.3745,"is_reserved":false,"is_disabled":false,"rental_uris":{"android":"levelo://app?vid=f4165607-80d2-4e6e-8b9c-c523c42872fb","ios":"levelo://app?vid=f4165607-80d2-4e6e-8b9c-c523c42872fb"},"vehicle_type_id":"4","last_reported":1742339370,"current_range_meters":12800,"station_id":"ce4bhgh2rcd13ifvqfb0","pricing_plan_id":"cebpf4jnsgd1na2vs0mg"},{"bike_id":"3b87c00a-8de2-4684-b738-94eb18e3ddb2","system_id":"levelo_inurba_marseille","lat":43.29275,"lon":5.40116,"is_reserved":false,"is_disabled":false,"rental_uris":{"android":"levelo://app?vid=3b87c00a-8de2-4684-b738-94eb18e3ddb2","ios":"levelo://app?vid=3b87c00a-8de2-4684-b738-94eb18e3ddb2"},"vehicle_type_id":"4","last_reported":1742339370,"current_range_meters":12800,"station_id":"ce4bh312rcd13ifvqdk0","pricing_plan_id":"cebpf4jnsgd1na2vs0mg"},{"bike_id":"116cee39-a217-4510-919a-c365ec655e68","system_id":"levelo_inurba_marseille","lat":43.27806,"lon":5.4073,"is_reserved":false,"is_disabled":false,"rental_uris":{"android":"levelo://app?vid=116cee39-a217-4510-919a-c365ec655e68","ios":"levelo://app?vid=116cee39-a217-4510-919a-c365ec655e68"},"vehicle_type_id":"4","last_reported":1742339370,"current_range_meters":12800,"station_id":"ce4bhnh2rcd13ifvqgtg","pricing_plan_id":"cebpf4jnsgd1na2vs0mg"},{"bike_id":"40519983-510e-4b9a-9562-e0995123f6e0","system_id":"levelo_inurba_marseille","lat":43.23194,"lon":5.35549,"is_reserved":false,"is_disabled":false,"rental_uris":{"android":"levelo://app?vid=40519983-510e-4b9a-9562-e0995123f6e0","ios":"levelo://app?vid=40519983-510e-4b9a-9562-e0995123f6e0"},"vehicle_type_id":"4","last_reported":1742339370,"current_range_meters":12800,"station_id":"ce4bhu92rcd13ifvqi70","pricing_plan_id":"cebpf4jnsgd1na2vs0mg"},{"bike_id":"94344c0c-c86f-4e16-b61d-11aacc1b7580","system_id":"levelo_inurba_marseille","lat":43.28718,"lon":5.46609,"is_reserved":false,"is_disabled":false,"rental_uris":{"android":"levelo://app?vid=94344c0c-c86f-4e16-b61d-11aacc1b7580","ios":"levelo://app?vid=94344c0c-c86f-4e16-b61d-11aacc1b7580"},"vehicle_type_id":"4","last_reported":1742339370,"current_range_meters":12800,"station_id":"","pricing_plan_id":"cebpf4jnsgd1na2vs0mg"},{"bike_id":"89a66d15-b2b9-456f-bf55-c28ef57a6652","system_id":"levelo_inurba_marseille","lat":43.29044,"lon":5.35919,"is_reserved":false,"is_disabled":false,"rental_uris":{"android":"levelo://app?vid=89a66d15-b2b9-456f-bf55-c28ef57a6652","ios":"levelo://app?vid=89a66d15-b2b9-456f-bf55-c28ef57a6652"},"vehicle_type_id":"4","last_reported":1742339370,"current_range_meters":12800,"station_id":"ce4bha92rcd13ifvqeg0","pricing_plan_id":"cebpf4jnsgd1na2vs0mg"},{"bike_id":"3259b682-e4dc-4a27-895a-2ee089a67444","system_id":"levelo_inurba_marseille","lat":43.28619,"lon":5.41271,"is_reserved":false,"is_disabled":false,"rental_uris":{"android":"levelo://app?vid=3259b682-e4dc-4a27-895a-2ee089a67444","ios":"levelo://app?vid=3259b682-e4dc-4a27-895a-2ee089a67444"},"vehicle_type_id":"4","last_reported":1742339370,"current_range_meters":12800,"station_id":"","pricing_plan_id":"cebpf4jnsgd1na2vs0mg"},{"bike_id":"3e3eec19-08e7-4fac-831e-625d28c60a46","system_id":"levelo_inurba_marseille","lat":43.29194,"lon":5.39326,"is_reserved":false,"is_disabled":false,"rental_uris":{"android":"levelo://app?vid=3e3eec19-08e7-4fac-831e-625d28c60a46","ios":"levelo://app?vid=3e3eec19-08e7-4fac-831e-625d28c60a46"},"vehicle_type_id":"4","last_reported":1742339370,"current_range_meters":13600,"station_id":"ce4bh192rcd13ifvqdd0","pricing_plan_id":"cebpf4jnsgd1na2vs0mg"},{"bike_id":"310f46b7-baff-48e5-91fc-158b8213c7b5","system_id":"levelo_inurba_marseille","lat":43.3149,"lon":5.37315,"is_reserved":false,"is_disabled":false,"rental_uris":{"android":"levelo://app?vid=310f46b7-baff-48e5-91fc-158b8213c7b5","ios":"levelo://app?vid=310f46b7-baff-48e5-91fc-158b8213c7b5"},"vehicle_type_id":"4","last_reported":1742339370,"current_range_meters":13600,"station_id":"ce4bgt12rcd13ifvqcd0","pricing_plan_id":"cebpf4jnsgd1na2vs0mg"},{"bike_id":"26c3156d-8d38-4b11-92b6-f3f49ed4bf9b","system_id":"levelo_inurba_marseille","lat":43.27931,"lon":5.41199,"is_reserved":false,"is_disabled":false,"rental_uris":{"android":"levelo://app?vid=26c3156d-8d38-4b11-92b6-f3f49ed4bf9b","ios":"levelo://app?vid=26c3156d-8d38-4b11-92b6-f3f49ed4bf9b"},"vehicle_type_id":"4","last_reported":1742339370,"current_range_meters":13600,"station_id":"","pricing_plan_id":"cebpf4jnsgd1na2vs0mg"},{"bike_id":"eb1bdab6-cce9-43ab-9ab1-efcd014e54ae","system_id":"levelo_inurba_marseille","lat":43.29031,"lon":5.35937,"is_reserved":false,"is_disabled":false,"rental_uris":{"android":"levelo://app?vid=eb1bdab6-cce9-43ab-9ab1-efcd014e54ae","ios":"levelo://app?vid=eb1bdab6-cce9-43ab-9ab1-efcd014e54ae"},"vehicle_type_id":"4","last_reported":1742339370,"current_range_meters":13600,"station_id":"ce4bha92rcd13ifvqeg0","pricing_plan_id":"cebpf4jnsgd1na2vs0mg"},{"bike_id":"ff86712d-eba7-428c-a27a-b44da8f810ed","system_id":"levelo_inurba_marseille","lat":43.28479,"lon":5.38451,"is_reserved":false,"is_disabled":false,"rental_uris":{"android":"levelo://app?vid=ff86712d-eba7-428c-a27a-b44da8f810ed","ios":"levelo://app?vid=ff86712d-eba7-428c-a27a-b44da8f810ed"},"vehicle_type_id":"4","last_reported":1742339370,"current_range_meters":14000,"station_id":"ce4bh512rcd13ifvqe3g","pricing_plan_id":"cebpf4jnsgd1na2vs0mg"},{"bike_id":"aadb2f8c-155c-4734-84dd-a0e3df2d0be8","system_id":"levelo_inurba_marseille","lat":43.30798,"lon":5.43528,"is_reserved":false,"is_disabled":false,"rental_uris":{"android":"levelo://app?vid=aadb2f8c-155c-4734-84dd-a0e3df2d0be8","ios":"levelo://app?vid=aadb2f8c-155c-4734-84dd-a0e3df2d0be8"},"vehicle_type_id":"4","last_reported":1742339370,"current_range_meters":13600,"station_id":"ce4bhph2rcd13ifvqheg","pricing_plan_id":"cebpf4jnsgd1na2vs0mg"},{"bike_id":"14040204-5465-4db0-ab0e-41e91dfa7e0d","system_id":"levelo_inurba_marseille","lat":43.31413,"lon":5.37468,"is_reserved":false,"is_disabled":false,"rental_uris":{"android":"levelo://app?vid=14040204-5465-4db0-ab0e-41e91dfa7e0d","ios":"levelo://app?vid=14040204-5465-4db0-ab0e-41e91dfa7e0d"},"vehicle_type_id":"4","last_reported":1742339370,"current_range_meters":14000,"station_id":"","pricing_plan_id":"cebpf4jnsgd1na2vs0mg"},{"bike_id":"3a93b571-ed30-4cd4-aca9-8a8fdc87a1c6","system_id":"levelo_inurba_marseille","lat":43.23969,"lon":5.36634,"is_reserved":false,"is_disabled":false,"rental_uris":{"android":"levelo://app?vid=3a93b571-ed30-4cd4-aca9-8a8fdc87a1c6","ios":"levelo://app?vid=3a93b571-ed30-4cd4-aca9-8a8fdc87a1c6"},"vehicle_type_id":"4","last_reported":1742339370,"current_range_meters":14000,"station_id":"ce4bhi12rcd13ifvqfp0","pricing_plan_id":"cebpf4jnsgd1na2vs0mg"},{"bike_id":"f7ec7579-ce4b-4e1f-8f96-ae037f27d71a","system_id":"levelo_inurba_marseille","lat":43.28628,"lon":5.35104,"is_reserved":false,"is_disabled":false,"rental_uris":{"android":"levelo://app?vid=f7ec7579-ce4b-4e1f-8f96-ae037f27d71a","ios":"levelo://app?vid=f7ec7579-ce4b-4e1f-8f96-ae037f27d71a"},"vehicle_type_id":"4","last_reported":1742339370,"current_range_meters":14000,"station_id":"ce4bhch2rcd13ifvqeug","pricing_plan_id":"cebpf4jnsgd1na2vs0mg"},{"bike_id":"f1dcd5b6-294c-4f9f-a5dc-52ba2710eacb","system_id":"levelo_inurba_marseille","lat":43.23196,"lon":5.40019,"is_reserved":false,"is_disabled":false,"rental_uris":{"android":"levelo://app?vid=f1dcd5b6-294c-4f9f-a5dc-52ba2710eacb","ios":"levelo://app?vid=f1dcd5b6-294c-4f9f-a5dc-52ba2710eacb"},"vehicle_type_id":"4","last_reported":1742339370,"current_range_meters":14000,"station_id":"ce4bhn12rcd13ifvqgqg","pricing_plan_id":"cebpf4jnsgd1na2vs0mg"},{"bike_id":"a1b6a2d3-5e84-4afd-bf8d-fb4e0c1a5cd1","system_id":"levelo_inurba_marseille","lat":43.28079,"lon":5.39654,"is_reserved":false,"is_disabled":false,"rental_uris":{"android":"levelo://app?vid=a1b6a2d3-5e84-4afd-bf8d-fb4e0c1a5cd1","ios":"levelo://app?vid=a1b6a2d3-5e84-4afd-bf8d-fb4e0c1a5cd1"},"vehicle_type_id":"4","last_reported":1742339370,"current_range_meters":14000,"station_id":"ce4bho12rcd13ifvqh2g","pricing_plan_id":"cebpf4jnsgd1na2vs0mg"},{"bike_id":"c03bf0bc-bd13-4839-83fb-cde67bd118c3","system_id":"levelo_inurba_marseille","lat":43.2749,"lon":5.42478,"is_reserved":false,"is_disabled":false,"rental_uris":{"android":"levelo://app?vid=c03bf0bc-bd13-4839-83fb-cde67bd118c3","ios":"levelo://app?vid=c03bf0bc-bd13-4839-83fb-cde67bd118c3"},"vehicle_type_id":"4","last_reported":1742339370,"current_range_meters":14000,"station_id":"ce4bhn92rcd13ifvqgrg","pricing_plan_id":"cebpf4jnsgd1na2vs0mg"},{"bike_id":"c956f6d8-2c15-448e-b773-af7fda1bb067","system_id":"levelo_inurba_marseille","lat":43.28615,"lon":5.37063,"is_reserved":false,"is_disabled":false,"rental_uris":{"android":"levelo://app?vid=c956f6d8-2c15-448e-b773-af7fda1bb067","ios":"levelo://app?vid=c956f6d8-2c15-448e-b773-af7fda1bb067"},"vehicle_type_id":"4","last_reported":1742339370,"current_range_meters":14000,"station_id":"ce4bht12rcd13ifvqi60","pricing_plan_id":"cebpf4jnsgd1na2vs0mg"},{"bike_id":"4a529a04-a02c-489b-b187-392d4992e8e1","system_id":"levelo_inurba_marseille","lat":43.268,"lon":5.40254,"is_reserved":false,"is_disabled":false,"rental_uris":{"android":"levelo://app?vid=4a529a04-a02c-489b-b187-392d4992e8e1","ios":"levelo://app?vid=4a529a04-a02c-489b-b187-392d4992e8e1"},"vehicle_type_id":"4","last_reported":1742339370,"current_range_meters":14000,"station_id":"ce501612rcd8frsf0b60","pricing_plan_id":"cebpf4jnsgd1na2vs0mg"},{"bike_id":"d92b2aca-e173-4b5d-8754-67afd6d56858","system_id":"levelo_inurba_marseille","lat":43.28445,"lon":5.35907,"is_reserved":false,"is_disabled":false,"rental_uris":{"android":"levelo://app?vid=d92b2aca-e173-4b5d-8754-67afd6d56858","ios":"levelo://app?vid=d92b2aca-e173-4b5d-8754-67afd6d56858"},"vehicle_type_id":"4","last_reported":1742339370,"current_range_meters":14000,"station_id":"ce4bhah2rcd13ifvqei0","pricing_plan_id":"cebpf4jnsgd1na2vs0mg"},{"bike_id":"d94fe435-6c41-4ce1-86a7-3ed7dc60530f","system_id":"levelo_inurba_marseille","lat":43.27826,"lon":5.39182,"is_reserved":false,"is_disabled":false,"rental_uris":{"android":"levelo://app?vid=d94fe435-6c41-4ce1-86a7-3ed7dc60530f","ios":"levelo://app?vid=d94fe435-6c41-4ce1-86a7-3ed7dc60530f"},"vehicle_type_id":"4","last_reported":1742339370,"current_range_meters":14400,"station_id":"ce4bhjp2rcd13ifvqga0","pricing_plan_id":"cebpf4jnsgd1na2vs0mg"},{"bike_id":"14472cba-474a-463f-9349-ad6def357643","system_id":"levelo_inurba_marseille","lat":43.2827,"lon":5.35078,"is_reserved":false,"is_disabled":false,"rental_uris":{"android":"levelo://app?vid=14472cba-474a-463f-9349-ad6def357643","ios":"levelo://app?vid=14472cba-474a-463f-9349-ad6def357643"},"vehicle_type_id":"4","last_reported":1742339370,"current_range_meters":14400,"station_id":"ce4bhbp2rcd13ifvqerg","pricing_plan_id":"cebpf4jnsgd1na2vs0mg"},{"bike_id":"853e1884-4cb0-4144-8bc9-fdee30f7f87d","system_id":"levelo_inurba_marseille","lat":43.28032,"lon":5.36957,"is_reserved":false,"is_disabled":false,"rental_uris":{"android":"levelo://app?vid=853e1884-4cb0-4144-8bc9-fdee30f7f87d","ios":"levelo://app?vid=853e1884-4cb0-4144-8bc9-fdee30f7f87d"},"vehicle_type_id":"4","last_reported":1742339370,"current_range_meters":14400,"station_id":"ce4bha12rcd13ifvqef0","pricing_plan_id":"cebpf4jnsgd1na2vs0mg"},{"bike_id":"4235ddf1-65af-41c3-b42d-33b46c66dc76","system_id":"levelo_inurba_marseille","lat":43.30928,"lon":5.40166,"is_reserved":false,"is_disabled":false,"rental_uris":{"android":"levelo://app?vid=4235ddf1-65af-41c3-b42d-33b46c66dc76","ios":"levelo://app?vid=4235ddf1-65af-41c3-b42d-33b46c66dc76"},"vehicle_type_id":"4","last_reported":1742339370,"current_range_meters":14400,"station_id":"ce4bgvp2rcd13ifvqct0","pricing_plan_id":"cebpf4jnsgd1na2vs0mg"},{"bike_id":"d0b6bb68-002e-46bf-93dd-b7e833c43fb4","system_id":"levelo_inurba_marseille","lat":43.28096,"lon":5.37854,"is_reserved":false,"is_disabled":false,"rental_uris":{"android":"levelo://app?vid=d0b6bb68-002e-46bf-93dd-b7e833c43fb4","ios":"levelo://app?vid=d0b6bb68-002e-46bf-93dd-b7e833c43fb4"},"vehicle_type_id":"4","last_reported":1742339370,"current_range_meters":14400,"station_id":"ce4bha12rcd13ifvqee0","pricing_plan_id":"cebpf4jnsgd1na2vs0mg"},{"bike_id":"75e8bee3-0a10-4522-9d7e-72ece2846129","system_id":"levelo_inurba_marseille","lat":43.33018,"lon":5.39044,"is_reserved":false,"is_disabled":false,"rental_uris":{"android":"levelo://app?vid=75e8bee3-0a10-4522-9d7e-72ece2846129","ios":"levelo://app?vid=75e8bee3-0a10-4522-9d7e-72ece2846129"},"vehicle_type_id":"4","last_reported":1742339370,"current_range_meters":14400,"station_id":"ce4bhr92rcd13ifvqhrg","pricing_plan_id":"cebpf4jnsgd1na2vs0mg"},{"bike_id":"92d8111d-dc94-481c-a128-adb8a5cd5d90","system_id":"levelo_inurba_marseille","lat":43.26218,"lon":5.40462,"is_reserved":false,"is_disabled":false,"rental_uris":{"android":"levelo://app?vid=92d8111d-dc94-481c-a128-adb8a5cd5d90","ios":"levelo://app?vid=92d8111d-dc94-481c-a128-adb8a5cd5d90"},"vehicle_type_id":"4","last_reported":1742339370,"current_range_meters":14400,"station_id":"ce4bhmh2rcd13ifvqgmg","pricing_plan_id":"cebpf4jnsgd1na2vs0mg"},{"bike_id":"7f163f46-0b1a-48f7-a16d-cd7ab1e422bc","system_id":"levelo_inurba_marseille","lat":43.26575,"lon":5.37306,"is_reserved":false,"is_disabled":false,"rental_uris":{"android":"levelo://app?vid=7f163f46-0b1a-48f7-a16d-cd7ab1e422bc","ios":"levelo://app?vid=7f163f46-0b1a-48f7-a16d-cd7ab1e422bc"},"vehicle_type_id":"4","last_reported":1742339370,"current_range_meters":14800,"station_id":"ce4bhg12rcd13ifvqf70","pricing_plan_id":"cebpf4jnsgd1na2vs0mg"},{"bike_id":"e62c4628-e02c-4d18-93a4-2f038fe4001c","system_id":"levelo_inurba_marseille","lat":43.27502,"lon":5.42455,"is_reserved":false,"is_disabled":false,"rental_uris":{"android":"levelo://app?vid=e62c4628-e02c-4d18-93a4-2f038fe4001c","ios":"levelo://app?vid=e62c4628-e02c-4d18-93a4-2f038fe4001c"},"vehicle_type_id":"4","last_reported":1742339370,"current_range_meters":14800,"station_id":"ce4bhn92rcd13ifvqgrg","pricing_plan_id":"cebpf4jnsgd1na2vs0mg"},{"bike_id":"54bd6fce-e507-4a19-8c58-aa8ec0c09b61","system_id":"levelo_inurba_marseille","lat":43.2623,"lon":5.40451,"is_reserved":false,"is_disabled":false,"rental_uris":{"android":"levelo://app?vid=54bd6fce-e507-4a19-8c58-aa8ec0c09b61","ios":"levelo://app?vid=54bd6fce-e507-4a19-8c58-aa8ec0c09b61"},"vehicle_type_id":"4","last_reported":1742339370,"current_range_meters":14800,"station_id":"ce4bhmh2rcd13ifvqgmg","pricing_plan_id":"cebpf4jnsgd1na2vs0mg"},{"bike_id":"b3989805-db29-4f7e-8902-c5747e3a3042","system_id":"levelo_inurba_marseille","lat":43.28459,"lon":5.35889,"is_reserved":false,"is_disabled":false,"rental_uris":{"android":"levelo://app?vid=b3989805-db29-4f7e-8902-c5747e3a3042","ios":"levelo://app?vid=b3989805-db29-4f7e-8902-c5747e3a3042"},"vehicle_type_id":"4","last_reported":1742339370,"current_range_meters":14800,"station_id":"ce4bhah2rcd13ifvqei0","pricing_plan_id":"cebpf4jnsgd1na2vs0mg"},{"bike_id":"d90e3abc-164c-428e-845a-6e3ed94f24b5","system_id":"levelo_inurba_marseille","lat":43.26557,"lon":5.37302,"is_reserved":false,"is_disabled":false,"rental_uris":{"android":"levelo://app?vid=d90e3abc-164c-428e-845a-6e3ed94f24b5","ios":"levelo://app?vid=d90e3abc-164c-428e-845a-6e3ed94f24b5"},"vehicle_type_id":"4","last_reported":1742339370,"current_range_meters":14800,"station_id":"ce4bhg12rcd13ifvqf70","pricing_plan_id":"cebpf4jnsgd1na2vs0mg"},{"bike_id":"f97f3241-4274-4450-af5d-8c68f271d09d","system_id":"levelo_inurba_marseille","lat":43.29029,"lon":5.38664,"is_reserved":false,"is_disabled":true,"rental_uris":{"android":"levelo://app?vid=f97f3241-4274-4450-af5d-8c68f271d09d","ios":"levelo://app?vid=f97f3241-4274-4450-af5d-8c68f271d09d"},"vehicle_type_id":"4","last_reported":1742339370,"current_range_meters":14800,"station_id":"ce4bh4p2rcd13ifvqe0g","pricing_plan_id":"cebpf4jnsgd1na2vs0mg"},{"bike_id":"84e141f2-a01b-47bf-b16e-31262f0bfcf2","system_id":"levelo_inurba_marseille","lat":43.24073,"lon":5.37758,"is_reserved":false,"is_disabled":false,"rental_uris":{"android":"levelo://app?vid=84e141f2-a01b-47bf-b16e-31262f0bfcf2","ios":"levelo://app?vid=84e141f2-a01b-47bf-b16e-31262f0bfcf2"},"vehicle_type_id":"4","last_reported":1742339370,"current_range_meters":14800,"station_id":"ce4bhnp2rcd13ifvqgvg","pricing_plan_id":"cebpf4jnsgd1na2vs0mg"},{"bike_id":"4678ae0e-abb3-49dd-8228-decb0d66759f","system_id":"levelo_inurba_marseille","lat":43.31753,"lon":5.39022,"is_reserved":false,"is_disabled":false,"rental_uris":{"android":"levelo://app?vid=4678ae0e-abb3-49dd-8228-decb0d66759f","ios":"levelo://app?vid=4678ae0e-abb3-49dd-8228-decb0d66759f"},"vehicle_type_id":"4","last_reported":1742339370,"current_range_meters":14800,"station_id":"ce4bhqp2rcd13ifvqhng","pricing_plan_id":"cebpf4jnsgd1na2vs0mg"},{"bike_id":"998a35b2-40fd-4a03-86b3-3837604073cc","system_id":"levelo_inurba_marseille","lat":43.27812,"lon":5.39225,"is_reserved":false,"is_disabled":false,"rental_uris":{"android":"levelo://app?vid=998a35b2-40fd-4a03-86b3-3837604073cc","ios":"levelo://app?vid=998a35b2-40fd-4a03-86b3-3837604073cc"},"vehicle_type_id":"4","last_reported":1742339370,"current_range_meters":14800,"station_id":"ce4bhjp2rcd13ifvqga0","pricing_plan_id":"cebpf4jnsgd1na2vs0mg"},{"bike_id":"f8a76e32-3fd7-414e-8564-7e3717cd51c6","system_id":"levelo_inurba_marseille","lat":43.28114,"lon":5.37861,"is_reserved":false,"is_disabled":false,"rental_uris":{"android":"levelo://app?vid=f8a76e32-3fd7-414e-8564-7e3717cd51c6","ios":"levelo://app?vid=f8a76e32-3fd7-414e-8564-7e3717cd51c6"},"vehicle_type_id":"4","last_reported":1742339370,"current_range_meters":15200,"station_id":"ce4bha12rcd13ifvqee0","pricing_plan_id":"cebpf4jnsgd1na2vs0mg"},{"bike_id":"bb097255-d690-467a-8482-62098ab4ec68","system_id":"levelo_inurba_marseille","lat":43.29628,"lon":5.4059,"is_reserved":false,"is_disabled":false,"rental_uris":{"android":"levelo://app?vid=bb097255-d690-467a-8482-62098ab4ec68","ios":"levelo://app?vid=bb097255-d690-467a-8482-62098ab4ec68"},"vehicle_type_id":"4","last_reported":1742339370,"current_range_meters":14800,"station_id":"ce4bh0h2rcd13ifvqd60","pricing_plan_id":"cebpf4jnsgd1na2vs0mg"},{"bike_id":"e069311e-65a1-45dd-8075-94eb5be708a1","system_id":"levelo_inurba_marseille","lat":43.30419,"lon":5.41287,"is_reserved":false,"is_disabled":false,"rental_uris":{"android":"levelo://app?vid=e069311e-65a1-45dd-8075-94eb5be708a1","ios":"levelo://app?vid=e069311e-65a1-45dd-8075-94eb5be708a1"},"vehicle_type_id":"4","last_reported":1742339370,"current_range_meters":15200,"station_id":"ce4bhop2rcd13ifvqh8g","pricing_plan_id":"cebpf4jnsgd1na2vs0mg"},{"bike_id":"176d2e0b-da43-4b98-b92e-b45d4ab12b2f","system_id":"levelo_inurba_marseille","lat":43.30214,"lon":5.38452,"is_reserved":false,"is_disabled":false,"rental_uris":{"android":"levelo://app?vid=176d2e0b-da43-4b98-b92e-b45d4ab12b2f","ios":"levelo://app?vid=176d2e0b-da43-4b98-b92e-b45d4ab12b2f"},"vehicle_type_id":"4","last_reported":1742339370,"current_range_meters":15200,"station_id":"","pricing_plan_id":"cebpf4jnsgd1na2vs0mg"},{"bike_id":"d7f2963b-8e65-4e56-856d-76ea32190275","system_id":"levelo_inurba_marseille","lat":43.28413,"lon":5.37515,"is_reserved":false,"is_disabled":false,"rental_uris":{"android":"levelo://app?vid=d7f2963b-8e65-4e56-856d-76ea32190275","ios":"levelo://app?vid=d7f2963b-8e65-4e56-856d-76ea32190275"},"vehicle_type_id":"4","last_reported":1742339370,"current_range_meters":16000,"station_id":"ce4bh412rcd13ifvqds0","pricing_plan_id":"cebpf4jnsgd1na2vs0mg"},{"bike_id":"114dc30c-343b-4079-bb31-6ac2fa3792b4","system_id":"levelo_inurba_marseille","lat":43.27973,"lon":5.38727,"is_reserved":false,"is_disabled":false,"rental_uris":{"android":"levelo://app?vid=114dc30c-343b-4079-bb31-6ac2fa3792b4","ios":"levelo://app?vid=114dc30c-343b-4079-bb31-6ac2fa3792b4"},"vehicle_type_id":"4","last_reported":1742339370,"current_range_meters":16000,"station_id":"ce4bhg12rcd13ifvqf80","pricing_plan_id":"cebpf4jnsgd1na2vs0mg"},{"bike_id":"b0d2fd39-c5b7-4eb0-bbb9-af7d841ce0e3","system_id":"levelo_inurba_marseille","lat":43.2418,"lon":5.3647,"is_reserved":false,"is_disabled":true,"rental_uris":{"android":"levelo://app?vid=b0d2fd39-c5b7-4eb0-bbb9-af7d841ce0e3","ios":"levelo://app?vid=b0d2fd39-c5b7-4eb0-bbb9-af7d841ce0e3"},"vehicle_type_id":"4","last_reported":1742339370,"current_range_meters":16000,"station_id":"cpo36qri1sfpv3e86is0","pricing_plan_id":"cebpf4jnsgd1na2vs0mg"},{"bike_id":"202cf808-cc43-4e17-81cc-6677fd4bcb68","system_id":"levelo_inurba_marseille","lat":43.29801,"lon":5.39309,"is_reserved":false,"is_disabled":false,"rental_uris":{"android":"levelo://app?vid=202cf808-cc43-4e17-81cc-6677fd4bcb68","ios":"levelo://app?vid=202cf808-cc43-4e17-81cc-6677fd4bcb68"},"vehicle_type_id":"4","last_reported":1742339370,"current_range_meters":16000,"station_id":"chh1huq6cuj3fo74tm60","pricing_plan_id":"cebpf4jnsgd1na2vs0mg"},{"bike_id":"3caca121-c6ee-4ecb-b642-704be86e8f2d","system_id":"levelo_inurba_marseille","lat":43.23151,"lon":5.39999,"is_reserved":false,"is_disabled":false,"rental_uris":{"android":"levelo://app?vid=3caca121-c6ee-4ecb-b642-704be86e8f2d","ios":"levelo://app?vid=3caca121-c6ee-4ecb-b642-704be86e8f2d"},"vehicle_type_id":"4","last_reported":1742339370,"current_range_meters":16000,"station_id":"ce4bhn12rcd13ifvqgqg","pricing_plan_id":"cebpf4jnsgd1na2vs0mg"},{"bike_id":"308d9482-2ea5-474f-a039-beb909d1aca5","system_id":"levelo_inurba_marseille","lat":43.27953,"lon":5.41052,"is_reserved":false,"is_disabled":true,"rental_uris":{"android":"levelo://app?vid=308d9482-2ea5-474f-a039-beb909d1aca5","ios":"levelo://app?vid=308d9482-2ea5-474f-a039-beb909d1aca5"},"vehicle_type_id":"4","last_reported":1742339370,"current_range_meters":16000,"station_id":"ce4bhnp2rcd13ifvqh0g","pricing_plan_id":"cebpf4jnsgd1na2vs0mg"},{"bike_id":"e4f05ff4-5880-482e-8a3a-f24bceb8d874","system_id":"levelo_inurba_marseille","lat":43.2842,"lon":5.37534,"is_reserved":false,"is_disabled":false,"rental_uris":{"android":"levelo://app?vid=e4f05ff4-5880-482e-8a3a-f24bceb8d874","ios":"levelo://app?vid=e4f05ff4-5880-482e-8a3a-f24bceb8d874"},"vehicle_type_id":"4","last_reported":1742339370,"current_range_meters":16000,"station_id":"ce4bh412rcd13ifvqds0","pricing_plan_id":"cebpf4jnsgd1na2vs0mg"},{"bike_id":"a289cc38-5006-492c-8c94-ed76614a14d0","system_id":"levelo_inurba_marseille","lat":43.2551,"lon":5.38243,"is_reserved":false,"is_disabled":false,"rental_uris":{"android":"levelo://app?vid=a289cc38-5006-492c-8c94-ed76614a14d0","ios":"levelo://app?vid=a289cc38-5006-492c-8c94-ed76614a14d0"},"vehicle_type_id":"4","last_reported":1742339370,"current_range_meters":16000,"station_id":"","pricing_plan_id":"cebpf4jnsgd1na2vs0mg"},{"bike_id":"80718adf-52be-4984-88bd-d2f4f22368e1","system_id":"levelo_inurba_marseille","lat":43.28711,"lon":5.39975,"is_reserved":false,"is_disabled":false,"rental_uris":{"android":"levelo://app?vid=80718adf-52be-4984-88bd-d2f4f22368e1","ios":"levelo://app?vid=80718adf-52be-4984-88bd-d2f4f22368e1"},"vehicle_type_id":"4","last_reported":1742339370,"current_range_meters":16000,"station_id":"ce4bho92rcd13ifvqh3g","pricing_plan_id":"cebpf4jnsgd1na2vs0mg"},{"bike_id":"0c6718a3-ec5e-4e1d-b75c-00e5092427bd","system_id":"levelo_inurba_marseille","lat":43.30867,"lon":5.3968,"is_reserved":false,"is_disabled":false,"rental_uris":{"android":"levelo://app?vid=0c6718a3-ec5e-4e1d-b75c-00e5092427bd","ios":"levelo://app?vid=0c6718a3-ec5e-4e1d-b75c-00e5092427bd"},"vehicle_type_id":"4","last_reported":1742339370,"current_range_meters":16000,"station_id":"ce4bh012rcd13ifvqcv0","pricing_plan_id":"cebpf4jnsgd1na2vs0mg"},{"bike_id":"0487a772-a454-40c0-9f20-9f9316872a61","system_id":"levelo_inurba_marseille","lat":43.29558,"lon":5.42284,"is_reserved":false,"is_disabled":false,"rental_uris":{"android":"levelo://app?vid=0487a772-a454-40c0-9f20-9f9316872a61","ios":"levelo://app?vid=0487a772-a454-40c0-9f20-9f9316872a61"},"vehicle_type_id":"4","last_reported":1742339370,"current_range_meters":16000,"station_id":"ce4bhph2rcd13ifvqhdg","pricing_plan_id":"cebpf4jnsgd1na2vs0mg"},{"bike_id":"2d4ac887-62ac-408d-8d45-6c61006ec116","system_id":"levelo_inurba_marseille","lat":43.23966,"lon":5.36646,"is_reserved":false,"is_disabled":false,"rental_uris":{"android":"levelo://app?vid=2d4ac887-62ac-408d-8d45-6c61006ec116","ios":"levelo://app?vid=2d4ac887-62ac-408d-8d45-6c61006ec116"},"vehicle_type_id":"4","last_reported":1742339370,"current_range_meters":16000,"station_id":"ce4bhi12rcd13ifvqfp0","pricing_plan_id":"cebpf4jnsgd1na2vs0mg"},{"bike_id":"9d26c008-8ec1-4269-9cd2-f45774f03ccb","system_id":"levelo_inurba_marseille","lat":43.27945,"lon":5.37959,"is_reserved":false,"is_disabled":false,"rental_uris":{"android":"levelo://app?vid=9d26c008-8ec1-4269-9cd2-f45774f03ccb","ios":"levelo://app?vid=9d26c008-8ec1-4269-9cd2-f45774f03ccb"},"vehicle_type_id":"4","last_reported":1742339370,"current_range_meters":16000,"station_id":"","pricing_plan_id":"cebpf4jnsgd1na2vs0mg"},{"bike_id":"2a8d133d-961d-4660-a78a-bb4a11ccea95","system_id":"levelo_inurba_marseille","lat":43.27788,"lon":5.40708,"is_reserved":false,"is_disabled":false,"rental_uris":{"android":"levelo://app?vid=2a8d133d-961d-4660-a78a-bb4a11ccea95","ios":"levelo://app?vid=2a8d133d-961d-4660-a78a-bb4a11ccea95"},"vehicle_type_id":"4","last_reported":1742339370,"current_range_meters":16000,"station_id":"ce4bhnh2rcd13ifvqgtg","pricing_plan_id":"cebpf4jnsgd1na2vs0mg"},{"bike_id":"96e343bd-79d6-4e3f-b7dd-d78e5f35d6d8","system_id":"levelo_inurba_marseille","lat":43.28156,"lon":5.42652,"is_reserved":false,"is_disabled":false,"rental_uris":{"android":"levelo://app?vid=96e343bd-79d6-4e3f-b7dd-d78e5f35d6d8","ios":"levelo://app?vid=96e343bd-79d6-4e3f-b7dd-d78e5f35d6d8"},"vehicle_type_id":"4","last_reported":1742339370,"current_range_meters":16000,"station_id":"ce4bhnh2rcd13ifvqgug","pricing_plan_id":"cebpf4jnsgd1na2vs0mg"},{"bike_id":"210b2a72-8464-41b3-9593-32f24d2b77ec","system_id":"levelo_inurba_marseille","lat":43.27816,"lon":5.40715,"is_reserved":false,"is_disabled":false,"rental_uris":{"android":"levelo://app?vid=210b2a72-8464-41b3-9593-32f24d2b77ec","ios":"levelo://app?vid=210b2a72-8464-41b3-9593-32f24d2b77ec"},"vehicle_type_id":"4","last_reported":1742339370,"current_range_meters":16400,"station_id":"ce4bhnh2rcd13ifvqgtg","pricing_plan_id":"cebpf4jnsgd1na2vs0mg"},{"bike_id":"f4b56c1a-33f1-4457-a9fe-e3b112a9ec75","system_id":"levelo_inurba_marseille","lat":43.31172,"lon":5.38709,"is_reserved":false,"is_disabled":false,"rental_uris":{"android":"levelo://app?vid=f4b56c1a-33f1-4457-a9fe-e3b112a9ec75","ios":"levelo://app?vid=f4b56c1a-33f1-4457-a9fe-e3b112a9ec75"},