{"last_updated":1750932724,"ttl":60,"version":"2.2","data":{"bikes":[{"bike_id":"3da29fb8-fc97-44c6-b9ac-31dd456b2fd4","system_id":"levelo_inurba_marseille","lat":43.33771,"lon":5.37424,"is_reserved":false,"is_disabled":true,"rental_uris":{"android":"levelo://app?vid=3da29fb8-fc97-44c6-b9ac-31dd456b2fd4","ios":"levelo://app?vid=3da29fb8-fc97-44c6-b9ac-31dd456b2fd4"},"vehicle_type_id":"4","last_reported":1750932724,"current_range_meters":0,"station_id":"","pricing_plan_id":"cebpf4jnsgd1na2vs0mg"},{"bike_id":"01861ad8-a8d7-4be6-816e-651927c87584","system_id":"levelo_inurba_marseille","lat":43.33751,"lon":5.37456,"is_reserved":false,"is_disabled":true,"rental_uris":{"android":"levelo://app?vid=01861ad8-a8d7-4be6-816e-651927c87584","ios":"levelo://app?vid=01861ad8-a8d7-4be6-816e-651927c87584"},"vehicle_type_id":"4","last_reported":1750932724,"current_range_meters":0,"station_id":"","pricing_plan_id":"cebpf4jnsgd1na2vs0mg"},{"bike_id":"62a493c7-4534-4419-ad43-0582de34a72a","system_id":"levelo_inurba_marseille","lat":43.21366,"lon":5.355183,"is_reserved":false,"is_disabled":true,"rental_uris":{"android":"levelo://app?vid=62a493c7-4534-4419-ad43-0582de34a72a","ios":"levelo://app?vid=62a493c7-4534-4419-ad43-0582de34a72a"},"vehicle_type_id":"4","last_reported":1750932724,"current_range_meters":0,"station_id":"","pricing_plan_id":"cebpf4jnsgd1na2vs0mg"},{"bike_id":"85c58f10-925d-4344-b389-09267487a6fc","system_id":"levelo_inurba_marseille","lat":43.21116,"lon":5.41924,"is_reserved":false,"is_disabled":true,"rental_uris":{"android":"levelo://app?vid=85c58f10-925d-4344-b389-09267487a6fc","ios":"levelo://app?vid=85c58f10-925d-4344-b389-09267487a6fc"},"vehicle_type_id":"4","last_reported":1750932724,"current_range_meters":0,"station_id":"","pricing_plan_id":"cebpf4jnsgd1na2vs0mg"},{"bike_id":"f8717065-ea15-428c-8ef1-0fd7b351affa","system_id":"levelo_inurba_marseille","lat":43.31606,"lon":5.40116,"is_reserved":false,"is_disabled":true,"rental_uris":{"android":"levelo://app?vid=f8717065-ea15-428c-8ef1-0fd7b351affa","ios":"levelo://app?vid=f8717065-ea15-428c-8ef1-0fd7b351affa"},"vehicle_type_id":"4","last_reported":1750932724,"current_range_meters":0,"station_id":"","pricing_plan_id":"cebpf4jnsgd1na2vs0mg"},{"bike_id":"a147e67d-e0b1-425e-bbda-ae9524df353e","system_id":"levelo_inurba_marseille","lat":43.337541,"lon":5.374577,"is_reserved":false,"is_disabled":true,"rental_uris":{"android":"levelo://app?vid=a147e67d-e0b1-425e-bbda-ae9524df353e","ios":"levelo://app?vid=a147e67d-e0b1-425e-bbda-ae9524df353e"},"vehicle_type_id":"4","last_reported":1750932724,"current_range_meters":0,"station_id":"","pricing_plan_id":"cebpf4jnsgd1na2vs0mg"},{"bike_id":"a7883090-0e10-4075-944b-a3cca54bc544","system_id":"levelo_inurba_marseille","lat":43.22505,"lon":5.34786,"is_reserved":false,"is_disabled":true,"rental_uris":{"android":"levelo://app?vid=a7883090-0e10-4075-944b-a3cca54bc544","ios":"levelo://app?vid=a7883090-0e10-4075-944b-a3cca54bc544"},"vehicle_type_id":"4","last_reported":1750932724,"current_range_meters":0,"station_id":"","pricing_plan_id":"cebpf4jnsgd1na2vs0mg"},{"bike_id":"4d064f95-6dcb-4234-9e98-7c70fbb74351","system_id":"levelo_inurba_marseille","lat":43.337444,"lon":5.374475,"is_reserved":false,"is_disabled":true,"rental_uris":{"android":"levelo://app?vid=4d064f95-6dcb-4234-9e98-7c70fbb74351","ios":"levelo://app?vid=4d064f95-6dcb-4234-9e98-7c70fbb74351"},"vehicle_type_id":"4","last_reported":1750932724,"current_range_meters":0,"station_id":"","pricing_plan_id":"cebpf4jnsgd1na2vs0mg"},{"bike_id":"a4a6ce4b-ac60-468a-b67c-ec3af0ddf9f3","system_id":"levelo_inurba_marseille","lat":43.33787,"lon":5.37424,"is_reserved":false,"is_disabled":true,"rental_uris":{"android":"levelo://app?vid=a4a6ce4b-ac60-468a-b67c-ec3af0ddf9f3","ios":"levelo://app?vid=a4a6ce4b-ac60-468a-b67c-ec3af0ddf9f3"},"vehicle_type_id":"4","last_reported":1750932724,"current_range_meters":0,"station_id":"","pricing_plan_id":"cebpf4jnsgd1na2vs0mg"},{"bike_id":"06b961c7-f3ce-4c1c-a618-db74d23ebaea","system_id":"levelo_inurba_marseille","lat":43.28881,"lon":5.3787,"is_reserved":false,"is_disabled":true,"rental_uris":{"android":"levelo://app?vid=06b961c7-f3ce-4c1c-a618-db74d23ebaea","ios":"levelo://app?vid=06b961c7-f3ce-4c1c-a618-db74d23ebaea"},"vehicle_type_id":"4","last_reported":1750932724,"current_range_meters":0,"station_id":"","pricing_plan_id":"cebpf4jnsgd1na2vs0mg"},{"bike_id":"d6609b4f-333b-43c1-9ebe-8726f5e76e88","system_id":"levelo_inurba_marseille","lat":43.337444,"lon":5.374475,"is_reserved":false,"is_disabled":true,"rental_uris":{"android":"levelo://app?vid=d6609b4f-333b-43c1-9ebe-8726f5e76e88","ios":"levelo://app?vid=d6609b4f-333b-43c1-9ebe-8726f5e76e88"},"vehicle_type_id":"4","last_reported":1750932724,"current_range_meters":0,"station_id":"","pricing_plan_id":"cebpf4jnsgd1na2vs0mg"},{"bike_id":"14903f35-1eaf-4a5d-86c3-23007b361999","system_id":"levelo_inurba_marseille","lat":43.27064,"lon":5.42274,"is_reserved":false,"is_disabled":true,"rental_uris":{"android":"levelo://app?vid=14903f35-1eaf-4a5d-86c3-23007b361999","ios":"levelo://app?vid=14903f35-1eaf-4a5d-86c3-23007b361999"},"vehicle_type_id":"4","last_reported":1750932724,"current_range_meters":0,"station_id":"","pricing_plan_id":"cebpf4jnsgd1na2vs0mg"},{"bike_id":"3583f331-6c0b-49be-9913-9dde300034d9","system_id":"levelo_inurba_marseille","lat":43.24631,"lon":5.40235,"is_reserved":false,"is_disabled":true,"rental_uris":{"android":"levelo://app?vid=3583f331-6c0b-49be-9913-9dde300034d9","ios":"levelo://app?vid=3583f331-6c0b-49be-9913-9dde300034d9"},"vehicle_type_id":"4","last_reported":1750932724,"current_range_meters":0,"station_id":"","pricing_plan_id":"cebpf4jnsgd1na2vs0mg"},{"bike_id":"b17b6606-336a-4606-9b65-af139c49de26","system_id":"levelo_inurba_marseille","lat":43.25658,"lon":5.42723,"is_reserved":false,"is_disabled":true,"rental_uris":{"android":"levelo://app?vid=b17b6606-336a-4606-9b65-af139c49de26","ios":"levelo://app?vid=b17b6606-336a-4606-9b65-af139c49de26"},"vehicle_type_id":"4","last_reported":1750932724,"current_range_meters":0,"station_id":"","pricing_plan_id":"cebpf4jnsgd1na2vs0mg"},{"bike_id":"79bf4da0-05ec-4b61-b034-b3a8b163f2e8","system_id":"levelo_inurba_marseille","lat":43.30971,"lon":5.4079,"is_reserved":false,"is_disabled":true,"rental_uris":{"android":"levelo://app?vid=79bf4da0-05ec-4b61-b034-b3a8b163f2e8","ios":"levelo://app?vid=79bf4da0-05ec-4b61-b034-b3a8b163f2e8"},"vehicle_type_id":"4","last_reported":1750932724,"current_range_meters":0,"station_id":"","pricing_plan_id":"cebpf4jnsgd1na2vs0mg"},{"bike_id":"9d3724b1-0dc8-4689-9d6a-55005a9503cb","system_id":"levelo_inurba_marseille","lat":43.2862,"lon":5.42819,"is_reserved":false,"is_disabled":true,"rental_uris":{"android":"levelo://app?vid=9d3724b1-0dc8-4689-9d6a-55005a9503cb","ios":"levelo://app?vid=9d3724b1-0dc8-4689-9d6a-55005a9503cb"},"vehicle_type_id":"4","last_reported":1750932724,"current_range_meters":0,"station_id":"","pricing_plan_id":"cebpf4jnsgd1na2vs0mg"},{"bike_id":"c01393b6-b41f-4d80-a400-6cd72deb022b","system_id":"levelo_inurba_marseille","lat":43.30146,"lon":5.37414,"is_reserved":false,"is_disabled":true,"rental_uris":{"android":"levelo://app?vid=c01393b6-b41f-4d80-a400-6cd72deb022b","ios":"levelo://app?vid=c01393b6-b41f-4d80-a400-6cd72deb022b"},"vehicle_type_id":"4","last_reported":1750932724,"current_range_meters":0,"station_id":"ce4bgs92rcd13ifvqcc0","pricing_plan_id":"cebpf4jnsgd1na2vs0mg"},{"bike_id":"6cda6567-45b8-4c30-94f2-1c9b2f53e891","system_id":"levelo_inurba_marseille","lat":43.30213,"lon":5.39469,"is_reserved":false,"is_disabled":true,"rental_uris":{"android":"levelo://app?vid=6cda6567-45b8-4c30-94f2-1c9b2f53e891","ios":"levelo://app?vid=6cda6567-45b8-4c30-94f2-1c9b2f53e891"},"vehicle_type_id":"4","last_reported":1750932724,"current_range_meters":0,"station_id":"ce4bh0p2rcd13ifvqd70","pricing_plan_id":"cebpf4jnsgd1na2vs0mg"},{"bike_id":"7ab5ec3b-6365-4ab4-b121-619201442291","system_id":"levelo_inurba_marseille","lat":43.2886,"lon":5.3587,"is_reserved":false,"is_disabled":true,"rental_uris":{"android":"levelo://app?vid=7ab5ec3b-6365-4ab4-b121-619201442291","ios":"levelo://app?vid=7ab5ec3b-6365-4ab4-b121-619201442291"},"vehicle_type_id":"4","last_reported":1750932724,"current_range_meters":0,"station_id":"ce4bhb12rcd13ifvqem0","pricing_plan_id":"cebpf4jnsgd1na2vs0mg"},{"bike_id":"c6f102f7-f01d-4b06-9774-e1e1487d39b5","system_id":"levelo_inurba_marseille","lat":43.290005,"lon":5.356095,"is_reserved":false,"is_disabled":true,"rental_uris":{"android":"levelo://app?vid=c6f102f7-f01d-4b06-9774-e1e1487d39b5","ios":"levelo://app?vid=c6f102f7-f01d-4b06-9774-e1e1487d39b5"},"vehicle_type_id":"4","last_reported":1750932724,"current_range_meters":0,"station_id":"ce4bhb92rcd13ifvqen0","pricing_plan_id":"cebpf4jnsgd1na2vs0mg"},{"bike_id":"3f96b52d-e9fe-41f5-89e8-f487e766a984","system_id":"levelo_inurba_marseille","lat":43.317226,"lon":5.424126,"is_reserved":false,"is_disabled":true,"rental_uris":{"android":"levelo://app?vid=3f96b52d-e9fe-41f5-89e8-f487e766a984","ios":"levelo://app?vid=3f96b52d-e9fe-41f5-89e8-f487e766a984"},"vehicle_type_id":"4","last_reported":1750932724,"current_range_meters":0,"station_id":"ce4bhp92rcd13ifvqhbg","pricing_plan_id":"cebpf4jnsgd1na2vs0mg"},{"bike_id":"5bf47b9f-1d17-418c-8c7a-7093cb7e5b18","system_id":"levelo_inurba_marseille","lat":43.23191,"lon":5.35573,"is_reserved":false,"is_disabled":true,"rental_uris":{"android":"levelo://app?vid=5bf47b9f-1d17-418c-8c7a-7093cb7e5b18","ios":"levelo://app?vid=5bf47b9f-1d17-418c-8c7a-7093cb7e5b18"},"vehicle_type_id":"4","last_reported":1750932724,"current_range_meters":0,"station_id":"ce4bhu92rcd13ifvqi70","pricing_plan_id":"cebpf4jnsgd1na2vs0mg"},{"bike_id":"c83adf78-14ca-4a80-b94a-16ed5ff617f2","system_id":"levelo_inurba_marseille","lat":43.225058,"lon":5.347729,"is_reserved":false,"is_disabled":true,"rental_uris":{"android":"levelo://app?vid=c83adf78-14ca-4a80-b94a-16ed5ff617f2","ios":"levelo://app?vid=c83adf78-14ca-4a80-b94a-16ed5ff617f2"},"vehicle_type_id":"4","last_reported":1750932724,"current_range_meters":0,"station_id":"st_cvj5dfep6f1abm77gieg","pricing_plan_id":"cebpf4jnsgd1na2vs0mg"},{"bike_id":"7052af56-150e-453b-9537-f8d2c67253f1","system_id":"levelo_inurba_marseille","lat":43.28262,"lon":5.35061,"is_reserved":false,"is_disabled":true,"rental_uris":{"android":"levelo://app?vid=7052af56-150e-453b-9537-f8d2c67253f1","ios":"levelo://app?vid=7052af56-150e-453b-9537-f8d2c67253f1"},"vehicle_type_id":"4","last_reported":1750932724,"current_range_meters":400,"station_id":"ce4bhbp2rcd13ifvqerg","pricing_plan_id":"cebpf4jnsgd1na2vs0mg"},{"bike_id":"4ba7c6c6-58a4-4013-88a8-b11af63338c7","system_id":"levelo_inurba_marseille","lat":43.29967,"lon":5.38496,"is_reserved":false,"is_disabled":true,"rental_uris":{"android":"levelo://app?vid=4ba7c6c6-58a4-4013-88a8-b11af63338c7","ios":"levelo://app?vid=4ba7c6c6-58a4-4013-88a8-b11af63338c7"},"vehicle_type_id":"4","last_reported":1750932724,"current_range_meters":800,"station_id":"ce4bgj92rcd13ifvqbd0","pricing_plan_id":"cebpf4jnsgd1na2vs0mg"},{"bike_id":"130d33a0-045a-47a7-b2bd-00f8b3a6a644","system_id":"levelo_inurba_marseille","lat":43.29268,"lon":5.38426,"is_reserved":false,"is_disabled":true,"rental_uris":{"android":"levelo://app?vid=130d33a0-045a-47a7-b2bd-00f8b3a6a644","ios":"levelo://app?vid=130d33a0-045a-47a7-b2bd-00f8b3a6a644"},"vehicle_type_id":"4","last_reported":1750932724,"current_range_meters":800,"station_id":"ce4bh692rcd13ifvqea0","pricing_plan_id":"cebpf4jnsgd1na2vs0mg"},{"bike_id":"daafaff2-e8a2-4459-bf5c-af35fe78f9d4","system_id":"levelo_inurba_marseille","lat":43.318849,"lon":5.407467,"is_reserved":false,"is_disabled":true,"rental_uris":{"android":"levelo://app?vid=daafaff2-e8a2-4459-bf5c-af35fe78f9d4","ios":"levelo://app?vid=daafaff2-e8a2-4459-bf5c-af35fe78f9d4"},"vehicle_type_id":"4","last_reported":1750932724,"current_range_meters":800,"station_id":"ce4bhq12rcd13ifvqhig","pricing_plan_id":"cebpf4jnsgd1na2vs0mg"},{"bike_id":"be6544fb-6c1c-4292-b44a-7843b5c7fb9c","system_id":"levelo_inurba_marseille","lat":43.31673,"lon":5.41374,"is_reserved":false,"is_disabled":true,"rental_uris":{"android":"levelo://app?vid=be6544fb-6c1c-4292-b44a-7843b5c7fb9c","ios":"levelo://app?vid=be6544fb-6c1c-4292-b44a-7843b5c7fb9c"},"vehicle_type_id":"4","last_reported":1750932724,"current_range_meters":1200,"station_id":"","pricing_plan_id":"cebpf4jnsgd1na2vs0mg"},{"bike_id":"581af24d-57f0-4510-a188-d64b595d4133","system_id":"levelo_inurba_marseille","lat":43.23951,"lon":5.37585,"is_reserved":false,"is_disabled":true,"rental_uris":{"android":"levelo://app?vid=581af24d-57f0-4510-a188-d64b595d4133","ios":"levelo://app?vid=581af24d-57f0-4510-a188-d64b595d4133"},"vehicle_type_id":"4","last_reported":1750932724,"current_range_meters":1200,"station_id":"","pricing_plan_id":"cebpf4jnsgd1na2vs0mg"},{"bike_id":"41e36ae0-0d3a-4a31-b00a-315cd58c2a90","system_id":"levelo_inurba_marseille","lat":43.30784,"lon":5.37637,"is_reserved":false,"is_disabled":true,"rental_uris":{"android":"levelo://app?vid=41e36ae0-0d3a-4a31-b00a-315cd58c2a90","ios":"levelo://app?vid=41e36ae0-0d3a-4a31-b00a-315cd58c2a90"},"vehicle_type_id":"4","last_reported":1750932724,"current_range_meters":1200,"station_id":"ce4bgv92rcd13ifvqcq0","pricing_plan_id":"cebpf4jnsgd1na2vs0mg"},{"bike_id":"197e4899-3d05-4d7a-8719-19f2125bec9b","system_id":"levelo_inurba_marseille","lat":43.29848,"lon":5.36277,"is_reserved":false,"is_disabled":true,"rental_uris":{"android":"levelo://app?vid=197e4899-3d05-4d7a-8719-19f2125bec9b","ios":"levelo://app?vid=197e4899-3d05-4d7a-8719-19f2125bec9b"},"vehicle_type_id":"4","last_reported":1750932724,"current_range_meters":1600,"station_id":"ce4bgpp2rcd13ifvqc3g","pricing_plan_id":"cebpf4jnsgd1na2vs0mg"},{"bike_id":"0a068c09-9857-4125-8dfc-0cd75fc22651","system_id":"levelo_inurba_marseille","lat":43.28365,"lon":5.3864,"is_reserved":false,"is_disabled":true,"rental_uris":{"android":"levelo://app?vid=0a068c09-9857-4125-8dfc-0cd75fc22651","ios":"levelo://app?vid=0a068c09-9857-4125-8dfc-0cd75fc22651"},"vehicle_type_id":"4","last_reported":1750932724,"current_range_meters":1600,"station_id":"ce4bh492rcd13ifvqdvg","pricing_plan_id":"cebpf4jnsgd1na2vs0mg"},{"bike_id":"63a24d5e-ac4c-4d13-976e-82697a5077cc","system_id":"levelo_inurba_marseille","lat":43.29899,"lon":5.43644,"is_reserved":false,"is_disabled":true,"rental_uris":{"android":"levelo://app?vid=63a24d5e-ac4c-4d13-976e-82697a5077cc","ios":"levelo://app?vid=63a24d5e-ac4c-4d13-976e-82697a5077cc"},"vehicle_type_id":"4","last_reported":1750932724,"current_range_meters":1600,"station_id":"ce4bhpp2rcd13ifvqhfg","pricing_plan_id":"cebpf4jnsgd1na2vs0mg"},{"bike_id":"3d4cb7d1-0246-4ab1-afdb-6e233afd716d","system_id":"levelo_inurba_marseille","lat":43.33617,"lon":5.41034,"is_reserved":false,"is_disabled":true,"rental_uris":{"android":"levelo://app?vid=3d4cb7d1-0246-4ab1-afdb-6e233afd716d","ios":"levelo://app?vid=3d4cb7d1-0246-4ab1-afdb-6e233afd716d"},"vehicle_type_id":"4","last_reported":1750932724,"current_range_meters":1600,"station_id":"ce4bhqh2rcd13ifvqhmg","pricing_plan_id":"cebpf4jnsgd1na2vs0mg"},{"bike_id":"22a541bc-a754-4e48-8f38-29c0c7d9dc57","system_id":"levelo_inurba_marseille","lat":43.27949,"lon":5.41039,"is_reserved":false,"is_disabled":true,"rental_uris":{"android":"levelo://app?vid=22a541bc-a754-4e48-8f38-29c0c7d9dc57","ios":"levelo://app?vid=22a541bc-a754-4e48-8f38-29c0c7d9dc57"},"vehicle_type_id":"4","last_reported":1750932724,"current_range_meters":2000,"station_id":"ce4bhnp2rcd13ifvqh0g","pricing_plan_id":"cebpf4jnsgd1na2vs0mg"},{"bike_id":"052a186e-41c7-4243-b6c9-9b86a845f4ee","system_id":"levelo_inurba_marseille","lat":43.27961,"lon":5.38731,"is_reserved":false,"is_disabled":false,"rental_uris":{"android":"levelo://app?vid=052a186e-41c7-4243-b6c9-9b86a845f4ee","ios":"levelo://app?vid=052a186e-41c7-4243-b6c9-9b86a845f4ee"},"vehicle_type_id":"4","last_reported":1750932724,"current_range_meters":2800,"station_id":"ce4bhg12rcd13ifvqf80","pricing_plan_id":"cebpf4jnsgd1na2vs0mg"},{"bike_id":"e3f950ad-546f-41ff-a9d2-ab00fad5580c","system_id":"levelo_inurba_marseille","lat":43.29868,"lon":5.36284,"is_reserved":false,"is_disabled":false,"rental_uris":{"android":"levelo://app?vid=e3f950ad-546f-41ff-a9d2-ab00fad5580c","ios":"levelo://app?vid=e3f950ad-546f-41ff-a9d2-ab00fad5580c"},"vehicle_type_id":"4","last_reported":1750932724,"current_range_meters":3200,"station_id":"ce4bgpp2rcd13ifvqc3g","pricing_plan_id":"cebpf4jnsgd1na2vs0mg"},{"bike_id":"7db500fd-8bbd-4a18-8887-7e56457cebf4","system_id":"levelo_inurba_marseille","lat":43.27373,"lon":5.36221,"is_reserved":false,"is_disabled":false,"rental_uris":{"android":"levelo://app?vid=7db500fd-8bbd-4a18-8887-7e56457cebf4","ios":"levelo://app?vid=7db500fd-8bbd-4a18-8887-7e56457cebf4"},"vehicle_type_id":"4","last_reported":1750932724,"current_range_meters":3200,"station_id":"ce4bhbh2rcd13ifvqeo0","pricing_plan_id":"cebpf4jnsgd1na2vs0mg"},{"bike_id":"207f2eeb-ac44-47df-8c6c-b4b8061051e9","system_id":"levelo_inurba_marseille","lat":43.26032,"lon":5.37547,"is_reserved":false,"is_disabled":false,"rental_uris":{"android":"levelo://app?vid=207f2eeb-ac44-47df-8c6c-b4b8061051e9","ios":"levelo://app?vid=207f2eeb-ac44-47df-8c6c-b4b8061051e9"},"vehicle_type_id":"4","last_reported":1750932724,"current_range_meters":3200,"station_id":"ce4bhgh2rcd13ifvqfa0","pricing_plan_id":"cebpf4jnsgd1na2vs0mg"},{"bike_id":"041df358-13cf-451d-b64d-57e4cc21f482","system_id":"levelo_inurba_marseille","lat":43.31251,"lon":5.36842,"is_reserved":false,"is_disabled":false,"rental_uris":{"android":"levelo://app?vid=041df358-13cf-451d-b64d-57e4cc21f482","ios":"levelo://app?vid=041df358-13cf-451d-b64d-57e4cc21f482"},"vehicle_type_id":"4","last_reported":1750932724,"current_range_meters":3600,"station_id":"ce4bgl92rcd13ifvqbq0","pricing_plan_id":"cebpf4jnsgd1na2vs0mg"},{"bike_id":"b0257665-9ac4-478f-b390-9798455d620c","system_id":"levelo_inurba_marseille","lat":43.29876,"lon":5.36282,"is_reserved":false,"is_disabled":false,"rental_uris":{"android":"levelo://app?vid=b0257665-9ac4-478f-b390-9798455d620c","ios":"levelo://app?vid=b0257665-9ac4-478f-b390-9798455d620c"},"vehicle_type_id":"4","last_reported":1750932724,"current_range_meters":3600,"station_id":"ce4bgpp2rcd13ifvqc3g","pricing_plan_id":"cebpf4jnsgd1na2vs0mg"},{"bike_id":"fa4cf375-209f-4a4c-a6a2-55105076b4d3","system_id":"levelo_inurba_marseille","lat":43.21745,"lon":5.34604,"is_reserved":false,"is_disabled":false,"rental_uris":{"android":"levelo://app?vid=fa4cf375-209f-4a4c-a6a2-55105076b4d3","ios":"levelo://app?vid=fa4cf375-209f-4a4c-a6a2-55105076b4d3"},"vehicle_type_id":"4","last_reported":1750932724,"current_range_meters":3600,"station_id":"st_cvj6r9ubvosntc0bgbag","pricing_plan_id":"cebpf4jnsgd1na2vs0mg"},{"bike_id":"9bcaf2c4-201d-42f2-a681-8147c0540392","system_id":"levelo_inurba_marseille","lat":43.28168,"lon":5.42643,"is_reserved":false,"is_disabled":false,"rental_uris":{"android":"levelo://app?vid=9bcaf2c4-201d-42f2-a681-8147c0540392","ios":"levelo://app?vid=9bcaf2c4-201d-42f2-a681-8147c0540392"},"vehicle_type_id":"4","last_reported":1750932724,"current_range_meters":4000,"station_id":"ce4bhnh2rcd13ifvqgug","pricing_plan_id":"cebpf4jnsgd1na2vs0mg"},{"bike_id":"570ade63-1881-4e3d-86dd-6a4f5903ca82","system_id":"levelo_inurba_marseille","lat":43.27845,"lon":5.38339,"is_reserved":false,"is_disabled":false,"rental_uris":{"android":"levelo://app?vid=570ade63-1881-4e3d-86dd-6a4f5903ca82","ios":"levelo://app?vid=570ade63-1881-4e3d-86dd-6a4f5903ca82"},"vehicle_type_id":"4","last_reported":1750932724,"current_range_meters":4400,"station_id":"","pricing_plan_id":"cebpf4jnsgd1na2vs0mg"},{"bike_id":"9133a6dc-79e1-436e-a720-ef0f04449d6d","system_id":"levelo_inurba_marseille","lat":43.3032,"lon":5.36898,"is_reserved":false,"is_disabled":false,"rental_uris":{"android":"levelo://app?vid=9133a6dc-79e1-436e-a720-ef0f04449d6d","ios":"levelo://app?vid=9133a6dc-79e1-436e-a720-ef0f04449d6d"},"vehicle_type_id":"4","last_reported":1750932724,"current_range_meters":4400,"station_id":"ce4bgqh2rcd13ifvqc5g","pricing_plan_id":"cebpf4jnsgd1na2vs0mg"},{"bike_id":"b144ff15-9b38-4c23-a1df-537d7e9533c8","system_id":"levelo_inurba_marseille","lat":43.27324,"lon":5.3907,"is_reserved":false,"is_disabled":false,"rental_uris":{"android":"levelo://app?vid=b144ff15-9b38-4c23-a1df-537d7e9533c8","ios":"levelo://app?vid=b144ff15-9b38-4c23-a1df-537d7e9533c8"},"vehicle_type_id":"4","last_reported":1750932724,"current_range_meters":5600,"station_id":"ce4bhgp2rcd13ifvqfe0","pricing_plan_id":"cebpf4jnsgd1na2vs0mg"},{"bike_id":"d3aec507-b6a6-4fb4-92e5-8d6313d7ffbb","system_id":"levelo_inurba_marseille","lat":43.2721,"lon":5.39173,"is_reserved":false,"is_disabled":false,"rental_uris":{"android":"levelo://app?vid=d3aec507-b6a6-4fb4-92e5-8d6313d7ffbb","ios":"levelo://app?vid=d3aec507-b6a6-4fb4-92e5-8d6313d7ffbb"},"vehicle_type_id":"4","last_reported":1750932724,"current_range_meters":5600,"station_id":"ce4bhhp2rcd13ifvqfm0","pricing_plan_id":"cebpf4jnsgd1na2vs0mg"},{"bike_id":"bd6bf578-d894-4984-b5f7-b50442fe9a0a","system_id":"levelo_inurba_marseille","lat":43.25,"lon":5.38924,"is_reserved":false,"is_disabled":false,"rental_uris":{"android":"levelo://app?vid=bd6bf578-d894-4984-b5f7-b50442fe9a0a","ios":"levelo://app?vid=bd6bf578-d894-4984-b5f7-b50442fe9a0a"},"vehicle_type_id":"4","last_reported":1750932724,"current_range_meters":6000,"station_id":"ce4bhgp2rcd13ifvqfd0","pricing_plan_id":"cebpf4jnsgd1na2vs0mg"},{"bike_id":"6a869d86-1b3b-4baa-a376-420e327b4b01","system_id":"levelo_inurba_marseille","lat":43.288958,"lon":5.386815,"is_reserved":false,"is_disabled":false,"rental_uris":{"android":"levelo://app?vid=6a869d86-1b3b-4baa-a376-420e327b4b01","ios":"levelo://app?vid=6a869d86-1b3b-4baa-a376-420e327b4b01"},"vehicle_type_id":"4","last_reported":1750932724,"current_range_meters":6400,"station_id":"ce4bh4p2rcd13ifvqe0g","pricing_plan_id":"cebpf4jnsgd1na2vs0mg"},{"bike_id":"dbfb2b4d-f467-42b8-bdec-0c1e515fa89f","system_id":"levelo_inurba_marseille","lat":43.29893,"lon":5.43661,"is_reserved":false,"is_disabled":false,"rental_uris":{"android":"levelo://app?vid=dbfb2b4d-f467-42b8-bdec-0c1e515fa89f","ios":"levelo://app?vid=dbfb2b4d-f467-42b8-bdec-0c1e515fa89f"},"vehicle_type_id":"4","last_reported":1750932724,"current_range_meters":6400,"station_id":"ce4bhpp2rcd13ifvqhfg","pricing_plan_id":"cebpf4jnsgd1na2vs0mg"},{"bike_id":"67a5051a-b32e-408a-8389-c22b54eb81f6","system_id":"levelo_inurba_marseille","lat":43.329628,"lon":5.455998,"is_reserved":false,"is_disabled":false,"rental_uris":{"android":"levelo://app?vid=67a5051a-b32e-408a-8389-c22b54eb81f6","ios":"levelo://app?vid=67a5051a-b32e-408a-8389-c22b54eb81f6"},"vehicle_type_id":"4","last_reported":1750932724,"current_range_meters":6800,"station_id":"","pricing_plan_id":"cebpf4jnsgd1na2vs0mg"},{"bike_id":"efeb3c70-3319-46e5-a8c1-e29db37d8a29","system_id":"levelo_inurba_marseille","lat":43.31616,"lon":5.36576,"is_reserved":false,"is_disabled":false,"rental_uris":{"android":"levelo://app?vid=efeb3c70-3319-46e5-a8c1-e29db37d8a29","ios":"levelo://app?vid=efeb3c70-3319-46e5-a8c1-e29db37d8a29"},"vehicle_type_id":"4","last_reported":1750932724,"current_range_meters":6800,"station_id":"","pricing_plan_id":"cebpf4jnsgd1na2vs0mg"},{"bike_id":"7b9243c8-c651-4937-afd4-5c29f64998cd","system_id":"levelo_inurba_marseille","lat":43.31349,"lon":5.36766,"is_reserved":false,"is_disabled":false,"rental_uris":{"android":"levelo://app?vid=7b9243c8-c651-4937-afd4-5c29f64998cd","ios":"levelo://app?vid=7b9243c8-c651-4937-afd4-5c29f64998cd"},"vehicle_type_id":"4","last_reported":1750932724,"current_range_meters":6800,"station_id":"ce4bgr92rcd13ifvqc6g","pricing_plan_id":"cebpf4jnsgd1na2vs0mg"},{"bike_id":"93a81f98-6b39-4859-84e6-253be874a1a3","system_id":"levelo_inurba_marseille","lat":43.24388,"lon":5.37059,"is_reserved":false,"is_disabled":false,"rental_uris":{"android":"levelo://app?vid=93a81f98-6b39-4859-84e6-253be874a1a3","ios":"levelo://app?vid=93a81f98-6b39-4859-84e6-253be874a1a3"},"vehicle_type_id":"4","last_reported":1750932724,"current_range_meters":6800,"station_id":"ce4bhhh2rcd13ifvqfk0","pricing_plan_id":"cebpf4jnsgd1na2vs0mg"},{"bike_id":"aaf92b08-59fc-4a45-a752-b0a33c2ca1c1","system_id":"levelo_inurba_marseille","lat":43.30265,"lon":5.38094,"is_reserved":false,"is_disabled":false,"rental_uris":{"android":"levelo://app?vid=aaf92b08-59fc-4a45-a752-b0a33c2ca1c1","ios":"levelo://app?vid=aaf92b08-59fc-4a45-a752-b0a33c2ca1c1"},"vehicle_type_id":"4","last_reported":1750932724,"current_range_meters":7200,"station_id":"","pricing_plan_id":"cebpf4jnsgd1na2vs0mg"},{"bike_id":"251f396f-100b-438d-9513-2e8b62470195","system_id":"levelo_inurba_marseille","lat":43.28699,"lon":5.37392,"is_reserved":false,"is_disabled":false,"rental_uris":{"android":"levelo://app?vid=251f396f-100b-438d-9513-2e8b62470195","ios":"levelo://app?vid=251f396f-100b-438d-9513-2e8b62470195"},"vehicle_type_id":"4","last_reported":1750932724,"current_range_meters":7200,"station_id":"ce4bh3p2rcd13ifvqdq0","pricing_plan_id":"cebpf4jnsgd1na2vs0mg"},{"bike_id":"08c41d18-5662-4595-ac95-1cb6fbbc4b36","system_id":"levelo_inurba_marseille","lat":43.28036,"lon":5.36938,"is_reserved":false,"is_disabled":false,"rental_uris":{"android":"levelo://app?vid=08c41d18-5662-4595-ac95-1cb6fbbc4b36","ios":"levelo://app?vid=08c41d18-5662-4595-ac95-1cb6fbbc4b36"},"vehicle_type_id":"4","last_reported":1750932724,"current_range_meters":7200,"station_id":"ce4bha12rcd13ifvqef0","pricing_plan_id":"cebpf4jnsgd1na2vs0mg"},{"bike_id":"c4d96fb3-dce9-4b63-8bac-1adb35ee1c84","system_id":"levelo_inurba_marseille","lat":43.266824,"lon":5.382683,"is_reserved":false,"is_disabled":false,"rental_uris":{"android":"levelo://app?vid=c4d96fb3-dce9-4b63-8bac-1adb35ee1c84","ios":"levelo://app?vid=c4d96fb3-dce9-4b63-8bac-1adb35ee1c84"},"vehicle_type_id":"4","last_reported":1750932724,"current_range_meters":7200,"station_id":"ce4bhg92rcd13ifvqf90","pricing_plan_id":"cebpf4jnsgd1na2vs0mg"},{"bike_id":"1448f76e-4f78-46b6-a7f0-eb10ae686a5a","system_id":"levelo_inurba_marseille","lat":43.27386,"lon":5.36257,"is_reserved":false,"is_disabled":false,"rental_uris":{"android":"levelo://app?vid=1448f76e-4f78-46b6-a7f0-eb10ae686a5a","ios":"levelo://app?vid=1448f76e-4f78-46b6-a7f0-eb10ae686a5a"},"vehicle_type_id":"4","last_reported":1750932724,"current_range_meters":8000,"station_id":"ce4bhbh2rcd13ifvqeo0","pricing_plan_id":"cebpf4jnsgd1na2vs0mg"},{"bike_id":"25b41fed-946e-4cc4-942b-1629b2a4c5ce","system_id":"levelo_inurba_marseille","lat":43.24193,"lon":5.39693,"is_reserved":false,"is_disabled":false,"rental_uris":{"android":"levelo://app?vid=25b41fed-946e-4cc4-942b-1629b2a4c5ce","ios":"levelo://app?vid=25b41fed-946e-4cc4-942b-1629b2a4c5ce"},"vehicle_type_id":"4","last_reported":1750932724,"current_range_meters":8000,"station_id":"ce4bhn12rcd13ifvqgpg","pricing_plan_id":"cebpf4jnsgd1na2vs0mg"},{"bike_id":"35b14479-4a4d-4383-83de-c7fea66894b3","system_id":"levelo_inurba_marseille","lat":43.299041,"lon":5.436655,"is_reserved":false,"is_disabled":false,"rental_uris":{"android":"levelo://app?vid=35b14479-4a4d-4383-83de-c7fea66894b3","ios":"levelo://app?vid=35b14479-4a4d-4383-83de-c7fea66894b3"},"vehicle_type_id":"4","last_reported":1750932724,"current_range_meters":8000,"station_id":"ce4bhpp2rcd13ifvqhfg","pricing_plan_id":"cebpf4jnsgd1na2vs0mg"},{"bike_id":"af112b62-19de-41d4-b8d7-e14d0172315d","system_id":"levelo_inurba_marseille","lat":43.32699,"lon":5.392214,"is_reserved":false,"is_disabled":false,"rental_uris":{"android":"levelo://app?vid=af112b62-19de-41d4-b8d7-e14d0172315d","ios":"levelo://app?vid=af112b62-19de-41d4-b8d7-e14d0172315d"},"vehicle_type_id":"4","last_reported":1750932724,"current_range_meters":8400,"station_id":"","pricing_plan_id":"cebpf4jnsgd1na2vs0mg"},{"bike_id":"4124c10f-b5c1-4100-9e8c-f258d82c306e","system_id":"levelo_inurba_marseille","lat":43.31699,"lon":5.40494,"is_reserved":false,"is_disabled":false,"rental_uris":{"android":"levelo://app?vid=4124c10f-b5c1-4100-9e8c-f258d82c306e","ios":"levelo://app?vid=4124c10f-b5c1-4100-9e8c-f258d82c306e"},"vehicle_type_id":"4","last_reported":1750932724,"current_range_meters":8400,"station_id":"ce4bh012rcd13ifvqd00","pricing_plan_id":"cebpf4jnsgd1na2vs0mg"},{"bike_id":"68a111a3-562c-4278-a886-4c500bb910cf","system_id":"levelo_inurba_marseille","lat":43.28853,"lon":5.35861,"is_reserved":false,"is_disabled":false,"rental_uris":{"android":"levelo://app?vid=68a111a3-562c-4278-a886-4c500bb910cf","ios":"levelo://app?vid=68a111a3-562c-4278-a886-4c500bb910cf"},"vehicle_type_id":"4","last_reported":1750932724,"current_range_meters":8400,"station_id":"ce4bhb12rcd13ifvqem0","pricing_plan_id":"cebpf4jnsgd1na2vs0mg"},{"bike_id":"65174aaa-d20a-456f-abf2-f297bd07ee84","system_id":"levelo_inurba_marseille","lat":43.27315,"lon":5.39093,"is_reserved":false,"is_disabled":false,"rental_uris":{"android":"levelo://app?vid=65174aaa-d20a-456f-abf2-f297bd07ee84","ios":"levelo://app?vid=65174aaa-d20a-456f-abf2-f297bd07ee84"},"vehicle_type_id":"4","last_reported":1750932724,"current_range_meters":8400,"station_id":"ce4bhgp2rcd13ifvqfe0","pricing_plan_id":"cebpf4jnsgd1na2vs0mg"},{"bike_id":"85aebb63-1277-49af-91e5-22f2d655e266","system_id":"levelo_inurba_marseille","lat":43.299,"lon":5.43669,"is_reserved":false,"is_disabled":false,"rental_uris":{"android":"levelo://app?vid=85aebb63-1277-49af-91e5-22f2d655e266","ios":"levelo://app?vid=85aebb63-1277-49af-91e5-22f2d655e266"},"vehicle_type_id":"4","last_reported":1750932724,"current_range_meters":8400,"station_id":"ce4bhpp2rcd13ifvqhfg","pricing_plan_id":"cebpf4jnsgd1na2vs0mg"},{"bike_id":"fc125dc5-8dae-467f-bd5b-8f20b95cfd41","system_id":"levelo_inurba_marseille","lat":43.31755,"lon":5.40456,"is_reserved":false,"is_disabled":false,"rental_uris":{"android":"levelo://app?vid=fc125dc5-8dae-467f-bd5b-8f20b95cfd41","ios":"levelo://app?vid=fc125dc5-8dae-467f-bd5b-8f20b95cfd41"},"vehicle_type_id":"4","last_reported":1750932724,"current_range_meters":8800,"station_id":"","pricing_plan_id":"cebpf4jnsgd1na2vs0mg"},{"bike_id":"efbeba56-e706-4870-8250-6e1a5e4d8add","system_id":"levelo_inurba_marseille","lat":43.29711,"lon":5.37695,"is_reserved":false,"is_disabled":false,"rental_uris":{"android":"levelo://app?vid=efbeba56-e706-4870-8250-6e1a5e4d8add","ios":"levelo://app?vid=efbeba56-e706-4870-8250-6e1a5e4d8add"},"vehicle_type_id":"4","last_reported":1750932724,"current_range_meters":8800,"station_id":"ce4bgkh2rcd13ifvqbl0","pricing_plan_id":"cebpf4jnsgd1na2vs0mg"},{"bike_id":"bb4289ce-4e54-43a6-ae23-c2e2b73c6103","system_id":"levelo_inurba_marseille","lat":43.2986,"lon":5.36284,"is_reserved":false,"is_disabled":false,"rental_uris":{"android":"levelo://app?vid=bb4289ce-4e54-43a6-ae23-c2e2b73c6103","ios":"levelo://app?vid=bb4289ce-4e54-43a6-ae23-c2e2b73c6103"},"vehicle_type_id":"4","last_reported":1750932724,"current_range_meters":8800,"station_id":"ce4bgpp2rcd13ifvqc3g","pricing_plan_id":"cebpf4jnsgd1na2vs0mg"},{"bike_id":"e84dcfd4-ee6e-4947-8a5f-3619bd87ff32","system_id":"levelo_inurba_marseille","lat":43.30536,"lon":5.36543,"is_reserved":false,"is_disabled":false,"rental_uris":{"android":"levelo://app?vid=e84dcfd4-ee6e-4947-8a5f-3619bd87ff32","ios":"levelo://app?vid=e84dcfd4-ee6e-4947-8a5f-3619bd87ff32"},"vehicle_type_id":"4","last_reported":1750932724,"current_range_meters":8800,"station_id":"ce4bgs12rcd13ifvqcag","pricing_plan_id":"cebpf4jnsgd1na2vs0mg"},{"bike_id":"e0957ba6-0f44-4adb-b73c-e37e37bcfd87","system_id":"levelo_inurba_marseille","lat":43.29054,"lon":5.3591,"is_reserved":false,"is_disabled":false,"rental_uris":{"android":"levelo://app?vid=e0957ba6-0f44-4adb-b73c-e37e37bcfd87","ios":"levelo://app?vid=e0957ba6-0f44-4adb-b73c-e37e37bcfd87"},"vehicle_type_id":"4","last_reported":1750932724,"current_range_meters":8800,"station_id":"ce4bha92rcd13ifvqeg0","pricing_plan_id":"cebpf4jnsgd1na2vs0mg"},{"bike_id":"de9517d6-2ebc-4b70-9b28-c89e50b5ba3c","system_id":"levelo_inurba_marseille","lat":43.273706,"lon":5.362418,"is_reserved":false,"is_disabled":false,"rental_uris":{"android":"levelo://app?vid=de9517d6-2ebc-4b70-9b28-c89e50b5ba3c","ios":"levelo://app?vid=de9517d6-2ebc-4b70-9b28-c89e50b5ba3c"},"vehicle_type_id":"4","last_reported":1750932724,"current_range_meters":8800,"station_id":"ce4bhbh2rcd13ifvqeo0","pricing_plan_id":"cebpf4jnsgd1na2vs0mg"},{"bike_id":"530313bf-3df9-44db-bdb2-51d9016785ed","system_id":"levelo_inurba_marseille","lat":43.27187,"lon":5.41003,"is_reserved":false,"is_disabled":false,"rental_uris":{"android":"levelo://app?vid=530313bf-3df9-44db-bdb2-51d9016785ed","ios":"levelo://app?vid=530313bf-3df9-44db-bdb2-51d9016785ed"},"vehicle_type_id":"4","last_reported":1750932724,"current_range_meters":8800,"station_id":"ce4bhl12rcd13ifvqgf0","pricing_plan_id":"cebpf4jnsgd1na2vs0mg"},{"bike_id":"5eee8925-0941-460b-a942-18fcb70bac7c","system_id":"levelo_inurba_marseille","lat":43.272504,"lon":5.400497,"is_reserved":false,"is_disabled":false,"rental_uris":{"android":"levelo://app?vid=5eee8925-0941-460b-a942-18fcb70bac7c","ios":"levelo://app?vid=5eee8925-0941-460b-a942-18fcb70bac7c"},"vehicle_type_id":"4","last_reported":1750932724,"current_range_meters":9200,"station_id":"","pricing_plan_id":"cebpf4jnsgd1na2vs0mg"},{"bike_id":"26a14eba-87a9-47b8-9607-30bd0042d428","system_id":"levelo_inurba_marseille","lat":43.31465,"lon":5.39435,"is_reserved":false,"is_disabled":false,"rental_uris":{"android":"levelo://app?vid=26a14eba-87a9-47b8-9607-30bd0042d428","ios":"levelo://app?vid=26a14eba-87a9-47b8-9607-30bd0042d428"},"vehicle_type_id":"4","last_reported":1750932724,"current_range_meters":9200,"station_id":"","pricing_plan_id":"cebpf4jnsgd1na2vs0mg"},{"bike_id":"04dc9124-23f0-4820-8c71-0a486bcb88d6","system_id":"levelo_inurba_marseille","lat":43.29908,"lon":5.38144,"is_reserved":false,"is_disabled":false,"rental_uris":{"android":"levelo://app?vid=04dc9124-23f0-4820-8c71-0a486bcb88d6","ios":"levelo://app?vid=04dc9124-23f0-4820-8c71-0a486bcb88d6"},"vehicle_type_id":"4","last_reported":1750932724,"current_range_meters":9200,"station_id":"ce4bgj12rcd13ifvqbc0","pricing_plan_id":"cebpf4jnsgd1na2vs0mg"},{"bike_id":"ab6bd442-7df4-49f9-a454-4d6965b66e3d","system_id":"levelo_inurba_marseille","lat":43.27373,"lon":5.36264,"is_reserved":false,"is_disabled":false,"rental_uris":{"android":"levelo://app?vid=ab6bd442-7df4-49f9-a454-4d6965b66e3d","ios":"levelo://app?vid=ab6bd442-7df4-49f9-a454-4d6965b66e3d"},"vehicle_type_id":"4","last_reported":1750932724,"current_range_meters":9200,"station_id":"ce4bhbh2rcd13ifvqeo0","pricing_plan_id":"cebpf4jnsgd1na2vs0mg"},{"bike_id":"441e2f39-7054-4744-894b-72ac8474531d","system_id":"levelo_inurba_marseille","lat":43.211931,"lon":5.350912,"is_reserved":false,"is_disabled":false,"rental_uris":{"android":"levelo://app?vid=441e2f39-7054-4744-894b-72ac8474531d","ios":"levelo://app?vid=441e2f39-7054-4744-894b-72ac8474531d"},"vehicle_type_id":"4","last_reported":1750932724,"current_range_meters":9200,"station_id":"st_cvj6sg6p6f1abm77japg","pricing_plan_id":"cebpf4jnsgd1na2vs0mg"},{"bike_id":"3a58a285-484b-40bc-bb74-8ff082b9e231","system_id":"levelo_inurba_marseille","lat":43.29622,"lon":5.37162,"is_reserved":false,"is_disabled":false,"rental_uris":{"android":"levelo://app?vid=3a58a285-484b-40bc-bb74-8ff082b9e231","ios":"levelo://app?vid=3a58a285-484b-40bc-bb74-8ff082b9e231"},"vehicle_type_id":"4","last_reported":1750932724,"current_range_meters":9600,"station_id":"ce4bgnh2rcd13ifvqc0g","pricing_plan_id":"cebpf4jnsgd1na2vs0mg"},{"bike_id":"d9ce2b2f-6c14-4df8-8643-b140c6f209ff","system_id":"levelo_inurba_marseille","lat":43.29831,"lon":5.36273,"is_reserved":false,"is_disabled":false,"rental_uris":{"android":"levelo://app?vid=d9ce2b2f-6c14-4df8-8643-b140c6f209ff","ios":"levelo://app?vid=d9ce2b2f-6c14-4df8-8643-b140c6f209ff"},"vehicle_type_id":"4","last_reported":1750932724,"current_range_meters":9600,"station_id":"ce4bgpp2rcd13ifvqc3g","pricing_plan_id":"cebpf4jnsgd1na2vs0mg"},{"bike_id":"f8715c6a-faa5-49e3-9105-2db28a6db323","system_id":"levelo_inurba_marseille","lat":43.31498,"lon":5.37302,"is_reserved":false,"is_disabled":false,"rental_uris":{"android":"levelo://app?vid=f8715c6a-faa5-49e3-9105-2db28a6db323","ios":"levelo://app?vid=f8715c6a-faa5-49e3-9105-2db28a6db323"},"vehicle_type_id":"4","last_reported":1750932724,"current_range_meters":9600,"station_id":"ce4bgt12rcd13ifvqcd0","pricing_plan_id":"cebpf4jnsgd1na2vs0mg"},{"bike_id":"272e0ee9-032b-4485-9697-f7d52e766c5a","system_id":"levelo_inurba_marseille","lat":43.30882,"lon":5.37181,"is_reserved":false,"is_disabled":false,"rental_uris":{"android":"levelo://app?vid=272e0ee9-032b-4485-9697-f7d52e766c5a","ios":"levelo://app?vid=272e0ee9-032b-4485-9697-f7d52e766c5a"},"vehicle_type_id":"4","last_reported":1750932724,"current_range_meters":9600,"station_id":"ce4bguh2rcd13ifvqckg","pricing_plan_id":"cebpf4jnsgd1na2vs0mg"},{"bike_id":"81997b46-45c0-42be-85e8-113e5c544156","system_id":"levelo_inurba_marseille","lat":43.28616,"lon":5.35107,"is_reserved":false,"is_disabled":false,"rental_uris":{"android":"levelo://app?vid=81997b46-45c0-42be-85e8-113e5c544156","ios":"levelo://app?vid=81997b46-45c0-42be-85e8-113e5c544156"},"vehicle_type_id":"4","last_reported":1750932724,"current_range_meters":9600,"station_id":"ce4bhch2rcd13ifvqeug","pricing_plan_id":"cebpf4jnsgd1na2vs0mg"},{"bike_id":"f1a59cd5-b9e1-48fd-8815-d6832db16ff2","system_id":"levelo_inurba_marseille","lat":43.27962,"lon":5.38734,"is_reserved":false,"is_disabled":false,"rental_uris":{"android":"levelo://app?vid=f1a59cd5-b9e1-48fd-8815-d6832db16ff2","ios":"levelo://app?vid=f1a59cd5-b9e1-48fd-8815-d6832db16ff2"},"vehicle_type_id":"4","last_reported":1750932724,"current_range_meters":9600,"station_id":"ce4bhg12rcd13ifvqf80","pricing_plan_id":"cebpf4jnsgd1na2vs0mg"},{"bike_id":"e2f5b300-4a63-4778-aada-c29a8a0ea1e8","system_id":"levelo_inurba_marseille","lat":43.327974,"lon":5.392024,"is_reserved":false,"is_disabled":false,"rental_uris":{"android":"levelo://app?vid=e2f5b300-4a63-4778-aada-c29a8a0ea1e8","ios":"levelo://app?vid=e2f5b300-4a63-4778-aada-c29a8a0ea1e8"},"vehicle_type_id":"4","last_reported":1750932724,"current_range_meters":10000,"station_id":"","pricing_plan_id":"cebpf4jnsgd1na2vs0mg"},{"bike_id":"62d6c771-e37b-4a6b-9c3e-dd6006a7a7e6","system_id":"levelo_inurba_marseille","lat":43.30525,"lon":5.365382,"is_reserved":false,"is_disabled":false,"rental_uris":{"android":"levelo://app?vid=62d6c771-e37b-4a6b-9c3e-dd6006a7a7e6","ios":"levelo://app?vid=62d6c771-e37b-4a6b-9c3e-dd6006a7a7e6"},"vehicle_type_id":"4","last_reported":1750932724,"current_range_meters":10000,"station_id":"ce4bgs12rcd13ifvqcag","pricing_plan_id":"cebpf4jnsgd1na2vs0mg"},{"bike_id":"4d6658f4-b84c-4066-af22-3348974d22c3","system_id":"levelo_inurba_marseille","lat":43.31114,"lon":5.37747,"is_reserved":false,"is_disabled":false,"rental_uris":{"android":"levelo://app?vid=4d6658f4-b84c-4066-af22-3348974d22c3","ios":"levelo://app?vid=4d6658f4-b84c-4066-af22-3348974d22c3"},"vehicle_type_id":"4","last_reported":1750932724,"current_range_meters":10000,"station_id":"ce4bgt92rcd13ifvqcg0","pricing_plan_id":"cebpf4jnsgd1na2vs0mg"},{"bike_id":"b6faafa5-7b92-4d18-9097-43eb660d6fc5","system_id":"levelo_inurba_marseille","lat":43.27053,"lon":5.40262,"is_reserved":false,"is_disabled":false,"rental_uris":{"android":"levelo://app?vid=b6faafa5-7b92-4d18-9097-43eb660d6fc5","ios":"levelo://app?vid=b6faafa5-7b92-4d18-9097-43eb660d6fc5"},"vehicle_type_id":"4","last_reported":1750932724,"current_range_meters":10000,"station_id":"ce4bhk92rcd13ifvqgc0","pricing_plan_id":"cebpf4jnsgd1na2vs0mg"},{"bike_id":"d1a99f56-51e8-4b3b-ac3c-9e6392d0b3f2","system_id":"levelo_inurba_marseille","lat":43.2294,"lon":5.3537,"is_reserved":false,"is_disabled":false,"rental_uris":{"android":"levelo://app?vid=d1a99f56-51e8-4b3b-ac3c-9e6392d0b3f2","ios":"levelo://app?vid=d1a99f56-51e8-4b3b-ac3c-9e6392d0b3f2"},"vehicle_type_id":"4","last_reported":1750932724,"current_range_meters":10000,"station_id":"cpo3532slgdg3j2ikp40","pricing_plan_id":"cebpf4jnsgd1na2vs0mg"},{"bike_id":"5ce5e0e2-9387-4332-a66d-d86ee4ac1e87","system_id":"levelo_inurba_marseille","lat":43.22943,"lon":5.35376,"is_reserved":false,"is_disabled":false,"rental_uris":{"android":"levelo://app?vid=5ce5e0e2-9387-4332-a66d-d86ee4ac1e87","ios":"levelo://app?vid=5ce5e0e2-9387-4332-a66d-d86ee4ac1e87"},"vehicle_type_id":"4","last_reported":1750932724,"current_range_meters":10000,"station_id":"cpo3532slgdg3j2ikp40","pricing_plan_id":"cebpf4jnsgd1na2vs0mg"},{"bike_id":"535f9163-17b5-4712-b6b9-756960684778","system_id":"levelo_inurba_marseille","lat":43.33085,"lon":5.40797,"is_reserved":false,"is_disabled":false,"rental_uris":{"android":"levelo://app?vid=535f9163-17b5-4712-b6b9-756960684778","ios":"levelo://app?vid=535f9163-17b5-4712-b6b9-756960684778"},"vehicle_type_id":"4","last_reported":1750932724,"current_range_meters":10800,"station_id":"","pricing_plan_id":"cebpf4jnsgd1na2vs0mg"},{"bike_id":"a3a5c5ed-fa36-457f-a59e-9f859e100ad0","system_id":"levelo_inurba_marseille","lat":43.30534,"lon":5.36537,"is_reserved":false,"is_disabled":false,"rental_uris":{"android":"levelo://app?vid=a3a5c5ed-fa36-457f-a59e-9f859e100ad0","ios":"levelo://app?vid=a3a5c5ed-fa36-457f-a59e-9f859e100ad0"},"vehicle_type_id":"4","last_reported":1750932724,"current_range_meters":10800,"station_id":"ce4bgs12rcd13ifvqcag","pricing_plan_id":"cebpf4jnsgd1na2vs0mg"},{"bike_id":"0897ad50-5609-4422-90b4-d25c3cb357f5","system_id":"levelo_inurba_marseille","lat":43.31713,"lon":5.43707,"is_reserved":false,"is_disabled":false,"rental_uris":{"android":"levelo://app?vid=0897ad50-5609-4422-90b4-d25c3cb357f5","ios":"levelo://app?vid=0897ad50-5609-4422-90b4-d25c3cb357f5"},"vehicle_type_id":"4","last_reported":1750932724,"current_range_meters":10800,"station_id":"ce4bhp92rcd13ifvqhcg","pricing_plan_id":"cebpf4jnsgd1na2vs0mg"},{"bike_id":"34bdad71-a3db-4152-b25e-7e14fb5bcd82","system_id":"levelo_inurba_marseille","lat":43.31296,"lon":5.38522,"is_reserved":false,"is_disabled":false,"rental_uris":{"android":"levelo://app?vid=34bdad71-a3db-4152-b25e-7e14fb5bcd82","ios":"levelo://app?vid=34bdad71-a3db-4152-b25e-7e14fb5bcd82"},"vehicle_type_id":"4","last_reported":1750932724,"current_range_meters":11200,"station_id":"","pricing_plan_id":"cebpf4jnsgd1na2vs0mg"},{"bike_id":"a258b32b-147b-4d25-9188-4f6de201ff54","system_id":"levelo_inurba_marseille","lat":43.30909,"lon":5.36843,"is_reserved":false,"is_disabled":false,"rental_uris":{"android":"levelo://app?vid=a258b32b-147b-4d25-9188-4f6de201ff54","ios":"levelo://app?vid=a258b32b-147b-4d25-9188-4f6de201ff54"},"vehicle_type_id":"4","last_reported":1750932724,"current_range_meters":11200,"station_id":"ce4bgn92rcd13ifvqbvg","pricing_plan_id":"cebpf4jnsgd1na2vs0mg"},{"bike_id":"c2f2b7f5-d8f9-4241-8a0e-96290ffa6698","system_id":"levelo_inurba_marseille","lat":43.30883,"lon":5.37193,"is_reserved":false,"is_disabled":false,"rental_uris":{"android":"levelo://app?vid=c2f2b7f5-d8f9-4241-8a0e-96290ffa6698","ios":"levelo://app?vid=c2f2b7f5-d8f9-4241-8a0e-96290ffa6698"},"vehicle_type_id":"4","last_reported":1750932724,"current_range_meters":11200,"station_id":"ce4bguh2rcd13ifvqckg","pricing_plan_id":"cebpf4jnsgd1na2vs0mg"},{"bike_id":"cc5549e9-7d95-49b9-a006-65f01c826348","system_id":"levelo_inurba_marseille","lat":43.28613,"lon":5.35096,"is_reserved":false,"is_disabled":false,"rental_uris":{"android":"levelo://app?vid=cc5549e9-7d95-49b9-a006-65f01c826348","ios":"levelo://app?vid=cc5549e9-7d95-49b9-a006-65f01c826348"},"vehicle_type_id":"4","last_reported":1750932724,"current_range_meters":11200,"station_id":"ce4bhch2rcd13ifvqeug","pricing_plan_id":"cebpf4jnsgd1na2vs0mg"},{"bike_id":"90382e7d-e554-4955-b926-5c2bc0107989","system_id":"levelo_inurba_marseille","lat":43.23155,"lon":5.43675,"is_reserved":false,"is_disabled":false,"rental_uris":{"android":"levelo://app?vid=90382e7d-e554-4955-b926-5c2bc0107989","ios":"levelo://app?vid=90382e7d-e554-4955-b926-5c2bc0107989"},"vehicle_type_id":"4","last_reported":1750932724,"current_range_meters":11200,"station_id":"ce4bhmp2rcd13ifvqgog","pricing_plan_id":"cebpf4jnsgd1na2vs0mg"},{"bike_id":"7ace27f0-410a-47e9-8803-4f4b9ee31b1d","system_id":"levelo_inurba_marseille","lat":43.33576,"lon":5.41024,"is_reserved":false,"is_disabled":false,"rental_uris":{"android":"levelo://app?vid=7ace27f0-410a-47e9-8803-4f4b9ee31b1d","ios":"levelo://app?vid=7ace27f0-410a-47e9-8803-4f4b9ee31b1d"},"vehicle_type_id":"4","last_reported":1750932724,"current_range_meters":11200,"station_id":"ce4bhqh2rcd13ifvqhmg","pricing_plan_id":"cebpf4jnsgd1na2vs0mg"},{"bike_id":"6bff5b35-c04f-4610-b434-dcfc99322f1d","system_id":"levelo_inurba_marseille","lat":43.29988,"lon":5.37091,"is_reserved":false,"is_disabled":false,"rental_uris":{"android":"levelo://app?vid=6bff5b35-c04f-4610-b434-dcfc99322f1d","ios":"levelo://app?vid=6bff5b35-c04f-4610-b434-dcfc99322f1d"},"vehicle_type_id":"4","last_reported":1750932724,"current_range_meters":11600,"station_id":"","pricing_plan_id":"cebpf4jnsgd1na2vs0mg"},{"bike_id":"347bd77c-407a-4169-b3b2-fa77f9be4559","system_id":"levelo_inurba_marseille","lat":43.3091,"lon":5.36856,"is_reserved":false,"is_disabled":false,"rental_uris":{"android":"levelo://app?vid=347bd77c-407a-4169-b3b2-fa77f9be4559","ios":"levelo://app?vid=347bd77c-407a-4169-b3b2-fa77f9be4559"},"vehicle_type_id":"4","last_reported":1750932724,"current_range_meters":11600,"station_id":"ce4bgn92rcd13ifvqbvg","pricing_plan_id":"cebpf4jnsgd1na2vs0mg"},{"bike_id":"5532f677-3f98-48b8-bcd8-f7f9ded94aeb","system_id":"levelo_inurba_marseille","lat":43.26204,"lon":5.37931,"is_reserved":false,"is_disabled":false,"rental_uris":{"android":"levelo://app?vid=5532f677-3f98-48b8-bcd8-f7f9ded94aeb","ios":"levelo://app?vid=5532f677-3f98-48b8-bcd8-f7f9ded94aeb"},"vehicle_type_id":"4","last_reported":1750932724,"current_range_meters":11600,"station_id":"ce4bhjp2rcd13ifvqg90","pricing_plan_id":"cebpf4jnsgd1na2vs0mg"},{"bike_id":"28259b2d-0325-4daa-ab79-f0bba84c837c","system_id":"levelo_inurba_marseille","lat":43.27159,"lon":5.40997,"is_reserved":false,"is_disabled":false,"rental_uris":{"android":"levelo://app?vid=28259b2d-0325-4daa-ab79-f0bba84c837c","ios":"levelo://app?vid=28259b2d-0325-4daa-ab79-f0bba84c837c"},"vehicle_type_id":"4","last_reported":1750932724,"current_range_meters":11600,"station_id":"ce4bhl12rcd13ifvqgf0","pricing_plan_id":"cebpf4jnsgd1na2vs0mg"},{"bike_id":"1c04c8f2-65b5-4e43-830b-5b38714243f6","system_id":"levelo_inurba_marseille","lat":43.336049,"lon":5.410182,"is_reserved":false,"is_disabled":false,"rental_uris":{"android":"levelo://app?vid=1c04c8f2-65b5-4e43-830b-5b38714243f6","ios":"levelo://app?vid=1c04c8f2-65b5-4e43-830b-5b38714243f6"},"vehicle_type_id":"4","last_reported":1750932724,"current_range_meters":11600,"station_id":"ce4bhqh2rcd13ifvqhmg","pricing_plan_id":"cebpf4jnsgd1na2vs0mg"},{"bike_id":"00ff5a03-c257-4d51-93ce-c2427cc55bdc","system_id":"levelo_inurba_marseille","lat":43.29181,"lon":5.35791,"is_reserved":false,"is_disabled":false,"rental_uris":{"android":"levelo://app?vid=00ff5a03-c257-4d51-93ce-c2427cc55bdc","ios":"levelo://app?vid=00ff5a03-c257-4d51-93ce-c2427cc55bdc"},"vehicle_type_id":"4","last_reported":1750932724,"current_range_meters":12000,"station_id":"","pricing_plan_id":"cebpf4jnsgd1na2vs0mg"},{"bike_id":"a9d25cad-d480-4c75-aec5-3969f1a4e6c7","system_id":"levelo_inurba_marseille","lat":43.32927,"lon":5.39087,"is_reserved":false,"is_disabled":false,"rental_uris":{"android":"levelo://app?vid=a9d25cad-d480-4c75-aec5-3969f1a4e6c7","ios":"levelo://app?vid=a9d25cad-d480-4c75-aec5-3969f1a4e6c7"},"vehicle_type_id":"4","last_reported":1750932724,"current_range_meters":12000,"station_id":"","pricing_plan_id":"cebpf4jnsgd1na2vs0mg"},{"bike_id":"7e31d3d8-634d-4148-91b9-c985475605f1","system_id":"levelo_inurba_marseille","lat":43.31356,"lon":5.3674,"is_reserved":false,"is_disabled":false,"rental_uris":{"android":"levelo://app?vid=7e31d3d8-634d-4148-91b9-c985475605f1","ios":"levelo://app?vid=7e31d3d8-634d-4148-91b9-c985475605f1"},"vehicle_type_id":"4","last_reported":1750932724,"current_range_meters":12000,"station_id":"ce4bgr92rcd13ifvqc6g","pricing_plan_id":"cebpf4jnsgd1na2vs0mg"},{"bike_id":"78bedbed-ec5c-429e-9b2a-db592d4ad5c9","system_id":"levelo_inurba_marseille","lat":43.3095,"lon":5.39037,"is_reserved":false,"is_disabled":false,"rental_uris":{"android":"levelo://app?vid=78bedbed-ec5c-429e-9b2a-db592d4ad5c9","ios":"levelo://app?vid=78bedbed-ec5c-429e-9b2a-db592d4ad5c9"},"vehicle_type_id":"4","last_reported":1750932724,"current_range_meters":12000,"station_id":"ce4bgup2rcd13ifvqco0","pricing_plan_id":"cebpf4jnsgd1na2vs0mg"},{"bike_id":"07e209d0-db00-4160-a855-85a45d813793","system_id":"levelo_inurba_marseille","lat":43.279394,"lon":5.410436,"is_reserved":false,"is_disabled":false,"rental_uris":{"android":"levelo://app?vid=07e209d0-db00-4160-a855-85a45d813793","ios":"levelo://app?vid=07e209d0-db00-4160-a855-85a45d813793"},"vehicle_type_id":"4","last_reported":1750932724,"current_range_meters":12000,"station_id":"ce4bhnp2rcd13ifvqh0g","pricing_plan_id":"cebpf4jnsgd1na2vs0mg"},{"bike_id":"add6291a-dee0-4030-8588-25617391e274","system_id":"levelo_inurba_marseille","lat":43.33612,"lon":5.40998,"is_reserved":false,"is_disabled":false,"rental_uris":{"android":"levelo://app?vid=add6291a-dee0-4030-8588-25617391e274","ios":"levelo://app?vid=add6291a-dee0-4030-8588-25617391e274"},"vehicle_type_id":"4","last_reported":1750932724,"current_range_meters":12000,"station_id":"ce4bhqh2rcd13ifvqhmg","pricing_plan_id":"cebpf4jnsgd1na2vs0mg"},{"bike_id":"f47876d7-9c85-474e-92c5-7a242e08b67c","system_id":"levelo_inurba_marseille","lat":43.305562,"lon":5.37568,"is_reserved":false,"is_disabled":false,"rental_uris":{"android":"levelo://app?vid=f47876d7-9c85-474e-92c5-7a242e08b67c","ios":"levelo://app?vid=f47876d7-9c85-474e-92c5-7a242e08b67c"},"vehicle_type_id":"4","last_reported":1750932724,"current_range_meters":12400,"station_id":"","pricing_plan_id":"cebpf4jnsgd1na2vs0mg"},{"bike_id":"0320b57d-5d5e-44b5-8e3e-e7243e2ac86e","system_id":"levelo_inurba_marseille","lat":43.31075,"lon":5.38358,"is_reserved":false,"is_disabled":false,"rental_uris":{"android":"levelo://app?vid=0320b57d-5d5e-44b5-8e3e-e7243e2ac86e","ios":"levelo://app?vid=0320b57d-5d5e-44b5-8e3e-e7243e2ac86e"},"vehicle_type_id":"4","last_reported":1750932724,"current_range_meters":12400,"station_id":"ce4bgv92rcd13ifvqcr0","pricing_plan_id":"cebpf4jnsgd1na2vs0mg"},{"bike_id":"e84de95a-f583-4156-9930-14f69f108f4c","system_id":"levelo_inurba_marseille","lat":43.27171,"lon":5.40988,"is_reserved":false,"is_disabled":false,"rental_uris":{"android":"levelo://app?vid=e84de95a-f583-4156-9930-14f69f108f4c","ios":"levelo://app?vid=e84de95a-f583-4156-9930-14f69f108f4c"},"vehicle_type_id":"4","last_reported":1750932724,"current_range_meters":12400,"station_id":"ce4bhl12rcd13ifvqgf0","pricing_plan_id":"cebpf4jnsgd1na2vs0mg"},{"bike_id":"fe1e536f-d26d-4693-b98d-b56ff09e03eb","system_id":"levelo_inurba_marseille","lat":43.32342,"lon":5.36737,"is_reserved":false,"is_disabled":false,"rental_uris":{"android":"levelo://app?vid=fe1e536f-d26d-4693-b98d-b56ff09e03eb","ios":"levelo://app?vid=fe1e536f-d26d-4693-b98d-b56ff09e03eb"},"vehicle_type_id":"4","last_reported":1750932724,"current_range_meters":12400,"station_id":"ce4bhsh2rcd13ifvqi2g","pricing_plan_id":"cebpf4jnsgd1na2vs0mg"},{"bike_id":"a9b6c532-9383-4cf0-b871-0e3f2af47aba","system_id":"levelo_inurba_marseille","lat":43.257198,"lon":5.411069,"is_reserved":false,"is_disabled":false,"rental_uris":{"android":"levelo://app?vid=a9b6c532-9383-4cf0-b871-0e3f2af47aba","ios":"levelo://app?vid=a9b6c532-9383-4cf0-b871-0e3f2af47aba"},"vehicle_type_id":"4","last_reported":1750932724,"current_range_meters":12800,"station_id":"ce4bhkp2rcd13ifvqgd0","pricing_plan_id":"cebpf4jnsgd1na2vs0mg"},{"bike_id":"15b2721a-3664-49e1-9877-261c08daeef5","system_id":"levelo_inurba_marseille","lat":43.21189,"lon":5.35092,"is_reserved":false,"is_disabled":false,"rental_uris":{"android":"levelo://app?vid=15b2721a-3664-49e1-9877-261c08daeef5","ios":"levelo://app?vid=15b2721a-3664-49e1-9877-261c08daeef5"},"vehicle_type_id":"4","last_reported":1750932724,"current_range_meters":12800,"station_id":"st_cvj6sg6p6f1abm77japg","pricing_plan_id":"cebpf4jnsgd1na2vs0mg"},{"bike_id":"de0f7c2b-5974-4035-a240-8ed367c0e3f3","system_id":"levelo_inurba_marseille","lat":43.319669,"lon":5.376281,"is_reserved":false,"is_disabled":false,"rental_uris":{"android":"levelo://app?vid=de0f7c2b-5974-4035-a240-8ed367c0e3f3","ios":"levelo://app?vid=de0f7c2b-5974-4035-a240-8ed367c0e3f3"},"vehicle_type_id":"4","last_reported":1750932724,"current_range_meters":13600,"station_id":"","pricing_plan_id":"cebpf4jnsgd1na2vs0mg"},{"bike_id":"65bcbc32-d8de-465d-80ed-49e78a8559df","system_id":"levelo_inurba_marseille","lat":43.30964,"lon":5.39051,"is_reserved":false,"is_disabled":false,"rental_uris":{"android":"levelo://app?vid=65bcbc32-d8de-465d-80ed-49e78a8559df","ios":"levelo://app?vid=65bcbc32-d8de-465d-80ed-49e78a8559df"},"vehicle_type_id":"4","last_reported":1750932724,"current_range_meters":13600,"station_id":"ce4bgup2rcd13ifvqco0","pricing_plan_id":"cebpf4jnsgd1na2vs0mg"},{"bike_id":"bebdc62e-d63d-450b-8daa-bcf4c2897f02","system_id":"levelo_inurba_marseille","lat":43.309275,"lon":5.401405,"is_reserved":false,"is_disabled":false,"rental_uris":{"android":"levelo://app?vid=bebdc62e-d63d-450b-8daa-bcf4c2897f02","ios":"levelo://app?vid=bebdc62e-d63d-450b-8daa-bcf4c2897f02"},"vehicle_type_id":"4","last_reported":1750932724,"current_range_meters":13600,"station_id":"ce4bgvp2rcd13ifvqct0","pricing_plan_id":"cebpf4jnsgd1na2vs0mg"},{"bike_id":"a469b637-6e9f-4b57-bde6-6d37c6ead3d7","system_id":"levelo_inurba_marseille","lat":43.28676,"lon":5.38651,"is_reserved":false,"is_disabled":false,"rental_uris":{"android":"levelo://app?vid=a469b637-6e9f-4b57-bde6-6d37c6ead3d7","ios":"levelo://app?vid=a469b637-6e9f-4b57-bde6-6d37c6ead3d7"},"vehicle_type_id":"4","last_reported":1750932724,"current_range_meters":13600,"station_id":"ce4bh492rcd13ifvqdug","pricing_plan_id":"cebpf4jnsgd1na2vs0mg"},{"bike_id":"27033752-2997-4e57-9c59-05e6c76ac7d9","system_id":"levelo_inurba_marseille","lat":43.26786,"lon":5.39412,"is_reserved":false,"is_disabled":false,"rental_uris":{"android":"levelo://app?vid=27033752-2997-4e57-9c59-05e6c76ac7d9","ios":"levelo://app?vid=27033752-2997-4e57-9c59-05e6c76ac7d9"},"vehicle_type_id":"4","last_reported":1750932724,"current_range_meters":13600,"station_id":"ce4bhh12rcd13ifvqfg0","pricing_plan_id":"cebpf4jnsgd1na2vs0mg"},{"bike_id":"18f570d1-96a1-4a2e-aa03-453dfb00fea6","system_id":"levelo_inurba_marseille","lat":43.30419,"lon":5.38879,"is_reserved":false,"is_disabled":false,"rental_uris":{"android":"levelo://app?vid=18f570d1-96a1-4a2e-aa03-453dfb00fea6","ios":"levelo://app?vid=18f570d1-96a1-4a2e-aa03-453dfb00fea6"},"vehicle_type_id":"4","last_reported":1750932724,"current_range_meters":14000,"station_id":"ce4bgk12rcd13ifvqbi0","pricing_plan_id":"cebpf4jnsgd1na2vs0mg"},{"bike_id":"453cd9eb-004c-481a-9adc-5c7483287d2d","system_id":"levelo_inurba_marseille","lat":43.27377,"lon":5.36248,"is_reserved":false,"is_disabled":false,"rental_uris":{"android":"levelo://app?vid=453cd9eb-004c-481a-9adc-5c7483287d2d","ios":"levelo://app?vid=453cd9eb-004c-481a-9adc-5c7483287d2d"},"vehicle_type_id":"4","last_reported":1750932724,"current_range_meters":14000,"station_id":"ce4bhbh2rcd13ifvqeo0","pricing_plan_id":"cebpf4jnsgd1na2vs0mg"},{"bike_id":"5d97ba86-e06d-4a4a-8b00-a18d8279549a","system_id":"levelo_inurba_marseille","lat":43.28413,"lon":5.34981,"is_reserved":false,"is_disabled":false,"rental_uris":{"android":"levelo://app?vid=5d97ba86-e06d-4a4a-8b00-a18d8279549a","ios":"levelo://app?vid=5d97ba86-e06d-4a4a-8b00-a18d8279549a"},"vehicle_type_id":"4","last_reported":1750932724,"current_range_meters":14000,"station_id":"ce4bhbh2rcd13ifvqepg","pricing_plan_id":"cebpf4jnsgd1na2vs0mg"},{"bike_id":"9768d05c-2a69-4992-bdf6-c3af3b42204c","system_id":"levelo_inurba_marseille","lat":43.3036,"lon":5.42484,"is_reserved":false,"is_disabled":false,"rental_uris":{"android":"levelo://app?vid=9768d05c-2a69-4992-bdf6-c3af3b42204c","ios":"levelo://app?vid=9768d05c-2a69-4992-bdf6-c3af3b42204c"},"vehicle_type_id":"4","last_reported":1750932724,"current_range_meters":14000,"station_id":"ce4bhoh2rcd13ifvqh6g","pricing_plan_id":"cebpf4jnsgd1na2vs0mg"},{"bike_id":"70a87e8b-7ad1-4bdf-b181-5e2fc38709cd","system_id":"levelo_inurba_marseille","lat":43.298986,"lon":5.436725,"is_reserved":false,"is_disabled":false,"rental_uris":{"android":"levelo://app?vid=70a87e8b-7ad1-4bdf-b181-5e2fc38709cd","ios":"levelo://app?vid=70a87e8b-7ad1-4bdf-b181-5e2fc38709cd"},"vehicle_type_id":"4","last_reported":1750932724,"current_range_meters":14000,"station_id":"ce4bhpp2rcd13ifvqhfg","pricing_plan_id":"cebpf4jnsgd1na2vs0mg"},{"bike_id":"ee26e564-93e6-4bc1-9449-798531d0965f","system_id":"levelo_inurba_marseille","lat":43.32485,"lon":5.36561,"is_reserved":false,"is_disabled":false,"rental_uris":{"android":"levelo://app?vid=ee26e564-93e6-4bc1-9449-798531d0965f","ios":"levelo://app?vid=ee26e564-93e6-4bc1-9449-798531d0965f"},"vehicle_type_id":"4","last_reported":1750932724,"current_range_meters":14000,"station_id":"ce4bhs12rcd13ifvqhvg","pricing_plan_id":"cebpf4jnsgd1na2vs0mg"},{"bike_id":"7f212f1e-9b22-4ad3-88bb-18d999719345","system_id":"levelo_inurba_marseille","lat":43.211908,"lon":5.350675,"is_reserved":false,"is_disabled":false,"rental_uris":{"android":"levelo://app?vid=7f212f1e-9b22-4ad3-88bb-18d999719345","ios":"levelo://app?vid=7f212f1e-9b22-4ad3-88bb-18d999719345"},"vehicle_type_id":"4","last_reported":1750932724,"current_range_meters":14000,"station_id":"st_cvj6sg6p6f1abm77japg","pricing_plan_id":"cebpf4jnsgd1na2vs0mg"},{"bike_id":"ddf0f60e-a059-441c-a18a-b30286661b38","system_id":"levelo_inurba_marseille","lat":43.28355,"lon":5.38636,"is_reserved":false,"is_disabled":false,"rental_uris":{"android":"levelo://app?vid=ddf0f60e-a059-441c-a18a-b30286661b38","ios":"levelo://app?vid=ddf0f60e-a059-441c-a18a-b30286661b38"},"vehicle_type_id":"4","last_reported":1750932724,"current_range_meters":14400,"station_id":"ce4bh492rcd13ifvqdvg","pricing_plan_id":"cebpf4jnsgd1na2vs0mg"},{"bike_id":"4b8da722-ee9e-48a4-a5e5-3a8a10364708","system_id":"levelo_inurba_marseille","lat":43.31217,"lon":5.37822,"is_reserved":false,"is_disabled":false,"rental_uris":{"android":"levelo://app?vid=4b8da722-ee9e-48a4-a5e5-3a8a10364708","ios":"levelo://app?vid=4b8da722-ee9e-48a4-a5e5-3a8a10364708"},"vehicle_type_id":"4","last_reported":1750932724,"current_range_meters":14800,"station_id":"","pricing_plan_id":"cebpf4jnsgd1na2vs0mg"},{"bike_id":"7107131e-7c98-4036-af64-3ae1900c66d3","system_id":"levelo_inurba_marseille","lat":43.27374,"lon":5.3625,"is_reserved":false,"is_disabled":false,"rental_uris":{"android":"levelo://app?vid=7107131e-7c98-4036-af64-3ae1900c66d3","ios":"levelo://app?vid=7107131e-7c98-4036-af64-3ae1900c66d3"},"vehicle_type_id":"4","last_reported":1750932724,"current_range_meters":14800,"station_id":"ce4bhbh2rcd13ifvqeo0","pricing_plan_id":"cebpf4jnsgd1na2vs0mg"},{"bike_id":"6f5df6fe-a4a0-40ba-bad4-78f66cedd21c","system_id":"levelo_inurba_marseille","lat":43.28266,"lon":5.35073,"is_reserved":false,"is_disabled":false,"rental_uris":{"android":"levelo://app?vid=6f5df6fe-a4a0-40ba-bad4-78f66cedd21c","ios":"levelo://app?vid=6f5df6fe-a4a0-40ba-bad4-78f66cedd21c"},"vehicle_type_id":"4","last_reported":1750932724,"current_range_meters":14800,"station_id":"ce4bhbp2rcd13ifvqerg","pricing_plan_id":"cebpf4jnsgd1na2vs0mg"},{"bike_id":"931d2ada-c832-412c-8030-f51f5ff9f88c","system_id":"levelo_inurba_marseille","lat":43.28161,"lon":5.4264,"is_reserved":false,"is_disabled":false,"rental_uris":{"android":"levelo://app?vid=931d2ada-c832-412c-8030-f51f5ff9f88c","ios":"levelo://app?vid=931d2ada-c832-412c-8030-f51f5ff9f88c"},"vehicle_type_id":"4","last_reported":1750932724,"current_range_meters":14800,"station_id":"ce4bhnh2rcd13ifvqgug","pricing_plan_id":"cebpf4jnsgd1na2vs0mg"},{"bike_id":"5d4b4bef-1c86-4581-b89b-d3470a44e231","system_id":"levelo_inurba_marseille","lat":43.2985,"lon":5.36275,"is_reserved":false,"is_disabled":false,"rental_uris":{"android":"levelo://app?vid=5d4b4bef-1c86-4581-b89b-d3470a44e231","ios":"levelo://app?vid=5d4b4bef-1c86-4581-b89b-d3470a44e231"},"vehicle_type_id":"4","last_reported":1750932724,"current_range_meters":15200,"station_id":"ce4bgpp2rcd13ifvqc3g","pricing_plan_id":"cebpf4jnsgd1na2vs0mg"},{"bike_id":"a036b580-a621-4511-a37c-8dbed8deff90","system_id":"levelo_inurba_marseille","lat":43.25726,"lon":5.41108,"is_reserved":false,"is_disabled":false,"rental_uris":{"android":"levelo://app?vid=a036b580-a621-4511-a37c-8dbed8deff90","ios":"levelo://app?vid=a036b580-a621-4511-a37c-8dbed8deff90"},"vehicle_type_id":"4","last_reported":1750932724,"current_range_meters":15200,"station_id":"ce4bhkp2rcd13ifvqgd0","pricing_plan_id":"cebpf4jnsgd1na2vs0mg"},{"bike_id":"cce0ea9f-1e2a-4a69-ac7b-9c10ee9fc956","system_id":"levelo_inurba_marseille","lat":43.23144,"lon":5.43702,"is_reserved":false,"is_disabled":false,"rental_uris":{"android":"levelo://app?vid=cce0ea9f-1e2a-4a69-ac7b-9c10ee9fc956","ios":"levelo://app?vid=cce0ea9f-1e2a-4a69-ac7b-9c10ee9fc956"},"vehicle_type_id":"4","last_reported":1750932724,"current_range_meters":15200,"station_id":"ce4bhmp2rcd13ifvqgog","pricing_plan_id":"cebpf4jnsgd1na2vs0mg"},{"bike_id":"b935579a-e9d3-4ccf-a111-a22b8dbf997d","system_id":"levelo_inurba_marseille","lat":43.21192,"lon":5.3507,"is_reserved":false,"is_disabled":false,"rental_uris":{"android":"levelo://app?vid=b935579a-e9d3-4ccf-a111-a22b8dbf997d","ios":"levelo://app?vid=b935579a-e9d3-4ccf-a111-a22b8dbf997d"},"vehicle_type_id":"4","last_reported":1750932724,"current_range_meters":15200,"station_id":"st_cvj6sg6p6f1abm77japg","pricing_plan_id":"cebpf4jnsgd1na2vs0mg"},{"bike_id":"86ebd8a7-7d30-43b6-953e-6107b0f77710","system_id":"levelo_inurba_marseille","lat":43.334187,"lon":5.400458,"is_reserved":false,"is_disabled":false,"rental_uris":{"android":"levelo://app?vid=86ebd8a7-7d30-43b6-953e-6107b0f77710","ios":"levelo://app?vid=86ebd8a7-7d30-43b6-953e-6107b0f77710"},"vehicle_type_id":"4","last_reported":1750932724,"current_range_meters":16000,"station_id":"","pricing_plan_id":"cebpf4jnsgd1na2vs0mg"},{"bike_id":"58fe71ac-e2ea-4466-bb43-ac9c71c6286a","system_id":"levelo_inurba_marseille","lat":43.29225,"lon":5.36054,"is_reserved":false,"is_disabled":false,"rental_uris":{"android":"levelo://app?vid=58fe71ac-e2ea-4466-bb43-ac9c71c6286a","ios":"levelo://app?vid=58fe71ac-e2ea-4466-bb43-ac9c71c6286a"},"vehicle_type_id":"4","last_reported":1750932724,"current_range_meters":16000,"station_id":"ce4bhbh2rcd13ifvqeqg","pricing_plan_id":"cebpf4jnsgd1na2vs0mg"},{"bike_id":"a9a6b277-63b7-40f5-aae7-139111e0443e","system_id":"levelo_inurba_marseille","lat":43.28074,"lon":5.39613,"is_reserved":false,"is_disabled":false,"rental_uris":{"android":"levelo://app?vid=a9a6b277-63b7-40f5-aae7-139111e0443e","ios":"levelo://app?vid=a9a6b277-63b7-40f5-aae7-139111e0443e"},"vehicle_type_id":"4","last_reported":1750932724,"current_range_meters":16000,"station_id":"ce4bho12rcd13ifvqh2g","pricing_plan_id":"cebpf4jnsgd1na2vs0mg"},{"bike_id":"6b0e986f-2a52-44b5-8068-303b5440c988","system_id":"levelo_inurba_marseille","lat":43.33047,"lon":5.39035,"is_reserved":false,"is_disabled":false,"rental_uris":{"android":"levelo://app?vid=6b0e986f-2a52-44b5-8068-303b5440c988","ios":"levelo://app?vid=6b0e986f-2a52-44b5-8068-303b5440c988"},"vehicle_type_id":"4","last_reported":1750932724,"current_range_meters":16000,"station_id":"ce4bhr92rcd13ifvqhrg","pricing_plan_id":"cebpf4jnsgd1na2vs0mg"},{"bike_id":"5a4188b4-36d5-4ec7-87c3-29f18a50c23e","system_id":"levelo_inurba_marseille","lat":43.2762,"lon":5.36108,"is_reserved":false,"is_disabled":false,"rental_uris":{"android":"levelo://app?vid=5a4188b4-36d5-4ec7-87c3-29f18a50c23e","ios":"levelo://app?vid=5a4188b4-36d5-4ec7-87c3-29f18a50c23e"},"vehicle_type_id":"4","last_reported":1750932724,"current_range_meters":16400,"station_id":"ce4bgj92rcd13ifvqbe0","pricing_plan_id":"cebpf4jnsgd1na2vs0mg"},{"bike_id":"6c0113e2-8fa4-4368-8358-e24a1cd143cd","system_id":"levelo_inurba_marseille","lat":43.25576,"lon":5.38223,"is_reserved":false,"is_disabled":false,"rental_uris":{"android":"levelo://app?vid=6c0113e2-8fa4-4368-8358-e24a1cd143cd","ios":"levelo://app?vid=6c0113e2-8fa4-4368-8358-e24a1cd143cd"},"vehicle_type_id":"4","last_reported":1750932724,"current_range_meters":16400,"station_id":"ce4bhih2rcd13ifvqfs0","pricing_plan_id":"cebpf4jnsgd1na2vs0mg"},{"bike_id":"77e7ebdd-08d9-4160-b08f-39ceab9cfee3","system_id":"levelo_inurba_marseille","lat":43.27067,"lon":5.40247,"is_reserved":false,"is_disabled":false,"rental_uris":{"android":"levelo://app?vid=77e7ebdd-08d9-4160-b08f-39ceab9cfee3","ios":"levelo://app?vid=77e7ebdd-08d9-4160-b08f-39ceab9cfee3"},"vehicle_type_id":"4","last_reported":1750932724,"current_range_meters":16400,"station_id":"ce4bhk92rcd13ifvqgc0","pricing_plan_id":"cebpf4jnsgd1na2vs0mg"},{"bike_id":"33ff2acc-5b55-48de-9529-81b3c60dbff0","system_id":"levelo_inurba_marseille","lat":43.30911,"lon":5.3725,"is_reserved":false,"is_disabled":false,"rental_uris":{"android":"levelo://app?vid=33ff2acc-5b55-48de-9529-81b3c60dbff0","ios":"levelo://app?vid=33ff2acc-5b55-48de-9529-81b3c60dbff0"},"vehicle_type_id":"4","last_reported":1750932724,"current_range_meters":16800,"station_id":"","pricing_plan_id":"cebpf4jnsgd1na2vs0mg"},{"bike_id":"9763bbeb-f52d-4920-b9c9-17f00c65fb57","system_id":"levelo_inurba_marseille","lat":43.29711,"lon":5.37691,"is_reserved":false,"is_disabled":false,"rental_uris":{"android":"levelo://app?vid=9763bbeb-f52d-4920-b9c9-17f00c65fb57","ios":"levelo://app?vid=9763bbeb-f52d-4920-b9c9-17f00c65fb57"},"vehicle_type_id":"4","last_reported":1750932724,"current_range_meters":16800,"station_id":"ce4bgkh2rcd13ifvqbl0","pricing_plan_id":"cebpf4jnsgd1na2vs0mg"},{"bike_id":"00dd56d8-e1b2-4672-bc22-05410cbb86ff","system_id":"levelo_inurba_marseille","lat":43.28277,"lon":5.35066,"is_reserved":false,"is_disabled":false,"rental_uris":{"android":"levelo://app?vid=00dd56d8-e1b2-4672-bc22-05410cbb86ff","ios":"levelo://app?vid=00dd56d8-e1b2-4672-bc22-05410cbb86ff"},"vehicle_type_id":"4","last_reported":1750932724,"current_range_meters":16800,"station_id":"ce4bhbp2rcd13ifvqerg","pricing_plan_id":"cebpf4jnsgd1na2vs0mg"},{"bike_id":"0d4bf6e9-df42-44fa-90da-42f015a8ca21","system_id":"levelo_inurba_marseille","lat":43.321112,"lon":5.367743,"is_reserved":false,"is_disabled":false,"rental_uris":{"android":"levelo://app?vid=0d4bf6e9-df42-44fa-90da-42f015a8ca21","ios":"levelo://app?vid=0d4bf6e9-df42-44fa-90da-42f015a8ca21"},"vehicle_type_id":"4","last_reported":1750932724,"current_range_meters":16800,"station_id":"ce4bhrh2rcd13ifvqhug","pricing_plan_id":"cebpf4jnsgd1na2vs0mg"},{"bike_id":"d4d1f3e6-201e-4374-87b9-f5c9bdbc0e65","system_id":"levelo_inurba_marseille","lat":43.32482,"lon":5.36563,"is_reserved":false,"is_disabled":false,"rental_uris":{"android":"levelo://app?vid=d4d1f3e6-201e-4374-87b9-f5c9bdbc0e65","ios":"levelo://app?vid=d4d1f3e6-201e-4374-87b9-f5c9bdbc0e65"},"vehicle_type_id":"4","last_reported":1750932724,"current_range_meters":16800,"station_id":"ce4bhs12rcd13ifvqhvg","pricing_plan_id":"cebpf4jnsgd1na2vs0mg"},{"bike_id":"1a500985-c816-4d83-a038-4a629f10a813","system_id":"levelo_inurba_marseille","lat":43.21205,"lon":5.35071,"is_reserved":false,"is_disabled":false,"rental_uris":{"android":"levelo://app?vid=1a500985-c816-4d83-a038-4a629f10a813","ios":"levelo://app?vid=1a500985-c816-4d83-a038-4a629f10a813"},"vehicle_type_id":"4","last_reported":1750932724,"current_range_meters":16800,"station_id":"st_cvj6sg6p6f1abm77japg","pricing_plan_id":"cebpf4jnsgd1na2vs0mg"},{"bike_id":"b0913637-65e5-4f48-924e-35ef873f8c32","system_id":"levelo_inurba_marseille","lat":43.31149,"lon":5.38295,"is_reserved":false,"is_disabled":false,"rental_uris":{"android":"levelo://app?vid=b0913637-65e5-4f48-924e-35ef873f8c32","ios":"levelo://app?vid=b0913637-65e5-4f48-924e-35ef873f8c32"},"vehicle_type_id":"4","last_reported":1750932724,"current_range_meters":17200,"station_id":"","pricing_plan_id":"cebpf4jnsgd1na2vs0mg"},{"bike_id":"39c22e5a-757e-4718-a69f-78aeaa361f7c","system_id":"levelo_inurba_marseille","lat":43.30901,"lon":5.36852,"is_reserved":false,"is_disabled":false,"rental_uris":{"android":"levelo://app?vid=39c22e5a-757e-4718-a69f-78aeaa361f7c","ios":"levelo://app?vid=39c22e5a-757e-4718-a69f-78aeaa361f7c"},"vehicle_type_id":"4","last_reported":1750932724,"current_range_meters":17200,"station_id":"ce4bgn92rcd13ifvqbvg","pricing_plan_id":"cebpf4jnsgd1na2vs0mg"},{"bike_id":"1d10677a-1430-42b6-91e9-a7dca51af142","system_id":"levelo_inurba_marseille","lat":43.30799,"lon":5.38154,"is_reserved":false,"is_disabled":false,"rental_uris":{"android":"levelo://app?vid=1d10677a-1430-42b6-91e9-a7dca51af142","ios":"levelo://app?vid=1d10677a-1430-42b6-91e9-a7dca51af142"},"vehicle_type_id":"4","last_reported":1750932724,"current_range_meters":17200,"station_id":"ce4bgt12rcd13ifvqce0","pricing_plan_id":"cebpf4jnsgd1na2vs0mg"},{"bike_id":"b3bde525-bffb-4ab9-9cc3-0a3f07ec3765","system_id":"levelo_inurba_marseille","lat":43.31171,"lon":5.38729,"is_reserved":false,"is_disabled":false,"rental_uris":{"android":"levelo://app?vid=b3bde525-bffb-4ab9-9cc3-0a3f07ec3765","ios":"levelo://app?vid=b3bde525-bffb-4ab9-9cc3-0a3f07ec3765"},"vehicle_type_id":"4","last_reported":1750932724,"current_range_meters":17200,"station_id":"ce4bgv12rcd13ifvqcp0","pricing_plan_id":"cebpf4jnsgd1na2vs0mg"},{"bike_id":"ae972e84-43d3-4722-b22f-32739f61a5ac","system_id":"levelo_inurba_marseille","lat":43.28476,"lon":5.38423,"is_reserved":false,"is_disabled":false,"rental_uris":{"android":"levelo://app?vid=ae972e84-43d3-4722-b22f-32739f61a5ac","ios":"levelo://app?vid=ae972e84-43d3-4722-b22f-32739f61a5ac"},"vehicle_type_id":"4","last_reported":1750932724,"current_range_meters":17200,"station_id":"ce4bh512rcd13ifvqe3g","pricing_plan_id":"cebpf4jnsgd1na2vs0mg"},{"bike_id":"8ca64623-dcaa-4c4d-b2dd-469679d10386","system_id":"levelo_inurba_marseille","lat":43.231946,"lon":5.355528,"is_reserved":false,"is_disabled":false,"rental_uris":{"android":"levelo://app?vid=8ca64623-dcaa-4c4d-b2dd-469679d10386","ios":"levelo://app?vid=8ca64623-dcaa-4c4d-b2dd-469679d10386"},"vehicle_type_id":"4","last_reported":1750932724,"current_range_meters":17200,"station_id":"ce4bhu92rcd13ifvqi70","pricing_plan_id":"cebpf4jnsgd1na2vs0mg"},{"bike_id":"4106a639-366b-4e16-ab2c-e2241d337d6f","system_id":"levelo_inurba_marseille","lat":43.231964,"lon":5.355514,"is_reserved":false,"is_disabled":false,"rental_uris":{"android":"levelo://app?vid=4106a639-366b-4e16-ab2c-e2241d337d6f","ios":"levelo://app?vid=4106a639-366b-4e16-ab2c-e2241d337d6f"},"vehicle_type_id":"4","last_reported":1750932724,"current_range_meters":17200,"station_id":"ce4bhu92rcd13ifvqi70","pricing_plan_id":"cebpf4jnsgd1na2vs0mg"},{"bike_id":"2071ff3f-536a-4747-9e50-d85d0e60def3","system_id":"levelo_inurba_marseille","lat":43.211989,"lon":5.350654,"is_reserved":false,"is_disabled":false,"rental_uris":{"android":"levelo://app?vid=2071ff3f-536a-4747-9e50-d85d0e60def3","ios":"levelo://app?vid=2071ff3f-536a-4747-9e50-d85d0e60def3"},"vehicle_type_id":"4","last_reported":1750932724,"current_range_meters":17200,"station_id":"st_cvj6sg6p6f1abm77japg","pricing_plan_id":"cebpf4jnsgd1na2vs0mg"},{"bike_id":"e7e63943-a267-44e4-8d4c-73299b59e556","system_id":"levelo_inurba_marseille","lat":43.290117,"lon":5.367948,"is_reserved":false,"is_disabled":false,"rental_uris":{"android":"levelo://app?vid=e7e63943-a267-44e4-8d4c-73299b59e556","ios":"levelo://app?vid=e7e63943-a267-44e4-8d4c-73299b59e556"},"vehicle_type_id":"4","last_reported":1750932724,"current_range_meters":17600,"station_id":"ce4bgj92rcd13ifvqbd0","pricing_plan_id":"cebpf4jnsgd1na2vs0mg"},{"bike_id":"bb37501e-2410-4a79-ba66-9d71e492c6f9","system_id":"levelo_inurba_marseille","lat":43.29613,"lon":5.38107,"is_reserved":false,"is_disabled":false,"rental_uris":{"android":"levelo://app?vid=bb37501e-2410-4a79-ba66-9d71e492c6f9","ios":"levelo://app?vid=bb37501e-2410-4a79-ba66-9d71e492c6f9"},"vehicle_type_id":"4","last_reported":1750932724,"current_range_meters":17600,"station_id":"ce4bgl12rcd13ifvqbo0","pricing_plan_id":"cebpf4jnsgd1na2vs0mg"},{"bike_id":"ad4ea7d2-baea-46ba-b356-b36337909927","system_id":"levelo_inurba_marseille","lat":43.29616,"lon":5.37148,"is_reserved":false,"is_disabled":false,"rental_uris":{"android":"levelo://app?vid=ad4ea7d2-baea-46ba-b356-b36337909927","ios":"levelo://app?vid=ad4ea7d2-baea-46ba-b356-b36337909927"},"vehicle_type_id":"4","last_reported":1750932724,"current_range_meters":17600,"station_id":"ce4bgnh2rcd13ifvqc0g","pricing_plan_id":"cebpf4jnsgd1na2vs0mg"},{"bike_id":"520b2c46-2bf1-4fd2-9fca-b32997429572","system_id":"levelo_inurba_marseille","lat":43.28408,"lon":5.34972,"is_reserved":false,"is_disabled":false,"rental_uris":{"android":"levelo://app?vid=520b2c46-2bf1-4fd2-9fca-b32997429572","ios":"levelo://app?vid=520b2c46-2bf1-4fd2-9fca-b32997429572"},"vehicle_type_id":"4","last_reported":1750932724,"current_range_meters":17600,"station_id":"ce4bhbh2rcd13ifvqepg","pricing_plan_id":"cebpf4jnsgd1na2vs0mg"},{"bike_id":"1d55f66e-dd62-48de-89a1-6b40fd865f1e","system_id":"levelo_inurba_marseille","lat":43.26201,"lon":5.37453,"is_reserved":false,"is_disabled":false,"rental_uris":{"android":"levelo://app?vid=1d55f66e-dd62-48de-89a1-6b40fd865f1e","ios":"levelo://app?vid=1d55f66e-dd62-48de-89a1-6b40fd865f1e"},"vehicle_type_id":"4","last_reported":1750932724,"current_range_meters":17600,"station_id":"ce4bhgp2rcd13ifvqfc0","pricing_plan_id":"cebpf4jnsgd1na2vs0mg"},{"bike_id":"2ad8c985-d1ec-4ce0-85b0-a2f74863b534","system_id":"levelo_inurba_marseille","lat":43.26213,"lon":5.37438,"is_reserved":false,"is_disabled":false,"rental_uris":{"android":"levelo://app?vid=2ad8c985-d1ec-4ce0-85b0-a2f74863b534","ios":"levelo://app?vid=2ad8c985-d1ec-4ce0-85b0-a2f74863b534"},"vehicle_type_id":"4","last_reported":1750932724,"current_range_meters":17600,"station_id":"ce4bhgp2rcd13ifvqfc0","pricing_plan_id":"cebpf4jnsgd1na2vs0mg"},{"bike_id":"348936c8-7c8d-4b8a-988e-b0a979920804","system_id":"levelo_inurba_marseille","lat":43.212,"lon":5.35082,"is_reserved":false,"is_disabled":false,"rental_uris":{"android":"levelo://app?vid=348936c8-7c8d-4b8a-988e-b0a979920804","ios":"levelo://app?vid=348936c8-7c8d-4b8a-988e-b0a979920804"},"vehicle_type_id":"4","last_reported":1750932724,"current_range_meters":17600,"station_id":"st_cvj6sg6p6f1abm77japg","pricing_plan_id":"cebpf4jnsgd1na2vs0mg"},{"bike_id":"8d78bf36-f1c3-41a4-95fd-e6d4a1c1d57c","system_id":"levelo_inurba_marseille","lat":43.28421,"lon":5.3497,"is_reserved":false,"is_disabled":false,"rental_uris":{"android":"levelo://app?vid=8d78bf36-f1c3-41a4-95fd-e6d4a1c1d57c","ios":"levelo://app?vid=8d78bf36-f1c3-41a4-95fd-e6d4a1c1d57c"},"vehicle_type_id":"4","last_reported":1750932724,"current_range_meters":18000,"station_id":"ce4bhbh2rcd13ifvqepg","pricing_plan_id":"cebpf4jnsgd1na2vs0mg"},{"bike_id":"d336f96c-8017-47b0-82e4-318ee3aaa2f2","system_id":"levelo_inurba_marseille","lat":43.26682,"lon":5.38272,"is_reserved":false,"is_disabled":false,"rental_uris":{"android":"levelo://app?vid=d336f96c-8017-47b0-82e4-318ee3aaa2f2","ios":"levelo://app?vid=d336f96c-8017-47b0-82e4-318ee3aaa2f2"},"vehicle_type_id":"4","last_reported":1750932724,"current_range_meters":18000,"station_id":"ce4bhg92rcd13ifvqf90","pricing_plan_id":"cebpf4jnsgd1na2vs0mg"},{"bike_id":"a670c232-602f-4de4-b4ed-4c22f0a7bbe5","system_id":"levelo_inurba_marseille","lat":43.26222,"lon":5.3745,"is_reserved":false,"is_disabled":false,"rental_uris":{"android":"levelo://app?vid=a670c232-602f-4de4-b4ed-4c22f0a7bbe5","ios":"levelo://app?vid=a670c232-602f-4de4-b4ed-4c22f0a7bbe5"},"vehicle_type_id":"4","last_reported":1750932724,"current_range_meters":18000,"station_id":"ce4bhgp2rcd13ifvqfc0","pricing_plan_id":"cebpf4jnsgd1na2vs0mg"},{"bike_id":"3984eb30-0793-4ba5-9c4f-a7f5eda3f307","system_id":"levelo_inurba_marseille","lat":43.32468,"lon":5.36546,"is_reserved":false,"is_disabled":false,"rental_uris":{"android":"levelo://app?vid=3984eb30-0793-4ba5-9c4f-a7f5eda3f307","ios":"levelo://app?vid=3984eb30-0793-4ba5-9c4f-a7f5eda3f307"},"vehicle_type_id":"4","last_reported":1750932724,"current_range_meters":18000,"station_id":"ce4bhs12rcd13ifvqhvg","pricing_plan_id":"cebpf4jnsgd1na2vs0mg"},{"bike_id":"ba542341-99d6-4671-ad91-0601a0f66de4","system_id":"levelo_inurba_marseille","lat":43.32496,"lon":5.36564,"is_reserved":false,"is_disabled":false,"rental_uris":{"android":"levelo://app?vid=ba542341-99d6-4671-ad91-0601a0f66de4","ios":"levelo://app?vid=ba542341-99d6-4671-ad91-0601a0f66de4"},"vehicle_type_id":"4","last_reported":1750932724,"current_range_meters":18000,"station_id":"ce4bhs12rcd13ifvqhvg","pricing_plan_id":"cebpf4jnsgd1na2vs0mg"},{"bike_id":"f1ff4f78-6d1b-435f-8777-a24085f5b111","system_id":"levelo_inurba_marseille","lat":43.23195,"lon":5.35561,"is_reserved":false,"is_disabled":false,"rental_uris":{"android":"levelo://app?vid=f1ff4f78-6d1b-435f-8777-a24085f5b111","ios":"levelo://app?vid=f1ff4f78-6d1b-435f-8777-a24085f5b111"},"vehicle_type_id":"4","last_reported":1750932724,"current_range_meters":18000,"station_id":"ce4bhu92rcd13ifvqi70","pricing_plan_id":"cebpf4jnsgd1na2vs0mg"},{"bike_id":"ea387e76-acba-42f5-8f87-fcb58c5f83ad","system_id":"levelo_inurba_marseille","lat":43.232003,"lon":5.355573,"is_reserved":false,"is_disabled":false,"rental_uris":{"android":"levelo://app?vid=ea387e76-acba-42f5-8f87-fcb58c5f83ad","ios":"levelo://app?vid=ea387e76-acba-42f5-8f87-fcb58c5f83ad"},"vehicle_type_id":"4","last_reported":1750932724,"current_range_meters":18800,"station_id":"","pricing_plan_id":"cebpf4jnsgd1na2vs0mg"},{"bike_id":"7c618e8d-bd11-4ece-9597-92aec21f929c","system_id":"levelo_inurba_marseille","lat":43.30337,"lon":5.3691,"is_reserved":false,"is_disabled":false,"rental_uris":{"android":"levelo://app?vid=7c618e8d-bd11-4ece-9597-92aec21f929c","ios":"levelo://app?vid=7c618e8d-bd11-4ece-9597-92aec21f929c"},"vehicle_type_id":"4","last_reported":1750932724,"current_range_meters":18800,"station_id":"ce4bgqh2rcd13ifvqc5g","pricing_plan_id":"cebpf4jnsgd1na2vs0mg"},{"bike_id":"e72e321b-c972-4828-9de6-ed5de79bd5f8","system_id":"levelo_inurba_marseille","lat":43.30945,"lon":5.39032,"is_reserved":false,"is_disabled":false,"rental_uris":{"android":"levelo://app?vid=e72e321b-c972-4828-9de6-ed5de79bd5f8","ios":"levelo://app?vid=e72e321b-c972-4828-9de6-ed5de79bd5f8"},"vehicle_type_id":"4","last_reported":1750932724,"current_range_meters":18800,"station_id":"ce4bgup2rcd13ifvqco0","pricing_plan_id":"cebpf4jnsgd1na2vs0mg"},{"bike_id":"ae8ac663-870d-4967-9040-97a36e0fff52","system_id":"levelo_inurba_marseille","lat":43.31689,"lon":5.4047,"is_reserved":false,"is_disabled":false,"rental_uris":{"android":"levelo://app?vid=ae8ac663-870d-4967-9040-97a36e0fff52","ios":"levelo://app?vid=ae8ac663-870d-4967-9040-97a36e0fff52"},"vehicle_type_id":"4","last_reported":1750932724,"current_range_meters":18800,"station_id":"ce4bh012rcd13ifvqd00","pricing_plan_id":"cebpf4jnsgd1na2vs0mg"},{"bike_id":"203b663d-f368-40cb-b173-2bdb7de80e3c","system_id":"levelo_inurba_marseille","lat":43.28279,"lon":5.35078,"is_reserved":false,"is_disabled":false,"rental_uris":{"android":"levelo://app?vid=203b663d-f368-40cb-b173-2bdb7de80e3c","ios":"levelo://app?vid=203b663d-f368-40cb-b173-2bdb7de80e3c"},"vehicle_type_id":"4","last_reported":1750932724,"current_range_meters":18800,"station_id":"ce4bhbp2rcd13ifvqerg","pricing_plan_id":"cebpf4jnsgd1na2vs0mg"},{"bike_id":"212d8ead-b7cb-4d1b-9e9a-b45404edd605","system_id":"levelo_inurba_marseille","lat":43.27064,"lon":5.40252,"is_reserved":false,"is_disabled":false,"rental_uris":{"android":"levelo://app?vid=212d8ead-b7cb-4d1b-9e9a-b45404edd605","ios":"levelo://app?vid=212d8ead-b7cb-4d1b-9e9a-b45404edd605"},"vehicle_type_id":"4","last_reported":1750932724,"current_range_meters":18800,"station_id":"ce4bhk92rcd13ifvqgc0","pricing_plan_id":"cebpf4jnsgd1na2vs0mg"},{"bike_id":"ceadb6f7-d206-454a-acdb-3911e9d26625","system_id":"levelo_inurba_marseille","lat":43.23164,"lon":5.43716,"is_reserved":false,"is_disabled":false,"rental_uris":{"android":"levelo://app?vid=ceadb6f7-d206-454a-acdb-3911e9d26625","ios":"levelo://app?vid=ceadb6f7-d206-454a-acdb-3911e9d26625"},"vehicle_type_id":"4","last_reported":1750932724,"current_range_meters":18800,"station_id":"ce4bhmp2rcd13ifvqgog","pricing_plan_id":"cebpf4jnsgd1na2vs0mg"},{"bike_id":"583250a4-e317-4bcf-aca0-d97a0b663a7e","system_id":"levelo_inurba_marseille","lat":43.30383,"lon":5.42494,"is_reserved":false,"is_disabled":false,"rental_uris":{"android":"levelo://app?vid=583250a4-e317-4bcf-aca0-d97a0b663a7e","ios":"levelo://app?vid=583250a4-e317-4bcf-aca0-d97a0b663a7e"},"vehicle_type_id":"4","last_reported":1750932724,"current_range_meters":18800,"station_id":"ce4bhoh2rcd13ifvqh6g","pricing_plan_id":"cebpf4jnsgd1na2vs0mg"},{"bike_id":"c912f712-272f-4ea0-bdd0-b7b33c115a10","system_id":"levelo_inurba_marseille","lat":43.32367,"lon":5.38893,"is_reserved":false,"is_disabled":false,"rental_uris":{"android":"levelo://app?vid=c912f712-272f-4ea0-bdd0-b7b33c115a10","ios":"levelo://app?vid=c912f712-272f-4ea0-bdd0-b7b33c115a10"},"vehicle_type_id":"4","last_reported":1750932724,"current_range_meters":18800,"station_id":"ce4bhqp2rcd13ifvqhog","pricing_plan_id":"cebpf4jnsgd1na2vs0mg"},{"bike_id":"b404c964-6a6e-4825-8807-5670ff3c69a5","system_id":"levelo_inurba_marseille","lat":43.323596,"lon":5.367658,"is_reserved":false,"is_disabled":false,"rental_uris":{"android":"levelo://app?vid=b404c964-6a6e-4825-8807-5670ff3c69a5","ios":"levelo://app?vid=b404c964-6a6e-4825-8807-5670ff3c69a5"},"vehicle_type_id":"4","last_reported":1750932724,"current_range_meters":18800,"station_id":"ce4bhsh2rcd13ifvqi2g","pricing_plan_id":"cebpf4jnsgd1na2vs0mg"},{"bike_id":"d565ec36-c103-42db-b30a-02c479395322","system_id":"levelo_inurba_marseille","lat":43.295619,"lon":5.425084,"is_reserved":false,"is_disabled":false,"rental_uris":{"android":"levelo://app?vid=d565ec36-c103-42db-b30a-02c479395322","ios":"levelo://app?vid=d565ec36-c103-42db-b30a-02c479395322"},"vehicle_type_id":"4","last_reported":1750932724,"current_range_meters":19200,"station_id":"","pricing_plan_id":"cebpf4jnsgd1na2vs0mg"},{"bike_id":"c0db3e09-0209-4f8b-9bb0-01bc309f988a","system_id":"levelo_inurba_marseille","lat":43.26679,"lon":5.3827,"is_reserved":false,"is_disabled":false,"rental_uris":{"android":"levelo://app?vid=c0db3e09-0209-4f8b-9bb0-01bc309f988a","ios":"levelo://app?vid=c0db3e09-0209-4f8b-9bb0-01bc309f988a"},"vehicle_type_id":"4","last_reported":1750932724,"current_range_meters":19200,"station_id":"ce4bhg92rcd13ifvqf90","pricing_plan_id":"cebpf4jnsgd1na2vs0mg"},{"bike_id":"af33c6eb-e82e-4034-bf32-81a63ca02def","system_id":"levelo_inurba_marseille","lat":43.27325,"lon":5.39084,"is_reserved":false,"is_disabled":false,"rental_uris":{"android":"levelo://app?vid=af33c6eb-e82e-4034-bf32-81a63ca02def","ios":"levelo://app?vid=af33c6eb-e82e-4034-bf32-81a63ca02def"},"vehicle_type_id":"4","last_reported":1750932724,"current_range_meters":19200,"station_id":"ce4bhgp2rcd13ifvqfe0","pricing_plan_id":"cebpf4jnsgd1na2vs0mg"},{"bike_id":"40b19a43-7568-4070-8cfa-6d78b27578ba","system_id":"levelo_inurba_marseille","lat":43.254751,"lon":5.3765,"is_reserved":false,"is_disabled":false,"rental_uris":{"android":"levelo://app?vid=40b19a43-7568-4070-8cfa-6d78b27578ba","ios":"levelo://app?vid=40b19a43-7568-4070-8cfa-6d78b27578ba"},"vehicle_type_id":"4","last_reported":1750932724,"current_range_meters":19200,"station_id":"ce4bhh12rcd13ifvqff0","pricing_plan_id":"cebpf4jnsgd1na2vs0mg"},{"bike_id":"58d889bf-de59-48f6-bd64-b14823016f28","system_id":"levelo_inurba_marseille","lat":43.26956,"lon":5.38634,"is_reserved":false,"is_disabled":false,"rental_uris":{"android":"levelo://app?vid=58d889bf-de59-48f6-bd64-b14823016f28","ios":"levelo://app?vid=58d889bf-de59-48f6-bd64-b14823016f28"},"vehicle_type_id":"4","last_reported":1750932724,"current_range_meters":19200,"station_id":"ce4bhh92rcd13ifvqfh0","pricing_plan_id":"cebpf4jnsgd1na2vs0mg"},{"bike_id":"cb39a85c-17c1-46fd-880a-2efa78b2b0f4","system_id":"levelo_inurba_marseille","lat":43.257238,"lon":5.411051,"is_reserved":false,"is_disabled":false,"rental_uris":{"android":"levelo://app?vid=cb39a85c-17c1-46fd-880a-2efa78b2b0f4","ios":"levelo://app?vid=cb39a85c-17c1-46fd-880a-2efa78b2b0f4"},"vehicle_type_id":"4","last_reported":1750932724,"current_range_meters":19200,"station_id":"ce4bhkp2rcd13ifvqgd0","pricing_plan_id":"cebpf4jnsgd1na2vs0mg"},{"bike_id":"90a212f5-f161-452e-b2e4-434a7de8d8fc","system_id":"levelo_inurba_marseille","lat":43.231466,"lon":5.437103,"is_reserved":false,"is_disabled":false,"rental_uris":{"android":"levelo://app?vid=90a212f5-f161-452e-b2e4-434a7de8d8fc","ios":"levelo://app?vid=90a212f5-f161-452e-b2e4-434a7de8d8fc"},"vehicle_type_id":"4","last_reported":1750932724,"current_range_meters":19200,"station_id":"ce4bhmp2rcd13ifvqgog","pricing_plan_id":"cebpf4jnsgd1na2vs0mg"},{"bike_id":"e449a2c0-ee5d-44c7-a602-628deef64a14","system_id":"levelo_inurba_marseille","lat":43.337233,"lon":5.391794,"is_reserved":false,"is_disabled":false,"rental_uris":{"android":"levelo://app?vid=e449a2c0-ee5d-44c7-a602-628deef64a14","ios":"levelo://app?vid=e449a2c0-ee5d-44c7-a602-628deef64a14"},"vehicle_type_id":"4","last_reported":1750932724,"current_range_meters":19200,"station_id":"ce4bhr92rcd13ifvqhsg","pricing_plan_id":"cebpf4jnsgd1na2vs0mg"},{"bike_id":"5f16334a-3393-41dc-ad34-ab261abba054","system_id":"levelo_inurba_marseille","lat":43.32363,"lon":5.36781,"is_reserved":false,"is_disabled":false,"rental_uris":{"android":"levelo://app?vid=5f16334a-3393-41dc-ad34-ab261abba054","ios":"levelo://app?vid=5f16334a-3393-41dc-ad34-ab261abba054"},"vehicle_type_id":"4","last_reported":1750932724,"current_range_meters":19200,"station_id":"ce4bhsh2rcd13ifvqi2g","pricing_plan_id":"cebpf4jnsgd1na2vs0mg"},{"bike_id":"9d043ca6-e9d3-4bf0-a898-473de0644f93","system_id":"levelo_inurba_marseille","lat":43.21187,"lon":5.35073,"is_reserved":false,"is_disabled":false,"rental_uris":{"android":"levelo://app?vid=9d043ca6-e9d3-4bf0-a898-473de0644f93","ios":"levelo://app?vid=9d043ca6-e9d3-4bf0-a898-473de0644f93"},"vehicle_type_id":"4","last_reported":1750932724,"current_range_meters":19200,"station_id":"st_cvj6sg6p6f1abm77japg","pricing_plan_id":"cebpf4jnsgd1na2vs0mg"},{"bike_id":"f865fcec-ace1-4945-bb0b-447e2c4942e9","system_id":"levelo_inurba_marseille","lat":43.29572,"lon":5.37501,"is_reserved":false,"is_disabled":false,"rental_uris":{"android":"levelo://app?vid=f865fcec-ace1-4945-bb0b-447e2c4942e9","ios":"levelo://app?vid=f865fcec-ace1-4945-bb0b-447e2c4942e9"},"vehicle_type_id":"4","last_reported":1750932724,"current_range_meters":19600,"station_id":"ce4bgh92rcd13ifvqb50","pricing_plan_id":"cebpf4jnsgd1na2vs0mg"},{"bike_id":"33dd6ee9-4518-4b0f-b4e5-b665df7948b6","system_id":"levelo_inurba_marseille","lat":43.30903,"lon":5.36872,"is_reserved":false,"is_disabled":false,"rental_uris":{"android":"levelo://app?vid=33dd6ee9-4518-4b0f-b4e5-b665df7948b6","ios":"levelo://app?vid=33dd6ee9-4518-4b0f-b4e5-b665df7948b6"},"vehicle_type_id":"4","last_reported":1750932724,"current_range_meters":19600,"station_id":"ce4bgn92rcd13ifvqbvg","pricing_plan_id":"cebpf4jnsgd1na2vs0mg"},{"bike_id":"eb6dd7cb-41a8-4a4a-8d36-1ef9c31141af","system_id":"levelo_inurba_marseille","lat":43.30548,"lon":5.36509,"is_reserved":false,"is_disabled":false,"rental_uris":{"android":"levelo://app?vid=eb6dd7cb-41a8-4a4a-8d36-1ef9c31141af","ios":"levelo://app?vid=eb6dd7cb-41a8-4a4a-8d36-1ef9c31141af"},"vehicle_type_id":"4","last_reported":1750932724,"current_range_meters":19600,"station_id":"ce4bgs12rcd13ifvqcag","pricing_plan_id":"cebpf4jnsgd1na2vs0mg"},{"bike_id":"a0b6e0db-9683-4932-b70f-58e183a44684","system_id":"levelo_inurba_marseille","lat":43.29628,"lon":5.406,"is_reserved":false,"is_disabled":false,"rental_uris":{"android":"levelo://app?vid=a0b6e0db-9683-4932-b70f-58e183a44684","ios":"levelo://app?vid=a0b6e0db-9683-4932-b70f-58e183a44684"},"vehicle_type_id":"4","last_reported":1750932724,"current_range_meters":19600,"station_id":"ce4bh0h2rcd13ifvqd60","pricing_plan_id":"cebpf4jnsgd1na2vs0mg"},{"bike_id":"67a4207b-1497-4206-bd7d-8e15af15200f","system_id":"levelo_inurba_marseille","lat":43.28932,"lon":5.36639,"is_reserved":false,"is_disabled":false,"rental_uris":{"android":"levelo://app?vid=67a4207b-1497-4206-bd7d-8e15af15200f","ios":"levelo://app?vid=67a4207b-1497-4206-bd7d-8e15af15200f"},"vehicle_type_id":"4","last_reported":1750932724,"current_range_meters":19600,"station_id":"ce4bhap2rcd13ifvqek0","pricing_plan_id":"cebpf4jnsgd1na2vs0mg"},{"bike_id":"c0aadb83-74c9-4f4c-ac79-809eea83af7c","system_id":"levelo_inurba_marseille","lat":43.27374,"lon":5.36253,"is_reserved":false,"is_disabled":false,"rental_uris":{"android":"levelo://app?vid=c0aadb83-74c9-4f4c-ac79-809eea83af7c","ios":"levelo://app?vid=c0aadb83-74c9-4f4c-ac79-809eea83af7c"},"vehicle_type_id":"4","last_reported":1750932724,"current_range_meters":19600,"station_id":"ce4bhbh2rcd13ifvqeo0","pricing_plan_id":"cebpf4jnsgd1na2vs0mg"},{"bike_id":"91725e48-49f9-4bb5-9c14-5f389f383108","system_id":"levelo_inurba_marseille","lat":43.257239,"lon":5.410959,"is_reserved":false,"is_disabled":false,"rental_uris":{"android":"levelo://app?vid=91725e48-49f9-4bb5-9c14-5f389f383108","ios":"levelo://app?vid=91725e48-49f9-4bb5-9c14-5f389f383108"},"vehicle_type_id":"4","last_reported":1750932724,"current_range_meters":19600,"station_id":"ce4bhkp2rcd13ifvqgd0","pricing_plan_id":"cebpf4jnsgd1na2vs0mg"},{"bike_id":"3bae245c-4680-492e-b92a-5cab641003f8","system_id":"levelo_inurba_marseille","lat":43.23147,"lon":5.43704,"is_reserved":false,"is_disabled":false,"rental_uris":{"android":"levelo://app?vid=3bae245c-4680-492e-b92a-5cab641003f8","ios":"levelo://app?vid=3bae245c-4680-492e-b92a-5cab641003f8"},"vehicle_type_id":"4","last_reported":1750932724,"current_range_meters":19600,"station_id":"ce4bhmp2rcd13ifvqgog","pricing_plan_id":"cebpf4jnsgd1na2vs0mg"},{"bike_id":"ceeae017-4dc0-40ef-8e57-58d78885c3d9","system_id":"levelo_inurba_marseille","lat":43.30782,"lon":5.37645,"is_reserved":false,"is_disabled":false,"rental_uris":{"android":"levelo://app?vid=ceeae017-4dc0-40ef-8e57-58d78885c3d9","ios":"levelo://app?vid=ceeae017-4dc0-40ef-8e57-58d78885c3d9"},"vehicle_type_id":"4","last_reported":1750932724,"current_range_meters":20000,"station_id":"ce4bgv92rcd13ifvqcq0","pricing_plan_id":"cebpf4jnsgd1na2vs0mg"},{"bike_id":"53745014-2e6d-4fda-9aa4-8154327c1d7d","system_id":"levelo_inurba_marseille","lat":43.29005,"lon":5.38631,"is_reserved":false,"is_disabled":false,"rental_uris":{"android":"levelo://app?vid=53745014-2e6d-4fda-9aa4-8154327c1d7d","ios":"levelo://app?vid=53745014-2e6d-4fda-9aa4-8154327c1d7d"},"vehicle_type_id":"4","last_reported":1750932724,"current_range_meters":20000,"station_id":"ce4bh4p2rcd13ifvqe0g","pricing_plan_id":"cebpf4jnsgd1na2vs0mg"},{"bike_id":"70342473-1c92-4e02-b3b0-e0f083982874","system_id":"levelo_inurba_marseille","lat":43.28417,"lon":5.34993,"is_reserved":false,"is_disabled":false,"rental_uris":{"android":"levelo://app?vid=70342473-1c92-4e02-b3b0-e0f083982874","ios":"levelo://app?vid=70342473-1c92-4e02-b3b0-e0f083982874"},"vehicle_type_id":"4","last_reported":1750932724,"current_range_meters":20000,"station_id":"ce4bhbh2rcd13ifvqepg","pricing_plan_id":"cebpf4jnsgd1na2vs0mg"},{"bike_id":"3ab3ba46-3f19-4eb9-9125-24bab3ce9b9f","system_id":"levelo_inurba_marseille","lat":43.24997,"lon":5.38932,"is_reserved":false,"is_disabled":false,"rental_uris":{"android":"levelo://app?vid=3ab3ba46-3f19-4eb9-9125-24bab3ce9b9f","ios":"levelo://app?vid=3ab3ba46-3f19-4eb9-9125-24bab3ce9b9f"},"vehicle_type_id":"4","last_reported":1750932724,"current_range_meters":20000,"station_id":"ce4bhgp2rcd13ifvqfd0","pricing_plan_id":"cebpf4jnsgd1na2vs0mg"},{"bike_id":"facfcf93-ab85-4d16-b148-8bc9369e6f17","system_id":"levelo_inurba_marseille","lat":43.211966,"lon":5.350723,"is_reserved":false,"is_disabled":false,"rental_uris":{"android":"levelo://app?vid=facfcf93-ab85-4d16-b148-8bc9369e6f17","ios":"levelo://app?vid=facfcf93-ab85-4d16-b148-8bc9369e6f17"},"vehicle_type_id":"4","last_reported":1750932724,"current_range_meters":20000,"station_id":"st_cvj6sg6p6f1abm77japg","pricing_plan_id":"cebpf4jnsgd1na2vs0mg"},{"bike_id":"0450fe87-20c7-42de-97b7-f4526d26c727","system_id":"levelo_inurba_marseille","lat":43.30555,"lon":5.36701,"is_reserved":false,"is_disabled":false,"rental_uris":{"android":"levelo://app?vid=0450fe87-20c7-42de-97b7-f4526d26c727","ios":"levelo://app?vid=0450fe87-20c7-42de-97b7-f4526d26c727"},"vehicle_type_id":"4","last_reported":1750932724,"current_range_meters":20400,"station_id":"ce4bgrp2rcd13ifvqc9g","pricing_plan_id":"cebpf4jnsgd1na2vs0mg"},{"bike_id":"838812b8-550d-41a2-9bfb-81599bac30ad","system_id":"levelo_inurba_marseille","lat":43.30531,"lon":5.36545,"is_reserved":false,"is_disabled":false,"rental_uris":{"android":"levelo://app?vid=838812b8-550d-41a2-9bfb-81599bac30ad","ios":"levelo://app?vid=838812b8-550d-41a2-9bfb-81599bac30ad"},"vehicle_type_id":"4","last_reported":1750932724,"current_range_meters":20400,"station_id":"ce4bgs12rcd13ifvqcag","pricing_plan_id":"cebpf4jnsgd1na2vs0mg"},{"bike_id":"d1da4d79-ae8a-43b9-a056-74a58c5811f7","system_id":"levelo_inurba_marseille","lat":43.26204,"lon":5.37454,"is_reserved":false,"is_disabled":false,"rental_uris":{"android":"levelo://app?vid=d1da4d79-ae8a-43b9-a056-74a58c5811f7","ios":"levelo://app?vid=d1da4d79-ae8a-43b9-a056-74a58c5811f7"},"vehicle_type_id":"4","last_reported":1750932724,"current_range_meters":20400,"station_id":"ce4bhgp2rcd13ifvqfc0","pricing_plan_id":"cebpf4jnsgd1na2vs0mg"},{"bike_id":"17d7ab6e-b589-4b0d-8d49-f82a773dc15e","system_id":"levelo_inurba_marseille","lat":43.29634,"lon":5.376,"is_reserved":false,"is_disabled":false,"rental_uris":{"android":"levelo://app?vid=17d7ab6e-b589-4b0d-8d49-f82a773dc15e","ios":"levelo://app?vid=17d7ab6e-b589-4b0d-8d49-f82a773dc15e"},"vehicle_type_id":"4","last_reported":1750932724,"current_range_meters":20800,"station_id":"","pricing_plan_id":"cebpf4jnsgd1na2vs0mg"},{"bike_id":"8454ae82-159b-4ca9-9e41-2097810d1d73","system_id":"levelo_inurba_marseille","lat":43.30908,"lon":5.36859,"is_reserved":false,"is_disabled":false,"rental_uris":{"android":"levelo://app?vid=8454ae82-159b-4ca9-9e41-2097810d1d73","ios":"levelo://app?vid=8454ae82-159b-4ca9-9e41-2097810d1d73"},"vehicle_type_id":"4","last_reported":1750932724,"current_range_meters":20800,"station_id":"ce4bgn92rcd13ifvqbvg","pricing_plan_id":"cebpf4jnsgd1na2vs0mg"},{"bike_id":"04551102-e5b0-4880-bafe-92d382d985b5","system_id":"levelo_inurba_marseille","lat":43.30537,"lon":5.36515,"is_reserved":false,"is_disabled":false,"rental_uris":{"android":"levelo://app?vid=04551102-e5b0-4880-bafe-92d382d985b5","ios":"levelo://app?vid=04551102-e5b0-4880-bafe-92d382d985b5"},"vehicle_type_id":"4","last_reported":1750932724,"current_range_meters":20800,"station_id":"ce4bgs12rcd13ifvqcag","pricing_plan_id":"cebpf4jnsgd1na2vs0mg"},{"bike_id":"ab7231b5-6453-4e00-ba83-c2d391a4ba33","system_id":"levelo_inurba_marseille","lat":43.24401,"lon":5.37062,"is_reserved":false,"is_disabled":false,"rental_uris":{"android":"levelo://app?vid=ab7231b5-6453-4e00-ba83-c2d391a4ba33","ios":"levelo://app?vid=ab7231b5-6453-4e00-ba83-c2d391a4ba33"},"vehicle_type_id":"4","last_reported":1750932724,"current_range_meters":20800,"station_id":"ce4bhhh2rcd13ifvqfk0","pricing_plan_id":"cebpf4jnsgd1na2vs0mg"},{"bike_id":"58dd4b4c-75e9-4376-94fc-399a0b40ee6a","system_id":"levelo_inurba_marseille","lat":43.25729,"lon":5.41105,"is_reserved":false,"is_disabled":false,"rental_uris":{"android":"levelo://app?vid=58dd4b4c-75e9-4376-94fc-399a0b40ee6a","ios":"levelo://app?vid=58dd4b4c-75e9-4376-94fc-399a0b40ee6a"},"vehicle_type_id":"4","last_reported":1750932724,"current_range_meters":20800,"station_id":"ce4bhkp2rcd13ifvqgd0","pricing_plan_id":"cebpf4jnsgd1na2vs0mg"},{"bike_id":"14b4766b-2639-492f-bcc4-213d9ec82643","system_id":"levelo_inurba_marseille","lat":43.25715,"lon":5.41104,"is_reserved":false,"is_disabled":false,"rental_uris":{"android":"levelo://app?vid=14b4766b-2639-492f-bcc4-213d9ec82643","ios":"levelo://app?vid=14b4766b-2639-492f-bcc4-213d9ec82643"},"vehicle_type_id":"4","last_reported":1750932724,"current_range_meters":20800,"station_id":"ce4bhkp2rcd13ifvqgd0","pricing_plan_id":"cebpf4jnsgd1na2vs0mg"},{"bike_id":"77781651-3f6d-42a9-8649-4366f62c1dc8","system_id":"levelo_inurba_marseille","lat":43.27946,"lon":5.41027,"is_reserved":false,"is_disabled":false,"rental_uris":{"android":"levelo://app?vid=77781651-3f6d-42a9-8649-4366f62c1dc8","ios":"levelo://app?vid=77781651-3f6d-42a9-8649-4366f62c1dc8"},"vehicle_type_id":"4","last_reported":1750932724,"current_range_meters":20800,"station_id":"ce4bhnp2rcd13ifvqh0g","pricing_plan_id":"cebpf4jnsgd1na2vs0mg"},{"bike_id":"3ec7d4a2-77ba-4f4d-a759-f535d93aceb6","system_id":"levelo_inurba_marseille","lat":43.2961,"lon":5.38097,"is_reserved":false,"is_disabled":false,"rental_uris":{"android":"levelo://app?vid=3ec7d4a2-77ba-4f4d-a759-f535d93aceb6","ios":"levelo://app?vid=3ec7d4a2-77ba-4f4d-a759-f535d93aceb6"},"vehicle_type_id":"4","last_reported":1750932724,"current_range_meters":21600,"station_id":"ce4bgl12rcd13ifvqbo0","pricing_plan_id":"cebpf4jnsgd1na2vs0mg"},{"bike_id":"b61ad0e2-7a4d-4346-979d-215766ccdaba","system_id":"levelo_inurba_marseille","lat":43.31715,"lon":5.40443,"is_reserved":false,"is_disabled":false,"rental_uris":{"android":"levelo://app?vid=b61ad0e2-7a4d-4346-979d-215766ccdaba","ios":"levelo://app?vid=b61ad0e2-7a4d-4346-979d-215766ccdaba"},"vehicle_type_id":"4","last_reported":1750932724,"current_range_meters":21600,"station_id":"ce4bh012rcd13ifvqd00","pricing_plan_id":"cebpf4jnsgd1na2vs0mg"},{"bike_id":"24c3c4fa-5505-449a-b0f5-f5b837f1b786","system_id":"levelo_inurba_marseille","lat":43.24997,"lon":5.3893,"is_reserved":false,"is_disabled":false,"rental_uris":{"android":"levelo://app?vid=24c3c4fa-5505-449a-b0f5-f5b837f1b786","ios":"levelo://app?vid=24c3c4fa-5505-449a-b0f5-f5b837f1b786"},"vehicle_type_id":"4","last_reported":1750932724,"current_range_meters":21600,"station_id":"ce4bhgp2rcd13ifvqfd0","pricing_plan_id":"cebpf4jnsgd1na2vs0mg"},{"bike_id":"513e86f7-ba06-48c3-9948-38cc4d662e7c","system_id":"levelo_inurba_marseille","lat":43.23146,"lon":5.43731,"is_reserved":false,"is_disabled":false,"rental_uris":{"android":"levelo://app?vid=513e86f7-ba06-48c3-9948-38cc4d662e7c","ios":"levelo://app?vid=513e86f7-ba06-48c3-9948-38cc4d662e7c"},"vehicle_type_id":"4","last_reported":1750932724,"current_range_meters":21600,"station_id":"ce4bhmp2rcd13ifvqgog","pricing_plan_id":"cebpf4jnsgd1na2vs0mg"},{"bike_id":"b5013e89-18de-492b-b855-2f47293f9cf6","system_id":"levelo_inurba_marseille","lat":43.32359,"lon":5.36737,"is_reserved":false,"is_disabled":false,"rental_uris":{"android":"levelo://app?vid=b5013e89-18de-492b-b855-2f47293f9cf6","ios":"levelo://app?vid=b5013e89-18de-492b-b855-2f47293f9cf6"},"vehicle_type_id":"4","last_reported":1750932724,"current_range_meters":21600,"station_id":"ce4bhsh2rcd13ifvqi2g","pricing_plan_id":"cebpf4jnsgd1na2vs0mg"},{"bike_id":"bdd39c15-1067-4c99-9477-8f351070e9d7","system_id":"levelo_inurba_marseille","lat":43.26692,"lon":5.38271,"is_reserved":false,"is_disabled":false,"rental_uris":{"android":"levelo://app?vid=bdd39c15-1067-4c99-9477-8f351070e9d7","ios":"levelo://app?vid=bdd39c15-1067-4c99-9477-8f351070e9d7"},"vehicle_type_id":"4","last_reported":1750932724,"current_range_meters":22000,"station_id":"ce4bhg92rcd13ifvqf90","pricing_plan_id":"cebpf4jnsgd1na2vs0mg"},{"bike_id":"c3248012-484a-4941-8f7e-c8db11047399","system_id":"levelo_inurba_marseille","lat":43.28415,"lon":5.34981,"is_reserved":false,"is_disabled":false,"rental_uris":{"android":"levelo://app?vid=c3248012-484a-4941-8f7e-c8db11047399","ios":"levelo://app?vid=c3248012-484a-4941-8f7e-c8db11047399"},