{"last_updated":1784300640,"ttl":60,"version":"2.2","data":{"bikes":[{"bike_id":"ba0c28b1-8732-48e2-8079-f25b2b3fbc3c","system_id":"levelo_inurba_marseille","lat":43.337444,"lon":5.374475,"is_reserved":false,"is_disabled":false,"rental_uris":{"android":"levelo://app?vid=ba0c28b1-8732-48e2-8079-f25b2b3fbc3c","ios":"levelo://app?vid=ba0c28b1-8732-48e2-8079-f25b2b3fbc3c"},"vehicle_type_id":"4","last_reported":1784300641,"current_range_meters":0,"station_id":"","pricing_plan_id":"cebpf4jnsgd1na2vs0mg"},{"bike_id":"c3dc1f36-124b-43b3-bbd8-29c118b5de98","system_id":"levelo_inurba_marseille","lat":43.29494,"lon":5.433,"is_reserved":false,"is_disabled":false,"rental_uris":{"android":"levelo://app?vid=c3dc1f36-124b-43b3-bbd8-29c118b5de98","ios":"levelo://app?vid=c3dc1f36-124b-43b3-bbd8-29c118b5de98"},"vehicle_type_id":"4","last_reported":1784300641,"current_range_meters":34800,"station_id":"st_d3j5ugp08ojc73fj9d10","pricing_plan_id":"cebpf4jnsgd1na2vs0mg"},{"bike_id":"0175f421-783a-4b45-97d5-9724248730a8","system_id":"levelo_inurba_marseille","lat":43.27315,"lon":5.39115,"is_reserved":false,"is_disabled":false,"rental_uris":{"android":"levelo://app?vid=0175f421-783a-4b45-97d5-9724248730a8","ios":"levelo://app?vid=0175f421-783a-4b45-97d5-9724248730a8"},"vehicle_type_id":"4","last_reported":1784300641,"current_range_meters":36800,"station_id":"ce4bhgp2rcd13ifvqfe0","pricing_plan_id":"cebpf4jnsgd1na2vs0mg"},{"bike_id":"63dc20ac-90f4-4eae-ac6c-d24ae13a7929","system_id":"levelo_inurba_marseille","lat":43.25349,"lon":5.42183,"is_reserved":false,"is_disabled":false,"rental_uris":{"android":"levelo://app?vid=63dc20ac-90f4-4eae-ac6c-d24ae13a7929","ios":"levelo://app?vid=63dc20ac-90f4-4eae-ac6c-d24ae13a7929"},"vehicle_type_id":"4","last_reported":1784300641,"current_range_meters":36400,"station_id":"st_d2m65c5bi1j21697t3ng","pricing_plan_id":"cebpf4jnsgd1na2vs0mg"},{"bike_id":"e648e2a2-5326-48b6-ba40-1e3856de6d9c","system_id":"levelo_inurba_marseille","lat":43.212,"lon":5.35103,"is_reserved":false,"is_disabled":false,"rental_uris":{"android":"levelo://app?vid=e648e2a2-5326-48b6-ba40-1e3856de6d9c","ios":"levelo://app?vid=e648e2a2-5326-48b6-ba40-1e3856de6d9c"},"vehicle_type_id":"4","last_reported":1784300641,"current_range_meters":27600,"station_id":"st_cvj6sg6p6f1abm77japg","pricing_plan_id":"cebpf4jnsgd1na2vs0mg"},{"bike_id":"76b63993-96f7-484a-8343-5ea3ca2d69bf","system_id":"levelo_inurba_marseille","lat":43.27455,"lon":5.36139,"is_reserved":false,"is_disabled":false,"rental_uris":{"android":"levelo://app?vid=76b63993-96f7-484a-8343-5ea3ca2d69bf","ios":"levelo://app?vid=76b63993-96f7-484a-8343-5ea3ca2d69bf"},"vehicle_type_id":"4","last_reported":1784300641,"current_range_meters":29600,"station_id":"","pricing_plan_id":"cebpf4jnsgd1na2vs0mg"},{"bike_id":"382bb15b-49be-4b4d-a782-042762a0883b","system_id":"levelo_inurba_marseille","lat":43.26365,"lon":5.41043,"is_reserved":false,"is_disabled":false,"rental_uris":{"android":"levelo://app?vid=382bb15b-49be-4b4d-a782-042762a0883b","ios":"levelo://app?vid=382bb15b-49be-4b4d-a782-042762a0883b"},"vehicle_type_id":"4","last_reported":1784300641,"current_range_meters":7200,"station_id":"st_d4e5ca6na9uc73bfl5fg","pricing_plan_id":"cebpf4jnsgd1na2vs0mg"},{"bike_id":"45b7c6a1-4fc8-420d-85b0-9955eeb3ace9","system_id":"levelo_inurba_marseille","lat":43.21753,"lon":5.34603,"is_reserved":false,"is_disabled":false,"rental_uris":{"android":"levelo://app?vid=45b7c6a1-4fc8-420d-85b0-9955eeb3ace9","ios":"levelo://app?vid=45b7c6a1-4fc8-420d-85b0-9955eeb3ace9"},"vehicle_type_id":"4","last_reported":1784300641,"current_range_meters":2800,"station_id":"st_cvj6r9ubvosntc0bgbag","pricing_plan_id":"cebpf4jnsgd1na2vs0mg"},{"bike_id":"c280c2e8-e90a-4cb2-ba33-ff355328b51f","system_id":"levelo_inurba_marseille","lat":43.23192,"lon":5.39997,"is_reserved":false,"is_disabled":false,"rental_uris":{"android":"levelo://app?vid=c280c2e8-e90a-4cb2-ba33-ff355328b51f","ios":"levelo://app?vid=c280c2e8-e90a-4cb2-ba33-ff355328b51f"},"vehicle_type_id":"4","last_reported":1784300641,"current_range_meters":16800,"station_id":"ce4bhn12rcd13ifvqgqg","pricing_plan_id":"cebpf4jnsgd1na2vs0mg"},{"bike_id":"efd3b0db-a47f-4cbd-be93-174f0b8e3872","system_id":"levelo_inurba_marseille","lat":43.31195,"lon":5.36853,"is_reserved":false,"is_disabled":false,"rental_uris":{"android":"levelo://app?vid=efd3b0db-a47f-4cbd-be93-174f0b8e3872","ios":"levelo://app?vid=efd3b0db-a47f-4cbd-be93-174f0b8e3872"},"vehicle_type_id":"4","last_reported":1784300641,"current_range_meters":19600,"station_id":"ce4bgl92rcd13ifvqbq0","pricing_plan_id":"cebpf4jnsgd1na2vs0mg"},{"bike_id":"f9ec76c6-6fda-4e12-987e-0ea67946a126","system_id":"levelo_inurba_marseille","lat":43.27364,"lon":5.36242,"is_reserved":false,"is_disabled":false,"rental_uris":{"android":"levelo://app?vid=f9ec76c6-6fda-4e12-987e-0ea67946a126","ios":"levelo://app?vid=f9ec76c6-6fda-4e12-987e-0ea67946a126"},"vehicle_type_id":"4","last_reported":1784300641,"current_range_meters":39200,"station_id":"ce4bhbh2rcd13ifvqeo0","pricing_plan_id":"cebpf4jnsgd1na2vs0mg"},{"bike_id":"db8bd5d3-bb99-4688-8de3-0b156a227ffe","system_id":"levelo_inurba_marseille","lat":43.29887,"lon":5.37439,"is_reserved":false,"is_disabled":true,"rental_uris":{"android":"levelo://app?vid=db8bd5d3-bb99-4688-8de3-0b156a227ffe","ios":"levelo://app?vid=db8bd5d3-bb99-4688-8de3-0b156a227ffe"},"vehicle_type_id":"4","last_reported":1784300641,"current_range_meters":10800,"station_id":"ce4bgjh2rcd13ifvqbg0","pricing_plan_id":"cebpf4jnsgd1na2vs0mg"},{"bike_id":"96849611-00d5-4884-b0dc-e03df79fa9c3","system_id":"levelo_inurba_marseille","lat":43.24406,"lon":5.37052,"is_reserved":false,"is_disabled":false,"rental_uris":{"android":"levelo://app?vid=96849611-00d5-4884-b0dc-e03df79fa9c3","ios":"levelo://app?vid=96849611-00d5-4884-b0dc-e03df79fa9c3"},"vehicle_type_id":"4","last_reported":1784300641,"current_range_meters":14400,"station_id":"ce4bhhh2rcd13ifvqfk0","pricing_plan_id":"cebpf4jnsgd1na2vs0mg"},{"bike_id":"e71494cd-d4a8-436a-a5c6-260a2924500e","system_id":"levelo_inurba_marseille","lat":43.2622,"lon":5.38777,"is_reserved":false,"is_disabled":true,"rental_uris":{"android":"levelo://app?vid=e71494cd-d4a8-436a-a5c6-260a2924500e","ios":"levelo://app?vid=e71494cd-d4a8-436a-a5c6-260a2924500e"},"vehicle_type_id":"4","last_reported":1784300641,"current_range_meters":30400,"station_id":"st_d8gjfg747rts73coq3b0","pricing_plan_id":"cebpf4jnsgd1na2vs0mg"},{"bike_id":"4dd83e35-73dd-44b8-9d3c-9c21e3418d4e","system_id":"levelo_inurba_marseille","lat":43.27502,"lon":5.42552,"is_reserved":false,"is_disabled":false,"rental_uris":{"android":"levelo://app?vid=4dd83e35-73dd-44b8-9d3c-9c21e3418d4e","ios":"levelo://app?vid=4dd83e35-73dd-44b8-9d3c-9c21e3418d4e"},"vehicle_type_id":"4","last_reported":1784300641,"current_range_meters":15200,"station_id":"st_d8t4bh7nbrqs73arha60","pricing_plan_id":"cebpf4jnsgd1na2vs0mg"},{"bike_id":"0bae1387-dbc4-4fe8-af80-0faa0716d47d","system_id":"levelo_inurba_marseille","lat":43.23965,"lon":5.36633,"is_reserved":false,"is_disabled":false,"rental_uris":{"android":"levelo://app?vid=0bae1387-dbc4-4fe8-af80-0faa0716d47d","ios":"levelo://app?vid=0bae1387-dbc4-4fe8-af80-0faa0716d47d"},"vehicle_type_id":"4","last_reported":1784300641,"current_range_meters":33200,"station_id":"ce4bhi12rcd13ifvqfp0","pricing_plan_id":"cebpf4jnsgd1na2vs0mg"},{"bike_id":"6666b766-2ccd-467a-ad53-5ec31fb4dec4","system_id":"levelo_inurba_marseille","lat":43.24814,"lon":5.37439,"is_reserved":false,"is_disabled":false,"rental_uris":{"android":"levelo://app?vid=6666b766-2ccd-467a-ad53-5ec31fb4dec4","ios":"levelo://app?vid=6666b766-2ccd-467a-ad53-5ec31fb4dec4"},"vehicle_type_id":"4","last_reported":1784300641,"current_range_meters":38400,"station_id":"ce4bhgh2rcd13ifvqfb0","pricing_plan_id":"cebpf4jnsgd1na2vs0mg"},{"bike_id":"5369b032-dcc5-484a-9b18-671fceb20e9f","system_id":"levelo_inurba_marseille","lat":43.25003,"lon":5.38938,"is_reserved":false,"is_disabled":false,"rental_uris":{"android":"levelo://app?vid=5369b032-dcc5-484a-9b18-671fceb20e9f","ios":"levelo://app?vid=5369b032-dcc5-484a-9b18-671fceb20e9f"},"vehicle_type_id":"4","last_reported":1784300641,"current_range_meters":21600,"station_id":"ce4bhgp2rcd13ifvqfd0","pricing_plan_id":"cebpf4jnsgd1na2vs0mg"},{"bike_id":"7d2a4660-8779-4be0-8361-0a9a9f09983e","system_id":"levelo_inurba_marseille","lat":43.28725,"lon":5.36084,"is_reserved":false,"is_disabled":false,"rental_uris":{"android":"levelo://app?vid=7d2a4660-8779-4be0-8361-0a9a9f09983e","ios":"levelo://app?vid=7d2a4660-8779-4be0-8361-0a9a9f09983e"},"vehicle_type_id":"4","last_reported":1784300641,"current_range_meters":14400,"station_id":"cki0cbj6b192h4jlfktg","pricing_plan_id":"cebpf4jnsgd1na2vs0mg"},{"bike_id":"daf11da9-09e4-45d4-814b-e16971bc59a4","system_id":"levelo_inurba_marseille","lat":43.27952,"lon":5.38731,"is_reserved":false,"is_disabled":true,"rental_uris":{"android":"levelo://app?vid=daf11da9-09e4-45d4-814b-e16971bc59a4","ios":"levelo://app?vid=daf11da9-09e4-45d4-814b-e16971bc59a4"},"vehicle_type_id":"4","last_reported":1784300641,"current_range_meters":24400,"station_id":"ce4bhg12rcd13ifvqf80","pricing_plan_id":"cebpf4jnsgd1na2vs0mg"},{"bike_id":"208641bb-2077-49cc-b121-1fafc8038876","system_id":"levelo_inurba_marseille","lat":43.3055,"lon":5.36536,"is_reserved":false,"is_disabled":false,"rental_uris":{"android":"levelo://app?vid=208641bb-2077-49cc-b121-1fafc8038876","ios":"levelo://app?vid=208641bb-2077-49cc-b121-1fafc8038876"},"vehicle_type_id":"4","last_reported":1784300641,"current_range_meters":35600,"station_id":"ce4bgs12rcd13ifvqcag","pricing_plan_id":"cebpf4jnsgd1na2vs0mg"},{"bike_id":"6f681dcb-ee4c-458d-aac3-7caa1c6605da","system_id":"levelo_inurba_marseille","lat":43.26502,"lon":5.39533,"is_reserved":false,"is_disabled":false,"rental_uris":{"android":"levelo://app?vid=6f681dcb-ee4c-458d-aac3-7caa1c6605da","ios":"levelo://app?vid=6f681dcb-ee4c-458d-aac3-7caa1c6605da"},"vehicle_type_id":"4","last_reported":1784300641,"current_range_meters":38800,"station_id":"ce4bhi12rcd13ifvqfq0","pricing_plan_id":"cebpf4jnsgd1na2vs0mg"},{"bike_id":"acc1f62a-bcba-48db-87e6-f9904a68c9cf","system_id":"levelo_inurba_marseille","lat":43.2976,"lon":5.3765,"is_reserved":false,"is_disabled":true,"rental_uris":{"android":"levelo://app?vid=acc1f62a-bcba-48db-87e6-f9904a68c9cf","ios":"levelo://app?vid=acc1f62a-bcba-48db-87e6-f9904a68c9cf"},"vehicle_type_id":"4","last_reported":1784300641,"current_range_meters":5600,"station_id":"","pricing_plan_id":"cebpf4jnsgd1na2vs0mg"},{"bike_id":"872ebcb0-b331-4ce1-9570-6b29f9d66328","system_id":"levelo_inurba_marseille","lat":43.27068,"lon":5.40264,"is_reserved":false,"is_disabled":false,"rental_uris":{"android":"levelo://app?vid=872ebcb0-b331-4ce1-9570-6b29f9d66328","ios":"levelo://app?vid=872ebcb0-b331-4ce1-9570-6b29f9d66328"},"vehicle_type_id":"4","last_reported":1784300641,"current_range_meters":3200,"station_id":"ce4bhk92rcd13ifvqgc0","pricing_plan_id":"cebpf4jnsgd1na2vs0mg"},{"bike_id":"2e713f5f-0d30-4049-b21c-bfce54a23bd5","system_id":"levelo_inurba_marseille","lat":43.23905,"lon":5.37427,"is_reserved":false,"is_disabled":true,"rental_uris":{"android":"levelo://app?vid=2e713f5f-0d30-4049-b21c-bfce54a23bd5","ios":"levelo://app?vid=2e713f5f-0d30-4049-b21c-bfce54a23bd5"},"vehicle_type_id":"4","last_reported":1784300641,"current_range_meters":34800,"station_id":"st_d6sm7csbq4hs73f8fpjg","pricing_plan_id":"cebpf4jnsgd1na2vs0mg"},{"bike_id":"32c95016-82d3-4943-8193-1a98c4bf18c7","system_id":"levelo_inurba_marseille","lat":43.28094,"lon":5.35673,"is_reserved":false,"is_disabled":false,"rental_uris":{"android":"levelo://app?vid=32c95016-82d3-4943-8193-1a98c4bf18c7","ios":"levelo://app?vid=32c95016-82d3-4943-8193-1a98c4bf18c7"},"vehicle_type_id":"4","last_reported":1784300641,"current_range_meters":12000,"station_id":"","pricing_plan_id":"cebpf4jnsgd1na2vs0mg"},{"bike_id":"3190d3f7-9c93-4c6e-b207-4e3139ed0ccc","system_id":"levelo_inurba_marseille","lat":43.21746,"lon":5.34594,"is_reserved":false,"is_disabled":false,"rental_uris":{"android":"levelo://app?vid=3190d3f7-9c93-4c6e-b207-4e3139ed0ccc","ios":"levelo://app?vid=3190d3f7-9c93-4c6e-b207-4e3139ed0ccc"},"vehicle_type_id":"4","last_reported":1784300641,"current_range_meters":12400,"station_id":"st_cvj6r9ubvosntc0bgbag","pricing_plan_id":"cebpf4jnsgd1na2vs0mg"},{"bike_id":"e4064152-b01a-460a-934b-4b0ab157c51c","system_id":"levelo_inurba_marseille","lat":43.23063,"lon":5.35497,"is_reserved":false,"is_disabled":false,"rental_uris":{"android":"levelo://app?vid=e4064152-b01a-460a-934b-4b0ab157c51c","ios":"levelo://app?vid=e4064152-b01a-460a-934b-4b0ab157c51c"},"vehicle_type_id":"4","last_reported":1784300641,"current_range_meters":9200,"station_id":"cpo3342slgdg3j2ifvpg","pricing_plan_id":"cebpf4jnsgd1na2vs0mg"},{"bike_id":"4d103531-dc76-4632-9ed6-3b8eae789ecc","system_id":"levelo_inurba_marseille","lat":43.32112,"lon":5.3679,"is_reserved":false,"is_disabled":false,"rental_uris":{"android":"levelo://app?vid=4d103531-dc76-4632-9ed6-3b8eae789ecc","ios":"levelo://app?vid=4d103531-dc76-4632-9ed6-3b8eae789ecc"},"vehicle_type_id":"4","last_reported":1784300641,"current_range_meters":11600,"station_id":"ce4bhrh2rcd13ifvqhug","pricing_plan_id":"cebpf4jnsgd1na2vs0mg"},{"bike_id":"ef6880d0-6944-4f6a-8f40-6662368b8f75","system_id":"levelo_inurba_marseille","lat":43.31448,"lon":5.45416,"is_reserved":false,"is_disabled":false,"rental_uris":{"android":"levelo://app?vid=ef6880d0-6944-4f6a-8f40-6662368b8f75","ios":"levelo://app?vid=ef6880d0-6944-4f6a-8f40-6662368b8f75"},"vehicle_type_id":"4","last_reported":1784300641,"current_range_meters":14400,"station_id":"","pricing_plan_id":"cebpf4jnsgd1na2vs0mg"},{"bike_id":"667676d4-22f9-4a66-84e0-aff32a05b8da","system_id":"levelo_inurba_marseille","lat":43.24179,"lon":5.39731,"is_reserved":false,"is_disabled":false,"rental_uris":{"android":"levelo://app?vid=667676d4-22f9-4a66-84e0-aff32a05b8da","ios":"levelo://app?vid=667676d4-22f9-4a66-84e0-aff32a05b8da"},"vehicle_type_id":"4","last_reported":1784300641,"current_range_meters":24400,"station_id":"ce4bhn12rcd13ifvqgpg","pricing_plan_id":"cebpf4jnsgd1na2vs0mg"},{"bike_id":"ac73781c-7964-453a-82c7-5e417be13435","system_id":"levelo_inurba_marseille","lat":43.28613,"lon":5.37057,"is_reserved":false,"is_disabled":false,"rental_uris":{"android":"levelo://app?vid=ac73781c-7964-453a-82c7-5e417be13435","ios":"levelo://app?vid=ac73781c-7964-453a-82c7-5e417be13435"},"vehicle_type_id":"4","last_reported":1784300641,"current_range_meters":37600,"station_id":"ce4bht12rcd13ifvqi60","pricing_plan_id":"cebpf4jnsgd1na2vs0mg"},{"bike_id":"864a38e5-18ed-497d-8a1d-3e425de9f388","system_id":"levelo_inurba_marseille","lat":43.31344,"lon":5.36707,"is_reserved":false,"is_disabled":false,"rental_uris":{"android":"levelo://app?vid=864a38e5-18ed-497d-8a1d-3e425de9f388","ios":"levelo://app?vid=864a38e5-18ed-497d-8a1d-3e425de9f388"},"vehicle_type_id":"4","last_reported":1784300641,"current_range_meters":38000,"station_id":"ce4bgr92rcd13ifvqc6g","pricing_plan_id":"cebpf4jnsgd1na2vs0mg"},{"bike_id":"d183c213-4177-4bf2-b9e0-24872be8a9c8","system_id":"levelo_inurba_marseille","lat":43.28484,"lon":5.48384,"is_reserved":false,"is_disabled":false,"rental_uris":{"android":"levelo://app?vid=d183c213-4177-4bf2-b9e0-24872be8a9c8","ios":"levelo://app?vid=d183c213-4177-4bf2-b9e0-24872be8a9c8"},"vehicle_type_id":"4","last_reported":1784300641,"current_range_meters":20000,"station_id":"st_d3svhcjqgbts73a3dn0g","pricing_plan_id":"cebpf4jnsgd1na2vs0mg"},{"bike_id":"4a9dc560-9f7e-4b5e-a61c-920a63c5a8c5","system_id":"levelo_inurba_marseille","lat":43.28262,"lon":5.35079,"is_reserved":false,"is_disabled":false,"rental_uris":{"android":"levelo://app?vid=4a9dc560-9f7e-4b5e-a61c-920a63c5a8c5","ios":"levelo://app?vid=4a9dc560-9f7e-4b5e-a61c-920a63c5a8c5"},"vehicle_type_id":"4","last_reported":1784300641,"current_range_meters":26800,"station_id":"ce4bhbp2rcd13ifvqerg","pricing_plan_id":"cebpf4jnsgd1na2vs0mg"},{"bike_id":"930a26e6-38b4-4fff-a16a-2d1b93308d5b","system_id":"levelo_inurba_marseille","lat":43.28702,"lon":5.37389,"is_reserved":false,"is_disabled":true,"rental_uris":{"android":"levelo://app?vid=930a26e6-38b4-4fff-a16a-2d1b93308d5b","ios":"levelo://app?vid=930a26e6-38b4-4fff-a16a-2d1b93308d5b"},"vehicle_type_id":"4","last_reported":1784300641,"current_range_meters":6800,"station_id":"ce4bh3p2rcd13ifvqdq0","pricing_plan_id":"cebpf4jnsgd1na2vs0mg"},{"bike_id":"2cc76e28-e89c-499c-abf0-925b570c439c","system_id":"levelo_inurba_marseille","lat":43.30878,"lon":5.37204,"is_reserved":false,"is_disabled":false,"rental_uris":{"android":"levelo://app?vid=2cc76e28-e89c-499c-abf0-925b570c439c","ios":"levelo://app?vid=2cc76e28-e89c-499c-abf0-925b570c439c"},"vehicle_type_id":"4","last_reported":1784300641,"current_range_meters":25200,"station_id":"ce4bguh2rcd13ifvqckg","pricing_plan_id":"cebpf4jnsgd1na2vs0mg"},{"bike_id":"87932bdc-5e35-4e62-8b81-4961770ea33b","system_id":"levelo_inurba_marseille","lat":43.21745,"lon":5.34599,"is_reserved":false,"is_disabled":false,"rental_uris":{"android":"levelo://app?vid=87932bdc-5e35-4e62-8b81-4961770ea33b","ios":"levelo://app?vid=87932bdc-5e35-4e62-8b81-4961770ea33b"},"vehicle_type_id":"4","last_reported":1784300641,"current_range_meters":20000,"station_id":"st_cvj6r9ubvosntc0bgbag","pricing_plan_id":"cebpf4jnsgd1na2vs0mg"},{"bike_id":"e0c7065e-7f74-4b06-ae7b-f933c635df87","system_id":"levelo_inurba_marseille","lat":43.29552,"lon":5.42274,"is_reserved":false,"is_disabled":false,"rental_uris":{"android":"levelo://app?vid=e0c7065e-7f74-4b06-ae7b-f933c635df87","ios":"levelo://app?vid=e0c7065e-7f74-4b06-ae7b-f933c635df87"},"vehicle_type_id":"4","last_reported":1784300641,"current_range_meters":38800,"station_id":"ce4bhph2rcd13ifvqhdg","pricing_plan_id":"cebpf4jnsgd1na2vs0mg"},{"bike_id":"3d9d15ce-5804-4209-b92a-723f598d0341","system_id":"levelo_inurba_marseille","lat":43.21199,"lon":5.35078,"is_reserved":false,"is_disabled":false,"rental_uris":{"android":"levelo://app?vid=3d9d15ce-5804-4209-b92a-723f598d0341","ios":"levelo://app?vid=3d9d15ce-5804-4209-b92a-723f598d0341"},"vehicle_type_id":"4","last_reported":1784300641,"current_range_meters":12000,"station_id":"st_cvj6sg6p6f1abm77japg","pricing_plan_id":"cebpf4jnsgd1na2vs0mg"},{"bike_id":"18843425-a616-49ad-91e7-f3c3734233c0","system_id":"levelo_inurba_marseille","lat":43.30939,"lon":5.4014,"is_reserved":false,"is_disabled":false,"rental_uris":{"android":"levelo://app?vid=18843425-a616-49ad-91e7-f3c3734233c0","ios":"levelo://app?vid=18843425-a616-49ad-91e7-f3c3734233c0"},"vehicle_type_id":"4","last_reported":1784300641,"current_range_meters":24400,"station_id":"ce4bgvp2rcd13ifvqct0","pricing_plan_id":"cebpf4jnsgd1na2vs0mg"},{"bike_id":"92f9377a-62ba-495b-8de9-1750140cdb94","system_id":"levelo_inurba_marseille","lat":43.29633,"lon":5.37176,"is_reserved":false,"is_disabled":true,"rental_uris":{"android":"levelo://app?vid=92f9377a-62ba-495b-8de9-1750140cdb94","ios":"levelo://app?vid=92f9377a-62ba-495b-8de9-1750140cdb94"},"vehicle_type_id":"4","last_reported":1784300641,"current_range_meters":8400,"station_id":"","pricing_plan_id":"cebpf4jnsgd1na2vs0mg"},{"bike_id":"e1bb6861-ee59-438c-aa2a-2a553b2d6f43","system_id":"levelo_inurba_marseille","lat":43.27182,"lon":5.40992,"is_reserved":false,"is_disabled":true,"rental_uris":{"android":"levelo://app?vid=e1bb6861-ee59-438c-aa2a-2a553b2d6f43","ios":"levelo://app?vid=e1bb6861-ee59-438c-aa2a-2a553b2d6f43"},"vehicle_type_id":"4","last_reported":1784300641,"current_range_meters":34000,"station_id":"ce4bhl12rcd13ifvqgf0","pricing_plan_id":"cebpf4jnsgd1na2vs0mg"},{"bike_id":"c2e7fe27-d2b0-440e-b62d-ead50feed951","system_id":"levelo_inurba_marseille","lat":43.29491,"lon":5.43308,"is_reserved":false,"is_disabled":false,"rental_uris":{"android":"levelo://app?vid=c2e7fe27-d2b0-440e-b62d-ead50feed951","ios":"levelo://app?vid=c2e7fe27-d2b0-440e-b62d-ead50feed951"},"vehicle_type_id":"4","last_reported":1784300641,"current_range_meters":11200,"station_id":"st_d3j5ugp08ojc73fj9d10","pricing_plan_id":"cebpf4jnsgd1na2vs0mg"},{"bike_id":"2623e023-e953-40ac-8068-15d2169ca99d","system_id":"levelo_inurba_marseille","lat":43.28703,"lon":5.46681,"is_reserved":false,"is_disabled":false,"rental_uris":{"android":"levelo://app?vid=2623e023-e953-40ac-8068-15d2169ca99d","ios":"levelo://app?vid=2623e023-e953-40ac-8068-15d2169ca99d"},"vehicle_type_id":"4","last_reported":1784300641,"current_range_meters":6000,"station_id":"st_d6tc3vkotcvc738tfjhg","pricing_plan_id":"cebpf4jnsgd1na2vs0mg"},{"bike_id":"92a89bcd-05b9-408a-b610-e4c8c58d3549","system_id":"levelo_inurba_marseille","lat":43.26675,"lon":5.38273,"is_reserved":false,"is_disabled":false,"rental_uris":{"android":"levelo://app?vid=92a89bcd-05b9-408a-b610-e4c8c58d3549","ios":"levelo://app?vid=92a89bcd-05b9-408a-b610-e4c8c58d3549"},"vehicle_type_id":"4","last_reported":1784300641,"current_range_meters":40000,"station_id":"ce4bhg92rcd13ifvqf90","pricing_plan_id":"cebpf4jnsgd1na2vs0mg"},{"bike_id":"31f3022f-8e36-4135-a086-71f7f74376f2","system_id":"levelo_inurba_marseille","lat":43.29663,"lon":5.37296,"is_reserved":false,"is_disabled":false,"rental_uris":{"android":"levelo://app?vid=31f3022f-8e36-4135-a086-71f7f74376f2","ios":"levelo://app?vid=31f3022f-8e36-4135-a086-71f7f74376f2"},"vehicle_type_id":"4","last_reported":1784300641,"current_range_meters":16800,"station_id":"ce4bgk12rcd13ifvqbj0","pricing_plan_id":"cebpf4jnsgd1na2vs0mg"},{"bike_id":"874fb211-7e6f-4e14-9365-0b76f8abf2f0","system_id":"levelo_inurba_marseille","lat":43.24169,"lon":5.36395,"is_reserved":false,"is_disabled":false,"rental_uris":{"android":"levelo://app?vid=874fb211-7e6f-4e14-9365-0b76f8abf2f0","ios":"levelo://app?vid=874fb211-7e6f-4e14-9365-0b76f8abf2f0"},"vehicle_type_id":"4","last_reported":1784300641,"current_range_meters":8400,"station_id":"cpo36qri1sfpv3e86is0","pricing_plan_id":"cebpf4jnsgd1na2vs0mg"},{"bike_id":"66ff6b42-b5a4-4688-bda2-cdbc1ca9c7be","system_id":"levelo_inurba_marseille","lat":43.3027,"lon":5.38165,"is_reserved":false,"is_disabled":false,"rental_uris":{"android":"levelo://app?vid=66ff6b42-b5a4-4688-bda2-cdbc1ca9c7be","ios":"levelo://app?vid=66ff6b42-b5a4-4688-bda2-cdbc1ca9c7be"},"vehicle_type_id":"4","last_reported":1784300641,"current_range_meters":19600,"station_id":"","pricing_plan_id":"cebpf4jnsgd1na2vs0mg"},{"bike_id":"530d5b81-1545-4b49-8624-2c00cc3d9834","system_id":"levelo_inurba_marseille","lat":43.25336,"lon":5.4217,"is_reserved":false,"is_disabled":false,"rental_uris":{"android":"levelo://app?vid=530d5b81-1545-4b49-8624-2c00cc3d9834","ios":"levelo://app?vid=530d5b81-1545-4b49-8624-2c00cc3d9834"},"vehicle_type_id":"4","last_reported":1784300641,"current_range_meters":16800,"station_id":"st_d2m65c5bi1j21697t3ng","pricing_plan_id":"cebpf4jnsgd1na2vs0mg"},{"bike_id":"863d0357-9100-4091-8be6-61d932e4e898","system_id":"levelo_inurba_marseille","lat":43.33736,"lon":5.37463,"is_reserved":false,"is_disabled":false,"rental_uris":{"android":"levelo://app?vid=863d0357-9100-4091-8be6-61d932e4e898","ios":"levelo://app?vid=863d0357-9100-4091-8be6-61d932e4e898"},"vehicle_type_id":"4","last_reported":1784300641,"current_range_meters":38800,"station_id":"","pricing_plan_id":"cebpf4jnsgd1na2vs0mg"},{"bike_id":"9d5ec48f-7fae-4865-9a1e-07159a6ca246","system_id":"levelo_inurba_marseille","lat":43.28007,"lon":5.38259,"is_reserved":false,"is_disabled":false,"rental_uris":{"android":"levelo://app?vid=9d5ec48f-7fae-4865-9a1e-07159a6ca246","ios":"levelo://app?vid=9d5ec48f-7fae-4865-9a1e-07159a6ca246"},"vehicle_type_id":"4","last_reported":1784300641,"current_range_meters":27200,"station_id":"","pricing_plan_id":"cebpf4jnsgd1na2vs0mg"},{"bike_id":"476582e1-be21-4bc4-8542-d86de0e420c6","system_id":"levelo_inurba_marseille","lat":43.24549,"lon":5.39517,"is_reserved":false,"is_disabled":false,"rental_uris":{"android":"levelo://app?vid=476582e1-be21-4bc4-8542-d86de0e420c6","ios":"levelo://app?vid=476582e1-be21-4bc4-8542-d86de0e420c6"},"vehicle_type_id":"4","last_reported":1784300641,"current_range_meters":39200,"station_id":"ce4bhlp2rcd13ifvqgjg","pricing_plan_id":"cebpf4jnsgd1na2vs0mg"},{"bike_id":"87982f0d-6988-4043-a941-42ff831cd8b3","system_id":"levelo_inurba_marseille","lat":43.28603,"lon":5.35117,"is_reserved":false,"is_disabled":false,"rental_uris":{"android":"levelo://app?vid=87982f0d-6988-4043-a941-42ff831cd8b3","ios":"levelo://app?vid=87982f0d-6988-4043-a941-42ff831cd8b3"},"vehicle_type_id":"4","last_reported":1784300641,"current_range_meters":39200,"station_id":"ce4bhch2rcd13ifvqeug","pricing_plan_id":"cebpf4jnsgd1na2vs0mg"},{"bike_id":"0df42189-73d4-41a0-9d70-596fd6d775ee","system_id":"levelo_inurba_marseille","lat":43.28189,"lon":5.42605,"is_reserved":false,"is_disabled":false,"rental_uris":{"android":"levelo://app?vid=0df42189-73d4-41a0-9d70-596fd6d775ee","ios":"levelo://app?vid=0df42189-73d4-41a0-9d70-596fd6d775ee"},"vehicle_type_id":"4","last_reported":1784300641,"current_range_meters":31200,"station_id":"ce4bhnh2rcd13ifvqgug","pricing_plan_id":"cebpf4jnsgd1na2vs0mg"},{"bike_id":"8ba7f2d6-52d3-4c56-b19a-19a142e62779","system_id":"levelo_inurba_marseille","lat":43.2408,"lon":5.37735,"is_reserved":false,"is_disabled":false,"rental_uris":{"android":"levelo://app?vid=8ba7f2d6-52d3-4c56-b19a-19a142e62779","ios":"levelo://app?vid=8ba7f2d6-52d3-4c56-b19a-19a142e62779"},"vehicle_type_id":"4","last_reported":1784300641,"current_range_meters":16800,"station_id":"ce4bhnp2rcd13ifvqgvg","pricing_plan_id":"cebpf4jnsgd1na2vs0mg"},{"bike_id":"3df7b3ee-3083-4a49-a1f1-8ec2f9d7ba3b","system_id":"levelo_inurba_marseille","lat":43.26063,"lon":5.39391,"is_reserved":false,"is_disabled":false,"rental_uris":{"android":"levelo://app?vid=3df7b3ee-3083-4a49-a1f1-8ec2f9d7ba3b","ios":"levelo://app?vid=3df7b3ee-3083-4a49-a1f1-8ec2f9d7ba3b"},"vehicle_type_id":"4","last_reported":1784300641,"current_range_meters":28400,"station_id":"ce4bhh92rcd13ifvqfj0","pricing_plan_id":"cebpf4jnsgd1na2vs0mg"},{"bike_id":"9dec8167-a7dd-4d56-ab06-15c751420023","system_id":"levelo_inurba_marseille","lat":43.28035,"lon":5.35039,"is_reserved":false,"is_disabled":false,"rental_uris":{"android":"levelo://app?vid=9dec8167-a7dd-4d56-ab06-15c751420023","ios":"levelo://app?vid=9dec8167-a7dd-4d56-ab06-15c751420023"},"vehicle_type_id":"4","last_reported":1784300641,"current_range_meters":36400,"station_id":"","pricing_plan_id":"cebpf4jnsgd1na2vs0mg"},{"bike_id":"053733ad-69ae-43ba-9759-fba9feff63cf","system_id":"levelo_inurba_marseille","lat":43.24392,"lon":5.37056,"is_reserved":false,"is_disabled":false,"rental_uris":{"android":"levelo://app?vid=053733ad-69ae-43ba-9759-fba9feff63cf","ios":"levelo://app?vid=053733ad-69ae-43ba-9759-fba9feff63cf"},"vehicle_type_id":"4","last_reported":1784300641,"current_range_meters":22000,"station_id":"ce4bhhh2rcd13ifvqfk0","pricing_plan_id":"cebpf4jnsgd1na2vs0mg"},{"bike_id":"3881a700-b2f5-47cf-af67-157f64684ce7","system_id":"levelo_inurba_marseille","lat":43.27247,"lon":5.38938,"is_reserved":false,"is_disabled":true,"rental_uris":{"android":"levelo://app?vid=3881a700-b2f5-47cf-af67-157f64684ce7","ios":"levelo://app?vid=3881a700-b2f5-47cf-af67-157f64684ce7"},"vehicle_type_id":"4","last_reported":1784300641,"current_range_meters":0,"station_id":"","pricing_plan_id":"cebpf4jnsgd1na2vs0mg"},{"bike_id":"e9700518-bfab-4e19-9c8e-e3cb6414cf72","system_id":"levelo_inurba_marseille","lat":43.2921,"lon":5.35785,"is_reserved":false,"is_disabled":true,"rental_uris":{"android":"levelo://app?vid=e9700518-bfab-4e19-9c8e-e3cb6414cf72","ios":"levelo://app?vid=e9700518-bfab-4e19-9c8e-e3cb6414cf72"},"vehicle_type_id":"4","last_reported":1784300641,"current_range_meters":11200,"station_id":"ce4bhb12rcd13ifvqel0","pricing_plan_id":"cebpf4jnsgd1na2vs0mg"},{"bike_id":"6e2fa25e-c4e4-473c-b5d3-3e0f51dcc142","system_id":"levelo_inurba_marseille","lat":43.29805,"lon":5.38101,"is_reserved":false,"is_disabled":true,"rental_uris":{"android":"levelo://app?vid=6e2fa25e-c4e4-473c-b5d3-3e0f51dcc142","ios":"levelo://app?vid=6e2fa25e-c4e4-473c-b5d3-3e0f51dcc142"},"vehicle_type_id":"4","last_reported":1784300641,"current_range_meters":36000,"station_id":"ce4bgip2rcd13ifvqbb0","pricing_plan_id":"cebpf4jnsgd1na2vs0mg"},{"bike_id":"e8372de4-55c4-4403-a00b-3f3fecde3bdf","system_id":"levelo_inurba_marseille","lat":43.28567,"lon":5.35124,"is_reserved":false,"is_disabled":false,"rental_uris":{"android":"levelo://app?vid=e8372de4-55c4-4403-a00b-3f3fecde3bdf","ios":"levelo://app?vid=e8372de4-55c4-4403-a00b-3f3fecde3bdf"},"vehicle_type_id":"4","last_reported":1784300641,"current_range_meters":38800,"station_id":"","pricing_plan_id":"cebpf4jnsgd1na2vs0mg"},{"bike_id":"40133888-0505-4ab7-bf98-89cc8c9f1fbd","system_id":"levelo_inurba_marseille","lat":43.31238,"lon":5.38144,"is_reserved":false,"is_disabled":false,"rental_uris":{"android":"levelo://app?vid=40133888-0505-4ab7-bf98-89cc8c9f1fbd","ios":"levelo://app?vid=40133888-0505-4ab7-bf98-89cc8c9f1fbd"},"vehicle_type_id":"4","last_reported":1784300641,"current_range_meters":17600,"station_id":"","pricing_plan_id":"cebpf4jnsgd1na2vs0mg"},{"bike_id":"21e71573-8bf0-4106-b8c8-1a9a53e8a6b4","system_id":"levelo_inurba_marseille","lat":43.28427,"lon":5.34987,"is_reserved":false,"is_disabled":false,"rental_uris":{"android":"levelo://app?vid=21e71573-8bf0-4106-b8c8-1a9a53e8a6b4","ios":"levelo://app?vid=21e71573-8bf0-4106-b8c8-1a9a53e8a6b4"},"vehicle_type_id":"4","last_reported":1784300641,"current_range_meters":24000,"station_id":"ce4bhbh2rcd13ifvqepg","pricing_plan_id":"cebpf4jnsgd1na2vs0mg"},{"bike_id":"ac34a9dc-1af6-4025-803c-4190baef2c5d","system_id":"levelo_inurba_marseille","lat":43.30153,"lon":5.38095,"is_reserved":false,"is_disabled":false,"rental_uris":{"android":"levelo://app?vid=ac34a9dc-1af6-4025-803c-4190baef2c5d","ios":"levelo://app?vid=ac34a9dc-1af6-4025-803c-4190baef2c5d"},"vehicle_type_id":"4","last_reported":1784300641,"current_range_meters":26800,"station_id":"ce4bgjp2rcd13ifvqbh0","pricing_plan_id":"cebpf4jnsgd1na2vs0mg"},{"bike_id":"34b4978e-492d-4d36-a2d7-7a18159a1fee","system_id":"levelo_inurba_marseille","lat":43.24665,"lon":5.38156,"is_reserved":false,"is_disabled":false,"rental_uris":{"android":"levelo://app?vid=34b4978e-492d-4d36-a2d7-7a18159a1fee","ios":"levelo://app?vid=34b4978e-492d-4d36-a2d7-7a18159a1fee"},"vehicle_type_id":"4","last_reported":1784300641,"current_range_meters":20400,"station_id":"ce4bhih2rcd13ifvqfr0","pricing_plan_id":"cebpf4jnsgd1na2vs0mg"},{"bike_id":"583175d7-0c17-4a47-b3d1-50fc3c4eab71","system_id":"levelo_inurba_marseille","lat":43.21183,"lon":5.35085,"is_reserved":false,"is_disabled":false,"rental_uris":{"android":"levelo://app?vid=583175d7-0c17-4a47-b3d1-50fc3c4eab71","ios":"levelo://app?vid=583175d7-0c17-4a47-b3d1-50fc3c4eab71"},"vehicle_type_id":"4","last_reported":1784300641,"current_range_meters":16000,"station_id":"st_cvj6sg6p6f1abm77japg","pricing_plan_id":"cebpf4jnsgd1na2vs0mg"},{"bike_id":"4c127758-d8a2-4e39-b263-1d9a63ee1e29","system_id":"levelo_inurba_marseille","lat":43.24051,"lon":5.37719,"is_reserved":false,"is_disabled":false,"rental_uris":{"android":"levelo://app?vid=4c127758-d8a2-4e39-b263-1d9a63ee1e29","ios":"levelo://app?vid=4c127758-d8a2-4e39-b263-1d9a63ee1e29"},"vehicle_type_id":"4","last_reported":1784300641,"current_range_meters":38800,"station_id":"ce4bhnp2rcd13ifvqgvg","pricing_plan_id":"cebpf4jnsgd1na2vs0mg"},{"bike_id":"abf1de75-2068-43db-80fb-2accd8d0738a","system_id":"levelo_inurba_marseille","lat":43.28715,"lon":5.37942,"is_reserved":false,"is_disabled":false,"rental_uris":{"android":"levelo://app?vid=abf1de75-2068-43db-80fb-2accd8d0738a","ios":"levelo://app?vid=abf1de75-2068-43db-80fb-2accd8d0738a"},"vehicle_type_id":"4","last_reported":1784300641,"current_range_meters":25600,"station_id":"ce4bh9p2rcd13ifvqec0","pricing_plan_id":"cebpf4jnsgd1na2vs0mg"},{"bike_id":"865639b8-b1fe-40cb-8f37-368b97d6caca","system_id":"levelo_inurba_marseille","lat":43.27993,"lon":5.40011,"is_reserved":false,"is_disabled":false,"rental_uris":{"android":"levelo://app?vid=865639b8-b1fe-40cb-8f37-368b97d6caca","ios":"levelo://app?vid=865639b8-b1fe-40cb-8f37-368b97d6caca"},"vehicle_type_id":"4","last_reported":1784300641,"current_range_meters":37600,"station_id":"ce4bho92rcd13ifvqh4g","pricing_plan_id":"cebpf4jnsgd1na2vs0mg"},{"bike_id":"e69687d6-fcf2-4df7-88fb-f89e17dd91d8","system_id":"levelo_inurba_marseille","lat":43.30878,"lon":5.37205,"is_reserved":false,"is_disabled":false,"rental_uris":{"android":"levelo://app?vid=e69687d6-fcf2-4df7-88fb-f89e17dd91d8","ios":"levelo://app?vid=e69687d6-fcf2-4df7-88fb-f89e17dd91d8"},"vehicle_type_id":"4","last_reported":1784300641,"current_range_meters":16000,"station_id":"ce4bguh2rcd13ifvqckg","pricing_plan_id":"cebpf4jnsgd1na2vs0mg"},{"bike_id":"28907abe-3c52-4bf0-bb4d-1b51c1fde577","system_id":"levelo_inurba_marseille","lat":43.21751,"lon":5.34631,"is_reserved":false,"is_disabled":false,"rental_uris":{"android":"levelo://app?vid=28907abe-3c52-4bf0-bb4d-1b51c1fde577","ios":"levelo://app?vid=28907abe-3c52-4bf0-bb4d-1b51c1fde577"},"vehicle_type_id":"4","last_reported":1784300641,"current_range_meters":28800,"station_id":"st_cvj6r9ubvosntc0bgbag","pricing_plan_id":"cebpf4jnsgd1na2vs0mg"},{"bike_id":"81587832-75ed-49cd-91c3-f57f9b8cec45","system_id":"levelo_inurba_marseille","lat":43.29028,"lon":5.35932,"is_reserved":false,"is_disabled":true,"rental_uris":{"android":"levelo://app?vid=81587832-75ed-49cd-91c3-f57f9b8cec45","ios":"levelo://app?vid=81587832-75ed-49cd-91c3-f57f9b8cec45"},"vehicle_type_id":"4","last_reported":1784300641,"current_range_meters":10800,"station_id":"ce4bha92rcd13ifvqeg0","pricing_plan_id":"cebpf4jnsgd1na2vs0mg"},{"bike_id":"df828084-afb0-441c-b9f4-53d157359196","system_id":"levelo_inurba_marseille","lat":43.28402,"lon":5.35007,"is_reserved":false,"is_disabled":false,"rental_uris":{"android":"levelo://app?vid=df828084-afb0-441c-b9f4-53d157359196","ios":"levelo://app?vid=df828084-afb0-441c-b9f4-53d157359196"},"vehicle_type_id":"4","last_reported":1784300641,"current_range_meters":32000,"station_id":"ce4bhbh2rcd13ifvqepg","pricing_plan_id":"cebpf4jnsgd1na2vs0mg"},{"bike_id":"8a2ed306-8405-4822-b70f-abc1f81e1070","system_id":"levelo_inurba_marseille","lat":43.24543,"lon":5.3952,"is_reserved":false,"is_disabled":false,"rental_uris":{"android":"levelo://app?vid=8a2ed306-8405-4822-b70f-abc1f81e1070","ios":"levelo://app?vid=8a2ed306-8405-4822-b70f-abc1f81e1070"},"vehicle_type_id":"4","last_reported":1784300641,"current_range_meters":25200,"station_id":"ce4bhlp2rcd13ifvqgjg","pricing_plan_id":"cebpf4jnsgd1na2vs0mg"},{"bike_id":"5135e02a-3058-46d2-97a9-0addc8d53752","system_id":"levelo_inurba_marseille","lat":43.31332,"lon":5.3674,"is_reserved":false,"is_disabled":false,"rental_uris":{"android":"levelo://app?vid=5135e02a-3058-46d2-97a9-0addc8d53752","ios":"levelo://app?vid=5135e02a-3058-46d2-97a9-0addc8d53752"},"vehicle_type_id":"4","last_reported":1784300641,"current_range_meters":32800,"station_id":"ce4bgr92rcd13ifvqc6g","pricing_plan_id":"cebpf4jnsgd1na2vs0mg"},{"bike_id":"0ece7e7a-e73f-44e8-983a-52e6770b490e","system_id":"levelo_inurba_marseille","lat":43.28354,"lon":5.38102,"is_reserved":false,"is_disabled":false,"rental_uris":{"android":"levelo://app?vid=0ece7e7a-e73f-44e8-983a-52e6770b490e","ios":"levelo://app?vid=0ece7e7a-e73f-44e8-983a-52e6770b490e"},"vehicle_type_id":"4","last_reported":1784300641,"current_range_meters":19200,"station_id":"ce4bh412rcd13ifvqdr0","pricing_plan_id":"cebpf4jnsgd1na2vs0mg"},{"bike_id":"5dc61c06-bebd-4da3-baac-3c58ca456e4c","system_id":"levelo_inurba_marseille","lat":43.25714,"lon":5.4112,"is_reserved":false,"is_disabled":false,"rental_uris":{"android":"levelo://app?vid=5dc61c06-bebd-4da3-baac-3c58ca456e4c","ios":"levelo://app?vid=5dc61c06-bebd-4da3-baac-3c58ca456e4c"},"vehicle_type_id":"4","last_reported":1784300641,"current_range_meters":15200,"station_id":"ce4bhkp2rcd13ifvqgd0","pricing_plan_id":"cebpf4jnsgd1na2vs0mg"},{"bike_id":"e363b584-92a2-4c61-adfd-371a2577000d","system_id":"levelo_inurba_marseille","lat":43.29906,"lon":5.43649,"is_reserved":false,"is_disabled":false,"rental_uris":{"android":"levelo://app?vid=e363b584-92a2-4c61-adfd-371a2577000d","ios":"levelo://app?vid=e363b584-92a2-4c61-adfd-371a2577000d"},"vehicle_type_id":"4","last_reported":1784300641,"current_range_meters":38800,"station_id":"ce4bhpp2rcd13ifvqhfg","pricing_plan_id":"cebpf4jnsgd1na2vs0mg"},{"bike_id":"06c8057b-fe44-4576-9188-4ed641cdff79","system_id":"levelo_inurba_marseille","lat":43.24661,"lon":5.38141,"is_reserved":false,"is_disabled":false,"rental_uris":{"android":"levelo://app?vid=06c8057b-fe44-4576-9188-4ed641cdff79","ios":"levelo://app?vid=06c8057b-fe44-4576-9188-4ed641cdff79"},"vehicle_type_id":"4","last_reported":1784300641,"current_range_meters":30000,"station_id":"ce4bhih2rcd13ifvqfr0","pricing_plan_id":"cebpf4jnsgd1na2vs0mg"},{"bike_id":"26adac01-a48b-4b11-ab5f-b41497993b97","system_id":"levelo_inurba_marseille","lat":43.25343,"lon":5.42168,"is_reserved":false,"is_disabled":false,"rental_uris":{"android":"levelo://app?vid=26adac01-a48b-4b11-ab5f-b41497993b97","ios":"levelo://app?vid=26adac01-a48b-4b11-ab5f-b41497993b97"},"vehicle_type_id":"4","last_reported":1784300641,"current_range_meters":8400,"station_id":"st_d2m65c5bi1j21697t3ng","pricing_plan_id":"cebpf4jnsgd1na2vs0mg"},{"bike_id":"2322d216-5245-4f2d-b498-05459a3de200","system_id":"levelo_inurba_marseille","lat":43.25492,"lon":5.3766,"is_reserved":false,"is_disabled":false,"rental_uris":{"android":"levelo://app?vid=2322d216-5245-4f2d-b498-05459a3de200","ios":"levelo://app?vid=2322d216-5245-4f2d-b498-05459a3de200"},"vehicle_type_id":"4","last_reported":1784300641,"current_range_meters":39200,"station_id":"ce4bhh12rcd13ifvqff0","pricing_plan_id":"cebpf4jnsgd1na2vs0mg"},{"bike_id":"7ff8118f-6c81-4cdf-8a1d-4753d954065d","system_id":"levelo_inurba_marseille","lat":43.29574,"lon":5.37977,"is_reserved":false,"is_disabled":false,"rental_uris":{"android":"levelo://app?vid=7ff8118f-6c81-4cdf-8a1d-4753d954065d","ios":"levelo://app?vid=7ff8118f-6c81-4cdf-8a1d-4753d954065d"},"vehicle_type_id":"4","last_reported":1784300641,"current_range_meters":9600,"station_id":"","pricing_plan_id":"cebpf4jnsgd1na2vs0mg"},{"bike_id":"c843a350-33b5-4b0c-8ef6-69f557e162e9","system_id":"levelo_inurba_marseille","lat":43.24978,"lon":5.3896,"is_reserved":false,"is_disabled":false,"rental_uris":{"android":"levelo://app?vid=c843a350-33b5-4b0c-8ef6-69f557e162e9","ios":"levelo://app?vid=c843a350-33b5-4b0c-8ef6-69f557e162e9"},"vehicle_type_id":"4","last_reported":1784300641,"current_range_meters":30800,"station_id":"ce4bhgp2rcd13ifvqfd0","pricing_plan_id":"cebpf4jnsgd1na2vs0mg"},{"bike_id":"982276d5-f90d-4316-b683-7974a669bb54","system_id":"levelo_inurba_marseille","lat":43.30467,"lon":5.37911,"is_reserved":false,"is_disabled":false,"rental_uris":{"android":"levelo://app?vid=982276d5-f90d-4316-b683-7974a669bb54","ios":"levelo://app?vid=982276d5-f90d-4316-b683-7974a669bb54"},"vehicle_type_id":"4","last_reported":1784300641,"current_range_meters":24400,"station_id":"ce4bgup2rcd13ifvqcn0","pricing_plan_id":"cebpf4jnsgd1na2vs0mg"},{"bike_id":"c8f178a8-b62f-4b4a-88c4-426ea928fae0","system_id":"levelo_inurba_marseille","lat":43.30529,"lon":5.36531,"is_reserved":false,"is_disabled":false,"rental_uris":{"android":"levelo://app?vid=c8f178a8-b62f-4b4a-88c4-426ea928fae0","ios":"levelo://app?vid=c8f178a8-b62f-4b4a-88c4-426ea928fae0"},"vehicle_type_id":"4","last_reported":1784300641,"current_range_meters":26000,"station_id":"ce4bgs12rcd13ifvqcag","pricing_plan_id":"cebpf4jnsgd1na2vs0mg"},{"bike_id":"9e406c9d-76f3-499a-80e9-c4f4fd08eec5","system_id":"levelo_inurba_marseille","lat":43.28647,"lon":5.35073,"is_reserved":false,"is_disabled":false,"rental_uris":{"android":"levelo://app?vid=9e406c9d-76f3-499a-80e9-c4f4fd08eec5","ios":"levelo://app?vid=9e406c9d-76f3-499a-80e9-c4f4fd08eec5"},"vehicle_type_id":"4","last_reported":1784300641,"current_range_meters":18000,"station_id":"ce4bhch2rcd13ifvqeug","pricing_plan_id":"cebpf4jnsgd1na2vs0mg"},{"bike_id":"1de5753c-f77d-4a34-b134-58bee8bc010c","system_id":"levelo_inurba_marseille","lat":43.26541,"lon":5.37297,"is_reserved":false,"is_disabled":true,"rental_uris":{"android":"levelo://app?vid=1de5753c-f77d-4a34-b134-58bee8bc010c","ios":"levelo://app?vid=1de5753c-f77d-4a34-b134-58bee8bc010c"},"vehicle_type_id":"4","last_reported":1784300641,"current_range_meters":24400,"station_id":"ce4bhg12rcd13ifvqf70","pricing_plan_id":"cebpf4jnsgd1na2vs0mg"},{"bike_id":"f82188f9-1aa6-46cd-bf15-d1f0aca1ec7a","system_id":"levelo_inurba_marseille","lat":43.31496,"lon":5.37285,"is_reserved":false,"is_disabled":false,"rental_uris":{"android":"levelo://app?vid=f82188f9-1aa6-46cd-bf15-d1f0aca1ec7a","ios":"levelo://app?vid=f82188f9-1aa6-46cd-bf15-d1f0aca1ec7a"},"vehicle_type_id":"4","last_reported":1784300641,"current_range_meters":39200,"station_id":"ce4bgt12rcd13ifvqcd0","pricing_plan_id":"cebpf4jnsgd1na2vs0mg"},{"bike_id":"8be2e633-a03f-4b78-840c-060869635527","system_id":"levelo_inurba_marseille","lat":43.28613,"lon":5.351,"is_reserved":false,"is_disabled":false,"rental_uris":{"android":"levelo://app?vid=8be2e633-a03f-4b78-840c-060869635527","ios":"levelo://app?vid=8be2e633-a03f-4b78-840c-060869635527"},"vehicle_type_id":"4","last_reported":1784300641,"current_range_meters":29600,"station_id":"ce4bhch2rcd13ifvqeug","pricing_plan_id":"cebpf4jnsgd1na2vs0mg"},{"bike_id":"70b4266b-6f2a-4bb7-934f-a2a2bf37b44f","system_id":"levelo_inurba_marseille","lat":43.2512,"lon":5.40323,"is_reserved":false,"is_disabled":true,"rental_uris":{"android":"levelo://app?vid=70b4266b-6f2a-4bb7-934f-a2a2bf37b44f","ios":"levelo://app?vid=70b4266b-6f2a-4bb7-934f-a2a2bf37b44f"},"vehicle_type_id":"4","last_reported":1784300641,"current_range_meters":0,"station_id":"ce4bhlh2rcd13ifvqgig","pricing_plan_id":"cebpf4jnsgd1na2vs0mg"},{"bike_id":"5366d360-d7dc-4e04-831f-62f49098b2c0","system_id":"levelo_inurba_marseille","lat":43.26217,"lon":5.39345,"is_reserved":false,"is_disabled":false,"rental_uris":{"android":"levelo://app?vid=5366d360-d7dc-4e04-831f-62f49098b2c0","ios":"levelo://app?vid=5366d360-d7dc-4e04-831f-62f49098b2c0"},"vehicle_type_id":"4","last_reported":1784300641,"current_range_meters":38000,"station_id":"","pricing_plan_id":"cebpf4jnsgd1na2vs0mg"},{"bike_id":"ba1031fe-940a-4977-baac-8cb8365e1fca","system_id":"levelo_inurba_marseille","lat":43.31368,"lon":5.36708,"is_reserved":false,"is_disabled":false,"rental_uris":{"android":"levelo://app?vid=ba1031fe-940a-4977-baac-8cb8365e1fca","ios":"levelo://app?vid=ba1031fe-940a-4977-baac-8cb8365e1fca"},"vehicle_type_id":"4","last_reported":1784300641,"current_range_meters":32800,"station_id":"ce4bgr92rcd13ifvqc6g","pricing_plan_id":"cebpf4jnsgd1na2vs0mg"},{"bike_id":"17ef7521-be57-48c8-a115-ded8df7df309","system_id":"levelo_inurba_marseille","lat":43.26179,"lon":5.37459,"is_reserved":false,"is_disabled":false,"rental_uris":{"android":"levelo://app?vid=17ef7521-be57-48c8-a115-ded8df7df309","ios":"levelo://app?vid=17ef7521-be57-48c8-a115-ded8df7df309"},"vehicle_type_id":"4","last_reported":1784300641,"current_range_meters":38400,"station_id":"ce4bhgp2rcd13ifvqfc0","pricing_plan_id":"cebpf4jnsgd1na2vs0mg"},{"bike_id":"0f6ff1da-c9e3-42e7-a8d3-8280d1c0addc","system_id":"levelo_inurba_marseille","lat":43.33738,"lon":5.3748,"is_reserved":false,"is_disabled":false,"rental_uris":{"android":"levelo://app?vid=0f6ff1da-c9e3-42e7-a8d3-8280d1c0addc","ios":"levelo://app?vid=0f6ff1da-c9e3-42e7-a8d3-8280d1c0addc"},"vehicle_type_id":"4","last_reported":1784300641,"current_range_meters":32400,"station_id":"","pricing_plan_id":"cebpf4jnsgd1na2vs0mg"},{"bike_id":"dba95777-cb14-4e1b-8f71-08f792d0dd48","system_id":"levelo_inurba_marseille","lat":43.336043,"lon":5.410481,"is_reserved":false,"is_disabled":false,"rental_uris":{"android":"levelo://app?vid=dba95777-cb14-4e1b-8f71-08f792d0dd48","ios":"levelo://app?vid=dba95777-cb14-4e1b-8f71-08f792d0dd48"},"vehicle_type_id":"4","last_reported":1784300641,"current_range_meters":38800,"station_id":"ce4bhqh2rcd13ifvqhmg","pricing_plan_id":"cebpf4jnsgd1na2vs0mg"},{"bike_id":"93254e88-2dff-4f80-a2d3-ec3f4c869efd","system_id":"levelo_inurba_marseille","lat":43.26565,"lon":5.40324,"is_reserved":false,"is_disabled":false,"rental_uris":{"android":"levelo://app?vid=93254e88-2dff-4f80-a2d3-ec3f4c869efd","ios":"levelo://app?vid=93254e88-2dff-4f80-a2d3-ec3f4c869efd"},"vehicle_type_id":"4","last_reported":1784300641,"current_range_meters":38400,"station_id":"ce4bhmp2rcd13ifvqgng","pricing_plan_id":"cebpf4jnsgd1na2vs0mg"},{"bike_id":"587221b8-2866-465b-962a-264c26ce4ed0","system_id":"levelo_inurba_marseille","lat":43.2873,"lon":5.37921,"is_reserved":false,"is_disabled":false,"rental_uris":{"android":"levelo://app?vid=587221b8-2866-465b-962a-264c26ce4ed0","ios":"levelo://app?vid=587221b8-2866-465b-962a-264c26ce4ed0"},"vehicle_type_id":"4","last_reported":1784300641,"current_range_meters":38800,"station_id":"ce4bh9p2rcd13ifvqec0","pricing_plan_id":"cebpf4jnsgd1na2vs0mg"},{"bike_id":"832a74fa-6640-4f4e-a94c-86b76477eb6c","system_id":"levelo_inurba_marseille","lat":43.29274,"lon":5.36846,"is_reserved":false,"is_disabled":false,"rental_uris":{"android":"levelo://app?vid=832a74fa-6640-4f4e-a94c-86b76477eb6c","ios":"levelo://app?vid=832a74fa-6640-4f4e-a94c-86b76477eb6c"},"vehicle_type_id":"4","last_reported":1784300641,"current_range_meters":16000,"station_id":"","pricing_plan_id":"cebpf4jnsgd1na2vs0mg"},{"bike_id":"e1a284f9-5e4e-407c-a907-36602c41246a","system_id":"levelo_inurba_marseille","lat":43.2418,"lon":5.39725,"is_reserved":false,"is_disabled":false,"rental_uris":{"android":"levelo://app?vid=e1a284f9-5e4e-407c-a907-36602c41246a","ios":"levelo://app?vid=e1a284f9-5e4e-407c-a907-36602c41246a"},"vehicle_type_id":"4","last_reported":1784300641,"current_range_meters":39200,"station_id":"ce4bhn12rcd13ifvqgpg","pricing_plan_id":"cebpf4jnsgd1na2vs0mg"},{"bike_id":"6eeebffa-a103-4bd0-938a-8e8411918217","system_id":"levelo_inurba_marseille","lat":43.28615,"lon":5.35098,"is_reserved":false,"is_disabled":false,"rental_uris":{"android":"levelo://app?vid=6eeebffa-a103-4bd0-938a-8e8411918217","ios":"levelo://app?vid=6eeebffa-a103-4bd0-938a-8e8411918217"},"vehicle_type_id":"4","last_reported":1784300641,"current_range_meters":17600,"station_id":"ce4bhch2rcd13ifvqeug","pricing_plan_id":"cebpf4jnsgd1na2vs0mg"},{"bike_id":"7bf3dcfc-2b44-44ff-a400-942a232aa5e7","system_id":"levelo_inurba_marseille","lat":43.29746,"lon":5.36565,"is_reserved":false,"is_disabled":false,"rental_uris":{"android":"levelo://app?vid=7bf3dcfc-2b44-44ff-a400-942a232aa5e7","ios":"levelo://app?vid=7bf3dcfc-2b44-44ff-a400-942a232aa5e7"},"vehicle_type_id":"4","last_reported":1784300641,"current_range_meters":10800,"station_id":"","pricing_plan_id":"cebpf4jnsgd1na2vs0mg"},{"bike_id":"6e4a50c4-2a43-4791-b5d5-1559fc5901d4","system_id":"levelo_inurba_marseille","lat":43.28941,"lon":5.36644,"is_reserved":false,"is_disabled":false,"rental_uris":{"android":"levelo://app?vid=6e4a50c4-2a43-4791-b5d5-1559fc5901d4","ios":"levelo://app?vid=6e4a50c4-2a43-4791-b5d5-1559fc5901d4"},"vehicle_type_id":"4","last_reported":1784300641,"current_range_meters":30000,"station_id":"ce4bhap2rcd13ifvqek0","pricing_plan_id":"cebpf4jnsgd1na2vs0mg"},{"bike_id":"942148f9-90f2-4171-8f05-98ba0ca85bcb","system_id":"levelo_inurba_marseille","lat":43.28482,"lon":5.48398,"is_reserved":false,"is_disabled":true,"rental_uris":{"android":"levelo://app?vid=942148f9-90f2-4171-8f05-98ba0ca85bcb","ios":"levelo://app?vid=942148f9-90f2-4171-8f05-98ba0ca85bcb"},"vehicle_type_id":"4","last_reported":1784300641,"current_range_meters":9200,"station_id":"st_d3svhcjqgbts73a3dn0g","pricing_plan_id":"cebpf4jnsgd1na2vs0mg"},{"bike_id":"b2b194ed-86a5-4dc8-b828-5b80e1681197","system_id":"levelo_inurba_marseille","lat":43.28522,"lon":5.44117,"is_reserved":false,"is_disabled":false,"rental_uris":{"android":"levelo://app?vid=b2b194ed-86a5-4dc8-b828-5b80e1681197","ios":"levelo://app?vid=b2b194ed-86a5-4dc8-b828-5b80e1681197"},"vehicle_type_id":"4","last_reported":1784300641,"current_range_meters":40000,"station_id":"st_d3j3df2ikq2c7380ej80","pricing_plan_id":"cebpf4jnsgd1na2vs0mg"},{"bike_id":"22af084b-faec-475a-a5ed-b6fa98023e28","system_id":"levelo_inurba_marseille","lat":43.28285,"lon":5.35045,"is_reserved":false,"is_disabled":false,"rental_uris":{"android":"levelo://app?vid=22af084b-faec-475a-a5ed-b6fa98023e28","ios":"levelo://app?vid=22af084b-faec-475a-a5ed-b6fa98023e28"},"vehicle_type_id":"4","last_reported":1784300641,"current_range_meters":24400,"station_id":"ce4bhbp2rcd13ifvqerg","pricing_plan_id":"cebpf4jnsgd1na2vs0mg"},{"bike_id":"2a93def1-9840-4751-b465-b53bb0ce6123","system_id":"levelo_inurba_marseille","lat":43.2256,"lon":5.41634,"is_reserved":false,"is_disabled":false,"rental_uris":{"android":"levelo://app?vid=2a93def1-9840-4751-b465-b53bb0ce6123","ios":"levelo://app?vid=2a93def1-9840-4751-b465-b53bb0ce6123"},"vehicle_type_id":"4","last_reported":1784300641,"current_range_meters":16800,"station_id":"st_d2o4gvlbi1j2169b742g","pricing_plan_id":"cebpf4jnsgd1na2vs0mg"},{"bike_id":"c5300617-66e6-4074-9160-d6283c101daf","system_id":"levelo_inurba_marseille","lat":43.28165,"lon":5.42644,"is_reserved":false,"is_disabled":false,"rental_uris":{"android":"levelo://app?vid=c5300617-66e6-4074-9160-d6283c101daf","ios":"levelo://app?vid=c5300617-66e6-4074-9160-d6283c101daf"},"vehicle_type_id":"4","last_reported":1784300641,"current_range_meters":35600,"station_id":"ce4bhnh2rcd13ifvqgug","pricing_plan_id":"cebpf4jnsgd1na2vs0mg"},{"bike_id":"7a32abe7-d0b1-4090-8b04-7cd6207dcbbd","system_id":"levelo_inurba_marseille","lat":43.28423,"lon":5.34983,"is_reserved":false,"is_disabled":false,"rental_uris":{"android":"levelo://app?vid=7a32abe7-d0b1-4090-8b04-7cd6207dcbbd","ios":"levelo://app?vid=7a32abe7-d0b1-4090-8b04-7cd6207dcbbd"},"vehicle_type_id":"4","last_reported":1784300641,"current_range_meters":34800,"station_id":"ce4bhbh2rcd13ifvqepg","pricing_plan_id":"cebpf4jnsgd1na2vs0mg"},{"bike_id":"83741070-3a1f-46c3-b431-07eff2814aa4","system_id":"levelo_inurba_marseille","lat":43.27443,"lon":5.36095,"is_reserved":false,"is_disabled":true,"rental_uris":{"android":"levelo://app?vid=83741070-3a1f-46c3-b431-07eff2814aa4","ios":"levelo://app?vid=83741070-3a1f-46c3-b431-07eff2814aa4"},"vehicle_type_id":"4","last_reported":1784300641,"current_range_meters":0,"station_id":"","pricing_plan_id":"cebpf4jnsgd1na2vs0mg"},{"bike_id":"e97d923d-d560-461e-94e7-6b746b3d8d92","system_id":"levelo_inurba_marseille","lat":43.32114,"lon":5.36773,"is_reserved":false,"is_disabled":false,"rental_uris":{"android":"levelo://app?vid=e97d923d-d560-461e-94e7-6b746b3d8d92","ios":"levelo://app?vid=e97d923d-d560-461e-94e7-6b746b3d8d92"},"vehicle_type_id":"4","last_reported":1784300641,"current_range_meters":28800,"station_id":"ce4bhrh2rcd13ifvqhug","pricing_plan_id":"cebpf4jnsgd1na2vs0mg"},{"bike_id":"ed742eca-6f01-42aa-8690-c704a6c8088f","system_id":"levelo_inurba_marseille","lat":43.30888,"lon":5.37195,"is_reserved":false,"is_disabled":false,"rental_uris":{"android":"levelo://app?vid=ed742eca-6f01-42aa-8690-c704a6c8088f","ios":"levelo://app?vid=ed742eca-6f01-42aa-8690-c704a6c8088f"},"vehicle_type_id":"4","last_reported":1784300641,"current_range_meters":38000,"station_id":"ce4bguh2rcd13ifvqckg","pricing_plan_id":"cebpf4jnsgd1na2vs0mg"},{"bike_id":"651171ef-5155-4ea7-a09a-94eb326dae6a","system_id":"levelo_inurba_marseille","lat":43.27502,"lon":5.41579,"is_reserved":false,"is_disabled":false,"rental_uris":{"android":"levelo://app?vid=651171ef-5155-4ea7-a09a-94eb326dae6a","ios":"levelo://app?vid=651171ef-5155-4ea7-a09a-94eb326dae6a"},"vehicle_type_id":"4","last_reported":1784300641,"current_range_meters":24000,"station_id":"st_d6im8g6chgec73a5pndg","pricing_plan_id":"cebpf4jnsgd1na2vs0mg"},{"bike_id":"246f78a2-abe6-4912-8290-5f58c0fb2a61","system_id":"levelo_inurba_marseille","lat":43.28703,"lon":5.35227,"is_reserved":false,"is_disabled":false,"rental_uris":{"android":"levelo://app?vid=246f78a2-abe6-4912-8290-5f58c0fb2a61","ios":"levelo://app?vid=246f78a2-abe6-4912-8290-5f58c0fb2a61"},"vehicle_type_id":"4","last_reported":1784300641,"current_range_meters":23200,"station_id":"","pricing_plan_id":"cebpf4jnsgd1na2vs0mg"},{"bike_id":"1fa0fa4b-cff2-4dee-9dae-d7dec1739b50","system_id":"levelo_inurba_marseille","lat":43.27382,"lon":5.36256,"is_reserved":false,"is_disabled":false,"rental_uris":{"android":"levelo://app?vid=1fa0fa4b-cff2-4dee-9dae-d7dec1739b50","ios":"levelo://app?vid=1fa0fa4b-cff2-4dee-9dae-d7dec1739b50"},"vehicle_type_id":"4","last_reported":1784300641,"current_range_meters":12800,"station_id":"ce4bhbh2rcd13ifvqeo0","pricing_plan_id":"cebpf4jnsgd1na2vs0mg"},{"bike_id":"5dcd30ca-cf51-4a1d-b79a-c73dfa10ebc1","system_id":"levelo_inurba_marseille","lat":43.21748,"lon":5.34596,"is_reserved":false,"is_disabled":false,"rental_uris":{"android":"levelo://app?vid=5dcd30ca-cf51-4a1d-b79a-c73dfa10ebc1","ios":"levelo://app?vid=5dcd30ca-cf51-4a1d-b79a-c73dfa10ebc1"},"vehicle_type_id":"4","last_reported":1784300641,"current_range_meters":14400,"station_id":"st_cvj6r9ubvosntc0bgbag","pricing_plan_id":"cebpf4jnsgd1na2vs0mg"},{"bike_id":"b5306203-c67d-425d-bcd1-9b3c52e4bccc","system_id":"levelo_inurba_marseille","lat":43.23967,"lon":5.36638,"is_reserved":false,"is_disabled":false,"rental_uris":{"android":"levelo://app?vid=b5306203-c67d-425d-bcd1-9b3c52e4bccc","ios":"levelo://app?vid=b5306203-c67d-425d-bcd1-9b3c52e4bccc"},"vehicle_type_id":"4","last_reported":1784300641,"current_range_meters":22000,"station_id":"ce4bhi12rcd13ifvqfp0","pricing_plan_id":"cebpf4jnsgd1na2vs0mg"},{"bike_id":"57889d2e-37dd-4f8f-b3ab-1bc0a62b2215","system_id":"levelo_inurba_marseille","lat":43.30453,"lon":5.37892,"is_reserved":false,"is_disabled":true,"rental_uris":{"android":"levelo://app?vid=57889d2e-37dd-4f8f-b3ab-1bc0a62b2215","ios":"levelo://app?vid=57889d2e-37dd-4f8f-b3ab-1bc0a62b2215"},"vehicle_type_id":"4","last_reported":1784300641,"current_range_meters":26000,"station_id":"ce4bgup2rcd13ifvqcn0","pricing_plan_id":"cebpf4jnsgd1na2vs0mg"},{"bike_id":"a67ca460-27a4-4587-ba8d-1bf8825cad4a","system_id":"levelo_inurba_marseille","lat":43.27687,"lon":5.38892,"is_reserved":false,"is_disabled":false,"rental_uris":{"android":"levelo://app?vid=a67ca460-27a4-4587-ba8d-1bf8825cad4a","ios":"levelo://app?vid=a67ca460-27a4-4587-ba8d-1bf8825cad4a"},"vehicle_type_id":"4","last_reported":1784300641,"current_range_meters":39200,"station_id":"ce4bhi12rcd13ifvqfo0","pricing_plan_id":"cebpf4jnsgd1na2vs0mg"},{"bike_id":"8946fedd-2e32-49ed-b51d-8d2209da3742","system_id":"levelo_inurba_marseille","lat":43.29435,"lon":5.38115,"is_reserved":false,"is_disabled":false,"rental_uris":{"android":"levelo://app?vid=8946fedd-2e32-49ed-b51d-8d2209da3742","ios":"levelo://app?vid=8946fedd-2e32-49ed-b51d-8d2209da3742"},"vehicle_type_id":"4","last_reported":1784300641,"current_range_meters":8400,"station_id":"","pricing_plan_id":"cebpf4jnsgd1na2vs0mg"},{"bike_id":"3d9a8080-2988-48fe-8d39-1f546ee97ce1","system_id":"levelo_inurba_marseille","lat":43.2827,"lon":5.35078,"is_reserved":false,"is_disabled":false,"rental_uris":{"android":"levelo://app?vid=3d9a8080-2988-48fe-8d39-1f546ee97ce1","ios":"levelo://app?vid=3d9a8080-2988-48fe-8d39-1f546ee97ce1"},"vehicle_type_id":"4","last_reported":1784300641,"current_range_meters":7200,"station_id":"ce4bhbp2rcd13ifvqerg","pricing_plan_id":"cebpf4jnsgd1na2vs0mg"},{"bike_id":"51905566-557d-413c-97fd-b84daf11e827","system_id":"levelo_inurba_marseille","lat":43.27929,"lon":5.39554,"is_reserved":false,"is_disabled":true,"rental_uris":{"android":"levelo://app?vid=51905566-557d-413c-97fd-b84daf11e827","ios":"levelo://app?vid=51905566-557d-413c-97fd-b84daf11e827"},"vehicle_type_id":"4","last_reported":1784300641,"current_range_meters":29600,"station_id":"ce4bhf92rcd13ifvqf40","pricing_plan_id":"cebpf4jnsgd1na2vs0mg"},{"bike_id":"1fd3872c-1cbb-4e5b-97bc-1f5e2bf1ca78","system_id":"levelo_inurba_marseille","lat":43.231527,"lon":5.437046,"is_reserved":false,"is_disabled":false,"rental_uris":{"android":"levelo://app?vid=1fd3872c-1cbb-4e5b-97bc-1f5e2bf1ca78","ios":"levelo://app?vid=1fd3872c-1cbb-4e5b-97bc-1f5e2bf1ca78"},"vehicle_type_id":"4","last_reported":1784300641,"current_range_meters":35600,"station_id":"ce4bhmp2rcd13ifvqgog","pricing_plan_id":"cebpf4jnsgd1na2vs0mg"},{"bike_id":"04f79851-52e6-4303-9105-2ba3a3dca261","system_id":"levelo_inurba_marseille","lat":43.24381,"lon":5.37053,"is_reserved":false,"is_disabled":false,"rental_uris":{"android":"levelo://app?vid=04f79851-52e6-4303-9105-2ba3a3dca261","ios":"levelo://app?vid=04f79851-52e6-4303-9105-2ba3a3dca261"},"vehicle_type_id":"4","last_reported":1784300641,"current_range_meters":39200,"station_id":"ce4bhhh2rcd13ifvqfk0","pricing_plan_id":"cebpf4jnsgd1na2vs0mg"},{"bike_id":"78b472ae-7ca1-438d-a65f-f93d06645001","system_id":"levelo_inurba_marseille","lat":43.29213,"lon":5.36036,"is_reserved":false,"is_disabled":true,"rental_uris":{"android":"levelo://app?vid=78b472ae-7ca1-438d-a65f-f93d06645001","ios":"levelo://app?vid=78b472ae-7ca1-438d-a65f-f93d06645001"},"vehicle_type_id":"4","last_reported":1784300641,"current_range_meters":6400,"station_id":"","pricing_plan_id":"cebpf4jnsgd1na2vs0mg"},{"bike_id":"aea11bbc-2d6f-4be0-b121-dbc2d33dd165","system_id":"levelo_inurba_marseille","lat":43.32067,"lon":5.41558,"is_reserved":false,"is_disabled":false,"rental_uris":{"android":"levelo://app?vid=aea11bbc-2d6f-4be0-b121-dbc2d33dd165","ios":"levelo://app?vid=aea11bbc-2d6f-4be0-b121-dbc2d33dd165"},"vehicle_type_id":"4","last_reported":1784300641,"current_range_meters":38800,"station_id":"ce4bhq92rcd13ifvqhkg","pricing_plan_id":"cebpf4jnsgd1na2vs0mg"},{"bike_id":"b4946daf-69c3-40cd-9846-e8dc3a52f4e3","system_id":"levelo_inurba_marseille","lat":43.28469,"lon":5.34985,"is_reserved":false,"is_disabled":false,"rental_uris":{"android":"levelo://app?vid=b4946daf-69c3-40cd-9846-e8dc3a52f4e3","ios":"levelo://app?vid=b4946daf-69c3-40cd-9846-e8dc3a52f4e3"},"vehicle_type_id":"4","last_reported":1784300641,"current_range_meters":36800,"station_id":"","pricing_plan_id":"cebpf4jnsgd1na2vs0mg"},{"bike_id":"a561a24b-0b16-4267-a437-ca4e67d963a3","system_id":"levelo_inurba_marseille","lat":43.28414,"lon":5.34977,"is_reserved":false,"is_disabled":false,"rental_uris":{"android":"levelo://app?vid=a561a24b-0b16-4267-a437-ca4e67d963a3","ios":"levelo://app?vid=a561a24b-0b16-4267-a437-ca4e67d963a3"},"vehicle_type_id":"4","last_reported":1784300641,"current_range_meters":26000,"station_id":"ce4bhbh2rcd13ifvqepg","pricing_plan_id":"cebpf4jnsgd1na2vs0mg"},{"bike_id":"7d5bb61e-ddd3-484c-ba54-94a8acce9b75","system_id":"levelo_inurba_marseille","lat":43.28959,"lon":5.36382,"is_reserved":false,"is_disabled":false,"rental_uris":{"android":"levelo://app?vid=7d5bb61e-ddd3-484c-ba54-94a8acce9b75","ios":"levelo://app?vid=7d5bb61e-ddd3-484c-ba54-94a8acce9b75"},"vehicle_type_id":"4","last_reported":1784300641,"current_range_meters":4000,"station_id":"ce4bhc92rcd13ifvqetg","pricing_plan_id":"cebpf4jnsgd1na2vs0mg"},{"bike_id":"a0c10f89-1477-4281-9d54-1f83c920a25b","system_id":"levelo_inurba_marseille","lat":43.290079,"lon":5.356137,"is_reserved":false,"is_disabled":true,"rental_uris":{"android":"levelo://app?vid=a0c10f89-1477-4281-9d54-1f83c920a25b","ios":"levelo://app?vid=a0c10f89-1477-4281-9d54-1f83c920a25b"},"vehicle_type_id":"4","last_reported":1784300641,"current_range_meters":400,"station_id":"ce4bhb92rcd13ifvqen0","pricing_plan_id":"cebpf4jnsgd1na2vs0mg"},{"bike_id":"ebeb86f7-4534-4bb1-aa48-061858d8a660","system_id":"levelo_inurba_marseille","lat":43.25947,"lon":5.4092,"is_reserved":false,"is_disabled":false,"rental_uris":{"android":"levelo://app?vid=ebeb86f7-4534-4bb1-aa48-061858d8a660","ios":"levelo://app?vid=ebeb86f7-4534-4bb1-aa48-061858d8a660"},"vehicle_type_id":"4","last_reported":1784300641,"current_range_meters":14800,"station_id":"ce4bhm92rcd13ifvqglg","pricing_plan_id":"cebpf4jnsgd1na2vs0mg"},{"bike_id":"809e3f57-0949-430b-8e12-626b14ecfa08","system_id":"levelo_inurba_marseille","lat":43.26776,"lon":5.39442,"is_reserved":false,"is_disabled":false,"rental_uris":{"android":"levelo://app?vid=809e3f57-0949-430b-8e12-626b14ecfa08","ios":"levelo://app?vid=809e3f57-0949-430b-8e12-626b14ecfa08"},"vehicle_type_id":"4","last_reported":1784300641,"current_range_meters":17600,"station_id":"ce4bhh12rcd13ifvqfg0","pricing_plan_id":"cebpf4jnsgd1na2vs0mg"},{"bike_id":"cbf57bb6-373a-442c-9860-92cf9215a1bb","system_id":"levelo_inurba_marseille","lat":43.30558,"lon":5.36535,"is_reserved":false,"is_disabled":true,"rental_uris":{"android":"levelo://app?vid=cbf57bb6-373a-442c-9860-92cf9215a1bb","ios":"levelo://app?vid=cbf57bb6-373a-442c-9860-92cf9215a1bb"},"vehicle_type_id":"4","last_reported":1784300641,"current_range_meters":28000,"station_id":"ce4bgs12rcd13ifvqcag","pricing_plan_id":"cebpf4jnsgd1na2vs0mg"},{"bike_id":"f7517ec0-4d9f-4694-8867-75262bb49b5b","system_id":"levelo_inurba_marseille","lat":43.26212,"lon":5.37449,"is_reserved":false,"is_disabled":true,"rental_uris":{"android":"levelo://app?vid=f7517ec0-4d9f-4694-8867-75262bb49b5b","ios":"levelo://app?vid=f7517ec0-4d9f-4694-8867-75262bb49b5b"},"vehicle_type_id":"4","last_reported":1784300641,"current_range_meters":0,"station_id":"ce4bhgp2rcd13ifvqfc0","pricing_plan_id":"cebpf4jnsgd1na2vs0mg"},{"bike_id":"ca553299-8d31-49bd-a6b4-332c888225b5","system_id":"levelo_inurba_marseille","lat":43.2573,"lon":5.41094,"is_reserved":false,"is_disabled":false,"rental_uris":{"android":"levelo://app?vid=ca553299-8d31-49bd-a6b4-332c888225b5","ios":"levelo://app?vid=ca553299-8d31-49bd-a6b4-332c888225b5"},"vehicle_type_id":"4","last_reported":1784300641,"current_range_meters":34000,"station_id":"ce4bhkp2rcd13ifvqgd0","pricing_plan_id":"cebpf4jnsgd1na2vs0mg"},{"bike_id":"e8b2132e-2e2f-4678-bd27-ce3f9f11f158","system_id":"levelo_inurba_marseille","lat":43.30464,"lon":5.37884,"is_reserved":false,"is_disabled":true,"rental_uris":{"android":"levelo://app?vid=e8b2132e-2e2f-4678-bd27-ce3f9f11f158","ios":"levelo://app?vid=e8b2132e-2e2f-4678-bd27-ce3f9f11f158"},"vehicle_type_id":"4","last_reported":1784300641,"current_range_meters":19200,"station_id":"ce4bgup2rcd13ifvqcn0","pricing_plan_id":"cebpf4jnsgd1na2vs0mg"},{"bike_id":"17f00b12-f8d0-413a-b992-98dadbd11261","system_id":"levelo_inurba_marseille","lat":43.25,"lon":5.38915,"is_reserved":false,"is_disabled":false,"rental_uris":{"android":"levelo://app?vid=17f00b12-f8d0-413a-b992-98dadbd11261","ios":"levelo://app?vid=17f00b12-f8d0-413a-b992-98dadbd11261"},"vehicle_type_id":"4","last_reported":1784300641,"current_range_meters":35200,"station_id":"ce4bhgp2rcd13ifvqfd0","pricing_plan_id":"cebpf4jnsgd1na2vs0mg"},{"bike_id":"87fddd0f-45f0-4bef-b28b-ddeb238fae59","system_id":"levelo_inurba_marseille","lat":43.28617,"lon":5.35095,"is_reserved":false,"is_disabled":false,"rental_uris":{"android":"levelo://app?vid=87fddd0f-45f0-4bef-b28b-ddeb238fae59","ios":"levelo://app?vid=87fddd0f-45f0-4bef-b28b-ddeb238fae59"},"vehicle_type_id":"4","last_reported":1784300641,"current_range_meters":8400,"station_id":"ce4bhch2rcd13ifvqeug","pricing_plan_id":"cebpf4jnsgd1na2vs0mg"},{"bike_id":"f96974ba-e6ad-4805-b9fc-bca3bdc6359f","system_id":"levelo_inurba_marseille","lat":43.24395,"lon":5.3704,"is_reserved":false,"is_disabled":false,"rental_uris":{"android":"levelo://app?vid=f96974ba-e6ad-4805-b9fc-bca3bdc6359f","ios":"levelo://app?vid=f96974ba-e6ad-4805-b9fc-bca3bdc6359f"},"vehicle_type_id":"4","last_reported":1784300641,"current_range_meters":25600,"station_id":"ce4bhhh2rcd13ifvqfk0","pricing_plan_id":"cebpf4jnsgd1na2vs0mg"},{"bike_id":"4f54c651-15d1-492f-8d09-70f1f809ad4f","system_id":"levelo_inurba_marseille","lat":43.27484,"lon":5.42556,"is_reserved":false,"is_disabled":false,"rental_uris":{"android":"levelo://app?vid=4f54c651-15d1-492f-8d09-70f1f809ad4f","ios":"levelo://app?vid=4f54c651-15d1-492f-8d09-70f1f809ad4f"},"vehicle_type_id":"4","last_reported":1784300641,"current_range_meters":28800,"station_id":"st_d8t4bh7nbrqs73arha60","pricing_plan_id":"cebpf4jnsgd1na2vs0mg"},{"bike_id":"e1102441-6b3f-49e5-87d2-8b10eca1a676","system_id":"levelo_inurba_marseille","lat":43.26207,"lon":5.37444,"is_reserved":false,"is_disabled":false,"rental_uris":{"android":"levelo://app?vid=e1102441-6b3f-49e5-87d2-8b10eca1a676","ios":"levelo://app?vid=e1102441-6b3f-49e5-87d2-8b10eca1a676"},"vehicle_type_id":"4","last_reported":1784300641,"current_range_meters":26800,"station_id":"ce4bhgp2rcd13ifvqfc0","pricing_plan_id":"cebpf4jnsgd1na2vs0mg"},{"bike_id":"4c3bc6ab-4050-437f-88fc-b705e8310160","system_id":"levelo_inurba_marseille","lat":43.31288,"lon":5.36826,"is_reserved":false,"is_disabled":false,"rental_uris":{"android":"levelo://app?vid=4c3bc6ab-4050-437f-88fc-b705e8310160","ios":"levelo://app?vid=4c3bc6ab-4050-437f-88fc-b705e8310160"},"vehicle_type_id":"4","last_reported":1784300641,"current_range_meters":34800,"station_id":"","pricing_plan_id":"cebpf4jnsgd1na2vs0mg"},{"bike_id":"c1324c9c-25ff-4be4-83c6-dc541ed3ad18","system_id":"levelo_inurba_marseille","lat":43.28415,"lon":5.3501,"is_reserved":false,"is_disabled":false,"rental_uris":{"android":"levelo://app?vid=c1324c9c-25ff-4be4-83c6-dc541ed3ad18","ios":"levelo://app?vid=c1324c9c-25ff-4be4-83c6-dc541ed3ad18"},"vehicle_type_id":"4","last_reported":1784300641,"current_range_meters":25600,"station_id":"ce4bhbh2rcd13ifvqepg","pricing_plan_id":"cebpf4jnsgd1na2vs0mg"},{"bike_id":"82f87679-5337-4398-ac3c-3e9b1f5f0dfb","system_id":"levelo_inurba_marseille","lat":43.27672,"lon":5.38878,"is_reserved":false,"is_disabled":false,"rental_uris":{"android":"levelo://app?vid=82f87679-5337-4398-ac3c-3e9b1f5f0dfb","ios":"levelo://app?vid=82f87679-5337-4398-ac3c-3e9b1f5f0dfb"},"vehicle_type_id":"4","last_reported":1784300641,"current_range_meters":20000,"station_id":"ce4bhi12rcd13ifvqfo0","pricing_plan_id":"cebpf4jnsgd1na2vs0mg"},{"bike_id":"e35b3037-ccf2-48a7-b6f2-14a77143bba4","system_id":"levelo_inurba_marseille","lat":43.32356,"lon":5.36743,"is_reserved":false,"is_disabled":false,"rental_uris":{"android":"levelo://app?vid=e35b3037-ccf2-48a7-b6f2-14a77143bba4","ios":"levelo://app?vid=e35b3037-ccf2-48a7-b6f2-14a77143bba4"},"vehicle_type_id":"4","last_reported":1784300641,"current_range_meters":34000,"station_id":"ce4bhsh2rcd13ifvqi2g","pricing_plan_id":"cebpf4jnsgd1na2vs0mg"},{"bike_id":"0cc9064c-9e67-4dd7-b11e-84260d626c23","system_id":"levelo_inurba_marseille","lat":43.29918,"lon":5.38131,"is_reserved":false,"is_disabled":true,"rental_uris":{"android":"levelo://app?vid=0cc9064c-9e67-4dd7-b11e-84260d626c23","ios":"levelo://app?vid=0cc9064c-9e67-4dd7-b11e-84260d626c23"},"vehicle_type_id":"4","last_reported":1784300641,"current_range_meters":33600,"station_id":"ce4bgj12rcd13ifvqbc0","pricing_plan_id":"cebpf4jnsgd1na2vs0mg"},{"bike_id":"27e47b1c-c6c8-4c7a-9057-a30a031a40ae","system_id":"levelo_inurba_marseille","lat":43.28419,"lon":5.34988,"is_reserved":false,"is_disabled":true,"rental_uris":{"android":"levelo://app?vid=27e47b1c-c6c8-4c7a-9057-a30a031a40ae","ios":"levelo://app?vid=27e47b1c-c6c8-4c7a-9057-a30a031a40ae"},"vehicle_type_id":"4","last_reported":1784300641,"current_range_meters":30800,"station_id":"ce4bhbh2rcd13ifvqepg","pricing_plan_id":"cebpf4jnsgd1na2vs0mg"},{"bike_id":"7a42978c-e1f0-4cac-a7eb-046de05ccaea","system_id":"levelo_inurba_marseille","lat":43.31225,"lon":5.36861,"is_reserved":false,"is_disabled":false,"rental_uris":{"android":"levelo://app?vid=7a42978c-e1f0-4cac-a7eb-046de05ccaea","ios":"levelo://app?vid=7a42978c-e1f0-4cac-a7eb-046de05ccaea"},"vehicle_type_id":"4","last_reported":1784300641,"current_range_meters":35200,"station_id":"ce4bgl92rcd13ifvqbq0","pricing_plan_id":"cebpf4jnsgd1na2vs0mg"},{"bike_id":"fdc37cb7-c1cb-43ee-960e-e9764c5b3a2c","system_id":"levelo_inurba_marseille","lat":43.27617,"lon":5.36102,"is_reserved":false,"is_disabled":false,"rental_uris":{"android":"levelo://app?vid=fdc37cb7-c1cb-43ee-960e-e9764c5b3a2c","ios":"levelo://app?vid=fdc37cb7-c1cb-43ee-960e-e9764c5b3a2c"},"vehicle_type_id":"4","last_reported":1784300641,"current_range_meters":39200,"station_id":"ce4bgj92rcd13ifvqbe0","pricing_plan_id":"cebpf4jnsgd1na2vs0mg"},{"bike_id":"6416a616-45b3-42a7-abc2-c1cb8eb1a30f","system_id":"levelo_inurba_marseille","lat":43.27572,"lon":5.3841,"is_reserved":false,"is_disabled":false,"rental_uris":{"android":"levelo://app?vid=6416a616-45b3-42a7-abc2-c1cb8eb1a30f","ios":"levelo://app?vid=6416a616-45b3-42a7-abc2-c1cb8eb1a30f"},"vehicle_type_id":"4","last_reported":1784300641,"current_range_meters":21600,"station_id":"ce4bhh92rcd13ifvqfi0","pricing_plan_id":"cebpf4jnsgd1na2vs0mg"},{"bike_id":"366820f2-084f-4e6b-ba43-b1f63c9a2f11","system_id":"levelo_inurba_marseille","lat":43.28672,"lon":5.36337,"is_reserved":false,"is_disabled":false,"rental_uris":{"android":"levelo://app?vid=366820f2-084f-4e6b-ba43-b1f63c9a2f11","ios":"levelo://app?vid=366820f2-084f-4e6b-ba43-b1f63c9a2f11"},"vehicle_type_id":"4","last_reported":1784300641,"current_range_meters":27200,"station_id":"ce4bhah2rcd13ifvqej0","pricing_plan_id":"cebpf4jnsgd1na2vs0mg"},{"bike_id":"d45333fb-8568-4470-852b-a80a11353993","system_id":"levelo_inurba_marseille","lat":43.25579,"lon":5.38224,"is_reserved":false,"is_disabled":false,"rental_uris":{"android":"levelo://app?vid=d45333fb-8568-4470-852b-a80a11353993","ios":"levelo://app?vid=d45333fb-8568-4470-852b-a80a11353993"},"vehicle_type_id":"4","last_reported":1784300641,"current_range_meters":20400,"station_id":"ce4bhih2rcd13ifvqfs0","pricing_plan_id":"cebpf4jnsgd1na2vs0mg"},{"bike_id":"15e91d9b-9fe2-4547-b08c-8a6125244996","system_id":"levelo_inurba_marseille","lat":43.28394,"lon":5.35,"is_reserved":false,"is_disabled":false,"rental_uris":{"android":"levelo://app?vid=15e91d9b-9fe2-4547-b08c-8a6125244996","ios":"levelo://app?vid=15e91d9b-9fe2-4547-b08c-8a6125244996"},"vehicle_type_id":"4","last_reported":1784300641,"current_range_meters":10800,"station_id":"ce4bhbh2rcd13ifvqepg","pricing_plan_id":"cebpf4jnsgd1na2vs0mg"},{"bike_id":"202f9ad0-42a8-41b4-9ba7-c7ec0280e620","system_id":"levelo_inurba_marseille","lat":43.23194,"lon":5.35566,"is_reserved":false,"is_disabled":false,"rental_uris":{"android":"levelo://app?vid=202f9ad0-42a8-41b4-9ba7-c7ec0280e620","ios":"levelo://app?vid=202f9ad0-42a8-41b4-9ba7-c7ec0280e620"},"vehicle_type_id":"4","last_reported":1784300641,"current_range_meters":38000,"station_id":"ce4bhu92rcd13ifvqi70","pricing_plan_id":"cebpf4jnsgd1na2vs0mg"},{"bike_id":"86c7fa09-6e7f-4076-842b-892bbc12df0a","system_id":"levelo_inurba_marseille","lat":43.28268,"lon":5.3506,"is_reserved":false,"is_disabled":false,"rental_uris":{"android":"levelo://app?vid=86c7fa09-6e7f-4076-842b-892bbc12df0a","ios":"levelo://app?vid=86c7fa09-6e7f-4076-842b-892bbc12df0a"},"vehicle_type_id":"4","last_reported":1784300641,"current_range_meters":11600,"station_id":"ce4bhbp2rcd13ifvqerg","pricing_plan_id":"cebpf4jnsgd1na2vs0mg"},{"bike_id":"f3955824-bc9b-40e3-bb4b-91c4e41aa833","system_id":"levelo_inurba_marseille","lat":43.3015,"lon":5.37404,"is_reserved":false,"is_disabled":true,"rental_uris":{"android":"levelo://app?vid=f3955824-bc9b-40e3-bb4b-91c4e41aa833","ios":"levelo://app?vid=f3955824-bc9b-40e3-bb4b-91c4e41aa833"},"vehicle_type_id":"4","last_reported":1784300641,"current_range_meters":16000,"station_id":"ce4bgs92rcd13ifvqcc0","pricing_plan_id":"cebpf4jnsgd1na2vs0mg"},{"bike_id":"d9090869-005c-4769-8ff6-b9b02c295e4e","system_id":"levelo_inurba_marseille","lat":43.251086,"lon":5.376545,"is_reserved":false,"is_disabled":true,"rental_uris":{"android":"levelo://app?vid=d9090869-005c-4769-8ff6-b9b02c295e4e","ios":"levelo://app?vid=d9090869-005c-4769-8ff6-b9b02c295e4e"},"vehicle_type_id":"4","last_reported":1784300641,"current_range_meters":0,"station_id":"","pricing_plan_id":"cebpf4jnsgd1na2vs0mg"},{"bike_id":"3643a1ba-42ba-4575-90e4-1534abbb3274","system_id":"levelo_inurba_marseille","lat":43.30885,"lon":5.37189,"is_reserved":false,"is_disabled":false,"rental_uris":{"android":"levelo://app?vid=3643a1ba-42ba-4575-90e4-1534abbb3274","ios":"levelo://app?vid=3643a1ba-42ba-4575-90e4-1534abbb3274"},"vehicle_type_id":"4","last_reported":1784300641,"current_range_meters":36400,"station_id":"ce4bguh2rcd13ifvqckg","pricing_plan_id":"cebpf4jnsgd1na2vs0mg"},{"bike_id":"553fb599-9d9c-42b5-ab18-96881079f4d4","system_id":"levelo_inurba_marseille","lat":43.27379,"lon":5.36257,"is_reserved":false,"is_disabled":false,"rental_uris":{"android":"levelo://app?vid=553fb599-9d9c-42b5-ab18-96881079f4d4","ios":"levelo://app?vid=553fb599-9d9c-42b5-ab18-96881079f4d4"},"vehicle_type_id":"4","last_reported":1784300641,"current_range_meters":31200,"station_id":"ce4bhbh2rcd13ifvqeo0","pricing_plan_id":"cebpf4jnsgd1na2vs0mg"},{"bike_id":"0d3e100f-48fe-47e1-bef7-0a1dcfcc4955","system_id":"levelo_inurba_marseille","lat":43.33696,"lon":5.39177,"is_reserved":false,"is_disabled":false,"rental_uris":{"android":"levelo://app?vid=0d3e100f-48fe-47e1-bef7-0a1dcfcc4955","ios":"levelo://app?vid=0d3e100f-48fe-47e1-bef7-0a1dcfcc4955"},"vehicle_type_id":"4","last_reported":1784300641,"current_range_meters":30000,"station_id":"ce4bhr92rcd13ifvqhsg","pricing_plan_id":"cebpf4jnsgd1na2vs0mg"},{"bike_id":"b07cebe1-02cf-49d5-9b5f-1e70b9612c52","system_id":"levelo_inurba_marseille","lat":43.28861,"lon":5.42516,"is_reserved":false,"is_disabled":false,"rental_uris":{"android":"levelo://app?vid=b07cebe1-02cf-49d5-9b5f-1e70b9612c52","ios":"levelo://app?vid=b07cebe1-02cf-49d5-9b5f-1e70b9612c52"},"vehicle_type_id":"4","last_reported":1784300641,"current_range_meters":11600,"station_id":"st_d3b462108ojc7389ooeg","pricing_plan_id":"cebpf4jnsgd1na2vs0mg"},{"bike_id":"ddbfbc6e-9ea5-4164-b0a2-7cc31ec7c025","system_id":"levelo_inurba_marseille","lat":43.32111,"lon":5.36784,"is_reserved":false,"is_disabled":false,"rental_uris":{"android":"levelo://app?vid=ddbfbc6e-9ea5-4164-b0a2-7cc31ec7c025","ios":"levelo://app?vid=ddbfbc6e-9ea5-4164-b0a2-7cc31ec7c025"},"vehicle_type_id":"4","last_reported":1784300641,"current_range_meters":18000,"station_id":"ce4bhrh2rcd13ifvqhug","pricing_plan_id":"cebpf4jnsgd1na2vs0mg"},{"bike_id":"a2bc6424-8ef1-4dd7-96d0-56e7a6c0df45","system_id":"levelo_inurba_marseille","lat":43.292,"lon":5.35806,"is_reserved":false,"is_disabled":false,"rental_uris":{"android":"levelo://app?vid=a2bc6424-8ef1-4dd7-96d0-56e7a6c0df45","ios":"levelo://app?vid=a2bc6424-8ef1-4dd7-96d0-56e7a6c0df45"},"vehicle_type_id":"4","last_reported":1784300641,"current_range_meters":20800,"station_id":"ce4bhb12rcd13ifvqel0","pricing_plan_id":"cebpf4jnsgd1na2vs0mg"},{"bike_id":"b31f3439-8d64-49dd-9c96-ebe0e325aa03","system_id":"levelo_inurba_marseille","lat":43.30546,"lon":5.36555,"is_reserved":false,"is_disabled":false,"rental_uris":{"android":"levelo://app?vid=b31f3439-8d64-49dd-9c96-ebe0e325aa03","ios":"levelo://app?vid=b31f3439-8d64-49dd-9c96-ebe0e325aa03"},"vehicle_type_id":"4","last_reported":1784300641,"current_range_meters":7200,"station_id":"ce4bgs12rcd13ifvqcag","pricing_plan_id":"cebpf4jnsgd1na2vs0mg"},{"bike_id":"82023b68-46df-41b5-9d8b-ec4c67021220","system_id":"levelo_inurba_marseille","lat":43.30248,"lon":5.4003,"is_reserved":false,"is_disabled":true,"rental_uris":{"android":"levelo://app?vid=82023b68-46df-41b5-9d8b-ec4c67021220","ios":"levelo://app?vid=82023b68-46df-41b5-9d8b-ec4c67021220"},"vehicle_type_id":"4","last_reported":1784300641,"current_range_meters":35600,"station_id":"ce4bgvh2rcd13ifvqcs0","pricing_plan_id":"cebpf4jnsgd1na2vs0mg"},{"bike_id":"ed52919d-93b3-4291-a04f-8f6270205c6e","system_id":"levelo_inurba_marseille","lat":43.23965,"lon":5.36631,"is_reserved":false,"is_disabled":false,"rental_uris":{"android":"levelo://app?vid=ed52919d-93b3-4291-a04f-8f6270205c6e","ios":"levelo://app?vid=ed52919d-93b3-4291-a04f-8f6270205c6e"},"vehicle_type_id":"4","last_reported":1784300641,"current_range_meters":13600,"station_id":"ce4bhi12rcd13ifvqfp0","pricing_plan_id":"cebpf4jnsgd1na2vs0mg"},{"bike_id":"9add7d9b-214a-40dc-a324-5a0e81d35b67","system_id":"levelo_inurba_marseille","lat":43.26585,"lon":5.40322,"is_reserved":false,"is_disabled":true,"rental_uris":{"android":"levelo://app?vid=9add7d9b-214a-40dc-a324-5a0e81d35b67","ios":"levelo://app?vid=9add7d9b-214a-40dc-a324-5a0e81d35b67"},"vehicle_type_id":"4","last_reported":1784300641,"current_range_meters":17200,"station_id":"ce4bhmp2rcd13ifvqgng","pricing_plan_id":"cebpf4jnsgd1na2vs0mg"},{"bike_id":"6ee73e46-4924-4e22-b765-feccd10ba2e7","system_id":"levelo_inurba_marseille","lat":43.24645,"lon":5.38891,"is_reserved":false,"is_disabled":false,"rental_uris":{"android":"levelo://app?vid=6ee73e46-4924-4e22-b765-feccd10ba2e7","ios":"levelo://app?vid=6ee73e46-4924-4e22-b765-feccd10ba2e7"},"vehicle_type_id":"4","last_reported":1784300641,"current_range_meters":8800,"station_id":"ce4bhg12rcd13ifvqf60","pricing_plan_id":"cebpf4jnsgd1na2vs0mg"},{"bike_id":"e35a471f-4162-47db-b945-02d55802c4cc","system_id":"levelo_inurba_marseille","lat":43.28534,"lon":5.44103,"is_reserved":false,"is_disabled":false,"rental_uris":{"android":"levelo://app?vid=e35a471f-4162-47db-b945-02d55802c4cc","ios":"levelo://app?vid=e35a471f-4162-47db-b945-02d55802c4cc"},"vehicle_type_id":"4","last_reported":1784300641,"current_range_meters":38400,"station_id":"st_d3j3df2ikq2c7380ej80","pricing_plan_id":"cebpf4jnsgd1na2vs0mg"},{"bike_id":"e72fd034-a50f-48b7-b96e-38194201e27c","system_id":"levelo_inurba_marseille","lat":43.28944,"lon":5.36627,"is_reserved":false,"is_disabled":false,"rental_uris":{"android":"levelo://app?vid=e72fd034-a50f-48b7-b96e-38194201e27c","ios":"levelo://app?vid=e72fd034-a50f-48b7-b96e-38194201e27c"},"vehicle_type_id":"4","last_reported":1784300641,"current_range_meters":3200,"station_id":"ce4bhap2rcd13ifvqek0","pricing_plan_id":"cebpf4jnsgd1na2vs0mg"},{"bike_id":"19b0b2f8-4abf-4b95-87ff-e85edb44e6c4","system_id":"levelo_inurba_marseille","lat":43.2734,"lon":5.39087,"is_reserved":false,"is_disabled":false,"rental_uris":{"android":"levelo://app?vid=19b0b2f8-4abf-4b95-87ff-e85edb44e6c4","ios":"levelo://app?vid=19b0b2f8-4abf-4b95-87ff-e85edb44e6c4"},"vehicle_type_id":"4","last_reported":1784300641,"current_range_meters":36400,"station_id":"ce4bhgp2rcd13ifvqfe0","pricing_plan_id":"cebpf4jnsgd1na2vs0mg"},{"bike_id":"44a2d414-1ac1-4189-b47c-dc4459103bc9","system_id":"levelo_inurba_marseille","lat":43.33749,"lon":5.37442,"is_reserved":false,"is_disabled":false,"rental_uris":{"android":"levelo://app?vid=44a2d414-1ac1-4189-b47c-dc4459103bc9","ios":"levelo://app?vid=44a2d414-1ac1-4189-b47c-dc4459103bc9"},"vehicle_type_id":"4","last_reported":1784300641,"current_range_meters":36400,"station_id":"","pricing_plan_id":"cebpf4jnsgd1na2vs0mg"},{"bike_id":"b92582d7-69d4-493e-a0fe-c4cf66ff53e1","system_id":"levelo_inurba_marseille","lat":43.24391,"lon":5.37042,"is_reserved":false,"is_disabled":false,"rental_uris":{"android":"levelo://app?vid=b92582d7-69d4-493e-a0fe-c4cf66ff53e1","ios":"levelo://app?vid=b92582d7-69d4-493e-a0fe-c4cf66ff53e1"},"vehicle_type_id":"4","last_reported":1784300641,"current_range_meters":38800,"station_id":"ce4bhhh2rcd13ifvqfk0","pricing_plan_id":"cebpf4jnsgd1na2vs0mg"},{"bike_id":"5934dfff-666b-4536-966e-3a9ad6955bb0","system_id":"levelo_inurba_marseille","lat":43.29237,"lon":5.39988,"is_reserved":false,"is_disabled":false,"rental_uris":{"android":"levelo://app?vid=5934dfff-666b-4536-966e-3a9ad6955bb0","ios":"levelo://app?vid=5934dfff-666b-4536-966e-3a9ad6955bb0"},"vehicle_type_id":"4","last_reported":1784300641,"current_range_meters":8400,"station_id":"","pricing_plan_id":"cebpf4jnsgd1na2vs0mg"},{"bike_id":"aa899d6f-0408-4a23-8d3b-ffb1059b430c","system_id":"levelo_inurba_marseille","lat":43.2396,"lon":5.36626,"is_reserved":false,"is_disabled":false,"rental_uris":{"android":"levelo://app?vid=aa899d6f-0408-4a23-8d3b-ffb1059b430c","ios":"levelo://app?vid=aa899d6f-0408-4a23-8d3b-ffb1059b430c"},"vehicle_type_id":"4","last_reported":1784300641,"current_range_meters":11600,"station_id":"ce4bhi12rcd13ifvqfp0","pricing_plan_id":"cebpf4jnsgd1na2vs0mg"},{"bike_id":"9dcfdf96-578b-46e7-b429-1767b2ea8f00","system_id":"levelo_inurba_marseille","lat":43.24673,"lon":5.38136,"is_reserved":false,"is_disabled":false,"rental_uris":{"android":"levelo://app?vid=9dcfdf96-578b-46e7-b429-1767b2ea8f00","ios":"levelo://app?vid=9dcfdf96-578b-46e7-b429-1767b2ea8f00"},"vehicle_type_id":"4","last_reported":1784300641,"current_range_meters":39200,"station_id":"ce4bhih2rcd13ifvqfr0","pricing_plan_id":"cebpf4jnsgd1na2vs0mg"},{"bike_id":"dc4c93a3-6501-4490-84f2-6b360c441e0b","system_id":"levelo_inurba_marseille","lat":43.29194,"lon":5.35781,"is_reserved":false,"is_disabled":false,"rental_uris":{"android":"levelo://app?vid=dc4c93a3-6501-4490-84f2-6b360c441e0b","ios":"levelo://app?vid=dc4c93a3-6501-4490-84f2-6b360c441e0b"},"vehicle_type_id":"4","last_reported":1784300641,"current_range_meters":28000,"station_id":"ce4bhb12rcd13ifvqel0","pricing_plan_id":"cebpf4jnsgd1na2vs0mg"},{"bike_id":"a625e661-6359-4602-9a3f-6f05611ed1f0","system_id":"levelo_inurba_marseille","lat":43.24817,"lon":5.37442,"is_reserved":false,"is_disabled":false,"rental_uris":{"android":"levelo://app?vid=a625e661-6359-4602-9a3f-6f05611ed1f0","ios":"levelo://app?vid=a625e661-6359-4602-9a3f-6f05611ed1f0"},"vehicle_type_id":"4","last_reported":1784300641,"current_range_meters":38400,"station_id":"ce4bhgh2rcd13ifvqfb0","pricing_plan_id":"cebpf4jnsgd1na2vs0mg"},{"bike_id":"7604574c-06cb-407e-9e16-b7858411e1bc","system_id":"levelo_inurba_marseille","lat":43.278148,"lon":5.407259,"is_reserved":false,"is_disabled":true,"rental_uris":{"android":"levelo://app?vid=7604574c-06cb-407e-9e16-b7858411e1bc","ios":"levelo://app?vid=7604574c-06cb-407e-9e16-b7858411e1bc"},"vehicle_type_id":"4","last_reported":1784300641,"current_range_meters":21600,"station_id":"ce4bhnh2rcd13ifvqgtg","pricing_plan_id":"cebpf4jnsgd1na2vs0mg"},{"bike_id":"600d3649-4b6d-473c-a715-d27921e00684","system_id":"levelo_inurba_marseille","lat":43.23191,"lon":5.35543,"is_reserved":false,"is_disabled":false,"rental_uris":{"android":"levelo://app?vid=600d3649-4b6d-473c-a715-d27921e00684","ios":"levelo://app?vid=600d3649-4b6d-473c-a715-d27921e00684"},"vehicle_type_id":"4","last_reported":1784300641,"current_range_meters":25200,"station_id":"ce4bhu92rcd13ifvqi70","pricing_plan_id":"cebpf4jnsgd1na2vs0mg"},{"bike_id":"352a99c8-a3bc-4fc7-8b10-2bb88aef4758","system_id":"levelo_inurba_marseille","lat":43.254993,"lon":5.376487,"is_reserved":false,"is_disabled":false,"rental_uris":{"android":"levelo://app?vid=352a99c8-a3bc-4fc7-8b10-2bb88aef4758","ios":"levelo://app?vid=352a99c8-a3bc-4fc7-8b10-2bb88aef4758"},"vehicle_type_id":"4","last_reported":1784300641,"current_range_meters":29600,"station_id":"ce4bhh12rcd13ifvqff0","pricing_plan_id":"cebpf4jnsgd1na2vs0mg"},{"bike_id":"61f91879-6716-4daa-b1d6-e53cb45051b5","system_id":"levelo_inurba_marseille","lat":43.27372,"lon":5.3625,"is_reserved":false,"is_disabled":false,"rental_uris":{"android":"levelo://app?vid=61f91879-6716-4daa-b1d6-e53cb45051b5","ios":"levelo://app?vid=61f91879-6716-4daa-b1d6-e53cb45051b5"},"vehicle_type_id":"4","last_reported":1784300641,"current_range_meters":38800,"station_id":"ce4bhbh2rcd13ifvqeo0","pricing_plan_id":"cebpf4jnsgd1na2vs0mg"},{"bike_id":"d1210815-3b6f-46d9-8562-5a9f90c2f696","system_id":"levelo_inurba_marseille","lat":43.29211,"lon":5.35795,"is_reserved":false,"is_disabled":true,"rental_uris":{"android":"levelo://app?vid=d1210815-3b6f-46d9-8562-5a9f90c2f696","ios":"levelo://app?vid=d1210815-3b6f-46d9-8562-5a9f90c2f696"},"vehicle_type_id":"4","last_reported":1784300641,"current_range_meters":10000,"station_id":"ce4bhb12rcd13ifvqel0","pricing_plan_id":"cebpf4jnsgd1na2vs0mg"},{"bike_id":"13e10cff-300f-47f7-be54-f61c4654fa80","system_id":"levelo_inurba_marseille","lat":43.27212,"lon":5.39172,"is_reserved":false,"is_disabled":false,"rental_uris":{"android":"levelo://app?vid=13e10cff-300f-47f7-be54-f61c4654fa80","ios":"levelo://app?vid=13e10cff-300f-47f7-be54-f61c4654fa80"},"vehicle_type_id":"4","last_reported":1784300641,"current_range_meters":4800,"station_id":"ce4bhhp2rcd13ifvqfm0","pricing_plan_id":"cebpf4jnsgd1na2vs0mg"},{"bike_id":"5dbb8e1b-cf12-4bdf-9b52-d9d2406d0321","system_id":"levelo_inurba_marseille","lat":43.2826,"lon":5.35067,"is_reserved":false,"is_disabled":false,"rental_uris":{"android":"levelo://app?vid=5dbb8e1b-cf12-4bdf-9b52-d9d2406d0321","ios":"levelo://app?vid=5dbb8e1b-cf12-4bdf-9b52-d9d2406d0321"},"vehicle_type_id":"4","last_reported":1784300641,"current_range_meters":17200,"station_id":"ce4bhbp2rcd13ifvqerg","pricing_plan_id":"cebpf4jnsgd1na2vs0mg"},{"bike_id":"d3c31ba3-220d-46b9-8e65-a48a289c1759","system_id":"levelo_inurba_marseille","lat":43.28416,"lon":5.34977,"is_reserved":false,"is_disabled":false,"rental_uris":{"android":"levelo://app?vid=d3c31ba3-220d-46b9-8e65-a48a289c1759","ios":"levelo://app?vid=d3c31ba3-220d-46b9-8e65-a48a289c1759"},"vehicle_type_id":"4","last_reported":1784300641,"current_range_meters":26000,"station_id":"ce4bhbh2rcd13ifvqepg","pricing_plan_id":"cebpf4jnsgd1na2vs0mg"},{"bike_id":"08ece367-f2bf-4bfe-ad49-8f2ead69141b","system_id":"levelo_inurba_marseille","lat":43.27373,"lon":5.36245,"is_reserved":false,"is_disabled":false,"rental_uris":{"android":"levelo://app?vid=08ece367-f2bf-4bfe-ad49-8f2ead69141b","ios":"levelo://app?vid=08ece367-f2bf-4bfe-ad49-8f2ead69141b"},"vehicle_type_id":"4","last_reported":1784300641,"current_range_meters":32400,"station_id":"ce4bhbh2rcd13ifvqeo0","pricing_plan_id":"cebpf4jnsgd1na2vs0mg"},{"bike_id":"4f68d89f-2860-4fe4-aeef-ae7316f7c98e","system_id":"levelo_inurba_marseille","lat":43.28937,"lon":5.42768,"is_reserved":false,"is_disabled":false,"rental_uris":{"android":"levelo://app?vid=4f68d89f-2860-4fe4-aeef-ae7316f7c98e","ios":"levelo://app?vid=4f68d89f-2860-4fe4-aeef-ae7316f7c98e"},"vehicle_type_id":"4","last_reported":1784300641,"current_range_meters":25200,"station_id":"","pricing_plan_id":"cebpf4jnsgd1na2vs0mg"},{"bike_id":"4d5733c9-65e8-4600-9483-b0744b46f49b","system_id":"levelo_inurba_marseille","lat":43.28241,"lon":5.35102,"is_reserved":false,"is_disabled":false,"rental_uris":{"android":"levelo://app?vid=4d5733c9-65e8-4600-9483-b0744b46f49b","ios":"levelo://app?vid=4d5733c9-65e8-4600-9483-b0744b46f49b"},"vehicle_type_id":"4","last_reported":1784300641,"current_range_meters":22800,"station_id":"","pricing_plan_id":"cebpf4jnsgd1na2vs0mg"},{"bike_id":"06a5565e-02cb-492e-af17-17f01b1c0cb0","system_id":"levelo_inurba_marseille","lat":43.31352,"lon":5.36705,"is_reserved":false,"is_disabled":false,"rental_uris":{"android":"levelo://app?vid=06a5565e-02cb-492e-af17-17f01b1c0cb0","ios":"levelo://app?vid=06a5565e-02cb-492e-af17-17f01b1c0cb0"},"vehicle_type_id":"4","last_reported":1784300641,"current_range_meters":11600,"station_id":"ce4bgr92rcd13ifvqc6g","pricing_plan_id":"cebpf4jnsgd1na2vs0mg"},{"bike_id":"35bd0f1d-508e-41f7-83fa-f3e805aab35e","system_id":"levelo_inurba_marseille","lat":43.30308,"lon":5.37683,"is_reserved":false,"is_disabled":true,"rental_uris":{"android":"levelo://app?vid=35bd0f1d-508e-41f7-83fa-f3e805aab35e","ios":"levelo://app?vid=35bd0f1d-508e-41f7-83fa-f3e805aab35e"},"vehicle_type_id":"4","last_reported":1784300641,"current_range_meters":12400,"station_id":"ce4bguh2rcd13ifvqcj0","pricing_plan_id":"cebpf4jnsgd1na2vs0mg"},{"bike_id":"4decd52f-37ed-46c1-b6ca-c64e26d78a62","system_id":"levelo_inurba_marseille","lat":43.27207,"lon":5.39188,"is_reserved":false,"is_disabled":false,"rental_uris":{"android":"levelo://app?vid=4decd52f-37ed-46c1-b6ca-c64e26d78a62","ios":"levelo://app?vid=4decd52f-37ed-46c1-b6ca-c64e26d78a62"},"vehicle_type_id":"4","last_reported":1784300641,"current_range_meters":28000,"station_id":"ce4bhhp2rcd13ifvqfm0","pricing_plan_id":"cebpf4jnsgd1na2vs0mg"},{"bike_id":"ae7336e8-eb2f-4c9d-8f43-66ce030a5bc5","system_id":"levelo_inurba_marseille","lat":43.3047,"lon":5.37916,"is_reserved":false,"is_disabled":false,"rental_uris":{"android":"levelo://app?vid=ae7336e8-eb2f-4c9d-8f43-66ce030a5bc5","ios":"levelo://app?vid=ae7336e8-eb2f-4c9d-8f43-66ce030a5bc5"},"vehicle_type_id":"4","last_reported":1784300641,"current_range_meters":34800,"station_id":"ce4bgup2rcd13ifvqcn0","pricing_plan_id":"cebpf4jnsgd1na2vs0mg"},{"bike_id":"aa5d3c4c-9f33-4be5-be80-01a02d569199","system_id":"levelo_inurba_marseille","lat":43.26929,"lon":5.38933,"is_reserved":false,"is_disabled":true,"rental_uris":{"android":"levelo://app?vid=aa5d3c4c-9f33-4be5-be80-01a02d569199","ios":"levelo://app?vid=aa5d3c4c-9f33-4be5-be80-01a02d569199"},"vehicle_type_id":"4","last_reported":1784300641,"current_range_meters":36000,"station_id":"ce4bhhh2rcd13ifvqfl0","pricing_plan_id":"cebpf4jnsgd1na2vs0mg"},{"bike_id":"3d5cbcce-3e57-4e98-a25c-f0c631c359c3","system_id":"levelo_inurba_marseille","lat":43.2976,"lon":5.42723,"is_reserved":false,"is_disabled":false,"rental_uris":{"android":"levelo://app?vid=3d5cbcce-3e57-4e98-a25c-f0c631c359c3","ios":"levelo://app?vid=3d5cbcce-3e57-4e98-a25c-f0c631c359c3"},"vehicle_type_id":"4","last_reported":1784300641,"current_range_meters":37600,"station_id":"st_d3md5207bmas73dh9klg","pricing_plan_id":"cebpf4jnsgd1na2vs0mg"},{"bike_id":"098cb1b0-aa89-454f-9bc2-2c4ea2f0e0ee","system_id":"levelo_inurba_marseille","lat":43.31583,"lon":5.40535,"is_reserved":false,"is_disabled":false,"rental_uris":{"android":"levelo://app?vid=098cb1b0-aa89-454f-9bc2-2c4ea2f0e0ee","ios":"levelo://app?vid=098cb1b0-aa89-454f-9bc2-2c4ea2f0e0ee"},"vehicle_type_id":"4","last_reported":1784300641,"current_range_meters":19600,"station_id":"","pricing_plan_id":"cebpf4jnsgd1na2vs0mg"},{"bike_id":"c6ef31dd-6b54-4ef0-9f19-8043d5720118","system_id":"levelo_inurba_marseille","lat":43.28278,"lon":5.35067,"is_reserved":false,"is_disabled":false,"rental_uris":{"android":"levelo://app?vid=c6ef31dd-6b54-4ef0-9f19-8043d5720118","ios":"levelo://app?vid=c6ef31dd-6b54-4ef0-9f19-8043d5720118"},"vehicle_type_id":"4","last_reported":1784300641,"current_range_meters":27200,"station_id":"ce4bhbp2rcd13ifvqerg","pricing_plan_id":"cebpf4jnsgd1na2vs0mg"},{"bike_id":"d54bf494-fefb-4725-bc99-02e9a1c0aac3","system_id":"levelo_inurba_marseille","lat":43.21746,"lon":5.34601,"is_reserved":false,"is_disabled":false,"rental_uris":{"android":"levelo://app?vid=d54bf494-fefb-4725-bc99-02e9a1c0aac3","ios":"levelo://app?vid=d54bf494-fefb-4725-bc99-02e9a1c0aac3"},"vehicle_type_id":"4","last_reported":1784300641,"current_range_meters":18800,"station_id":"st_cvj6r9ubvosntc0bgbag","pricing_plan_id":"cebpf4jnsgd1na2vs0mg"},{"bike_id":"3f956fa5-b78b-4fe4-98ec-cce648837ab2","system_id":"levelo_inurba_marseille","lat":43.29008,"lon":5.3561,"is_reserved":false,"is_disabled":false,"rental_uris":{"android":"levelo://app?vid=3f956fa5-b78b-4fe4-98ec-cce648837ab2","ios":"levelo://app?vid=3f956fa5-b78b-4fe4-98ec-cce648837ab2"},"vehicle_type_id":"4","last_reported":1784300641,"current_range_meters":22800,"station_id":"ce4bhb92rcd13ifvqen0","pricing_plan_id":"cebpf4jnsgd1na2vs0mg"},{"bike_id":"728d001a-2f8b-426e-b72e-5873511ec95f","system_id":"levelo_inurba_marseille","lat":43.2931,"lon":5.37163,"is_reserved":false,"is_disabled":false,"rental_uris":{"android":"levelo://app?vid=728d001a-2f8b-426e-b72e-5873511ec95f","ios":"levelo://app?vid=728d001a-2f8b-426e-b72e-5873511ec95f"},"vehicle_type_id":"4","last_reported":1784300641,"current_range_meters":40000,"station_id":"ce4bgh92rcd13ifvqb40","pricing_plan_id":"cebpf4jnsgd1na2vs0mg"},{"bike_id":"74d0cfa3-6b92-43e3-98ec-85e006cc374c","system_id":"levelo_inurba_marseille","lat":43.28259,"lon":5.3508,"is_reserved":false,"is_disabled":false,"rental_uris":{"android":"levelo://app?vid=74d0cfa3-6b92-43e3-98ec-85e006cc374c","ios":"levelo://app?vid=74d0cfa3-6b92-43e3-98ec-85e006cc374c"},"vehicle_type_id":"4","last_reported":1784300641,"current_range_meters":28000,"station_id":"ce4bhbp2rcd13ifvqerg","pricing_plan_id":"cebpf4jnsgd1na2vs0mg"},{"bike_id":"5a29e6f3-d0ba-49e7-af5d-f8e60471c1fc","system_id":"levelo_inurba_marseille","lat":43.27459,"lon":5.4249,"is_reserved":false,"is_disabled":true,"rental_uris":{"android":"levelo://app?vid=5a29e6f3-d0ba-49e7-af5d-f8e60471c1fc","ios":"levelo://app?vid=5a29e6f3-d0ba-49e7-af5d-f8e60471c1fc"},"vehicle_type_id":"4","last_reported":1784300641,"current_range_meters":10000,"station_id":"st_d8t4bh7nbrqs73arha60","pricing_plan_id":"cebpf4jnsgd1na2vs0mg"},{"bike_id":"81ca3ada-0818-4f62-8bb9-e6024f14a74c","system_id":"levelo_inurba_marseille","lat":43.23221,"lon":5.35529,"is_reserved":false,"is_disabled":false,"rental_uris":{"android":"levelo://app?vid=81ca3ada-0818-4f62-8bb9-e6024f14a74c","ios":"levelo://app?vid=81ca3ada-0818-4f62-8bb9-e6024f14a74c"},"vehicle_type_id":"4","last_reported":1784300641,"current_range_meters":12400,"station_id":"ce4bhu92rcd13ifvqi70","pricing_plan_id":"cebpf4jnsgd1na2vs0mg"},{"bike_id":"d3b82640-d84c-42c7-8c57-b5a14f4fcab5","system_id":"levelo_inurba_marseille","lat":43.30855,"lon":5.37192,"is_reserved":false,"is_disabled":false,"rental_uris":{"android":"levelo://app?vid=d3b82640-d84c-42c7-8c57-b5a14f4fcab5","ios":"levelo://app?vid=d3b82640-d84c-42c7-8c57-b5a14f4fcab5"},"vehicle_type_id":"4","last_reported":1784300641,"current_range_meters":37600,"station_id":"","pricing_plan_id":"cebpf4jnsgd1na2vs0mg"},{"bike_id":"36bbc6f1-ba1a-4a40-92ba-52995c481a95","system_id":"levelo_inurba_marseille","lat":43.28857,"lon":5.35838,"is_reserved":false,"is_disabled":false,"rental_uris":{"android":"levelo://app?vid=36bbc6f1-ba1a-4a40-92ba-52995c481a95","ios":"levelo://app?vid=36bbc6f1-ba1a-4a40-92ba-52995c481a95"},"vehicle_type_id":"4","last_reported":1784300641,"current_range_meters":5600,"station_id":"ce4bhb12rcd13ifvqem0","pricing_plan_id":"cebpf4jnsgd1na2vs0mg"},{"bike_id":"57c66e41-d905-4d3e-bdab-9d946f2a37e8","system_id":"levelo_inurba_marseille","lat":43.286134,"lon":5.350956,"is_reserved":false,"is_disabled":false,"rental_uris":{"android":"levelo://app?vid=57c66e41-d905-4d3e-bdab-9d946f2a37e8","ios":"levelo://app?vid=57c66e41-d905-4d3e-bdab-9d946f2a37e8"},"vehicle_type_id":"4","last_reported":1784300641,"current_range_meters":30000,"station_id":"ce4bhch2rcd13ifvqeug","pricing_plan_id":"cebpf4jnsgd1na2vs0mg"},{"bike_id":"9712382e-5908-439f-b9d3-c5c02773cb65","system_id":"levelo_inurba_marseille","lat":43.27321,"lon":5.39079,"is_reserved":false,"is_disabled":false,"rental_uris":{"android":"levelo://app?vid=9712382e-5908-439f-b9d3-c5c02773cb65","ios":"levelo://app?vid=9712382e-5908-439f-b9d3-c5c02773cb65"},"vehicle_type_id":"4","last_reported":1784300641,"current_range_meters":9200,"station_id":"ce4bhgp2rcd13ifvqfe0","pricing_plan_id":"cebpf4jnsgd1na2vs0mg"},{"bike_id":"50aa6815-cb65-48bd-999a-1d2dfbbe24c7","system_id":"levelo_inurba_marseille","lat":43.28466,"lon":5.48404,"is_reserved":false,"is_disabled":false,"rental_uris":{"android":"levelo://app?vid=50aa6815-cb65-48bd-999a-1d2dfbbe24c7","ios":"levelo://app?vid=50aa6815-cb65-48bd-999a-1d2dfbbe24c7"},"vehicle_type_id":"4","last_reported":1784300641,"current_range_meters":6800,"station_id":"st_d3svhcjqgbts73a3dn0g","pricing_plan_id":"cebpf4jnsgd1na2vs0mg"},{"bike_id":"9bb0fd1c-c37f-4b19-9d13-0a17680fd6fb","system_id":"levelo_inurba_marseille","lat":43.32093,"lon":5.36791,"is_reserved":false,"is_disabled":false,"rental_uris":{"android":"levelo://app?vid=9bb0fd1c-c37f-4b19-9d13-0a17680fd6fb","ios":"levelo://app?vid=9bb0fd1c-c37f-4b19-9d13-0a17680fd6fb"},"vehicle_type_id":"4","last_reported":1784300641,"current_range_meters":28000,"station_id":"ce4bhrh2rcd13ifvqhug","pricing_plan_id":"cebpf4jnsgd1na2vs0mg"},{"bike_id":"2ef01878-9067-495a-81ed-f64caefe7f6a","system_id":"levelo_inurba_marseille","lat":43.315,"lon":5.37295,"is_reserved":false,"is_disabled":false,"rental_uris":{"android":"levelo://app?vid=2ef01878-9067-495a-81ed-f64caefe7f6a","ios":"levelo://app?vid=2ef01878-9067-495a-81ed-f64caefe7f6a"},"vehicle_type_id":"4","last_reported":1784300641,"current_range_meters":8400,"station_id":"ce4bgt12rcd13ifvqcd0","pricing_plan_id":"cebpf4jnsgd1na2vs0mg"},{"bike_id":"24edfabe-0d7c-415b-8cf6-84bf60d5e889","system_id":"levelo_inurba_marseille","lat":43.26999,"lon":5.42819,"is_reserved":false,"is_disabled":false,"rental_uris":{"android":"levelo://app?vid=24edfabe-0d7c-415b-8cf6-84bf60d5e889","ios":"levelo://app?vid=24edfabe-0d7c-415b-8cf6-84bf60d5e889"},"vehicle_type_id":"4","last_reported":1784300641,"current_range_meters":14800,"station_id":"","pricing_plan_id":"cebpf4jnsgd1na2vs0mg"},{"bike_id":"4d5c036b-dee6-449a-8014-817abedb29ca","system_id":"levelo_inurba_marseille","lat":43.30578,"lon":5.36513,"is_reserved":false,"is_disabled":false,"rental_uris":{"android":"levelo://app?vid=4d5c036b-dee6-449a-8014-817abedb29ca","ios":"levelo://app?vid=4d5c036b-dee6-449a-8014-817abedb29ca"},"vehicle_type_id":"4","last_reported":1784300641,"current_range_meters":28000,"station_id":"ce4bgs12rcd13ifvqcag","pricing_plan_id":"cebpf4jnsgd1na2vs0mg"},{"bike_id":"540948e9-4a10-46b5-a5cb-a76863bad619","system_id":"levelo_inurba_marseille","lat":43.319,"lon":5.36812,"is_reserved":false,"is_disabled":false,"rental_uris":{"android":"levelo://app?vid=540948e9-4a10-46b5-a5cb-a76863bad619","ios":"levelo://app?vid=540948e9-4a10-46b5-a5cb-a76863bad619"},"vehicle_type_id":"4","last_reported":1784300641,"current_range_meters":35200,"station_id":"st_d6o2h0d0559c73evc1b0","pricing_plan_id":"cebpf4jnsgd1na2vs0mg"},{"bike_id":"8ea951ae-3c04-4f4d-84ef-c50b8288b95d","system_id":"levelo_inurba_marseille","lat":43.28005,"lon":5.38254,"is_reserved":false,"is_disabled":false,"rental_uris":{"android":"levelo://app?vid=8ea951ae-3c04-4f4d-84ef-c50b8288b95d","ios":"levelo://app?vid=8ea951ae-3c04-4f4d-84ef-c50b8288b95d"},"vehicle_type_id":"4","last_reported":1784300641,"current_range_meters":21600,"station_id":"","pricing_plan_id":"cebpf4jnsgd1na2vs0mg"},{"bike_id":"48880277-57cd-43cd-ada1-160eeb737576","system_id":"levelo_inurba_marseille","lat":43.3048,"lon":5.37913,"is_reserved":false,"is_disabled":false,"rental_uris":{"android":"levelo://app?vid=48880277-57cd-43cd-ada1-160eeb737576","ios":"levelo://app?vid=48880277-57cd-43cd-ada1-160eeb737576"},"vehicle_type_id":"4","last_reported":1784300641,"current_range_meters":39200,"station_id":"ce4bgup2rcd13ifvqcn0","pricing_plan_id":"cebpf4jnsgd1na2vs0mg"},{"bike_id":"a86deb64-24a8-41a6-a9c7-d169fc97becf","system_id":"levelo_inurba_marseille","lat":43.33759,"lon":5.37448,"is_reserved":false,"is_disabled":false,"rental_uris":{"android":"levelo://app?vid=a86deb64-24a8-41a6-a9c7-d169fc97becf","ios":"levelo://app?vid=a86deb64-24a8-41a6-a9c7-d169fc97becf"},"vehicle_type_id":"4","last_reported":1784300641,"current_range_meters":36400,"station_id":"","pricing_plan_id":"cebpf4jnsgd1na2vs0mg"},{"bike_id":"496f9345-91b9-4579-b416-6c62b50b64c6","system_id":"levelo_inurba_marseille","lat":43.33025,"lon":5.39048,"is_reserved":false,"is_disabled":false,"rental_uris":{"android":"levelo://app?vid=496f9345-91b9-4579-b416-6c62b50b64c6","ios":"levelo://app?vid=496f9345-91b9-4579-b416-6c62b50b64c6"},"vehicle_type_id":"4","last_reported":1784300641,"current_range_meters":39200,"station_id":"ce4bhr92rcd13ifvqhrg","pricing_plan_id":"cebpf4jnsgd1na2vs0mg"},{"bike_id":"b602ebe1-a055-4d7f-9d9b-bd7f98ff2888","system_id":"levelo_inurba_marseille","lat":43.29948,"lon":5.3655,"is_reserved":false,"is_disabled":true,"rental_uris":{"android":"levelo://app?vid=b602ebe1-a055-4d7f-9d9b-bd7f98ff2888","ios":"levelo://app?vid=b602ebe1-a055-4d7f-9d9b-bd7f98ff2888"},"vehicle_type_id":"4","last_reported":1784300641,"current_range_meters":38000,"station_id":"ce4bgm92rcd13ifvqbr0","pricing_plan_id":"cebpf4jnsgd1na2vs0mg"},{"bike_id":"b47f59cc-85c0-421d-b6d4-1572d4e0da20","system_id":"levelo_inurba_marseille","lat":43.27485,"lon":5.42551,"is_reserved":false,"is_disabled":false,"rental_uris":{"android":"levelo://app?vid=b47f59cc-85c0-421d-b6d4-1572d4e0da20","ios":"levelo://app?vid=b47f59cc-85c0-421d-b6d4-1572d4e0da20"},"vehicle_type_id":"4","last_reported":1784300641,"current_range_meters":26000,"station_id":"st_d8t4bh7nbrqs73arha60","pricing_plan_id":"cebpf4jnsgd1na2vs0mg"},