{"last_updated":1777474883,"ttl":60,"version":"2.2","data":{"bikes":[{"bike_id":"10baaf9c-bf29-4316-acad-4922dd7a5b11","system_id":"levelo_inurba_marseille","lat":43.25513,"lon":5.37654,"is_reserved":false,"is_disabled":false,"rental_uris":{"android":"levelo://app?vid=10baaf9c-bf29-4316-acad-4922dd7a5b11","ios":"levelo://app?vid=10baaf9c-bf29-4316-acad-4922dd7a5b11"},"vehicle_type_id":"4","last_reported":1777474883,"current_range_meters":2800,"station_id":"ce4bhh12rcd13ifvqff0","pricing_plan_id":"cebpf4jnsgd1na2vs0mg"},{"bike_id":"4ef3b6d0-78ff-4901-8eda-f5be7ce04d1d","system_id":"levelo_inurba_marseille","lat":43.30787,"lon":5.37662,"is_reserved":false,"is_disabled":false,"rental_uris":{"android":"levelo://app?vid=4ef3b6d0-78ff-4901-8eda-f5be7ce04d1d","ios":"levelo://app?vid=4ef3b6d0-78ff-4901-8eda-f5be7ce04d1d"},"vehicle_type_id":"4","last_reported":1777474883,"current_range_meters":2800,"station_id":"ce4bgv92rcd13ifvqcq0","pricing_plan_id":"cebpf4jnsgd1na2vs0mg"},{"bike_id":"f62d563e-1667-4988-b076-a72885ecbc5b","system_id":"levelo_inurba_marseille","lat":43.29199,"lon":5.39334,"is_reserved":false,"is_disabled":false,"rental_uris":{"android":"levelo://app?vid=f62d563e-1667-4988-b076-a72885ecbc5b","ios":"levelo://app?vid=f62d563e-1667-4988-b076-a72885ecbc5b"},"vehicle_type_id":"4","last_reported":1777474883,"current_range_meters":2800,"station_id":"ce4bh192rcd13ifvqdd0","pricing_plan_id":"cebpf4jnsgd1na2vs0mg"},{"bike_id":"5e34cf61-227e-4c87-ae6c-dca490763ac7","system_id":"levelo_inurba_marseille","lat":43.26219,"lon":5.37433,"is_reserved":false,"is_disabled":false,"rental_uris":{"android":"levelo://app?vid=5e34cf61-227e-4c87-ae6c-dca490763ac7","ios":"levelo://app?vid=5e34cf61-227e-4c87-ae6c-dca490763ac7"},"vehicle_type_id":"4","last_reported":1777474883,"current_range_meters":2800,"station_id":"ce4bhgp2rcd13ifvqfc0","pricing_plan_id":"cebpf4jnsgd1na2vs0mg"},{"bike_id":"aa119ec4-1b52-480e-862e-5865598cbcc9","system_id":"levelo_inurba_marseille","lat":43.305494,"lon":5.365639,"is_reserved":false,"is_disabled":false,"rental_uris":{"android":"levelo://app?vid=aa119ec4-1b52-480e-862e-5865598cbcc9","ios":"levelo://app?vid=aa119ec4-1b52-480e-862e-5865598cbcc9"},"vehicle_type_id":"4","last_reported":1777474883,"current_range_meters":2800,"station_id":"ce4bgs12rcd13ifvqcag","pricing_plan_id":"cebpf4jnsgd1na2vs0mg"},{"bike_id":"eec401be-82ad-4f63-b0db-33abd6b577d0","system_id":"levelo_inurba_marseille","lat":43.30134,"lon":5.4312,"is_reserved":false,"is_disabled":false,"rental_uris":{"android":"levelo://app?vid=eec401be-82ad-4f63-b0db-33abd6b577d0","ios":"levelo://app?vid=eec401be-82ad-4f63-b0db-33abd6b577d0"},"vehicle_type_id":"4","last_reported":1777474883,"current_range_meters":2800,"station_id":"st_d3js3co5814s73ftftug","pricing_plan_id":"cebpf4jnsgd1na2vs0mg"},{"bike_id":"3c56c3a8-fe09-49de-92a4-d640c6eaea10","system_id":"levelo_inurba_marseille","lat":43.28168,"lon":5.42646,"is_reserved":false,"is_disabled":false,"rental_uris":{"android":"levelo://app?vid=3c56c3a8-fe09-49de-92a4-d640c6eaea10","ios":"levelo://app?vid=3c56c3a8-fe09-49de-92a4-d640c6eaea10"},"vehicle_type_id":"4","last_reported":1777474883,"current_range_meters":2800,"station_id":"ce4bhnh2rcd13ifvqgug","pricing_plan_id":"cebpf4jnsgd1na2vs0mg"},{"bike_id":"8b4e6bd3-1e82-4277-a45a-3a8abaa4e3ab","system_id":"levelo_inurba_marseille","lat":43.28482,"lon":5.48386,"is_reserved":false,"is_disabled":false,"rental_uris":{"android":"levelo://app?vid=8b4e6bd3-1e82-4277-a45a-3a8abaa4e3ab","ios":"levelo://app?vid=8b4e6bd3-1e82-4277-a45a-3a8abaa4e3ab"},"vehicle_type_id":"4","last_reported":1777474883,"current_range_meters":2800,"station_id":"","pricing_plan_id":"cebpf4jnsgd1na2vs0mg"},{"bike_id":"01e94938-4b2b-46b3-8b78-7040c16d13c5","system_id":"levelo_inurba_marseille","lat":43.29687,"lon":5.37312,"is_reserved":false,"is_disabled":false,"rental_uris":{"android":"levelo://app?vid=01e94938-4b2b-46b3-8b78-7040c16d13c5","ios":"levelo://app?vid=01e94938-4b2b-46b3-8b78-7040c16d13c5"},"vehicle_type_id":"4","last_reported":1777474883,"current_range_meters":2800,"station_id":"ce4bgk12rcd13ifvqbj0","pricing_plan_id":"cebpf4jnsgd1na2vs0mg"},{"bike_id":"4541a58b-5803-4873-8531-8182c7674429","system_id":"levelo_inurba_marseille","lat":43.28477,"lon":5.48411,"is_reserved":false,"is_disabled":false,"rental_uris":{"android":"levelo://app?vid=4541a58b-5803-4873-8531-8182c7674429","ios":"levelo://app?vid=4541a58b-5803-4873-8531-8182c7674429"},"vehicle_type_id":"4","last_reported":1777474883,"current_range_meters":3200,"station_id":"st_d3svhcjqgbts73a3dn0g","pricing_plan_id":"cebpf4jnsgd1na2vs0mg"},{"bike_id":"1c3d4bd3-409c-4152-ae35-e8f8dbb9360a","system_id":"levelo_inurba_marseille","lat":43.2962,"lon":5.3815,"is_reserved":false,"is_disabled":false,"rental_uris":{"android":"levelo://app?vid=1c3d4bd3-409c-4152-ae35-e8f8dbb9360a","ios":"levelo://app?vid=1c3d4bd3-409c-4152-ae35-e8f8dbb9360a"},"vehicle_type_id":"4","last_reported":1777474883,"current_range_meters":3200,"station_id":"ce4bgl12rcd13ifvqbo0","pricing_plan_id":"cebpf4jnsgd1na2vs0mg"},{"bike_id":"67193cbd-c9ea-4d38-b656-077ebf9429d5","system_id":"levelo_inurba_marseille","lat":43.28425,"lon":5.35003,"is_reserved":false,"is_disabled":true,"rental_uris":{"android":"levelo://app?vid=67193cbd-c9ea-4d38-b656-077ebf9429d5","ios":"levelo://app?vid=67193cbd-c9ea-4d38-b656-077ebf9429d5"},"vehicle_type_id":"4","last_reported":1777474883,"current_range_meters":3200,"station_id":"ce4bhbh2rcd13ifvqepg","pricing_plan_id":"cebpf4jnsgd1na2vs0mg"},{"bike_id":"c384d353-bef5-4793-adec-4d9c87811e2f","system_id":"levelo_inurba_marseille","lat":43.29574,"lon":5.36742,"is_reserved":false,"is_disabled":false,"rental_uris":{"android":"levelo://app?vid=c384d353-bef5-4793-adec-4d9c87811e2f","ios":"levelo://app?vid=c384d353-bef5-4793-adec-4d9c87811e2f"},"vehicle_type_id":"4","last_reported":1777474883,"current_range_meters":3600,"station_id":"ce4bgph2rcd13ifvqc2g","pricing_plan_id":"cebpf4jnsgd1na2vs0mg"},{"bike_id":"7c27741c-9ebf-4d85-9d5c-c2999ca01cc0","system_id":"levelo_inurba_marseille","lat":43.30881,"lon":5.37212,"is_reserved":false,"is_disabled":false,"rental_uris":{"android":"levelo://app?vid=7c27741c-9ebf-4d85-9d5c-c2999ca01cc0","ios":"levelo://app?vid=7c27741c-9ebf-4d85-9d5c-c2999ca01cc0"},"vehicle_type_id":"4","last_reported":1777474883,"current_range_meters":3600,"station_id":"ce4bguh2rcd13ifvqckg","pricing_plan_id":"cebpf4jnsgd1na2vs0mg"},{"bike_id":"a85be041-15ec-4cd7-8a1a-da54326e0b3b","system_id":"levelo_inurba_marseille","lat":43.302455,"lon":5.392363,"is_reserved":false,"is_disabled":false,"rental_uris":{"android":"levelo://app?vid=a85be041-15ec-4cd7-8a1a-da54326e0b3b","ios":"levelo://app?vid=a85be041-15ec-4cd7-8a1a-da54326e0b3b"},"vehicle_type_id":"4","last_reported":1777474883,"current_range_meters":3600,"station_id":"ce4bgkh2rcd13ifvqbk0","pricing_plan_id":"cebpf4jnsgd1na2vs0mg"},{"bike_id":"76907408-a8ff-4688-9cbf-66e48bb415e8","system_id":"levelo_inurba_marseille","lat":43.28702,"lon":5.4669,"is_reserved":false,"is_disabled":false,"rental_uris":{"android":"levelo://app?vid=76907408-a8ff-4688-9cbf-66e48bb415e8","ios":"levelo://app?vid=76907408-a8ff-4688-9cbf-66e48bb415e8"},"vehicle_type_id":"4","last_reported":1777474883,"current_range_meters":3600,"station_id":"st_d6tc3vkotcvc738tfjhg","pricing_plan_id":"cebpf4jnsgd1na2vs0mg"},{"bike_id":"d4169b7e-6503-480b-853b-9fa0826f5488","system_id":"levelo_inurba_marseille","lat":43.29565,"lon":5.3754,"is_reserved":false,"is_disabled":false,"rental_uris":{"android":"levelo://app?vid=d4169b7e-6503-480b-853b-9fa0826f5488","ios":"levelo://app?vid=d4169b7e-6503-480b-853b-9fa0826f5488"},"vehicle_type_id":"4","last_reported":1777474883,"current_range_meters":3600,"station_id":"ce4bgh92rcd13ifvqb50","pricing_plan_id":"cebpf4jnsgd1na2vs0mg"},{"bike_id":"b9fd0090-3b1d-479c-940f-f430918cd762","system_id":"levelo_inurba_marseille","lat":43.27377,"lon":5.36264,"is_reserved":false,"is_disabled":false,"rental_uris":{"android":"levelo://app?vid=b9fd0090-3b1d-479c-940f-f430918cd762","ios":"levelo://app?vid=b9fd0090-3b1d-479c-940f-f430918cd762"},"vehicle_type_id":"4","last_reported":1777474883,"current_range_meters":3600,"station_id":"ce4bhbh2rcd13ifvqeo0","pricing_plan_id":"cebpf4jnsgd1na2vs0mg"},{"bike_id":"2d25c2ef-7361-4b19-8e13-2f3751f3fcdd","system_id":"levelo_inurba_marseille","lat":43.25192,"lon":5.41149,"is_reserved":false,"is_disabled":false,"rental_uris":{"android":"levelo://app?vid=2d25c2ef-7361-4b19-8e13-2f3751f3fcdd","ios":"levelo://app?vid=2d25c2ef-7361-4b19-8e13-2f3751f3fcdd"},"vehicle_type_id":"4","last_reported":1777474883,"current_range_meters":3600,"station_id":"","pricing_plan_id":"cebpf4jnsgd1na2vs0mg"},{"bike_id":"5367fafd-42a5-4c52-bd35-5d85953af91c","system_id":"levelo_inurba_marseille","lat":43.3145,"lon":5.37379,"is_reserved":false,"is_disabled":true,"rental_uris":{"android":"levelo://app?vid=5367fafd-42a5-4c52-bd35-5d85953af91c","ios":"levelo://app?vid=5367fafd-42a5-4c52-bd35-5d85953af91c"},"vehicle_type_id":"4","last_reported":1777474883,"current_range_meters":4000,"station_id":"","pricing_plan_id":"cebpf4jnsgd1na2vs0mg"},{"bike_id":"e116e98a-e7c1-4e2d-9ae3-1a759c33b548","system_id":"levelo_inurba_marseille","lat":43.337444,"lon":5.374475,"is_reserved":false,"is_disabled":false,"rental_uris":{"android":"levelo://app?vid=e116e98a-e7c1-4e2d-9ae3-1a759c33b548","ios":"levelo://app?vid=e116e98a-e7c1-4e2d-9ae3-1a759c33b548"},"vehicle_type_id":"4","last_reported":1777474883,"current_range_meters":4000,"station_id":"ce4bgop2rcd13ifvqc1g","pricing_plan_id":"cebpf4jnsgd1na2vs0mg"},{"bike_id":"cbf2c7a1-56f3-45f0-94a6-222e03b487d4","system_id":"levelo_inurba_marseille","lat":43.30557,"lon":5.36503,"is_reserved":false,"is_disabled":false,"rental_uris":{"android":"levelo://app?vid=cbf2c7a1-56f3-45f0-94a6-222e03b487d4","ios":"levelo://app?vid=cbf2c7a1-56f3-45f0-94a6-222e03b487d4"},"vehicle_type_id":"4","last_reported":1777474883,"current_range_meters":4000,"station_id":"ce4bgs12rcd13ifvqcag","pricing_plan_id":"cebpf4jnsgd1na2vs0mg"},{"bike_id":"e2605e88-9f7b-49cc-8a63-119a038d9512","system_id":"levelo_inurba_marseille","lat":43.25623,"lon":5.38572,"is_reserved":false,"is_disabled":false,"rental_uris":{"android":"levelo://app?vid=e2605e88-9f7b-49cc-8a63-119a038d9512","ios":"levelo://app?vid=e2605e88-9f7b-49cc-8a63-119a038d9512"},"vehicle_type_id":"4","last_reported":1777474883,"current_range_meters":4000,"station_id":"","pricing_plan_id":"cebpf4jnsgd1na2vs0mg"},{"bike_id":"c76ed756-dd0f-4424-b786-3cab63b1146b","system_id":"levelo_inurba_marseille","lat":43.26572,"lon":5.38998,"is_reserved":false,"is_disabled":false,"rental_uris":{"android":"levelo://app?vid=c76ed756-dd0f-4424-b786-3cab63b1146b","ios":"levelo://app?vid=c76ed756-dd0f-4424-b786-3cab63b1146b"},"vehicle_type_id":"4","last_reported":1777474883,"current_range_meters":4000,"station_id":"ce4bhe12rcd13ifvqf30","pricing_plan_id":"cebpf4jnsgd1na2vs0mg"},{"bike_id":"2abae473-fb1e-4d58-83c5-f26891fa8c56","system_id":"levelo_inurba_marseille","lat":43.231903,"lon":5.355547,"is_reserved":false,"is_disabled":false,"rental_uris":{"android":"levelo://app?vid=2abae473-fb1e-4d58-83c5-f26891fa8c56","ios":"levelo://app?vid=2abae473-fb1e-4d58-83c5-f26891fa8c56"},"vehicle_type_id":"4","last_reported":1777474883,"current_range_meters":4000,"station_id":"ce4bhu92rcd13ifvqi70","pricing_plan_id":"cebpf4jnsgd1na2vs0mg"},{"bike_id":"ee89b98c-eff6-4917-8ae0-ac97c59ce3fd","system_id":"levelo_inurba_marseille","lat":43.23964,"lon":5.36629,"is_reserved":false,"is_disabled":false,"rental_uris":{"android":"levelo://app?vid=ee89b98c-eff6-4917-8ae0-ac97c59ce3fd","ios":"levelo://app?vid=ee89b98c-eff6-4917-8ae0-ac97c59ce3fd"},"vehicle_type_id":"4","last_reported":1777474883,"current_range_meters":4000,"station_id":"ce4bhi12rcd13ifvqfp0","pricing_plan_id":"cebpf4jnsgd1na2vs0mg"},{"bike_id":"ed6a2c48-43f3-485c-9d0a-6f9bcf851e56","system_id":"levelo_inurba_marseille","lat":43.286968,"lon":5.399908,"is_reserved":false,"is_disabled":false,"rental_uris":{"android":"levelo://app?vid=ed6a2c48-43f3-485c-9d0a-6f9bcf851e56","ios":"levelo://app?vid=ed6a2c48-43f3-485c-9d0a-6f9bcf851e56"},"vehicle_type_id":"4","last_reported":1777474883,"current_range_meters":4000,"station_id":"ce4bho92rcd13ifvqh3g","pricing_plan_id":"cebpf4jnsgd1na2vs0mg"},{"bike_id":"a29bb7b7-5af5-4cea-bd28-e4803818a032","system_id":"levelo_inurba_marseille","lat":43.27618,"lon":5.36148,"is_reserved":false,"is_disabled":false,"rental_uris":{"android":"levelo://app?vid=a29bb7b7-5af5-4cea-bd28-e4803818a032","ios":"levelo://app?vid=a29bb7b7-5af5-4cea-bd28-e4803818a032"},"vehicle_type_id":"4","last_reported":1777474883,"current_range_meters":4000,"station_id":"ce4bgj92rcd13ifvqbe0","pricing_plan_id":"cebpf4jnsgd1na2vs0mg"},{"bike_id":"ca7e766e-0c22-4bb4-9391-ff9b9db52725","system_id":"levelo_inurba_marseille","lat":43.28232,"lon":5.40579,"is_reserved":false,"is_disabled":false,"rental_uris":{"android":"levelo://app?vid=ca7e766e-0c22-4bb4-9391-ff9b9db52725","ios":"levelo://app?vid=ca7e766e-0c22-4bb4-9391-ff9b9db52725"},"vehicle_type_id":"4","last_reported":1777474883,"current_range_meters":4400,"station_id":"","pricing_plan_id":"cebpf4jnsgd1na2vs0mg"},{"bike_id":"b9c0ca4a-61af-4a0b-994f-7b554a71a91c","system_id":"levelo_inurba_marseille","lat":43.32363,"lon":5.36771,"is_reserved":false,"is_disabled":false,"rental_uris":{"android":"levelo://app?vid=b9c0ca4a-61af-4a0b-994f-7b554a71a91c","ios":"levelo://app?vid=b9c0ca4a-61af-4a0b-994f-7b554a71a91c"},"vehicle_type_id":"4","last_reported":1777474883,"current_range_meters":4400,"station_id":"ce4bhsh2rcd13ifvqi2g","pricing_plan_id":"cebpf4jnsgd1na2vs0mg"},{"bike_id":"4183a184-0efa-4fd4-81c4-46165c0c0c6b","system_id":"levelo_inurba_marseille","lat":43.33032,"lon":5.39035,"is_reserved":false,"is_disabled":false,"rental_uris":{"android":"levelo://app?vid=4183a184-0efa-4fd4-81c4-46165c0c0c6b","ios":"levelo://app?vid=4183a184-0efa-4fd4-81c4-46165c0c0c6b"},"vehicle_type_id":"4","last_reported":1777474883,"current_range_meters":4400,"station_id":"ce4bhr92rcd13ifvqhrg","pricing_plan_id":"cebpf4jnsgd1na2vs0mg"},{"bike_id":"145c254e-4088-4fef-87dc-d9bee17d760f","system_id":"levelo_inurba_marseille","lat":43.32108,"lon":5.36802,"is_reserved":false,"is_disabled":false,"rental_uris":{"android":"levelo://app?vid=145c254e-4088-4fef-87dc-d9bee17d760f","ios":"levelo://app?vid=145c254e-4088-4fef-87dc-d9bee17d760f"},"vehicle_type_id":"4","last_reported":1777474883,"current_range_meters":4400,"station_id":"ce4bhrh2rcd13ifvqhug","pricing_plan_id":"cebpf4jnsgd1na2vs0mg"},{"bike_id":"f0a4817e-bd1c-4e40-9f1c-842ddb83aad4","system_id":"levelo_inurba_marseille","lat":43.31513,"lon":5.40304,"is_reserved":false,"is_disabled":false,"rental_uris":{"android":"levelo://app?vid=f0a4817e-bd1c-4e40-9f1c-842ddb83aad4","ios":"levelo://app?vid=f0a4817e-bd1c-4e40-9f1c-842ddb83aad4"},"vehicle_type_id":"4","last_reported":1777474883,"current_range_meters":4400,"station_id":"","pricing_plan_id":"cebpf4jnsgd1na2vs0mg"},{"bike_id":"c9876857-8b05-4ef5-b30a-b0639858eb34","system_id":"levelo_inurba_marseille","lat":43.26509,"lon":5.39542,"is_reserved":false,"is_disabled":false,"rental_uris":{"android":"levelo://app?vid=c9876857-8b05-4ef5-b30a-b0639858eb34","ios":"levelo://app?vid=c9876857-8b05-4ef5-b30a-b0639858eb34"},"vehicle_type_id":"4","last_reported":1777474883,"current_range_meters":4400,"station_id":"ce4bhi12rcd13ifvqfq0","pricing_plan_id":"cebpf4jnsgd1na2vs0mg"},{"bike_id":"1788d167-a53d-4ed1-8027-a6ba84f955e4","system_id":"levelo_inurba_marseille","lat":43.26556,"lon":5.37291,"is_reserved":false,"is_disabled":false,"rental_uris":{"android":"levelo://app?vid=1788d167-a53d-4ed1-8027-a6ba84f955e4","ios":"levelo://app?vid=1788d167-a53d-4ed1-8027-a6ba84f955e4"},"vehicle_type_id":"4","last_reported":1777474883,"current_range_meters":4400,"station_id":"ce4bhg12rcd13ifvqf70","pricing_plan_id":"cebpf4jnsgd1na2vs0mg"},{"bike_id":"f8c4abaf-d141-48e1-97d9-619e42dc845a","system_id":"levelo_inurba_marseille","lat":43.29791,"lon":5.40403,"is_reserved":false,"is_disabled":false,"rental_uris":{"android":"levelo://app?vid=f8c4abaf-d141-48e1-97d9-619e42dc845a","ios":"levelo://app?vid=f8c4abaf-d141-48e1-97d9-619e42dc845a"},"vehicle_type_id":"4","last_reported":1777474883,"current_range_meters":4400,"station_id":"ce4bh112rcd13ifvqd90","pricing_plan_id":"cebpf4jnsgd1na2vs0mg"},{"bike_id":"e03a9553-f014-4591-84d1-bb481db182e5","system_id":"levelo_inurba_marseille","lat":43.28702,"lon":5.46684,"is_reserved":false,"is_disabled":false,"rental_uris":{"android":"levelo://app?vid=e03a9553-f014-4591-84d1-bb481db182e5","ios":"levelo://app?vid=e03a9553-f014-4591-84d1-bb481db182e5"},"vehicle_type_id":"4","last_reported":1777474883,"current_range_meters":4400,"station_id":"st_d6tc3vkotcvc738tfjhg","pricing_plan_id":"cebpf4jnsgd1na2vs0mg"},{"bike_id":"a11227fc-8404-4dae-87a8-4e4517b25263","system_id":"levelo_inurba_marseille","lat":43.3095,"lon":5.39011,"is_reserved":false,"is_disabled":false,"rental_uris":{"android":"levelo://app?vid=a11227fc-8404-4dae-87a8-4e4517b25263","ios":"levelo://app?vid=a11227fc-8404-4dae-87a8-4e4517b25263"},"vehicle_type_id":"4","last_reported":1777474883,"current_range_meters":4400,"station_id":"ce4bgup2rcd13ifvqco0","pricing_plan_id":"cebpf4jnsgd1na2vs0mg"},{"bike_id":"1b67582a-147b-4123-a467-cf965d447761","system_id":"levelo_inurba_marseille","lat":43.29258,"lon":5.38435,"is_reserved":false,"is_disabled":false,"rental_uris":{"android":"levelo://app?vid=1b67582a-147b-4123-a467-cf965d447761","ios":"levelo://app?vid=1b67582a-147b-4123-a467-cf965d447761"},"vehicle_type_id":"4","last_reported":1777474883,"current_range_meters":4400,"station_id":"ce4bh692rcd13ifvqea0","pricing_plan_id":"cebpf4jnsgd1na2vs0mg"},{"bike_id":"6d6a7cf7-aa1f-4f4d-9cca-9b57285f6e77","system_id":"levelo_inurba_marseille","lat":43.26481,"lon":5.39562,"is_reserved":false,"is_disabled":false,"rental_uris":{"android":"levelo://app?vid=6d6a7cf7-aa1f-4f4d-9cca-9b57285f6e77","ios":"levelo://app?vid=6d6a7cf7-aa1f-4f4d-9cca-9b57285f6e77"},"vehicle_type_id":"4","last_reported":1777474883,"current_range_meters":4400,"station_id":"ce4bhi12rcd13ifvqfq0","pricing_plan_id":"cebpf4jnsgd1na2vs0mg"},{"bike_id":"43fdb549-43c4-4e83-9216-7de77072648d","system_id":"levelo_inurba_marseille","lat":43.29272,"lon":5.38362,"is_reserved":false,"is_disabled":false,"rental_uris":{"android":"levelo://app?vid=43fdb549-43c4-4e83-9216-7de77072648d","ios":"levelo://app?vid=43fdb549-43c4-4e83-9216-7de77072648d"},"vehicle_type_id":"4","last_reported":1777474883,"current_range_meters":4400,"station_id":"","pricing_plan_id":"cebpf4jnsgd1na2vs0mg"},{"bike_id":"3507fc66-f046-468f-809b-f411695451d5","system_id":"levelo_inurba_marseille","lat":43.2961,"lon":5.37718,"is_reserved":false,"is_disabled":false,"rental_uris":{"android":"levelo://app?vid=3507fc66-f046-468f-809b-f411695451d5","ios":"levelo://app?vid=3507fc66-f046-468f-809b-f411695451d5"},"vehicle_type_id":"4","last_reported":1777474883,"current_range_meters":4400,"station_id":"ce4bhb92rcd13ifvqen0","pricing_plan_id":"cebpf4jnsgd1na2vs0mg"},{"bike_id":"45afc6f0-1727-46d2-9ccc-fe50c689f3cf","system_id":"levelo_inurba_marseille","lat":43.273778,"lon":5.362595,"is_reserved":false,"is_disabled":false,"rental_uris":{"android":"levelo://app?vid=45afc6f0-1727-46d2-9ccc-fe50c689f3cf","ios":"levelo://app?vid=45afc6f0-1727-46d2-9ccc-fe50c689f3cf"},"vehicle_type_id":"4","last_reported":1777474883,"current_range_meters":4800,"station_id":"ce4bhbh2rcd13ifvqeo0","pricing_plan_id":"cebpf4jnsgd1na2vs0mg"},{"bike_id":"7e4f8d59-b8db-4367-9652-49b446d5894e","system_id":"levelo_inurba_marseille","lat":43.25577,"lon":5.3824,"is_reserved":false,"is_disabled":false,"rental_uris":{"android":"levelo://app?vid=7e4f8d59-b8db-4367-9652-49b446d5894e","ios":"levelo://app?vid=7e4f8d59-b8db-4367-9652-49b446d5894e"},"vehicle_type_id":"4","last_reported":1777474883,"current_range_meters":4800,"station_id":"ce4bhih2rcd13ifvqfs0","pricing_plan_id":"cebpf4jnsgd1na2vs0mg"},{"bike_id":"21fa33d0-28a0-4e0a-9999-8d9d767ac49c","system_id":"levelo_inurba_marseille","lat":43.27059,"lon":5.38664,"is_reserved":false,"is_disabled":false,"rental_uris":{"android":"levelo://app?vid=21fa33d0-28a0-4e0a-9999-8d9d767ac49c","ios":"levelo://app?vid=21fa33d0-28a0-4e0a-9999-8d9d767ac49c"},"vehicle_type_id":"4","last_reported":1777474883,"current_range_meters":4800,"station_id":"","pricing_plan_id":"cebpf4jnsgd1na2vs0mg"},{"bike_id":"d5ae5494-c565-42ad-87fb-8a0e9d0dc5bd","system_id":"levelo_inurba_marseille","lat":43.24806,"lon":5.37456,"is_reserved":false,"is_disabled":false,"rental_uris":{"android":"levelo://app?vid=d5ae5494-c565-42ad-87fb-8a0e9d0dc5bd","ios":"levelo://app?vid=d5ae5494-c565-42ad-87fb-8a0e9d0dc5bd"},"vehicle_type_id":"4","last_reported":1777474883,"current_range_meters":4800,"station_id":"ce4bhgh2rcd13ifvqfb0","pricing_plan_id":"cebpf4jnsgd1na2vs0mg"},{"bike_id":"5cf5cac4-304b-4407-a8e5-357d3ab6bc0b","system_id":"levelo_inurba_marseille","lat":43.23888,"lon":5.37459,"is_reserved":false,"is_disabled":false,"rental_uris":{"android":"levelo://app?vid=5cf5cac4-304b-4407-a8e5-357d3ab6bc0b","ios":"levelo://app?vid=5cf5cac4-304b-4407-a8e5-357d3ab6bc0b"},"vehicle_type_id":"4","last_reported":1777474883,"current_range_meters":4800,"station_id":"st_d6sm7csbq4hs73f8fpjg","pricing_plan_id":"cebpf4jnsgd1na2vs0mg"},{"bike_id":"cbc45325-62e5-4785-b042-99b9dbc63d73","system_id":"levelo_inurba_marseille","lat":43.297,"lon":5.36611,"is_reserved":false,"is_disabled":false,"rental_uris":{"android":"levelo://app?vid=cbc45325-62e5-4785-b042-99b9dbc63d73","ios":"levelo://app?vid=cbc45325-62e5-4785-b042-99b9dbc63d73"},"vehicle_type_id":"4","last_reported":1777474883,"current_range_meters":4800,"station_id":"ce4bgn12rcd13ifvqbt0","pricing_plan_id":"cebpf4jnsgd1na2vs0mg"},{"bike_id":"c53b0575-4201-44a3-8e35-94bea536841a","system_id":"levelo_inurba_marseille","lat":43.29724,"lon":5.37701,"is_reserved":false,"is_disabled":true,"rental_uris":{"android":"levelo://app?vid=c53b0575-4201-44a3-8e35-94bea536841a","ios":"levelo://app?vid=c53b0575-4201-44a3-8e35-94bea536841a"},"vehicle_type_id":"4","last_reported":1777474883,"current_range_meters":5600,"station_id":"ce4bgkh2rcd13ifvqbl0","pricing_plan_id":"cebpf4jnsgd1na2vs0mg"},{"bike_id":"85262aaf-aaf4-4821-a8c1-cb73e9c91f58","system_id":"levelo_inurba_marseille","lat":43.26545,"lon":5.37306,"is_reserved":false,"is_disabled":false,"rental_uris":{"android":"levelo://app?vid=85262aaf-aaf4-4821-a8c1-cb73e9c91f58","ios":"levelo://app?vid=85262aaf-aaf4-4821-a8c1-cb73e9c91f58"},"vehicle_type_id":"4","last_reported":1777474883,"current_range_meters":5600,"station_id":"ce4bhg12rcd13ifvqf70","pricing_plan_id":"cebpf4jnsgd1na2vs0mg"},{"bike_id":"d11fce5e-d9a2-4390-80df-cd247420b8f8","system_id":"levelo_inurba_marseille","lat":43.28104,"lon":5.37837,"is_reserved":false,"is_disabled":false,"rental_uris":{"android":"levelo://app?vid=d11fce5e-d9a2-4390-80df-cd247420b8f8","ios":"levelo://app?vid=d11fce5e-d9a2-4390-80df-cd247420b8f8"},"vehicle_type_id":"4","last_reported":1777474883,"current_range_meters":5600,"station_id":"ce4bha12rcd13ifvqee0","pricing_plan_id":"cebpf4jnsgd1na2vs0mg"},{"bike_id":"16bd1a01-b2ad-4ad2-8435-f3145526b2d2","system_id":"levelo_inurba_marseille","lat":43.30443,"lon":5.38895,"is_reserved":false,"is_disabled":false,"rental_uris":{"android":"levelo://app?vid=16bd1a01-b2ad-4ad2-8435-f3145526b2d2","ios":"levelo://app?vid=16bd1a01-b2ad-4ad2-8435-f3145526b2d2"},"vehicle_type_id":"4","last_reported":1777474883,"current_range_meters":5600,"station_id":"ce4bgk12rcd13ifvqbi0","pricing_plan_id":"cebpf4jnsgd1na2vs0mg"},{"bike_id":"48c44b25-9232-4459-b242-6d3a07ddcc00","system_id":"levelo_inurba_marseille","lat":43.27916,"lon":5.39597,"is_reserved":false,"is_disabled":false,"rental_uris":{"android":"levelo://app?vid=48c44b25-9232-4459-b242-6d3a07ddcc00","ios":"levelo://app?vid=48c44b25-9232-4459-b242-6d3a07ddcc00"},"vehicle_type_id":"4","last_reported":1777474883,"current_range_meters":5600,"station_id":"ce4bhf92rcd13ifvqf40","pricing_plan_id":"cebpf4jnsgd1na2vs0mg"},{"bike_id":"ea26fbb8-1fe9-45fd-86a8-020ce9ce5f0e","system_id":"levelo_inurba_marseille","lat":43.2712,"lon":5.39154,"is_reserved":false,"is_disabled":false,"rental_uris":{"android":"levelo://app?vid=ea26fbb8-1fe9-45fd-86a8-020ce9ce5f0e","ios":"levelo://app?vid=ea26fbb8-1fe9-45fd-86a8-020ce9ce5f0e"},"vehicle_type_id":"4","last_reported":1777474883,"current_range_meters":5600,"station_id":"","pricing_plan_id":"cebpf4jnsgd1na2vs0mg"},{"bike_id":"8ffdafd0-0ea3-405b-8093-f7fdd2a677a8","system_id":"levelo_inurba_marseille","lat":43.32657,"lon":5.40999,"is_reserved":false,"is_disabled":false,"rental_uris":{"android":"levelo://app?vid=8ffdafd0-0ea3-405b-8093-f7fdd2a677a8","ios":"levelo://app?vid=8ffdafd0-0ea3-405b-8093-f7fdd2a677a8"},"vehicle_type_id":"4","last_reported":1777474883,"current_range_meters":5600,"station_id":"ce4bhpp2rcd13ifvqhgg","pricing_plan_id":"cebpf4jnsgd1na2vs0mg"},{"bike_id":"f11e3633-986d-40f4-8b5f-6b5e41220dfc","system_id":"levelo_inurba_marseille","lat":43.31907,"lon":5.36811,"is_reserved":false,"is_disabled":false,"rental_uris":{"android":"levelo://app?vid=f11e3633-986d-40f4-8b5f-6b5e41220dfc","ios":"levelo://app?vid=f11e3633-986d-40f4-8b5f-6b5e41220dfc"},"vehicle_type_id":"4","last_reported":1777474883,"current_range_meters":5600,"station_id":"st_d6o2h0d0559c73evc1b0","pricing_plan_id":"cebpf4jnsgd1na2vs0mg"},{"bike_id":"ccc64b12-fba8-4953-9e4c-789c15629674","system_id":"levelo_inurba_marseille","lat":43.23211,"lon":5.35076,"is_reserved":false,"is_disabled":false,"rental_uris":{"android":"levelo://app?vid=ccc64b12-fba8-4953-9e4c-789c15629674","ios":"levelo://app?vid=ccc64b12-fba8-4953-9e4c-789c15629674"},"vehicle_type_id":"4","last_reported":1777474883,"current_range_meters":5600,"station_id":"","pricing_plan_id":"cebpf4jnsgd1na2vs0mg"},{"bike_id":"ef3a68ef-5b94-411a-921f-f7cda00ffdfc","system_id":"levelo_inurba_marseille","lat":43.29472,"lon":5.39012,"is_reserved":false,"is_disabled":false,"rental_uris":{"android":"levelo://app?vid=ef3a68ef-5b94-411a-921f-f7cda00ffdfc","ios":"levelo://app?vid=ef3a68ef-5b94-411a-921f-f7cda00ffdfc"},"vehicle_type_id":"4","last_reported":1777474883,"current_range_meters":5600,"station_id":"","pricing_plan_id":"cebpf4jnsgd1na2vs0mg"},{"bike_id":"acf51c63-cf78-493c-a43a-a6f1a5bc1497","system_id":"levelo_inurba_marseille","lat":43.231663,"lon":5.399932,"is_reserved":false,"is_disabled":false,"rental_uris":{"android":"levelo://app?vid=acf51c63-cf78-493c-a43a-a6f1a5bc1497","ios":"levelo://app?vid=acf51c63-cf78-493c-a43a-a6f1a5bc1497"},"vehicle_type_id":"4","last_reported":1777474883,"current_range_meters":5600,"station_id":"ce4bhn12rcd13ifvqgqg","pricing_plan_id":"cebpf4jnsgd1na2vs0mg"},{"bike_id":"3cf25131-6eb0-4042-8a54-baad0c772031","system_id":"levelo_inurba_marseille","lat":43.27942,"lon":5.41045,"is_reserved":false,"is_disabled":false,"rental_uris":{"android":"levelo://app?vid=3cf25131-6eb0-4042-8a54-baad0c772031","ios":"levelo://app?vid=3cf25131-6eb0-4042-8a54-baad0c772031"},"vehicle_type_id":"4","last_reported":1777474883,"current_range_meters":5600,"station_id":"ce4bhnp2rcd13ifvqh0g","pricing_plan_id":"cebpf4jnsgd1na2vs0mg"},{"bike_id":"28c14770-6e41-4161-bf47-1c8c76fcf25f","system_id":"levelo_inurba_marseille","lat":43.29306,"lon":5.37458,"is_reserved":false,"is_disabled":false,"rental_uris":{"android":"levelo://app?vid=28c14770-6e41-4161-bf47-1c8c76fcf25f","ios":"levelo://app?vid=28c14770-6e41-4161-bf47-1c8c76fcf25f"},"vehicle_type_id":"4","last_reported":1777474883,"current_range_meters":6000,"station_id":"ce4bgi12rcd13ifvqb70","pricing_plan_id":"cebpf4jnsgd1na2vs0mg"},{"bike_id":"de127ff3-4dbd-40a5-926e-7a6862dbaee1","system_id":"levelo_inurba_marseille","lat":43.24472,"lon":5.42531,"is_reserved":false,"is_disabled":false,"rental_uris":{"android":"levelo://app?vid=de127ff3-4dbd-40a5-926e-7a6862dbaee1","ios":"levelo://app?vid=de127ff3-4dbd-40a5-926e-7a6862dbaee1"},"vehicle_type_id":"4","last_reported":1777474883,"current_range_meters":6000,"station_id":"st_d4a3vfp97mjs738cd8kg","pricing_plan_id":"cebpf4jnsgd1na2vs0mg"},{"bike_id":"d6e9fe98-cb49-45d2-8306-8d80be0d816c","system_id":"levelo_inurba_marseille","lat":43.29948,"lon":5.36541,"is_reserved":false,"is_disabled":false,"rental_uris":{"android":"levelo://app?vid=d6e9fe98-cb49-45d2-8306-8d80be0d816c","ios":"levelo://app?vid=d6e9fe98-cb49-45d2-8306-8d80be0d816c"},"vehicle_type_id":"4","last_reported":1777474883,"current_range_meters":6000,"station_id":"ce4bgm92rcd13ifvqbr0","pricing_plan_id":"cebpf4jnsgd1na2vs0mg"},{"bike_id":"de66add0-8c64-427a-bc65-2a87cd199838","system_id":"levelo_inurba_marseille","lat":43.26581,"lon":5.37291,"is_reserved":false,"is_disabled":false,"rental_uris":{"android":"levelo://app?vid=de66add0-8c64-427a-bc65-2a87cd199838","ios":"levelo://app?vid=de66add0-8c64-427a-bc65-2a87cd199838"},"vehicle_type_id":"4","last_reported":1777474883,"current_range_meters":6000,"station_id":"ce4bhg12rcd13ifvqf70","pricing_plan_id":"cebpf4jnsgd1na2vs0mg"},{"bike_id":"da9791c0-6442-41db-a17a-809033ba44e9","system_id":"levelo_inurba_marseille","lat":43.29921,"lon":5.37474,"is_reserved":false,"is_disabled":false,"rental_uris":{"android":"levelo://app?vid=da9791c0-6442-41db-a17a-809033ba44e9","ios":"levelo://app?vid=da9791c0-6442-41db-a17a-809033ba44e9"},"vehicle_type_id":"4","last_reported":1777474883,"current_range_meters":6000,"station_id":"ce4bgjh2rcd13ifvqbg0","pricing_plan_id":"cebpf4jnsgd1na2vs0mg"},{"bike_id":"945b3f65-3522-4839-bb4a-92155b98bfd3","system_id":"levelo_inurba_marseille","lat":43.2842,"lon":5.34986,"is_reserved":false,"is_disabled":true,"rental_uris":{"android":"levelo://app?vid=945b3f65-3522-4839-bb4a-92155b98bfd3","ios":"levelo://app?vid=945b3f65-3522-4839-bb4a-92155b98bfd3"},"vehicle_type_id":"4","last_reported":1777474883,"current_range_meters":6000,"station_id":"ce4bhbh2rcd13ifvqepg","pricing_plan_id":"cebpf4jnsgd1na2vs0mg"},{"bike_id":"ff40c757-6764-4e83-a670-032d501c5c4b","system_id":"levelo_inurba_marseille","lat":43.29526,"lon":5.38538,"is_reserved":false,"is_disabled":false,"rental_uris":{"android":"levelo://app?vid=ff40c757-6764-4e83-a670-032d501c5c4b","ios":"levelo://app?vid=ff40c757-6764-4e83-a670-032d501c5c4b"},"vehicle_type_id":"4","last_reported":1777474883,"current_range_meters":6000,"station_id":"ce4bgih2rcd13ifvqba0","pricing_plan_id":"cebpf4jnsgd1na2vs0mg"},{"bike_id":"ea36c9e8-58b8-4f79-a3ce-b396281d3b24","system_id":"levelo_inurba_marseille","lat":43.305074,"lon":5.380769,"is_reserved":false,"is_disabled":false,"rental_uris":{"android":"levelo://app?vid=ea36c9e8-58b8-4f79-a3ce-b396281d3b24","ios":"levelo://app?vid=ea36c9e8-58b8-4f79-a3ce-b396281d3b24"},"vehicle_type_id":"4","last_reported":1777474883,"current_range_meters":6000,"station_id":"","pricing_plan_id":"cebpf4jnsgd1na2vs0mg"},{"bike_id":"d7ff4366-a2b4-446e-ba29-d062b2256f1c","system_id":"levelo_inurba_marseille","lat":43.29918,"lon":5.43687,"is_reserved":false,"is_disabled":false,"rental_uris":{"android":"levelo://app?vid=d7ff4366-a2b4-446e-ba29-d062b2256f1c","ios":"levelo://app?vid=d7ff4366-a2b4-446e-ba29-d062b2256f1c"},"vehicle_type_id":"4","last_reported":1777474883,"current_range_meters":6000,"station_id":"","pricing_plan_id":"cebpf4jnsgd1na2vs0mg"},{"bike_id":"d4d191c1-1e42-44ce-acaa-f4fdd3a7ce8e","system_id":"levelo_inurba_marseille","lat":43.28518,"lon":5.38501,"is_reserved":false,"is_disabled":false,"rental_uris":{"android":"levelo://app?vid=d4d191c1-1e42-44ce-acaa-f4fdd3a7ce8e","ios":"levelo://app?vid=d4d191c1-1e42-44ce-acaa-f4fdd3a7ce8e"},"vehicle_type_id":"4","last_reported":1777474883,"current_range_meters":6400,"station_id":"","pricing_plan_id":"cebpf4jnsgd1na2vs0mg"},{"bike_id":"c5d87c94-f8c8-47f4-ae84-ea0b6e6ae165","system_id":"levelo_inurba_marseille","lat":43.2627,"lon":5.38906,"is_reserved":false,"is_disabled":false,"rental_uris":{"android":"levelo://app?vid=c5d87c94-f8c8-47f4-ae84-ea0b6e6ae165","ios":"levelo://app?vid=c5d87c94-f8c8-47f4-ae84-ea0b6e6ae165"},"vehicle_type_id":"4","last_reported":1777474883,"current_range_meters":6400,"station_id":"","pricing_plan_id":"cebpf4jnsgd1na2vs0mg"},{"bike_id":"a986c673-ab2c-45eb-bb71-43935ec16731","system_id":"levelo_inurba_marseille","lat":43.27996,"lon":5.41705,"is_reserved":false,"is_disabled":false,"rental_uris":{"android":"levelo://app?vid=a986c673-ab2c-45eb-bb71-43935ec16731","ios":"levelo://app?vid=a986c673-ab2c-45eb-bb71-43935ec16731"},"vehicle_type_id":"4","last_reported":1777474883,"current_range_meters":6400,"station_id":"ce4bho12rcd13ifvqh1g","pricing_plan_id":"cebpf4jnsgd1na2vs0mg"},{"bike_id":"1de84bc7-40a3-4bda-b72d-2c1e9c8eff3f","system_id":"levelo_inurba_marseille","lat":43.29032,"lon":5.37567,"is_reserved":false,"is_disabled":false,"rental_uris":{"android":"levelo://app?vid=1de84bc7-40a3-4bda-b72d-2c1e9c8eff3f","ios":"levelo://app?vid=1de84bc7-40a3-4bda-b72d-2c1e9c8eff3f"},"vehicle_type_id":"4","last_reported":1777474883,"current_range_meters":6400,"station_id":"ce4bh692rcd13ifvqe90","pricing_plan_id":"cebpf4jnsgd1na2vs0mg"},{"bike_id":"dee8933b-c0c1-438d-8e2e-f0cd7809545f","system_id":"levelo_inurba_marseille","lat":43.31174,"lon":5.38711,"is_reserved":false,"is_disabled":false,"rental_uris":{"android":"levelo://app?vid=dee8933b-c0c1-438d-8e2e-f0cd7809545f","ios":"levelo://app?vid=dee8933b-c0c1-438d-8e2e-f0cd7809545f"},"vehicle_type_id":"4","last_reported":1777474883,"current_range_meters":6400,"station_id":"ce4bgv12rcd13ifvqcp0","pricing_plan_id":"cebpf4jnsgd1na2vs0mg"},{"bike_id":"0a957cd3-7e65-4a2f-bbdc-f7a4adb527ae","system_id":"levelo_inurba_marseille","lat":43.31221,"lon":5.36847,"is_reserved":false,"is_disabled":false,"rental_uris":{"android":"levelo://app?vid=0a957cd3-7e65-4a2f-bbdc-f7a4adb527ae","ios":"levelo://app?vid=0a957cd3-7e65-4a2f-bbdc-f7a4adb527ae"},"vehicle_type_id":"4","last_reported":1777474883,"current_range_meters":6400,"station_id":"ce4bgl92rcd13ifvqbq0","pricing_plan_id":"cebpf4jnsgd1na2vs0mg"},{"bike_id":"4c4fd5bf-edd1-4e64-bbba-8e4e3d30b47b","system_id":"levelo_inurba_marseille","lat":43.29206,"lon":5.42623,"is_reserved":false,"is_disabled":false,"rental_uris":{"android":"levelo://app?vid=4c4fd5bf-edd1-4e64-bbba-8e4e3d30b47b","ios":"levelo://app?vid=4c4fd5bf-edd1-4e64-bbba-8e4e3d30b47b"},"vehicle_type_id":"4","last_reported":1777474883,"current_range_meters":6400,"station_id":"","pricing_plan_id":"cebpf4jnsgd1na2vs0mg"},{"bike_id":"f3a7a36a-2e43-4123-b4fc-c2bb5ff96781","system_id":"levelo_inurba_marseille","lat":43.23962,"lon":5.36634,"is_reserved":false,"is_disabled":false,"rental_uris":{"android":"levelo://app?vid=f3a7a36a-2e43-4123-b4fc-c2bb5ff96781","ios":"levelo://app?vid=f3a7a36a-2e43-4123-b4fc-c2bb5ff96781"},"vehicle_type_id":"4","last_reported":1777474883,"current_range_meters":6400,"station_id":"ce4bhi12rcd13ifvqfp0","pricing_plan_id":"cebpf4jnsgd1na2vs0mg"},{"bike_id":"2aac5e51-6561-466f-8ce3-b3b2b88fe4ad","system_id":"levelo_inurba_marseille","lat":43.30547,"lon":5.36732,"is_reserved":false,"is_disabled":false,"rental_uris":{"android":"levelo://app?vid=2aac5e51-6561-466f-8ce3-b3b2b88fe4ad","ios":"levelo://app?vid=2aac5e51-6561-466f-8ce3-b3b2b88fe4ad"},"vehicle_type_id":"4","last_reported":1777474883,"current_range_meters":6800,"station_id":"ce4bgrp2rcd13ifvqc9g","pricing_plan_id":"cebpf4jnsgd1na2vs0mg"},{"bike_id":"4dbe00ec-feb8-4193-848e-b5324775416c","system_id":"levelo_inurba_marseille","lat":43.28418,"lon":5.35004,"is_reserved":false,"is_disabled":false,"rental_uris":{"android":"levelo://app?vid=4dbe00ec-feb8-4193-848e-b5324775416c","ios":"levelo://app?vid=4dbe00ec-feb8-4193-848e-b5324775416c"},"vehicle_type_id":"4","last_reported":1777474883,"current_range_meters":6800,"station_id":"ce4bhbh2rcd13ifvqepg","pricing_plan_id":"cebpf4jnsgd1na2vs0mg"},{"bike_id":"610cd333-c340-45c0-a0e0-275987671d5b","system_id":"levelo_inurba_marseille","lat":43.26673,"lon":5.38262,"is_reserved":false,"is_disabled":false,"rental_uris":{"android":"levelo://app?vid=610cd333-c340-45c0-a0e0-275987671d5b","ios":"levelo://app?vid=610cd333-c340-45c0-a0e0-275987671d5b"},"vehicle_type_id":"4","last_reported":1777474883,"current_range_meters":6800,"station_id":"ce4bhg92rcd13ifvqf90","pricing_plan_id":"cebpf4jnsgd1na2vs0mg"},{"bike_id":"ac7c4905-5b83-42a0-8263-c905af24c33b","system_id":"levelo_inurba_marseille","lat":43.29061,"lon":5.37191,"is_reserved":false,"is_disabled":false,"rental_uris":{"android":"levelo://app?vid=ac7c4905-5b83-42a0-8263-c905af24c33b","ios":"levelo://app?vid=ac7c4905-5b83-42a0-8263-c905af24c33b"},"vehicle_type_id":"4","last_reported":1777474883,"current_range_meters":6800,"station_id":"ce4bh5p2rcd13ifvqe4g","pricing_plan_id":"cebpf4jnsgd1na2vs0mg"},{"bike_id":"7a4f9c5b-0770-4973-b065-ff441b4f0ec4","system_id":"levelo_inurba_marseille","lat":43.28861,"lon":5.4252,"is_reserved":false,"is_disabled":false,"rental_uris":{"android":"levelo://app?vid=7a4f9c5b-0770-4973-b065-ff441b4f0ec4","ios":"levelo://app?vid=7a4f9c5b-0770-4973-b065-ff441b4f0ec4"},"vehicle_type_id":"4","last_reported":1777474883,"current_range_meters":6800,"station_id":"st_d3b462108ojc7389ooeg","pricing_plan_id":"cebpf4jnsgd1na2vs0mg"},{"bike_id":"520b0305-48d7-4734-97bb-d7eb73e5dc09","system_id":"levelo_inurba_marseille","lat":43.26538,"lon":5.37315,"is_reserved":false,"is_disabled":true,"rental_uris":{"android":"levelo://app?vid=520b0305-48d7-4734-97bb-d7eb73e5dc09","ios":"levelo://app?vid=520b0305-48d7-4734-97bb-d7eb73e5dc09"},"vehicle_type_id":"4","last_reported":1777474883,"current_range_meters":6800,"station_id":"ce4bhg12rcd13ifvqf70","pricing_plan_id":"cebpf4jnsgd1na2vs0mg"},{"bike_id":"e1d26622-7491-4fdf-a6f0-77cbc7cac2ef","system_id":"levelo_inurba_marseille","lat":43.24165,"lon":5.36403,"is_reserved":false,"is_disabled":false,"rental_uris":{"android":"levelo://app?vid=e1d26622-7491-4fdf-a6f0-77cbc7cac2ef","ios":"levelo://app?vid=e1d26622-7491-4fdf-a6f0-77cbc7cac2ef"},"vehicle_type_id":"4","last_reported":1777474883,"current_range_meters":6800,"station_id":"cpo36qri1sfpv3e86is0","pricing_plan_id":"cebpf4jnsgd1na2vs0mg"},{"bike_id":"007bdae8-b143-425f-a1a7-c03b3544c030","system_id":"levelo_inurba_marseille","lat":43.31356,"lon":5.36736,"is_reserved":false,"is_disabled":false,"rental_uris":{"android":"levelo://app?vid=007bdae8-b143-425f-a1a7-c03b3544c030","ios":"levelo://app?vid=007bdae8-b143-425f-a1a7-c03b3544c030"},"vehicle_type_id":"4","last_reported":1777474883,"current_range_meters":6800,"station_id":"ce4bgr92rcd13ifvqc6g","pricing_plan_id":"cebpf4jnsgd1na2vs0mg"},{"bike_id":"bfffe718-f987-424f-9558-4300f24d2bda","system_id":"levelo_inurba_marseille","lat":43.30334,"lon":5.40441,"is_reserved":false,"is_disabled":false,"rental_uris":{"android":"levelo://app?vid=bfffe718-f987-424f-9558-4300f24d2bda","ios":"levelo://app?vid=bfffe718-f987-424f-9558-4300f24d2bda"},"vehicle_type_id":"4","last_reported":1777474883,"current_range_meters":6800,"station_id":"ce4bh012rcd13ifvqd10","pricing_plan_id":"cebpf4jnsgd1na2vs0mg"},{"bike_id":"1bb8344f-1db0-45ef-ad3e-3af45d1f5a9f","system_id":"levelo_inurba_marseille","lat":43.2574,"lon":5.38715,"is_reserved":false,"is_disabled":false,"rental_uris":{"android":"levelo://app?vid=1bb8344f-1db0-45ef-ad3e-3af45d1f5a9f","ios":"levelo://app?vid=1bb8344f-1db0-45ef-ad3e-3af45d1f5a9f"},"vehicle_type_id":"4","last_reported":1777474883,"current_range_meters":6800,"station_id":"","pricing_plan_id":"cebpf4jnsgd1na2vs0mg"},{"bike_id":"c46d8a22-772b-40f4-a01d-512476bc1bbf","system_id":"levelo_inurba_marseille","lat":43.24983,"lon":5.40499,"is_reserved":false,"is_disabled":false,"rental_uris":{"android":"levelo://app?vid=c46d8a22-772b-40f4-a01d-512476bc1bbf","ios":"levelo://app?vid=c46d8a22-772b-40f4-a01d-512476bc1bbf"},"vehicle_type_id":"4","last_reported":1777474883,"current_range_meters":6800,"station_id":"st_d2ngiaodas8pm72gd1h0","pricing_plan_id":"cebpf4jnsgd1na2vs0mg"},{"bike_id":"2a9f517f-dc7e-442a-8a6e-b3ad6200cb4e","system_id":"levelo_inurba_marseille","lat":43.33594,"lon":5.37396,"is_reserved":false,"is_disabled":false,"rental_uris":{"android":"levelo://app?vid=2a9f517f-dc7e-442a-8a6e-b3ad6200cb4e","ios":"levelo://app?vid=2a9f517f-dc7e-442a-8a6e-b3ad6200cb4e"},"vehicle_type_id":"4","last_reported":1777474883,"current_range_meters":6800,"station_id":"st_d46tts09ee8s73dlu43g","pricing_plan_id":"cebpf4jnsgd1na2vs0mg"},{"bike_id":"550b61bf-024e-4f9e-9492-2a8f7afeae1e","system_id":"levelo_inurba_marseille","lat":43.30841,"lon":5.40521,"is_reserved":false,"is_disabled":false,"rental_uris":{"android":"levelo://app?vid=550b61bf-024e-4f9e-9492-2a8f7afeae1e","ios":"levelo://app?vid=550b61bf-024e-4f9e-9492-2a8f7afeae1e"},"vehicle_type_id":"4","last_reported":1777474883,"current_range_meters":6800,"station_id":"","pricing_plan_id":"cebpf4jnsgd1na2vs0mg"},{"bike_id":"55bac593-352e-4642-8639-19fe2b8d6c00","system_id":"levelo_inurba_marseille","lat":43.27646,"lon":5.35835,"is_reserved":false,"is_disabled":false,"rental_uris":{"android":"levelo://app?vid=55bac593-352e-4642-8639-19fe2b8d6c00","ios":"levelo://app?vid=55bac593-352e-4642-8639-19fe2b8d6c00"},"vehicle_type_id":"4","last_reported":1777474883,"current_range_meters":6800,"station_id":"","pricing_plan_id":"cebpf4jnsgd1na2vs0mg"},{"bike_id":"b66107f1-5b4d-42dc-bbc3-91a9d230f2cf","system_id":"levelo_inurba_marseille","lat":43.24179,"lon":5.39725,"is_reserved":false,"is_disabled":false,"rental_uris":{"android":"levelo://app?vid=b66107f1-5b4d-42dc-bbc3-91a9d230f2cf","ios":"levelo://app?vid=b66107f1-5b4d-42dc-bbc3-91a9d230f2cf"},"vehicle_type_id":"4","last_reported":1777474883,"current_range_meters":6800,"station_id":"ce4bhn12rcd13ifvqgpg","pricing_plan_id":"cebpf4jnsgd1na2vs0mg"},{"bike_id":"e86fde7f-f309-4c5c-9613-864f1a66fd8e","system_id":"levelo_inurba_marseille","lat":43.28854,"lon":5.42525,"is_reserved":false,"is_disabled":false,"rental_uris":{"android":"levelo://app?vid=e86fde7f-f309-4c5c-9613-864f1a66fd8e","ios":"levelo://app?vid=e86fde7f-f309-4c5c-9613-864f1a66fd8e"},"vehicle_type_id":"4","last_reported":1777474883,"current_range_meters":6800,"station_id":"st_d3b462108ojc7389ooeg","pricing_plan_id":"cebpf4jnsgd1na2vs0mg"},{"bike_id":"0f003d92-865a-49b8-ac75-46681064d41d","system_id":"levelo_inurba_marseille","lat":43.29515,"lon":5.394,"is_reserved":false,"is_disabled":false,"rental_uris":{"android":"levelo://app?vid=0f003d92-865a-49b8-ac75-46681064d41d","ios":"levelo://app?vid=0f003d92-865a-49b8-ac75-46681064d41d"},"vehicle_type_id":"4","last_reported":1777474883,"current_range_meters":6800,"station_id":"ce4bh292rcd13ifvqdf0","pricing_plan_id":"cebpf4jnsgd1na2vs0mg"},{"bike_id":"f248678b-87bb-4301-94bc-cef713a1bc7f","system_id":"levelo_inurba_marseille","lat":43.2898,"lon":5.37837,"is_reserved":false,"is_disabled":false,"rental_uris":{"android":"levelo://app?vid=f248678b-87bb-4301-94bc-cef713a1bc7f","ios":"levelo://app?vid=f248678b-87bb-4301-94bc-cef713a1bc7f"},"vehicle_type_id":"4","last_reported":1777474883,"current_range_meters":7200,"station_id":"ce4bh9p2rcd13ifvqed0","pricing_plan_id":"cebpf4jnsgd1na2vs0mg"},{"bike_id":"a40f4f57-99b1-4db6-b015-b97ad723bc67","system_id":"levelo_inurba_marseille","lat":43.26488,"lon":5.3956,"is_reserved":false,"is_disabled":false,"rental_uris":{"android":"levelo://app?vid=a40f4f57-99b1-4db6-b015-b97ad723bc67","ios":"levelo://app?vid=a40f4f57-99b1-4db6-b015-b97ad723bc67"},"vehicle_type_id":"4","last_reported":1777474883,"current_range_meters":7200,"station_id":"ce4bhi12rcd13ifvqfq0","pricing_plan_id":"cebpf4jnsgd1na2vs0mg"},{"bike_id":"bbc2f778-ecf6-4419-b9a7-78a6f4492f95","system_id":"levelo_inurba_marseille","lat":43.292273,"lon":5.360653,"is_reserved":false,"is_disabled":false,"rental_uris":{"android":"levelo://app?vid=bbc2f778-ecf6-4419-b9a7-78a6f4492f95","ios":"levelo://app?vid=bbc2f778-ecf6-4419-b9a7-78a6f4492f95"},"vehicle_type_id":"4","last_reported":1777474883,"current_range_meters":7200,"station_id":"ce4bhbh2rcd13ifvqeqg","pricing_plan_id":"cebpf4jnsgd1na2vs0mg"},{"bike_id":"dabb6558-388e-43f3-9124-582e742ee3c8","system_id":"levelo_inurba_marseille","lat":43.31906,"lon":5.36821,"is_reserved":false,"is_disabled":false,"rental_uris":{"android":"levelo://app?vid=dabb6558-388e-43f3-9124-582e742ee3c8","ios":"levelo://app?vid=dabb6558-388e-43f3-9124-582e742ee3c8"},"vehicle_type_id":"4","last_reported":1777474883,"current_range_meters":7200,"station_id":"st_d6o2h0d0559c73evc1b0","pricing_plan_id":"cebpf4jnsgd1na2vs0mg"},{"bike_id":"ba4b3cc9-ca9d-410a-baeb-de529e3178ba","system_id":"levelo_inurba_marseille","lat":43.29878,"lon":5.38909,"is_reserved":false,"is_disabled":false,"rental_uris":{"android":"levelo://app?vid=ba4b3cc9-ca9d-410a-baeb-de529e3178ba","ios":"levelo://app?vid=ba4b3cc9-ca9d-410a-baeb-de529e3178ba"},"vehicle_type_id":"4","last_reported":1777474883,"current_range_meters":7200,"station_id":"ce4bh392rcd13ifvqdl0","pricing_plan_id":"cebpf4jnsgd1na2vs0mg"},{"bike_id":"536724df-f655-4c82-9b85-f77b128b21ff","system_id":"levelo_inurba_marseille","lat":43.27323,"lon":5.39063,"is_reserved":false,"is_disabled":true,"rental_uris":{"android":"levelo://app?vid=536724df-f655-4c82-9b85-f77b128b21ff","ios":"levelo://app?vid=536724df-f655-4c82-9b85-f77b128b21ff"},"vehicle_type_id":"4","last_reported":1777474883,"current_range_meters":7200,"station_id":"ce4bhgp2rcd13ifvqfe0","pricing_plan_id":"cebpf4jnsgd1na2vs0mg"},{"bike_id":"3dfdca0e-c957-4d86-a814-e3915696c6bc","system_id":"levelo_inurba_marseille","lat":43.29256,"lon":5.38434,"is_reserved":false,"is_disabled":false,"rental_uris":{"android":"levelo://app?vid=3dfdca0e-c957-4d86-a814-e3915696c6bc","ios":"levelo://app?vid=3dfdca0e-c957-4d86-a814-e3915696c6bc"},"vehicle_type_id":"4","last_reported":1777474883,"current_range_meters":7200,"station_id":"ce4bh692rcd13ifvqea0","pricing_plan_id":"cebpf4jnsgd1na2vs0mg"},{"bike_id":"417a8d32-506d-4548-9cb5-7653df69f6b6","system_id":"levelo_inurba_marseille","lat":43.30547,"lon":5.36693,"is_reserved":false,"is_disabled":false,"rental_uris":{"android":"levelo://app?vid=417a8d32-506d-4548-9cb5-7653df69f6b6","ios":"levelo://app?vid=417a8d32-506d-4548-9cb5-7653df69f6b6"},"vehicle_type_id":"4","last_reported":1777474883,"current_range_meters":7200,"station_id":"ce4bgrp2rcd13ifvqc9g","pricing_plan_id":"cebpf4jnsgd1na2vs0mg"},{"bike_id":"c680977c-874b-4ccc-a4b8-2209f40f04f2","system_id":"levelo_inurba_marseille","lat":43.28702,"lon":5.39977,"is_reserved":false,"is_disabled":false,"rental_uris":{"android":"levelo://app?vid=c680977c-874b-4ccc-a4b8-2209f40f04f2","ios":"levelo://app?vid=c680977c-874b-4ccc-a4b8-2209f40f04f2"},"vehicle_type_id":"4","last_reported":1777474883,"current_range_meters":7200,"station_id":"ce4bho92rcd13ifvqh3g","pricing_plan_id":"cebpf4jnsgd1na2vs0mg"},{"bike_id":"970326aa-7575-403c-a198-16a1ca0a0493","system_id":"levelo_inurba_marseille","lat":43.28455,"lon":5.35885,"is_reserved":false,"is_disabled":false,"rental_uris":{"android":"levelo://app?vid=970326aa-7575-403c-a198-16a1ca0a0493","ios":"levelo://app?vid=970326aa-7575-403c-a198-16a1ca0a0493"},"vehicle_type_id":"4","last_reported":1777474883,"current_range_meters":7200,"station_id":"ce4bhah2rcd13ifvqei0","pricing_plan_id":"cebpf4jnsgd1na2vs0mg"},{"bike_id":"decce838-7070-4273-908c-7711e1a28aac","system_id":"levelo_inurba_marseille","lat":43.30545,"lon":5.3671,"is_reserved":false,"is_disabled":false,"rental_uris":{"android":"levelo://app?vid=decce838-7070-4273-908c-7711e1a28aac","ios":"levelo://app?vid=decce838-7070-4273-908c-7711e1a28aac"},"vehicle_type_id":"4","last_reported":1777474883,"current_range_meters":7200,"station_id":"ce4bgrp2rcd13ifvqc9g","pricing_plan_id":"cebpf4jnsgd1na2vs0mg"},{"bike_id":"fb48eb95-a721-45e3-a917-4c0e5102e02d","system_id":"levelo_inurba_marseille","lat":43.23243,"lon":5.35576,"is_reserved":false,"is_disabled":false,"rental_uris":{"android":"levelo://app?vid=fb48eb95-a721-45e3-a917-4c0e5102e02d","ios":"levelo://app?vid=fb48eb95-a721-45e3-a917-4c0e5102e02d"},"vehicle_type_id":"4","last_reported":1777474883,"current_range_meters":7200,"station_id":"","pricing_plan_id":"cebpf4jnsgd1na2vs0mg"},{"bike_id":"b5592bc3-7c5d-4ba9-b1ae-b173928aef8c","system_id":"levelo_inurba_marseille","lat":43.28479,"lon":5.48388,"is_reserved":false,"is_disabled":false,"rental_uris":{"android":"levelo://app?vid=b5592bc3-7c5d-4ba9-b1ae-b173928aef8c","ios":"levelo://app?vid=b5592bc3-7c5d-4ba9-b1ae-b173928aef8c"},"vehicle_type_id":"4","last_reported":1777474883,"current_range_meters":8000,"station_id":"","pricing_plan_id":"cebpf4jnsgd1na2vs0mg"},{"bike_id":"b4a497ea-222e-419c-a826-4feb72e6ade8","system_id":"levelo_inurba_marseille","lat":43.28695,"lon":5.46693,"is_reserved":false,"is_disabled":false,"rental_uris":{"android":"levelo://app?vid=b4a497ea-222e-419c-a826-4feb72e6ade8","ios":"levelo://app?vid=b4a497ea-222e-419c-a826-4feb72e6ade8"},"vehicle_type_id":"4","last_reported":1777474883,"current_range_meters":8000,"station_id":"st_d6tc3vkotcvc738tfjhg","pricing_plan_id":"cebpf4jnsgd1na2vs0mg"},{"bike_id":"c62dd68e-1420-4f1f-9f98-ec3aebe502eb","system_id":"levelo_inurba_marseille","lat":43.31823,"lon":5.38502,"is_reserved":false,"is_disabled":false,"rental_uris":{"android":"levelo://app?vid=c62dd68e-1420-4f1f-9f98-ec3aebe502eb","ios":"levelo://app?vid=c62dd68e-1420-4f1f-9f98-ec3aebe502eb"},"vehicle_type_id":"4","last_reported":1777474883,"current_range_meters":8000,"station_id":"","pricing_plan_id":"cebpf4jnsgd1na2vs0mg"},{"bike_id":"d2ff302a-3be9-42b6-9eb6-2d6a779ca762","system_id":"levelo_inurba_marseille","lat":43.31286,"lon":5.36804,"is_reserved":false,"is_disabled":false,"rental_uris":{"android":"levelo://app?vid=d2ff302a-3be9-42b6-9eb6-2d6a779ca762","ios":"levelo://app?vid=d2ff302a-3be9-42b6-9eb6-2d6a779ca762"},"vehicle_type_id":"4","last_reported":1777474883,"current_range_meters":8000,"station_id":"","pricing_plan_id":"cebpf4jnsgd1na2vs0mg"},{"bike_id":"8c2ebc41-7bef-4c6d-91ac-124371586248","system_id":"levelo_inurba_marseille","lat":43.25567,"lon":5.38245,"is_reserved":false,"is_disabled":false,"rental_uris":{"android":"levelo://app?vid=8c2ebc41-7bef-4c6d-91ac-124371586248","ios":"levelo://app?vid=8c2ebc41-7bef-4c6d-91ac-124371586248"},"vehicle_type_id":"4","last_reported":1777474883,"current_range_meters":8000,"station_id":"ce4bhih2rcd13ifvqfs0","pricing_plan_id":"cebpf4jnsgd1na2vs0mg"},{"bike_id":"a8725ac2-9ac9-4bb1-b76b-eda7dfc664e2","system_id":"levelo_inurba_marseille","lat":43.31217,"lon":5.36797,"is_reserved":false,"is_disabled":false,"rental_uris":{"android":"levelo://app?vid=a8725ac2-9ac9-4bb1-b76b-eda7dfc664e2","ios":"levelo://app?vid=a8725ac2-9ac9-4bb1-b76b-eda7dfc664e2"},"vehicle_type_id":"4","last_reported":1777474883,"current_range_meters":8000,"station_id":"ce4bgl92rcd13ifvqbq0","pricing_plan_id":"cebpf4jnsgd1na2vs0mg"},{"bike_id":"c393576f-dc7e-40b1-876f-3c25a664dd5f","system_id":"levelo_inurba_marseille","lat":43.32086,"lon":5.36827,"is_reserved":false,"is_disabled":false,"rental_uris":{"android":"levelo://app?vid=c393576f-dc7e-40b1-876f-3c25a664dd5f","ios":"levelo://app?vid=c393576f-dc7e-40b1-876f-3c25a664dd5f"},"vehicle_type_id":"4","last_reported":1777474883,"current_range_meters":8000,"station_id":"ce4bhrh2rcd13ifvqhug","pricing_plan_id":"cebpf4jnsgd1na2vs0mg"},{"bike_id":"a496669f-42ea-4ec8-b909-b71bb128370f","system_id":"levelo_inurba_marseille","lat":43.33538,"lon":5.3747,"is_reserved":false,"is_disabled":false,"rental_uris":{"android":"levelo://app?vid=a496669f-42ea-4ec8-b909-b71bb128370f","ios":"levelo://app?vid=a496669f-42ea-4ec8-b909-b71bb128370f"},"vehicle_type_id":"4","last_reported":1777474883,"current_range_meters":8000,"station_id":"st_d46tts09ee8s73dlu43g","pricing_plan_id":"cebpf4jnsgd1na2vs0mg"},{"bike_id":"cd735691-a8cf-469c-b880-28ec2dcf0dc2","system_id":"levelo_inurba_marseille","lat":43.33548,"lon":5.37465,"is_reserved":false,"is_disabled":false,"rental_uris":{"android":"levelo://app?vid=cd735691-a8cf-469c-b880-28ec2dcf0dc2","ios":"levelo://app?vid=cd735691-a8cf-469c-b880-28ec2dcf0dc2"},"vehicle_type_id":"4","last_reported":1777474883,"current_range_meters":8000,"station_id":"st_d46tts09ee8s73dlu43g","pricing_plan_id":"cebpf4jnsgd1na2vs0mg"},{"bike_id":"a976bab9-60ff-475f-91a5-52d76e1df385","system_id":"levelo_inurba_marseille","lat":43.27971,"lon":5.38738,"is_reserved":false,"is_disabled":false,"rental_uris":{"android":"levelo://app?vid=a976bab9-60ff-475f-91a5-52d76e1df385","ios":"levelo://app?vid=a976bab9-60ff-475f-91a5-52d76e1df385"},"vehicle_type_id":"4","last_reported":1777474883,"current_range_meters":8000,"station_id":"ce4bhg12rcd13ifvqf80","pricing_plan_id":"cebpf4jnsgd1na2vs0mg"},{"bike_id":"07919e2d-9a9f-4079-9fd2-ae993e85b930","system_id":"levelo_inurba_marseille","lat":43.21196,"lon":5.35068,"is_reserved":false,"is_disabled":false,"rental_uris":{"android":"levelo://app?vid=07919e2d-9a9f-4079-9fd2-ae993e85b930","ios":"levelo://app?vid=07919e2d-9a9f-4079-9fd2-ae993e85b930"},"vehicle_type_id":"4","last_reported":1777474883,"current_range_meters":8000,"station_id":"st_cvj6sg6p6f1abm77japg","pricing_plan_id":"cebpf4jnsgd1na2vs0mg"},{"bike_id":"14015fc9-b839-4138-b4d5-9a2f5afbe521","system_id":"levelo_inurba_marseille","lat":43.27292,"lon":5.42321,"is_reserved":false,"is_disabled":false,"rental_uris":{"android":"levelo://app?vid=14015fc9-b839-4138-b4d5-9a2f5afbe521","ios":"levelo://app?vid=14015fc9-b839-4138-b4d5-9a2f5afbe521"},"vehicle_type_id":"4","last_reported":1777474883,"current_range_meters":8000,"station_id":"","pricing_plan_id":"cebpf4jnsgd1na2vs0mg"},{"bike_id":"b91f4f99-7987-40ea-afbb-1e1af65ec675","system_id":"levelo_inurba_marseille","lat":43.29435,"lon":5.40919,"is_reserved":false,"is_disabled":false,"rental_uris":{"android":"levelo://app?vid=b91f4f99-7987-40ea-afbb-1e1af65ec675","ios":"levelo://app?vid=b91f4f99-7987-40ea-afbb-1e1af65ec675"},"vehicle_type_id":"4","last_reported":1777474883,"current_range_meters":8000,"station_id":"","pricing_plan_id":"cebpf4jnsgd1na2vs0mg"},{"bike_id":"196939d7-8120-4fa4-8a8f-be34c3561853","system_id":"levelo_inurba_marseille","lat":43.31877,"lon":5.36786,"is_reserved":false,"is_disabled":false,"rental_uris":{"android":"levelo://app?vid=196939d7-8120-4fa4-8a8f-be34c3561853","ios":"levelo://app?vid=196939d7-8120-4fa4-8a8f-be34c3561853"},"vehicle_type_id":"4","last_reported":1777474883,"current_range_meters":8000,"station_id":"st_d6o2h0d0559c73evc1b0","pricing_plan_id":"cebpf4jnsgd1na2vs0mg"},{"bike_id":"09d80345-7b60-4ab5-b9de-971ef1410e05","system_id":"levelo_inurba_marseille","lat":43.26189,"lon":5.37923,"is_reserved":false,"is_disabled":false,"rental_uris":{"android":"levelo://app?vid=09d80345-7b60-4ab5-b9de-971ef1410e05","ios":"levelo://app?vid=09d80345-7b60-4ab5-b9de-971ef1410e05"},"vehicle_type_id":"4","last_reported":1777474883,"current_range_meters":8000,"station_id":"ce4bhjp2rcd13ifvqg90","pricing_plan_id":"cebpf4jnsgd1na2vs0mg"},{"bike_id":"3eac3cf1-03ba-4291-bf60-ebf4d12f1752","system_id":"levelo_inurba_marseille","lat":43.31329,"lon":5.39698,"is_reserved":false,"is_disabled":false,"rental_uris":{"android":"levelo://app?vid=3eac3cf1-03ba-4291-bf60-ebf4d12f1752","ios":"levelo://app?vid=3eac3cf1-03ba-4291-bf60-ebf4d12f1752"},"vehicle_type_id":"4","last_reported":1777474883,"current_range_meters":8000,"station_id":"ce4bgvp2rcd13ifvqcu0","pricing_plan_id":"cebpf4jnsgd1na2vs0mg"},{"bike_id":"36243a2a-860e-4e84-8566-0d2f400032e6","system_id":"levelo_inurba_marseille","lat":43.2316,"lon":5.43705,"is_reserved":false,"is_disabled":false,"rental_uris":{"android":"levelo://app?vid=36243a2a-860e-4e84-8566-0d2f400032e6","ios":"levelo://app?vid=36243a2a-860e-4e84-8566-0d2f400032e6"},"vehicle_type_id":"4","last_reported":1777474883,"current_range_meters":8000,"station_id":"ce4bhmp2rcd13ifvqgog","pricing_plan_id":"cebpf4jnsgd1na2vs0mg"},{"bike_id":"7b0e36cc-15c0-4be5-9741-8aaeeeb3137a","system_id":"levelo_inurba_marseille","lat":43.27618,"lon":5.36109,"is_reserved":false,"is_disabled":false,"rental_uris":{"android":"levelo://app?vid=7b0e36cc-15c0-4be5-9741-8aaeeeb3137a","ios":"levelo://app?vid=7b0e36cc-15c0-4be5-9741-8aaeeeb3137a"},"vehicle_type_id":"4","last_reported":1777474883,"current_range_meters":8000,"station_id":"ce4bgj92rcd13ifvqbe0","pricing_plan_id":"cebpf4jnsgd1na2vs0mg"},{"bike_id":"4593d77b-c465-43f3-b7aa-4d489b26bf6e","system_id":"levelo_inurba_marseille","lat":43.2887,"lon":5.42522,"is_reserved":false,"is_disabled":false,"rental_uris":{"android":"levelo://app?vid=4593d77b-c465-43f3-b7aa-4d489b26bf6e","ios":"levelo://app?vid=4593d77b-c465-43f3-b7aa-4d489b26bf6e"},"vehicle_type_id":"4","last_reported":1777474883,"current_range_meters":8000,"station_id":"st_d3b462108ojc7389ooeg","pricing_plan_id":"cebpf4jnsgd1na2vs0mg"},{"bike_id":"388e5ddc-3963-4adf-8ea9-877567249f5b","system_id":"levelo_inurba_marseille","lat":43.28345,"lon":5.38113,"is_reserved":false,"is_disabled":false,"rental_uris":{"android":"levelo://app?vid=388e5ddc-3963-4adf-8ea9-877567249f5b","ios":"levelo://app?vid=388e5ddc-3963-4adf-8ea9-877567249f5b"},"vehicle_type_id":"4","last_reported":1777474883,"current_range_meters":8400,"station_id":"ce4bh412rcd13ifvqdr0","pricing_plan_id":"cebpf4jnsgd1na2vs0mg"},{"bike_id":"75a259a4-00b3-450b-893b-c98bda253d97","system_id":"levelo_inurba_marseille","lat":43.31369,"lon":5.36686,"is_reserved":false,"is_disabled":false,"rental_uris":{"android":"levelo://app?vid=75a259a4-00b3-450b-893b-c98bda253d97","ios":"levelo://app?vid=75a259a4-00b3-450b-893b-c98bda253d97"},"vehicle_type_id":"4","last_reported":1777474883,"current_range_meters":8400,"station_id":"ce4bgr92rcd13ifvqc6g","pricing_plan_id":"cebpf4jnsgd1na2vs0mg"},{"bike_id":"e0d46e43-4e0c-4db4-a5b2-c14177e6e14e","system_id":"levelo_inurba_marseille","lat":43.30037,"lon":5.37012,"is_reserved":false,"is_disabled":false,"rental_uris":{"android":"levelo://app?vid=e0d46e43-4e0c-4db4-a5b2-c14177e6e14e","ios":"levelo://app?vid=e0d46e43-4e0c-4db4-a5b2-c14177e6e14e"},"vehicle_type_id":"4","last_reported":1777474883,"current_range_meters":8400,"station_id":"","pricing_plan_id":"cebpf4jnsgd1na2vs0mg"},{"bike_id":"03e7747b-410e-4790-bfab-d3e7d5300576","system_id":"levelo_inurba_marseille","lat":43.23899,"lon":5.37449,"is_reserved":false,"is_disabled":false,"rental_uris":{"android":"levelo://app?vid=03e7747b-410e-4790-bfab-d3e7d5300576","ios":"levelo://app?vid=03e7747b-410e-4790-bfab-d3e7d5300576"},"vehicle_type_id":"4","last_reported":1777474883,"current_range_meters":8400,"station_id":"st_d6sm7csbq4hs73f8fpjg","pricing_plan_id":"cebpf4jnsgd1na2vs0mg"},{"bike_id":"acc57406-75de-43a2-a6ec-d941193f0be0","system_id":"levelo_inurba_marseille","lat":43.32354,"lon":5.36738,"is_reserved":false,"is_disabled":false,"rental_uris":{"android":"levelo://app?vid=acc57406-75de-43a2-a6ec-d941193f0be0","ios":"levelo://app?vid=acc57406-75de-43a2-a6ec-d941193f0be0"},"vehicle_type_id":"4","last_reported":1777474883,"current_range_meters":8400,"station_id":"ce4bhsh2rcd13ifvqi2g","pricing_plan_id":"cebpf4jnsgd1na2vs0mg"},{"bike_id":"415c3cd0-0758-4107-9b7b-81f4e056eadb","system_id":"levelo_inurba_marseille","lat":43.25116,"lon":5.40325,"is_reserved":false,"is_disabled":false,"rental_uris":{"android":"levelo://app?vid=415c3cd0-0758-4107-9b7b-81f4e056eadb","ios":"levelo://app?vid=415c3cd0-0758-4107-9b7b-81f4e056eadb"},"vehicle_type_id":"4","last_reported":1777474883,"current_range_meters":8400,"station_id":"ce4bhlh2rcd13ifvqgig","pricing_plan_id":"cebpf4jnsgd1na2vs0mg"},{"bike_id":"1e36f91e-06df-410a-bf66-60717c77c721","system_id":"levelo_inurba_marseille","lat":43.24208,"lon":5.39683,"is_reserved":false,"is_disabled":false,"rental_uris":{"android":"levelo://app?vid=1e36f91e-06df-410a-bf66-60717c77c721","ios":"levelo://app?vid=1e36f91e-06df-410a-bf66-60717c77c721"},"vehicle_type_id":"4","last_reported":1777474883,"current_range_meters":8400,"station_id":"ce4bhn12rcd13ifvqgpg","pricing_plan_id":"cebpf4jnsgd1na2vs0mg"},{"bike_id":"9695e9d8-f753-4464-bfd5-dc9d5894f76f","system_id":"levelo_inurba_marseille","lat":43.28988,"lon":5.37813,"is_reserved":false,"is_disabled":false,"rental_uris":{"android":"levelo://app?vid=9695e9d8-f753-4464-bfd5-dc9d5894f76f","ios":"levelo://app?vid=9695e9d8-f753-4464-bfd5-dc9d5894f76f"},"vehicle_type_id":"4","last_reported":1777474883,"current_range_meters":8400,"station_id":"ce4bh9p2rcd13ifvqed0","pricing_plan_id":"cebpf4jnsgd1na2vs0mg"},{"bike_id":"b2d9f173-ebdf-4637-9547-ff1124c7519b","system_id":"levelo_inurba_marseille","lat":43.31147,"lon":5.37254,"is_reserved":false,"is_disabled":false,"rental_uris":{"android":"levelo://app?vid=b2d9f173-ebdf-4637-9547-ff1124c7519b","ios":"levelo://app?vid=b2d9f173-ebdf-4637-9547-ff1124c7519b"},"vehicle_type_id":"4","last_reported":1777474883,"current_range_meters":8400,"station_id":"","pricing_plan_id":"cebpf4jnsgd1na2vs0mg"},{"bike_id":"61325e26-5a2a-477a-871d-d75d9ba7f7a0","system_id":"levelo_inurba_marseille","lat":43.30515,"lon":5.36702,"is_reserved":false,"is_disabled":false,"rental_uris":{"android":"levelo://app?vid=61325e26-5a2a-477a-871d-d75d9ba7f7a0","ios":"levelo://app?vid=61325e26-5a2a-477a-871d-d75d9ba7f7a0"},"vehicle_type_id":"4","last_reported":1777474883,"current_range_meters":8400,"station_id":"ce4bgrp2rcd13ifvqc9g","pricing_plan_id":"cebpf4jnsgd1na2vs0mg"},{"bike_id":"fbc8593b-f682-4d42-86e3-15bd51115876","system_id":"levelo_inurba_marseille","lat":43.23204,"lon":5.35555,"is_reserved":false,"is_disabled":false,"rental_uris":{"android":"levelo://app?vid=fbc8593b-f682-4d42-86e3-15bd51115876","ios":"levelo://app?vid=fbc8593b-f682-4d42-86e3-15bd51115876"},"vehicle_type_id":"4","last_reported":1777474883,"current_range_meters":8400,"station_id":"ce4bhu92rcd13ifvqi70","pricing_plan_id":"cebpf4jnsgd1na2vs0mg"},{"bike_id":"3947cf35-0e60-4923-b84a-18c3c4341621","system_id":"levelo_inurba_marseille","lat":43.26589,"lon":5.37238,"is_reserved":false,"is_disabled":false,"rental_uris":{"android":"levelo://app?vid=3947cf35-0e60-4923-b84a-18c3c4341621","ios":"levelo://app?vid=3947cf35-0e60-4923-b84a-18c3c4341621"},"vehicle_type_id":"4","last_reported":1777474883,"current_range_meters":8400,"station_id":"ce4bhg12rcd13ifvqf70","pricing_plan_id":"cebpf4jnsgd1na2vs0mg"},{"bike_id":"93b13b9e-0842-4649-88de-644dbf6c103a","system_id":"levelo_inurba_marseille","lat":43.26467,"lon":5.4204,"is_reserved":false,"is_disabled":false,"rental_uris":{"android":"levelo://app?vid=93b13b9e-0842-4649-88de-644dbf6c103a","ios":"levelo://app?vid=93b13b9e-0842-4649-88de-644dbf6c103a"},"vehicle_type_id":"4","last_reported":1777474883,"current_range_meters":8800,"station_id":"","pricing_plan_id":"cebpf4jnsgd1na2vs0mg"},{"bike_id":"2c6e488e-5f57-41b5-a027-d13b49a7c8eb","system_id":"levelo_inurba_marseille","lat":43.29908,"lon":5.43704,"is_reserved":false,"is_disabled":false,"rental_uris":{"android":"levelo://app?vid=2c6e488e-5f57-41b5-a027-d13b49a7c8eb","ios":"levelo://app?vid=2c6e488e-5f57-41b5-a027-d13b49a7c8eb"},"vehicle_type_id":"4","last_reported":1777474883,"current_range_meters":8800,"station_id":"","pricing_plan_id":"cebpf4jnsgd1na2vs0mg"},{"bike_id":"0438d68d-b4c6-4b23-a7e1-82657231ebe9","system_id":"levelo_inurba_marseille","lat":43.2849,"lon":5.48381,"is_reserved":false,"is_disabled":false,"rental_uris":{"android":"levelo://app?vid=0438d68d-b4c6-4b23-a7e1-82657231ebe9","ios":"levelo://app?vid=0438d68d-b4c6-4b23-a7e1-82657231ebe9"},"vehicle_type_id":"4","last_reported":1777474883,"current_range_meters":8800,"station_id":"","pricing_plan_id":"cebpf4jnsgd1na2vs0mg"},{"bike_id":"b972322e-c9a3-4217-bfe4-1d4403581a42","system_id":"levelo_inurba_marseille","lat":43.28609,"lon":5.3511,"is_reserved":false,"is_disabled":false,"rental_uris":{"android":"levelo://app?vid=b972322e-c9a3-4217-bfe4-1d4403581a42","ios":"levelo://app?vid=b972322e-c9a3-4217-bfe4-1d4403581a42"},"vehicle_type_id":"4","last_reported":1777474883,"current_range_meters":8800,"station_id":"ce4bhch2rcd13ifvqeug","pricing_plan_id":"cebpf4jnsgd1na2vs0mg"},{"bike_id":"262fc285-b6eb-4eda-9ac1-639b6caaacc5","system_id":"levelo_inurba_marseille","lat":43.32374,"lon":5.36732,"is_reserved":false,"is_disabled":false,"rental_uris":{"android":"levelo://app?vid=262fc285-b6eb-4eda-9ac1-639b6caaacc5","ios":"levelo://app?vid=262fc285-b6eb-4eda-9ac1-639b6caaacc5"},"vehicle_type_id":"4","last_reported":1777474883,"current_range_meters":8800,"station_id":"ce4bhsh2rcd13ifvqi2g","pricing_plan_id":"cebpf4jnsgd1na2vs0mg"},{"bike_id":"603df54c-d359-4e00-8712-7158e41daceb","system_id":"levelo_inurba_marseille","lat":43.31219,"lon":5.36823,"is_reserved":false,"is_disabled":false,"rental_uris":{"android":"levelo://app?vid=603df54c-d359-4e00-8712-7158e41daceb","ios":"levelo://app?vid=603df54c-d359-4e00-8712-7158e41daceb"},"vehicle_type_id":"4","last_reported":1777474883,"current_range_meters":8800,"station_id":"ce4bgl92rcd13ifvqbq0","pricing_plan_id":"cebpf4jnsgd1na2vs0mg"},{"bike_id":"20c418db-2f1d-4a9c-9013-660ef304788e","system_id":"levelo_inurba_marseille","lat":43.32366,"lon":5.3675,"is_reserved":false,"is_disabled":false,"rental_uris":{"android":"levelo://app?vid=20c418db-2f1d-4a9c-9013-660ef304788e","ios":"levelo://app?vid=20c418db-2f1d-4a9c-9013-660ef304788e"},"vehicle_type_id":"4","last_reported":1777474883,"current_range_meters":8800,"station_id":"ce4bhsh2rcd13ifvqi2g","pricing_plan_id":"cebpf4jnsgd1na2vs0mg"},{"bike_id":"8ba8221d-6e1f-45ae-8b6b-2dc3bf2a06e9","system_id":"levelo_inurba_marseille","lat":43.27176,"lon":5.40993,"is_reserved":false,"is_disabled":false,"rental_uris":{"android":"levelo://app?vid=8ba8221d-6e1f-45ae-8b6b-2dc3bf2a06e9","ios":"levelo://app?vid=8ba8221d-6e1f-45ae-8b6b-2dc3bf2a06e9"},"vehicle_type_id":"4","last_reported":1777474883,"current_range_meters":8800,"station_id":"ce4bhl12rcd13ifvqgf0","pricing_plan_id":"cebpf4jnsgd1na2vs0mg"},{"bike_id":"1f4840f2-d2e7-4479-9063-bb85297b028f","system_id":"levelo_inurba_marseille","lat":43.29308,"lon":5.37464,"is_reserved":false,"is_disabled":false,"rental_uris":{"android":"levelo://app?vid=1f4840f2-d2e7-4479-9063-bb85297b028f","ios":"levelo://app?vid=1f4840f2-d2e7-4479-9063-bb85297b028f"},"vehicle_type_id":"4","last_reported":1777474883,"current_range_meters":8800,"station_id":"ce4bgi12rcd13ifvqb70","pricing_plan_id":"cebpf4jnsgd1na2vs0mg"},{"bike_id":"1d6d59ce-b99b-4c93-9eb0-a893b79f8432","system_id":"levelo_inurba_marseille","lat":43.31272,"lon":5.3674,"is_reserved":false,"is_disabled":false,"rental_uris":{"android":"levelo://app?vid=1d6d59ce-b99b-4c93-9eb0-a893b79f8432","ios":"levelo://app?vid=1d6d59ce-b99b-4c93-9eb0-a893b79f8432"},"vehicle_type_id":"4","last_reported":1777474883,"current_range_meters":8800,"station_id":"ce4bgr92rcd13ifvqc6g","pricing_plan_id":"cebpf4jnsgd1na2vs0mg"},{"bike_id":"907b975e-fb54-4198-ad71-0a6fda3075d0","system_id":"levelo_inurba_marseille","lat":43.29866,"lon":5.3974,"is_reserved":false,"is_disabled":true,"rental_uris":{"android":"levelo://app?vid=907b975e-fb54-4198-ad71-0a6fda3075d0","ios":"levelo://app?vid=907b975e-fb54-4198-ad71-0a6fda3075d0"},"vehicle_type_id":"4","last_reported":1777474883,"current_range_meters":8800,"station_id":"ce4bh0h2rcd13ifvqd50","pricing_plan_id":"cebpf4jnsgd1na2vs0mg"},{"bike_id":"557fb6c8-fcd1-4be6-b4e8-a9d8ed965ac6","system_id":"levelo_inurba_marseille","lat":43.27061,"lon":5.38312,"is_reserved":false,"is_disabled":false,"rental_uris":{"android":"levelo://app?vid=557fb6c8-fcd1-4be6-b4e8-a9d8ed965ac6","ios":"levelo://app?vid=557fb6c8-fcd1-4be6-b4e8-a9d8ed965ac6"},"vehicle_type_id":"4","last_reported":1777474883,"current_range_meters":8800,"station_id":"st_d3n2fo6cfp8s73cte1j0","pricing_plan_id":"cebpf4jnsgd1na2vs0mg"},{"bike_id":"d534437a-0776-4562-ad3f-29eb1cee7bf6","system_id":"levelo_inurba_marseille","lat":43.28848,"lon":5.35853,"is_reserved":false,"is_disabled":false,"rental_uris":{"android":"levelo://app?vid=d534437a-0776-4562-ad3f-29eb1cee7bf6","ios":"levelo://app?vid=d534437a-0776-4562-ad3f-29eb1cee7bf6"},"vehicle_type_id":"4","last_reported":1777474883,"current_range_meters":8800,"station_id":"ce4bhb12rcd13ifvqem0","pricing_plan_id":"cebpf4jnsgd1na2vs0mg"},{"bike_id":"26335112-9b2a-4a27-9ec1-b93b9cc755ad","system_id":"levelo_inurba_marseille","lat":43.30862,"lon":5.41902,"is_reserved":false,"is_disabled":false,"rental_uris":{"android":"levelo://app?vid=26335112-9b2a-4a27-9ec1-b93b9cc755ad","ios":"levelo://app?vid=26335112-9b2a-4a27-9ec1-b93b9cc755ad"},"vehicle_type_id":"4","last_reported":1777474883,"current_range_meters":8800,"station_id":"","pricing_plan_id":"cebpf4jnsgd1na2vs0mg"},{"bike_id":"e4cc0a46-9d86-4acf-86cf-b94bbc118243","system_id":"levelo_inurba_marseille","lat":43.29796,"lon":5.38086,"is_reserved":false,"is_disabled":false,"rental_uris":{"android":"levelo://app?vid=e4cc0a46-9d86-4acf-86cf-b94bbc118243","ios":"levelo://app?vid=e4cc0a46-9d86-4acf-86cf-b94bbc118243"},"vehicle_type_id":"4","last_reported":1777474883,"current_range_meters":8800,"station_id":"ce4bgip2rcd13ifvqbb0","pricing_plan_id":"cebpf4jnsgd1na2vs0mg"},{"bike_id":"a13cf09e-4dc6-4122-934a-08e5a4ad06bd","system_id":"levelo_inurba_marseille","lat":43.26537,"lon":5.37242,"is_reserved":false,"is_disabled":true,"rental_uris":{"android":"levelo://app?vid=a13cf09e-4dc6-4122-934a-08e5a4ad06bd","ios":"levelo://app?vid=a13cf09e-4dc6-4122-934a-08e5a4ad06bd"},"vehicle_type_id":"4","last_reported":1777474883,"current_range_meters":8800,"station_id":"ce4bhg12rcd13ifvqf70","pricing_plan_id":"cebpf4jnsgd1na2vs0mg"},{"bike_id":"de86e739-b5ab-498a-9711-e575cf802efa","system_id":"levelo_inurba_marseille","lat":43.27376,"lon":5.36239,"is_reserved":false,"is_disabled":false,"rental_uris":{"android":"levelo://app?vid=de86e739-b5ab-498a-9711-e575cf802efa","ios":"levelo://app?vid=de86e739-b5ab-498a-9711-e575cf802efa"},"vehicle_type_id":"4","last_reported":1777474883,"current_range_meters":8800,"station_id":"ce4bhbh2rcd13ifvqeo0","pricing_plan_id":"cebpf4jnsgd1na2vs0mg"},{"bike_id":"8829f460-aa5f-4233-9846-cd6731fc4acd","system_id":"levelo_inurba_marseille","lat":43.26983,"lon":5.40434,"is_reserved":false,"is_disabled":false,"rental_uris":{"android":"levelo://app?vid=8829f460-aa5f-4233-9846-cd6731fc4acd","ios":"levelo://app?vid=8829f460-aa5f-4233-9846-cd6731fc4acd"},"vehicle_type_id":"4","last_reported":1777474883,"current_range_meters":9200,"station_id":"","pricing_plan_id":"cebpf4jnsgd1na2vs0mg"},{"bike_id":"82a8043e-804e-4dc9-b426-b4d299449f67","system_id":"levelo_inurba_marseille","lat":43.31061,"lon":5.37181,"is_reserved":false,"is_disabled":false,"rental_uris":{"android":"levelo://app?vid=82a8043e-804e-4dc9-b426-b4d299449f67","ios":"levelo://app?vid=82a8043e-804e-4dc9-b426-b4d299449f67"},"vehicle_type_id":"4","last_reported":1777474883,"current_range_meters":9200,"station_id":"st_d4kl2rp97mjs73e7tdfg","pricing_plan_id":"cebpf4jnsgd1na2vs0mg"},{"bike_id":"0d8436db-b82f-4cd5-b83d-d7b555b67dd1","system_id":"levelo_inurba_marseille","lat":43.30932,"lon":5.40158,"is_reserved":false,"is_disabled":false,"rental_uris":{"android":"levelo://app?vid=0d8436db-b82f-4cd5-b83d-d7b555b67dd1","ios":"levelo://app?vid=0d8436db-b82f-4cd5-b83d-d7b555b67dd1"},"vehicle_type_id":"4","last_reported":1777474883,"current_range_meters":9200,"station_id":"ce4bgvp2rcd13ifvqct0","pricing_plan_id":"cebpf4jnsgd1na2vs0mg"},{"bike_id":"68c6b592-a3e9-4f1f-8f05-7a72a86a9f78","system_id":"levelo_inurba_marseille","lat":43.31049,"lon":5.37177,"is_reserved":false,"is_disabled":false,"rental_uris":{"android":"levelo://app?vid=68c6b592-a3e9-4f1f-8f05-7a72a86a9f78","ios":"levelo://app?vid=68c6b592-a3e9-4f1f-8f05-7a72a86a9f78"},"vehicle_type_id":"4","last_reported":1777474883,"current_range_meters":9200,"station_id":"st_d4kl2rp97mjs73e7tdfg","pricing_plan_id":"cebpf4jnsgd1na2vs0mg"},{"bike_id":"5eab11cc-0f53-4730-bb4b-083d658ed3f2","system_id":"levelo_inurba_marseille","lat":43.31364,"lon":5.36705,"is_reserved":false,"is_disabled":false,"rental_uris":{"android":"levelo://app?vid=5eab11cc-0f53-4730-bb4b-083d658ed3f2","ios":"levelo://app?vid=5eab11cc-0f53-4730-bb4b-083d658ed3f2"},"vehicle_type_id":"4","last_reported":1777474883,"current_range_meters":9200,"station_id":"ce4bgr92rcd13ifvqc6g","pricing_plan_id":"cebpf4jnsgd1na2vs0mg"},{"bike_id":"0c295e06-6b52-49bd-872b-3d4b470e3687","system_id":"levelo_inurba_marseille","lat":43.26553,"lon":5.37287,"is_reserved":false,"is_disabled":false,"rental_uris":{"android":"levelo://app?vid=0c295e06-6b52-49bd-872b-3d4b470e3687","ios":"levelo://app?vid=0c295e06-6b52-49bd-872b-3d4b470e3687"},"vehicle_type_id":"4","last_reported":1777474883,"current_range_meters":9200,"station_id":"ce4bhg12rcd13ifvqf70","pricing_plan_id":"cebpf4jnsgd1na2vs0mg"},{"bike_id":"565a8ac0-2b20-423c-a683-e409c051d1eb","system_id":"levelo_inurba_marseille","lat":43.3123,"lon":5.36858,"is_reserved":false,"is_disabled":false,"rental_uris":{"android":"levelo://app?vid=565a8ac0-2b20-423c-a683-e409c051d1eb","ios":"levelo://app?vid=565a8ac0-2b20-423c-a683-e409c051d1eb"},"vehicle_type_id":"4","last_reported":1777474883,"current_range_meters":9200,"station_id":"ce4bgl92rcd13ifvqbq0","pricing_plan_id":"cebpf4jnsgd1na2vs0mg"},{"bike_id":"21d95eb3-e7a7-42da-89cd-8c34dd2eb598","system_id":"levelo_inurba_marseille","lat":43.26549,"lon":5.3731,"is_reserved":false,"is_disabled":false,"rental_uris":{"android":"levelo://app?vid=21d95eb3-e7a7-42da-89cd-8c34dd2eb598","ios":"levelo://app?vid=21d95eb3-e7a7-42da-89cd-8c34dd2eb598"},"vehicle_type_id":"4","last_reported":1777474883,"current_range_meters":9200,"station_id":"ce4bhg12rcd13ifvqf70","pricing_plan_id":"cebpf4jnsgd1na2vs0mg"},{"bike_id":"460abfc1-d1dc-415a-ba5d-89084a2a7ab3","system_id":"levelo_inurba_marseille","lat":43.27363,"lon":5.36252,"is_reserved":false,"is_disabled":false,"rental_uris":{"android":"levelo://app?vid=460abfc1-d1dc-415a-ba5d-89084a2a7ab3","ios":"levelo://app?vid=460abfc1-d1dc-415a-ba5d-89084a2a7ab3"},"vehicle_type_id":"4","last_reported":1777474883,"current_range_meters":9200,"station_id":"ce4bhbh2rcd13ifvqeo0","pricing_plan_id":"cebpf4jnsgd1na2vs0mg"},{"bike_id":"98808478-983a-4402-9a90-852631f8f036","system_id":"levelo_inurba_marseille","lat":43.27373,"lon":5.3625,"is_reserved":false,"is_disabled":false,"rental_uris":{"android":"levelo://app?vid=98808478-983a-4402-9a90-852631f8f036","ios":"levelo://app?vid=98808478-983a-4402-9a90-852631f8f036"},"vehicle_type_id":"4","last_reported":1777474883,"current_range_meters":9200,"station_id":"ce4bhbh2rcd13ifvqeo0","pricing_plan_id":"cebpf4jnsgd1na2vs0mg"},{"bike_id":"0db6615c-89ec-4c94-ba86-335817fd5695","system_id":"levelo_inurba_marseille","lat":43.30545,"lon":5.36717,"is_reserved":false,"is_disabled":false,"rental_uris":{"android":"levelo://app?vid=0db6615c-89ec-4c94-ba86-335817fd5695","ios":"levelo://app?vid=0db6615c-89ec-4c94-ba86-335817fd5695"},"vehicle_type_id":"4","last_reported":1777474883,"current_range_meters":9200,"station_id":"ce4bgrp2rcd13ifvqc9g","pricing_plan_id":"cebpf4jnsgd1na2vs0mg"},{"bike_id":"72e5bb5d-486f-4ca3-b871-8f1bc8ed5aa8","system_id":"levelo_inurba_marseille","lat":43.23156,"lon":5.43719,"is_reserved":false,"is_disabled":false,"rental_uris":{"android":"levelo://app?vid=72e5bb5d-486f-4ca3-b871-8f1bc8ed5aa8","ios":"levelo://app?vid=72e5bb5d-486f-4ca3-b871-8f1bc8ed5aa8"},"vehicle_type_id":"4","last_reported":1777474883,"current_range_meters":9200,"station_id":"ce4bhmp2rcd13ifvqgog","pricing_plan_id":"cebpf4jnsgd1na2vs0mg"},{"bike_id":"bf9b525b-6169-435d-b06d-d31fa4c2a776","system_id":"levelo_inurba_marseille","lat":43.24482,"lon":5.42505,"is_reserved":false,"is_disabled":false,"rental_uris":{"android":"levelo://app?vid=bf9b525b-6169-435d-b06d-d31fa4c2a776","ios":"levelo://app?vid=bf9b525b-6169-435d-b06d-d31fa4c2a776"},"vehicle_type_id":"4","last_reported":1777474883,"current_range_meters":9200,"station_id":"st_d4a3vfp97mjs738cd8kg","pricing_plan_id":"cebpf4jnsgd1na2vs0mg"},{"bike_id":"15f98953-0be0-4a8a-b966-558d4b3d64ce","system_id":"levelo_inurba_marseille","lat":43.29787,"lon":5.39343,"is_reserved":false,"is_disabled":false,"rental_uris":{"android":"levelo://app?vid=15f98953-0be0-4a8a-b966-558d4b3d64ce","ios":"levelo://app?vid=15f98953-0be0-4a8a-b966-558d4b3d64ce"},"vehicle_type_id":"4","last_reported":1777474883,"current_range_meters":9200,"station_id":"chh1huq6cuj3fo74tm60","pricing_plan_id":"cebpf4jnsgd1na2vs0mg"},{"bike_id":"045ac53c-c704-4749-9624-55c0fafcdea5","system_id":"levelo_inurba_marseille","lat":43.32049,"lon":5.41561,"is_reserved":false,"is_disabled":false,"rental_uris":{"android":"levelo://app?vid=045ac53c-c704-4749-9624-55c0fafcdea5","ios":"levelo://app?vid=045ac53c-c704-4749-9624-55c0fafcdea5"},"vehicle_type_id":"4","last_reported":1777474883,"current_range_meters":9200,"station_id":"ce4bhq92rcd13ifvqhkg","pricing_plan_id":"cebpf4jnsgd1na2vs0mg"},{"bike_id":"dd649e74-ed5e-4ce6-b6fc-191746436a7b","system_id":"levelo_inurba_marseille","lat":43.25086,"lon":5.4248,"is_reserved":false,"is_disabled":false,"rental_uris":{"android":"levelo://app?vid=dd649e74-ed5e-4ce6-b6fc-191746436a7b","ios":"levelo://app?vid=dd649e74-ed5e-4ce6-b6fc-191746436a7b"},"vehicle_type_id":"4","last_reported":1777474883,"current_range_meters":9200,"station_id":"","pricing_plan_id":"cebpf4jnsgd1na2vs0mg"},{"bike_id":"ab1ce7c8-58f0-4af7-9f03-ad38edefceb4","system_id":"levelo_inurba_marseille","lat":43.26555,"lon":5.37323,"is_reserved":false,"is_disabled":false,"rental_uris":{"android":"levelo://app?vid=ab1ce7c8-58f0-4af7-9f03-ad38edefceb4","ios":"levelo://app?vid=ab1ce7c8-58f0-4af7-9f03-ad38edefceb4"},"vehicle_type_id":"4","last_reported":1777474883,"current_range_meters":9200,"station_id":"ce4bhg12rcd13ifvqf70","pricing_plan_id":"cebpf4jnsgd1na2vs0mg"},{"bike_id":"e8fb42b6-070f-4cb3-8eb6-a284f41b4ca4","system_id":"levelo_inurba_marseille","lat":43.26039,"lon":5.37531,"is_reserved":false,"is_disabled":false,"rental_uris":{"android":"levelo://app?vid=e8fb42b6-070f-4cb3-8eb6-a284f41b4ca4","ios":"levelo://app?vid=e8fb42b6-070f-4cb3-8eb6-a284f41b4ca4"},"vehicle_type_id":"4","last_reported":1777474883,"current_range_meters":9600,"station_id":"ce4bhgh2rcd13ifvqfa0","pricing_plan_id":"cebpf4jnsgd1na2vs0mg"},{"bike_id":"dbc68ec3-8d86-4986-97d6-0afb8b01027b","system_id":"levelo_inurba_marseille","lat":43.30559,"lon":5.36523,"is_reserved":false,"is_disabled":false,"rental_uris":{"android":"levelo://app?vid=dbc68ec3-8d86-4986-97d6-0afb8b01027b","ios":"levelo://app?vid=dbc68ec3-8d86-4986-97d6-0afb8b01027b"},"vehicle_type_id":"4","last_reported":1777474883,"current_range_meters":9600,"station_id":"ce4bgs12rcd13ifvqcag","pricing_plan_id":"cebpf4jnsgd1na2vs0mg"},{"bike_id":"d97ed6ed-9254-4b2c-9752-a3aaf3378900","system_id":"levelo_inurba_marseille","lat":43.33555,"lon":5.37491,"is_reserved":false,"is_disabled":false,"rental_uris":{"android":"levelo://app?vid=d97ed6ed-9254-4b2c-9752-a3aaf3378900","ios":"levelo://app?vid=d97ed6ed-9254-4b2c-9752-a3aaf3378900"},"vehicle_type_id":"4","last_reported":1777474883,"current_range_meters":9600,"station_id":"st_d46tts09ee8s73dlu43g","pricing_plan_id":"cebpf4jnsgd1na2vs0mg"},{"bike_id":"67770120-bd85-4b15-af1e-f85ca14859f3","system_id":"levelo_inurba_marseille","lat":43.28871,"lon":5.42526,"is_reserved":false,"is_disabled":false,"rental_uris":{"android":"levelo://app?vid=67770120-bd85-4b15-af1e-f85ca14859f3","ios":"levelo://app?vid=67770120-bd85-4b15-af1e-f85ca14859f3"},"vehicle_type_id":"4","last_reported":1777474883,"current_range_meters":9600,"station_id":"st_d3b462108ojc7389ooeg","pricing_plan_id":"cebpf4jnsgd1na2vs0mg"},{"bike_id":"6004f203-06e3-407e-9893-7686eaa27bd3","system_id":"levelo_inurba_marseille","lat":43.28645,"lon":5.35627,"is_reserved":false,"is_disabled":false,"rental_uris":{"android":"levelo://app?vid=6004f203-06e3-407e-9893-7686eaa27bd3","ios":"levelo://app?vid=6004f203-06e3-407e-9893-7686eaa27bd3"},"vehicle_type_id":"4","last_reported":1777474883,"current_range_meters":9600,"station_id":"","pricing_plan_id":"cebpf4jnsgd1na2vs0mg"},{"bike_id":"7be06c3a-8473-4b45-a3f6-aea060cfe576","system_id":"levelo_inurba_marseille","lat":43.25583,"lon":5.38233,"is_reserved":false,"is_disabled":false,"rental_uris":{"android":"levelo://app?vid=7be06c3a-8473-4b45-a3f6-aea060cfe576","ios":"levelo://app?vid=7be06c3a-8473-4b45-a3f6-aea060cfe576"},"vehicle_type_id":"4","last_reported":1777474883,"current_range_meters":9600,"station_id":"ce4bhih2rcd13ifvqfs0","pricing_plan_id":"cebpf4jnsgd1na2vs0mg"},{"bike_id":"a2a694ab-bd57-45a8-a651-048e4cefae01","system_id":"levelo_inurba_marseille","lat":43.28712,"lon":5.46698,"is_reserved":false,"is_disabled":false,"rental_uris":{"android":"levelo://app?vid=a2a694ab-bd57-45a8-a651-048e4cefae01","ios":"levelo://app?vid=a2a694ab-bd57-45a8-a651-048e4cefae01"},"vehicle_type_id":"4","last_reported":1777474883,"current_range_meters":9600,"station_id":"st_d6tc3vkotcvc738tfjhg","pricing_plan_id":"cebpf4jnsgd1na2vs0mg"},{"bike_id":"9e09010a-093f-430f-8bab-d97ff142e051","system_id":"levelo_inurba_marseille","lat":43.29046,"lon":5.35926,"is_reserved":false,"is_disabled":false,"rental_uris":{"android":"levelo://app?vid=9e09010a-093f-430f-8bab-d97ff142e051","ios":"levelo://app?vid=9e09010a-093f-430f-8bab-d97ff142e051"},"vehicle_type_id":"4","last_reported":1777474883,"current_range_meters":9600,"station_id":"ce4bha92rcd13ifvqeg0","pricing_plan_id":"cebpf4jnsgd1na2vs0mg"},{"bike_id":"d19a8574-ebdc-405c-a0d0-4b86e1093714","system_id":"levelo_inurba_marseille","lat":43.312679,"lon":5.401579,"is_reserved":false,"is_disabled":false,"rental_uris":{"android":"levelo://app?vid=d19a8574-ebdc-405c-a0d0-4b86e1093714","ios":"levelo://app?vid=d19a8574-ebdc-405c-a0d0-4b86e1093714"},"vehicle_type_id":"4","last_reported":1777474883,"current_range_meters":9600,"station_id":"ce4bh092rcd13ifvqd30","pricing_plan_id":"cebpf4jnsgd1na2vs0mg"},{"bike_id":"12c14c9a-0580-4898-85ae-f05eec3d0f26","system_id":"levelo_inurba_marseille","lat":43.26566,"lon":5.39014,"is_reserved":false,"is_disabled":false,"rental_uris":{"android":"levelo://app?vid=12c14c9a-0580-4898-85ae-f05eec3d0f26","ios":"levelo://app?vid=12c14c9a-0580-4898-85ae-f05eec3d0f26"},"vehicle_type_id":"4","last_reported":1777474883,"current_range_meters":9600,"station_id":"ce4bhe12rcd13ifvqf30","pricing_plan_id":"cebpf4jnsgd1na2vs0mg"},{"bike_id":"809dbee3-b28b-45fa-8543-de3ebcdde081","system_id":"levelo_inurba_marseille","lat":43.29781,"lon":5.38114,"is_reserved":false,"is_disabled":false,"rental_uris":{"android":"levelo://app?vid=809dbee3-b28b-45fa-8543-de3ebcdde081","ios":"levelo://app?vid=809dbee3-b28b-45fa-8543-de3ebcdde081"},"vehicle_type_id":"4","last_reported":1777474883,"current_range_meters":9600,"station_id":"ce4bgip2rcd13ifvqbb0","pricing_plan_id":"cebpf4jnsgd1na2vs0mg"},{"bike_id":"f8b08a99-be2e-4ade-8fb0-3e565e1cc6af","system_id":"levelo_inurba_marseille","lat":43.30914,"lon":5.3685,"is_reserved":false,"is_disabled":false,"rental_uris":{"android":"levelo://app?vid=f8b08a99-be2e-4ade-8fb0-3e565e1cc6af","ios":"levelo://app?vid=f8b08a99-be2e-4ade-8fb0-3e565e1cc6af"},"vehicle_type_id":"4","last_reported":1777474883,"current_range_meters":9600,"station_id":"ce4bgn92rcd13ifvqbvg","pricing_plan_id":"cebpf4jnsgd1na2vs0mg"},{"bike_id":"5b74b950-f727-4cf5-9ff8-7ee0a6463058","system_id":"levelo_inurba_marseille","lat":43.32359,"lon":5.3674,"is_reserved":false,"is_disabled":false,"rental_uris":{"android":"levelo://app?vid=5b74b950-f727-4cf5-9ff8-7ee0a6463058","ios":"levelo://app?vid=5b74b950-f727-4cf5-9ff8-7ee0a6463058"},"vehicle_type_id":"4","last_reported":1777474883,"current_range_meters":9600,"station_id":"ce4bhsh2rcd13ifvqi2g","pricing_plan_id":"cebpf4jnsgd1na2vs0mg"},{"bike_id":"af884a6c-4f57-4865-9d88-452a8d8818fb","system_id":"levelo_inurba_marseille","lat":43.30793,"lon":5.38162,"is_reserved":false,"is_disabled":false,"rental_uris":{"android":"levelo://app?vid=af884a6c-4f57-4865-9d88-452a8d8818fb","ios":"levelo://app?vid=af884a6c-4f57-4865-9d88-452a8d8818fb"},"vehicle_type_id":"4","last_reported":1777474883,"current_range_meters":9600,"station_id":"ce4bgt12rcd13ifvqce0","pricing_plan_id":"cebpf4jnsgd1na2vs0mg"},{"bike_id":"60d77da4-6419-429b-9e7a-b2cf161a2f69","system_id":"levelo_inurba_marseille","lat":43.32642,"lon":5.39497,"is_reserved":false,"is_disabled":false,"rental_uris":{"android":"levelo://app?vid=60d77da4-6419-429b-9e7a-b2cf161a2f69","ios":"levelo://app?vid=60d77da4-6419-429b-9e7a-b2cf161a2f69"},"vehicle_type_id":"4","last_reported":1777474883,"current_range_meters":9600,"station_id":"","pricing_plan_id":"cebpf4jnsgd1na2vs0mg"},{"bike_id":"105f32f6-c368-4de0-8ad5-1075cdf8978e","system_id":"levelo_inurba_marseille","lat":43.24149,"lon":5.36445,"is_reserved":false,"is_disabled":false,"rental_uris":{"android":"levelo://app?vid=105f32f6-c368-4de0-8ad5-1075cdf8978e","ios":"levelo://app?vid=105f32f6-c368-4de0-8ad5-1075cdf8978e"},"vehicle_type_id":"4","last_reported":1777474883,"current_range_meters":9600,"station_id":"cpo36qri1sfpv3e86is0","pricing_plan_id":"cebpf4jnsgd1na2vs0mg"},{"bike_id":"6a9b58db-a215-46ac-8c9a-f4437be444a4","system_id":"levelo_inurba_marseille","lat":43.31542,"lon":5.38032,"is_reserved":false,"is_disabled":false,"rental_uris":{"android":"levelo://app?vid=6a9b58db-a215-46ac-8c9a-f4437be444a4","ios":"levelo://app?vid=6a9b58db-a215-46ac-8c9a-f4437be444a4"},"vehicle_type_id":"4","last_reported":1777474883,"current_range_meters":10000,"station_id":"ce4bhsp2rcd13ifvqi50","pricing_plan_id":"cebpf4jnsgd1na2vs0mg"},{"bike_id":"67211461-62b6-457e-a258-9a74099d1b98","system_id":"levelo_inurba_marseille","lat":43.29255,"lon":5.3844,"is_reserved":false,"is_disabled":false,"rental_uris":{"android":"levelo://app?vid=67211461-62b6-457e-a258-9a74099d1b98","ios":"levelo://app?vid=67211461-62b6-457e-a258-9a74099d1b98"},"vehicle_type_id":"4","last_reported":1777474883,"current_range_meters":10000,"station_id":"ce4bh692rcd13ifvqea0","pricing_plan_id":"cebpf4jnsgd1na2vs0mg"},{"bike_id":"b926f77a-50ab-4e8f-9bfc-98f779bf262a","system_id":"levelo_inurba_marseille","lat":43.29705,"lon":5.36604,"is_reserved":false,"is_disabled":false,"rental_uris":{"android":"levelo://app?vid=b926f77a-50ab-4e8f-9bfc-98f779bf262a","ios":"levelo://app?vid=b926f77a-50ab-4e8f-9bfc-98f779bf262a"},"vehicle_type_id":"4","last_reported":1777474883,"current_range_meters":10000,"station_id":"ce4bgn12rcd13ifvqbt0","pricing_plan_id":"cebpf4jnsgd1na2vs0mg"},{"bike_id":"95f47514-1d7f-4013-95fe-a0916f7cc45a","system_id":"levelo_inurba_marseille","lat":43.33547,"lon":5.37429,"is_reserved":false,"is_disabled":false,"rental_uris":{"android":"levelo://app?vid=95f47514-1d7f-4013-95fe-a0916f7cc45a","ios":"levelo://app?vid=95f47514-1d7f-4013-95fe-a0916f7cc45a"},"vehicle_type_id":"4","last_reported":1777474883,"current_range_meters":10000,"station_id":"st_d46tts09ee8s73dlu43g","pricing_plan_id":"cebpf4jnsgd1na2vs0mg"},{"bike_id":"14ffd392-a207-41da-942f-3d5d62a42696","system_id":"levelo_inurba_marseille","lat":43.31907,"lon":5.36836,"is_reserved":false,"is_disabled":false,"rental_uris":{"android":"levelo://app?vid=14ffd392-a207-41da-942f-3d5d62a42696","ios":"levelo://app?vid=14ffd392-a207-41da-942f-3d5d62a42696"},"vehicle_type_id":"4","last_reported":1777474883,"current_range_meters":10000,"station_id":"st_d6o2h0d0559c73evc1b0","pricing_plan_id":"cebpf4jnsgd1na2vs0mg"},{"bike_id":"037d64f6-928a-49e8-acc5-65482391aa38","system_id":"levelo_inurba_marseille","lat":43.26555,"lon":5.37306,"is_reserved":false,"is_disabled":false,"rental_uris":{"android":"levelo://app?vid=037d64f6-928a-49e8-acc5-65482391aa38","ios":"levelo://app?vid=037d64f6-928a-49e8-acc5-65482391aa38"},"vehicle_type_id":"4","last_reported":1777474883,"current_range_meters":10000,"station_id":"ce4bhg12rcd13ifvqf70","pricing_plan_id":"cebpf4jnsgd1na2vs0mg"},{"bike_id":"25dce010-9519-430e-b360-ba06035c4992","system_id":"levelo_inurba_marseille","lat":43.30524,"lon":5.38405,"is_reserved":false,"is_disabled":false,"rental_uris":{"android":"levelo://app?vid=25dce010-9519-430e-b360-ba06035c4992","ios":"levelo://app?vid=25dce010-9519-430e-b360-ba06035c4992"},"vehicle_type_id":"4","last_reported":1777474883,"current_range_meters":10000,"station_id":"ce4bgg92rcd13ifvqb30","pricing_plan_id":"cebpf4jnsgd1na2vs0mg"},{"bike_id":"253bb22c-cc53-4d52-93d6-2a1796d0e43f","system_id":"levelo_inurba_marseille","lat":43.32144,"lon":5.36845,"is_reserved":false,"is_disabled":false,"rental_uris":{"android":"levelo://app?vid=253bb22c-cc53-4d52-93d6-2a1796d0e43f","ios":"levelo://app?vid=253bb22c-cc53-4d52-93d6-2a1796d0e43f"},"vehicle_type_id":"4","last_reported":1777474883,"current_range_meters":10000,"station_id":"ce4bhrh2rcd13ifvqhug","pricing_plan_id":"cebpf4jnsgd1na2vs0mg"},{"bike_id":"e81022dd-19c8-4204-a3cc-bd5e81a601c4","system_id":"levelo_inurba_marseille","lat":43.2496,"lon":5.40495,"is_reserved":false,"is_disabled":false,"rental_uris":{"android":"levelo://app?vid=e81022dd-19c8-4204-a3cc-bd5e81a601c4","ios":"levelo://app?vid=e81022dd-19c8-4204-a3cc-bd5e81a601c4"},"vehicle_type_id":"4","last_reported":1777474883,"current_range_meters":10000,"station_id":"st_d2ngiaodas8pm72gd1h0","pricing_plan_id":"cebpf4jnsgd1na2vs0mg"},{"bike_id":"275f0e36-65c4-489f-bd62-ec5e03923f09","system_id":"levelo_inurba_marseille","lat":43.22559,"lon":5.41612,"is_reserved":false,"is_disabled":false,"rental_uris":{"android":"levelo://app?vid=275f0e36-65c4-489f-bd62-ec5e03923f09","ios":"levelo://app?vid=275f0e36-65c4-489f-bd62-ec5e03923f09"},"vehicle_type_id":"4","last_reported":1777474883,"current_range_meters":10000,"station_id":"st_d2o4gvlbi1j2169b742g","pricing_plan_id":"cebpf4jnsgd1na2vs0mg"},{"bike_id":"edb2211e-2b74-43dd-b934-321a9ac4c3d1","system_id":"levelo_inurba_marseille","lat":43.28119,"lon":5.37843,"is_reserved":false,"is_disabled":false,"rental_uris":{"android":"levelo://app?vid=edb2211e-2b74-43dd-b934-321a9ac4c3d1","ios":"levelo://app?vid=edb2211e-2b74-43dd-b934-321a9ac4c3d1"},"vehicle_type_id":"4","last_reported":1777474883,"current_range_meters":10000,"station_id":"ce4bha12rcd13ifvqee0","pricing_plan_id":"cebpf4jnsgd1na2vs0mg"},{"bike_id":"ebfc7461-fae9-4251-9037-a8c8f8a79579","system_id":"levelo_inurba_marseille","lat":43.29834,"lon":5.36314,"is_reserved":false,"is_disabled":false,"rental_uris":{"android":"levelo://app?vid=ebfc7461-fae9-4251-9037-a8c8f8a79579","ios":"levelo://app?vid=ebfc7461-fae9-4251-9037-a8c8f8a79579"},"vehicle_type_id":"4","last_reported":1777474883,"current_range_meters":10000,"station_id":"ce4bgpp2rcd13ifvqc3g","pricing_plan_id":"cebpf4jnsgd1na2vs0mg"},{"bike_id":"bd381285-9688-4b86-bb58-500e4f0f2544","system_id":"levelo_inurba_marseille","lat":43.23326,"lon":5.39956,"is_reserved":false,"is_disabled":false,"rental_uris":{"android":"levelo://app?vid=bd381285-9688-4b86-bb58-500e4f0f2544","ios":"levelo://app?vid=bd381285-9688-4b86-bb58-500e4f0f2544"},"vehicle_type_id":"4","last_reported":1777474883,"current_range_meters":10000,"station_id":"","pricing_plan_id":"cebpf4jnsgd1na2vs0mg"},{"bike_id":"25878a1d-ffb7-4ba5-b3c9-9161d7afc6e5","system_id":"levelo_inurba_marseille","lat":43.261973,"lon":5.379464,"is_reserved":false,"is_disabled":false,"rental_uris":{"android":"levelo://app?vid=25878a1d-ffb7-4ba5-b3c9-9161d7afc6e5","ios":"levelo://app?vid=25878a1d-ffb7-4ba5-b3c9-9161d7afc6e5"},"vehicle_type_id":"4","last_reported":1777474883,"current_range_meters":10000,"station_id":"ce4bhjp2rcd13ifvqg90","pricing_plan_id":"cebpf4jnsgd1na2vs0mg"},{"bike_id":"2b91a079-f49d-4398-9e2f-db39ebd03dd1","system_id":"levelo_inurba_marseille","lat":43.26686,"lon":5.38279,"is_reserved":false,"is_disabled":false,"rental_uris":{"android":"levelo://app?vid=2b91a079-f49d-4398-9e2f-db39ebd03dd1","ios":"levelo://app?vid=2b91a079-f49d-4398-9e2f-db39ebd03dd1"},"vehicle_type_id":"4","last_reported":1777474883,"current_range_meters":10000,"station_id":"ce4bhg92rcd13ifvqf90","pricing_plan_id":"cebpf4jnsgd1na2vs0mg"},{"bike_id":"13ae0db7-a611-4802-b9da-3d087f2cb81a","system_id":"levelo_inurba_marseille","lat":43.28349,"lon":5.38096,"is_reserved":false,"is_disabled":false,"rental_uris":{"android":"levelo://app?vid=13ae0db7-a611-4802-b9da-3d087f2cb81a","ios":"levelo://app?vid=13ae0db7-a611-4802-b9da-3d087f2cb81a"},"vehicle_type_id":"4","last_reported":1777474883,"current_range_meters":10000,"station_id":"ce4bh412rcd13ifvqdr0","pricing_plan_id":"cebpf4jnsgd1na2vs0mg"},{"bike_id":"46523cb2-6b8e-455f-9277-3808cf80d4d2","system_id":"levelo_inurba_marseille","lat":43.337444,"lon":5.374475,"is_reserved":false,"is_disabled":true,"rental_uris":{"android":"levelo://app?vid=46523cb2-6b8e-455f-9277-3808cf80d4d2","ios":"levelo://app?vid=46523cb2-6b8e-455f-9277-3808cf80d4d2"},"vehicle_type_id":"4","last_reported":1777474883,"current_range_meters":10800,"station_id":"","pricing_plan_id":"cebpf4jnsgd1na2vs0mg"},{"bike_id":"aa1066a2-52ee-4b5e-9ea8-f5bfb38bf0a4","system_id":"levelo_inurba_marseille","lat":43.32355,"lon":5.36764,"is_reserved":false,"is_disabled":false,"rental_uris":{"android":"levelo://app?vid=aa1066a2-52ee-4b5e-9ea8-f5bfb38bf0a4","ios":"levelo://app?vid=aa1066a2-52ee-4b5e-9ea8-f5bfb38bf0a4"},"vehicle_type_id":"4","last_reported":1777474883,"current_range_meters":10800,"station_id":"ce4bhsh2rcd13ifvqi2g","pricing_plan_id":"cebpf4jnsgd1na2vs0mg"},{"bike_id":"68419e54-cd8c-48bc-8f4a-2f1e2b3eb3b4","system_id":"levelo_inurba_marseille","lat":43.24678,"lon":5.38183,"is_reserved":false,"is_disabled":false,"rental_uris":{"android":"levelo://app?vid=68419e54-cd8c-48bc-8f4a-2f1e2b3eb3b4","ios":"levelo://app?vid=68419e54-cd8c-48bc-8f4a-2f1e2b3eb3b4"},"vehicle_type_id":"4","last_reported":1777474883,"current_range_meters":10800,"station_id":"ce4bhih2rcd13ifvqfr0","pricing_plan_id":"cebpf4jnsgd1na2vs0mg"},{"bike_id":"eedc3c67-c28f-4d55-a5b4-568930beeec3","system_id":"levelo_inurba_marseille","lat":43.27387,"lon":5.36246,"is_reserved":false,"is_disabled":false,"rental_uris":{"android":"levelo://app?vid=eedc3c67-c28f-4d55-a5b4-568930beeec3","ios":"levelo://app?vid=eedc3c67-c28f-4d55-a5b4-568930beeec3"},"vehicle_type_id":"4","last_reported":1777474883,"current_range_meters":10800,"station_id":"ce4bhbh2rcd13ifvqeo0","pricing_plan_id":"cebpf4jnsgd1na2vs0mg"},{"bike_id":"d8090dcb-576f-4743-93fa-58113db7b434","system_id":"levelo_inurba_marseille","lat":43.26554,"lon":5.37295,"is_reserved":false,"is_disabled":false,"rental_uris":{"android":"levelo://app?vid=d8090dcb-576f-4743-93fa-58113db7b434","ios":"levelo://app?vid=d8090dcb-576f-4743-93fa-58113db7b434"},"vehicle_type_id":"4","last_reported":1777474883,"current_range_meters":10800,"station_id":"ce4bhg12rcd13ifvqf70","pricing_plan_id":"cebpf4jnsgd1na2vs0mg"},{"bike_id":"a7915b58-79da-4a71-9d6e-0027005a67aa","system_id":"levelo_inurba_marseille","lat":43.28462,"lon":5.35879,"is_reserved":false,"is_disabled":false,"rental_uris":{"android":"levelo://app?vid=a7915b58-79da-4a71-9d6e-0027005a67aa","ios":"levelo://app?vid=a7915b58-79da-4a71-9d6e-0027005a67aa"},"vehicle_type_id":"4","last_reported":1777474883,"current_range_meters":10800,"station_id":"ce4bhah2rcd13ifvqei0","pricing_plan_id":"cebpf4jnsgd1na2vs0mg"},{"bike_id":"dd640765-437a-476b-b5b1-df3f8ef8a498","system_id":"levelo_inurba_marseille","lat":43.30804,"lon":5.37643,"is_reserved":false,"is_disabled":false,"rental_uris":{"android":"levelo://app?vid=dd640765-437a-476b-b5b1-df3f8ef8a498","ios":"levelo://app?vid=dd640765-437a-476b-b5b1-df3f8ef8a498"},"vehicle_type_id":"4","last_reported":1777474883,"current_range_meters":10800,"station_id":"ce4bgv92rcd13ifvqcq0","pricing_plan_id":"cebpf4jnsgd1na2vs0mg"},{"bike_id":"c8c9d1d6-1e95-41b3-a2fd-8b519a2d52a0","system_id":"levelo_inurba_marseille","lat":43.29225,"lon":5.36069,"is_reserved":false,"is_disabled":false,"rental_uris":{"android":"levelo://app?vid=c8c9d1d6-1e95-41b3-a2fd-8b519a2d52a0","ios":"levelo://app?vid=c8c9d1d6-1e95-41b3-a2fd-8b519a2d52a0"},"vehicle_type_id":"4","last_reported":1777474883,"current_range_meters":10800,"station_id":"ce4bhbh2rcd13ifvqeqg","pricing_plan_id":"cebpf4jnsgd1na2vs0mg"},{"bike_id":"13ae6d0b-33ed-43a1-9e27-325b10385745","system_id":"levelo_inurba_marseille","lat":43.28622,"lon":5.3609,"is_reserved":false,"is_disabled":false,"rental_uris":{"android":"levelo://app?vid=13ae6d0b-33ed-43a1-9e27-325b10385745","ios":"levelo://app?vid=13ae6d0b-33ed-43a1-9e27-325b10385745"},"vehicle_type_id":"4","last_reported":1777474883,"current_range_meters":10800,"station_id":"ce4bhah2rcd13ifvqei0","pricing_plan_id":"cebpf4jnsgd1na2vs0mg"},{"bike_id":"c8c70790-33d3-4ca2-9a1e-73dca5d9fb39","system_id":"levelo_inurba_marseille","lat":43.2396,"lon":5.36632,"is_reserved":false,"is_disabled":false,"rental_uris":{"android":"levelo://app?vid=c8c70790-33d3-4ca2-9a1e-73dca5d9fb39","ios":"levelo://app?vid=c8c70790-33d3-4ca2-9a1e-73dca5d9fb39"},"vehicle_type_id":"4","last_reported":1777474883,"current_range_meters":10800,"station_id":"ce4bhi12rcd13ifvqfp0","pricing_plan_id":"cebpf4jnsgd1na2vs0mg"},{"bike_id":"22b9a3f8-57cd-45b1-9383-b03a0764847e","system_id":"levelo_inurba_marseille","lat":43.30885,"lon":5.39646,"is_reserved":false,"is_disabled":false,"rental_uris":{"android":"levelo://app?vid=22b9a3f8-57cd-45b1-9383-b03a0764847e","ios":"levelo://app?vid=22b9a3f8-57cd-45b1-9383-b03a0764847e"},"vehicle_type_id":"4","last_reported":1777474883,"current_range_meters":10800,"station_id":"ce4bh012rcd13ifvqcv0","pricing_plan_id":"cebpf4jnsgd1na2vs0mg"},{"bike_id":"65dcd980-6fe9-4c7d-822c-075ad32b715a","system_id":"levelo_inurba_marseille","lat":43.23792,"lon":5.36666,"is_reserved":false,"is_disabled":false,"rental_uris":{"android":"levelo://app?vid=65dcd980-6fe9-4c7d-822c-075ad32b715a","ios":"levelo://app?vid=65dcd980-6fe9-4c7d-822c-075ad32b715a"},"vehicle_type_id":"4","last_reported":1777474883,"current_range_meters":10800,"station_id":"st_d3nk18o9ro0c73en2l3g","pricing_plan_id":"cebpf4jnsgd1na2vs0mg"},{"bike_id":"96c1677c-ba34-44c4-b8f0-676f4f85c27f","system_id":"levelo_inurba_marseille","lat":43.29448,"lon":5.38806,"is_reserved":false,"is_disabled":true,"rental_uris":{"android":"levelo://app?vid=96c1677c-ba34-44c4-b8f0-676f4f85c27f","ios":"levelo://app?vid=96c1677c-ba34-44c4-b8f0-676f4f85c27f"},"vehicle_type_id":"4","last_reported":1777474883,"current_range_meters":10800,"station_id":"","pricing_plan_id":"cebpf4jnsgd1na2vs0mg"},{"bike_id":"c2745380-8bd5-4f7d-92ab-75fcc3644822","system_id":"levelo_inurba_marseille","lat":43.27181,"lon":5.40995,"is_reserved":false,"is_disabled":false,"rental_uris":{"android":"levelo://app?vid=c2745380-8bd5-4f7d-92ab-75fcc3644822","ios":"levelo://app?vid=c2745380-8bd5-4f7d-92ab-75fcc3644822"},"vehicle_type_id":"4","last_reported":1777474883,"current_range_meters":10800,"station_id":"ce4bhl12rcd13ifvqgf0","pricing_plan_id":"cebpf4jnsgd1na2vs0mg"},{"bike_id":"ba030764-1de1-4d8b-8ced-8a232ed91f10","system_id":"levelo_inurba_marseille","lat":43.23155,"lon":5.43705,"is_reserved":false,"is_disabled":false,"rental_uris":{"android":"levelo://app?vid=ba030764-1de1-4d8b-8ced-8a232ed91f10","ios":"levelo://app?vid=ba030764-1de1-4d8b-8ced-8a232ed91f10"},"vehicle_type_id":"4","last_reported":1777474883,"current_range_meters":10800,"station_id":"ce4bhmp2rcd13ifvqgog","pricing_plan_id":"cebpf4jnsgd1na2vs0mg"},{"bike_id":"5cf875e9-0c7b-4f86-9da8-6fbca3dd7cad","system_id":"levelo_inurba_marseille","lat":43.30943,"lon":5.40165,"is_reserved":false,"is_disabled":false,"rental_uris":{"android":"levelo://app?vid=5cf875e9-0c7b-4f86-9da8-6fbca3dd7cad","ios":"levelo://app?vid=5cf875e9-0c7b-4f86-9da8-6fbca3dd7cad"},"vehicle_type_id":"4","last_reported":1777474883,"current_range_meters":11200,"station_id":"ce4bgvp2rcd13ifvqct0","pricing_plan_id":"cebpf4jnsgd1na2vs0mg"},{"bike_id":"d53ceff1-063f-4fa3-aa75-e440be9bc5aa","system_id":"levelo_inurba_marseille","lat":43.28645,"lon":5.35098,"is_reserved":false,"is_disabled":false,"rental_uris":{"android":"levelo://app?vid=d53ceff1-063f-4fa3-aa75-e440be9bc5aa","ios":"levelo://app?vid=d53ceff1-063f-4fa3-aa75-e440be9bc5aa"},"vehicle_type_id":"4","last_reported":1777474883,"current_range_meters":11200,"station_id":"ce4bhch2rcd13ifvqeug","pricing_plan_id":"cebpf4jnsgd1na2vs0mg"},