{"last_updated":1725912567,"ttl":30,"version":"2.2","data":{"bikes":[{"bike_id":"3a79938e-57b2-47c7-8fe2-8a6ef6dc1c85","system_id":"levelo_inurba_marseille","lat":43.309076,"lon":5.368465,"is_reserved":false,"is_disabled":false,"rental_uris":{"android":"levelo://app?vid=3a79938e-57b2-47c7-8fe2-8a6ef6dc1c85","ios":"levelo://app?vid=3a79938e-57b2-47c7-8fe2-8a6ef6dc1c85"},"vehicle_type_id":"4","last_reported":1725912568,"current_range_meters":31200,"station_id":"ce4bgn92rcd13ifvqbvg","pricing_plan_id":"cebpf4jnsgd1na2vs0mg"},{"bike_id":"0325b390-b481-4f60-b611-7c46888adbc0","system_id":"levelo_inurba_marseille","lat":43.30904,"lon":5.36845,"is_reserved":false,"is_disabled":false,"rental_uris":{"android":"levelo://app?vid=0325b390-b481-4f60-b611-7c46888adbc0","ios":"levelo://app?vid=0325b390-b481-4f60-b611-7c46888adbc0"},"vehicle_type_id":"4","last_reported":1725912568,"current_range_meters":11600,"station_id":"ce4bgn92rcd13ifvqbvg","pricing_plan_id":"cebpf4jnsgd1na2vs0mg"},{"bike_id":"b5b7c1b8-03e1-4047-9b4c-4168fc73093f","system_id":"levelo_inurba_marseille","lat":43.31484,"lon":5.37311,"is_reserved":false,"is_disabled":false,"rental_uris":{"android":"levelo://app?vid=b5b7c1b8-03e1-4047-9b4c-4168fc73093f","ios":"levelo://app?vid=b5b7c1b8-03e1-4047-9b4c-4168fc73093f"},"vehicle_type_id":"4","last_reported":1725912568,"current_range_meters":400,"station_id":"ce4bgt12rcd13ifvqcd0","pricing_plan_id":"cebpf4jnsgd1na2vs0mg"},{"bike_id":"df4146e9-a6a7-4fbc-9317-db204a20182e","system_id":"levelo_inurba_marseille","lat":43.314811,"lon":5.373104,"is_reserved":false,"is_disabled":false,"rental_uris":{"android":"levelo://app?vid=df4146e9-a6a7-4fbc-9317-db204a20182e","ios":"levelo://app?vid=df4146e9-a6a7-4fbc-9317-db204a20182e"},"vehicle_type_id":"4","last_reported":1725912568,"current_range_meters":21600,"station_id":"ce4bgt12rcd13ifvqcd0","pricing_plan_id":"cebpf4jnsgd1na2vs0mg"},{"bike_id":"86750fd1-c979-431c-8f1d-c6158b6a0578","system_id":"levelo_inurba_marseille","lat":43.30894,"lon":5.37197,"is_reserved":false,"is_disabled":false,"rental_uris":{"android":"levelo://app?vid=86750fd1-c979-431c-8f1d-c6158b6a0578","ios":"levelo://app?vid=86750fd1-c979-431c-8f1d-c6158b6a0578"},"vehicle_type_id":"4","last_reported":1725912568,"current_range_meters":800,"station_id":"ce4bguh2rcd13ifvqckg","pricing_plan_id":"cebpf4jnsgd1na2vs0mg"},{"bike_id":"667fb889-47d5-455e-a03c-333876162331","system_id":"levelo_inurba_marseille","lat":43.309034,"lon":5.371783,"is_reserved":false,"is_disabled":false,"rental_uris":{"android":"levelo://app?vid=667fb889-47d5-455e-a03c-333876162331","ios":"levelo://app?vid=667fb889-47d5-455e-a03c-333876162331"},"vehicle_type_id":"4","last_reported":1725912568,"current_range_meters":10400,"station_id":"ce4bguh2rcd13ifvqckg","pricing_plan_id":"cebpf4jnsgd1na2vs0mg"},{"bike_id":"1ee9573f-56a6-45bd-9f05-8b653f40e172","system_id":"levelo_inurba_marseille","lat":43.30894,"lon":5.37207,"is_reserved":false,"is_disabled":false,"rental_uris":{"android":"levelo://app?vid=1ee9573f-56a6-45bd-9f05-8b653f40e172","ios":"levelo://app?vid=1ee9573f-56a6-45bd-9f05-8b653f40e172"},"vehicle_type_id":"4","last_reported":1725912568,"current_range_meters":28400,"station_id":"ce4bguh2rcd13ifvqckg","pricing_plan_id":"cebpf4jnsgd1na2vs0mg"},{"bike_id":"aa216296-d603-49f5-ab48-dc54361b7369","system_id":"levelo_inurba_marseille","lat":43.30889,"lon":5.37207,"is_reserved":false,"is_disabled":false,"rental_uris":{"android":"levelo://app?vid=aa216296-d603-49f5-ab48-dc54361b7369","ios":"levelo://app?vid=aa216296-d603-49f5-ab48-dc54361b7369"},"vehicle_type_id":"4","last_reported":1725912568,"current_range_meters":6800,"station_id":"ce4bguh2rcd13ifvqckg","pricing_plan_id":"cebpf4jnsgd1na2vs0mg"},{"bike_id":"a0938e7d-d174-45dc-9e5e-9e5eea76923d","system_id":"levelo_inurba_marseille","lat":43.30876,"lon":5.37209,"is_reserved":false,"is_disabled":false,"rental_uris":{"android":"levelo://app?vid=a0938e7d-d174-45dc-9e5e-9e5eea76923d","ios":"levelo://app?vid=a0938e7d-d174-45dc-9e5e-9e5eea76923d"},"vehicle_type_id":"4","last_reported":1725912568,"current_range_meters":23600,"station_id":"ce4bguh2rcd13ifvqckg","pricing_plan_id":"cebpf4jnsgd1na2vs0mg"},{"bike_id":"8e628e80-7dd5-40cb-a0e2-6e126ca417a4","system_id":"levelo_inurba_marseille","lat":43.31602,"lon":5.37328,"is_reserved":false,"is_disabled":false,"rental_uris":{"android":"levelo://app?vid=8e628e80-7dd5-40cb-a0e2-6e126ca417a4","ios":"levelo://app?vid=8e628e80-7dd5-40cb-a0e2-6e126ca417a4"},"vehicle_type_id":"4","last_reported":1725912568,"current_range_meters":12400,"station_id":"","pricing_plan_id":"cebpf4jnsgd1na2vs0mg"},{"bike_id":"be2382b0-67de-4bbf-90eb-b3421a8ccdca","system_id":"levelo_inurba_marseille","lat":43.30542,"lon":5.367131,"is_reserved":false,"is_disabled":false,"rental_uris":{"android":"levelo://app?vid=be2382b0-67de-4bbf-90eb-b3421a8ccdca","ios":"levelo://app?vid=be2382b0-67de-4bbf-90eb-b3421a8ccdca"},"vehicle_type_id":"4","last_reported":1725912568,"current_range_meters":31200,"station_id":"ce4bgrp2rcd13ifvqc9g","pricing_plan_id":"cebpf4jnsgd1na2vs0mg"},{"bike_id":"1ceaab11-16d7-4e20-8bbd-c38f5a085971","system_id":"levelo_inurba_marseille","lat":43.305368,"lon":5.367343,"is_reserved":false,"is_disabled":false,"rental_uris":{"android":"levelo://app?vid=1ceaab11-16d7-4e20-8bbd-c38f5a085971","ios":"levelo://app?vid=1ceaab11-16d7-4e20-8bbd-c38f5a085971"},"vehicle_type_id":"4","last_reported":1725912568,"current_range_meters":12800,"station_id":"ce4bgrp2rcd13ifvqc9g","pricing_plan_id":"cebpf4jnsgd1na2vs0mg"},{"bike_id":"4661730b-3e7f-4ee2-93e5-b127a5bc69bc","system_id":"levelo_inurba_marseille","lat":43.311131,"lon":5.377651,"is_reserved":false,"is_disabled":false,"rental_uris":{"android":"levelo://app?vid=4661730b-3e7f-4ee2-93e5-b127a5bc69bc","ios":"levelo://app?vid=4661730b-3e7f-4ee2-93e5-b127a5bc69bc"},"vehicle_type_id":"4","last_reported":1725912568,"current_range_meters":23200,"station_id":"ce4bgt92rcd13ifvqcg0","pricing_plan_id":"cebpf4jnsgd1na2vs0mg"},{"bike_id":"7b13964c-199d-4ac3-a2c5-cc1fe3d25456","system_id":"levelo_inurba_marseille","lat":43.311125,"lon":5.377624,"is_reserved":false,"is_disabled":false,"rental_uris":{"android":"levelo://app?vid=7b13964c-199d-4ac3-a2c5-cc1fe3d25456","ios":"levelo://app?vid=7b13964c-199d-4ac3-a2c5-cc1fe3d25456"},"vehicle_type_id":"4","last_reported":1725912568,"current_range_meters":4000,"station_id":"ce4bgt92rcd13ifvqcg0","pricing_plan_id":"cebpf4jnsgd1na2vs0mg"},{"bike_id":"707836f5-d462-4d5d-8589-be83bf7b5402","system_id":"levelo_inurba_marseille","lat":43.311125,"lon":5.377624,"is_reserved":false,"is_disabled":false,"rental_uris":{"android":"levelo://app?vid=707836f5-d462-4d5d-8589-be83bf7b5402","ios":"levelo://app?vid=707836f5-d462-4d5d-8589-be83bf7b5402"},"vehicle_type_id":"4","last_reported":1725912568,"current_range_meters":30800,"station_id":"ce4bgt92rcd13ifvqcg0","pricing_plan_id":"cebpf4jnsgd1na2vs0mg"},{"bike_id":"4b5112f3-aaf4-418b-a8f5-2632b8bdfc23","system_id":"levelo_inurba_marseille","lat":43.309589,"lon":5.390258,"is_reserved":false,"is_disabled":false,"rental_uris":{"android":"levelo://app?vid=4b5112f3-aaf4-418b-a8f5-2632b8bdfc23","ios":"levelo://app?vid=4b5112f3-aaf4-418b-a8f5-2632b8bdfc23"},"vehicle_type_id":"4","last_reported":1725912568,"current_range_meters":17600,"station_id":"ce4bgup2rcd13ifvqco0","pricing_plan_id":"cebpf4jnsgd1na2vs0mg"},{"bike_id":"b93353dd-d9ae-4359-8c12-31633ae86b6e","system_id":"levelo_inurba_marseille","lat":43.307945,"lon":5.376487,"is_reserved":false,"is_disabled":false,"rental_uris":{"android":"levelo://app?vid=b93353dd-d9ae-4359-8c12-31633ae86b6e","ios":"levelo://app?vid=b93353dd-d9ae-4359-8c12-31633ae86b6e"},"vehicle_type_id":"4","last_reported":1725912568,"current_range_meters":8000,"station_id":"ce4bgv92rcd13ifvqcq0","pricing_plan_id":"cebpf4jnsgd1na2vs0mg"},{"bike_id":"8d0c7e40-6e2c-41cf-af94-7818bd476cb2","system_id":"levelo_inurba_marseille","lat":43.307945,"lon":5.376487,"is_reserved":false,"is_disabled":false,"rental_uris":{"android":"levelo://app?vid=8d0c7e40-6e2c-41cf-af94-7818bd476cb2","ios":"levelo://app?vid=8d0c7e40-6e2c-41cf-af94-7818bd476cb2"},"vehicle_type_id":"4","last_reported":1725912568,"current_range_meters":31600,"station_id":"ce4bgv92rcd13ifvqcq0","pricing_plan_id":"cebpf4jnsgd1na2vs0mg"},{"bike_id":"cbcc2ebd-8c85-4db5-90db-a5c4bb41b28e","system_id":"levelo_inurba_marseille","lat":43.307945,"lon":5.376487,"is_reserved":false,"is_disabled":false,"rental_uris":{"android":"levelo://app?vid=cbcc2ebd-8c85-4db5-90db-a5c4bb41b28e","ios":"levelo://app?vid=cbcc2ebd-8c85-4db5-90db-a5c4bb41b28e"},"vehicle_type_id":"4","last_reported":1725912568,"current_range_meters":11600,"station_id":"ce4bgv92rcd13ifvqcq0","pricing_plan_id":"cebpf4jnsgd1na2vs0mg"},{"bike_id":"0cdc1616-ac07-417c-843b-3d2b82dee010","system_id":"levelo_inurba_marseille","lat":43.307945,"lon":5.376487,"is_reserved":false,"is_disabled":false,"rental_uris":{"android":"levelo://app?vid=0cdc1616-ac07-417c-843b-3d2b82dee010","ios":"levelo://app?vid=0cdc1616-ac07-417c-843b-3d2b82dee010"},"vehicle_type_id":"4","last_reported":1725912568,"current_range_meters":22400,"station_id":"ce4bgv92rcd13ifvqcq0","pricing_plan_id":"cebpf4jnsgd1na2vs0mg"},{"bike_id":"3644f1ea-f54b-45fa-9142-e7776249b7c8","system_id":"levelo_inurba_marseille","lat":43.307945,"lon":5.376487,"is_reserved":false,"is_disabled":false,"rental_uris":{"android":"levelo://app?vid=3644f1ea-f54b-45fa-9142-e7776249b7c8","ios":"levelo://app?vid=3644f1ea-f54b-45fa-9142-e7776249b7c8"},"vehicle_type_id":"4","last_reported":1725912568,"current_range_meters":28400,"station_id":"ce4bgv92rcd13ifvqcq0","pricing_plan_id":"cebpf4jnsgd1na2vs0mg"},{"bike_id":"6a577c9d-9785-4d7b-9e4f-4da119c9c7db","system_id":"levelo_inurba_marseille","lat":43.307945,"lon":5.376487,"is_reserved":false,"is_disabled":false,"rental_uris":{"android":"levelo://app?vid=6a577c9d-9785-4d7b-9e4f-4da119c9c7db","ios":"levelo://app?vid=6a577c9d-9785-4d7b-9e4f-4da119c9c7db"},"vehicle_type_id":"4","last_reported":1725912568,"current_range_meters":23600,"station_id":"ce4bgv92rcd13ifvqcq0","pricing_plan_id":"cebpf4jnsgd1na2vs0mg"},{"bike_id":"4bba1caa-3531-4c81-877f-f0e60a587b1e","system_id":"levelo_inurba_marseille","lat":43.317075,"lon":5.377367,"is_reserved":false,"is_disabled":false,"rental_uris":{"android":"levelo://app?vid=4bba1caa-3531-4c81-877f-f0e60a587b1e","ios":"levelo://app?vid=4bba1caa-3531-4c81-877f-f0e60a587b1e"},"vehicle_type_id":"4","last_reported":1725912568,"current_range_meters":8000,"station_id":"ce4bgth2rcd13ifvqch0","pricing_plan_id":"cebpf4jnsgd1na2vs0mg"},{"bike_id":"bed56c69-fc31-4c21-b5a2-f316a0344d66","system_id":"levelo_inurba_marseille","lat":43.317075,"lon":5.377367,"is_reserved":false,"is_disabled":false,"rental_uris":{"android":"levelo://app?vid=bed56c69-fc31-4c21-b5a2-f316a0344d66","ios":"levelo://app?vid=bed56c69-fc31-4c21-b5a2-f316a0344d66"},"vehicle_type_id":"4","last_reported":1725912568,"current_range_meters":17600,"station_id":"ce4bgth2rcd13ifvqch0","pricing_plan_id":"cebpf4jnsgd1na2vs0mg"},{"bike_id":"3d7eab35-33f4-4855-aabe-5ab6054c1497","system_id":"levelo_inurba_marseille","lat":43.31165,"lon":5.37988,"is_reserved":false,"is_disabled":false,"rental_uris":{"android":"levelo://app?vid=3d7eab35-33f4-4855-aabe-5ab6054c1497","ios":"levelo://app?vid=3d7eab35-33f4-4855-aabe-5ab6054c1497"},"vehicle_type_id":"4","last_reported":1725912568,"current_range_meters":22400,"station_id":"","pricing_plan_id":"cebpf4jnsgd1na2vs0mg"},{"bike_id":"da87da0b-6e63-4016-95a7-2674c35b1733","system_id":"levelo_inurba_marseille","lat":43.30312,"lon":5.36894,"is_reserved":false,"is_disabled":false,"rental_uris":{"android":"levelo://app?vid=da87da0b-6e63-4016-95a7-2674c35b1733","ios":"levelo://app?vid=da87da0b-6e63-4016-95a7-2674c35b1733"},"vehicle_type_id":"4","last_reported":1725912568,"current_range_meters":0,"station_id":"ce4bgqh2rcd13ifvqc5g","pricing_plan_id":"cebpf4jnsgd1na2vs0mg"},{"bike_id":"95d11acc-ef9c-465f-8dea-0e15734c38e7","system_id":"levelo_inurba_marseille","lat":43.30304,"lon":5.368987,"is_reserved":false,"is_disabled":false,"rental_uris":{"android":"levelo://app?vid=95d11acc-ef9c-465f-8dea-0e15734c38e7","ios":"levelo://app?vid=95d11acc-ef9c-465f-8dea-0e15734c38e7"},"vehicle_type_id":"4","last_reported":1725912568,"current_range_meters":20400,"station_id":"ce4bgqh2rcd13ifvqc5g","pricing_plan_id":"cebpf4jnsgd1na2vs0mg"},{"bike_id":"6340ddf7-5143-445f-9f5e-6cad0c070b52","system_id":"levelo_inurba_marseille","lat":43.303046,"lon":5.368981,"is_reserved":false,"is_disabled":false,"rental_uris":{"android":"levelo://app?vid=6340ddf7-5143-445f-9f5e-6cad0c070b52","ios":"levelo://app?vid=6340ddf7-5143-445f-9f5e-6cad0c070b52"},"vehicle_type_id":"4","last_reported":1725912568,"current_range_meters":20800,"station_id":"ce4bgqh2rcd13ifvqc5g","pricing_plan_id":"cebpf4jnsgd1na2vs0mg"},{"bike_id":"1b936a7b-167a-4e38-ba6f-8cdb64b7fb5c","system_id":"levelo_inurba_marseille","lat":43.315289,"lon":5.380349,"is_reserved":false,"is_disabled":false,"rental_uris":{"android":"levelo://app?vid=1b936a7b-167a-4e38-ba6f-8cdb64b7fb5c","ios":"levelo://app?vid=1b936a7b-167a-4e38-ba6f-8cdb64b7fb5c"},"vehicle_type_id":"4","last_reported":1725912568,"current_range_meters":29200,"station_id":"ce4bhsp2rcd13ifvqi50","pricing_plan_id":"cebpf4jnsgd1na2vs0mg"},{"bike_id":"5e388ab5-469c-447c-bf15-b2ec42ac9570","system_id":"levelo_inurba_marseille","lat":43.31065,"lon":5.3813,"is_reserved":false,"is_disabled":false,"rental_uris":{"android":"levelo://app?vid=5e388ab5-469c-447c-bf15-b2ec42ac9570","ios":"levelo://app?vid=5e388ab5-469c-447c-bf15-b2ec42ac9570"},"vehicle_type_id":"4","last_reported":1725912568,"current_range_meters":0,"station_id":"","pricing_plan_id":"cebpf4jnsgd1na2vs0mg"},{"bike_id":"168a8f36-5d0c-419b-a9a2-ebdf0ef6db83","system_id":"levelo_inurba_marseille","lat":43.301939,"lon":5.366286,"is_reserved":false,"is_disabled":false,"rental_uris":{"android":"levelo://app?vid=168a8f36-5d0c-419b-a9a2-ebdf0ef6db83","ios":"levelo://app?vid=168a8f36-5d0c-419b-a9a2-ebdf0ef6db83"},"vehicle_type_id":"4","last_reported":1725912568,"current_range_meters":10400,"station_id":"ce4bgrh2rcd13ifvqc8g","pricing_plan_id":"cebpf4jnsgd1na2vs0mg"},{"bike_id":"e0ab6317-a3a1-4895-b80a-596287f4cf6a","system_id":"levelo_inurba_marseille","lat":43.301939,"lon":5.366286,"is_reserved":false,"is_disabled":false,"rental_uris":{"android":"levelo://app?vid=e0ab6317-a3a1-4895-b80a-596287f4cf6a","ios":"levelo://app?vid=e0ab6317-a3a1-4895-b80a-596287f4cf6a"},"vehicle_type_id":"4","last_reported":1725912568,"current_range_meters":22000,"station_id":"ce4bgrh2rcd13ifvqc8g","pricing_plan_id":"cebpf4jnsgd1na2vs0mg"},{"bike_id":"0acf2e73-8041-4a2f-a048-bb65a53fa0c3","system_id":"levelo_inurba_marseille","lat":43.301939,"lon":5.366286,"is_reserved":false,"is_disabled":false,"rental_uris":{"android":"levelo://app?vid=0acf2e73-8041-4a2f-a048-bb65a53fa0c3","ios":"levelo://app?vid=0acf2e73-8041-4a2f-a048-bb65a53fa0c3"},"vehicle_type_id":"4","last_reported":1725912568,"current_range_meters":18800,"station_id":"ce4bgrh2rcd13ifvqc8g","pricing_plan_id":"cebpf4jnsgd1na2vs0mg"},{"bike_id":"ab74a612-1982-4af1-8b0c-777930ec972a","system_id":"levelo_inurba_marseille","lat":43.308012,"lon":5.381511,"is_reserved":false,"is_disabled":false,"rental_uris":{"android":"levelo://app?vid=ab74a612-1982-4af1-8b0c-777930ec972a","ios":"levelo://app?vid=ab74a612-1982-4af1-8b0c-777930ec972a"},"vehicle_type_id":"4","last_reported":1725912568,"current_range_meters":6400,"station_id":"ce4bgt12rcd13ifvqce0","pricing_plan_id":"cebpf4jnsgd1na2vs0mg"},{"bike_id":"82137479-f57d-4654-b62c-bce447ca0b65","system_id":"levelo_inurba_marseille","lat":43.30804,"lon":5.38152,"is_reserved":false,"is_disabled":false,"rental_uris":{"android":"levelo://app?vid=82137479-f57d-4654-b62c-bce447ca0b65","ios":"levelo://app?vid=82137479-f57d-4654-b62c-bce447ca0b65"},"vehicle_type_id":"4","last_reported":1725912568,"current_range_meters":0,"station_id":"ce4bgt12rcd13ifvqce0","pricing_plan_id":"cebpf4jnsgd1na2vs0mg"},{"bike_id":"ff51df6f-e0e8-47d4-b27c-7552f5bfefdf","system_id":"levelo_inurba_marseille","lat":43.308012,"lon":5.381511,"is_reserved":false,"is_disabled":false,"rental_uris":{"android":"levelo://app?vid=ff51df6f-e0e8-47d4-b27c-7552f5bfefdf","ios":"levelo://app?vid=ff51df6f-e0e8-47d4-b27c-7552f5bfefdf"},"vehicle_type_id":"4","last_reported":1725912568,"current_range_meters":14400,"station_id":"ce4bgt12rcd13ifvqce0","pricing_plan_id":"cebpf4jnsgd1na2vs0mg"},{"bike_id":"b6b2f152-fef4-495c-9ffd-5a7455c0d35a","system_id":"levelo_inurba_marseille","lat":43.304606,"lon":5.379026,"is_reserved":false,"is_disabled":false,"rental_uris":{"android":"levelo://app?vid=b6b2f152-fef4-495c-9ffd-5a7455c0d35a","ios":"levelo://app?vid=b6b2f152-fef4-495c-9ffd-5a7455c0d35a"},"vehicle_type_id":"4","last_reported":1725912568,"current_range_meters":13600,"station_id":"ce4bgup2rcd13ifvqcn0","pricing_plan_id":"cebpf4jnsgd1na2vs0mg"},{"bike_id":"8dfe3b0e-0c3c-41c5-9cb0-01a9c69a57bb","system_id":"levelo_inurba_marseille","lat":43.324771,"lon":5.36557,"is_reserved":false,"is_disabled":false,"rental_uris":{"android":"levelo://app?vid=8dfe3b0e-0c3c-41c5-9cb0-01a9c69a57bb","ios":"levelo://app?vid=8dfe3b0e-0c3c-41c5-9cb0-01a9c69a57bb"},"vehicle_type_id":"4","last_reported":1725912568,"current_range_meters":28000,"station_id":"ce4bhs12rcd13ifvqhvg","pricing_plan_id":"cebpf4jnsgd1na2vs0mg"},{"bike_id":"1f38bb07-b552-4300-b74f-973592b83920","system_id":"levelo_inurba_marseille","lat":43.311722,"lon":5.387247,"is_reserved":false,"is_disabled":false,"rental_uris":{"android":"levelo://app?vid=1f38bb07-b552-4300-b74f-973592b83920","ios":"levelo://app?vid=1f38bb07-b552-4300-b74f-973592b83920"},"vehicle_type_id":"4","last_reported":1725912568,"current_range_meters":18800,"station_id":"ce4bgv12rcd13ifvqcp0","pricing_plan_id":"cebpf4jnsgd1na2vs0mg"},{"bike_id":"e111efea-8d92-4c09-a389-ec03a71311c6","system_id":"levelo_inurba_marseille","lat":43.324771,"lon":5.36557,"is_reserved":false,"is_disabled":false,"rental_uris":{"android":"levelo://app?vid=e111efea-8d92-4c09-a389-ec03a71311c6","ios":"levelo://app?vid=e111efea-8d92-4c09-a389-ec03a71311c6"},"vehicle_type_id":"4","last_reported":1725912568,"current_range_meters":8400,"station_id":"ce4bhs12rcd13ifvqhvg","pricing_plan_id":"cebpf4jnsgd1na2vs0mg"},{"bike_id":"6f82a0cd-370f-4a2c-a728-d27d7130658e","system_id":"levelo_inurba_marseille","lat":43.324771,"lon":5.36557,"is_reserved":false,"is_disabled":false,"rental_uris":{"android":"levelo://app?vid=6f82a0cd-370f-4a2c-a728-d27d7130658e","ios":"levelo://app?vid=6f82a0cd-370f-4a2c-a728-d27d7130658e"},"vehicle_type_id":"4","last_reported":1725912568,"current_range_meters":15600,"station_id":"ce4bhs12rcd13ifvqhvg","pricing_plan_id":"cebpf4jnsgd1na2vs0mg"},{"bike_id":"40249059-e883-4f54-92fe-bcfdca50c61d","system_id":"levelo_inurba_marseille","lat":43.310804,"lon":5.38359,"is_reserved":false,"is_disabled":false,"rental_uris":{"android":"levelo://app?vid=40249059-e883-4f54-92fe-bcfdca50c61d","ios":"levelo://app?vid=40249059-e883-4f54-92fe-bcfdca50c61d"},"vehicle_type_id":"4","last_reported":1725912568,"current_range_meters":21600,"station_id":"ce4bgv92rcd13ifvqcr0","pricing_plan_id":"cebpf4jnsgd1na2vs0mg"},{"bike_id":"d45cdb34-981b-4044-88f6-09045dc25c51","system_id":"levelo_inurba_marseille","lat":43.310804,"lon":5.38359,"is_reserved":false,"is_disabled":false,"rental_uris":{"android":"levelo://app?vid=d45cdb34-981b-4044-88f6-09045dc25c51","ios":"levelo://app?vid=d45cdb34-981b-4044-88f6-09045dc25c51"},"vehicle_type_id":"4","last_reported":1725912568,"current_range_meters":1200,"station_id":"ce4bgv92rcd13ifvqcr0","pricing_plan_id":"cebpf4jnsgd1na2vs0mg"},{"bike_id":"e97c7353-9807-486f-a3fa-07af709b8401","system_id":"levelo_inurba_marseille","lat":43.310804,"lon":5.38359,"is_reserved":false,"is_disabled":false,"rental_uris":{"android":"levelo://app?vid=e97c7353-9807-486f-a3fa-07af709b8401","ios":"levelo://app?vid=e97c7353-9807-486f-a3fa-07af709b8401"},"vehicle_type_id":"4","last_reported":1725912568,"current_range_meters":2000,"station_id":"ce4bgv92rcd13ifvqcr0","pricing_plan_id":"cebpf4jnsgd1na2vs0mg"},{"bike_id":"f7954e08-e32b-46e9-8913-53afa9c08879","system_id":"levelo_inurba_marseille","lat":43.313571,"lon":5.384829,"is_reserved":false,"is_disabled":false,"rental_uris":{"android":"levelo://app?vid=f7954e08-e32b-46e9-8913-53afa9c08879","ios":"levelo://app?vid=f7954e08-e32b-46e9-8913-53afa9c08879"},"vehicle_type_id":"4","last_reported":1725912568,"current_range_meters":29200,"station_id":"ce4bgt92rcd13ifvqcf0","pricing_plan_id":"cebpf4jnsgd1na2vs0mg"},{"bike_id":"52e98e2e-e1b9-4379-a018-6a51295701f1","system_id":"levelo_inurba_marseille","lat":43.319935,"lon":5.381699,"is_reserved":false,"is_disabled":false,"rental_uris":{"android":"levelo://app?vid=52e98e2e-e1b9-4379-a018-6a51295701f1","ios":"levelo://app?vid=52e98e2e-e1b9-4379-a018-6a51295701f1"},"vehicle_type_id":"4","last_reported":1725912568,"current_range_meters":13200,"station_id":"ce4bhr12rcd13ifvqhpg","pricing_plan_id":"cebpf4jnsgd1na2vs0mg"},{"bike_id":"0f192903-1e42-4e0a-8a59-44c280495867","system_id":"levelo_inurba_marseille","lat":43.319935,"lon":5.381699,"is_reserved":false,"is_disabled":false,"rental_uris":{"android":"levelo://app?vid=0f192903-1e42-4e0a-8a59-44c280495867","ios":"levelo://app?vid=0f192903-1e42-4e0a-8a59-44c280495867"},"vehicle_type_id":"4","last_reported":1725912568,"current_range_meters":10400,"station_id":"ce4bhr12rcd13ifvqhpg","pricing_plan_id":"cebpf4jnsgd1na2vs0mg"},{"bike_id":"df91cdf1-c97a-4f2a-bb37-6780eb5bf2b4","system_id":"levelo_inurba_marseille","lat":43.319935,"lon":5.381699,"is_reserved":false,"is_disabled":false,"rental_uris":{"android":"levelo://app?vid=df91cdf1-c97a-4f2a-bb37-6780eb5bf2b4","ios":"levelo://app?vid=df91cdf1-c97a-4f2a-bb37-6780eb5bf2b4"},"vehicle_type_id":"4","last_reported":1725912568,"current_range_meters":21200,"station_id":"ce4bhr12rcd13ifvqhpg","pricing_plan_id":"cebpf4jnsgd1na2vs0mg"},{"bike_id":"d2ba8850-03eb-4714-afa0-1a722696ce30","system_id":"levelo_inurba_marseille","lat":43.319935,"lon":5.381699,"is_reserved":false,"is_disabled":false,"rental_uris":{"android":"levelo://app?vid=d2ba8850-03eb-4714-afa0-1a722696ce30","ios":"levelo://app?vid=d2ba8850-03eb-4714-afa0-1a722696ce30"},"vehicle_type_id":"4","last_reported":1725912568,"current_range_meters":14000,"station_id":"ce4bhr12rcd13ifvqhpg","pricing_plan_id":"cebpf4jnsgd1na2vs0mg"},{"bike_id":"a86740ff-1fca-4a6f-997a-9947df6d0b19","system_id":"levelo_inurba_marseille","lat":43.319935,"lon":5.381699,"is_reserved":false,"is_disabled":false,"rental_uris":{"android":"levelo://app?vid=a86740ff-1fca-4a6f-997a-9947df6d0b19","ios":"levelo://app?vid=a86740ff-1fca-4a6f-997a-9947df6d0b19"},"vehicle_type_id":"4","last_reported":1725912568,"current_range_meters":7600,"station_id":"ce4bhr12rcd13ifvqhpg","pricing_plan_id":"cebpf4jnsgd1na2vs0mg"},{"bike_id":"eca7f9f7-9e56-49fd-8e94-379d1985864c","system_id":"levelo_inurba_marseille","lat":43.299222,"lon":5.365554,"is_reserved":false,"is_disabled":false,"rental_uris":{"android":"levelo://app?vid=eca7f9f7-9e56-49fd-8e94-379d1985864c","ios":"levelo://app?vid=eca7f9f7-9e56-49fd-8e94-379d1985864c"},"vehicle_type_id":"4","last_reported":1725912568,"current_range_meters":30000,"station_id":"ce4bgm92rcd13ifvqbr0","pricing_plan_id":"cebpf4jnsgd1na2vs0mg"},{"bike_id":"edfb71de-2d28-4b49-82ea-a1ceb75eef6c","system_id":"levelo_inurba_marseille","lat":43.299222,"lon":5.365554,"is_reserved":false,"is_disabled":false,"rental_uris":{"android":"levelo://app?vid=edfb71de-2d28-4b49-82ea-a1ceb75eef6c","ios":"levelo://app?vid=edfb71de-2d28-4b49-82ea-a1ceb75eef6c"},"vehicle_type_id":"4","last_reported":1725912568,"current_range_meters":28400,"station_id":"ce4bgm92rcd13ifvqbr0","pricing_plan_id":"cebpf4jnsgd1na2vs0mg"},{"bike_id":"fee8e744-5c50-48f6-9693-580a03e6a333","system_id":"levelo_inurba_marseille","lat":43.305364,"lon":5.384119,"is_reserved":false,"is_disabled":false,"rental_uris":{"android":"levelo://app?vid=fee8e744-5c50-48f6-9693-580a03e6a333","ios":"levelo://app?vid=fee8e744-5c50-48f6-9693-580a03e6a333"},"vehicle_type_id":"4","last_reported":1725912568,"current_range_meters":0,"station_id":"ce4bgg92rcd13ifvqb30","pricing_plan_id":"cebpf4jnsgd1na2vs0mg"},{"bike_id":"79d6087f-f77f-4d69-9a95-544a1722c734","system_id":"levelo_inurba_marseille","lat":43.305364,"lon":5.384119,"is_reserved":false,"is_disabled":false,"rental_uris":{"android":"levelo://app?vid=79d6087f-f77f-4d69-9a95-544a1722c734","ios":"levelo://app?vid=79d6087f-f77f-4d69-9a95-544a1722c734"},"vehicle_type_id":"4","last_reported":1725912568,"current_range_meters":13600,"station_id":"ce4bgg92rcd13ifvqb30","pricing_plan_id":"cebpf4jnsgd1na2vs0mg"},{"bike_id":"d7059e32-2921-48b9-bb1c-185804524278","system_id":"levelo_inurba_marseille","lat":43.305364,"lon":5.384119,"is_reserved":false,"is_disabled":false,"rental_uris":{"android":"levelo://app?vid=d7059e32-2921-48b9-bb1c-185804524278","ios":"levelo://app?vid=d7059e32-2921-48b9-bb1c-185804524278"},"vehicle_type_id":"4","last_reported":1725912568,"current_range_meters":13200,"station_id":"ce4bgg92rcd13ifvqb30","pricing_plan_id":"cebpf4jnsgd1na2vs0mg"},{"bike_id":"e6401459-30ea-45bd-9712-c46b40afb053","system_id":"levelo_inurba_marseille","lat":43.305364,"lon":5.384119,"is_reserved":false,"is_disabled":false,"rental_uris":{"android":"levelo://app?vid=e6401459-30ea-45bd-9712-c46b40afb053","ios":"levelo://app?vid=e6401459-30ea-45bd-9712-c46b40afb053"},"vehicle_type_id":"4","last_reported":1725912568,"current_range_meters":31600,"station_id":"ce4bgg92rcd13ifvqb30","pricing_plan_id":"cebpf4jnsgd1na2vs0mg"},{"bike_id":"1b86f6c5-8283-4ea1-aeb9-fd52e1832574","system_id":"levelo_inurba_marseille","lat":43.305364,"lon":5.384119,"is_reserved":false,"is_disabled":false,"rental_uris":{"android":"levelo://app?vid=1b86f6c5-8283-4ea1-aeb9-fd52e1832574","ios":"levelo://app?vid=1b86f6c5-8283-4ea1-aeb9-fd52e1832574"},"vehicle_type_id":"4","last_reported":1725912568,"current_range_meters":22000,"station_id":"ce4bgg92rcd13ifvqb30","pricing_plan_id":"cebpf4jnsgd1na2vs0mg"},{"bike_id":"46631d22-3b93-45e2-8e8e-14ef69e4ed60","system_id":"levelo_inurba_marseille","lat":43.305364,"lon":5.384119,"is_reserved":false,"is_disabled":false,"rental_uris":{"android":"levelo://app?vid=46631d22-3b93-45e2-8e8e-14ef69e4ed60","ios":"levelo://app?vid=46631d22-3b93-45e2-8e8e-14ef69e4ed60"},"vehicle_type_id":"4","last_reported":1725912568,"current_range_meters":28400,"station_id":"ce4bgg92rcd13ifvqb30","pricing_plan_id":"cebpf4jnsgd1na2vs0mg"},{"bike_id":"3108d0d6-2431-45e6-9a7d-4e4e56b45f74","system_id":"levelo_inurba_marseille","lat":43.29819,"lon":5.36396,"is_reserved":false,"is_disabled":false,"rental_uris":{"android":"levelo://app?vid=3108d0d6-2431-45e6-9a7d-4e4e56b45f74","ios":"levelo://app?vid=3108d0d6-2431-45e6-9a7d-4e4e56b45f74"},"vehicle_type_id":"4","last_reported":1725912568,"current_range_meters":19200,"station_id":"","pricing_plan_id":"cebpf4jnsgd1na2vs0mg"},{"bike_id":"a8ac59aa-b754-489b-bd91-8f76f390d1e7","system_id":"levelo_inurba_marseille","lat":43.299243,"lon":5.374807,"is_reserved":false,"is_disabled":false,"rental_uris":{"android":"levelo://app?vid=a8ac59aa-b754-489b-bd91-8f76f390d1e7","ios":"levelo://app?vid=a8ac59aa-b754-489b-bd91-8f76f390d1e7"},"vehicle_type_id":"4","last_reported":1725912568,"current_range_meters":29200,"station_id":"ce4bgjh2rcd13ifvqbg0","pricing_plan_id":"cebpf4jnsgd1na2vs0mg"},{"bike_id":"83e83bb7-e2f4-413b-ba8f-e1790521dc25","system_id":"levelo_inurba_marseille","lat":43.311722,"lon":5.387247,"is_reserved":false,"is_disabled":false,"rental_uris":{"android":"levelo://app?vid=83e83bb7-e2f4-413b-ba8f-e1790521dc25","ios":"levelo://app?vid=83e83bb7-e2f4-413b-ba8f-e1790521dc25"},"vehicle_type_id":"4","last_reported":1725912568,"current_range_meters":7600,"station_id":"ce4bgv12rcd13ifvqcp0","pricing_plan_id":"cebpf4jnsgd1na2vs0mg"},{"bike_id":"e4c8e05e-1c9e-434a-881f-6e9e2be4aa22","system_id":"levelo_inurba_marseille","lat":43.311722,"lon":5.387247,"is_reserved":false,"is_disabled":false,"rental_uris":{"android":"levelo://app?vid=e4c8e05e-1c9e-434a-881f-6e9e2be4aa22","ios":"levelo://app?vid=e4c8e05e-1c9e-434a-881f-6e9e2be4aa22"},"vehicle_type_id":"4","last_reported":1725912568,"current_range_meters":17200,"station_id":"ce4bgv12rcd13ifvqcp0","pricing_plan_id":"cebpf4jnsgd1na2vs0mg"},{"bike_id":"31ddb5d3-78dd-4529-9266-9785da7147b0","system_id":"levelo_inurba_marseille","lat":43.311722,"lon":5.387247,"is_reserved":false,"is_disabled":false,"rental_uris":{"android":"levelo://app?vid=31ddb5d3-78dd-4529-9266-9785da7147b0","ios":"levelo://app?vid=31ddb5d3-78dd-4529-9266-9785da7147b0"},"vehicle_type_id":"4","last_reported":1725912568,"current_range_meters":29600,"station_id":"ce4bgv12rcd13ifvqcp0","pricing_plan_id":"cebpf4jnsgd1na2vs0mg"},{"bike_id":"f6a3c218-12ae-4ae4-b66e-ec4c0b2ebb1e","system_id":"levelo_inurba_marseille","lat":43.311722,"lon":5.387247,"is_reserved":false,"is_disabled":false,"rental_uris":{"android":"levelo://app?vid=f6a3c218-12ae-4ae4-b66e-ec4c0b2ebb1e","ios":"levelo://app?vid=f6a3c218-12ae-4ae4-b66e-ec4c0b2ebb1e"},"vehicle_type_id":"4","last_reported":1725912568,"current_range_meters":26800,"station_id":"ce4bgv12rcd13ifvqcp0","pricing_plan_id":"cebpf4jnsgd1na2vs0mg"},{"bike_id":"0ec2cd90-39b4-4f3c-a6c7-6b9f1456d60d","system_id":"levelo_inurba_marseille","lat":43.311722,"lon":5.387247,"is_reserved":false,"is_disabled":false,"rental_uris":{"android":"levelo://app?vid=0ec2cd90-39b4-4f3c-a6c7-6b9f1456d60d","ios":"levelo://app?vid=0ec2cd90-39b4-4f3c-a6c7-6b9f1456d60d"},"vehicle_type_id":"4","last_reported":1725912568,"current_range_meters":0,"station_id":"ce4bgv12rcd13ifvqcp0","pricing_plan_id":"cebpf4jnsgd1na2vs0mg"},{"bike_id":"bc7d9694-6beb-4661-9598-ebb278f83b4b","system_id":"levelo_inurba_marseille","lat":43.32285,"lon":5.38258,"is_reserved":false,"is_disabled":false,"rental_uris":{"android":"levelo://app?vid=bc7d9694-6beb-4661-9598-ebb278f83b4b","ios":"levelo://app?vid=bc7d9694-6beb-4661-9598-ebb278f83b4b"},"vehicle_type_id":"4","last_reported":1725912568,"current_range_meters":30400,"station_id":"ce4bhr12rcd13ifvqhqg","pricing_plan_id":"cebpf4jnsgd1na2vs0mg"},{"bike_id":"e92128e1-9c4e-4b5e-8475-f4834ef1ca90","system_id":"levelo_inurba_marseille","lat":43.322909,"lon":5.382627,"is_reserved":false,"is_disabled":false,"rental_uris":{"android":"levelo://app?vid=e92128e1-9c4e-4b5e-8475-f4834ef1ca90","ios":"levelo://app?vid=e92128e1-9c4e-4b5e-8475-f4834ef1ca90"},"vehicle_type_id":"4","last_reported":1725912568,"current_range_meters":24400,"station_id":"ce4bhr12rcd13ifvqhqg","pricing_plan_id":"cebpf4jnsgd1na2vs0mg"},{"bike_id":"e57c6050-55dd-4a7b-a30f-05f7abef2f6b","system_id":"levelo_inurba_marseille","lat":43.322872,"lon":5.382756,"is_reserved":false,"is_disabled":false,"rental_uris":{"android":"levelo://app?vid=e57c6050-55dd-4a7b-a30f-05f7abef2f6b","ios":"levelo://app?vid=e57c6050-55dd-4a7b-a30f-05f7abef2f6b"},"vehicle_type_id":"4","last_reported":1725912568,"current_range_meters":27200,"station_id":"ce4bhr12rcd13ifvqhqg","pricing_plan_id":"cebpf4jnsgd1na2vs0mg"},{"bike_id":"1d92197a-0bcd-41a9-a9c2-ff08e48b6482","system_id":"levelo_inurba_marseille","lat":43.322872,"lon":5.382756,"is_reserved":false,"is_disabled":false,"rental_uris":{"android":"levelo://app?vid=1d92197a-0bcd-41a9-a9c2-ff08e48b6482","ios":"levelo://app?vid=1d92197a-0bcd-41a9-a9c2-ff08e48b6482"},"vehicle_type_id":"4","last_reported":1725912568,"current_range_meters":18400,"station_id":"ce4bhr12rcd13ifvqhqg","pricing_plan_id":"cebpf4jnsgd1na2vs0mg"},{"bike_id":"34813d65-4aaa-40d7-9ccb-c4aa0b5d199f","system_id":"levelo_inurba_marseille","lat":43.322872,"lon":5.382756,"is_reserved":false,"is_disabled":false,"rental_uris":{"android":"levelo://app?vid=34813d65-4aaa-40d7-9ccb-c4aa0b5d199f","ios":"levelo://app?vid=34813d65-4aaa-40d7-9ccb-c4aa0b5d199f"},"vehicle_type_id":"4","last_reported":1725912568,"current_range_meters":31600,"station_id":"ce4bhr12rcd13ifvqhqg","pricing_plan_id":"cebpf4jnsgd1na2vs0mg"},{"bike_id":"83a17ab0-8e75-4386-be72-e04fb515cf54","system_id":"levelo_inurba_marseille","lat":43.322872,"lon":5.382756,"is_reserved":false,"is_disabled":false,"rental_uris":{"android":"levelo://app?vid=83a17ab0-8e75-4386-be72-e04fb515cf54","ios":"levelo://app?vid=83a17ab0-8e75-4386-be72-e04fb515cf54"},"vehicle_type_id":"4","last_reported":1725912568,"current_range_meters":14800,"station_id":"ce4bhr12rcd13ifvqhqg","pricing_plan_id":"cebpf4jnsgd1na2vs0mg"},{"bike_id":"c883b54a-09a8-4c3b-ad3f-9dbdd1429f8c","system_id":"levelo_inurba_marseille","lat":43.322872,"lon":5.382756,"is_reserved":false,"is_disabled":false,"rental_uris":{"android":"levelo://app?vid=c883b54a-09a8-4c3b-ad3f-9dbdd1429f8c","ios":"levelo://app?vid=c883b54a-09a8-4c3b-ad3f-9dbdd1429f8c"},"vehicle_type_id":"4","last_reported":1725912568,"current_range_meters":22400,"station_id":"ce4bhr12rcd13ifvqhqg","pricing_plan_id":"cebpf4jnsgd1na2vs0mg"},{"bike_id":"cce2cbc3-b0de-444c-b3af-a67a62d9c011","system_id":"levelo_inurba_marseille","lat":43.32294,"lon":5.38268,"is_reserved":false,"is_disabled":false,"rental_uris":{"android":"levelo://app?vid=cce2cbc3-b0de-444c-b3af-a67a62d9c011","ios":"levelo://app?vid=cce2cbc3-b0de-444c-b3af-a67a62d9c011"},"vehicle_type_id":"4","last_reported":1725912568,"current_range_meters":28800,"station_id":"ce4bhr12rcd13ifvqhqg","pricing_plan_id":"cebpf4jnsgd1na2vs0mg"},{"bike_id":"e8dbf825-2423-4190-abfa-7d8cec3f4a72","system_id":"levelo_inurba_marseille","lat":43.322872,"lon":5.382756,"is_reserved":false,"is_disabled":false,"rental_uris":{"android":"levelo://app?vid=e8dbf825-2423-4190-abfa-7d8cec3f4a72","ios":"levelo://app?vid=e8dbf825-2423-4190-abfa-7d8cec3f4a72"},"vehicle_type_id":"4","last_reported":1725912568,"current_range_meters":31600,"station_id":"ce4bhr12rcd13ifvqhqg","pricing_plan_id":"cebpf4jnsgd1na2vs0mg"},{"bike_id":"fedb6f27-1de1-4f22-89cc-18a3690d200b","system_id":"levelo_inurba_marseille","lat":43.322872,"lon":5.382756,"is_reserved":false,"is_disabled":false,"rental_uris":{"android":"levelo://app?vid=fedb6f27-1de1-4f22-89cc-18a3690d200b","ios":"levelo://app?vid=fedb6f27-1de1-4f22-89cc-18a3690d200b"},"vehicle_type_id":"4","last_reported":1725912568,"current_range_meters":31200,"station_id":"ce4bhr12rcd13ifvqhqg","pricing_plan_id":"cebpf4jnsgd1na2vs0mg"},{"bike_id":"3d96f58d-148a-4dae-ac34-ed96f64bee81","system_id":"levelo_inurba_marseille","lat":43.32292,"lon":5.38274,"is_reserved":false,"is_disabled":false,"rental_uris":{"android":"levelo://app?vid=3d96f58d-148a-4dae-ac34-ed96f64bee81","ios":"levelo://app?vid=3d96f58d-148a-4dae-ac34-ed96f64bee81"},"vehicle_type_id":"4","last_reported":1725912568,"current_range_meters":7600,"station_id":"ce4bhr12rcd13ifvqhqg","pricing_plan_id":"cebpf4jnsgd1na2vs0mg"},{"bike_id":"7965264e-d548-4a1e-b464-82432833ab8e","system_id":"levelo_inurba_marseille","lat":43.32295,"lon":5.38272,"is_reserved":false,"is_disabled":false,"rental_uris":{"android":"levelo://app?vid=7965264e-d548-4a1e-b464-82432833ab8e","ios":"levelo://app?vid=7965264e-d548-4a1e-b464-82432833ab8e"},"vehicle_type_id":"4","last_reported":1725912568,"current_range_meters":1200,"station_id":"ce4bhr12rcd13ifvqhqg","pricing_plan_id":"cebpf4jnsgd1na2vs0mg"},{"bike_id":"bd5ae5e0-5564-4541-94fc-ca0a05fd7fbd","system_id":"levelo_inurba_marseille","lat":43.322872,"lon":5.382756,"is_reserved":false,"is_disabled":false,"rental_uris":{"android":"levelo://app?vid=bd5ae5e0-5564-4541-94fc-ca0a05fd7fbd","ios":"levelo://app?vid=bd5ae5e0-5564-4541-94fc-ca0a05fd7fbd"},"vehicle_type_id":"4","last_reported":1725912568,"current_range_meters":31600,"station_id":"ce4bhr12rcd13ifvqhqg","pricing_plan_id":"cebpf4jnsgd1na2vs0mg"},{"bike_id":"e4930539-5ad1-4783-b899-4835c60d34cd","system_id":"levelo_inurba_marseille","lat":43.322872,"lon":5.382756,"is_reserved":false,"is_disabled":false,"rental_uris":{"android":"levelo://app?vid=e4930539-5ad1-4783-b899-4835c60d34cd","ios":"levelo://app?vid=e4930539-5ad1-4783-b899-4835c60d34cd"},"vehicle_type_id":"4","last_reported":1725912568,"current_range_meters":24000,"station_id":"ce4bhr12rcd13ifvqhqg","pricing_plan_id":"cebpf4jnsgd1na2vs0mg"},{"bike_id":"c482b600-71a9-464b-87a3-ea12530af1e1","system_id":"levelo_inurba_marseille","lat":43.297163,"lon":5.365866,"is_reserved":false,"is_disabled":false,"rental_uris":{"android":"levelo://app?vid=c482b600-71a9-464b-87a3-ea12530af1e1","ios":"levelo://app?vid=c482b600-71a9-464b-87a3-ea12530af1e1"},"vehicle_type_id":"4","last_reported":1725912568,"current_range_meters":14400,"station_id":"ce4bgn12rcd13ifvqbt0","pricing_plan_id":"cebpf4jnsgd1na2vs0mg"},{"bike_id":"fde39d71-b646-4c5c-9dd0-e3c556d526c3","system_id":"levelo_inurba_marseille","lat":43.297163,"lon":5.365866,"is_reserved":false,"is_disabled":false,"rental_uris":{"android":"levelo://app?vid=fde39d71-b646-4c5c-9dd0-e3c556d526c3","ios":"levelo://app?vid=fde39d71-b646-4c5c-9dd0-e3c556d526c3"},"vehicle_type_id":"4","last_reported":1725912568,"current_range_meters":18000,"station_id":"ce4bgn12rcd13ifvqbt0","pricing_plan_id":"cebpf4jnsgd1na2vs0mg"},{"bike_id":"508b0475-6059-4af4-9332-b40690c358e8","system_id":"levelo_inurba_marseille","lat":43.30037,"lon":5.38118,"is_reserved":false,"is_disabled":false,"rental_uris":{"android":"levelo://app?vid=508b0475-6059-4af4-9332-b40690c358e8","ios":"levelo://app?vid=508b0475-6059-4af4-9332-b40690c358e8"},"vehicle_type_id":"4","last_reported":1725912568,"current_range_meters":19200,"station_id":"","pricing_plan_id":"cebpf4jnsgd1na2vs0mg"},{"bike_id":"50e5f87c-03cb-4f5e-9d96-e2d066f9b1af","system_id":"levelo_inurba_marseille","lat":43.2968,"lon":5.37291,"is_reserved":false,"is_disabled":false,"rental_uris":{"android":"levelo://app?vid=50e5f87c-03cb-4f5e-9d96-e2d066f9b1af","ios":"levelo://app?vid=50e5f87c-03cb-4f5e-9d96-e2d066f9b1af"},"vehicle_type_id":"4","last_reported":1725912568,"current_range_meters":20400,"station_id":"ce4bgk12rcd13ifvqbj0","pricing_plan_id":"cebpf4jnsgd1na2vs0mg"},{"bike_id":"bc838d5b-cd5d-4283-8a33-be5a6e4c4a56","system_id":"levelo_inurba_marseille","lat":43.2968,"lon":5.37291,"is_reserved":false,"is_disabled":false,"rental_uris":{"android":"levelo://app?vid=bc838d5b-cd5d-4283-8a33-be5a6e4c4a56","ios":"levelo://app?vid=bc838d5b-cd5d-4283-8a33-be5a6e4c4a56"},"vehicle_type_id":"4","last_reported":1725912568,"current_range_meters":29600,"station_id":"ce4bgk12rcd13ifvqbj0","pricing_plan_id":"cebpf4jnsgd1na2vs0mg"},{"bike_id":"ca265b37-6679-4ccb-874c-def9e4e4e23a","system_id":"levelo_inurba_marseille","lat":43.2968,"lon":5.37291,"is_reserved":false,"is_disabled":false,"rental_uris":{"android":"levelo://app?vid=ca265b37-6679-4ccb-874c-def9e4e4e23a","ios":"levelo://app?vid=ca265b37-6679-4ccb-874c-def9e4e4e23a"},"vehicle_type_id":"4","last_reported":1725912568,"current_range_meters":22400,"station_id":"ce4bgk12rcd13ifvqbj0","pricing_plan_id":"cebpf4jnsgd1na2vs0mg"},{"bike_id":"b5d97f2f-ef1b-4cb2-ab8b-b20137a5dcac","system_id":"levelo_inurba_marseille","lat":43.296131,"lon":5.370791,"is_reserved":false,"is_disabled":false,"rental_uris":{"android":"levelo://app?vid=b5d97f2f-ef1b-4cb2-ab8b-b20137a5dcac","ios":"levelo://app?vid=b5d97f2f-ef1b-4cb2-ab8b-b20137a5dcac"},"vehicle_type_id":"4","last_reported":1725912568,"current_range_meters":11600,"station_id":"ce4bgnh2rcd13ifvqc0g","pricing_plan_id":"cebpf4jnsgd1na2vs0mg"},{"bike_id":"11b98439-34da-4dd7-b3d9-4e11d7a9dff0","system_id":"levelo_inurba_marseille","lat":43.296131,"lon":5.370791,"is_reserved":false,"is_disabled":false,"rental_uris":{"android":"levelo://app?vid=11b98439-34da-4dd7-b3d9-4e11d7a9dff0","ios":"levelo://app?vid=11b98439-34da-4dd7-b3d9-4e11d7a9dff0"},"vehicle_type_id":"4","last_reported":1725912568,"current_range_meters":17200,"station_id":"ce4bgnh2rcd13ifvqc0g","pricing_plan_id":"cebpf4jnsgd1na2vs0mg"},{"bike_id":"24180c3b-b848-4549-9c70-3183c3d7dc6d","system_id":"levelo_inurba_marseille","lat":43.2968,"lon":5.37291,"is_reserved":false,"is_disabled":false,"rental_uris":{"android":"levelo://app?vid=24180c3b-b848-4549-9c70-3183c3d7dc6d","ios":"levelo://app?vid=24180c3b-b848-4549-9c70-3183c3d7dc6d"},"vehicle_type_id":"4","last_reported":1725912568,"current_range_meters":13200,"station_id":"ce4bgk12rcd13ifvqbj0","pricing_plan_id":"cebpf4jnsgd1na2vs0mg"},{"bike_id":"5d11d787-1e1c-4824-bce8-74549ecfef73","system_id":"levelo_inurba_marseille","lat":43.296131,"lon":5.370773,"is_reserved":false,"is_disabled":false,"rental_uris":{"android":"levelo://app?vid=5d11d787-1e1c-4824-bce8-74549ecfef73","ios":"levelo://app?vid=5d11d787-1e1c-4824-bce8-74549ecfef73"},"vehicle_type_id":"4","last_reported":1725912568,"current_range_meters":27200,"station_id":"ce4bgnh2rcd13ifvqc0g","pricing_plan_id":"cebpf4jnsgd1na2vs0mg"},{"bike_id":"ee3a851e-4d2c-421f-91af-11f1479cb29f","system_id":"levelo_inurba_marseille","lat":43.29573,"lon":5.367355,"is_reserved":false,"is_disabled":false,"rental_uris":{"android":"levelo://app?vid=ee3a851e-4d2c-421f-91af-11f1479cb29f","ios":"levelo://app?vid=ee3a851e-4d2c-421f-91af-11f1479cb29f"},"vehicle_type_id":"4","last_reported":1725912568,"current_range_meters":28800,"station_id":"ce4bgph2rcd13ifvqc2g","pricing_plan_id":"cebpf4jnsgd1na2vs0mg"},{"bike_id":"ef68b171-477c-457f-9c28-cc98b0d0d996","system_id":"levelo_inurba_marseille","lat":43.309589,"lon":5.390258,"is_reserved":false,"is_disabled":false,"rental_uris":{"android":"levelo://app?vid=ef68b171-477c-457f-9c28-cc98b0d0d996","ios":"levelo://app?vid=ef68b171-477c-457f-9c28-cc98b0d0d996"},"vehicle_type_id":"4","last_reported":1725912568,"current_range_meters":19600,"station_id":"ce4bgup2rcd13ifvqco0","pricing_plan_id":"cebpf4jnsgd1na2vs0mg"},{"bike_id":"77e29f3a-7f38-46ad-ab7f-41a818fc50a8","system_id":"levelo_inurba_marseille","lat":43.30955,"lon":5.39031,"is_reserved":false,"is_disabled":false,"rental_uris":{"android":"levelo://app?vid=77e29f3a-7f38-46ad-ab7f-41a818fc50a8","ios":"levelo://app?vid=77e29f3a-7f38-46ad-ab7f-41a818fc50a8"},"vehicle_type_id":"4","last_reported":1725912568,"current_range_meters":29200,"station_id":"ce4bgup2rcd13ifvqco0","pricing_plan_id":"cebpf4jnsgd1na2vs0mg"},{"bike_id":"9669370c-adfc-4da6-9efa-0dfdcc451d4a","system_id":"levelo_inurba_marseille","lat":43.309589,"lon":5.390258,"is_reserved":false,"is_disabled":false,"rental_uris":{"android":"levelo://app?vid=9669370c-adfc-4da6-9efa-0dfdcc451d4a","ios":"levelo://app?vid=9669370c-adfc-4da6-9efa-0dfdcc451d4a"},"vehicle_type_id":"4","last_reported":1725912568,"current_range_meters":6800,"station_id":"ce4bgup2rcd13ifvqco0","pricing_plan_id":"cebpf4jnsgd1na2vs0mg"},{"bike_id":"d9ff599a-9d73-4a3d-816c-06cee8cc6867","system_id":"levelo_inurba_marseille","lat":43.309589,"lon":5.390258,"is_reserved":false,"is_disabled":false,"rental_uris":{"android":"levelo://app?vid=d9ff599a-9d73-4a3d-816c-06cee8cc6867","ios":"levelo://app?vid=d9ff599a-9d73-4a3d-816c-06cee8cc6867"},"vehicle_type_id":"4","last_reported":1725912568,"current_range_meters":6400,"station_id":"ce4bgup2rcd13ifvqco0","pricing_plan_id":"cebpf4jnsgd1na2vs0mg"},{"bike_id":"bfb70a11-9c63-424a-8059-a165ea2da443","system_id":"levelo_inurba_marseille","lat":43.31758,"lon":5.39011,"is_reserved":false,"is_disabled":false,"rental_uris":{"android":"levelo://app?vid=bfb70a11-9c63-424a-8059-a165ea2da443","ios":"levelo://app?vid=bfb70a11-9c63-424a-8059-a165ea2da443"},"vehicle_type_id":"4","last_reported":1725912568,"current_range_meters":20000,"station_id":"ce4bhqp2rcd13ifvqhng","pricing_plan_id":"cebpf4jnsgd1na2vs0mg"},{"bike_id":"071d5887-132e-4401-8ffb-8567f8b67c31","system_id":"levelo_inurba_marseille","lat":43.317557,"lon":5.390173,"is_reserved":false,"is_disabled":false,"rental_uris":{"android":"levelo://app?vid=071d5887-132e-4401-8ffb-8567f8b67c31","ios":"levelo://app?vid=071d5887-132e-4401-8ffb-8567f8b67c31"},"vehicle_type_id":"4","last_reported":1725912568,"current_range_meters":8800,"station_id":"ce4bhqp2rcd13ifvqhng","pricing_plan_id":"cebpf4jnsgd1na2vs0mg"},{"bike_id":"962fc77d-e054-4dec-b79e-7600e522b672","system_id":"levelo_inurba_marseille","lat":43.317557,"lon":5.390173,"is_reserved":false,"is_disabled":false,"rental_uris":{"android":"levelo://app?vid=962fc77d-e054-4dec-b79e-7600e522b672","ios":"levelo://app?vid=962fc77d-e054-4dec-b79e-7600e522b672"},"vehicle_type_id":"4","last_reported":1725912568,"current_range_meters":19600,"station_id":"ce4bhqp2rcd13ifvqhng","pricing_plan_id":"cebpf4jnsgd1na2vs0mg"},{"bike_id":"964e4a45-8764-4cc6-995a-a25fb2c66f48","system_id":"levelo_inurba_marseille","lat":43.317557,"lon":5.390173,"is_reserved":false,"is_disabled":false,"rental_uris":{"android":"levelo://app?vid=964e4a45-8764-4cc6-995a-a25fb2c66f48","ios":"levelo://app?vid=964e4a45-8764-4cc6-995a-a25fb2c66f48"},"vehicle_type_id":"4","last_reported":1725912568,"current_range_meters":28000,"station_id":"ce4bhqp2rcd13ifvqhng","pricing_plan_id":"cebpf4jnsgd1na2vs0mg"},{"bike_id":"82b8d6a9-34d6-4add-b029-1fc2325ea092","system_id":"levelo_inurba_marseille","lat":43.317557,"lon":5.390173,"is_reserved":false,"is_disabled":false,"rental_uris":{"android":"levelo://app?vid=82b8d6a9-34d6-4add-b029-1fc2325ea092","ios":"levelo://app?vid=82b8d6a9-34d6-4add-b029-1fc2325ea092"},"vehicle_type_id":"4","last_reported":1725912568,"current_range_meters":10400,"station_id":"ce4bhqp2rcd13ifvqhng","pricing_plan_id":"cebpf4jnsgd1na2vs0mg"},{"bike_id":"469f3b55-d927-45a9-af43-27e44ef3cacc","system_id":"levelo_inurba_marseille","lat":43.31755,"lon":5.39016,"is_reserved":false,"is_disabled":false,"rental_uris":{"android":"levelo://app?vid=469f3b55-d927-45a9-af43-27e44ef3cacc","ios":"levelo://app?vid=469f3b55-d927-45a9-af43-27e44ef3cacc"},"vehicle_type_id":"4","last_reported":1725912568,"current_range_meters":9200,"station_id":"ce4bhqp2rcd13ifvqhng","pricing_plan_id":"cebpf4jnsgd1na2vs0mg"},{"bike_id":"4d43ce63-2f86-4521-b911-0b32c647877d","system_id":"levelo_inurba_marseille","lat":43.317557,"lon":5.390173,"is_reserved":false,"is_disabled":false,"rental_uris":{"android":"levelo://app?vid=4d43ce63-2f86-4521-b911-0b32c647877d","ios":"levelo://app?vid=4d43ce63-2f86-4521-b911-0b32c647877d"},"vehicle_type_id":"4","last_reported":1725912568,"current_range_meters":22400,"station_id":"ce4bhqp2rcd13ifvqhng","pricing_plan_id":"cebpf4jnsgd1na2vs0mg"},{"bike_id":"1859df57-cb64-40ba-a99b-0252eadc8088","system_id":"levelo_inurba_marseille","lat":43.3176,"lon":5.39016,"is_reserved":false,"is_disabled":false,"rental_uris":{"android":"levelo://app?vid=1859df57-cb64-40ba-a99b-0252eadc8088","ios":"levelo://app?vid=1859df57-cb64-40ba-a99b-0252eadc8088"},"vehicle_type_id":"4","last_reported":1725912568,"current_range_meters":23600,"station_id":"ce4bhqp2rcd13ifvqhng","pricing_plan_id":"cebpf4jnsgd1na2vs0mg"},{"bike_id":"c1720d9a-96a0-468a-976b-f5a413c4466f","system_id":"levelo_inurba_marseille","lat":43.317557,"lon":5.390173,"is_reserved":false,"is_disabled":false,"rental_uris":{"android":"levelo://app?vid=c1720d9a-96a0-468a-976b-f5a413c4466f","ios":"levelo://app?vid=c1720d9a-96a0-468a-976b-f5a413c4466f"},"vehicle_type_id":"4","last_reported":1725912568,"current_range_meters":8800,"station_id":"ce4bhqp2rcd13ifvqhng","pricing_plan_id":"cebpf4jnsgd1na2vs0mg"},{"bike_id":"2cf98790-26f6-4aa9-82d0-f0e6c290738a","system_id":"levelo_inurba_marseille","lat":43.317557,"lon":5.390173,"is_reserved":false,"is_disabled":false,"rental_uris":{"android":"levelo://app?vid=2cf98790-26f6-4aa9-82d0-f0e6c290738a","ios":"levelo://app?vid=2cf98790-26f6-4aa9-82d0-f0e6c290738a"},"vehicle_type_id":"4","last_reported":1725912568,"current_range_meters":0,"station_id":"ce4bhqp2rcd13ifvqhng","pricing_plan_id":"cebpf4jnsgd1na2vs0mg"},{"bike_id":"7476f0b2-7d0b-4a02-ae90-0af681a15c54","system_id":"levelo_inurba_marseille","lat":43.31756,"lon":5.3902,"is_reserved":false,"is_disabled":false,"rental_uris":{"android":"levelo://app?vid=7476f0b2-7d0b-4a02-ae90-0af681a15c54","ios":"levelo://app?vid=7476f0b2-7d0b-4a02-ae90-0af681a15c54"},"vehicle_type_id":"4","last_reported":1725912568,"current_range_meters":18800,"station_id":"ce4bhqp2rcd13ifvqhng","pricing_plan_id":"cebpf4jnsgd1na2vs0mg"},{"bike_id":"01cc83f9-9650-4e9d-8a3b-a55632f27eca","system_id":"levelo_inurba_marseille","lat":43.317557,"lon":5.390173,"is_reserved":false,"is_disabled":false,"rental_uris":{"android":"levelo://app?vid=01cc83f9-9650-4e9d-8a3b-a55632f27eca","ios":"levelo://app?vid=01cc83f9-9650-4e9d-8a3b-a55632f27eca"},"vehicle_type_id":"4","last_reported":1725912568,"current_range_meters":14400,"station_id":"ce4bhqp2rcd13ifvqhng","pricing_plan_id":"cebpf4jnsgd1na2vs0mg"},{"bike_id":"c2651ea8-46f7-44cd-925f-b4e44c9318e7","system_id":"levelo_inurba_marseille","lat":43.31762,"lon":5.39019,"is_reserved":false,"is_disabled":false,"rental_uris":{"android":"levelo://app?vid=c2651ea8-46f7-44cd-925f-b4e44c9318e7","ios":"levelo://app?vid=c2651ea8-46f7-44cd-925f-b4e44c9318e7"},"vehicle_type_id":"4","last_reported":1725912568,"current_range_meters":14800,"station_id":"ce4bhqp2rcd13ifvqhng","pricing_plan_id":"cebpf4jnsgd1na2vs0mg"},{"bike_id":"ff50a1b3-e84d-4e81-b7e8-122b6fd58d91","system_id":"levelo_inurba_marseille","lat":43.317557,"lon":5.390173,"is_reserved":false,"is_disabled":false,"rental_uris":{"android":"levelo://app?vid=ff50a1b3-e84d-4e81-b7e8-122b6fd58d91","ios":"levelo://app?vid=ff50a1b3-e84d-4e81-b7e8-122b6fd58d91"},"vehicle_type_id":"4","last_reported":1725912568,"current_range_meters":6800,"station_id":"ce4bhqp2rcd13ifvqhng","pricing_plan_id":"cebpf4jnsgd1na2vs0mg"},{"bike_id":"263c2588-11f9-471e-858b-858e74c330bf","system_id":"levelo_inurba_marseille","lat":43.3176,"lon":5.39021,"is_reserved":false,"is_disabled":false,"rental_uris":{"android":"levelo://app?vid=263c2588-11f9-471e-858b-858e74c330bf","ios":"levelo://app?vid=263c2588-11f9-471e-858b-858e74c330bf"},"vehicle_type_id":"4","last_reported":1725912568,"current_range_meters":16400,"station_id":"ce4bhqp2rcd13ifvqhng","pricing_plan_id":"cebpf4jnsgd1na2vs0mg"},{"bike_id":"726b5e0a-f6df-45ed-8c82-e10efd5fe19b","system_id":"levelo_inurba_marseille","lat":43.317557,"lon":5.390173,"is_reserved":false,"is_disabled":false,"rental_uris":{"android":"levelo://app?vid=726b5e0a-f6df-45ed-8c82-e10efd5fe19b","ios":"levelo://app?vid=726b5e0a-f6df-45ed-8c82-e10efd5fe19b"},"vehicle_type_id":"4","last_reported":1725912568,"current_range_meters":17600,"station_id":"ce4bhqp2rcd13ifvqhng","pricing_plan_id":"cebpf4jnsgd1na2vs0mg"},{"bike_id":"7da48e77-1a22-4c7e-a9dc-6f60aefa4f34","system_id":"levelo_inurba_marseille","lat":43.317557,"lon":5.390173,"is_reserved":false,"is_disabled":false,"rental_uris":{"android":"levelo://app?vid=7da48e77-1a22-4c7e-a9dc-6f60aefa4f34","ios":"levelo://app?vid=7da48e77-1a22-4c7e-a9dc-6f60aefa4f34"},"vehicle_type_id":"4","last_reported":1725912568,"current_range_meters":31200,"station_id":"ce4bhqp2rcd13ifvqhng","pricing_plan_id":"cebpf4jnsgd1na2vs0mg"},{"bike_id":"9bfc7f83-9a3b-48db-89bc-7ba54061be6c","system_id":"levelo_inurba_marseille","lat":43.317557,"lon":5.390173,"is_reserved":false,"is_disabled":false,"rental_uris":{"android":"levelo://app?vid=9bfc7f83-9a3b-48db-89bc-7ba54061be6c","ios":"levelo://app?vid=9bfc7f83-9a3b-48db-89bc-7ba54061be6c"},"vehicle_type_id":"4","last_reported":1725912568,"current_range_meters":30800,"station_id":"ce4bhqp2rcd13ifvqhng","pricing_plan_id":"cebpf4jnsgd1na2vs0mg"},{"bike_id":"f76c6a89-1cfc-4a47-8f3c-e0d036bfaffe","system_id":"levelo_inurba_marseille","lat":43.31757,"lon":5.39029,"is_reserved":false,"is_disabled":false,"rental_uris":{"android":"levelo://app?vid=f76c6a89-1cfc-4a47-8f3c-e0d036bfaffe","ios":"levelo://app?vid=f76c6a89-1cfc-4a47-8f3c-e0d036bfaffe"},"vehicle_type_id":"4","last_reported":1725912568,"current_range_meters":24800,"station_id":"ce4bhqp2rcd13ifvqhng","pricing_plan_id":"cebpf4jnsgd1na2vs0mg"},{"bike_id":"b9ad2acd-fa38-420b-9ef4-0fbec17cb34f","system_id":"levelo_inurba_marseille","lat":43.295748,"lon":5.37522,"is_reserved":false,"is_disabled":false,"rental_uris":{"android":"levelo://app?vid=b9ad2acd-fa38-420b-9ef4-0fbec17cb34f","ios":"levelo://app?vid=b9ad2acd-fa38-420b-9ef4-0fbec17cb34f"},"vehicle_type_id":"4","last_reported":1725912568,"current_range_meters":30400,"station_id":"ce4bgh92rcd13ifvqb50","pricing_plan_id":"cebpf4jnsgd1na2vs0mg"},{"bike_id":"cf3c30d3-381f-4909-a019-983acc9c5ed8","system_id":"levelo_inurba_marseille","lat":43.304278,"lon":5.388868,"is_reserved":false,"is_disabled":false,"rental_uris":{"android":"levelo://app?vid=cf3c30d3-381f-4909-a019-983acc9c5ed8","ios":"levelo://app?vid=cf3c30d3-381f-4909-a019-983acc9c5ed8"},"vehicle_type_id":"4","last_reported":1725912568,"current_range_meters":12800,"station_id":"ce4bgk12rcd13ifvqbi0","pricing_plan_id":"cebpf4jnsgd1na2vs0mg"},{"bike_id":"0dcc723c-2ec5-4715-815a-5456b0737d94","system_id":"levelo_inurba_marseille","lat":43.295748,"lon":5.37522,"is_reserved":false,"is_disabled":false,"rental_uris":{"android":"levelo://app?vid=0dcc723c-2ec5-4715-815a-5456b0737d94","ios":"levelo://app?vid=0dcc723c-2ec5-4715-815a-5456b0737d94"},"vehicle_type_id":"4","last_reported":1725912568,"current_range_meters":0,"station_id":"ce4bgh92rcd13ifvqb50","pricing_plan_id":"cebpf4jnsgd1na2vs0mg"},{"bike_id":"2bc3310b-dacd-42e8-a66d-09471e0599f7","system_id":"levelo_inurba_marseille","lat":43.304278,"lon":5.388868,"is_reserved":false,"is_disabled":false,"rental_uris":{"android":"levelo://app?vid=2bc3310b-dacd-42e8-a66d-09471e0599f7","ios":"levelo://app?vid=2bc3310b-dacd-42e8-a66d-09471e0599f7"},"vehicle_type_id":"4","last_reported":1725912568,"current_range_meters":30400,"station_id":"ce4bgk12rcd13ifvqbi0","pricing_plan_id":"cebpf4jnsgd1na2vs0mg"},{"bike_id":"32736c7e-8d0b-4a1a-9b2d-b0060b431607","system_id":"levelo_inurba_marseille","lat":43.29794,"lon":5.38121,"is_reserved":false,"is_disabled":false,"rental_uris":{"android":"levelo://app?vid=32736c7e-8d0b-4a1a-9b2d-b0060b431607","ios":"levelo://app?vid=32736c7e-8d0b-4a1a-9b2d-b0060b431607"},"vehicle_type_id":"4","last_reported":1725912568,"current_range_meters":0,"station_id":"ce4bgip2rcd13ifvqbb0","pricing_plan_id":"cebpf4jnsgd1na2vs0mg"},{"bike_id":"27bc3a66-5292-472e-be7b-680a704c39c8","system_id":"levelo_inurba_marseille","lat":43.304278,"lon":5.388868,"is_reserved":false,"is_disabled":false,"rental_uris":{"android":"levelo://app?vid=27bc3a66-5292-472e-be7b-680a704c39c8","ios":"levelo://app?vid=27bc3a66-5292-472e-be7b-680a704c39c8"},"vehicle_type_id":"4","last_reported":1725912568,"current_range_meters":20000,"station_id":"ce4bgk12rcd13ifvqbi0","pricing_plan_id":"cebpf4jnsgd1na2vs0mg"},{"bike_id":"f145dfa7-d439-44cf-8ab3-8dcfa171290e","system_id":"levelo_inurba_marseille","lat":43.30427,"lon":5.38893,"is_reserved":false,"is_disabled":false,"rental_uris":{"android":"levelo://app?vid=f145dfa7-d439-44cf-8ab3-8dcfa171290e","ios":"levelo://app?vid=f145dfa7-d439-44cf-8ab3-8dcfa171290e"},"vehicle_type_id":"4","last_reported":1725912568,"current_range_meters":400,"station_id":"ce4bgk12rcd13ifvqbi0","pricing_plan_id":"cebpf4jnsgd1na2vs0mg"},{"bike_id":"390dd774-62c2-4be5-8f78-3211a8421236","system_id":"levelo_inurba_marseille","lat":43.30425,"lon":5.38894,"is_reserved":false,"is_disabled":false,"rental_uris":{"android":"levelo://app?vid=390dd774-62c2-4be5-8f78-3211a8421236","ios":"levelo://app?vid=390dd774-62c2-4be5-8f78-3211a8421236"},"vehicle_type_id":"4","last_reported":1725912568,"current_range_meters":31200,"station_id":"ce4bgk12rcd13ifvqbi0","pricing_plan_id":"cebpf4jnsgd1na2vs0mg"},{"bike_id":"e1865e16-dfa0-4e27-94b3-a79d09edd87c","system_id":"levelo_inurba_marseille","lat":43.30428,"lon":5.388977,"is_reserved":false,"is_disabled":false,"rental_uris":{"android":"levelo://app?vid=e1865e16-dfa0-4e27-94b3-a79d09edd87c","ios":"levelo://app?vid=e1865e16-dfa0-4e27-94b3-a79d09edd87c"},"vehicle_type_id":"4","last_reported":1725912568,"current_range_meters":23200,"station_id":"ce4bgk12rcd13ifvqbi0","pricing_plan_id":"cebpf4jnsgd1na2vs0mg"},{"bike_id":"f8511c01-1c61-4276-85bb-bd4d486f72dc","system_id":"levelo_inurba_marseille","lat":43.2976,"lon":5.381033,"is_reserved":false,"is_disabled":false,"rental_uris":{"android":"levelo://app?vid=f8511c01-1c61-4276-85bb-bd4d486f72dc","ios":"levelo://app?vid=f8511c01-1c61-4276-85bb-bd4d486f72dc"},"vehicle_type_id":"4","last_reported":1725912568,"current_range_meters":28000,"station_id":"ce4bgip2rcd13ifvqbb0","pricing_plan_id":"cebpf4jnsgd1na2vs0mg"},{"bike_id":"c92da41c-92f2-41fc-8319-8b7fc8821fef","system_id":"levelo_inurba_marseille","lat":43.299717,"lon":5.384845,"is_reserved":false,"is_disabled":false,"rental_uris":{"android":"levelo://app?vid=c92da41c-92f2-41fc-8319-8b7fc8821fef","ios":"levelo://app?vid=c92da41c-92f2-41fc-8319-8b7fc8821fef"},"vehicle_type_id":"4","last_reported":1725912568,"current_range_meters":0,"station_id":"ce4bgj92rcd13ifvqbd0","pricing_plan_id":"cebpf4jnsgd1na2vs0mg"},{"bike_id":"0f1aee4e-0433-4b9b-8256-139bdfd970eb","system_id":"levelo_inurba_marseille","lat":43.32367,"lon":5.38878,"is_reserved":false,"is_disabled":false,"rental_uris":{"android":"levelo://app?vid=0f1aee4e-0433-4b9b-8256-139bdfd970eb","ios":"levelo://app?vid=0f1aee4e-0433-4b9b-8256-139bdfd970eb"},"vehicle_type_id":"4","last_reported":1725912568,"current_range_meters":24400,"station_id":"ce4bhqp2rcd13ifvqhog","pricing_plan_id":"cebpf4jnsgd1na2vs0mg"},{"bike_id":"d46255ba-c505-4d65-9a11-b745c4469e04","system_id":"levelo_inurba_marseille","lat":43.32367,"lon":5.388836,"is_reserved":false,"is_disabled":false,"rental_uris":{"android":"levelo://app?vid=d46255ba-c505-4d65-9a11-b745c4469e04","ios":"levelo://app?vid=d46255ba-c505-4d65-9a11-b745c4469e04"},"vehicle_type_id":"4","last_reported":1725912568,"current_range_meters":0,"station_id":"ce4bhqp2rcd13ifvqhog","pricing_plan_id":"cebpf4jnsgd1na2vs0mg"},{"bike_id":"e70ee1bb-a26e-4052-9540-28721896adb2","system_id":"levelo_inurba_marseille","lat":43.32366,"lon":5.38885,"is_reserved":false,"is_disabled":false,"rental_uris":{"android":"levelo://app?vid=e70ee1bb-a26e-4052-9540-28721896adb2","ios":"levelo://app?vid=e70ee1bb-a26e-4052-9540-28721896adb2"},"vehicle_type_id":"4","last_reported":1725912568,"current_range_meters":4400,"station_id":"ce4bhqp2rcd13ifvqhog","pricing_plan_id":"cebpf4jnsgd1na2vs0mg"},{"bike_id":"0a7cfa17-d7c4-4d24-979d-9c6062a81b39","system_id":"levelo_inurba_marseille","lat":43.32368,"lon":5.38884,"is_reserved":false,"is_disabled":false,"rental_uris":{"android":"levelo://app?vid=0a7cfa17-d7c4-4d24-979d-9c6062a81b39","ios":"levelo://app?vid=0a7cfa17-d7c4-4d24-979d-9c6062a81b39"},"vehicle_type_id":"4","last_reported":1725912568,"current_range_meters":20000,"station_id":"ce4bhqp2rcd13ifvqhog","pricing_plan_id":"cebpf4jnsgd1na2vs0mg"},{"bike_id":"b975319d-6416-4db1-9e62-7e7fbac1d44e","system_id":"levelo_inurba_marseille","lat":43.323682,"lon":5.388846,"is_reserved":false,"is_disabled":false,"rental_uris":{"android":"levelo://app?vid=b975319d-6416-4db1-9e62-7e7fbac1d44e","ios":"levelo://app?vid=b975319d-6416-4db1-9e62-7e7fbac1d44e"},"vehicle_type_id":"4","last_reported":1725912568,"current_range_meters":800,"station_id":"ce4bhqp2rcd13ifvqhog","pricing_plan_id":"cebpf4jnsgd1na2vs0mg"},{"bike_id":"2c86e902-eca6-4fe5-88cf-41ff27469b4d","system_id":"levelo_inurba_marseille","lat":43.323691,"lon":5.38884,"is_reserved":false,"is_disabled":false,"rental_uris":{"android":"levelo://app?vid=2c86e902-eca6-4fe5-88cf-41ff27469b4d","ios":"levelo://app?vid=2c86e902-eca6-4fe5-88cf-41ff27469b4d"},"vehicle_type_id":"4","last_reported":1725912568,"current_range_meters":27600,"station_id":"ce4bhqp2rcd13ifvqhog","pricing_plan_id":"cebpf4jnsgd1na2vs0mg"},{"bike_id":"19925d1e-e182-41c6-b5c7-a118e779ff7b","system_id":"levelo_inurba_marseille","lat":43.32369,"lon":5.38885,"is_reserved":false,"is_disabled":false,"rental_uris":{"android":"levelo://app?vid=19925d1e-e182-41c6-b5c7-a118e779ff7b","ios":"levelo://app?vid=19925d1e-e182-41c6-b5c7-a118e779ff7b"},"vehicle_type_id":"4","last_reported":1725912568,"current_range_meters":23200,"station_id":"ce4bhqp2rcd13ifvqhog","pricing_plan_id":"cebpf4jnsgd1na2vs0mg"},{"bike_id":"7b3be378-99cc-485f-beb1-ad89c32e25ab","system_id":"levelo_inurba_marseille","lat":43.3237,"lon":5.38886,"is_reserved":false,"is_disabled":false,"rental_uris":{"android":"levelo://app?vid=7b3be378-99cc-485f-beb1-ad89c32e25ab","ios":"levelo://app?vid=7b3be378-99cc-485f-beb1-ad89c32e25ab"},"vehicle_type_id":"4","last_reported":1725912568,"current_range_meters":8400,"station_id":"ce4bhqp2rcd13ifvqhog","pricing_plan_id":"cebpf4jnsgd1na2vs0mg"},{"bike_id":"6ff8ac32-762c-429b-9572-6a2826a72ecf","system_id":"levelo_inurba_marseille","lat":43.32365,"lon":5.38891,"is_reserved":false,"is_disabled":false,"rental_uris":{"android":"levelo://app?vid=6ff8ac32-762c-429b-9572-6a2826a72ecf","ios":"levelo://app?vid=6ff8ac32-762c-429b-9572-6a2826a72ecf"},"vehicle_type_id":"4","last_reported":1725912568,"current_range_meters":0,"station_id":"ce4bhqp2rcd13ifvqhog","pricing_plan_id":"cebpf4jnsgd1na2vs0mg"},{"bike_id":"393a23e2-a248-4a81-8d18-99f86620f075","system_id":"levelo_inurba_marseille","lat":43.32367,"lon":5.388836,"is_reserved":false,"is_disabled":false,"rental_uris":{"android":"levelo://app?vid=393a23e2-a248-4a81-8d18-99f86620f075","ios":"levelo://app?vid=393a23e2-a248-4a81-8d18-99f86620f075"},"vehicle_type_id":"4","last_reported":1725912568,"current_range_meters":30800,"station_id":"ce4bhqp2rcd13ifvqhog","pricing_plan_id":"cebpf4jnsgd1na2vs0mg"},{"bike_id":"956c348e-0be6-48da-adfd-089f36ca5259","system_id":"levelo_inurba_marseille","lat":43.32369,"lon":5.38889,"is_reserved":false,"is_disabled":false,"rental_uris":{"android":"levelo://app?vid=956c348e-0be6-48da-adfd-089f36ca5259","ios":"levelo://app?vid=956c348e-0be6-48da-adfd-089f36ca5259"},"vehicle_type_id":"4","last_reported":1725912568,"current_range_meters":21600,"station_id":"ce4bhqp2rcd13ifvqhog","pricing_plan_id":"cebpf4jnsgd1na2vs0mg"},{"bike_id":"35edce4e-d766-46a4-8225-dbd1585f3b66","system_id":"levelo_inurba_marseille","lat":43.323659,"lon":5.38893,"is_reserved":false,"is_disabled":false,"rental_uris":{"android":"levelo://app?vid=35edce4e-d766-46a4-8225-dbd1585f3b66","ios":"levelo://app?vid=35edce4e-d766-46a4-8225-dbd1585f3b66"},"vehicle_type_id":"4","last_reported":1725912568,"current_range_meters":16000,"station_id":"ce4bhqp2rcd13ifvqhog","pricing_plan_id":"cebpf4jnsgd1na2vs0mg"},{"bike_id":"7aa73201-1a29-4dc9-b6c7-0cb7c318e8ef","system_id":"levelo_inurba_marseille","lat":43.293009,"lon":5.374584,"is_reserved":false,"is_disabled":false,"rental_uris":{"android":"levelo://app?vid=7aa73201-1a29-4dc9-b6c7-0cb7c318e8ef","ios":"levelo://app?vid=7aa73201-1a29-4dc9-b6c7-0cb7c318e8ef"},"vehicle_type_id":"4","last_reported":1725912568,"current_range_meters":16000,"station_id":"ce4bgi12rcd13ifvqb70","pricing_plan_id":"cebpf4jnsgd1na2vs0mg"},{"bike_id":"5ad86fd0-de56-4da1-8eff-844e8c9eeb22","system_id":"levelo_inurba_marseille","lat":43.3237,"lon":5.38926,"is_reserved":false,"is_disabled":false,"rental_uris":{"android":"levelo://app?vid=5ad86fd0-de56-4da1-8eff-844e8c9eeb22","ios":"levelo://app?vid=5ad86fd0-de56-4da1-8eff-844e8c9eeb22"},"vehicle_type_id":"4","last_reported":1725912568,"current_range_meters":16400,"station_id":"","pricing_plan_id":"cebpf4jnsgd1na2vs0mg"},{"bike_id":"a7eb263c-eae4-4598-8215-a297ddb02bd1","system_id":"levelo_inurba_marseille","lat":43.29602,"lon":5.381084,"is_reserved":false,"is_disabled":false,"rental_uris":{"android":"levelo://app?vid=a7eb263c-eae4-4598-8215-a297ddb02bd1","ios":"levelo://app?vid=a7eb263c-eae4-4598-8215-a297ddb02bd1"},"vehicle_type_id":"4","last_reported":1725912568,"current_range_meters":15200,"station_id":"ce4bgl12rcd13ifvqbo0","pricing_plan_id":"cebpf4jnsgd1na2vs0mg"},{"bike_id":"57e2c876-46ee-4f48-a9d4-e7177e240c84","system_id":"levelo_inurba_marseille","lat":43.29585,"lon":5.3812,"is_reserved":false,"is_disabled":false,"rental_uris":{"android":"levelo://app?vid=57e2c876-46ee-4f48-a9d4-e7177e240c84","ios":"levelo://app?vid=57e2c876-46ee-4f48-a9d4-e7177e240c84"},"vehicle_type_id":"4","last_reported":1725912568,"current_range_meters":0,"station_id":"ce4bgl12rcd13ifvqbo0","pricing_plan_id":"cebpf4jnsgd1na2vs0mg"},{"bike_id":"557bda83-8484-4dd3-8fb2-c38c87c649ae","system_id":"levelo_inurba_marseille","lat":43.293259,"lon":5.371586,"is_reserved":false,"is_disabled":false,"rental_uris":{"android":"levelo://app?vid=557bda83-8484-4dd3-8fb2-c38c87c649ae","ios":"levelo://app?vid=557bda83-8484-4dd3-8fb2-c38c87c649ae"},"vehicle_type_id":"4","last_reported":1725912568,"current_range_meters":2400,"station_id":"ce4bgh92rcd13ifvqb40","pricing_plan_id":"cebpf4jnsgd1na2vs0mg"},{"bike_id":"14feb9fb-8e12-4ae3-9b5a-01c349fc1ad9","system_id":"levelo_inurba_marseille","lat":43.293249,"lon":5.371578,"is_reserved":false,"is_disabled":false,"rental_uris":{"android":"levelo://app?vid=14feb9fb-8e12-4ae3-9b5a-01c349fc1ad9","ios":"levelo://app?vid=14feb9fb-8e12-4ae3-9b5a-01c349fc1ad9"},"vehicle_type_id":"4","last_reported":1725912568,"current_range_meters":29200,"station_id":"ce4bgh92rcd13ifvqb40","pricing_plan_id":"cebpf4jnsgd1na2vs0mg"},{"bike_id":"40d9c4ec-f456-4005-af9c-e240b403b1ac","system_id":"levelo_inurba_marseille","lat":43.293259,"lon":5.371586,"is_reserved":false,"is_disabled":false,"rental_uris":{"android":"levelo://app?vid=40d9c4ec-f456-4005-af9c-e240b403b1ac","ios":"levelo://app?vid=40d9c4ec-f456-4005-af9c-e240b403b1ac"},"vehicle_type_id":"4","last_reported":1725912568,"current_range_meters":29600,"station_id":"ce4bgh92rcd13ifvqb40","pricing_plan_id":"cebpf4jnsgd1na2vs0mg"},{"bike_id":"c12c4f6b-ea0c-4732-94dd-e67c44c7393e","system_id":"levelo_inurba_marseille","lat":43.292749,"lon":5.368402,"is_reserved":false,"is_disabled":false,"rental_uris":{"android":"levelo://app?vid=c12c4f6b-ea0c-4732-94dd-e67c44c7393e","ios":"levelo://app?vid=c12c4f6b-ea0c-4732-94dd-e67c44c7393e"},"vehicle_type_id":"4","last_reported":1725912568,"current_range_meters":1600,"station_id":"ce4bhbp2rcd13ifvqesg","pricing_plan_id":"cebpf4jnsgd1na2vs0mg"},{"bike_id":"3a65f234-470c-4c38-a4c5-f5bef80012ee","system_id":"levelo_inurba_marseille","lat":43.293259,"lon":5.371586,"is_reserved":false,"is_disabled":false,"rental_uris":{"android":"levelo://app?vid=3a65f234-470c-4c38-a4c5-f5bef80012ee","ios":"levelo://app?vid=3a65f234-470c-4c38-a4c5-f5bef80012ee"},"vehicle_type_id":"4","last_reported":1725912568,"current_range_meters":26800,"station_id":"ce4bgh92rcd13ifvqb40","pricing_plan_id":"cebpf4jnsgd1na2vs0mg"},{"bike_id":"8e447e97-f646-44e8-bbd4-fb9e8872b9c6","system_id":"levelo_inurba_marseille","lat":43.29274,"lon":5.36858,"is_reserved":false,"is_disabled":false,"rental_uris":{"android":"levelo://app?vid=8e447e97-f646-44e8-bbd4-fb9e8872b9c6","ios":"levelo://app?vid=8e447e97-f646-44e8-bbd4-fb9e8872b9c6"},"vehicle_type_id":"4","last_reported":1725912568,"current_range_meters":0,"station_id":"ce4bhbp2rcd13ifvqesg","pricing_plan_id":"cebpf4jnsgd1na2vs0mg"},{"bike_id":"1ba68595-54e3-4e08-bc1c-1d946133deeb","system_id":"levelo_inurba_marseille","lat":43.292749,"lon":5.368402,"is_reserved":false,"is_disabled":false,"rental_uris":{"android":"levelo://app?vid=1ba68595-54e3-4e08-bc1c-1d946133deeb","ios":"levelo://app?vid=1ba68595-54e3-4e08-bc1c-1d946133deeb"},"vehicle_type_id":"4","last_reported":1725912568,"current_range_meters":11600,"station_id":"ce4bhbp2rcd13ifvqesg","pricing_plan_id":"cebpf4jnsgd1na2vs0mg"},{"bike_id":"cbcdcfb6-255b-4dab-b5a9-a740a04e33eb","system_id":"levelo_inurba_marseille","lat":43.29307,"lon":5.3746,"is_reserved":false,"is_disabled":false,"rental_uris":{"android":"levelo://app?vid=cbcdcfb6-255b-4dab-b5a9-a740a04e33eb","ios":"levelo://app?vid=cbcdcfb6-255b-4dab-b5a9-a740a04e33eb"},"vehicle_type_id":"4","last_reported":1725912568,"current_range_meters":10800,"station_id":"","pricing_plan_id":"cebpf4jnsgd1na2vs0mg"},{"bike_id":"485a28f3-9b06-482e-ab0e-200bc1acd3a2","system_id":"levelo_inurba_marseille","lat":43.30599,"lon":5.39355,"is_reserved":false,"is_disabled":false,"rental_uris":{"android":"levelo://app?vid=485a28f3-9b06-482e-ab0e-200bc1acd3a2","ios":"levelo://app?vid=485a28f3-9b06-482e-ab0e-200bc1acd3a2"},"vehicle_type_id":"4","last_reported":1725912568,"current_range_meters":6400,"station_id":"ce4bh0p2rcd13ifvqd80","pricing_plan_id":"cebpf4jnsgd1na2vs0mg"},{"bike_id":"c03f28a3-cc47-4b46-bb1d-47d88ca274ea","system_id":"levelo_inurba_marseille","lat":43.305994,"lon":5.393687,"is_reserved":false,"is_disabled":false,"rental_uris":{"android":"levelo://app?vid=c03f28a3-cc47-4b46-bb1d-47d88ca274ea","ios":"levelo://app?vid=c03f28a3-cc47-4b46-bb1d-47d88ca274ea"},"vehicle_type_id":"4","last_reported":1725912568,"current_range_meters":12800,"station_id":"ce4bh0p2rcd13ifvqd80","pricing_plan_id":"cebpf4jnsgd1na2vs0mg"},{"bike_id":"bdd3a71b-b3f5-4372-9950-1c95d0a8562b","system_id":"levelo_inurba_marseille","lat":43.305994,"lon":5.393687,"is_reserved":false,"is_disabled":false,"rental_uris":{"android":"levelo://app?vid=bdd3a71b-b3f5-4372-9950-1c95d0a8562b","ios":"levelo://app?vid=bdd3a71b-b3f5-4372-9950-1c95d0a8562b"},"vehicle_type_id":"4","last_reported":1725912568,"current_range_meters":28000,"station_id":"ce4bh0p2rcd13ifvqd80","pricing_plan_id":"cebpf4jnsgd1na2vs0mg"},{"bike_id":"9ff691f6-4cca-452f-9d41-fc1ba17f855e","system_id":"levelo_inurba_marseille","lat":43.305994,"lon":5.393687,"is_reserved":false,"is_disabled":false,"rental_uris":{"android":"levelo://app?vid=9ff691f6-4cca-452f-9d41-fc1ba17f855e","ios":"levelo://app?vid=9ff691f6-4cca-452f-9d41-fc1ba17f855e"},"vehicle_type_id":"4","last_reported":1725912568,"current_range_meters":30400,"station_id":"ce4bh0p2rcd13ifvqd80","pricing_plan_id":"cebpf4jnsgd1na2vs0mg"},{"bike_id":"f4420fa5-256a-4df5-a96b-0490e28d5006","system_id":"levelo_inurba_marseille","lat":43.305994,"lon":5.393687,"is_reserved":false,"is_disabled":false,"rental_uris":{"android":"levelo://app?vid=f4420fa5-256a-4df5-a96b-0490e28d5006","ios":"levelo://app?vid=f4420fa5-256a-4df5-a96b-0490e28d5006"},"vehicle_type_id":"4","last_reported":1725912568,"current_range_meters":14000,"station_id":"ce4bh0p2rcd13ifvqd80","pricing_plan_id":"cebpf4jnsgd1na2vs0mg"},{"bike_id":"5ea343c1-6d26-4c6e-800f-714fa3c1e2de","system_id":"levelo_inurba_marseille","lat":43.305994,"lon":5.393687,"is_reserved":false,"is_disabled":false,"rental_uris":{"android":"levelo://app?vid=5ea343c1-6d26-4c6e-800f-714fa3c1e2de","ios":"levelo://app?vid=5ea343c1-6d26-4c6e-800f-714fa3c1e2de"},"vehicle_type_id":"4","last_reported":1725912568,"current_range_meters":3600,"station_id":"ce4bh0p2rcd13ifvqd80","pricing_plan_id":"cebpf4jnsgd1na2vs0mg"},{"bike_id":"8d66c462-af30-4e3c-a37b-aadccd3f1e33","system_id":"levelo_inurba_marseille","lat":43.305994,"lon":5.393687,"is_reserved":false,"is_disabled":false,"rental_uris":{"android":"levelo://app?vid=8d66c462-af30-4e3c-a37b-aadccd3f1e33","ios":"levelo://app?vid=8d66c462-af30-4e3c-a37b-aadccd3f1e33"},"vehicle_type_id":"4","last_reported":1725912568,"current_range_meters":31200,"station_id":"ce4bh0p2rcd13ifvqd80","pricing_plan_id":"cebpf4jnsgd1na2vs0mg"},{"bike_id":"5016f290-0801-4809-9733-b557f738a8cd","system_id":"levelo_inurba_marseille","lat":43.305994,"lon":5.393687,"is_reserved":false,"is_disabled":false,"rental_uris":{"android":"levelo://app?vid=5016f290-0801-4809-9733-b557f738a8cd","ios":"levelo://app?vid=5016f290-0801-4809-9733-b557f738a8cd"},"vehicle_type_id":"4","last_reported":1725912568,"current_range_meters":22000,"station_id":"ce4bh0p2rcd13ifvqd80","pricing_plan_id":"cebpf4jnsgd1na2vs0mg"},{"bike_id":"23a27ced-fd4a-41c9-8c66-eb31ba9c8258","system_id":"levelo_inurba_marseille","lat":43.30591,"lon":5.39364,"is_reserved":false,"is_disabled":false,"rental_uris":{"android":"levelo://app?vid=23a27ced-fd4a-41c9-8c66-eb31ba9c8258","ios":"levelo://app?vid=23a27ced-fd4a-41c9-8c66-eb31ba9c8258"},"vehicle_type_id":"4","last_reported":1725912568,"current_range_meters":20400,"station_id":"ce4bh0p2rcd13ifvqd80","pricing_plan_id":"cebpf4jnsgd1na2vs0mg"},{"bike_id":"b01401ab-651f-46f7-83ad-6a48a3816623","system_id":"levelo_inurba_marseille","lat":43.305994,"lon":5.393687,"is_reserved":false,"is_disabled":false,"rental_uris":{"android":"levelo://app?vid=b01401ab-651f-46f7-83ad-6a48a3816623","ios":"levelo://app?vid=b01401ab-651f-46f7-83ad-6a48a3816623"},"vehicle_type_id":"4","last_reported":1725912568,"current_range_meters":23600,"station_id":"ce4bh0p2rcd13ifvqd80","pricing_plan_id":"cebpf4jnsgd1na2vs0mg"},{"bike_id":"321df28f-9918-464b-91ef-d0b3cfa5e3d0","system_id":"levelo_inurba_marseille","lat":43.30589,"lon":5.39365,"is_reserved":false,"is_disabled":false,"rental_uris":{"android":"levelo://app?vid=321df28f-9918-464b-91ef-d0b3cfa5e3d0","ios":"levelo://app?vid=321df28f-9918-464b-91ef-d0b3cfa5e3d0"},"vehicle_type_id":"4","last_reported":1725912568,"current_range_meters":22400,"station_id":"ce4bh0p2rcd13ifvqd80","pricing_plan_id":"cebpf4jnsgd1na2vs0mg"},{"bike_id":"bd06ee13-ca1f-494f-851a-59e2a4e98fc9","system_id":"levelo_inurba_marseille","lat":43.303002,"lon":5.392142,"is_reserved":false,"is_disabled":false,"rental_uris":{"android":"levelo://app?vid=bd06ee13-ca1f-494f-851a-59e2a4e98fc9","ios":"levelo://app?vid=bd06ee13-ca1f-494f-851a-59e2a4e98fc9"},"vehicle_type_id":"4","last_reported":1725912568,"current_range_meters":31200,"station_id":"ce4bgkh2rcd13ifvqbk0","pricing_plan_id":"cebpf4jnsgd1na2vs0mg"},{"bike_id":"d01c2cf6-47f9-44c2-9417-f764291fbd74","system_id":"levelo_inurba_marseille","lat":43.29374,"lon":5.37855,"is_reserved":false,"is_disabled":false,"rental_uris":{"android":"levelo://app?vid=d01c2cf6-47f9-44c2-9417-f764291fbd74","ios":"levelo://app?vid=d01c2cf6-47f9-44c2-9417-f764291fbd74"},"vehicle_type_id":"4","last_reported":1725912568,"current_range_meters":31200,"station_id":"ce4bgjh2rcd13ifvqbf0","pricing_plan_id":"cebpf4jnsgd1na2vs0mg"},{"bike_id":"f50bc75e-c8a0-4f7e-9aa0-271b628493d3","system_id":"levelo_inurba_marseille","lat":43.2936,"lon":5.37835,"is_reserved":false,"is_disabled":false,"rental_uris":{"android":"levelo://app?vid=f50bc75e-c8a0-4f7e-9aa0-271b628493d3","ios":"levelo://app?vid=f50bc75e-c8a0-4f7e-9aa0-271b628493d3"},"vehicle_type_id":"4","last_reported":1725912568,"current_range_meters":27200,"station_id":"ce4bgjh2rcd13ifvqbf0","pricing_plan_id":"cebpf4jnsgd1na2vs0mg"},{"bike_id":"6f95e893-3c5e-4976-ae7a-77ae21476b98","system_id":"levelo_inurba_marseille","lat":43.2936,"lon":5.37835,"is_reserved":false,"is_disabled":false,"rental_uris":{"android":"levelo://app?vid=6f95e893-3c5e-4976-ae7a-77ae21476b98","ios":"levelo://app?vid=6f95e893-3c5e-4976-ae7a-77ae21476b98"},"vehicle_type_id":"4","last_reported":1725912568,"current_range_meters":20400,"station_id":"ce4bgjh2rcd13ifvqbf0","pricing_plan_id":"cebpf4jnsgd1na2vs0mg"},{"bike_id":"03276b07-b412-498a-91a0-ea267aaeccff","system_id":"levelo_inurba_marseille","lat":43.292244,"lon":5.360579,"is_reserved":false,"is_disabled":false,"rental_uris":{"android":"levelo://app?vid=03276b07-b412-498a-91a0-ea267aaeccff","ios":"levelo://app?vid=03276b07-b412-498a-91a0-ea267aaeccff"},"vehicle_type_id":"4","last_reported":1725912568,"current_range_meters":30400,"station_id":"ce4bhbh2rcd13ifvqeqg","pricing_plan_id":"cebpf4jnsgd1na2vs0mg"},{"bike_id":"80025bb9-0e4d-4e0e-b69d-73546dc7036e","system_id":"levelo_inurba_marseille","lat":43.29226,"lon":5.36047,"is_reserved":false,"is_disabled":false,"rental_uris":{"android":"levelo://app?vid=80025bb9-0e4d-4e0e-b69d-73546dc7036e","ios":"levelo://app?vid=80025bb9-0e4d-4e0e-b69d-73546dc7036e"},"vehicle_type_id":"4","last_reported":1725912568,"current_range_meters":30800,"station_id":"ce4bhbh2rcd13ifvqeqg","pricing_plan_id":"cebpf4jnsgd1na2vs0mg"},{"bike_id":"58e05d23-20a7-4862-866c-3f2ffaa3a55d","system_id":"levelo_inurba_marseille","lat":43.298764,"lon":5.388973,"is_reserved":false,"is_disabled":false,"rental_uris":{"android":"levelo://app?vid=58e05d23-20a7-4862-866c-3f2ffaa3a55d","ios":"levelo://app?vid=58e05d23-20a7-4862-866c-3f2ffaa3a55d"},"vehicle_type_id":"4","last_reported":1725912568,"current_range_meters":5600,"station_id":"ce4bh392rcd13ifvqdl0","pricing_plan_id":"cebpf4jnsgd1na2vs0mg"},{"bike_id":"9eda2226-f9f5-426f-888b-b7c8447d9ae0","system_id":"levelo_inurba_marseille","lat":43.298764,"lon":5.388973,"is_reserved":false,"is_disabled":false,"rental_uris":{"android":"levelo://app?vid=9eda2226-f9f5-426f-888b-b7c8447d9ae0","ios":"levelo://app?vid=9eda2226-f9f5-426f-888b-b7c8447d9ae0"},"vehicle_type_id":"4","last_reported":1725912568,"current_range_meters":29600,"station_id":"ce4bh392rcd13ifvqdl0","pricing_plan_id":"cebpf4jnsgd1na2vs0mg"},{"bike_id":"21f6cb3c-01fd-436d-88ba-802488b93b50","system_id":"levelo_inurba_marseille","lat":43.293,"lon":5.35573,"is_reserved":false,"is_disabled":false,"rental_uris":{"android":"levelo://app?vid=21f6cb3c-01fd-436d-88ba-802488b93b50","ios":"levelo://app?vid=21f6cb3c-01fd-436d-88ba-802488b93b50"},"vehicle_type_id":"4","last_reported":1725912568,"current_range_meters":17600,"station_id":"","pricing_plan_id":"cebpf4jnsgd1na2vs0mg"},{"bike_id":"1cf9f304-b46f-4d91-b14e-2255fc0c224a","system_id":"levelo_inurba_marseille","lat":43.309047,"lon":5.396551,"is_reserved":false,"is_disabled":false,"rental_uris":{"android":"levelo://app?vid=1cf9f304-b46f-4d91-b14e-2255fc0c224a","ios":"levelo://app?vid=1cf9f304-b46f-4d91-b14e-2255fc0c224a"},"vehicle_type_id":"4","last_reported":1725912568,"current_range_meters":30800,"station_id":"ce4bh012rcd13ifvqcv0","pricing_plan_id":"cebpf4jnsgd1na2vs0mg"},{"bike_id":"00d45466-de37-462d-90a1-c2507bb28324","system_id":"levelo_inurba_marseille","lat":43.30886,"lon":5.39639,"is_reserved":false,"is_disabled":false,"rental_uris":{"android":"levelo://app?vid=00d45466-de37-462d-90a1-c2507bb28324","ios":"levelo://app?vid=00d45466-de37-462d-90a1-c2507bb28324"},"vehicle_type_id":"4","last_reported":1725912568,"current_range_meters":0,"station_id":"ce4bh012rcd13ifvqcv0","pricing_plan_id":"cebpf4jnsgd1na2vs0mg"},{"bike_id":"90928642-0e3d-45e0-8382-b0848f39fe5d","system_id":"levelo_inurba_marseille","lat":43.313291,"lon":5.396838,"is_reserved":false,"is_disabled":false,"rental_uris":{"android":"levelo://app?vid=90928642-0e3d-45e0-8382-b0848f39fe5d","ios":"levelo://app?vid=90928642-0e3d-45e0-8382-b0848f39fe5d"},"vehicle_type_id":"4","last_reported":1725912568,"current_range_meters":18800,"station_id":"ce4bgvp2rcd13ifvqcu0","pricing_plan_id":"cebpf4jnsgd1na2vs0mg"},{"bike_id":"d20b5c66-11fe-4bd4-8752-d5345677bf8f","system_id":"levelo_inurba_marseille","lat":43.309038,"lon":5.396546,"is_reserved":false,"is_disabled":false,"rental_uris":{"android":"levelo://app?vid=d20b5c66-11fe-4bd4-8752-d5345677bf8f","ios":"levelo://app?vid=d20b5c66-11fe-4bd4-8752-d5345677bf8f"},"vehicle_type_id":"4","last_reported":1725912568,"current_range_meters":1200,"station_id":"ce4bh012rcd13ifvqcv0","pricing_plan_id":"cebpf4jnsgd1na2vs0mg"},{"bike_id":"685fb47c-ff8b-4162-bd1a-eaec108e954f","system_id":"levelo_inurba_marseille","lat":43.30891,"lon":5.39643,"is_reserved":false,"is_disabled":false,"rental_uris":{"android":"levelo://app?vid=685fb47c-ff8b-4162-bd1a-eaec108e954f","ios":"levelo://app?vid=685fb47c-ff8b-4162-bd1a-eaec108e954f"},"vehicle_type_id":"4","last_reported":1725912568,"current_range_meters":28000,"station_id":"ce4bh012rcd13ifvqcv0","pricing_plan_id":"cebpf4jnsgd1na2vs0mg"},{"bike_id":"3935a055-cd34-4527-8271-2e75fde337a6","system_id":"levelo_inurba_marseille","lat":43.313231,"lon":5.396892,"is_reserved":false,"is_disabled":false,"rental_uris":{"android":"levelo://app?vid=3935a055-cd34-4527-8271-2e75fde337a6","ios":"levelo://app?vid=3935a055-cd34-4527-8271-2e75fde337a6"},"vehicle_type_id":"4","last_reported":1725912568,"current_range_meters":25600,"station_id":"ce4bh0h2rcd13ifvqd60","pricing_plan_id":"cebpf4jnsgd1na2vs0mg"},{"bike_id":"ff1a965d-6587-4016-a665-057a8c9bbb45","system_id":"levelo_inurba_marseille","lat":43.309047,"lon":5.396551,"is_reserved":false,"is_disabled":false,"rental_uris":{"android":"levelo://app?vid=ff1a965d-6587-4016-a665-057a8c9bbb45","ios":"levelo://app?vid=ff1a965d-6587-4016-a665-057a8c9bbb45"},"vehicle_type_id":"4","last_reported":1725912568,"current_range_meters":31200,"station_id":"ce4bh012rcd13ifvqcv0","pricing_plan_id":"cebpf4jnsgd1na2vs0mg"},{"bike_id":"c1d51d78-f465-4098-8312-390947159d68","system_id":"levelo_inurba_marseille","lat":43.309047,"lon":5.396551,"is_reserved":false,"is_disabled":false,"rental_uris":{"android":"levelo://app?vid=c1d51d78-f465-4098-8312-390947159d68","ios":"levelo://app?vid=c1d51d78-f465-4098-8312-390947159d68"},"vehicle_type_id":"4","last_reported":1725912568,"current_range_meters":23600,"station_id":"ce4bh012rcd13ifvqcv0","pricing_plan_id":"cebpf4jnsgd1na2vs0mg"},{"bike_id":"e995ec6a-14bd-4c6a-86ad-c20cb9cc27d7","system_id":"levelo_inurba_marseille","lat":43.292005,"lon":5.357875,"is_reserved":false,"is_disabled":false,"rental_uris":{"android":"levelo://app?vid=e995ec6a-14bd-4c6a-86ad-c20cb9cc27d7","ios":"levelo://app?vid=e995ec6a-14bd-4c6a-86ad-c20cb9cc27d7"},"vehicle_type_id":"4","last_reported":1725912568,"current_range_meters":15200,"station_id":"ce4bhb12rcd13ifvqel0","pricing_plan_id":"cebpf4jnsgd1na2vs0mg"},{"bike_id":"ddc3d42e-dc49-4e9b-ad87-79e3bc124803","system_id":"levelo_inurba_marseille","lat":43.313291,"lon":5.396838,"is_reserved":false,"is_disabled":false,"rental_uris":{"android":"levelo://app?vid=ddc3d42e-dc49-4e9b-ad87-79e3bc124803","ios":"levelo://app?vid=ddc3d42e-dc49-4e9b-ad87-79e3bc124803"},"vehicle_type_id":"4","last_reported":1725912568,"current_range_meters":21600,"station_id":"ce4bgvp2rcd13ifvqcu0","pricing_plan_id":"cebpf4jnsgd1na2vs0mg"},{"bike_id":"ae38d343-e73a-492e-81ae-76bfbfaa197b","system_id":"levelo_inurba_marseille","lat":43.313291,"lon":5.396838,"is_reserved":false,"is_disabled":false,"rental_uris":{"android":"levelo://app?vid=ae38d343-e73a-492e-81ae-76bfbfaa197b","ios":"levelo://app?vid=ae38d343-e73a-492e-81ae-76bfbfaa197b"},"vehicle_type_id":"4","last_reported":1725912568,"current_range_meters":6400,"station_id":"ce4bgvp2rcd13ifvqcu0","pricing_plan_id":"cebpf4jnsgd1na2vs0mg"},{"bike_id":"95a715e6-e9ba-4639-b3a5-a552eafda4ad","system_id":"levelo_inurba_marseille","lat":43.309038,"lon":5.396546,"is_reserved":false,"is_disabled":false,"rental_uris":{"android":"levelo://app?vid=95a715e6-e9ba-4639-b3a5-a552eafda4ad","ios":"levelo://app?vid=95a715e6-e9ba-4639-b3a5-a552eafda4ad"},"vehicle_type_id":"4","last_reported":1725912568,"current_range_meters":7600,"station_id":"ce4bh012rcd13ifvqcv0","pricing_plan_id":"cebpf4jnsgd1na2vs0mg"},{"bike_id":"ab237a72-d593-4889-85b9-6e4917923528","system_id":"levelo_inurba_marseille","lat":43.309038,"lon":5.396546,"is_reserved":false,"is_disabled":false,"rental_uris":{"android":"levelo://app?vid=ab237a72-d593-4889-85b9-6e4917923528","ios":"levelo://app?vid=ab237a72-d593-4889-85b9-6e4917923528"},"vehicle_type_id":"4","last_reported":1725912568,"current_range_meters":8800,"station_id":"ce4bh012rcd13ifvqcv0","pricing_plan_id":"cebpf4jnsgd1na2vs0mg"},{"bike_id":"4d5f3b2b-633e-49d2-9c87-1108f233e1f7","system_id":"levelo_inurba_marseille","lat":43.313291,"lon":5.396838,"is_reserved":false,"is_disabled":false,"rental_uris":{"android":"levelo://app?vid=4d5f3b2b-633e-49d2-9c87-1108f233e1f7","ios":"levelo://app?vid=4d5f3b2b-633e-49d2-9c87-1108f233e1f7"},"vehicle_type_id":"4","last_reported":1725912568,"current_range_meters":6400,"station_id":"ce4bgvp2rcd13ifvqcu0","pricing_plan_id":"cebpf4jnsgd1na2vs0mg"},{"bike_id":"e58acf24-c1c1-4c2b-8846-c0727f103224","system_id":"levelo_inurba_marseille","lat":43.313291,"lon":5.396838,"is_reserved":false,"is_disabled":false,"rental_uris":{"android":"levelo://app?vid=e58acf24-c1c1-4c2b-8846-c0727f103224","ios":"levelo://app?vid=e58acf24-c1c1-4c2b-8846-c0727f103224"},"vehicle_type_id":"4","last_reported":1725912568,"current_range_meters":0,"station_id":"ce4bgvp2rcd13ifvqcu0","pricing_plan_id":"cebpf4jnsgd1na2vs0mg"},{"bike_id":"abd94e29-e652-463e-a7a4-4d460cfcdfd6","system_id":"levelo_inurba_marseille","lat":43.313291,"lon":5.396838,"is_reserved":false,"is_disabled":false,"rental_uris":{"android":"levelo://app?vid=abd94e29-e652-463e-a7a4-4d460cfcdfd6","ios":"levelo://app?vid=abd94e29-e652-463e-a7a4-4d460cfcdfd6"},"vehicle_type_id":"4","last_reported":1725912568,"current_range_meters":9600,"station_id":"ce4bgvp2rcd13ifvqcu0","pricing_plan_id":"cebpf4jnsgd1na2vs0mg"},{"bike_id":"162dd85d-dbd8-4faf-b657-a5ecea3bfe6f","system_id":"levelo_inurba_marseille","lat":43.30881,"lon":5.39647,"is_reserved":false,"is_disabled":false,"rental_uris":{"android":"levelo://app?vid=162dd85d-dbd8-4faf-b657-a5ecea3bfe6f","ios":"levelo://app?vid=162dd85d-dbd8-4faf-b657-a5ecea3bfe6f"},"vehicle_type_id":"4","last_reported":1725912568,"current_range_meters":0,"station_id":"ce4bh012rcd13ifvqcv0","pricing_plan_id":"cebpf4jnsgd1na2vs0mg"},{"bike_id":"9f73c277-f893-4f91-8000-7042e46ea863","system_id":"levelo_inurba_marseille","lat":43.309038,"lon":5.396546,"is_reserved":false,"is_disabled":false,"rental_uris":{"android":"levelo://app?vid=9f73c277-f893-4f91-8000-7042e46ea863","ios":"levelo://app?vid=9f73c277-f893-4f91-8000-7042e46ea863"},"vehicle_type_id":"4","last_reported":1725912568,"current_range_meters":31200,"station_id":"ce4bh012rcd13ifvqcv0","pricing_plan_id":"cebpf4jnsgd1na2vs0mg"},{"bike_id":"17122fb1-14c8-4cfe-a08d-8ba98d09f8d6","system_id":"levelo_inurba_marseille","lat":43.309038,"lon":5.396546,"is_reserved":false,"is_disabled":false,"rental_uris":{"android":"levelo://app?vid=17122fb1-14c8-4cfe-a08d-8ba98d09f8d6","ios":"levelo://app?vid=17122fb1-14c8-4cfe-a08d-8ba98d09f8d6"},"vehicle_type_id":"4","last_reported":1725912568,"current_range_meters":3200,"station_id":"ce4bh012rcd13ifvqcv0","pricing_plan_id":"cebpf4jnsgd1na2vs0mg"},{"bike_id":"5b4a97c0-a052-4ce4-90bf-d87a322ee569","system_id":"levelo_inurba_marseille","lat":43.30887,"lon":5.3965,"is_reserved":false,"is_disabled":false,"rental_uris":{"android":"levelo://app?vid=5b4a97c0-a052-4ce4-90bf-d87a322ee569","ios":"levelo://app?vid=5b4a97c0-a052-4ce4-90bf-d87a322ee569"},"vehicle_type_id":"4","last_reported":1725912568,"current_range_meters":23600,"station_id":"ce4bh012rcd13ifvqcv0","pricing_plan_id":"cebpf4jnsgd1na2vs0mg"},{"bike_id":"130869cc-0de2-4a0d-bb4c-7eca4a5c7cfc","system_id":"levelo_inurba_marseille","lat":43.31322,"lon":5.39697,"is_reserved":false,"is_disabled":false,"rental_uris":{"android":"levelo://app?vid=130869cc-0de2-4a0d-bb4c-7eca4a5c7cfc","ios":"levelo://app?vid=130869cc-0de2-4a0d-bb4c-7eca4a5c7cfc"},"vehicle_type_id":"4","last_reported":1725912568,"current_range_meters":0,"station_id":"ce4bgvp2rcd13ifvqcu0","pricing_plan_id":"cebpf4jnsgd1na2vs0mg"},{"bike_id":"df2d1d96-20bb-40cc-9b65-1de511b7bf7e","system_id":"levelo_inurba_marseille","lat":43.309038,"lon":5.396546,"is_reserved":false,"is_disabled":false,"rental_uris":{"android":"levelo://app?vid=df2d1d96-20bb-40cc-9b65-1de511b7bf7e","ios":"levelo://app?vid=df2d1d96-20bb-40cc-9b65-1de511b7bf7e"},"vehicle_type_id":"4","last_reported":1725912568,"current_range_meters":20400,"station_id":"ce4bh012rcd13ifvqcv0","pricing_plan_id":"cebpf4jnsgd1na2vs0mg"},{"bike_id":"7ed9dbc4-9c3a-471b-b586-c758edb2b10c","system_id":"levelo_inurba_marseille","lat":43.313291,"lon":5.396838,"is_reserved":false,"is_disabled":false,"rental_uris":{"android":"levelo://app?vid=7ed9dbc4-9c3a-471b-b586-c758edb2b10c","ios":"levelo://app?vid=7ed9dbc4-9c3a-471b-b586-c758edb2b10c"},"vehicle_type_id":"4","last_reported":1725912568,"current_range_meters":2000,"station_id":"ce4bgvp2rcd13ifvqcu0","pricing_plan_id":"cebpf4jnsgd1na2vs0mg"},{"bike_id":"ccf5f123-415a-4562-b3f6-32d78ee464c6","system_id":"levelo_inurba_marseille","lat":43.309038,"lon":5.396546,"is_reserved":false,"is_disabled":false,"rental_uris":{"android":"levelo://app?vid=ccf5f123-415a-4562-b3f6-32d78ee464c6","ios":"levelo://app?vid=ccf5f123-415a-4562-b3f6-32d78ee464c6"},"vehicle_type_id":"4","last_reported":1725912568,"current_range_meters":28000,"station_id":"ce4bh012rcd13ifvqcv0","pricing_plan_id":"cebpf4jnsgd1na2vs0mg"},{"bike_id":"ae88a741-7eec-4997-bb37-9da9c056f683","system_id":"levelo_inurba_marseille","lat":43.313291,"lon":5.396838,"is_reserved":false,"is_disabled":false,"rental_uris":{"android":"levelo://app?vid=ae88a741-7eec-4997-bb37-9da9c056f683","ios":"levelo://app?vid=ae88a741-7eec-4997-bb37-9da9c056f683"},"vehicle_type_id":"4","last_reported":1725912568,"current_range_meters":31200,"station_id":"ce4bgvp2rcd13ifvqcu0","pricing_plan_id":"cebpf4jnsgd1na2vs0mg"},{"bike_id":"791f4561-108f-4d13-9764-c7432cf54566","system_id":"levelo_inurba_marseille","lat":43.309047,"lon":5.396551,"is_reserved":false,"is_disabled":false,"rental_uris":{"android":"levelo://app?vid=791f4561-108f-4d13-9764-c7432cf54566","ios":"levelo://app?vid=791f4561-108f-4d13-9764-c7432cf54566"},"vehicle_type_id":"4","last_reported":1725912568,"current_range_meters":0,"station_id":"ce4bh012rcd13ifvqcv0","pricing_plan_id":"cebpf4jnsgd1na2vs0mg"},{"bike_id":"a68cc047-b987-4541-b2aa-8d17469bbe14","system_id":"levelo_inurba_marseille","lat":43.313291,"lon":5.396838,"is_reserved":false,"is_disabled":false,"rental_uris":{"android":"levelo://app?vid=a68cc047-b987-4541-b2aa-8d17469bbe14","ios":"levelo://app?vid=a68cc047-b987-4541-b2aa-8d17469bbe14"},"vehicle_type_id":"4","last_reported":1725912568,"current_range_meters":9200,"station_id":"ce4bgvp2rcd13ifvqcu0","pricing_plan_id":"cebpf4jnsgd1na2vs0mg"},{"bike_id":"8476d9d4-e4e4-4d57-bbfc-f67fab4fbf59","system_id":"levelo_inurba_marseille","lat":43.309038,"lon":5.396546,"is_reserved":false,"is_disabled":false,"rental_uris":{"android":"levelo://app?vid=8476d9d4-e4e4-4d57-bbfc-f67fab4fbf59","ios":"levelo://app?vid=8476d9d4-e4e4-4d57-bbfc-f67fab4fbf59"},"vehicle_type_id":"4","last_reported":1725912568,"current_range_meters":16400,"station_id":"ce4bh012rcd13ifvqcv0","pricing_plan_id":"cebpf4jnsgd1na2vs0mg"},{"bike_id":"e686f240-fe01-4d3e-a00d-0d4ccd78f9b1","system_id":"levelo_inurba_marseille","lat":43.309038,"lon":5.396546,"is_reserved":false,"is_disabled":false,"rental_uris":{"android":"levelo://app?vid=e686f240-fe01-4d3e-a00d-0d4ccd78f9b1","ios":"levelo://app?vid=e686f240-fe01-4d3e-a00d-0d4ccd78f9b1"},"vehicle_type_id":"4","last_reported":1725912568,"current_range_meters":24400,"station_id":"ce4bh012rcd13ifvqcv0","pricing_plan_id":"cebpf4jnsgd1na2vs0mg"},{"bike_id":"3e40144f-6ec9-4833-8fb3-23864c934719","system_id":"levelo_inurba_marseille","lat":43.29529,"lon":5.385581,"is_reserved":false,"is_disabled":false,"rental_uris":{"android":"levelo://app?vid=3e40144f-6ec9-4833-8fb3-23864c934719","ios":"levelo://app?vid=3e40144f-6ec9-4833-8fb3-23864c934719"},"vehicle_type_id":"4","last_reported":1725912568,"current_range_meters":31600,"station_id":"ce4bgih2rcd13ifvqba0","pricing_plan_id":"cebpf4jnsgd1na2vs0mg"},{"bike_id":"f95d1eeb-cb7b-45ae-9d97-0db8e4b8b902","system_id":"levelo_inurba_marseille","lat":43.313291,"lon":5.396838,"is_reserved":false,"is_disabled":false,"rental_uris":{"android":"levelo://app?vid=f95d1eeb-cb7b-45ae-9d97-0db8e4b8b902","ios":"levelo://app?vid=f95d1eeb-cb7b-45ae-9d97-0db8e4b8b902"},"vehicle_type_id":"4","last_reported":1725912568,"current_range_meters":26800,"station_id":"ce4bgvp2rcd13ifvqcu0","pricing_plan_id":"cebpf4jnsgd1na2vs0mg"},{"bike_id":"bd0d60c4-6807-4cc7-8b4f-a6119e3969ec","system_id":"levelo_inurba_marseille","lat":43.309038,"lon":5.396546,"is_reserved":false,"is_disabled":false,"rental_uris":{"android":"levelo://app?vid=bd0d60c4-6807-4cc7-8b4f-a6119e3969ec","ios":"levelo://app?vid=bd0d60c4-6807-4cc7-8b4f-a6119e3969ec"},"vehicle_type_id":"4","last_reported":1725912568,"current_range_meters":18800,"station_id":"ce4bh012rcd13ifvqcv0","pricing_plan_id":"cebpf4jnsgd1na2vs0mg"},{"bike_id":"90388a16-6d7f-46d9-a024-0464b92ab1fe","system_id":"levelo_inurba_marseille","lat":43.309047,"lon":5.396551,"is_reserved":false,"is_disabled":false,"rental_uris":{"android":"levelo://app?vid=90388a16-6d7f-46d9-a024-0464b92ab1fe","ios":"levelo://app?vid=90388a16-6d7f-46d9-a024-0464b92ab1fe"},"vehicle_type_id":"4","last_reported":1725912568,"current_range_meters":26800,"station_id":"ce4bh012rcd13ifvqcv0","pricing_plan_id":"cebpf4jnsgd1na2vs0mg"},{"bike_id":"f10d616c-896b-4f2f-9b47-5d74ceb97b72","system_id":"levelo_inurba_marseille","lat":43.29529,"lon":5.385581,"is_reserved":false,"is_disabled":false,"rental_uris":{"android":"levelo://app?vid=f10d616c-896b-4f2f-9b47-5d74ceb97b72","ios":"levelo://app?vid=f10d616c-896b-4f2f-9b47-5d74ceb97b72"},"vehicle_type_id":"4","last_reported":1725912568,"current_range_meters":12000,"station_id":"ce4bgih2rcd13ifvqba0","pricing_plan_id":"cebpf4jnsgd1na2vs0mg"},{"bike_id":"e026c069-4ff3-4f04-bd5b-fbc1d2b399bc","system_id":"levelo_inurba_marseille","lat":43.29529,"lon":5.385581,"is_reserved":false,"is_disabled":false,"rental_uris":{"android":"levelo://app?vid=e026c069-4ff3-4f04-bd5b-fbc1d2b399bc","ios":"levelo://app?vid=e026c069-4ff3-4f04-bd5b-fbc1d2b399bc"},"vehicle_type_id":"4","last_reported":1725912568,"current_range_meters":13600,"station_id":"ce4bgih2rcd13ifvqba0","pricing_plan_id":"cebpf4jnsgd1na2vs0mg"},{"bike_id":"50423ef5-c3af-45a8-8749-96d2d0a56078","system_id":"levelo_inurba_marseille","lat":43.29529,"lon":5.385581,"is_reserved":false,"is_disabled":false,"rental_uris":{"android":"levelo://app?vid=50423ef5-c3af-45a8-8749-96d2d0a56078","ios":"levelo://app?vid=50423ef5-c3af-45a8-8749-96d2d0a56078"},"vehicle_type_id":"4","last_reported":1725912568,"current_range_meters":25600,"station_id":"ce4bgih2rcd13ifvqba0","pricing_plan_id":"cebpf4jnsgd1na2vs0mg"},{"bike_id":"f3bfff28-cfa2-4f93-8b1d-5d53a28fdd09","system_id":"levelo_inurba_marseille","lat":43.290779,"lon":5.371482,"is_reserved":false,"is_disabled":false,"rental_uris":{"android":"levelo://app?vid=f3bfff28-cfa2-4f93-8b1d-5d53a28fdd09","ios":"levelo://app?vid=f3bfff28-cfa2-4f93-8b1d-5d53a28fdd09"},"vehicle_type_id":"4","last_reported":1725912568,"current_range_meters":28400,"station_id":"ce4bh5p2rcd13ifvqe4g","pricing_plan_id":"cebpf4jnsgd1na2vs0mg"},{"bike_id":"63d6eec7-3951-4049-9da4-e9854c90e3ed","system_id":"levelo_inurba_marseille","lat":43.290779,"lon":5.371482,"is_reserved":false,"is_disabled":false,"rental_uris":{"android":"levelo://app?vid=63d6eec7-3951-4049-9da4-e9854c90e3ed","ios":"levelo://app?vid=63d6eec7-3951-4049-9da4-e9854c90e3ed"},"vehicle_type_id":"4","last_reported":1725912568,"current_range_meters":11200,"station_id":"ce4bh5p2rcd13ifvqe4g","pricing_plan_id":"cebpf4jnsgd1na2vs0mg"},{"bike_id":"818c5973-8b76-4802-8a59-68943157342a","system_id":"levelo_inurba_marseille","lat":43.302008,"lon":5.394694,"is_reserved":false,"is_disabled":false,"rental_uris":{"android":"levelo://app?vid=818c5973-8b76-4802-8a59-68943157342a","ios":"levelo://app?vid=818c5973-8b76-4802-8a59-68943157342a"},"vehicle_type_id":"4","last_reported":1725912568,"current_range_meters":28400,"station_id":"ce4bh0p2rcd13ifvqd70","pricing_plan_id":"cebpf4jnsgd1na2vs0mg"},{"bike_id":"0f549ef5-4404-4b37-84eb-b763aad2bfd6","system_id":"levelo_inurba_marseille","lat":43.290436,"lon":5.359136,"is_reserved":false,"is_disabled":false,"rental_uris":{"android":"levelo://app?vid=0f549ef5-4404-4b37-84eb-b763aad2bfd6","ios":"levelo://app?vid=0f549ef5-4404-4b37-84eb-b763aad2bfd6"},"vehicle_type_id":"4","last_reported":1725912568,"current_range_meters":31200,"station_id":"ce4bha92rcd13ifvqeg0","pricing_plan_id":"cebpf4jnsgd1na2vs0mg"},{"bike_id":"7320a320-086e-4aba-9d5d-6cc7da0b60ef","system_id":"levelo_inurba_marseille","lat":43.290631,"lon":5.359244,"is_reserved":false,"is_disabled":false,"rental_uris":{"android":"levelo://app?vid=7320a320-086e-4aba-9d5d-6cc7da0b60ef","ios":"levelo://app?vid=7320a320-086e-4aba-9d5d-6cc7da0b60ef"},"vehicle_type_id":"4","last_reported":1725912568,"current_range_meters":7200,"station_id":"ce4bha92rcd13ifvqeg0","pricing_plan_id":"cebpf4jnsgd1na2vs0mg"},{"bike_id":"aade8b62-02ed-4ee2-8a84-9d1252fa88be","system_id":"levelo_inurba_marseille","lat":43.29042,"lon":5.35911,"is_reserved":false,"is_disabled":false,"rental_uris":{"android":"levelo://app?vid=aade8b62-02ed-4ee2-8a84-9d1252fa88be","ios":"levelo://app?vid=aade8b62-02ed-4ee2-8a84-9d1252fa88be"},"vehicle_type_id":"4","last_reported":1725912568,"current_range_meters":0,"station_id":"ce4bha92rcd13ifvqeg0","pricing_plan_id":"cebpf4jnsgd1na2vs0mg"},{"bike_id":"78d2414e-c434-4757-9402-acf8d07e06bd","system_id":"levelo_inurba_marseille","lat":43.29421,"lon":5.38621,"is_reserved":false,"is_disabled":false,"rental_uris":{"android":"levelo://app?vid=78d2414e-c434-4757-9402-acf8d07e06bd","ios":"levelo://app?vid=78d2414e-c434-4757-9402-acf8d07e06bd"},"vehicle_type_id":"4","last_reported":1725912568,"current_range_meters":10000,"station_id":"ce4bh2h2rcd13ifvqdh0","pricing_plan_id":"cebpf4jnsgd1na2vs0mg"},{"bike_id":"e40d79d9-cc78-4b41-9603-d437a158294e","system_id":"levelo_inurba_marseille","lat":43.290319,"lon":5.375732,"is_reserved":false,"is_disabled":false,"rental_uris":{"android":"levelo://app?vid=e40d79d9-cc78-4b41-9603-d437a158294e","ios":"levelo://app?vid=e40d79d9-cc78-4b41-9603-d437a158294e"},"vehicle_type_id":"4","last_reported":1725912568,"current_range_meters":10400,"station_id":"ce4bh692rcd13ifvqe90","pricing_plan_id":"cebpf4jnsgd1na2vs0mg"},{"bike_id":"baefeeee-9191-43f6-aa5b-ebcdd85b8594","system_id":"levelo_inurba_marseille","lat":43.29422,"lon":5.38626,"is_reserved":false,"is_disabled":false,"rental_uris":{"android":"levelo://app?vid=baefeeee-9191-43f6-aa5b-ebcdd85b8594","ios":"levelo://app?vid=baefeeee-9191-43f6-aa5b-ebcdd85b8594"},"vehicle_type_id":"4","last_reported":1725912568,"current_range_meters":12800,"station_id":"ce4bh2h2rcd13ifvqdh0","pricing_plan_id":"cebpf4jnsgd1na2vs0mg"},{"bike_id":"e6bd4b07-a3d4-48a4-8517-7830a8997340","system_id":"levelo_inurba_marseille","lat":43.2942,"lon":5.38626,"is_reserved":false,"is_disabled":false,"rental_uris":{"android":"levelo://app?vid=e6bd4b07-a3d4-48a4-8517-7830a8997340","ios":"levelo://app?vid=e6bd4b07-a3d4-48a4-8517-7830a8997340"},"vehicle_type_id":"4","last_reported":1725912568,"current_range_meters":0,"station_id":"ce4bh2h2rcd13ifvqdh0","pricing_plan_id":"cebpf4jnsgd1na2vs0mg"},{"bike_id":"f194e4d3-bf39-48e9-94de-0a26fff12df2","system_id":"levelo_inurba_marseille","lat":43.29419,"lon":5.38625,"is_reserved":false,"is_disabled":false,"rental_uris":{"android":"levelo://app?vid=f194e4d3-bf39-48e9-94de-0a26fff12df2","ios":"levelo://app?vid=f194e4d3-bf39-48e9-94de-0a26fff12df2"},"vehicle_type_id":"4","last_reported":1725912568,"current_range_meters":1600,"station_id":"ce4bh2h2rcd13ifvqdh0","pricing_plan_id":"cebpf4jnsgd1na2vs0mg"},{"bike_id":"d271dedf-3c0e-481e-a52c-7eb697a1f6b6","system_id":"levelo_inurba_marseille","lat":43.29408,"lon":5.38633,"is_reserved":false,"is_disabled":false,"rental_uris":{"android":"levelo://app?vid=d271dedf-3c0e-481e-a52c-7eb697a1f6b6","ios":"levelo://app?vid=d271dedf-3c0e-481e-a52c-7eb697a1f6b6"},"vehicle_type_id":"4","last_reported":1725912568,"current_range_meters":0,"station_id":"ce4bh2h2rcd13ifvqdh0","pricing_plan_id":"cebpf4jnsgd1na2vs0mg"},{"bike_id":"112b90a0-9382-49f2-9c1d-8113b49836c8","system_id":"levelo_inurba_marseille","lat":43.289184,"lon":5.366408,"is_reserved":false,"is_disabled":false,"rental_uris":{"android":"levelo://app?vid=112b90a0-9382-49f2-9c1d-8113b49836c8","ios":"levelo://app?vid=112b90a0-9382-49f2-9c1d-8113b49836c8"},"vehicle_type_id":"4","last_reported":1725912568,"current_range_meters":16400,"station_id":"ce4bhap2rcd13ifvqek0","pricing_plan_id":"cebpf4jnsgd1na2vs0mg"},{"bike_id":"3b9c9710-ffad-4625-ab8a-dcb14f3244c4","system_id":"levelo_inurba_marseille","lat":43.28941,"lon":5.364053,"is_reserved":false,"is_disabled":false,"rental_uris":{"android":"levelo://app?vid=3b9c9710-ffad-4625-ab8a-dcb14f3244c4","ios":"levelo://app?vid=3b9c9710-ffad-4625-ab8a-dcb14f3244c4"},"vehicle_type_id":"4","last_reported":1725912568,"current_range_meters":30400,"station_id":"ce4bhc92rcd13ifvqetg","pricing_plan_id":"cebpf4jnsgd1na2vs0mg"},{"bike_id":"a41672f2-b715-4088-b6d4-7d46789d1f8c","system_id":"levelo_inurba_marseille","lat":43.28938,"lon":5.36406,"is_reserved":false,"is_disabled":false,"rental_uris":{"android":"levelo://app?vid=a41672f2-b715-4088-b6d4-7d46789d1f8c","ios":"levelo://app?vid=a41672f2-b715-4088-b6d4-7d46789d1f8c"},