{"last_updated":1732273672,"ttl":60,"version":"2.2","data":{"bikes":[{"bike_id":"d1de55ce-6c0d-4938-bd84-b49964d8e159","system_id":"levelo_inurba_marseille","lat":43.337444,"lon":5.374475,"is_reserved":false,"is_disabled":true,"rental_uris":{"android":"levelo://app?vid=d1de55ce-6c0d-4938-bd84-b49964d8e159","ios":"levelo://app?vid=d1de55ce-6c0d-4938-bd84-b49964d8e159"},"vehicle_type_id":"4","last_reported":1732273672,"current_range_meters":26800,"station_id":"","pricing_plan_id":"cebpf4jnsgd1na2vs0mg"},{"bike_id":"de92af77-46ea-482d-b544-84875aad38b7","system_id":"levelo_inurba_marseille","lat":43.30549,"lon":5.36524,"is_reserved":false,"is_disabled":false,"rental_uris":{"android":"levelo://app?vid=de92af77-46ea-482d-b544-84875aad38b7","ios":"levelo://app?vid=de92af77-46ea-482d-b544-84875aad38b7"},"vehicle_type_id":"4","last_reported":1732273672,"current_range_meters":22800,"station_id":"ce4bgs12rcd13ifvqcag","pricing_plan_id":"cebpf4jnsgd1na2vs0mg"},{"bike_id":"8527133f-e94b-41ef-9b16-c99901d73e95","system_id":"levelo_inurba_marseille","lat":43.25579,"lon":5.38215,"is_reserved":false,"is_disabled":false,"rental_uris":{"android":"levelo://app?vid=8527133f-e94b-41ef-9b16-c99901d73e95","ios":"levelo://app?vid=8527133f-e94b-41ef-9b16-c99901d73e95"},"vehicle_type_id":"4","last_reported":1732273672,"current_range_meters":34000,"station_id":"ce4bhih2rcd13ifvqfs0","pricing_plan_id":"cebpf4jnsgd1na2vs0mg"},{"bike_id":"1a5a3b08-fc55-4b17-adaf-98ac64bb4ae6","system_id":"levelo_inurba_marseille","lat":43.29908,"lon":5.3747,"is_reserved":false,"is_disabled":false,"rental_uris":{"android":"levelo://app?vid=1a5a3b08-fc55-4b17-adaf-98ac64bb4ae6","ios":"levelo://app?vid=1a5a3b08-fc55-4b17-adaf-98ac64bb4ae6"},"vehicle_type_id":"4","last_reported":1732273672,"current_range_meters":25600,"station_id":"ce4bgjh2rcd13ifvqbg0","pricing_plan_id":"cebpf4jnsgd1na2vs0mg"},{"bike_id":"7ade2142-eca0-47c9-a1cc-6b8d37bae659","system_id":"levelo_inurba_marseille","lat":43.23149,"lon":5.4372,"is_reserved":false,"is_disabled":false,"rental_uris":{"android":"levelo://app?vid=7ade2142-eca0-47c9-a1cc-6b8d37bae659","ios":"levelo://app?vid=7ade2142-eca0-47c9-a1cc-6b8d37bae659"},"vehicle_type_id":"4","last_reported":1732273672,"current_range_meters":26000,"station_id":"ce4bhmp2rcd13ifvqgog","pricing_plan_id":"cebpf4jnsgd1na2vs0mg"},{"bike_id":"6b7d9cf8-4f90-4fd0-8cad-8f4b70f87015","system_id":"levelo_inurba_marseille","lat":43.30184,"lon":5.36622,"is_reserved":false,"is_disabled":false,"rental_uris":{"android":"levelo://app?vid=6b7d9cf8-4f90-4fd0-8cad-8f4b70f87015","ios":"levelo://app?vid=6b7d9cf8-4f90-4fd0-8cad-8f4b70f87015"},"vehicle_type_id":"4","last_reported":1732273672,"current_range_meters":36000,"station_id":"ce4bgrh2rcd13ifvqc8g","pricing_plan_id":"cebpf4jnsgd1na2vs0mg"},{"bike_id":"896b2297-b84a-495d-8ee8-43f2deca1b53","system_id":"levelo_inurba_marseille","lat":43.26952,"lon":5.38613,"is_reserved":false,"is_disabled":false,"rental_uris":{"android":"levelo://app?vid=896b2297-b84a-495d-8ee8-43f2deca1b53","ios":"levelo://app?vid=896b2297-b84a-495d-8ee8-43f2deca1b53"},"vehicle_type_id":"4","last_reported":1732273672,"current_range_meters":26800,"station_id":"ce4bhh92rcd13ifvqfh0","pricing_plan_id":"cebpf4jnsgd1na2vs0mg"},{"bike_id":"0814db76-5030-46a1-b8bb-fcc29fb82c70","system_id":"levelo_inurba_marseille","lat":43.32477,"lon":5.3657,"is_reserved":false,"is_disabled":false,"rental_uris":{"android":"levelo://app?vid=0814db76-5030-46a1-b8bb-fcc29fb82c70","ios":"levelo://app?vid=0814db76-5030-46a1-b8bb-fcc29fb82c70"},"vehicle_type_id":"4","last_reported":1732273672,"current_range_meters":33200,"station_id":"ce4bhs12rcd13ifvqhvg","pricing_plan_id":"cebpf4jnsgd1na2vs0mg"},{"bike_id":"8471c761-4bcd-4b56-96d8-ddfab4d6be83","system_id":"levelo_inurba_marseille","lat":43.2695,"lon":5.38636,"is_reserved":false,"is_disabled":true,"rental_uris":{"android":"levelo://app?vid=8471c761-4bcd-4b56-96d8-ddfab4d6be83","ios":"levelo://app?vid=8471c761-4bcd-4b56-96d8-ddfab4d6be83"},"vehicle_type_id":"4","last_reported":1732273672,"current_range_meters":0,"station_id":"ce4bhh92rcd13ifvqfh0","pricing_plan_id":"cebpf4jnsgd1na2vs0mg"},{"bike_id":"6dd72399-4c36-4f79-acf1-4c5ee36d28ce","system_id":"levelo_inurba_marseille","lat":43.26064,"lon":5.39395,"is_reserved":false,"is_disabled":false,"rental_uris":{"android":"levelo://app?vid=6dd72399-4c36-4f79-acf1-4c5ee36d28ce","ios":"levelo://app?vid=6dd72399-4c36-4f79-acf1-4c5ee36d28ce"},"vehicle_type_id":"4","last_reported":1732273672,"current_range_meters":36400,"station_id":"ce4bhh92rcd13ifvqfj0","pricing_plan_id":"cebpf4jnsgd1na2vs0mg"},{"bike_id":"c0a030ba-bc70-4561-b21c-5e1c25873362","system_id":"levelo_inurba_marseille","lat":43.29798,"lon":5.38089,"is_reserved":false,"is_disabled":false,"rental_uris":{"android":"levelo://app?vid=c0a030ba-bc70-4561-b21c-5e1c25873362","ios":"levelo://app?vid=c0a030ba-bc70-4561-b21c-5e1c25873362"},"vehicle_type_id":"4","last_reported":1732273672,"current_range_meters":25600,"station_id":"ce4bgip2rcd13ifvqbb0","pricing_plan_id":"cebpf4jnsgd1na2vs0mg"},{"bike_id":"15a61a6c-40ba-40d9-9754-85b1e40e6e21","system_id":"levelo_inurba_marseille","lat":43.3014,"lon":5.37418,"is_reserved":false,"is_disabled":false,"rental_uris":{"android":"levelo://app?vid=15a61a6c-40ba-40d9-9754-85b1e40e6e21","ios":"levelo://app?vid=15a61a6c-40ba-40d9-9754-85b1e40e6e21"},"vehicle_type_id":"4","last_reported":1732273672,"current_range_meters":26000,"station_id":"ce4bgs92rcd13ifvqcc0","pricing_plan_id":"cebpf4jnsgd1na2vs0mg"},{"bike_id":"cc45001e-86ba-42cc-9993-ed5261abbfe0","system_id":"levelo_inurba_marseille","lat":43.32367,"lon":5.38878,"is_reserved":false,"is_disabled":false,"rental_uris":{"android":"levelo://app?vid=cc45001e-86ba-42cc-9993-ed5261abbfe0","ios":"levelo://app?vid=cc45001e-86ba-42cc-9993-ed5261abbfe0"},"vehicle_type_id":"4","last_reported":1732273672,"current_range_meters":14800,"station_id":"ce4bhqp2rcd13ifvqhog","pricing_plan_id":"cebpf4jnsgd1na2vs0mg"},{"bike_id":"5e274fa5-32d0-47d6-bae9-d75344cedd2c","system_id":"levelo_inurba_marseille","lat":43.30285,"lon":5.37696,"is_reserved":false,"is_disabled":true,"rental_uris":{"android":"levelo://app?vid=5e274fa5-32d0-47d6-bae9-d75344cedd2c","ios":"levelo://app?vid=5e274fa5-32d0-47d6-bae9-d75344cedd2c"},"vehicle_type_id":"4","last_reported":1732273672,"current_range_meters":28800,"station_id":"ce4bguh2rcd13ifvqcj0","pricing_plan_id":"cebpf4jnsgd1na2vs0mg"},{"bike_id":"c0755ad7-8353-40d1-98a4-bba43ca0e3ab","system_id":"levelo_inurba_marseille","lat":43.33721,"lon":5.39182,"is_reserved":false,"is_disabled":false,"rental_uris":{"android":"levelo://app?vid=c0755ad7-8353-40d1-98a4-bba43ca0e3ab","ios":"levelo://app?vid=c0755ad7-8353-40d1-98a4-bba43ca0e3ab"},"vehicle_type_id":"4","last_reported":1732273672,"current_range_meters":12800,"station_id":"ce4bhr92rcd13ifvqhsg","pricing_plan_id":"cebpf4jnsgd1na2vs0mg"},{"bike_id":"4b9b26e4-4e76-490b-9add-3b1e3c94b3af","system_id":"levelo_inurba_marseille","lat":43.29377,"lon":5.37852,"is_reserved":false,"is_disabled":false,"rental_uris":{"android":"levelo://app?vid=4b9b26e4-4e76-490b-9add-3b1e3c94b3af","ios":"levelo://app?vid=4b9b26e4-4e76-490b-9add-3b1e3c94b3af"},"vehicle_type_id":"4","last_reported":1732273672,"current_range_meters":38800,"station_id":"ce4bgjh2rcd13ifvqbf0","pricing_plan_id":"cebpf4jnsgd1na2vs0mg"},{"bike_id":"78bb5da4-eb26-47d4-a1b5-b4f21cccc3d3","system_id":"levelo_inurba_marseille","lat":43.30374,"lon":5.4187,"is_reserved":false,"is_disabled":false,"rental_uris":{"android":"levelo://app?vid=78bb5da4-eb26-47d4-a1b5-b4f21cccc3d3","ios":"levelo://app?vid=78bb5da4-eb26-47d4-a1b5-b4f21cccc3d3"},"vehicle_type_id":"4","last_reported":1732273672,"current_range_meters":38800,"station_id":"ce4bhop2rcd13ifvqh7g","pricing_plan_id":"cebpf4jnsgd1na2vs0mg"},{"bike_id":"87df3384-4214-47dd-921d-a6ce0936c249","system_id":"levelo_inurba_marseille","lat":43.29525,"lon":5.37497,"is_reserved":false,"is_disabled":false,"rental_uris":{"android":"levelo://app?vid=87df3384-4214-47dd-921d-a6ce0936c249","ios":"levelo://app?vid=87df3384-4214-47dd-921d-a6ce0936c249"},"vehicle_type_id":"4","last_reported":1732273672,"current_range_meters":28000,"station_id":"ce4bgkp2rcd13ifvqbmg","pricing_plan_id":"cebpf4jnsgd1na2vs0mg"},{"bike_id":"0b5e5501-3529-4742-b451-d7df0a0fbe18","system_id":"levelo_inurba_marseille","lat":43.24805,"lon":5.37455,"is_reserved":false,"is_disabled":false,"rental_uris":{"android":"levelo://app?vid=0b5e5501-3529-4742-b451-d7df0a0fbe18","ios":"levelo://app?vid=0b5e5501-3529-4742-b451-d7df0a0fbe18"},"vehicle_type_id":"4","last_reported":1732273672,"current_range_meters":17200,"station_id":"ce4bhgh2rcd13ifvqfb0","pricing_plan_id":"cebpf4jnsgd1na2vs0mg"},{"bike_id":"123d3ba5-33ae-48f3-85d8-401e2780c686","system_id":"levelo_inurba_marseille","lat":43.27326,"lon":5.39084,"is_reserved":false,"is_disabled":false,"rental_uris":{"android":"levelo://app?vid=123d3ba5-33ae-48f3-85d8-401e2780c686","ios":"levelo://app?vid=123d3ba5-33ae-48f3-85d8-401e2780c686"},"vehicle_type_id":"4","last_reported":1732273672,"current_range_meters":6800,"station_id":"ce4bhgp2rcd13ifvqfe0","pricing_plan_id":"cebpf4jnsgd1na2vs0mg"},{"bike_id":"d2321b4c-ae3a-4b43-8bcd-12cb7984481d","system_id":"levelo_inurba_marseille","lat":43.30754,"lon":5.37015,"is_reserved":false,"is_disabled":true,"rental_uris":{"android":"levelo://app?vid=d2321b4c-ae3a-4b43-8bcd-12cb7984481d","ios":"levelo://app?vid=d2321b4c-ae3a-4b43-8bcd-12cb7984481d"},"vehicle_type_id":"4","last_reported":1732273672,"current_range_meters":17600,"station_id":"","pricing_plan_id":"cebpf4jnsgd1na2vs0mg"},{"bike_id":"5fd5f2d0-b73e-4c73-a4e1-4da7220ec74c","system_id":"levelo_inurba_marseille","lat":43.30305,"lon":5.39208,"is_reserved":false,"is_disabled":true,"rental_uris":{"android":"levelo://app?vid=5fd5f2d0-b73e-4c73-a4e1-4da7220ec74c","ios":"levelo://app?vid=5fd5f2d0-b73e-4c73-a4e1-4da7220ec74c"},"vehicle_type_id":"4","last_reported":1732273672,"current_range_meters":0,"station_id":"ce4bgkh2rcd13ifvqbk0","pricing_plan_id":"cebpf4jnsgd1na2vs0mg"},{"bike_id":"bf8b2610-5e4d-40b8-992b-d5af7ee7225b","system_id":"levelo_inurba_marseille","lat":43.30287,"lon":5.37687,"is_reserved":false,"is_disabled":false,"rental_uris":{"android":"levelo://app?vid=bf8b2610-5e4d-40b8-992b-d5af7ee7225b","ios":"levelo://app?vid=bf8b2610-5e4d-40b8-992b-d5af7ee7225b"},"vehicle_type_id":"4","last_reported":1732273672,"current_range_meters":36400,"station_id":"ce4bguh2rcd13ifvqcj0","pricing_plan_id":"cebpf4jnsgd1na2vs0mg"},{"bike_id":"5dfb6080-b058-4569-b7b9-5a3720cdb95c","system_id":"levelo_inurba_marseille","lat":43.27949,"lon":5.41041,"is_reserved":false,"is_disabled":false,"rental_uris":{"android":"levelo://app?vid=5dfb6080-b058-4569-b7b9-5a3720cdb95c","ios":"levelo://app?vid=5dfb6080-b058-4569-b7b9-5a3720cdb95c"},"vehicle_type_id":"4","last_reported":1732273672,"current_range_meters":32000,"station_id":"ce4bhnp2rcd13ifvqh0g","pricing_plan_id":"cebpf4jnsgd1na2vs0mg"},{"bike_id":"5c3000a0-a190-4007-a723-aa2707fd1ce3","system_id":"levelo_inurba_marseille","lat":43.229343,"lon":5.353832,"is_reserved":false,"is_disabled":false,"rental_uris":{"android":"levelo://app?vid=5c3000a0-a190-4007-a723-aa2707fd1ce3","ios":"levelo://app?vid=5c3000a0-a190-4007-a723-aa2707fd1ce3"},"vehicle_type_id":"4","last_reported":1732273672,"current_range_meters":38800,"station_id":"cpo3532slgdg3j2ikp40","pricing_plan_id":"cebpf4jnsgd1na2vs0mg"},{"bike_id":"37a2d867-4f44-4aa0-977f-15109b8ecb37","system_id":"levelo_inurba_marseille","lat":43.31222,"lon":5.36859,"is_reserved":false,"is_disabled":false,"rental_uris":{"android":"levelo://app?vid=37a2d867-4f44-4aa0-977f-15109b8ecb37","ios":"levelo://app?vid=37a2d867-4f44-4aa0-977f-15109b8ecb37"},"vehicle_type_id":"4","last_reported":1732273672,"current_range_meters":10000,"station_id":"ce4bgl92rcd13ifvqbq0","pricing_plan_id":"cebpf4jnsgd1na2vs0mg"},{"bike_id":"158df77e-2ea0-4787-ac7e-e8812e0498ad","system_id":"levelo_inurba_marseille","lat":43.25106,"lon":5.40323,"is_reserved":false,"is_disabled":false,"rental_uris":{"android":"levelo://app?vid=158df77e-2ea0-4787-ac7e-e8812e0498ad","ios":"levelo://app?vid=158df77e-2ea0-4787-ac7e-e8812e0498ad"},"vehicle_type_id":"4","last_reported":1732273672,"current_range_meters":6800,"station_id":"ce4bhlh2rcd13ifvqgig","pricing_plan_id":"cebpf4jnsgd1na2vs0mg"},{"bike_id":"9bf00278-281e-45df-b9cb-0f55e5af1df2","system_id":"levelo_inurba_marseille","lat":43.25581,"lon":5.38232,"is_reserved":false,"is_disabled":false,"rental_uris":{"android":"levelo://app?vid=9bf00278-281e-45df-b9cb-0f55e5af1df2","ios":"levelo://app?vid=9bf00278-281e-45df-b9cb-0f55e5af1df2"},"vehicle_type_id":"4","last_reported":1732273672,"current_range_meters":36400,"station_id":"ce4bhih2rcd13ifvqfs0","pricing_plan_id":"cebpf4jnsgd1na2vs0mg"},{"bike_id":"4e945ae0-d6ee-4575-a0fe-1d4e3c15c37b","system_id":"levelo_inurba_marseille","lat":43.31069,"lon":5.38346,"is_reserved":false,"is_disabled":false,"rental_uris":{"android":"levelo://app?vid=4e945ae0-d6ee-4575-a0fe-1d4e3c15c37b","ios":"levelo://app?vid=4e945ae0-d6ee-4575-a0fe-1d4e3c15c37b"},"vehicle_type_id":"4","last_reported":1732273672,"current_range_meters":38800,"station_id":"ce4bgv92rcd13ifvqcr0","pricing_plan_id":"cebpf4jnsgd1na2vs0mg"},{"bike_id":"a3e41c83-7ece-47cf-81cd-9f50da4fe0d3","system_id":"levelo_inurba_marseille","lat":43.29311,"lon":5.37177,"is_reserved":false,"is_disabled":false,"rental_uris":{"android":"levelo://app?vid=a3e41c83-7ece-47cf-81cd-9f50da4fe0d3","ios":"levelo://app?vid=a3e41c83-7ece-47cf-81cd-9f50da4fe0d3"},"vehicle_type_id":"4","last_reported":1732273672,"current_range_meters":23200,"station_id":"ce4bgh92rcd13ifvqb40","pricing_plan_id":"cebpf4jnsgd1na2vs0mg"},{"bike_id":"e607c9bb-5d43-4ba6-90b8-95cdc232470a","system_id":"levelo_inurba_marseille","lat":43.2871,"lon":5.38738,"is_reserved":false,"is_disabled":false,"rental_uris":{"android":"levelo://app?vid=e607c9bb-5d43-4ba6-90b8-95cdc232470a","ios":"levelo://app?vid=e607c9bb-5d43-4ba6-90b8-95cdc232470a"},"vehicle_type_id":"4","last_reported":1732273672,"current_range_meters":38000,"station_id":"ce4bh492rcd13ifvqdug","pricing_plan_id":"cebpf4jnsgd1na2vs0mg"},{"bike_id":"c02d4f98-3792-41e1-be1a-7685993bec44","system_id":"levelo_inurba_marseille","lat":43.26558,"lon":5.37279,"is_reserved":false,"is_disabled":false,"rental_uris":{"android":"levelo://app?vid=c02d4f98-3792-41e1-be1a-7685993bec44","ios":"levelo://app?vid=c02d4f98-3792-41e1-be1a-7685993bec44"},"vehicle_type_id":"4","last_reported":1732273672,"current_range_meters":38000,"station_id":"ce4bhg12rcd13ifvqf70","pricing_plan_id":"cebpf4jnsgd1na2vs0mg"},{"bike_id":"7e5bc73f-3976-4815-ab59-c8f403838b5c","system_id":"levelo_inurba_marseille","lat":43.29418,"lon":5.38617,"is_reserved":false,"is_disabled":true,"rental_uris":{"android":"levelo://app?vid=7e5bc73f-3976-4815-ab59-c8f403838b5c","ios":"levelo://app?vid=7e5bc73f-3976-4815-ab59-c8f403838b5c"},"vehicle_type_id":"4","last_reported":1732273672,"current_range_meters":0,"station_id":"ce4bh2h2rcd13ifvqdh0","pricing_plan_id":"cebpf4jnsgd1na2vs0mg"},{"bike_id":"2a39bae6-bbce-4c5c-9e71-581dabf375a5","system_id":"levelo_inurba_marseille","lat":43.29907,"lon":5.37477,"is_reserved":false,"is_disabled":false,"rental_uris":{"android":"levelo://app?vid=2a39bae6-bbce-4c5c-9e71-581dabf375a5","ios":"levelo://app?vid=2a39bae6-bbce-4c5c-9e71-581dabf375a5"},"vehicle_type_id":"4","last_reported":1732273672,"current_range_meters":38800,"station_id":"ce4bgjh2rcd13ifvqbg0","pricing_plan_id":"cebpf4jnsgd1na2vs0mg"},{"bike_id":"f7911ba1-f247-4ef6-81ed-7e873ef569c6","system_id":"levelo_inurba_marseille","lat":43.27579,"lon":5.38416,"is_reserved":false,"is_disabled":true,"rental_uris":{"android":"levelo://app?vid=f7911ba1-f247-4ef6-81ed-7e873ef569c6","ios":"levelo://app?vid=f7911ba1-f247-4ef6-81ed-7e873ef569c6"},"vehicle_type_id":"4","last_reported":1732273672,"current_range_meters":39200,"station_id":"ce4bhh92rcd13ifvqfi0","pricing_plan_id":"cebpf4jnsgd1na2vs0mg"},{"bike_id":"1cd0daee-d68a-4e66-9883-fbe67fd8260f","system_id":"levelo_inurba_marseille","lat":43.305794,"lon":5.370686,"is_reserved":false,"is_disabled":true,"rental_uris":{"android":"levelo://app?vid=1cd0daee-d68a-4e66-9883-fbe67fd8260f","ios":"levelo://app?vid=1cd0daee-d68a-4e66-9883-fbe67fd8260f"},"vehicle_type_id":"4","last_reported":1732273672,"current_range_meters":0,"station_id":"","pricing_plan_id":"cebpf4jnsgd1na2vs0mg"},{"bike_id":"f6a92db1-11ed-4c87-84fe-7bc25d11cfa7","system_id":"levelo_inurba_marseille","lat":43.30801,"lon":5.38145,"is_reserved":false,"is_disabled":true,"rental_uris":{"android":"levelo://app?vid=f6a92db1-11ed-4c87-84fe-7bc25d11cfa7","ios":"levelo://app?vid=f6a92db1-11ed-4c87-84fe-7bc25d11cfa7"},"vehicle_type_id":"4","last_reported":1732273672,"current_range_meters":4400,"station_id":"ce4bgt12rcd13ifvqce0","pricing_plan_id":"cebpf4jnsgd1na2vs0mg"},{"bike_id":"8049dfa2-ab84-4979-a750-4db119a39bb9","system_id":"levelo_inurba_marseille","lat":43.26033,"lon":5.37545,"is_reserved":false,"is_disabled":false,"rental_uris":{"android":"levelo://app?vid=8049dfa2-ab84-4979-a750-4db119a39bb9","ios":"levelo://app?vid=8049dfa2-ab84-4979-a750-4db119a39bb9"},"vehicle_type_id":"4","last_reported":1732273672,"current_range_meters":22400,"station_id":"ce4bhgh2rcd13ifvqfa0","pricing_plan_id":"cebpf4jnsgd1na2vs0mg"},{"bike_id":"e25bd807-1e58-4745-9ca8-696991c16380","system_id":"levelo_inurba_marseille","lat":43.29314,"lon":5.37189,"is_reserved":false,"is_disabled":false,"rental_uris":{"android":"levelo://app?vid=e25bd807-1e58-4745-9ca8-696991c16380","ios":"levelo://app?vid=e25bd807-1e58-4745-9ca8-696991c16380"},"vehicle_type_id":"4","last_reported":1732273672,"current_range_meters":22400,"station_id":"ce4bgh92rcd13ifvqb40","pricing_plan_id":"cebpf4jnsgd1na2vs0mg"},{"bike_id":"0e73312c-de36-4a57-b662-f165e47acb16","system_id":"levelo_inurba_marseille","lat":43.26195,"lon":5.37914,"is_reserved":false,"is_disabled":false,"rental_uris":{"android":"levelo://app?vid=0e73312c-de36-4a57-b662-f165e47acb16","ios":"levelo://app?vid=0e73312c-de36-4a57-b662-f165e47acb16"},"vehicle_type_id":"4","last_reported":1732273672,"current_range_meters":10800,"station_id":"ce4bhjp2rcd13ifvqg90","pricing_plan_id":"cebpf4jnsgd1na2vs0mg"},{"bike_id":"c3215e31-8e2b-4e51-9c7c-1f1af8d6acc6","system_id":"levelo_inurba_marseille","lat":43.30903,"lon":5.37194,"is_reserved":false,"is_disabled":false,"rental_uris":{"android":"levelo://app?vid=c3215e31-8e2b-4e51-9c7c-1f1af8d6acc6","ios":"levelo://app?vid=c3215e31-8e2b-4e51-9c7c-1f1af8d6acc6"},"vehicle_type_id":"4","last_reported":1732273672,"current_range_meters":8800,"station_id":"ce4bguh2rcd13ifvqckg","pricing_plan_id":"cebpf4jnsgd1na2vs0mg"},{"bike_id":"93c41fb7-e4d2-473a-b7e1-4a5a649c5649","system_id":"levelo_inurba_marseille","lat":43.325378,"lon":5.414499,"is_reserved":false,"is_disabled":false,"rental_uris":{"android":"levelo://app?vid=93c41fb7-e4d2-473a-b7e1-4a5a649c5649","ios":"levelo://app?vid=93c41fb7-e4d2-473a-b7e1-4a5a649c5649"},"vehicle_type_id":"4","last_reported":1732273672,"current_range_meters":38800,"station_id":"ce4bhq12rcd13ifvqhhg","pricing_plan_id":"cebpf4jnsgd1na2vs0mg"},{"bike_id":"bdac8ff3-e713-4a02-9f76-78fc6782aa52","system_id":"levelo_inurba_marseille","lat":43.23131,"lon":5.43696,"is_reserved":false,"is_disabled":false,"rental_uris":{"android":"levelo://app?vid=bdac8ff3-e713-4a02-9f76-78fc6782aa52","ios":"levelo://app?vid=bdac8ff3-e713-4a02-9f76-78fc6782aa52"},"vehicle_type_id":"4","last_reported":1732273672,"current_range_meters":24400,"station_id":"ce4bhmp2rcd13ifvqgog","pricing_plan_id":"cebpf4jnsgd1na2vs0mg"},{"bike_id":"c8c71d6a-3155-4ee9-ba4f-a4d0d36b4405","system_id":"levelo_inurba_marseille","lat":43.26681,"lon":5.38267,"is_reserved":false,"is_disabled":false,"rental_uris":{"android":"levelo://app?vid=c8c71d6a-3155-4ee9-ba4f-a4d0d36b4405","ios":"levelo://app?vid=c8c71d6a-3155-4ee9-ba4f-a4d0d36b4405"},"vehicle_type_id":"4","last_reported":1732273672,"current_range_meters":36800,"station_id":"ce4bhg92rcd13ifvqf90","pricing_plan_id":"cebpf4jnsgd1na2vs0mg"},{"bike_id":"9362d71b-9c50-41b7-b7b8-dc7cb7588b4c","system_id":"levelo_inurba_marseille","lat":43.29846,"lon":5.36272,"is_reserved":false,"is_disabled":false,"rental_uris":{"android":"levelo://app?vid=9362d71b-9c50-41b7-b7b8-dc7cb7588b4c","ios":"levelo://app?vid=9362d71b-9c50-41b7-b7b8-dc7cb7588b4c"},"vehicle_type_id":"4","last_reported":1732273672,"current_range_meters":38000,"station_id":"ce4bgpp2rcd13ifvqc3g","pricing_plan_id":"cebpf4jnsgd1na2vs0mg"},{"bike_id":"ccbdd70c-05be-4409-9ec2-8ae4f90b7b65","system_id":"levelo_inurba_marseille","lat":43.29907,"lon":5.38131,"is_reserved":false,"is_disabled":false,"rental_uris":{"android":"levelo://app?vid=ccbdd70c-05be-4409-9ec2-8ae4f90b7b65","ios":"levelo://app?vid=ccbdd70c-05be-4409-9ec2-8ae4f90b7b65"},"vehicle_type_id":"4","last_reported":1732273672,"current_range_meters":37600,"station_id":"ce4bgj12rcd13ifvqbc0","pricing_plan_id":"cebpf4jnsgd1na2vs0mg"},{"bike_id":"efb74c59-7907-45ef-a946-a7f3a263c10d","system_id":"levelo_inurba_marseille","lat":43.28423,"lon":5.37515,"is_reserved":false,"is_disabled":false,"rental_uris":{"android":"levelo://app?vid=efb74c59-7907-45ef-a946-a7f3a263c10d","ios":"levelo://app?vid=efb74c59-7907-45ef-a946-a7f3a263c10d"},"vehicle_type_id":"4","last_reported":1732273672,"current_range_meters":16400,"station_id":"ce4bh412rcd13ifvqds0","pricing_plan_id":"cebpf4jnsgd1na2vs0mg"},{"bike_id":"a111b3a1-7ea2-46ed-8412-d7fd982ee5ea","system_id":"levelo_inurba_marseille","lat":43.31483,"lon":5.37309,"is_reserved":false,"is_disabled":false,"rental_uris":{"android":"levelo://app?vid=a111b3a1-7ea2-46ed-8412-d7fd982ee5ea","ios":"levelo://app?vid=a111b3a1-7ea2-46ed-8412-d7fd982ee5ea"},"vehicle_type_id":"4","last_reported":1732273672,"current_range_meters":32400,"station_id":"ce4bgt12rcd13ifvqcd0","pricing_plan_id":"cebpf4jnsgd1na2vs0mg"},{"bike_id":"25c1e65b-83ae-4fec-9c1c-f8308c082ae7","system_id":"levelo_inurba_marseille","lat":43.32108,"lon":5.36773,"is_reserved":false,"is_disabled":false,"rental_uris":{"android":"levelo://app?vid=25c1e65b-83ae-4fec-9c1c-f8308c082ae7","ios":"levelo://app?vid=25c1e65b-83ae-4fec-9c1c-f8308c082ae7"},"vehicle_type_id":"4","last_reported":1732273672,"current_range_meters":26000,"station_id":"ce4bhrh2rcd13ifvqhug","pricing_plan_id":"cebpf4jnsgd1na2vs0mg"},{"bike_id":"ebe2b43b-e5bb-4158-835b-e46b2ce0d167","system_id":"levelo_inurba_marseille","lat":43.22928,"lon":5.35372,"is_reserved":false,"is_disabled":false,"rental_uris":{"android":"levelo://app?vid=ebe2b43b-e5bb-4158-835b-e46b2ce0d167","ios":"levelo://app?vid=ebe2b43b-e5bb-4158-835b-e46b2ce0d167"},"vehicle_type_id":"4","last_reported":1732273672,"current_range_meters":34800,"station_id":"cpo3532slgdg3j2ikp40","pricing_plan_id":"cebpf4jnsgd1na2vs0mg"},{"bike_id":"d3f88ac1-af0e-4fe3-957f-9fb722f55ef1","system_id":"levelo_inurba_marseille","lat":43.3248,"lon":5.36553,"is_reserved":false,"is_disabled":false,"rental_uris":{"android":"levelo://app?vid=d3f88ac1-af0e-4fe3-957f-9fb722f55ef1","ios":"levelo://app?vid=d3f88ac1-af0e-4fe3-957f-9fb722f55ef1"},"vehicle_type_id":"4","last_reported":1732273672,"current_range_meters":36800,"station_id":"ce4bhs12rcd13ifvqhvg","pricing_plan_id":"cebpf4jnsgd1na2vs0mg"},{"bike_id":"4143c030-19d0-46ec-b5ac-2a8e426a33cd","system_id":"levelo_inurba_marseille","lat":43.30803,"lon":5.38147,"is_reserved":false,"is_disabled":true,"rental_uris":{"android":"levelo://app?vid=4143c030-19d0-46ec-b5ac-2a8e426a33cd","ios":"levelo://app?vid=4143c030-19d0-46ec-b5ac-2a8e426a33cd"},"vehicle_type_id":"4","last_reported":1732273672,"current_range_meters":1600,"station_id":"ce4bgt12rcd13ifvqce0","pricing_plan_id":"cebpf4jnsgd1na2vs0mg"},{"bike_id":"7bc1d03b-5ab1-4115-b190-752654f92abb","system_id":"levelo_inurba_marseille","lat":43.30143,"lon":5.38061,"is_reserved":false,"is_disabled":false,"rental_uris":{"android":"levelo://app?vid=7bc1d03b-5ab1-4115-b190-752654f92abb","ios":"levelo://app?vid=7bc1d03b-5ab1-4115-b190-752654f92abb"},"vehicle_type_id":"4","last_reported":1732273672,"current_range_meters":35200,"station_id":"ce4bgjp2rcd13ifvqbh0","pricing_plan_id":"cebpf4jnsgd1na2vs0mg"},{"bike_id":"f256e1d9-53ea-4d87-bd51-eff2e2165a3a","system_id":"levelo_inurba_marseille","lat":43.29303,"lon":5.37171,"is_reserved":false,"is_disabled":false,"rental_uris":{"android":"levelo://app?vid=f256e1d9-53ea-4d87-bd51-eff2e2165a3a","ios":"levelo://app?vid=f256e1d9-53ea-4d87-bd51-eff2e2165a3a"},"vehicle_type_id":"4","last_reported":1732273672,"current_range_meters":38800,"station_id":"ce4bgh92rcd13ifvqb40","pricing_plan_id":"cebpf4jnsgd1na2vs0mg"},{"bike_id":"8e343052-c78e-4266-8644-2f52116198e0","system_id":"levelo_inurba_marseille","lat":43.32337,"lon":5.40622,"is_reserved":false,"is_disabled":true,"rental_uris":{"android":"levelo://app?vid=8e343052-c78e-4266-8644-2f52116198e0","ios":"levelo://app?vid=8e343052-c78e-4266-8644-2f52116198e0"},"vehicle_type_id":"4","last_reported":1732273672,"current_range_meters":38800,"station_id":"ce4bhq92rcd13ifvqhjg","pricing_plan_id":"cebpf4jnsgd1na2vs0mg"},{"bike_id":"652569a3-bbdf-4567-a5c4-12b81868147e","system_id":"levelo_inurba_marseille","lat":43.29303,"lon":5.37458,"is_reserved":false,"is_disabled":false,"rental_uris":{"android":"levelo://app?vid=652569a3-bbdf-4567-a5c4-12b81868147e","ios":"levelo://app?vid=652569a3-bbdf-4567-a5c4-12b81868147e"},"vehicle_type_id":"4","last_reported":1732273672,"current_range_meters":6000,"station_id":"ce4bgi12rcd13ifvqb70","pricing_plan_id":"cebpf4jnsgd1na2vs0mg"},{"bike_id":"60f5ee61-2885-4325-a690-4d0de4a1bdc7","system_id":"levelo_inurba_marseille","lat":43.317,"lon":5.40464,"is_reserved":false,"is_disabled":false,"rental_uris":{"android":"levelo://app?vid=60f5ee61-2885-4325-a690-4d0de4a1bdc7","ios":"levelo://app?vid=60f5ee61-2885-4325-a690-4d0de4a1bdc7"},"vehicle_type_id":"4","last_reported":1732273672,"current_range_meters":32000,"station_id":"ce4bh012rcd13ifvqd00","pricing_plan_id":"cebpf4jnsgd1na2vs0mg"},{"bike_id":"61c68101-ef1a-457d-93e0-33b537eab2ac","system_id":"levelo_inurba_marseille","lat":43.27999,"lon":5.40018,"is_reserved":false,"is_disabled":false,"rental_uris":{"android":"levelo://app?vid=61c68101-ef1a-457d-93e0-33b537eab2ac","ios":"levelo://app?vid=61c68101-ef1a-457d-93e0-33b537eab2ac"},"vehicle_type_id":"4","last_reported":1732273672,"current_range_meters":32800,"station_id":"ce4bho92rcd13ifvqh4g","pricing_plan_id":"cebpf4jnsgd1na2vs0mg"},{"bike_id":"82386c99-95d1-468e-895f-a9ce5a289c63","system_id":"levelo_inurba_marseille","lat":43.29614,"lon":5.37708,"is_reserved":false,"is_disabled":false,"rental_uris":{"android":"levelo://app?vid=82386c99-95d1-468e-895f-a9ce5a289c63","ios":"levelo://app?vid=82386c99-95d1-468e-895f-a9ce5a289c63"},"vehicle_type_id":"4","last_reported":1732273672,"current_range_meters":38800,"station_id":"ce4bgi92rcd13ifvqb90","pricing_plan_id":"cebpf4jnsgd1na2vs0mg"},{"bike_id":"567b5bec-6f69-4097-9d92-252add5a5c8a","system_id":"levelo_inurba_marseille","lat":43.25578,"lon":5.3823,"is_reserved":false,"is_disabled":false,"rental_uris":{"android":"levelo://app?vid=567b5bec-6f69-4097-9d92-252add5a5c8a","ios":"levelo://app?vid=567b5bec-6f69-4097-9d92-252add5a5c8a"},"vehicle_type_id":"4","last_reported":1732273672,"current_range_meters":36800,"station_id":"ce4bhih2rcd13ifvqfs0","pricing_plan_id":"cebpf4jnsgd1na2vs0mg"},{"bike_id":"fb0e7305-4388-4c1e-aa9c-b5955479df12","system_id":"levelo_inurba_marseille","lat":43.2606,"lon":5.39396,"is_reserved":false,"is_disabled":false,"rental_uris":{"android":"levelo://app?vid=fb0e7305-4388-4c1e-aa9c-b5955479df12","ios":"levelo://app?vid=fb0e7305-4388-4c1e-aa9c-b5955479df12"},"vehicle_type_id":"4","last_reported":1732273672,"current_range_meters":35200,"station_id":"ce4bhh92rcd13ifvqfj0","pricing_plan_id":"cebpf4jnsgd1na2vs0mg"},{"bike_id":"7d5ba0aa-0f48-4a7f-82de-9d26e1521cfb","system_id":"levelo_inurba_marseille","lat":43.32286,"lon":5.38262,"is_reserved":false,"is_disabled":false,"rental_uris":{"android":"levelo://app?vid=7d5ba0aa-0f48-4a7f-82de-9d26e1521cfb","ios":"levelo://app?vid=7d5ba0aa-0f48-4a7f-82de-9d26e1521cfb"},"vehicle_type_id":"4","last_reported":1732273672,"current_range_meters":22800,"station_id":"ce4bhr12rcd13ifvqhqg","pricing_plan_id":"cebpf4jnsgd1na2vs0mg"},{"bike_id":"665c1f28-36c1-478c-88bc-8e08c480609c","system_id":"levelo_inurba_marseille","lat":43.2718,"lon":5.40996,"is_reserved":false,"is_disabled":false,"rental_uris":{"android":"levelo://app?vid=665c1f28-36c1-478c-88bc-8e08c480609c","ios":"levelo://app?vid=665c1f28-36c1-478c-88bc-8e08c480609c"},"vehicle_type_id":"4","last_reported":1732273672,"current_range_meters":38800,"station_id":"ce4bhl12rcd13ifvqgf0","pricing_plan_id":"cebpf4jnsgd1na2vs0mg"},{"bike_id":"9c37a5af-6b01-4e75-9657-7ef6bddc1bc6","system_id":"levelo_inurba_marseille","lat":43.33022,"lon":5.39043,"is_reserved":false,"is_disabled":false,"rental_uris":{"android":"levelo://app?vid=9c37a5af-6b01-4e75-9657-7ef6bddc1bc6","ios":"levelo://app?vid=9c37a5af-6b01-4e75-9657-7ef6bddc1bc6"},"vehicle_type_id":"4","last_reported":1732273672,"current_range_meters":24000,"station_id":"ce4bhr92rcd13ifvqhrg","pricing_plan_id":"cebpf4jnsgd1na2vs0mg"},{"bike_id":"a5c6a665-254f-4467-b89d-1a7ab26a6517","system_id":"levelo_inurba_marseille","lat":43.30283,"lon":5.37699,"is_reserved":false,"is_disabled":false,"rental_uris":{"android":"levelo://app?vid=a5c6a665-254f-4467-b89d-1a7ab26a6517","ios":"levelo://app?vid=a5c6a665-254f-4467-b89d-1a7ab26a6517"},"vehicle_type_id":"4","last_reported":1732273672,"current_range_meters":27600,"station_id":"ce4bguh2rcd13ifvqcj0","pricing_plan_id":"cebpf4jnsgd1na2vs0mg"},{"bike_id":"ee0bb0d8-1a66-408e-a023-20270e4a60e6","system_id":"levelo_inurba_marseille","lat":43.29875,"lon":5.39733,"is_reserved":false,"is_disabled":true,"rental_uris":{"android":"levelo://app?vid=ee0bb0d8-1a66-408e-a023-20270e4a60e6","ios":"levelo://app?vid=ee0bb0d8-1a66-408e-a023-20270e4a60e6"},"vehicle_type_id":"4","last_reported":1732273672,"current_range_meters":0,"station_id":"ce4bh0h2rcd13ifvqd50","pricing_plan_id":"cebpf4jnsgd1na2vs0mg"},{"bike_id":"f9e35db8-2f7a-4f43-8c70-83778761d42d","system_id":"levelo_inurba_marseille","lat":43.23188,"lon":5.35557,"is_reserved":false,"is_disabled":true,"rental_uris":{"android":"levelo://app?vid=f9e35db8-2f7a-4f43-8c70-83778761d42d","ios":"levelo://app?vid=f9e35db8-2f7a-4f43-8c70-83778761d42d"},"vehicle_type_id":"4","last_reported":1732273672,"current_range_meters":37600,"station_id":"ce4bhu92rcd13ifvqi70","pricing_plan_id":"cebpf4jnsgd1na2vs0mg"},{"bike_id":"d979d12e-0952-4b0d-a112-f005022fbbe4","system_id":"levelo_inurba_marseille","lat":43.26203,"lon":5.37927,"is_reserved":false,"is_disabled":false,"rental_uris":{"android":"levelo://app?vid=d979d12e-0952-4b0d-a112-f005022fbbe4","ios":"levelo://app?vid=d979d12e-0952-4b0d-a112-f005022fbbe4"},"vehicle_type_id":"4","last_reported":1732273672,"current_range_meters":39200,"station_id":"ce4bhjp2rcd13ifvqg90","pricing_plan_id":"cebpf4jnsgd1na2vs0mg"},{"bike_id":"17b263e7-11a4-4e49-99f1-347989185c5a","system_id":"levelo_inurba_marseille","lat":43.27186,"lon":5.40999,"is_reserved":false,"is_disabled":false,"rental_uris":{"android":"levelo://app?vid=17b263e7-11a4-4e49-99f1-347989185c5a","ios":"levelo://app?vid=17b263e7-11a4-4e49-99f1-347989185c5a"},"vehicle_type_id":"4","last_reported":1732273672,"current_range_meters":38800,"station_id":"ce4bhl12rcd13ifvqgf0","pricing_plan_id":"cebpf4jnsgd1na2vs0mg"},{"bike_id":"ac894d2b-d4fc-430d-9b98-f63b338519b2","system_id":"levelo_inurba_marseille","lat":43.2594,"lon":5.40906,"is_reserved":false,"is_disabled":false,"rental_uris":{"android":"levelo://app?vid=ac894d2b-d4fc-430d-9b98-f63b338519b2","ios":"levelo://app?vid=ac894d2b-d4fc-430d-9b98-f63b338519b2"},"vehicle_type_id":"4","last_reported":1732273672,"current_range_meters":27600,"station_id":"ce4bhm92rcd13ifvqglg","pricing_plan_id":"cebpf4jnsgd1na2vs0mg"},{"bike_id":"0bb6014d-0296-423e-9c10-0f294d5824ca","system_id":"levelo_inurba_marseille","lat":43.31763,"lon":5.3902,"is_reserved":false,"is_disabled":false,"rental_uris":{"android":"levelo://app?vid=0bb6014d-0296-423e-9c10-0f294d5824ca","ios":"levelo://app?vid=0bb6014d-0296-423e-9c10-0f294d5824ca"},"vehicle_type_id":"4","last_reported":1732273672,"current_range_meters":8000,"station_id":"ce4bhqp2rcd13ifvqhng","pricing_plan_id":"cebpf4jnsgd1na2vs0mg"},{"bike_id":"ca830116-b4f0-46a6-89c4-00566a1ee122","system_id":"levelo_inurba_marseille","lat":43.30351,"lon":5.41877,"is_reserved":false,"is_disabled":false,"rental_uris":{"android":"levelo://app?vid=ca830116-b4f0-46a6-89c4-00566a1ee122","ios":"levelo://app?vid=ca830116-b4f0-46a6-89c4-00566a1ee122"},"vehicle_type_id":"4","last_reported":1732273672,"current_range_meters":38800,"station_id":"ce4bhop2rcd13ifvqh7g","pricing_plan_id":"cebpf4jnsgd1na2vs0mg"},{"bike_id":"8383ef82-5765-4828-81d3-bac60dfe1e1f","system_id":"levelo_inurba_marseille","lat":43.29528,"lon":5.37497,"is_reserved":false,"is_disabled":false,"rental_uris":{"android":"levelo://app?vid=8383ef82-5765-4828-81d3-bac60dfe1e1f","ios":"levelo://app?vid=8383ef82-5765-4828-81d3-bac60dfe1e1f"},"vehicle_type_id":"4","last_reported":1732273672,"current_range_meters":9200,"station_id":"ce4bgkp2rcd13ifvqbmg","pricing_plan_id":"cebpf4jnsgd1na2vs0mg"},{"bike_id":"35005469-a36f-4579-b926-2bbc2fea0fa4","system_id":"levelo_inurba_marseille","lat":43.31366,"lon":5.36702,"is_reserved":false,"is_disabled":false,"rental_uris":{"android":"levelo://app?vid=35005469-a36f-4579-b926-2bbc2fea0fa4","ios":"levelo://app?vid=35005469-a36f-4579-b926-2bbc2fea0fa4"},"vehicle_type_id":"4","last_reported":1732273672,"current_range_meters":9600,"station_id":"ce4bgr92rcd13ifvqc6g","pricing_plan_id":"cebpf4jnsgd1na2vs0mg"},{"bike_id":"e6f269d5-78f6-4043-917f-52913283f83c","system_id":"levelo_inurba_marseille","lat":43.23151,"lon":5.43718,"is_reserved":false,"is_disabled":false,"rental_uris":{"android":"levelo://app?vid=e6f269d5-78f6-4043-917f-52913283f83c","ios":"levelo://app?vid=e6f269d5-78f6-4043-917f-52913283f83c"},"vehicle_type_id":"4","last_reported":1732273672,"current_range_meters":27200,"station_id":"ce4bhmp2rcd13ifvqgog","pricing_plan_id":"cebpf4jnsgd1na2vs0mg"},{"bike_id":"844cb461-f780-45f5-88b2-3951b51e6462","system_id":"levelo_inurba_marseille","lat":43.30116,"lon":5.37791,"is_reserved":false,"is_disabled":true,"rental_uris":{"android":"levelo://app?vid=844cb461-f780-45f5-88b2-3951b51e6462","ios":"levelo://app?vid=844cb461-f780-45f5-88b2-3951b51e6462"},"vehicle_type_id":"4","last_reported":1732273672,"current_range_meters":0,"station_id":"","pricing_plan_id":"cebpf4jnsgd1na2vs0mg"},{"bike_id":"4e243365-70fc-443d-82a5-864cf6b26e66","system_id":"levelo_inurba_marseille","lat":43.27204,"lon":5.39172,"is_reserved":false,"is_disabled":false,"rental_uris":{"android":"levelo://app?vid=4e243365-70fc-443d-82a5-864cf6b26e66","ios":"levelo://app?vid=4e243365-70fc-443d-82a5-864cf6b26e66"},"vehicle_type_id":"4","last_reported":1732273672,"current_range_meters":38800,"station_id":"ce4bhhp2rcd13ifvqfm0","pricing_plan_id":"cebpf4jnsgd1na2vs0mg"},{"bike_id":"ea12b622-7502-438f-8c3f-767c1cc4f976","system_id":"levelo_inurba_marseille","lat":43.26058,"lon":5.39394,"is_reserved":false,"is_disabled":false,"rental_uris":{"android":"levelo://app?vid=ea12b622-7502-438f-8c3f-767c1cc4f976","ios":"levelo://app?vid=ea12b622-7502-438f-8c3f-767c1cc4f976"},"vehicle_type_id":"4","last_reported":1732273672,"current_range_meters":30800,"station_id":"ce4bhh92rcd13ifvqfj0","pricing_plan_id":"cebpf4jnsgd1na2vs0mg"},{"bike_id":"1e8c2233-2991-4df4-bec5-3b057c9b11ed","system_id":"levelo_inurba_marseille","lat":43.30146,"lon":5.37421,"is_reserved":false,"is_disabled":true,"rental_uris":{"android":"levelo://app?vid=1e8c2233-2991-4df4-bec5-3b057c9b11ed","ios":"levelo://app?vid=1e8c2233-2991-4df4-bec5-3b057c9b11ed"},"vehicle_type_id":"4","last_reported":1732273672,"current_range_meters":37600,"station_id":"ce4bgs92rcd13ifvqcc0","pricing_plan_id":"cebpf4jnsgd1na2vs0mg"},{"bike_id":"786329d4-a364-4aee-bb86-124298f7a780","system_id":"levelo_inurba_marseille","lat":43.25824,"lon":5.39433,"is_reserved":false,"is_disabled":false,"rental_uris":{"android":"levelo://app?vid=786329d4-a364-4aee-bb86-124298f7a780","ios":"levelo://app?vid=786329d4-a364-4aee-bb86-124298f7a780"},"vehicle_type_id":"4","last_reported":1732273672,"current_range_meters":16800,"station_id":"ce4bhip2rcd13ifvqft0","pricing_plan_id":"cebpf4jnsgd1na2vs0mg"},{"bike_id":"16628da1-47db-4d04-b602-21cb64733c44","system_id":"levelo_inurba_marseille","lat":43.27813,"lon":5.40714,"is_reserved":false,"is_disabled":false,"rental_uris":{"android":"levelo://app?vid=16628da1-47db-4d04-b602-21cb64733c44","ios":"levelo://app?vid=16628da1-47db-4d04-b602-21cb64733c44"},"vehicle_type_id":"4","last_reported":1732273672,"current_range_meters":17600,"station_id":"ce4bhnh2rcd13ifvqgtg","pricing_plan_id":"cebpf4jnsgd1na2vs0mg"},{"bike_id":"cdaafd2d-0da1-4fac-9881-15c66a7cd7c0","system_id":"levelo_inurba_marseille","lat":43.23153,"lon":5.43705,"is_reserved":false,"is_disabled":false,"rental_uris":{"android":"levelo://app?vid=cdaafd2d-0da1-4fac-9881-15c66a7cd7c0","ios":"levelo://app?vid=cdaafd2d-0da1-4fac-9881-15c66a7cd7c0"},"vehicle_type_id":"4","last_reported":1732273672,"current_range_meters":39200,"station_id":"ce4bhmp2rcd13ifvqgog","pricing_plan_id":"cebpf4jnsgd1na2vs0mg"},{"bike_id":"c1024338-3a35-4c5d-8621-6f53a0a7a406","system_id":"levelo_inurba_marseille","lat":43.336669,"lon":5.39812,"is_reserved":false,"is_disabled":true,"rental_uris":{"android":"levelo://app?vid=c1024338-3a35-4c5d-8621-6f53a0a7a406","ios":"levelo://app?vid=c1024338-3a35-4c5d-8621-6f53a0a7a406"},"vehicle_type_id":"4","last_reported":1732273672,"current_range_meters":33600,"station_id":"","pricing_plan_id":"cebpf4jnsgd1na2vs0mg"},{"bike_id":"b03f69f7-b71a-4f20-b004-cac08d3d55e5","system_id":"levelo_inurba_marseille","lat":43.32364,"lon":5.38883,"is_reserved":false,"is_disabled":false,"rental_uris":{"android":"levelo://app?vid=b03f69f7-b71a-4f20-b004-cac08d3d55e5","ios":"levelo://app?vid=b03f69f7-b71a-4f20-b004-cac08d3d55e5"},"vehicle_type_id":"4","last_reported":1732273672,"current_range_meters":30000,"station_id":"ce4bhqp2rcd13ifvqhog","pricing_plan_id":"cebpf4jnsgd1na2vs0mg"},{"bike_id":"8d5ad0a8-268e-4afd-be61-7919f93826c7","system_id":"levelo_inurba_marseille","lat":43.29917,"lon":5.37464,"is_reserved":false,"is_disabled":false,"rental_uris":{"android":"levelo://app?vid=8d5ad0a8-268e-4afd-be61-7919f93826c7","ios":"levelo://app?vid=8d5ad0a8-268e-4afd-be61-7919f93826c7"},"vehicle_type_id":"4","last_reported":1732273672,"current_range_meters":38800,"station_id":"ce4bgjh2rcd13ifvqbg0","pricing_plan_id":"cebpf4jnsgd1na2vs0mg"},{"bike_id":"3e51505c-66c2-4920-b827-cea103a2ac7b","system_id":"levelo_inurba_marseille","lat":43.32364,"lon":5.38881,"is_reserved":false,"is_disabled":false,"rental_uris":{"android":"levelo://app?vid=3e51505c-66c2-4920-b827-cea103a2ac7b","ios":"levelo://app?vid=3e51505c-66c2-4920-b827-cea103a2ac7b"},"vehicle_type_id":"4","last_reported":1732273672,"current_range_meters":38800,"station_id":"ce4bhqp2rcd13ifvqhog","pricing_plan_id":"cebpf4jnsgd1na2vs0mg"},{"bike_id":"ebdc9c49-063b-430c-9f78-3f77e2d85322","system_id":"levelo_inurba_marseille","lat":43.29615,"lon":5.37726,"is_reserved":false,"is_disabled":false,"rental_uris":{"android":"levelo://app?vid=ebdc9c49-063b-430c-9f78-3f77e2d85322","ios":"levelo://app?vid=ebdc9c49-063b-430c-9f78-3f77e2d85322"},"vehicle_type_id":"4","last_reported":1732273672,"current_range_meters":40000,"station_id":"ce4bgi92rcd13ifvqb90","pricing_plan_id":"cebpf4jnsgd1na2vs0mg"},{"bike_id":"1ef17f0c-9df8-40aa-bad8-8fe504107889","system_id":"levelo_inurba_marseille","lat":43.31765,"lon":5.39005,"is_reserved":false,"is_disabled":false,"rental_uris":{"android":"levelo://app?vid=1ef17f0c-9df8-40aa-bad8-8fe504107889","ios":"levelo://app?vid=1ef17f0c-9df8-40aa-bad8-8fe504107889"},"vehicle_type_id":"4","last_reported":1732273672,"current_range_meters":32800,"station_id":"ce4bhqp2rcd13ifvqhng","pricing_plan_id":"cebpf4jnsgd1na2vs0mg"},{"bike_id":"34851246-9c74-42e8-ae48-fbf7b7605730","system_id":"levelo_inurba_marseille","lat":43.23146,"lon":5.43703,"is_reserved":false,"is_disabled":false,"rental_uris":{"android":"levelo://app?vid=34851246-9c74-42e8-ae48-fbf7b7605730","ios":"levelo://app?vid=34851246-9c74-42e8-ae48-fbf7b7605730"},"vehicle_type_id":"4","last_reported":1732273672,"current_range_meters":33600,"station_id":"ce4bhmp2rcd13ifvqgog","pricing_plan_id":"cebpf4jnsgd1na2vs0mg"},{"bike_id":"6aee7632-8823-4ff3-9c06-0c993d0d0eeb","system_id":"levelo_inurba_marseille","lat":43.30692,"lon":5.37205,"is_reserved":false,"is_disabled":false,"rental_uris":{"android":"levelo://app?vid=6aee7632-8823-4ff3-9c06-0c993d0d0eeb","ios":"levelo://app?vid=6aee7632-8823-4ff3-9c06-0c993d0d0eeb"},"vehicle_type_id":"4","last_reported":1732273672,"current_range_meters":35200,"station_id":"","pricing_plan_id":"cebpf4jnsgd1na2vs0mg"},{"bike_id":"8eba556a-42bc-442f-9770-40b08bfa9ac9","system_id":"levelo_inurba_marseille","lat":43.28436,"lon":5.39189,"is_reserved":false,"is_disabled":true,"rental_uris":{"android":"levelo://app?vid=8eba556a-42bc-442f-9770-40b08bfa9ac9","ios":"levelo://app?vid=8eba556a-42bc-442f-9770-40b08bfa9ac9"},"vehicle_type_id":"4","last_reported":1732273672,"current_range_meters":0,"station_id":"ce4bhoh2rcd13ifvqh5g","pricing_plan_id":"cebpf4jnsgd1na2vs0mg"},{"bike_id":"684ddd3c-a195-4636-9ce4-922fef21749c","system_id":"levelo_inurba_marseille","lat":43.23151,"lon":5.43719,"is_reserved":false,"is_disabled":false,"rental_uris":{"android":"levelo://app?vid=684ddd3c-a195-4636-9ce4-922fef21749c","ios":"levelo://app?vid=684ddd3c-a195-4636-9ce4-922fef21749c"},"vehicle_type_id":"4","last_reported":1732273672,"current_range_meters":6800,"station_id":"ce4bhmp2rcd13ifvqgog","pricing_plan_id":"cebpf4jnsgd1na2vs0mg"},{"bike_id":"db1c9440-974b-47c6-ae15-7de65cbe3cc4","system_id":"levelo_inurba_marseille","lat":43.30437,"lon":5.38888,"is_reserved":false,"is_disabled":false,"rental_uris":{"android":"levelo://app?vid=db1c9440-974b-47c6-ae15-7de65cbe3cc4","ios":"levelo://app?vid=db1c9440-974b-47c6-ae15-7de65cbe3cc4"},"vehicle_type_id":"4","last_reported":1732273672,"current_range_meters":9200,"station_id":"ce4bgk12rcd13ifvqbi0","pricing_plan_id":"cebpf4jnsgd1na2vs0mg"},{"bike_id":"11c5ed7c-dad2-4605-8db8-4918d0818190","system_id":"levelo_inurba_marseille","lat":43.31726,"lon":5.42395,"is_reserved":false,"is_disabled":false,"rental_uris":{"android":"levelo://app?vid=11c5ed7c-dad2-4605-8db8-4918d0818190","ios":"levelo://app?vid=11c5ed7c-dad2-4605-8db8-4918d0818190"},"vehicle_type_id":"4","last_reported":1732273672,"current_range_meters":38800,"station_id":"ce4bhp92rcd13ifvqhbg","pricing_plan_id":"cebpf4jnsgd1na2vs0mg"},{"bike_id":"99aa5717-a61d-48ca-acf6-5d13d29e659c","system_id":"levelo_inurba_marseille","lat":43.28838,"lon":5.35858,"is_reserved":false,"is_disabled":false,"rental_uris":{"android":"levelo://app?vid=99aa5717-a61d-48ca-acf6-5d13d29e659c","ios":"levelo://app?vid=99aa5717-a61d-48ca-acf6-5d13d29e659c"},"vehicle_type_id":"4","last_reported":1732273672,"current_range_meters":13600,"station_id":"ce4bhb12rcd13ifvqem0","pricing_plan_id":"cebpf4jnsgd1na2vs0mg"},{"bike_id":"c0e6c8e7-e2a2-413e-9c93-100b61638e45","system_id":"levelo_inurba_marseille","lat":43.31752,"lon":5.39017,"is_reserved":false,"is_disabled":false,"rental_uris":{"android":"levelo://app?vid=c0e6c8e7-e2a2-413e-9c93-100b61638e45","ios":"levelo://app?vid=c0e6c8e7-e2a2-413e-9c93-100b61638e45"},"vehicle_type_id":"4","last_reported":1732273672,"current_range_meters":16400,"station_id":"ce4bhqp2rcd13ifvqhng","pricing_plan_id":"cebpf4jnsgd1na2vs0mg"},{"bike_id":"3193222d-584b-4642-a1d8-0c04b2309736","system_id":"levelo_inurba_marseille","lat":43.3372,"lon":5.39182,"is_reserved":false,"is_disabled":false,"rental_uris":{"android":"levelo://app?vid=3193222d-584b-4642-a1d8-0c04b2309736","ios":"levelo://app?vid=3193222d-584b-4642-a1d8-0c04b2309736"},"vehicle_type_id":"4","last_reported":1732273672,"current_range_meters":37600,"station_id":"ce4bhr92rcd13ifvqhsg","pricing_plan_id":"cebpf4jnsgd1na2vs0mg"},{"bike_id":"ff913505-ef09-401c-a3e2-72e72522bdc4","system_id":"levelo_inurba_marseille","lat":43.27564,"lon":5.38412,"is_reserved":false,"is_disabled":true,"rental_uris":{"android":"levelo://app?vid=ff913505-ef09-401c-a3e2-72e72522bdc4","ios":"levelo://app?vid=ff913505-ef09-401c-a3e2-72e72522bdc4"},"vehicle_type_id":"4","last_reported":1732273672,"current_range_meters":20000,"station_id":"ce4bhh92rcd13ifvqfi0","pricing_plan_id":"cebpf4jnsgd1na2vs0mg"},{"bike_id":"581d2ef0-341e-4d2e-aa56-04a8ac8af4f6","system_id":"levelo_inurba_marseille","lat":43.33022,"lon":5.39042,"is_reserved":false,"is_disabled":false,"rental_uris":{"android":"levelo://app?vid=581d2ef0-341e-4d2e-aa56-04a8ac8af4f6","ios":"levelo://app?vid=581d2ef0-341e-4d2e-aa56-04a8ac8af4f6"},"vehicle_type_id":"4","last_reported":1732273672,"current_range_meters":36800,"station_id":"ce4bhr92rcd13ifvqhrg","pricing_plan_id":"cebpf4jnsgd1na2vs0mg"},{"bike_id":"1fe36207-a189-42b7-a2ae-a1bed57e3dd0","system_id":"levelo_inurba_marseille","lat":43.2603,"lon":5.37543,"is_reserved":false,"is_disabled":false,"rental_uris":{"android":"levelo://app?vid=1fe36207-a189-42b7-a2ae-a1bed57e3dd0","ios":"levelo://app?vid=1fe36207-a189-42b7-a2ae-a1bed57e3dd0"},"vehicle_type_id":"4","last_reported":1732273672,"current_range_meters":19600,"station_id":"ce4bhgh2rcd13ifvqfa0","pricing_plan_id":"cebpf4jnsgd1na2vs0mg"},{"bike_id":"4ecdaf55-87e7-42ea-ac0e-a41de2a6b49d","system_id":"levelo_inurba_marseille","lat":43.31995,"lon":5.3815,"is_reserved":false,"is_disabled":false,"rental_uris":{"android":"levelo://app?vid=4ecdaf55-87e7-42ea-ac0e-a41de2a6b49d","ios":"levelo://app?vid=4ecdaf55-87e7-42ea-ac0e-a41de2a6b49d"},"vehicle_type_id":"4","last_reported":1732273672,"current_range_meters":28000,"station_id":"ce4bhr12rcd13ifvqhpg","pricing_plan_id":"cebpf4jnsgd1na2vs0mg"},{"bike_id":"4243a08a-eaf0-47cc-a5e2-eb9c2604eb6e","system_id":"levelo_inurba_marseille","lat":43.26569,"lon":5.39009,"is_reserved":false,"is_disabled":false,"rental_uris":{"android":"levelo://app?vid=4243a08a-eaf0-47cc-a5e2-eb9c2604eb6e","ios":"levelo://app?vid=4243a08a-eaf0-47cc-a5e2-eb9c2604eb6e"},"vehicle_type_id":"4","last_reported":1732273672,"current_range_meters":11200,"station_id":"ce4bhe12rcd13ifvqf30","pricing_plan_id":"cebpf4jnsgd1na2vs0mg"},{"bike_id":"badbff68-7d61-4ac7-b8c3-2221378d7c19","system_id":"levelo_inurba_marseille","lat":43.30317,"lon":5.40432,"is_reserved":false,"is_disabled":false,"rental_uris":{"android":"levelo://app?vid=badbff68-7d61-4ac7-b8c3-2221378d7c19","ios":"levelo://app?vid=badbff68-7d61-4ac7-b8c3-2221378d7c19"},"vehicle_type_id":"4","last_reported":1732273672,"current_range_meters":9600,"station_id":"ce4bh012rcd13ifvqd10","pricing_plan_id":"cebpf4jnsgd1na2vs0mg"},{"bike_id":"46382805-ba69-4acb-9a8a-2c06c4bbaa2e","system_id":"levelo_inurba_marseille","lat":43.2844,"lon":5.39205,"is_reserved":false,"is_disabled":false,"rental_uris":{"android":"levelo://app?vid=46382805-ba69-4acb-9a8a-2c06c4bbaa2e","ios":"levelo://app?vid=46382805-ba69-4acb-9a8a-2c06c4bbaa2e"},"vehicle_type_id":"4","last_reported":1732273672,"current_range_meters":28400,"station_id":"ce4bhoh2rcd13ifvqh5g","pricing_plan_id":"cebpf4jnsgd1na2vs0mg"},{"bike_id":"0765a73c-76c8-4a08-ad02-e7eb563e7c90","system_id":"levelo_inurba_marseille","lat":43.24074,"lon":5.37761,"is_reserved":false,"is_disabled":false,"rental_uris":{"android":"levelo://app?vid=0765a73c-76c8-4a08-ad02-e7eb563e7c90","ios":"levelo://app?vid=0765a73c-76c8-4a08-ad02-e7eb563e7c90"},"vehicle_type_id":"4","last_reported":1732273672,"current_range_meters":37600,"station_id":"ce4bhnp2rcd13ifvqgvg","pricing_plan_id":"cebpf4jnsgd1na2vs0mg"},{"bike_id":"17d12bd2-919d-4d09-8dbb-cf8bf186a5b1","system_id":"levelo_inurba_marseille","lat":43.24077,"lon":5.37743,"is_reserved":false,"is_disabled":false,"rental_uris":{"android":"levelo://app?vid=17d12bd2-919d-4d09-8dbb-cf8bf186a5b1","ios":"levelo://app?vid=17d12bd2-919d-4d09-8dbb-cf8bf186a5b1"},"vehicle_type_id":"4","last_reported":1732273672,"current_range_meters":23200,"station_id":"ce4bhnp2rcd13ifvqgvg","pricing_plan_id":"cebpf4jnsgd1na2vs0mg"},{"bike_id":"97c3ed94-a963-4085-980d-59f8f7086d8b","system_id":"levelo_inurba_marseille","lat":43.29306,"lon":5.37162,"is_reserved":false,"is_disabled":false,"rental_uris":{"android":"levelo://app?vid=97c3ed94-a963-4085-980d-59f8f7086d8b","ios":"levelo://app?vid=97c3ed94-a963-4085-980d-59f8f7086d8b"},"vehicle_type_id":"4","last_reported":1732273672,"current_range_meters":37600,"station_id":"ce4bgh92rcd13ifvqb40","pricing_plan_id":"cebpf4jnsgd1na2vs0mg"},{"bike_id":"d59ed790-ad26-46a6-90e4-2ceae616502f","system_id":"levelo_inurba_marseille","lat":43.29576,"lon":5.37498,"is_reserved":false,"is_disabled":false,"rental_uris":{"android":"levelo://app?vid=d59ed790-ad26-46a6-90e4-2ceae616502f","ios":"levelo://app?vid=d59ed790-ad26-46a6-90e4-2ceae616502f"},"vehicle_type_id":"4","last_reported":1732273672,"current_range_meters":32400,"station_id":"ce4bgh92rcd13ifvqb50","pricing_plan_id":"cebpf4jnsgd1na2vs0mg"},{"bike_id":"24618c6c-9f3e-4480-ac3f-3dfa9b93dc99","system_id":"levelo_inurba_marseille","lat":43.27953,"lon":5.4104,"is_reserved":false,"is_disabled":false,"rental_uris":{"android":"levelo://app?vid=24618c6c-9f3e-4480-ac3f-3dfa9b93dc99","ios":"levelo://app?vid=24618c6c-9f3e-4480-ac3f-3dfa9b93dc99"},"vehicle_type_id":"4","last_reported":1732273672,"current_range_meters":37600,"station_id":"ce4bhnp2rcd13ifvqh0g","pricing_plan_id":"cebpf4jnsgd1na2vs0mg"},{"bike_id":"35799ffd-e120-47ae-ba81-5038ad1d78ad","system_id":"levelo_inurba_marseille","lat":43.26686,"lon":5.38262,"is_reserved":false,"is_disabled":false,"rental_uris":{"android":"levelo://app?vid=35799ffd-e120-47ae-ba81-5038ad1d78ad","ios":"levelo://app?vid=35799ffd-e120-47ae-ba81-5038ad1d78ad"},"vehicle_type_id":"4","last_reported":1732273672,"current_range_meters":38800,"station_id":"ce4bhg92rcd13ifvqf90","pricing_plan_id":"cebpf4jnsgd1na2vs0mg"},{"bike_id":"a51e82b7-997c-467d-8058-02f504d77c87","system_id":"levelo_inurba_marseille","lat":43.25,"lon":5.38934,"is_reserved":false,"is_disabled":false,"rental_uris":{"android":"levelo://app?vid=a51e82b7-997c-467d-8058-02f504d77c87","ios":"levelo://app?vid=a51e82b7-997c-467d-8058-02f504d77c87"},"vehicle_type_id":"4","last_reported":1732273672,"current_range_meters":18800,"station_id":"ce4bhgp2rcd13ifvqfd0","pricing_plan_id":"cebpf4jnsgd1na2vs0mg"},{"bike_id":"7251622e-73a9-419f-947b-70fd7086d2b8","system_id":"levelo_inurba_marseille","lat":43.29843,"lon":5.36274,"is_reserved":false,"is_disabled":true,"rental_uris":{"android":"levelo://app?vid=7251622e-73a9-419f-947b-70fd7086d2b8","ios":"levelo://app?vid=7251622e-73a9-419f-947b-70fd7086d2b8"},"vehicle_type_id":"4","last_reported":1732273672,"current_range_meters":22400,"station_id":"ce4bgpp2rcd13ifvqc3g","pricing_plan_id":"cebpf4jnsgd1na2vs0mg"},{"bike_id":"9d76029c-8202-41ad-a5e8-699cb6009143","system_id":"levelo_inurba_marseille","lat":43.23144,"lon":5.43723,"is_reserved":false,"is_disabled":false,"rental_uris":{"android":"levelo://app?vid=9d76029c-8202-41ad-a5e8-699cb6009143","ios":"levelo://app?vid=9d76029c-8202-41ad-a5e8-699cb6009143"},"vehicle_type_id":"4","last_reported":1732273672,"current_range_meters":33200,"station_id":"ce4bhmp2rcd13ifvqgog","pricing_plan_id":"cebpf4jnsgd1na2vs0mg"},{"bike_id":"abbe4444-e220-4e1b-8bbf-00f3f3e0e374","system_id":"levelo_inurba_marseille","lat":43.24069,"lon":5.37763,"is_reserved":false,"is_disabled":false,"rental_uris":{"android":"levelo://app?vid=abbe4444-e220-4e1b-8bbf-00f3f3e0e374","ios":"levelo://app?vid=abbe4444-e220-4e1b-8bbf-00f3f3e0e374"},"vehicle_type_id":"4","last_reported":1732273672,"current_range_meters":36800,"station_id":"ce4bhnp2rcd13ifvqgvg","pricing_plan_id":"cebpf4jnsgd1na2vs0mg"},{"bike_id":"23934629-35ed-47e7-b32a-928e51b47c7b","system_id":"levelo_inurba_marseille","lat":43.29909,"lon":5.37477,"is_reserved":false,"is_disabled":false,"rental_uris":{"android":"levelo://app?vid=23934629-35ed-47e7-b32a-928e51b47c7b","ios":"levelo://app?vid=23934629-35ed-47e7-b32a-928e51b47c7b"},"vehicle_type_id":"4","last_reported":1732273672,"current_range_meters":30400,"station_id":"ce4bgjh2rcd13ifvqbg0","pricing_plan_id":"cebpf4jnsgd1na2vs0mg"},{"bike_id":"89fc3613-dcb3-4c03-9e33-c0901b8d1ed9","system_id":"levelo_inurba_marseille","lat":43.31358,"lon":5.36716,"is_reserved":false,"is_disabled":false,"rental_uris":{"android":"levelo://app?vid=89fc3613-dcb3-4c03-9e33-c0901b8d1ed9","ios":"levelo://app?vid=89fc3613-dcb3-4c03-9e33-c0901b8d1ed9"},"vehicle_type_id":"4","last_reported":1732273672,"current_range_meters":38800,"station_id":"ce4bgr92rcd13ifvqc6g","pricing_plan_id":"cebpf4jnsgd1na2vs0mg"},{"bike_id":"1fedbfc6-cbc1-4e68-9c8e-5e993709c0f3","system_id":"levelo_inurba_marseille","lat":43.29575,"lon":5.37521,"is_reserved":false,"is_disabled":false,"rental_uris":{"android":"levelo://app?vid=1fedbfc6-cbc1-4e68-9c8e-5e993709c0f3","ios":"levelo://app?vid=1fedbfc6-cbc1-4e68-9c8e-5e993709c0f3"},"vehicle_type_id":"4","last_reported":1732273672,"current_range_meters":29600,"station_id":"ce4bgh92rcd13ifvqb50","pricing_plan_id":"cebpf4jnsgd1na2vs0mg"},{"bike_id":"c0b31b04-1e8e-4f25-9a03-9ef0c3be9e96","system_id":"levelo_inurba_marseille","lat":43.26201,"lon":5.37925,"is_reserved":false,"is_disabled":false,"rental_uris":{"android":"levelo://app?vid=c0b31b04-1e8e-4f25-9a03-9ef0c3be9e96","ios":"levelo://app?vid=c0b31b04-1e8e-4f25-9a03-9ef0c3be9e96"},"vehicle_type_id":"4","last_reported":1732273672,"current_range_meters":39200,"station_id":"ce4bhjp2rcd13ifvqg90","pricing_plan_id":"cebpf4jnsgd1na2vs0mg"},{"bike_id":"596ac66f-0a5a-4a8a-a464-f602f8d9f366","system_id":"levelo_inurba_marseille","lat":43.32709,"lon":5.41007,"is_reserved":false,"is_disabled":true,"rental_uris":{"android":"levelo://app?vid=596ac66f-0a5a-4a8a-a464-f602f8d9f366","ios":"levelo://app?vid=596ac66f-0a5a-4a8a-a464-f602f8d9f366"},"vehicle_type_id":"4","last_reported":1732273672,"current_range_meters":4000,"station_id":"ce4bhpp2rcd13ifvqhgg","pricing_plan_id":"cebpf4jnsgd1na2vs0mg"},{"bike_id":"e0d40cf1-bbac-4b8d-8b86-58ebed534fc4","system_id":"levelo_inurba_marseille","lat":43.25932,"lon":5.40907,"is_reserved":false,"is_disabled":false,"rental_uris":{"android":"levelo://app?vid=e0d40cf1-bbac-4b8d-8b86-58ebed534fc4","ios":"levelo://app?vid=e0d40cf1-bbac-4b8d-8b86-58ebed534fc4"},"vehicle_type_id":"4","last_reported":1732273672,"current_range_meters":20400,"station_id":"ce4bhm92rcd13ifvqglg","pricing_plan_id":"cebpf4jnsgd1na2vs0mg"},{"bike_id":"1904e4d6-e1e0-456f-9800-8b0e0e7107b4","system_id":"levelo_inurba_marseille","lat":43.23152,"lon":5.43705,"is_reserved":false,"is_disabled":false,"rental_uris":{"android":"levelo://app?vid=1904e4d6-e1e0-456f-9800-8b0e0e7107b4","ios":"levelo://app?vid=1904e4d6-e1e0-456f-9800-8b0e0e7107b4"},"vehicle_type_id":"4","last_reported":1732273672,"current_range_meters":39200,"station_id":"ce4bhmp2rcd13ifvqgog","pricing_plan_id":"cebpf4jnsgd1na2vs0mg"},{"bike_id":"51654fed-9c06-4ccc-8baa-01fb71e67e1e","system_id":"levelo_inurba_marseille","lat":43.23184,"lon":5.39989,"is_reserved":false,"is_disabled":false,"rental_uris":{"android":"levelo://app?vid=51654fed-9c06-4ccc-8baa-01fb71e67e1e","ios":"levelo://app?vid=51654fed-9c06-4ccc-8baa-01fb71e67e1e"},"vehicle_type_id":"4","last_reported":1732273672,"current_range_meters":22800,"station_id":"ce4bhn12rcd13ifvqgqg","pricing_plan_id":"cebpf4jnsgd1na2vs0mg"},{"bike_id":"53541901-1b41-4836-bc26-ee7c144c55f6","system_id":"levelo_inurba_marseille","lat":43.30138,"lon":5.37418,"is_reserved":false,"is_disabled":false,"rental_uris":{"android":"levelo://app?vid=53541901-1b41-4836-bc26-ee7c144c55f6","ios":"levelo://app?vid=53541901-1b41-4836-bc26-ee7c144c55f6"},"vehicle_type_id":"4","last_reported":1732273672,"current_range_meters":32000,"station_id":"ce4bgs92rcd13ifvqcc0","pricing_plan_id":"cebpf4jnsgd1na2vs0mg"},{"bike_id":"309367b1-502d-4a72-a511-556aa80f8a91","system_id":"levelo_inurba_marseille","lat":43.30154,"lon":5.38084,"is_reserved":false,"is_disabled":false,"rental_uris":{"android":"levelo://app?vid=309367b1-502d-4a72-a511-556aa80f8a91","ios":"levelo://app?vid=309367b1-502d-4a72-a511-556aa80f8a91"},"vehicle_type_id":"4","last_reported":1732273672,"current_range_meters":28400,"station_id":"ce4bgjp2rcd13ifvqbh0","pricing_plan_id":"cebpf4jnsgd1na2vs0mg"},{"bike_id":"fb464efd-41d7-48bd-b462-3539b1011beb","system_id":"levelo_inurba_marseille","lat":43.3054,"lon":5.36531,"is_reserved":false,"is_disabled":false,"rental_uris":{"android":"levelo://app?vid=fb464efd-41d7-48bd-b462-3539b1011beb","ios":"levelo://app?vid=fb464efd-41d7-48bd-b462-3539b1011beb"},"vehicle_type_id":"4","last_reported":1732273672,"current_range_meters":30000,"station_id":"ce4bgs12rcd13ifvqcag","pricing_plan_id":"cebpf4jnsgd1na2vs0mg"},{"bike_id":"1eff5ce5-2d56-4465-a12c-60db9ec2175a","system_id":"levelo_inurba_marseille","lat":43.22926,"lon":5.35375,"is_reserved":false,"is_disabled":false,"rental_uris":{"android":"levelo://app?vid=1eff5ce5-2d56-4465-a12c-60db9ec2175a","ios":"levelo://app?vid=1eff5ce5-2d56-4465-a12c-60db9ec2175a"},"vehicle_type_id":"4","last_reported":1732273672,"current_range_meters":6000,"station_id":"cpo3532slgdg3j2ikp40","pricing_plan_id":"cebpf4jnsgd1na2vs0mg"},{"bike_id":"ce6d46e5-4223-4bce-a0db-85f63ca84039","system_id":"levelo_inurba_marseille","lat":43.30148,"lon":5.40053,"is_reserved":false,"is_disabled":true,"rental_uris":{"android":"levelo://app?vid=ce6d46e5-4223-4bce-a0db-85f63ca84039","ios":"levelo://app?vid=ce6d46e5-4223-4bce-a0db-85f63ca84039"},"vehicle_type_id":"4","last_reported":1732273672,"current_range_meters":0,"station_id":"","pricing_plan_id":"cebpf4jnsgd1na2vs0mg"},{"bike_id":"dc815649-e3e3-48aa-b0fd-022cdb8ac58a","system_id":"levelo_inurba_marseille","lat":43.32368,"lon":5.38882,"is_reserved":false,"is_disabled":false,"rental_uris":{"android":"levelo://app?vid=dc815649-e3e3-48aa-b0fd-022cdb8ac58a","ios":"levelo://app?vid=dc815649-e3e3-48aa-b0fd-022cdb8ac58a"},"vehicle_type_id":"4","last_reported":1732273672,"current_range_meters":36800,"station_id":"ce4bhqp2rcd13ifvqhog","pricing_plan_id":"cebpf4jnsgd1na2vs0mg"},{"bike_id":"22bf3d87-dbb2-41f0-ae52-3719720b6a9d","system_id":"levelo_inurba_marseille","lat":43.26954,"lon":5.38621,"is_reserved":false,"is_disabled":false,"rental_uris":{"android":"levelo://app?vid=22bf3d87-dbb2-41f0-ae52-3719720b6a9d","ios":"levelo://app?vid=22bf3d87-dbb2-41f0-ae52-3719720b6a9d"},"vehicle_type_id":"4","last_reported":1732273672,"current_range_meters":24400,"station_id":"ce4bhh92rcd13ifvqfh0","pricing_plan_id":"cebpf4jnsgd1na2vs0mg"},{"bike_id":"5df4d51c-d43c-4a27-8417-30ad806b0152","system_id":"levelo_inurba_marseille","lat":43.30526,"lon":5.36552,"is_reserved":false,"is_disabled":false,"rental_uris":{"android":"levelo://app?vid=5df4d51c-d43c-4a27-8417-30ad806b0152","ios":"levelo://app?vid=5df4d51c-d43c-4a27-8417-30ad806b0152"},"vehicle_type_id":"4","last_reported":1732273672,"current_range_meters":33200,"station_id":"ce4bgs12rcd13ifvqcag","pricing_plan_id":"cebpf4jnsgd1na2vs0mg"},{"bike_id":"7f7d84ed-23c2-4538-9329-9b81af03e81d","system_id":"levelo_inurba_marseille","lat":43.24184,"lon":5.39722,"is_reserved":false,"is_disabled":false,"rental_uris":{"android":"levelo://app?vid=7f7d84ed-23c2-4538-9329-9b81af03e81d","ios":"levelo://app?vid=7f7d84ed-23c2-4538-9329-9b81af03e81d"},"vehicle_type_id":"4","last_reported":1732273672,"current_range_meters":38800,"station_id":"ce4bhn12rcd13ifvqgpg","pricing_plan_id":"cebpf4jnsgd1na2vs0mg"},{"bike_id":"b3e923d4-c9a6-4255-87fe-e3535c814317","system_id":"levelo_inurba_marseille","lat":43.3014,"lon":5.37423,"is_reserved":false,"is_disabled":false,"rental_uris":{"android":"levelo://app?vid=b3e923d4-c9a6-4255-87fe-e3535c814317","ios":"levelo://app?vid=b3e923d4-c9a6-4255-87fe-e3535c814317"},"vehicle_type_id":"4","last_reported":1732273672,"current_range_meters":38800,"station_id":"ce4bgs92rcd13ifvqcc0","pricing_plan_id":"cebpf4jnsgd1na2vs0mg"},{"bike_id":"09ee12a7-2e68-4267-aa97-5877a160df71","system_id":"levelo_inurba_marseille","lat":43.2781,"lon":5.40706,"is_reserved":false,"is_disabled":false,"rental_uris":{"android":"levelo://app?vid=09ee12a7-2e68-4267-aa97-5877a160df71","ios":"levelo://app?vid=09ee12a7-2e68-4267-aa97-5877a160df71"},"vehicle_type_id":"4","last_reported":1732273672,"current_range_meters":39200,"station_id":"ce4bhnh2rcd13ifvqgtg","pricing_plan_id":"cebpf4jnsgd1na2vs0mg"},{"bike_id":"cead98ce-e9d9-44ca-8173-41234fc4c76c","system_id":"levelo_inurba_marseille","lat":43.29621,"lon":5.37162,"is_reserved":false,"is_disabled":false,"rental_uris":{"android":"levelo://app?vid=cead98ce-e9d9-44ca-8173-41234fc4c76c","ios":"levelo://app?vid=cead98ce-e9d9-44ca-8173-41234fc4c76c"},"vehicle_type_id":"4","last_reported":1732273672,"current_range_meters":28800,"station_id":"ce4bgnh2rcd13ifvqc0g","pricing_plan_id":"cebpf4jnsgd1na2vs0mg"},{"bike_id":"2a6dd5c3-8a4f-4a37-84b8-adc9c7ab26fc","system_id":"levelo_inurba_marseille","lat":43.27322,"lon":5.39079,"is_reserved":false,"is_disabled":false,"rental_uris":{"android":"levelo://app?vid=2a6dd5c3-8a4f-4a37-84b8-adc9c7ab26fc","ios":"levelo://app?vid=2a6dd5c3-8a4f-4a37-84b8-adc9c7ab26fc"},"vehicle_type_id":"4","last_reported":1732273672,"current_range_meters":38000,"station_id":"ce4bhgp2rcd13ifvqfe0","pricing_plan_id":"cebpf4jnsgd1na2vs0mg"},{"bike_id":"2c03cd08-7803-4f68-ac3f-dfe64d5849b5","system_id":"levelo_inurba_marseille","lat":43.31709,"lon":5.4371,"is_reserved":false,"is_disabled":false,"rental_uris":{"android":"levelo://app?vid=2c03cd08-7803-4f68-ac3f-dfe64d5849b5","ios":"levelo://app?vid=2c03cd08-7803-4f68-ac3f-dfe64d5849b5"},"vehicle_type_id":"4","last_reported":1732273672,"current_range_meters":36400,"station_id":"ce4bhp92rcd13ifvqhcg","pricing_plan_id":"cebpf4jnsgd1na2vs0mg"},{"bike_id":"b75cd2c3-c33b-422f-b953-522cda641dd1","system_id":"levelo_inurba_marseille","lat":43.25108,"lon":5.40319,"is_reserved":false,"is_disabled":false,"rental_uris":{"android":"levelo://app?vid=b75cd2c3-c33b-422f-b953-522cda641dd1","ios":"levelo://app?vid=b75cd2c3-c33b-422f-b953-522cda641dd1"},"vehicle_type_id":"4","last_reported":1732273672,"current_range_meters":38000,"station_id":"ce4bhlh2rcd13ifvqgig","pricing_plan_id":"cebpf4jnsgd1na2vs0mg"},{"bike_id":"8e5f7d32-6613-4d7e-b53d-b5ddff5cb6c6","system_id":"levelo_inurba_marseille","lat":43.23963,"lon":5.36631,"is_reserved":false,"is_disabled":false,"rental_uris":{"android":"levelo://app?vid=8e5f7d32-6613-4d7e-b53d-b5ddff5cb6c6","ios":"levelo://app?vid=8e5f7d32-6613-4d7e-b53d-b5ddff5cb6c6"},"vehicle_type_id":"4","last_reported":1732273672,"current_range_meters":38800,"station_id":"ce4bhi12rcd13ifvqfp0","pricing_plan_id":"cebpf4jnsgd1na2vs0mg"},{"bike_id":"65a5fa85-85a5-44e6-8448-114ebb2ddf67","system_id":"levelo_inurba_marseille","lat":43.29578,"lon":5.37519,"is_reserved":false,"is_disabled":false,"rental_uris":{"android":"levelo://app?vid=65a5fa85-85a5-44e6-8448-114ebb2ddf67","ios":"levelo://app?vid=65a5fa85-85a5-44e6-8448-114ebb2ddf67"},"vehicle_type_id":"4","last_reported":1732273672,"current_range_meters":27200,"station_id":"ce4bgh92rcd13ifvqb50","pricing_plan_id":"cebpf4jnsgd1na2vs0mg"},{"bike_id":"8bd7943a-d6e3-4b69-8209-bb9f99b76dde","system_id":"levelo_inurba_marseille","lat":43.28842,"lon":5.40009,"is_reserved":false,"is_disabled":true,"rental_uris":{"android":"levelo://app?vid=8bd7943a-d6e3-4b69-8209-bb9f99b76dde","ios":"levelo://app?vid=8bd7943a-d6e3-4b69-8209-bb9f99b76dde"},"vehicle_type_id":"4","last_reported":1732273672,"current_range_meters":14000,"station_id":"","pricing_plan_id":"cebpf4jnsgd1na2vs0mg"},{"bike_id":"2215a330-7574-41d3-ab87-46c653a89b74","system_id":"levelo_inurba_marseille","lat":43.30281,"lon":5.37703,"is_reserved":false,"is_disabled":false,"rental_uris":{"android":"levelo://app?vid=2215a330-7574-41d3-ab87-46c653a89b74","ios":"levelo://app?vid=2215a330-7574-41d3-ab87-46c653a89b74"},"vehicle_type_id":"4","last_reported":1732273672,"current_range_meters":27600,"station_id":"ce4bguh2rcd13ifvqcj0","pricing_plan_id":"cebpf4jnsgd1na2vs0mg"},{"bike_id":"0982a393-c593-4046-921b-b627d5494661","system_id":"levelo_inurba_marseille","lat":43.34138,"lon":5.40897,"is_reserved":false,"is_disabled":false,"rental_uris":{"android":"levelo://app?vid=0982a393-c593-4046-921b-b627d5494661","ios":"levelo://app?vid=0982a393-c593-4046-921b-b627d5494661"},"vehicle_type_id":"4","last_reported":1732273672,"current_range_meters":24000,"station_id":"ce4bhqh2rcd13ifvqhlg","pricing_plan_id":"cebpf4jnsgd1na2vs0mg"},{"bike_id":"277b71be-67e2-4918-b058-c20313be331a","system_id":"levelo_inurba_marseille","lat":43.29255,"lon":5.40907,"is_reserved":false,"is_disabled":true,"rental_uris":{"android":"levelo://app?vid=277b71be-67e2-4918-b058-c20313be331a","ios":"levelo://app?vid=277b71be-67e2-4918-b058-c20313be331a"},"vehicle_type_id":"4","last_reported":1732273672,"current_range_meters":38400,"station_id":"ce4bh192rcd13ifvqdc0","pricing_plan_id":"cebpf4jnsgd1na2vs0mg"},{"bike_id":"d50fae79-a23b-4b26-bc0c-86364a6bce7e","system_id":"levelo_inurba_marseille","lat":43.31992,"lon":5.38151,"is_reserved":false,"is_disabled":false,"rental_uris":{"android":"levelo://app?vid=d50fae79-a23b-4b26-bc0c-86364a6bce7e","ios":"levelo://app?vid=d50fae79-a23b-4b26-bc0c-86364a6bce7e"},"vehicle_type_id":"4","last_reported":1732273672,"current_range_meters":38800,"station_id":"ce4bhr12rcd13ifvqhpg","pricing_plan_id":"cebpf4jnsgd1na2vs0mg"},{"bike_id":"ca23a4d7-89b4-4fd8-ae96-8d96a63b192e","system_id":"levelo_inurba_marseille","lat":43.24648,"lon":5.38893,"is_reserved":false,"is_disabled":false,"rental_uris":{"android":"levelo://app?vid=ca23a4d7-89b4-4fd8-ae96-8d96a63b192e","ios":"levelo://app?vid=ca23a4d7-89b4-4fd8-ae96-8d96a63b192e"},"vehicle_type_id":"4","last_reported":1732273672,"current_range_meters":38800,"station_id":"ce4bhg12rcd13ifvqf60","pricing_plan_id":"cebpf4jnsgd1na2vs0mg"},{"bike_id":"a7be8842-6393-4007-847e-1c61aaf8d7a2","system_id":"levelo_inurba_marseille","lat":43.29842,"lon":5.36268,"is_reserved":false,"is_disabled":false,"rental_uris":{"android":"levelo://app?vid=a7be8842-6393-4007-847e-1c61aaf8d7a2","ios":"levelo://app?vid=a7be8842-6393-4007-847e-1c61aaf8d7a2"},"vehicle_type_id":"4","last_reported":1732273672,"current_range_meters":12000,"station_id":"ce4bgpp2rcd13ifvqc3g","pricing_plan_id":"cebpf4jnsgd1na2vs0mg"},{"bike_id":"d8e16b30-dd30-49c8-a94b-18968daacee5","system_id":"levelo_inurba_marseille","lat":43.25501,"lon":5.3765,"is_reserved":false,"is_disabled":true,"rental_uris":{"android":"levelo://app?vid=d8e16b30-dd30-49c8-a94b-18968daacee5","ios":"levelo://app?vid=d8e16b30-dd30-49c8-a94b-18968daacee5"},"vehicle_type_id":"4","last_reported":1732273672,"current_range_meters":800,"station_id":"ce4bhh12rcd13ifvqff0","pricing_plan_id":"cebpf4jnsgd1na2vs0mg"},{"bike_id":"b66962c2-9c30-4a63-8bb9-64fa09aabca2","system_id":"levelo_inurba_marseille","lat":43.24388,"lon":5.37051,"is_reserved":false,"is_disabled":false,"rental_uris":{"android":"levelo://app?vid=b66962c2-9c30-4a63-8bb9-64fa09aabca2","ios":"levelo://app?vid=b66962c2-9c30-4a63-8bb9-64fa09aabca2"},"vehicle_type_id":"4","last_reported":1732273672,"current_range_meters":27600,"station_id":"ce4bhhh2rcd13ifvqfk0","pricing_plan_id":"cebpf4jnsgd1na2vs0mg"},{"bike_id":"f48abc84-0093-48e7-894d-08a8884a90ac","system_id":"levelo_inurba_marseille","lat":43.26775,"lon":5.39415,"is_reserved":false,"is_disabled":true,"rental_uris":{"android":"levelo://app?vid=f48abc84-0093-48e7-894d-08a8884a90ac","ios":"levelo://app?vid=f48abc84-0093-48e7-894d-08a8884a90ac"},"vehicle_type_id":"4","last_reported":1732273672,"current_range_meters":1600,"station_id":"ce4bhh12rcd13ifvqfg0","pricing_plan_id":"cebpf4jnsgd1na2vs0mg"},{"bike_id":"ce9fb9d4-5647-49dc-ab9f-a1547699654d","system_id":"levelo_inurba_marseille","lat":43.30137,"lon":5.3741,"is_reserved":false,"is_disabled":false,"rental_uris":{"android":"levelo://app?vid=ce9fb9d4-5647-49dc-ab9f-a1547699654d","ios":"levelo://app?vid=ce9fb9d4-5647-49dc-ab9f-a1547699654d"},"vehicle_type_id":"4","last_reported":1732273672,"current_range_meters":12000,"station_id":"ce4bgs92rcd13ifvqcc0","pricing_plan_id":"cebpf4jnsgd1na2vs0mg"},{"bike_id":"552ae1f9-34eb-4d70-a19b-3616d3661778","system_id":"levelo_inurba_marseille","lat":43.33721,"lon":5.39181,"is_reserved":false,"is_disabled":false,"rental_uris":{"android":"levelo://app?vid=552ae1f9-34eb-4d70-a19b-3616d3661778","ios":"levelo://app?vid=552ae1f9-34eb-4d70-a19b-3616d3661778"},"vehicle_type_id":"4","last_reported":1732273672,"current_range_meters":25600,"station_id":"ce4bhr92rcd13ifvqhsg","pricing_plan_id":"cebpf4jnsgd1na2vs0mg"},{"bike_id":"56fadc6b-cef2-4864-9bbb-58d4e5f64326","system_id":"levelo_inurba_marseille","lat":43.29918,"lon":5.37468,"is_reserved":false,"is_disabled":false,"rental_uris":{"android":"levelo://app?vid=56fadc6b-cef2-4864-9bbb-58d4e5f64326","ios":"levelo://app?vid=56fadc6b-cef2-4864-9bbb-58d4e5f64326"},"vehicle_type_id":"4","last_reported":1732273672,"current_range_meters":38800,"station_id":"ce4bgjh2rcd13ifvqbg0","pricing_plan_id":"cebpf4jnsgd1na2vs0mg"},{"bike_id":"7511195d-8826-4960-a89f-c5ab13e35235","system_id":"levelo_inurba_marseille","lat":43.26942,"lon":5.38623,"is_reserved":false,"is_disabled":true,"rental_uris":{"android":"levelo://app?vid=7511195d-8826-4960-a89f-c5ab13e35235","ios":"levelo://app?vid=7511195d-8826-4960-a89f-c5ab13e35235"},"vehicle_type_id":"4","last_reported":1732273672,"current_range_meters":0,"station_id":"ce4bhh92rcd13ifvqfh0","pricing_plan_id":"cebpf4jnsgd1na2vs0mg"},{"bike_id":"028e5427-36e2-49e1-b3db-260058fffb58","system_id":"levelo_inurba_marseille","lat":43.25574,"lon":5.38228,"is_reserved":false,"is_disabled":false,"rental_uris":{"android":"levelo://app?vid=028e5427-36e2-49e1-b3db-260058fffb58","ios":"levelo://app?vid=028e5427-36e2-49e1-b3db-260058fffb58"},"vehicle_type_id":"4","last_reported":1732273672,"current_range_meters":17600,"station_id":"ce4bhih2rcd13ifvqfs0","pricing_plan_id":"cebpf4jnsgd1na2vs0mg"},{"bike_id":"0f34c480-84cb-4b12-9072-a6f844830c03","system_id":"levelo_inurba_marseille","lat":43.23195,"lon":5.35548,"is_reserved":false,"is_disabled":false,"rental_uris":{"android":"levelo://app?vid=0f34c480-84cb-4b12-9072-a6f844830c03","ios":"levelo://app?vid=0f34c480-84cb-4b12-9072-a6f844830c03"},"vehicle_type_id":"4","last_reported":1732273672,"current_range_meters":38000,"station_id":"ce4bhu92rcd13ifvqi70","pricing_plan_id":"cebpf4jnsgd1na2vs0mg"},{"bike_id":"1453fddf-c64f-4c02-ace1-55caffeaf55e","system_id":"levelo_inurba_marseille","lat":43.32285,"lon":5.38267,"is_reserved":false,"is_disabled":false,"rental_uris":{"android":"levelo://app?vid=1453fddf-c64f-4c02-ace1-55caffeaf55e","ios":"levelo://app?vid=1453fddf-c64f-4c02-ace1-55caffeaf55e"},"vehicle_type_id":"4","last_reported":1732273672,"current_range_meters":34000,"station_id":"ce4bhr12rcd13ifvqhqg","pricing_plan_id":"cebpf4jnsgd1na2vs0mg"},{"bike_id":"7e17a81f-3b24-49e1-a5fc-e88f9462d78d","system_id":"levelo_inurba_marseille","lat":43.28426,"lon":5.40936,"is_reserved":false,"is_disabled":false,"rental_uris":{"android":"levelo://app?vid=7e17a81f-3b24-49e1-a5fc-e88f9462d78d","ios":"levelo://app?vid=7e17a81f-3b24-49e1-a5fc-e88f9462d78d"},"vehicle_type_id":"4","last_reported":1732273672,"current_range_meters":5600,"station_id":"","pricing_plan_id":"cebpf4jnsgd1na2vs0mg"},{"bike_id":"0d5efe48-32bd-461f-be09-c1d5e2d6ef37","system_id":"levelo_inurba_marseille","lat":43.3237,"lon":5.38887,"is_reserved":false,"is_disabled":false,"rental_uris":{"android":"levelo://app?vid=0d5efe48-32bd-461f-be09-c1d5e2d6ef37","ios":"levelo://app?vid=0d5efe48-32bd-461f-be09-c1d5e2d6ef37"},"vehicle_type_id":"4","last_reported":1732273672,"current_range_meters":33600,"station_id":"ce4bhqp2rcd13ifvqhog","pricing_plan_id":"cebpf4jnsgd1na2vs0mg"},{"bike_id":"7cf0e7e4-2cb6-4123-b4f0-d8c0d6b6fc68","system_id":"levelo_inurba_marseille","lat":43.30197,"lon":5.39463,"is_reserved":false,"is_disabled":false,"rental_uris":{"android":"levelo://app?vid=7cf0e7e4-2cb6-4123-b4f0-d8c0d6b6fc68","ios":"levelo://app?vid=7cf0e7e4-2cb6-4123-b4f0-d8c0d6b6fc68"},"vehicle_type_id":"4","last_reported":1732273672,"current_range_meters":36000,"station_id":"ce4bh0p2rcd13ifvqd70","pricing_plan_id":"cebpf4jnsgd1na2vs0mg"},{"bike_id":"af1d391e-a6b0-4795-b6eb-ade8e77265c8","system_id":"levelo_inurba_marseille","lat":43.27428,"lon":5.394103,"is_reserved":false,"is_disabled":true,"rental_uris":{"android":"levelo://app?vid=af1d391e-a6b0-4795-b6eb-ade8e77265c8","ios":"levelo://app?vid=af1d391e-a6b0-4795-b6eb-ade8e77265c8"},"vehicle_type_id":"4","last_reported":1732273672,"current_range_meters":1600,"station_id":"ce4bhdp2rcd13ifvqf20","pricing_plan_id":"cebpf4jnsgd1na2vs0mg"},{"bike_id":"c2a59ab3-d6b8-4918-82c9-bfcce921601e","system_id":"levelo_inurba_marseille","lat":43.32483,"lon":5.36559,"is_reserved":false,"is_disabled":false,"rental_uris":{"android":"levelo://app?vid=c2a59ab3-d6b8-4918-82c9-bfcce921601e","ios":"levelo://app?vid=c2a59ab3-d6b8-4918-82c9-bfcce921601e"},"vehicle_type_id":"4","last_reported":1732273672,"current_range_meters":18800,"station_id":"ce4bhs12rcd13ifvqhvg","pricing_plan_id":"cebpf4jnsgd1na2vs0mg"},{"bike_id":"5657f533-79ae-408e-830e-682f6e5f129f","system_id":"levelo_inurba_marseille","lat":43.30144,"lon":5.37419,"is_reserved":false,"is_disabled":false,"rental_uris":{"android":"levelo://app?vid=5657f533-79ae-408e-830e-682f6e5f129f","ios":"levelo://app?vid=5657f533-79ae-408e-830e-682f6e5f129f"},"vehicle_type_id":"4","last_reported":1732273672,"current_range_meters":25200,"station_id":"ce4bgs92rcd13ifvqcc0","pricing_plan_id":"cebpf4jnsgd1na2vs0mg"},{"bike_id":"3814d5d3-9e1a-4999-b1c9-82bf61d0e64f","system_id":"levelo_inurba_marseille","lat":43.29552,"lon":5.42282,"is_reserved":false,"is_disabled":true,"rental_uris":{"android":"levelo://app?vid=3814d5d3-9e1a-4999-b1c9-82bf61d0e64f","ios":"levelo://app?vid=3814d5d3-9e1a-4999-b1c9-82bf61d0e64f"},"vehicle_type_id":"4","last_reported":1732273672,"current_range_meters":0,"station_id":"ce4bhph2rcd13ifvqhdg","pricing_plan_id":"cebpf4jnsgd1na2vs0mg"},{"bike_id":"2c2c1bea-7c7d-4429-a281-87a9537d6567","system_id":"levelo_inurba_marseille","lat":43.30887,"lon":5.39657,"is_reserved":false,"is_disabled":true,"rental_uris":{"android":"levelo://app?vid=2c2c1bea-7c7d-4429-a281-87a9537d6567","ios":"levelo://app?vid=2c2c1bea-7c7d-4429-a281-87a9537d6567"},"vehicle_type_id":"4","last_reported":1732273672,"current_range_meters":0,"station_id":"ce4bh012rcd13ifvqcv0","pricing_plan_id":"cebpf4jnsgd1na2vs0mg"},{"bike_id":"f52a9e43-ad0b-4e53-b4cb-851d5976dfbb","system_id":"levelo_inurba_marseille","lat":43.29625,"lon":5.37721,"is_reserved":false,"is_disabled":false,"rental_uris":{"android":"levelo://app?vid=f52a9e43-ad0b-4e53-b4cb-851d5976dfbb","ios":"levelo://app?vid=f52a9e43-ad0b-4e53-b4cb-851d5976dfbb"},"vehicle_type_id":"4","last_reported":1732273672,"current_range_meters":18000,"station_id":"ce4bgi92rcd13ifvqb90","pricing_plan_id":"cebpf4jnsgd1na2vs0mg"},{"bike_id":"5240181a-9be5-4e5b-a6f1-00d4d469d483","system_id":"levelo_inurba_marseille","lat":43.31233,"lon":5.3685,"is_reserved":false,"is_disabled":false,"rental_uris":{"android":"levelo://app?vid=5240181a-9be5-4e5b-a6f1-00d4d469d483","ios":"levelo://app?vid=5240181a-9be5-4e5b-a6f1-00d4d469d483"},"vehicle_type_id":"4","last_reported":1732273672,"current_range_meters":25600,"station_id":"ce4bgl92rcd13ifvqbq0","pricing_plan_id":"cebpf4jnsgd1na2vs0mg"},{"bike_id":"6ea16184-c107-43e7-b54a-560211479305","system_id":"levelo_inurba_marseille","lat":43.31352,"lon":5.36723,"is_reserved":false,"is_disabled":false,"rental_uris":{"android":"levelo://app?vid=6ea16184-c107-43e7-b54a-560211479305","ios":"levelo://app?vid=6ea16184-c107-43e7-b54a-560211479305"},"vehicle_type_id":"4","last_reported":1732273672,"current_range_meters":29600,"station_id":"ce4bgr92rcd13ifvqc6g","pricing_plan_id":"cebpf4jnsgd1na2vs0mg"},{"bike_id":"93632465-b062-40a8-b2b9-0dad6e04db5e","system_id":"levelo_inurba_marseille","lat":43.32542,"lon":5.41438,"is_reserved":false,"is_disabled":false,"rental_uris":{"android":"levelo://app?vid=93632465-b062-40a8-b2b9-0dad6e04db5e","ios":"levelo://app?vid=93632465-b062-40a8-b2b9-0dad6e04db5e"},"vehicle_type_id":"4","last_reported":1732273672,"current_range_meters":15200,"station_id":"ce4bhq12rcd13ifvqhhg","pricing_plan_id":"cebpf4jnsgd1na2vs0mg"},{"bike_id":"76be792c-2bf7-4884-a9d1-f8a6720ed4ab","system_id":"levelo_inurba_marseille","lat":43.29797,"lon":5.38097,"is_reserved":false,"is_disabled":false,"rental_uris":{"android":"levelo://app?vid=76be792c-2bf7-4884-a9d1-f8a6720ed4ab","ios":"levelo://app?vid=76be792c-2bf7-4884-a9d1-f8a6720ed4ab"},"vehicle_type_id":"4","last_reported":1732273672,"current_range_meters":24800,"station_id":"ce4bgip2rcd13ifvqbb0","pricing_plan_id":"cebpf4jnsgd1na2vs0mg"},{"bike_id":"fd447cfc-d8cb-4bb5-a987-666257a3522e","system_id":"levelo_inurba_marseille","lat":43.26953,"lon":5.38632,"is_reserved":false,"is_disabled":false,"rental_uris":{"android":"levelo://app?vid=fd447cfc-d8cb-4bb5-a987-666257a3522e","ios":"levelo://app?vid=fd447cfc-d8cb-4bb5-a987-666257a3522e"},"vehicle_type_id":"4","last_reported":1732273672,"current_range_meters":38800,"station_id":"ce4bhh92rcd13ifvqfh0","pricing_plan_id":"cebpf4jnsgd1na2vs0mg"},{"bike_id":"e5951ee3-4a5a-4ebb-b469-096c5188dfa3","system_id":"levelo_inurba_marseille","lat":43.23187,"lon":5.35555,"is_reserved":false,"is_disabled":false,"rental_uris":{"android":"levelo://app?vid=e5951ee3-4a5a-4ebb-b469-096c5188dfa3","ios":"levelo://app?vid=e5951ee3-4a5a-4ebb-b469-096c5188dfa3"},"vehicle_type_id":"4","last_reported":1732273672,"current_range_meters":28800,"station_id":"ce4bhu92rcd13ifvqi70","pricing_plan_id":"cebpf4jnsgd1na2vs0mg"},{"bike_id":"aa504069-81dd-4b94-821f-6e11da8cbfe0","system_id":"levelo_inurba_marseille","lat":43.265772,"lon":5.372924,"is_reserved":false,"is_disabled":false,"rental_uris":{"android":"levelo://app?vid=aa504069-81dd-4b94-821f-6e11da8cbfe0","ios":"levelo://app?vid=aa504069-81dd-4b94-821f-6e11da8cbfe0"},"vehicle_type_id":"4","last_reported":1732273672,"current_range_meters":28400,"station_id":"ce4bhg12rcd13ifvqf70","pricing_plan_id":"cebpf4jnsgd1na2vs0mg"},{"bike_id":"8d13985d-3bdf-49ab-9373-fe6216716dff","system_id":"levelo_inurba_marseille","lat":43.27455,"lon":5.39026,"is_reserved":false,"is_disabled":false,"rental_uris":{"android":"levelo://app?vid=8d13985d-3bdf-49ab-9373-fe6216716dff","ios":"levelo://app?vid=8d13985d-3bdf-49ab-9373-fe6216716dff"},"vehicle_type_id":"4","last_reported":1732273672,"current_range_meters":30800,"station_id":"","pricing_plan_id":"cebpf4jnsgd1na2vs0mg"},{"bike_id":"8d00283a-31eb-4269-bbeb-d86ae4d6148a","system_id":"levelo_inurba_marseille","lat":43.29375,"lon":5.37834,"is_reserved":false,"is_disabled":false,"rental_uris":{"android":"levelo://app?vid=8d00283a-31eb-4269-bbeb-d86ae4d6148a","ios":"levelo://app?vid=8d00283a-31eb-4269-bbeb-d86ae4d6148a"},"vehicle_type_id":"4","last_reported":1732273672,"current_range_meters":36400,"station_id":"ce4bgjh2rcd13ifvqbf0","pricing_plan_id":"cebpf4jnsgd1na2vs0mg"},{"bike_id":"598543c3-4504-4ea3-976e-b45e767de5ed","system_id":"levelo_inurba_marseille","lat":43.32364,"lon":5.38877,"is_reserved":false,"is_disabled":false,"rental_uris":{"android":"levelo://app?vid=598543c3-4504-4ea3-976e-b45e767de5ed","ios":"levelo://app?vid=598543c3-4504-4ea3-976e-b45e767de5ed"},"vehicle_type_id":"4","last_reported":1732273672,"current_range_meters":36400,"station_id":"ce4bhqp2rcd13ifvqhog","pricing_plan_id":"cebpf4jnsgd1na2vs0mg"},{"bike_id":"c2c6c44c-0f9d-4f2b-8377-054d29571be0","system_id":"levelo_inurba_marseille","lat":43.32658,"lon":5.40988,"is_reserved":false,"is_disabled":false,"rental_uris":{"android":"levelo://app?vid=c2c6c44c-0f9d-4f2b-8377-054d29571be0","ios":"levelo://app?vid=c2c6c44c-0f9d-4f2b-8377-054d29571be0"},"vehicle_type_id":"4","last_reported":1732273672,"current_range_meters":38400,"station_id":"ce4bhpp2rcd13ifvqhgg","pricing_plan_id":"cebpf4jnsgd1na2vs0mg"},{"bike_id":"44abef4f-7bb3-417f-9f17-632a234b6e5d","system_id":"levelo_inurba_marseille","lat":43.32102,"lon":5.36772,"is_reserved":false,"is_disabled":false,"rental_uris":{"android":"levelo://app?vid=44abef4f-7bb3-417f-9f17-632a234b6e5d","ios":"levelo://app?vid=44abef4f-7bb3-417f-9f17-632a234b6e5d"},"vehicle_type_id":"4","last_reported":1732273672,"current_range_meters":24000,"station_id":"ce4bhrh2rcd13ifvqhug","pricing_plan_id":"cebpf4jnsgd1na2vs0mg"},{"bike_id":"6c948e9c-d5b3-4fe5-a918-1bd2f7c83b02","system_id":"levelo_inurba_marseille","lat":43.3211,"lon":5.36773,"is_reserved":false,"is_disabled":false,"rental_uris":{"android":"levelo://app?vid=6c948e9c-d5b3-4fe5-a918-1bd2f7c83b02","ios":"levelo://app?vid=6c948e9c-d5b3-4fe5-a918-1bd2f7c83b02"},"vehicle_type_id":"4","last_reported":1732273672,"current_range_meters":38000,"station_id":"ce4bhrh2rcd13ifvqhug","pricing_plan_id":"cebpf4jnsgd1na2vs0mg"},{"bike_id":"9e620abf-d324-4f99-84fc-d67e71109f2a","system_id":"levelo_inurba_marseille","lat":43.31078,"lon":5.42428,"is_reserved":false,"is_disabled":true,"rental_uris":{"android":"levelo://app?vid=9e620abf-d324-4f99-84fc-d67e71109f2a","ios":"levelo://app?vid=9e620abf-d324-4f99-84fc-d67e71109f2a"},"vehicle_type_id":"4","last_reported":1732273672,"current_range_meters":5600,"station_id":"ce4bhp92rcd13ifvqhag","pricing_plan_id":"cebpf4jnsgd1na2vs0mg"},{"bike_id":"b124de30-6cb7-410a-835e-9476621c94dc","system_id":"levelo_inurba_marseille","lat":43.32066,"lon":5.41527,"is_reserved":false,"is_disabled":false,"rental_uris":{"android":"levelo://app?vid=b124de30-6cb7-410a-835e-9476621c94dc","ios":"levelo://app?vid=b124de30-6cb7-410a-835e-9476621c94dc"},"vehicle_type_id":"4","last_reported":1732273672,"current_range_meters":25200,"station_id":"ce4bhq92rcd13ifvqhkg","pricing_plan_id":"cebpf4jnsgd1na2vs0mg"},{"bike_id":"9f1a6fc0-500d-4d6c-8b23-95f788123526","system_id":"levelo_inurba_marseille","lat":43.29574,"lon":5.37503,"is_reserved":false,"is_disabled":false,"rental_uris":{"android":"levelo://app?vid=9f1a6fc0-500d-4d6c-8b23-95f788123526","ios":"levelo://app?vid=9f1a6fc0-500d-4d6c-8b23-95f788123526"},"vehicle_type_id":"4","last_reported":1732273672,"current_range_meters":38800,"station_id":"ce4bgh92rcd13ifvqb50","pricing_plan_id":"cebpf4jnsgd1na2vs0mg"},{"bike_id":"601b0dc6-014c-4a2e-80d5-10f0a5109697","system_id":"levelo_inurba_marseille","lat":43.30276,"lon":5.37694,"is_reserved":false,"is_disabled":false,"rental_uris":{"android":"levelo://app?vid=601b0dc6-014c-4a2e-80d5-10f0a5109697","ios":"levelo://app?vid=601b0dc6-014c-4a2e-80d5-10f0a5109697"},"vehicle_type_id":"4","last_reported":1732273672,"current_range_meters":22800,"station_id":"ce4bguh2rcd13ifvqcj0","pricing_plan_id":"cebpf4jnsgd1na2vs0mg"},{"bike_id":"37b6d4f4-662d-4bc2-957b-f7d669af0480","system_id":"levelo_inurba_marseille","lat":43.29579,"lon":5.36732,"is_reserved":false,"is_disabled":false,"rental_uris":{"android":"levelo://app?vid=37b6d4f4-662d-4bc2-957b-f7d669af0480","ios":"levelo://app?vid=37b6d4f4-662d-4bc2-957b-f7d669af0480"},"vehicle_type_id":"4","last_reported":1732273672,"current_range_meters":29600,"station_id":"ce4bgph2rcd13ifvqc2g","pricing_plan_id":"cebpf4jnsgd1na2vs0mg"},{"bike_id":"20c24c61-9b61-4b9c-8c9d-5c15867a6e04","system_id":"levelo_inurba_marseille","lat":43.29629,"lon":5.37717,"is_reserved":false,"is_disabled":false,"rental_uris":{"android":"levelo://app?vid=20c24c61-9b61-4b9c-8c9d-5c15867a6e04","ios":"levelo://app?vid=20c24c61-9b61-4b9c-8c9d-5c15867a6e04"},"vehicle_type_id":"4","last_reported":1732273672,"current_range_meters":19200,"station_id":"ce4bgi92rcd13ifvqb90","pricing_plan_id":"cebpf4jnsgd1na2vs0mg"},{"bike_id":"6be20763-220d-4b35-9eaf-289bd3229941","system_id":"levelo_inurba_marseille","lat":43.30318,"lon":5.36899,"is_reserved":false,"is_disabled":true,"rental_uris":{"android":"levelo://app?vid=6be20763-220d-4b35-9eaf-289bd3229941","ios":"levelo://app?vid=6be20763-220d-4b35-9eaf-289bd3229941"},"vehicle_type_id":"4","last_reported":1732273672,"current_range_meters":800,"station_id":"ce4bgqh2rcd13ifvqc5g","pricing_plan_id":"cebpf4jnsgd1na2vs0mg"},{"bike_id":"5c53cfbd-2547-413a-b79a-f8cc3b1ca992","system_id":"levelo_inurba_marseille","lat":43.3211,"lon":5.36781,"is_reserved":false,"is_disabled":false,"rental_uris":{"android":"levelo://app?vid=5c53cfbd-2547-413a-b79a-f8cc3b1ca992","ios":"levelo://app?vid=5c53cfbd-2547-413a-b79a-f8cc3b1ca992"},"vehicle_type_id":"4","last_reported":1732273672,"current_range_meters":16800,"station_id":"ce4bhrh2rcd13ifvqhug","pricing_plan_id":"cebpf4jnsgd1na2vs0mg"},{"bike_id":"b5db3694-78cb-43d7-88d8-c6d9e5b1eca1","system_id":"levelo_inurba_marseille","lat":43.27815,"lon":5.40709,"is_reserved":false,"is_disabled":false,"rental_uris":{"android":"levelo://app?vid=b5db3694-78cb-43d7-88d8-c6d9e5b1eca1","ios":"levelo://app?vid=b5db3694-78cb-43d7-88d8-c6d9e5b1eca1"},"vehicle_type_id":"4","last_reported":1732273672,"current_range_meters":20000,"station_id":"ce4bhnh2rcd13ifvqgtg","pricing_plan_id":"cebpf4jnsgd1na2vs0mg"},{"bike_id":"0baad55f-f38a-457c-925a-cb6a0fd4e3f9","system_id":"levelo_inurba_marseille","lat":43.29967,"lon":5.38489,"is_reserved":false,"is_disabled":false,"rental_uris":{"android":"levelo://app?vid=0baad55f-f38a-457c-925a-cb6a0fd4e3f9","ios":"levelo://app?vid=0baad55f-f38a-457c-925a-cb6a0fd4e3f9"},"vehicle_type_id":"4","last_reported":1732273672,"current_range_meters":20000,"station_id":"ce4bgj92rcd13ifvqbd0","pricing_plan_id":"cebpf4jnsgd1na2vs0mg"},{"bike_id":"ced939b2-a2ab-40e5-b140-575509bab6d1","system_id":"levelo_inurba_marseille","lat":43.33019,"lon":5.39039,"is_reserved":false,"is_disabled":false,"rental_uris":{"android":"levelo://app?vid=ced939b2-a2ab-40e5-b140-575509bab6d1","ios":"levelo://app?vid=ced939b2-a2ab-40e5-b140-575509bab6d1"},"vehicle_type_id":"4","last_reported":1732273672,"current_range_meters":16400,"station_id":"ce4bhr92rcd13ifvqhrg","pricing_plan_id":"cebpf4jnsgd1na2vs0mg"},{"bike_id":"ed9bee18-907e-440d-be24-781b656ad721","system_id":"levelo_inurba_marseille","lat":43.28698,"lon":5.39982,"is_reserved":false,"is_disabled":true,"rental_uris":{"android":"levelo://app?vid=ed9bee18-907e-440d-be24-781b656ad721","ios":"levelo://app?vid=ed9bee18-907e-440d-be24-781b656ad721"},"vehicle_type_id":"4","last_reported":1732273672,"current_range_meters":0,"station_id":"ce4bho92rcd13ifvqh3g","pricing_plan_id":"cebpf4jnsgd1na2vs0mg"},{"bike_id":"c39d2a6b-971a-4102-af38-404b98ad453d","system_id":"levelo_inurba_marseille","lat":43.29302,"lon":5.37178,"is_reserved":false,"is_disabled":false,"rental_uris":{"android":"levelo://app?vid=c39d2a6b-971a-4102-af38-404b98ad453d","ios":"levelo://app?vid=c39d2a6b-971a-4102-af38-404b98ad453d"},"vehicle_type_id":"4","last_reported":1732273672,"current_range_meters":24000,"station_id":"ce4bgh92rcd13ifvqb40","pricing_plan_id":"cebpf4jnsgd1na2vs0mg"},{"bike_id":"4024c177-e689-450a-884b-5392fcf58a24","system_id":"levelo_inurba_marseille","lat":43.32283,"lon":5.3826,"is_reserved":false,"is_disabled":false,"rental_uris":{"android":"levelo://app?vid=4024c177-e689-450a-884b-5392fcf58a24","ios":"levelo://app?vid=4024c177-e689-450a-884b-5392fcf58a24"},"vehicle_type_id":"4","last_reported":1732273672,"current_range_meters":38800,"station_id":"ce4bhr12rcd13ifvqhqg","pricing_plan_id":"cebpf4jnsgd1na2vs0mg"},{"bike_id":"354ee28b-5189-42e2-94b7-00243aee7573","system_id":"levelo_inurba_marseille","lat":43.30144,"lon":5.37423,"is_reserved":false,"is_disabled":false,"rental_uris":{"android":"levelo://app?vid=354ee28b-5189-42e2-94b7-00243aee7573","ios":"levelo://app?vid=354ee28b-5189-42e2-94b7-00243aee7573"},"vehicle_type_id":"4","last_reported":1732273672,"current_range_meters":38800,"station_id":"ce4bgs92rcd13ifvqcc0","pricing_plan_id":"cebpf4jnsgd1na2vs0mg"},{"bike_id":"5a47a1f0-8e68-42d5-826c-8622b7bbc8c0","system_id":"levelo_inurba_marseille","lat":43.27808,"lon":5.40712,"is_reserved":false,"is_disabled":true,"rental_uris":{"android":"levelo://app?vid=5a47a1f0-8e68-42d5-826c-8622b7bbc8c0","ios":"levelo://app?vid=5a47a1f0-8e68-42d5-826c-8622b7bbc8c0"},"vehicle_type_id":"4","last_reported":1732273672,"current_range_meters":18800,"station_id":"ce4bhnh2rcd13ifvqgtg","pricing_plan_id":"cebpf4jnsgd1na2vs0mg"},{"bike_id":"913ff155-5578-4467-a50e-27c7aec2d9a8","system_id":"levelo_inurba_marseille","lat":43.24061,"lon":5.37815,"is_reserved":false,"is_disabled":false,"rental_uris":{"android":"levelo://app?vid=913ff155-5578-4467-a50e-27c7aec2d9a8","ios":"levelo://app?vid=913ff155-5578-4467-a50e-27c7aec2d9a8"},"vehicle_type_id":"4","last_reported":1732273672,"current_range_meters":38400,"station_id":"ce4bhnp2rcd13ifvqgvg","pricing_plan_id":"cebpf4jnsgd1na2vs0mg"},{"bike_id":"06408773-61bf-4b33-8419-b52dabe6d281","system_id":"levelo_inurba_marseille","lat":43.29597,"lon":5.38096,"is_reserved":false,"is_disabled":false,"rental_uris":{"android":"levelo://app?vid=06408773-61bf-4b33-8419-b52dabe6d281","ios":"levelo://app?vid=06408773-61bf-4b33-8419-b52dabe6d281"},"vehicle_type_id":"4","last_reported":1732273672,"current_range_meters":14000,"station_id":"ce4bgl12rcd13ifvqbo0","pricing_plan_id":"cebpf4jnsgd1na2vs0mg"},{"bike_id":"f34189d4-9d98-4cf4-8eeb-b364f97c4b69","system_id":"levelo_inurba_marseille","lat":43.30209,"lon":5.39466,"is_reserved":false,"is_disabled":false,"rental_uris":{"android":"levelo://app?vid=f34189d4-9d98-4cf4-8eeb-b364f97c4b69","ios":"levelo://app?vid=f34189d4-9d98-4cf4-8eeb-b364f97c4b69"},"vehicle_type_id":"4","last_reported":1732273672,"current_range_meters":6400,"station_id":"ce4bh0p2rcd13ifvqd70","pricing_plan_id":"cebpf4jnsgd1na2vs0mg"},{"bike_id":"89429ed2-f839-4749-bcb9-3e5230fe3bfb","system_id":"levelo_inurba_marseille","lat":43.33732,"lon":5.3918,"is_reserved":false,"is_disabled":false,"rental_uris":{"android":"levelo://app?vid=89429ed2-f839-4749-bcb9-3e5230fe3bfb","ios":"levelo://app?vid=89429ed2-f839-4749-bcb9-3e5230fe3bfb"},"vehicle_type_id":"4","last_reported":1732273672,"current_range_meters":38000,"station_id":"ce4bhr92rcd13ifvqhsg","pricing_plan_id":"cebpf4jnsgd1na2vs0mg"},{"bike_id":"c8db655f-b3df-4bb3-b835-fb06b95a1b22","system_id":"levelo_inurba_marseille","lat":43.29623,"lon":5.40127,"is_reserved":false,"is_disabled":false,"rental_uris":{"android":"levelo://app?vid=c8db655f-b3df-4bb3-b835-fb06b95a1b22","ios":"levelo://app?vid=c8db655f-b3df-4bb3-b835-fb06b95a1b22"},"vehicle_type_id":"4","last_reported":1732273672,"current_range_meters":10000,"station_id":"","pricing_plan_id":"cebpf4jnsgd1na2vs0mg"},{"bike_id":"92e9748a-4d6f-4241-b269-d78003e4f14f","system_id":"levelo_inurba_marseille","lat":43.3055,"lon":5.36552,"is_reserved":false,"is_disabled":false,"rental_uris":{"android":"levelo://app?vid=92e9748a-4d6f-4241-b269-d78003e4f14f","ios":"levelo://app?vid=92e9748a-4d6f-4241-b269-d78003e4f14f"},"vehicle_type_id":"4","last_reported":1732273672,"current_range_meters":27600,"station_id":"ce4bgs12rcd13ifvqcag","pricing_plan_id":"cebpf4jnsgd1na2vs0mg"},{"bike_id":"6965c515-9b58-41fc-be4e-6e6a11fe13d3","system_id":"levelo_inurba_marseille","lat":43.30894,"lon":5.36846,"is_reserved":false,"is_disabled":false,"rental_uris":{"android":"levelo://app?vid=6965c515-9b58-41fc-be4e-6e6a11fe13d3","ios":"levelo://app?vid=6965c515-9b58-41fc-be4e-6e6a11fe13d3"},"vehicle_type_id":"4","last_reported":1732273672,"current_range_meters":24800,"station_id":"ce4bgn92rcd13ifvqbvg","pricing_plan_id":"cebpf4jnsgd1na2vs0mg"},{"bike_id":"304ef428-9450-440f-a8db-1138e82ecbd5","system_id":"levelo_inurba_marseille","lat":43.25939,"lon":5.40906,"is_reserved":false,"is_disabled":false,"rental_uris":{"android":"levelo://app?vid=304ef428-9450-440f-a8db-1138e82ecbd5","ios":"levelo://app?vid=304ef428-9450-440f-a8db-1138e82ecbd5"},"vehicle_type_id":"4","last_reported":1732273672,"current_range_meters":36000,"station_id":"ce4bhm92rcd13ifvqglg","pricing_plan_id":"cebpf4jnsgd1na2vs0mg"},{"bike_id":"5b34071c-b313-4425-be54-c64a58b1280d","system_id":"levelo_inurba_marseille","lat":43.26949,"lon":5.38639,"is_reserved":false,"is_disabled":false,"rental_uris":{"android":"levelo://app?vid=5b34071c-b313-4425-be54-c64a58b1280d","ios":"levelo://app?vid=5b34071c-b313-4425-be54-c64a58b1280d"},"vehicle_type_id":"4","last_reported":1732273672,"current_range_meters":7200,"station_id":"ce4bhh92rcd13ifvqfh0","pricing_plan_id":"cebpf4jnsgd1na2vs0mg"},{"bike_id":"552cb5da-ef70-4b28-b6ea-98400527c222","system_id":"levelo_inurba_marseille","lat":43.26057,"lon":5.394,"is_reserved":false,"is_disabled":false,"rental_uris":{"android":"levelo://app?vid=552cb5da-ef70-4b28-b6ea-98400527c222","ios":"levelo://app?vid=552cb5da-ef70-4b28-b6ea-98400527c222"},"vehicle_type_id":"4","last_reported":1732273672,"current_range_meters":38800,"station_id":"ce4bhh92rcd13ifvqfj0","pricing_plan_id":"cebpf4jnsgd1na2vs0mg"},{"bike_id":"2aae44db-3739-4b6b-bf4c-a956733e3a88","system_id":"levelo_inurba_marseille","lat":43.28617,"lon":5.35099,"is_reserved":false,"is_disabled":false,"rental_uris":{"android":"levelo://app?vid=2aae44db-3739-4b6b-bf4c-a956733e3a88","ios":"levelo://app?vid=2aae44db-3739-4b6b-bf4c-a956733e3a88"},"vehicle_type_id":"4","last_reported":1732273672,"current_range_meters":36400,"station_id":"ce4bhch2rcd13ifvqeug","pricing_plan_id":"cebpf4jnsgd1na2vs0mg"},{"bike_id":"55591ab3-1ca4-4172-9acd-f32f39bf6fe6","system_id":"levelo_inurba_marseille","lat":43.28463,"lon":5.35886,"is_reserved":false,"is_disabled":false,"rental_uris":{"android":"levelo://app?vid=55591ab3-1ca4-4172-9acd-f32f39bf6fe6","ios":"levelo://app?vid=55591ab3-1ca4-4172-9acd-f32f39bf6fe6"},"vehicle_type_id":"4","last_reported":1732273672,"current_range_meters":27200,"station_id":"ce4bhah2rcd13ifvqei0","pricing_plan_id":"cebpf4jnsgd1na2vs0mg"},{"bike_id":"40191457-cce3-490d-a141-5a0449d2f1c2","system_id":"levelo_inurba_marseille","lat":43.30051,"lon":5.37439,"is_reserved":false,"is_disabled":false,"rental_uris":{"android":"levelo://app?vid=40191457-cce3-490d-a141-5a0449d2f1c2","ios":"levelo://app?vid=40191457-cce3-490d-a141-5a0449d2f1c2"},"vehicle_type_id":"4","last_reported":1732273672,"current_range_meters":23200,"station_id":"","pricing_plan_id":"cebpf4jnsgd1na2vs0mg"},{"bike_id":"7770b1cc-2a54-4d08-8255-6bed2fc397aa","system_id":"levelo_inurba_marseille","lat":43.231949,"lon":5.35547,"is_reserved":false,"is_disabled":false,"rental_uris":{"android":"levelo://app?vid=7770b1cc-2a54-4d08-8255-6bed2fc397aa","ios":"levelo://app?vid=7770b1cc-2a54-4d08-8255-6bed2fc397aa"},"vehicle_type_id":"4","last_reported":1732273672,"current_range_meters":10800,"station_id":"ce4bhu92rcd13ifvqi70","pricing_plan_id":"cebpf4jnsgd1na2vs0mg"},{"bike_id":"e397b035-09df-4dd9-869c-705b86271e7b","system_id":"levelo_inurba_marseille","lat":43.30545,"lon":5.36517,"is_reserved":false,"is_disabled":false,"rental_uris":{"android":"levelo://app?vid=e397b035-09df-4dd9-869c-705b86271e7b","ios":"levelo://app?vid=e397b035-09df-4dd9-869c-705b86271e7b"},"vehicle_type_id":"4","last_reported":1732273672,"current_range_meters":25600,"station_id":"ce4bgs12rcd13ifvqcag","pricing_plan_id":"cebpf4jnsgd1na2vs0mg"},{"bike_id":"dfe6afac-4129-4c38-b69b-4512c82b49d6","system_id":"levelo_inurba_marseille","lat":43.27211,"lon":5.39185,"is_reserved":false,"is_disabled":false,"rental_uris":{"android":"levelo://app?vid=dfe6afac-4129-4c38-b69b-4512c82b49d6","ios":"levelo://app?vid=dfe6afac-4129-4c38-b69b-4512c82b49d6"},"vehicle_type_id":"4","last_reported":1732273672,"current_range_meters":2800,"station_id":"ce4bhhp2rcd13ifvqfm0","pricing_plan_id":"cebpf4jnsgd1na2vs0mg"},{"bike_id":"9a9b9eab-7d7e-4682-9cb9-19f134269f92","system_id":"levelo_inurba_marseille","lat":43.29786,"lon":5.38114,"is_reserved":false,"is_disabled":true,"rental_uris":{"android":"levelo://app?vid=9a9b9eab-7d7e-4682-9cb9-19f134269f92","ios":"levelo://app?vid=9a9b9eab-7d7e-4682-9cb9-19f134269f92"},"vehicle_type_id":"4","last_reported":1732273672,"current_range_meters":3600,"station_id":"ce4bgip2rcd13ifvqbb0","pricing_plan_id":"cebpf4jnsgd1na2vs0mg"},{"bike_id":"fdaf890b-328d-4c6c-b370-bc14721c2873","system_id":"levelo_inurba_marseille","lat":43.25818,"lon":5.39435,"is_reserved":false,"is_disabled":true,"rental_uris":{"android":"levelo://app?vid=fdaf890b-328d-4c6c-b370-bc14721c2873","ios":"levelo://app?vid=fdaf890b-328d-4c6c-b370-bc14721c2873"},"vehicle_type_id":"4","last_reported":1732273672,"current_range_meters":0,"station_id":"ce4bhip2rcd13ifvqft0","pricing_plan_id":"cebpf4jnsgd1na2vs0mg"},{"bike_id":"4c63049a-3544-4c1c-b1a4-2cab585825a7","system_id":"levelo_inurba_marseille","lat":43.29617,"lon":5.37718,"is_reserved":false,"is_disabled":false,"rental_uris":{"android":"levelo://app?vid=4c63049a-3544-4c1c-b1a4-2cab585825a7","ios":"levelo://app?vid=4c63049a-3544-4c1c-b1a4-2cab585825a7"},"vehicle_type_id":"4","last_reported":1732273672,"current_range_meters":28000,"station_id":"ce4bgi92rcd13ifvqb90","pricing_plan_id":"cebpf4jnsgd1na2vs0mg"},{"bike_id":"6c224183-e622-461d-8216-58bdc68bb4b1","system_id":"levelo_inurba_marseille","lat":43.32483,"lon":5.36564,"is_reserved":false,"is_disabled":false,"rental_uris":{"android":"levelo://app?vid=6c224183-e622-461d-8216-58bdc68bb4b1","ios":"levelo://app?vid=6c224183-e622-461d-8216-58bdc68bb4b1"},"vehicle_type_id":"4","last_reported":1732273672,"current_range_meters":30400,"station_id":"ce4bhs12rcd13ifvqhvg","pricing_plan_id":"cebpf4jnsgd1na2vs0mg"},{"bike_id":"874e434e-6350-4e8b-8d5f-795b84c90268","system_id":"levelo_inurba_marseille","lat":43.30155,"lon":5.38077,"is_reserved":false,"is_disabled":true,"rental_uris":{"android":"levelo://app?vid=874e434e-6350-4e8b-8d5f-795b84c90268","ios":"levelo://app?vid=874e434e-6350-4e8b-8d5f-795b84c90268"},"vehicle_type_id":"4","last_reported":1732273672,"current_range_meters":24800,"station_id":"ce4bgjp2rcd13ifvqbh0","pricing_plan_id":"cebpf4jnsgd1na2vs0mg"},{"bike_id":"55d0ed9b-7406-4773-b707-05a34dedf0e1","system_id":"levelo_inurba_marseille","lat":43.28113,"lon":5.37831,"is_reserved":false,"is_disabled":false,"rental_uris":{"android":"levelo://app?vid=55d0ed9b-7406-4773-b707-05a34dedf0e1","ios":"levelo://app?vid=55d0ed9b-7406-4773-b707-05a34dedf0e1"},"vehicle_type_id":"4","last_reported":1732273672,"current_range_meters":38400,"station_id":"ce4bha12rcd13ifvqee0","pricing_plan_id":"cebpf4jnsgd1na2vs0mg"},{"bike_id":"86bdc0c9-9673-4554-88de-43b69d866cb7","system_id":"levelo_inurba_marseille","lat":43.3172,"lon":5.42393,"is_reserved":false,"is_disabled":false,"rental_uris":{"android":"levelo://app?vid=86bdc0c9-9673-4554-88de-43b69d866cb7","ios":"levelo://app?vid=86bdc0c9-9673-4554-88de-43b69d866cb7"},"vehicle_type_id":"4","last_reported":1732273672,"current_range_meters":37600,"station_id":"ce4bhp92rcd13ifvqhbg","pricing_plan_id":"cebpf4jnsgd1na2vs0mg"},{"bike_id":"bf8f782e-9147-43b2-9f53-2121e9ad0f95","system_id":"levelo_inurba_marseille","lat":43.30476,"lon":5.37912,"is_reserved":false,"is_disabled":true,"rental_uris":{"android":"levelo://app?vid=bf8f782e-9147-43b2-9f53-2121e9ad0f95","ios":"levelo://app?vid=bf8f782e-9147-43b2-9f53-2121e9ad0f95"},"vehicle_type_id":"4","last_reported":1732273672,"current_range_meters":38800,"station_id":"ce4bgup2rcd13ifvqcn0","pricing_plan_id":"cebpf4jnsgd1na2vs0mg"},{"bike_id":"4c831173-3e15-483c-a78d-af9ee7ae0830","system_id":"levelo_inurba_marseille","lat":43.29558,"lon":5.42285,"is_reserved":false,"is_disabled":false,"rental_uris":{"android":"levelo://app?vid=4c831173-3e15-483c-a78d-af9ee7ae0830","ios":"levelo://app?vid=4c831173-3e15-483c-a78d-af9ee7ae0830"},"vehicle_type_id":"4","last_reported":1732273672,"current_range_meters":11600,"station_id":"ce4bhph2rcd13ifvqhdg","pricing_plan_id":"cebpf4jnsgd1na2vs0mg"},