{"last_updated":1760699285,"ttl":60,"version":"2.2","data":{"bikes":[{"bike_id":"add38705-7ba0-4309-b101-d5e03ac1a3cf","system_id":"levelo_inurba_marseille","lat":43.32141,"lon":5.37473,"is_reserved":false,"is_disabled":false,"rental_uris":{"android":"levelo://app?vid=add38705-7ba0-4309-b101-d5e03ac1a3cf","ios":"levelo://app?vid=add38705-7ba0-4309-b101-d5e03ac1a3cf"},"vehicle_type_id":"4","last_reported":1760699286,"current_range_meters":2800,"station_id":"","pricing_plan_id":"cebpf4jnsgd1na2vs0mg"},{"bike_id":"d1535785-517b-41ee-8ee0-1e9b8477afef","system_id":"levelo_inurba_marseille","lat":43.337444,"lon":5.374475,"is_reserved":false,"is_disabled":false,"rental_uris":{"android":"levelo://app?vid=d1535785-517b-41ee-8ee0-1e9b8477afef","ios":"levelo://app?vid=d1535785-517b-41ee-8ee0-1e9b8477afef"},"vehicle_type_id":"4","last_reported":1760699286,"current_range_meters":2800,"station_id":"","pricing_plan_id":"cebpf4jnsgd1na2vs0mg"},{"bike_id":"b4052f7a-27b6-479b-bdb3-900e233c35a7","system_id":"levelo_inurba_marseille","lat":43.295733,"lon":5.364075,"is_reserved":false,"is_disabled":false,"rental_uris":{"android":"levelo://app?vid=b4052f7a-27b6-479b-bdb3-900e233c35a7","ios":"levelo://app?vid=b4052f7a-27b6-479b-bdb3-900e233c35a7"},"vehicle_type_id":"4","last_reported":1760699286,"current_range_meters":2800,"station_id":"","pricing_plan_id":"cebpf4jnsgd1na2vs0mg"},{"bike_id":"3cb5b848-2b77-445f-9436-55a5a252e776","system_id":"levelo_inurba_marseille","lat":43.30037,"lon":5.37716,"is_reserved":false,"is_disabled":false,"rental_uris":{"android":"levelo://app?vid=3cb5b848-2b77-445f-9436-55a5a252e776","ios":"levelo://app?vid=3cb5b848-2b77-445f-9436-55a5a252e776"},"vehicle_type_id":"4","last_reported":1760699286,"current_range_meters":2800,"station_id":"","pricing_plan_id":"cebpf4jnsgd1na2vs0mg"},{"bike_id":"2f9ba64e-b15e-4886-a123-56176086dd29","system_id":"levelo_inurba_marseille","lat":43.24951,"lon":5.40497,"is_reserved":false,"is_disabled":true,"rental_uris":{"android":"levelo://app?vid=2f9ba64e-b15e-4886-a123-56176086dd29","ios":"levelo://app?vid=2f9ba64e-b15e-4886-a123-56176086dd29"},"vehicle_type_id":"4","last_reported":1760699286,"current_range_meters":3200,"station_id":"st_d2ngiaodas8pm72gd1h0","pricing_plan_id":"cebpf4jnsgd1na2vs0mg"},{"bike_id":"11a52186-e794-4c42-a858-a78c641cc716","system_id":"levelo_inurba_marseille","lat":43.33601,"lon":5.41029,"is_reserved":false,"is_disabled":false,"rental_uris":{"android":"levelo://app?vid=11a52186-e794-4c42-a858-a78c641cc716","ios":"levelo://app?vid=11a52186-e794-4c42-a858-a78c641cc716"},"vehicle_type_id":"4","last_reported":1760699286,"current_range_meters":3200,"station_id":"ce4bhqh2rcd13ifvqhmg","pricing_plan_id":"cebpf4jnsgd1na2vs0mg"},{"bike_id":"edf1826d-4c94-41f7-b41b-9e4934e632f6","system_id":"levelo_inurba_marseille","lat":43.252107,"lon":5.379145,"is_reserved":false,"is_disabled":false,"rental_uris":{"android":"levelo://app?vid=edf1826d-4c94-41f7-b41b-9e4934e632f6","ios":"levelo://app?vid=edf1826d-4c94-41f7-b41b-9e4934e632f6"},"vehicle_type_id":"4","last_reported":1760699286,"current_range_meters":3200,"station_id":"","pricing_plan_id":"cebpf4jnsgd1na2vs0mg"},{"bike_id":"9e500b29-b07c-40ce-adad-a4e152c34be6","system_id":"levelo_inurba_marseille","lat":43.28976,"lon":5.3783,"is_reserved":false,"is_disabled":false,"rental_uris":{"android":"levelo://app?vid=9e500b29-b07c-40ce-adad-a4e152c34be6","ios":"levelo://app?vid=9e500b29-b07c-40ce-adad-a4e152c34be6"},"vehicle_type_id":"4","last_reported":1760699286,"current_range_meters":3200,"station_id":"ce4bh9p2rcd13ifvqed0","pricing_plan_id":"cebpf4jnsgd1na2vs0mg"},{"bike_id":"7a5bbee7-e809-4aa3-93fe-82ceb0fe0ae2","system_id":"levelo_inurba_marseille","lat":43.29586,"lon":5.37522,"is_reserved":false,"is_disabled":false,"rental_uris":{"android":"levelo://app?vid=7a5bbee7-e809-4aa3-93fe-82ceb0fe0ae2","ios":"levelo://app?vid=7a5bbee7-e809-4aa3-93fe-82ceb0fe0ae2"},"vehicle_type_id":"4","last_reported":1760699286,"current_range_meters":3200,"station_id":"ce4bgh92rcd13ifvqb50","pricing_plan_id":"cebpf4jnsgd1na2vs0mg"},{"bike_id":"3acd303d-eec2-4296-ac7a-97cf35a15eca","system_id":"levelo_inurba_marseille","lat":43.24175,"lon":5.39736,"is_reserved":false,"is_disabled":false,"rental_uris":{"android":"levelo://app?vid=3acd303d-eec2-4296-ac7a-97cf35a15eca","ios":"levelo://app?vid=3acd303d-eec2-4296-ac7a-97cf35a15eca"},"vehicle_type_id":"4","last_reported":1760699286,"current_range_meters":3200,"station_id":"ce4bhn12rcd13ifvqgpg","pricing_plan_id":"cebpf4jnsgd1na2vs0mg"},{"bike_id":"56e8f168-0239-4dab-a231-9caf80fb776c","system_id":"levelo_inurba_marseille","lat":43.292676,"lon":5.376168,"is_reserved":false,"is_disabled":false,"rental_uris":{"android":"levelo://app?vid=56e8f168-0239-4dab-a231-9caf80fb776c","ios":"levelo://app?vid=56e8f168-0239-4dab-a231-9caf80fb776c"},"vehicle_type_id":"4","last_reported":1760699286,"current_range_meters":3600,"station_id":"","pricing_plan_id":"cebpf4jnsgd1na2vs0mg"},{"bike_id":"e0863f88-6065-41da-9ecd-468f1156f9d8","system_id":"levelo_inurba_marseille","lat":43.273432,"lon":5.414223,"is_reserved":false,"is_disabled":false,"rental_uris":{"android":"levelo://app?vid=e0863f88-6065-41da-9ecd-468f1156f9d8","ios":"levelo://app?vid=e0863f88-6065-41da-9ecd-468f1156f9d8"},"vehicle_type_id":"4","last_reported":1760699286,"current_range_meters":3600,"station_id":"","pricing_plan_id":"cebpf4jnsgd1na2vs0mg"},{"bike_id":"d34eb2cd-6847-413a-b99a-72de9f1f417f","system_id":"levelo_inurba_marseille","lat":43.2679,"lon":5.39415,"is_reserved":false,"is_disabled":false,"rental_uris":{"android":"levelo://app?vid=d34eb2cd-6847-413a-b99a-72de9f1f417f","ios":"levelo://app?vid=d34eb2cd-6847-413a-b99a-72de9f1f417f"},"vehicle_type_id":"4","last_reported":1760699286,"current_range_meters":3600,"station_id":"ce4bhh12rcd13ifvqfg0","pricing_plan_id":"cebpf4jnsgd1na2vs0mg"},{"bike_id":"e37a9c6c-6bd1-4b0e-b0ba-a1ae6665cd62","system_id":"levelo_inurba_marseille","lat":43.271973,"lon":5.391412,"is_reserved":false,"is_disabled":false,"rental_uris":{"android":"levelo://app?vid=e37a9c6c-6bd1-4b0e-b0ba-a1ae6665cd62","ios":"levelo://app?vid=e37a9c6c-6bd1-4b0e-b0ba-a1ae6665cd62"},"vehicle_type_id":"4","last_reported":1760699286,"current_range_meters":3600,"station_id":"ce4bhhp2rcd13ifvqfm0","pricing_plan_id":"cebpf4jnsgd1na2vs0mg"},{"bike_id":"d6c61d17-13b9-4b3b-ba30-03ea50dd6b82","system_id":"levelo_inurba_marseille","lat":43.29004,"lon":5.35611,"is_reserved":false,"is_disabled":false,"rental_uris":{"android":"levelo://app?vid=d6c61d17-13b9-4b3b-ba30-03ea50dd6b82","ios":"levelo://app?vid=d6c61d17-13b9-4b3b-ba30-03ea50dd6b82"},"vehicle_type_id":"4","last_reported":1760699286,"current_range_meters":3600,"station_id":"ce4bhb92rcd13ifvqen0","pricing_plan_id":"cebpf4jnsgd1na2vs0mg"},{"bike_id":"262c4a35-793a-4a20-8626-54bbfd93115f","system_id":"levelo_inurba_marseille","lat":43.26225,"lon":5.40454,"is_reserved":false,"is_disabled":false,"rental_uris":{"android":"levelo://app?vid=262c4a35-793a-4a20-8626-54bbfd93115f","ios":"levelo://app?vid=262c4a35-793a-4a20-8626-54bbfd93115f"},"vehicle_type_id":"4","last_reported":1760699286,"current_range_meters":3600,"station_id":"ce4bhmh2rcd13ifvqgmg","pricing_plan_id":"cebpf4jnsgd1na2vs0mg"},{"bike_id":"04285962-cb70-43b6-bf7d-05cd8adf2317","system_id":"levelo_inurba_marseille","lat":43.26211,"lon":5.37443,"is_reserved":false,"is_disabled":false,"rental_uris":{"android":"levelo://app?vid=04285962-cb70-43b6-bf7d-05cd8adf2317","ios":"levelo://app?vid=04285962-cb70-43b6-bf7d-05cd8adf2317"},"vehicle_type_id":"4","last_reported":1760699286,"current_range_meters":3600,"station_id":"ce4bhgp2rcd13ifvqfc0","pricing_plan_id":"cebpf4jnsgd1na2vs0mg"},{"bike_id":"13b47737-b20a-4c7b-a6e3-8864d2b32e09","system_id":"levelo_inurba_marseille","lat":43.29566,"lon":5.39986,"is_reserved":false,"is_disabled":false,"rental_uris":{"android":"levelo://app?vid=13b47737-b20a-4c7b-a6e3-8864d2b32e09","ios":"levelo://app?vid=13b47737-b20a-4c7b-a6e3-8864d2b32e09"},"vehicle_type_id":"4","last_reported":1760699286,"current_range_meters":4000,"station_id":"ce4bh312rcd13ifvqdj0","pricing_plan_id":"cebpf4jnsgd1na2vs0mg"},{"bike_id":"66cff7ac-7cbd-4e0a-9bcc-f3e132e5b155","system_id":"levelo_inurba_marseille","lat":43.29692,"lon":5.38548,"is_reserved":false,"is_disabled":false,"rental_uris":{"android":"levelo://app?vid=66cff7ac-7cbd-4e0a-9bcc-f3e132e5b155","ios":"levelo://app?vid=66cff7ac-7cbd-4e0a-9bcc-f3e132e5b155"},"vehicle_type_id":"4","last_reported":1760699286,"current_range_meters":4000,"station_id":"","pricing_plan_id":"cebpf4jnsgd1na2vs0mg"},{"bike_id":"b0e3fac0-2cba-43db-8a27-05393f9977ec","system_id":"levelo_inurba_marseille","lat":43.297242,"lon":5.373265,"is_reserved":false,"is_disabled":false,"rental_uris":{"android":"levelo://app?vid=b0e3fac0-2cba-43db-8a27-05393f9977ec","ios":"levelo://app?vid=b0e3fac0-2cba-43db-8a27-05393f9977ec"},"vehicle_type_id":"4","last_reported":1760699286,"current_range_meters":4000,"station_id":"","pricing_plan_id":"cebpf4jnsgd1na2vs0mg"},{"bike_id":"0b625deb-c5a2-4646-b60e-b04b9aa4bef6","system_id":"levelo_inurba_marseille","lat":43.29715,"lon":5.36596,"is_reserved":false,"is_disabled":true,"rental_uris":{"android":"levelo://app?vid=0b625deb-c5a2-4646-b60e-b04b9aa4bef6","ios":"levelo://app?vid=0b625deb-c5a2-4646-b60e-b04b9aa4bef6"},"vehicle_type_id":"4","last_reported":1760699286,"current_range_meters":4000,"station_id":"ce4bgn12rcd13ifvqbt0","pricing_plan_id":"cebpf4jnsgd1na2vs0mg"},{"bike_id":"91ea948f-0f24-426d-8708-c512ba73f0d1","system_id":"levelo_inurba_marseille","lat":43.284597,"lon":5.358712,"is_reserved":false,"is_disabled":false,"rental_uris":{"android":"levelo://app?vid=91ea948f-0f24-426d-8708-c512ba73f0d1","ios":"levelo://app?vid=91ea948f-0f24-426d-8708-c512ba73f0d1"},"vehicle_type_id":"4","last_reported":1760699286,"current_range_meters":4000,"station_id":"ce4bhah2rcd13ifvqei0","pricing_plan_id":"cebpf4jnsgd1na2vs0mg"},{"bike_id":"f0622547-115c-4aab-a330-c8c9f80dea9e","system_id":"levelo_inurba_marseille","lat":43.28094,"lon":5.35227,"is_reserved":false,"is_disabled":false,"rental_uris":{"android":"levelo://app?vid=f0622547-115c-4aab-a330-c8c9f80dea9e","ios":"levelo://app?vid=f0622547-115c-4aab-a330-c8c9f80dea9e"},"vehicle_type_id":"4","last_reported":1760699286,"current_range_meters":4000,"station_id":"","pricing_plan_id":"cebpf4jnsgd1na2vs0mg"},{"bike_id":"65582e07-118c-4d2c-8c85-2b6ac05c08ac","system_id":"levelo_inurba_marseille","lat":43.29337,"lon":5.38667,"is_reserved":false,"is_disabled":false,"rental_uris":{"android":"levelo://app?vid=65582e07-118c-4d2c-8c85-2b6ac05c08ac","ios":"levelo://app?vid=65582e07-118c-4d2c-8c85-2b6ac05c08ac"},"vehicle_type_id":"4","last_reported":1760699286,"current_range_meters":4400,"station_id":"","pricing_plan_id":"cebpf4jnsgd1na2vs0mg"},{"bike_id":"afd3a141-6f64-4928-ba91-fca21b7af038","system_id":"levelo_inurba_marseille","lat":43.29582,"lon":5.36422,"is_reserved":false,"is_disabled":false,"rental_uris":{"android":"levelo://app?vid=afd3a141-6f64-4928-ba91-fca21b7af038","ios":"levelo://app?vid=afd3a141-6f64-4928-ba91-fca21b7af038"},"vehicle_type_id":"4","last_reported":1760699286,"current_range_meters":4400,"station_id":"","pricing_plan_id":"cebpf4jnsgd1na2vs0mg"},{"bike_id":"d92ccac3-9488-410c-9ab0-bd0aafb7d6e8","system_id":"levelo_inurba_marseille","lat":43.318832,"lon":5.407418,"is_reserved":false,"is_disabled":false,"rental_uris":{"android":"levelo://app?vid=d92ccac3-9488-410c-9ab0-bd0aafb7d6e8","ios":"levelo://app?vid=d92ccac3-9488-410c-9ab0-bd0aafb7d6e8"},"vehicle_type_id":"4","last_reported":1760699286,"current_range_meters":4400,"station_id":"ce4bhq12rcd13ifvqhig","pricing_plan_id":"cebpf4jnsgd1na2vs0mg"},{"bike_id":"c10806ec-6d45-481a-ae58-b2aac1e05e16","system_id":"levelo_inurba_marseille","lat":43.23371,"lon":5.40493,"is_reserved":false,"is_disabled":false,"rental_uris":{"android":"levelo://app?vid=c10806ec-6d45-481a-ae58-b2aac1e05e16","ios":"levelo://app?vid=c10806ec-6d45-481a-ae58-b2aac1e05e16"},"vehicle_type_id":"4","last_reported":1760699286,"current_range_meters":4400,"station_id":"","pricing_plan_id":"cebpf4jnsgd1na2vs0mg"},{"bike_id":"4f3624e3-a890-4b2a-bcda-b5a6cc1274e2","system_id":"levelo_inurba_marseille","lat":43.31166,"lon":5.3872,"is_reserved":false,"is_disabled":false,"rental_uris":{"android":"levelo://app?vid=4f3624e3-a890-4b2a-bcda-b5a6cc1274e2","ios":"levelo://app?vid=4f3624e3-a890-4b2a-bcda-b5a6cc1274e2"},"vehicle_type_id":"4","last_reported":1760699286,"current_range_meters":4800,"station_id":"ce4bgv12rcd13ifvqcp0","pricing_plan_id":"cebpf4jnsgd1na2vs0mg"},{"bike_id":"75e671d2-4d08-44c0-80b4-b9a63d2638d8","system_id":"levelo_inurba_marseille","lat":43.21742,"lon":5.34581,"is_reserved":false,"is_disabled":false,"rental_uris":{"android":"levelo://app?vid=75e671d2-4d08-44c0-80b4-b9a63d2638d8","ios":"levelo://app?vid=75e671d2-4d08-44c0-80b4-b9a63d2638d8"},"vehicle_type_id":"4","last_reported":1760699286,"current_range_meters":4800,"station_id":"st_cvj6r9ubvosntc0bgbag","pricing_plan_id":"cebpf4jnsgd1na2vs0mg"},{"bike_id":"ecd9150a-82d1-439a-8ac1-0ab83b979277","system_id":"levelo_inurba_marseille","lat":43.30819,"lon":5.43515,"is_reserved":false,"is_disabled":true,"rental_uris":{"android":"levelo://app?vid=ecd9150a-82d1-439a-8ac1-0ab83b979277","ios":"levelo://app?vid=ecd9150a-82d1-439a-8ac1-0ab83b979277"},"vehicle_type_id":"4","last_reported":1760699286,"current_range_meters":4800,"station_id":"ce4bhph2rcd13ifvqheg","pricing_plan_id":"cebpf4jnsgd1na2vs0mg"},{"bike_id":"6d02532e-4cb4-4048-bfac-6338972aaf99","system_id":"levelo_inurba_marseille","lat":43.34336,"lon":5.34988,"is_reserved":false,"is_disabled":false,"rental_uris":{"android":"levelo://app?vid=6d02532e-4cb4-4048-bfac-6338972aaf99","ios":"levelo://app?vid=6d02532e-4cb4-4048-bfac-6338972aaf99"},"vehicle_type_id":"4","last_reported":1760699286,"current_range_meters":5600,"station_id":"","pricing_plan_id":"cebpf4jnsgd1na2vs0mg"},{"bike_id":"38f46298-816a-4519-ad40-c21896400bc9","system_id":"levelo_inurba_marseille","lat":43.29571,"lon":5.37488,"is_reserved":false,"is_disabled":false,"rental_uris":{"android":"levelo://app?vid=38f46298-816a-4519-ad40-c21896400bc9","ios":"levelo://app?vid=38f46298-816a-4519-ad40-c21896400bc9"},"vehicle_type_id":"4","last_reported":1760699286,"current_range_meters":5600,"station_id":"","pricing_plan_id":"cebpf4jnsgd1na2vs0mg"},{"bike_id":"80dd6157-526b-45b4-8273-0c8179d56e0a","system_id":"levelo_inurba_marseille","lat":43.30467,"lon":5.379098,"is_reserved":false,"is_disabled":false,"rental_uris":{"android":"levelo://app?vid=80dd6157-526b-45b4-8273-0c8179d56e0a","ios":"levelo://app?vid=80dd6157-526b-45b4-8273-0c8179d56e0a"},"vehicle_type_id":"4","last_reported":1760699286,"current_range_meters":5600,"station_id":"ce4bgup2rcd13ifvqcn0","pricing_plan_id":"cebpf4jnsgd1na2vs0mg"},{"bike_id":"bb9a311d-9344-42f8-a025-7ed14c7b9b69","system_id":"levelo_inurba_marseille","lat":43.303129,"lon":5.368973,"is_reserved":false,"is_disabled":false,"rental_uris":{"android":"levelo://app?vid=bb9a311d-9344-42f8-a025-7ed14c7b9b69","ios":"levelo://app?vid=bb9a311d-9344-42f8-a025-7ed14c7b9b69"},"vehicle_type_id":"4","last_reported":1760699286,"current_range_meters":6000,"station_id":"ce4bgqh2rcd13ifvqc5g","pricing_plan_id":"cebpf4jnsgd1na2vs0mg"},{"bike_id":"b3410386-4ee8-47e6-8d2a-b02720b0c0c9","system_id":"levelo_inurba_marseille","lat":43.284806,"lon":5.379029,"is_reserved":false,"is_disabled":false,"rental_uris":{"android":"levelo://app?vid=b3410386-4ee8-47e6-8d2a-b02720b0c0c9","ios":"levelo://app?vid=b3410386-4ee8-47e6-8d2a-b02720b0c0c9"},"vehicle_type_id":"4","last_reported":1760699286,"current_range_meters":6000,"station_id":"","pricing_plan_id":"cebpf4jnsgd1na2vs0mg"},{"bike_id":"d5007f99-0895-4e02-92c0-45f354e05b1c","system_id":"levelo_inurba_marseille","lat":43.29078,"lon":5.38139,"is_reserved":false,"is_disabled":false,"rental_uris":{"android":"levelo://app?vid=d5007f99-0895-4e02-92c0-45f354e05b1c","ios":"levelo://app?vid=d5007f99-0895-4e02-92c0-45f354e05b1c"},"vehicle_type_id":"4","last_reported":1760699286,"current_range_meters":6000,"station_id":"ce4bh512rcd13ifvqe2g","pricing_plan_id":"cebpf4jnsgd1na2vs0mg"},{"bike_id":"a794a8d7-b0f4-4816-9567-10e9d8cf2529","system_id":"levelo_inurba_marseille","lat":43.27347,"lon":5.39091,"is_reserved":false,"is_disabled":false,"rental_uris":{"android":"levelo://app?vid=a794a8d7-b0f4-4816-9567-10e9d8cf2529","ios":"levelo://app?vid=a794a8d7-b0f4-4816-9567-10e9d8cf2529"},"vehicle_type_id":"4","last_reported":1760699286,"current_range_meters":6400,"station_id":"","pricing_plan_id":"cebpf4jnsgd1na2vs0mg"},{"bike_id":"34b05e3a-02cb-4da6-8fba-a06a74dea49f","system_id":"levelo_inurba_marseille","lat":43.29528,"lon":5.38533,"is_reserved":false,"is_disabled":false,"rental_uris":{"android":"levelo://app?vid=34b05e3a-02cb-4da6-8fba-a06a74dea49f","ios":"levelo://app?vid=34b05e3a-02cb-4da6-8fba-a06a74dea49f"},"vehicle_type_id":"4","last_reported":1760699286,"current_range_meters":6400,"station_id":"ce4bgih2rcd13ifvqba0","pricing_plan_id":"cebpf4jnsgd1na2vs0mg"},{"bike_id":"93493692-5209-4d9b-bc6c-07a358efb784","system_id":"levelo_inurba_marseille","lat":43.282726,"lon":5.350489,"is_reserved":false,"is_disabled":false,"rental_uris":{"android":"levelo://app?vid=93493692-5209-4d9b-bc6c-07a358efb784","ios":"levelo://app?vid=93493692-5209-4d9b-bc6c-07a358efb784"},"vehicle_type_id":"4","last_reported":1760699286,"current_range_meters":6400,"station_id":"ce4bhbp2rcd13ifvqerg","pricing_plan_id":"cebpf4jnsgd1na2vs0mg"},{"bike_id":"d09d085d-3b0b-46a2-b9b4-3804b6b66c63","system_id":"levelo_inurba_marseille","lat":43.317572,"lon":5.39018,"is_reserved":false,"is_disabled":false,"rental_uris":{"android":"levelo://app?vid=d09d085d-3b0b-46a2-b9b4-3804b6b66c63","ios":"levelo://app?vid=d09d085d-3b0b-46a2-b9b4-3804b6b66c63"},"vehicle_type_id":"4","last_reported":1760699286,"current_range_meters":6400,"station_id":"ce4bhqp2rcd13ifvqhng","pricing_plan_id":"cebpf4jnsgd1na2vs0mg"},{"bike_id":"d68b41be-366f-40d7-a414-434cfe0517a5","system_id":"levelo_inurba_marseille","lat":43.31758,"lon":5.4226,"is_reserved":false,"is_disabled":false,"rental_uris":{"android":"levelo://app?vid=d68b41be-366f-40d7-a414-434cfe0517a5","ios":"levelo://app?vid=d68b41be-366f-40d7-a414-434cfe0517a5"},"vehicle_type_id":"4","last_reported":1760699286,"current_range_meters":6400,"station_id":"","pricing_plan_id":"cebpf4jnsgd1na2vs0mg"},{"bike_id":"e49d25f4-6fd4-4bc7-b56e-83f74c3d9105","system_id":"levelo_inurba_marseille","lat":43.304649,"lon":5.379119,"is_reserved":false,"is_disabled":false,"rental_uris":{"android":"levelo://app?vid=e49d25f4-6fd4-4bc7-b56e-83f74c3d9105","ios":"levelo://app?vid=e49d25f4-6fd4-4bc7-b56e-83f74c3d9105"},"vehicle_type_id":"4","last_reported":1760699286,"current_range_meters":6400,"station_id":"ce4bgup2rcd13ifvqcn0","pricing_plan_id":"cebpf4jnsgd1na2vs0mg"},{"bike_id":"797d5082-685e-4055-81db-ce1a6c74e585","system_id":"levelo_inurba_marseille","lat":43.29009,"lon":5.3561,"is_reserved":false,"is_disabled":false,"rental_uris":{"android":"levelo://app?vid=797d5082-685e-4055-81db-ce1a6c74e585","ios":"levelo://app?vid=797d5082-685e-4055-81db-ce1a6c74e585"},"vehicle_type_id":"4","last_reported":1760699286,"current_range_meters":6400,"station_id":"ce4bhb92rcd13ifvqen0","pricing_plan_id":"cebpf4jnsgd1na2vs0mg"},{"bike_id":"75e5b278-1212-4dfa-9b62-944caa9a2af8","system_id":"levelo_inurba_marseille","lat":43.313285,"lon":5.396934,"is_reserved":false,"is_disabled":false,"rental_uris":{"android":"levelo://app?vid=75e5b278-1212-4dfa-9b62-944caa9a2af8","ios":"levelo://app?vid=75e5b278-1212-4dfa-9b62-944caa9a2af8"},"vehicle_type_id":"4","last_reported":1760699286,"current_range_meters":6400,"station_id":"ce4bgvp2rcd13ifvqcu0","pricing_plan_id":"cebpf4jnsgd1na2vs0mg"},{"bike_id":"22924f23-4e42-4ed0-9082-21f2dac47f4c","system_id":"levelo_inurba_marseille","lat":43.23778,"lon":5.3663,"is_reserved":false,"is_disabled":false,"rental_uris":{"android":"levelo://app?vid=22924f23-4e42-4ed0-9082-21f2dac47f4c","ios":"levelo://app?vid=22924f23-4e42-4ed0-9082-21f2dac47f4c"},"vehicle_type_id":"4","last_reported":1760699286,"current_range_meters":6400,"station_id":"st_d3nk18o9ro0c73en2l3g","pricing_plan_id":"cebpf4jnsgd1na2vs0mg"},{"bike_id":"c8dadaf0-734d-427c-a1b5-6c7b9c161286","system_id":"levelo_inurba_marseille","lat":43.3014,"lon":5.37418,"is_reserved":false,"is_disabled":false,"rental_uris":{"android":"levelo://app?vid=c8dadaf0-734d-427c-a1b5-6c7b9c161286","ios":"levelo://app?vid=c8dadaf0-734d-427c-a1b5-6c7b9c161286"},"vehicle_type_id":"4","last_reported":1760699286,"current_range_meters":6800,"station_id":"ce4bgs92rcd13ifvqcc0","pricing_plan_id":"cebpf4jnsgd1na2vs0mg"},{"bike_id":"c62e8e54-2f2f-4b1a-91d7-50f00e90a77a","system_id":"levelo_inurba_marseille","lat":43.27809,"lon":5.40708,"is_reserved":false,"is_disabled":false,"rental_uris":{"android":"levelo://app?vid=c62e8e54-2f2f-4b1a-91d7-50f00e90a77a","ios":"levelo://app?vid=c62e8e54-2f2f-4b1a-91d7-50f00e90a77a"},"vehicle_type_id":"4","last_reported":1760699286,"current_range_meters":6800,"station_id":"ce4bhnh2rcd13ifvqgtg","pricing_plan_id":"cebpf4jnsgd1na2vs0mg"},{"bike_id":"7856590a-1572-412a-918e-77843d1b598a","system_id":"levelo_inurba_marseille","lat":43.28066,"lon":5.42136,"is_reserved":false,"is_disabled":false,"rental_uris":{"android":"levelo://app?vid=7856590a-1572-412a-918e-77843d1b598a","ios":"levelo://app?vid=7856590a-1572-412a-918e-77843d1b598a"},"vehicle_type_id":"4","last_reported":1760699286,"current_range_meters":6800,"station_id":"","pricing_plan_id":"cebpf4jnsgd1na2vs0mg"},{"bike_id":"7a63795d-d6ae-4db3-866d-c16b2af002f1","system_id":"levelo_inurba_marseille","lat":43.29962,"lon":5.37525,"is_reserved":false,"is_disabled":false,"rental_uris":{"android":"levelo://app?vid=7a63795d-d6ae-4db3-866d-c16b2af002f1","ios":"levelo://app?vid=7a63795d-d6ae-4db3-866d-c16b2af002f1"},"vehicle_type_id":"4","last_reported":1760699286,"current_range_meters":6800,"station_id":"","pricing_plan_id":"cebpf4jnsgd1na2vs0mg"},{"bike_id":"4a9ab485-8709-4cba-ad25-35bd423c11d8","system_id":"levelo_inurba_marseille","lat":43.26566,"lon":5.40324,"is_reserved":false,"is_disabled":false,"rental_uris":{"android":"levelo://app?vid=4a9ab485-8709-4cba-ad25-35bd423c11d8","ios":"levelo://app?vid=4a9ab485-8709-4cba-ad25-35bd423c11d8"},"vehicle_type_id":"4","last_reported":1760699286,"current_range_meters":6800,"station_id":"ce4bhmp2rcd13ifvqgng","pricing_plan_id":"cebpf4jnsgd1na2vs0mg"},{"bike_id":"d8e9b8f7-08e2-4408-ba5a-bf3e71307936","system_id":"levelo_inurba_marseille","lat":43.21191,"lon":5.35074,"is_reserved":false,"is_disabled":false,"rental_uris":{"android":"levelo://app?vid=d8e9b8f7-08e2-4408-ba5a-bf3e71307936","ios":"levelo://app?vid=d8e9b8f7-08e2-4408-ba5a-bf3e71307936"},"vehicle_type_id":"4","last_reported":1760699286,"current_range_meters":7200,"station_id":"st_cvj6sg6p6f1abm77japg","pricing_plan_id":"cebpf4jnsgd1na2vs0mg"},{"bike_id":"3b838009-0358-4572-ba75-77426d8c7214","system_id":"levelo_inurba_marseille","lat":43.30136,"lon":5.38773,"is_reserved":false,"is_disabled":false,"rental_uris":{"android":"levelo://app?vid=3b838009-0358-4572-ba75-77426d8c7214","ios":"levelo://app?vid=3b838009-0358-4572-ba75-77426d8c7214"},"vehicle_type_id":"4","last_reported":1760699286,"current_range_meters":7200,"station_id":"ce4bghh2rcd13ifvqb60","pricing_plan_id":"cebpf4jnsgd1na2vs0mg"},{"bike_id":"98a0124c-22d4-42ca-81c0-501e4f29653c","system_id":"levelo_inurba_marseille","lat":43.23964,"lon":5.36626,"is_reserved":false,"is_disabled":false,"rental_uris":{"android":"levelo://app?vid=98a0124c-22d4-42ca-81c0-501e4f29653c","ios":"levelo://app?vid=98a0124c-22d4-42ca-81c0-501e4f29653c"},"vehicle_type_id":"4","last_reported":1760699286,"current_range_meters":7200,"station_id":"ce4bhi12rcd13ifvqfp0","pricing_plan_id":"cebpf4jnsgd1na2vs0mg"},{"bike_id":"746c4bbd-60bf-481b-9fa8-6b03c20c4daa","system_id":"levelo_inurba_marseille","lat":43.31215,"lon":5.36833,"is_reserved":false,"is_disabled":false,"rental_uris":{"android":"levelo://app?vid=746c4bbd-60bf-481b-9fa8-6b03c20c4daa","ios":"levelo://app?vid=746c4bbd-60bf-481b-9fa8-6b03c20c4daa"},"vehicle_type_id":"4","last_reported":1760699286,"current_range_meters":7200,"station_id":"ce4bgl92rcd13ifvqbq0","pricing_plan_id":"cebpf4jnsgd1na2vs0mg"},{"bike_id":"5e93c91f-b7cf-4a17-b483-2fba25a2cac0","system_id":"levelo_inurba_marseille","lat":43.243862,"lon":5.370794,"is_reserved":false,"is_disabled":false,"rental_uris":{"android":"levelo://app?vid=5e93c91f-b7cf-4a17-b483-2fba25a2cac0","ios":"levelo://app?vid=5e93c91f-b7cf-4a17-b483-2fba25a2cac0"},"vehicle_type_id":"4","last_reported":1760699286,"current_range_meters":7200,"station_id":"","pricing_plan_id":"cebpf4jnsgd1na2vs0mg"},{"bike_id":"dc2583db-0ced-4282-af2f-2ef0da704f8a","system_id":"levelo_inurba_marseille","lat":43.26206,"lon":5.37443,"is_reserved":false,"is_disabled":false,"rental_uris":{"android":"levelo://app?vid=dc2583db-0ced-4282-af2f-2ef0da704f8a","ios":"levelo://app?vid=dc2583db-0ced-4282-af2f-2ef0da704f8a"},"vehicle_type_id":"4","last_reported":1760699286,"current_range_meters":7200,"station_id":"ce4bhgp2rcd13ifvqfc0","pricing_plan_id":"cebpf4jnsgd1na2vs0mg"},{"bike_id":"3e5969be-32b5-47c4-8f2a-ec98449d4bfc","system_id":"levelo_inurba_marseille","lat":43.31483,"lon":5.37309,"is_reserved":false,"is_disabled":false,"rental_uris":{"android":"levelo://app?vid=3e5969be-32b5-47c4-8f2a-ec98449d4bfc","ios":"levelo://app?vid=3e5969be-32b5-47c4-8f2a-ec98449d4bfc"},"vehicle_type_id":"4","last_reported":1760699286,"current_range_meters":7200,"station_id":"ce4bgt12rcd13ifvqcd0","pricing_plan_id":"cebpf4jnsgd1na2vs0mg"},{"bike_id":"7e444206-20cf-47e2-a819-82c6ab3d59a7","system_id":"levelo_inurba_marseille","lat":43.33266,"lon":5.39916,"is_reserved":false,"is_disabled":false,"rental_uris":{"android":"levelo://app?vid=7e444206-20cf-47e2-a819-82c6ab3d59a7","ios":"levelo://app?vid=7e444206-20cf-47e2-a819-82c6ab3d59a7"},"vehicle_type_id":"4","last_reported":1760699286,"current_range_meters":7200,"station_id":"","pricing_plan_id":"cebpf4jnsgd1na2vs0mg"},{"bike_id":"662e034f-ec92-417c-a838-68762f3020bc","system_id":"levelo_inurba_marseille","lat":43.30656,"lon":5.36736,"is_reserved":false,"is_disabled":false,"rental_uris":{"android":"levelo://app?vid=662e034f-ec92-417c-a838-68762f3020bc","ios":"levelo://app?vid=662e034f-ec92-417c-a838-68762f3020bc"},"vehicle_type_id":"4","last_reported":1760699286,"current_range_meters":7200,"station_id":"","pricing_plan_id":"cebpf4jnsgd1na2vs0mg"},{"bike_id":"13982c6a-7e65-42f5-8f40-394404e94543","system_id":"levelo_inurba_marseille","lat":43.296245,"lon":5.377134,"is_reserved":false,"is_disabled":false,"rental_uris":{"android":"levelo://app?vid=13982c6a-7e65-42f5-8f40-394404e94543","ios":"levelo://app?vid=13982c6a-7e65-42f5-8f40-394404e94543"},"vehicle_type_id":"4","last_reported":1760699286,"current_range_meters":7200,"station_id":"ce4bgkh2rcd13ifvqbl0","pricing_plan_id":"cebpf4jnsgd1na2vs0mg"},{"bike_id":"25e3c87d-e41e-4886-83c1-fab5f2c48172","system_id":"levelo_inurba_marseille","lat":43.32015,"lon":5.3817,"is_reserved":false,"is_disabled":false,"rental_uris":{"android":"levelo://app?vid=25e3c87d-e41e-4886-83c1-fab5f2c48172","ios":"levelo://app?vid=25e3c87d-e41e-4886-83c1-fab5f2c48172"},"vehicle_type_id":"4","last_reported":1760699286,"current_range_meters":7200,"station_id":"ce4bhr12rcd13ifvqhpg","pricing_plan_id":"cebpf4jnsgd1na2vs0mg"},{"bike_id":"1dc3768d-0b4e-4859-817c-5a4ee299d7ad","system_id":"levelo_inurba_marseille","lat":43.29752,"lon":5.37899,"is_reserved":false,"is_disabled":false,"rental_uris":{"android":"levelo://app?vid=1dc3768d-0b4e-4859-817c-5a4ee299d7ad","ios":"levelo://app?vid=1dc3768d-0b4e-4859-817c-5a4ee299d7ad"},"vehicle_type_id":"4","last_reported":1760699286,"current_range_meters":7200,"station_id":"","pricing_plan_id":"cebpf4jnsgd1na2vs0mg"},{"bike_id":"d55b801b-8ed1-4a9b-836f-55a36286f7c8","system_id":"levelo_inurba_marseille","lat":43.255,"lon":5.37651,"is_reserved":false,"is_disabled":false,"rental_uris":{"android":"levelo://app?vid=d55b801b-8ed1-4a9b-836f-55a36286f7c8","ios":"levelo://app?vid=d55b801b-8ed1-4a9b-836f-55a36286f7c8"},"vehicle_type_id":"4","last_reported":1760699286,"current_range_meters":8000,"station_id":"ce4bhh12rcd13ifvqff0","pricing_plan_id":"cebpf4jnsgd1na2vs0mg"},{"bike_id":"af96e380-ef8b-412e-8dbe-07ad526806b5","system_id":"levelo_inurba_marseille","lat":43.337444,"lon":5.374475,"is_reserved":false,"is_disabled":false,"rental_uris":{"android":"levelo://app?vid=af96e380-ef8b-412e-8dbe-07ad526806b5","ios":"levelo://app?vid=af96e380-ef8b-412e-8dbe-07ad526806b5"},"vehicle_type_id":"4","last_reported":1760699286,"current_range_meters":8000,"station_id":"","pricing_plan_id":"cebpf4jnsgd1na2vs0mg"},{"bike_id":"1e39bd64-46a0-43c3-8087-d9bb5e37a5f0","system_id":"levelo_inurba_marseille","lat":43.23061,"lon":5.35492,"is_reserved":false,"is_disabled":false,"rental_uris":{"android":"levelo://app?vid=1e39bd64-46a0-43c3-8087-d9bb5e37a5f0","ios":"levelo://app?vid=1e39bd64-46a0-43c3-8087-d9bb5e37a5f0"},"vehicle_type_id":"4","last_reported":1760699286,"current_range_meters":8400,"station_id":"cpo3342slgdg3j2ifvpg","pricing_plan_id":"cebpf4jnsgd1na2vs0mg"},{"bike_id":"2a258544-7590-48f1-939f-4fa79e7b6924","system_id":"levelo_inurba_marseille","lat":43.29909,"lon":5.3748,"is_reserved":false,"is_disabled":false,"rental_uris":{"android":"levelo://app?vid=2a258544-7590-48f1-939f-4fa79e7b6924","ios":"levelo://app?vid=2a258544-7590-48f1-939f-4fa79e7b6924"},"vehicle_type_id":"4","last_reported":1760699286,"current_range_meters":8400,"station_id":"ce4bgjh2rcd13ifvqbg0","pricing_plan_id":"cebpf4jnsgd1na2vs0mg"},{"bike_id":"47b6a661-48b8-461f-9827-f48295e67bbf","system_id":"levelo_inurba_marseille","lat":43.26304,"lon":5.39831,"is_reserved":false,"is_disabled":false,"rental_uris":{"android":"levelo://app?vid=47b6a661-48b8-461f-9827-f48295e67bbf","ios":"levelo://app?vid=47b6a661-48b8-461f-9827-f48295e67bbf"},"vehicle_type_id":"4","last_reported":1760699286,"current_range_meters":8400,"station_id":"","pricing_plan_id":"cebpf4jnsgd1na2vs0mg"},{"bike_id":"dc7c42fc-daab-4fee-ad89-30c5c8ba8a3e","system_id":"levelo_inurba_marseille","lat":43.23155,"lon":5.43714,"is_reserved":false,"is_disabled":false,"rental_uris":{"android":"levelo://app?vid=dc7c42fc-daab-4fee-ad89-30c5c8ba8a3e","ios":"levelo://app?vid=dc7c42fc-daab-4fee-ad89-30c5c8ba8a3e"},"vehicle_type_id":"4","last_reported":1760699286,"current_range_meters":8400,"station_id":"ce4bhmp2rcd13ifvqgog","pricing_plan_id":"cebpf4jnsgd1na2vs0mg"},{"bike_id":"7b3c4f4d-404e-4dfd-9fcf-cfaa15b6d9d0","system_id":"levelo_inurba_marseille","lat":43.27965,"lon":5.38751,"is_reserved":false,"is_disabled":false,"rental_uris":{"android":"levelo://app?vid=7b3c4f4d-404e-4dfd-9fcf-cfaa15b6d9d0","ios":"levelo://app?vid=7b3c4f4d-404e-4dfd-9fcf-cfaa15b6d9d0"},"vehicle_type_id":"4","last_reported":1760699286,"current_range_meters":8400,"station_id":"ce4bhg12rcd13ifvqf80","pricing_plan_id":"cebpf4jnsgd1na2vs0mg"},{"bike_id":"c871ca87-9ea0-4c82-8f96-1d74fe568265","system_id":"levelo_inurba_marseille","lat":43.285711,"lon":5.414768,"is_reserved":false,"is_disabled":false,"rental_uris":{"android":"levelo://app?vid=c871ca87-9ea0-4c82-8f96-1d74fe568265","ios":"levelo://app?vid=c871ca87-9ea0-4c82-8f96-1d74fe568265"},"vehicle_type_id":"4","last_reported":1760699286,"current_range_meters":8400,"station_id":"","pricing_plan_id":"cebpf4jnsgd1na2vs0mg"},{"bike_id":"ea648ab0-3164-4fd6-8f15-af6fc78f31d6","system_id":"levelo_inurba_marseille","lat":43.273682,"lon":5.362663,"is_reserved":false,"is_disabled":false,"rental_uris":{"android":"levelo://app?vid=ea648ab0-3164-4fd6-8f15-af6fc78f31d6","ios":"levelo://app?vid=ea648ab0-3164-4fd6-8f15-af6fc78f31d6"},"vehicle_type_id":"4","last_reported":1760699286,"current_range_meters":8400,"station_id":"ce4bhbh2rcd13ifvqeo0","pricing_plan_id":"cebpf4jnsgd1na2vs0mg"},{"bike_id":"23bba21c-7074-4ec4-866c-a3c83da58b62","system_id":"levelo_inurba_marseille","lat":43.31989,"lon":5.38166,"is_reserved":false,"is_disabled":false,"rental_uris":{"android":"levelo://app?vid=23bba21c-7074-4ec4-866c-a3c83da58b62","ios":"levelo://app?vid=23bba21c-7074-4ec4-866c-a3c83da58b62"},"vehicle_type_id":"4","last_reported":1760699286,"current_range_meters":8800,"station_id":"ce4bhr12rcd13ifvqhpg","pricing_plan_id":"cebpf4jnsgd1na2vs0mg"},{"bike_id":"0670def4-b15a-4c00-8829-0cd906a61bcb","system_id":"levelo_inurba_marseille","lat":43.33771,"lon":5.374307,"is_reserved":false,"is_disabled":false,"rental_uris":{"android":"levelo://app?vid=0670def4-b15a-4c00-8829-0cd906a61bcb","ios":"levelo://app?vid=0670def4-b15a-4c00-8829-0cd906a61bcb"},"vehicle_type_id":"4","last_reported":1760699286,"current_range_meters":8800,"station_id":"","pricing_plan_id":"cebpf4jnsgd1na2vs0mg"},{"bike_id":"7ff0d57e-c2ad-4d60-9cdd-924a41c2a125","system_id":"levelo_inurba_marseille","lat":43.24382,"lon":5.37054,"is_reserved":false,"is_disabled":false,"rental_uris":{"android":"levelo://app?vid=7ff0d57e-c2ad-4d60-9cdd-924a41c2a125","ios":"levelo://app?vid=7ff0d57e-c2ad-4d60-9cdd-924a41c2a125"},"vehicle_type_id":"4","last_reported":1760699286,"current_range_meters":8800,"station_id":"ce4bhhh2rcd13ifvqfk0","pricing_plan_id":"cebpf4jnsgd1na2vs0mg"},{"bike_id":"f4a9608d-2565-4c3c-abf1-93c4a164e349","system_id":"levelo_inurba_marseille","lat":43.3414,"lon":5.40905,"is_reserved":false,"is_disabled":false,"rental_uris":{"android":"levelo://app?vid=f4a9608d-2565-4c3c-abf1-93c4a164e349","ios":"levelo://app?vid=f4a9608d-2565-4c3c-abf1-93c4a164e349"},"vehicle_type_id":"4","last_reported":1760699286,"current_range_meters":8800,"station_id":"ce4bhqh2rcd13ifvqhlg","pricing_plan_id":"cebpf4jnsgd1na2vs0mg"},{"bike_id":"42c69320-f92f-4f5f-9a36-4c50462f64c3","system_id":"levelo_inurba_marseille","lat":43.27977,"lon":5.38707,"is_reserved":false,"is_disabled":false,"rental_uris":{"android":"levelo://app?vid=42c69320-f92f-4f5f-9a36-4c50462f64c3","ios":"levelo://app?vid=42c69320-f92f-4f5f-9a36-4c50462f64c3"},"vehicle_type_id":"4","last_reported":1760699286,"current_range_meters":8800,"station_id":"ce4bhg12rcd13ifvqf80","pricing_plan_id":"cebpf4jnsgd1na2vs0mg"},{"bike_id":"3224fb62-f99b-4323-b19e-fa1b81600838","system_id":"levelo_inurba_marseille","lat":43.243863,"lon":5.3706,"is_reserved":false,"is_disabled":false,"rental_uris":{"android":"levelo://app?vid=3224fb62-f99b-4323-b19e-fa1b81600838","ios":"levelo://app?vid=3224fb62-f99b-4323-b19e-fa1b81600838"},"vehicle_type_id":"4","last_reported":1760699286,"current_range_meters":8800,"station_id":"ce4bhhh2rcd13ifvqfk0","pricing_plan_id":"cebpf4jnsgd1na2vs0mg"},{"bike_id":"bd24196f-5406-4fc7-bafe-3369e0ada9c0","system_id":"levelo_inurba_marseille","lat":43.29721,"lon":5.37697,"is_reserved":false,"is_disabled":false,"rental_uris":{"android":"levelo://app?vid=bd24196f-5406-4fc7-bafe-3369e0ada9c0","ios":"levelo://app?vid=bd24196f-5406-4fc7-bafe-3369e0ada9c0"},"vehicle_type_id":"4","last_reported":1760699286,"current_range_meters":9200,"station_id":"ce4bgkh2rcd13ifvqbl0","pricing_plan_id":"cebpf4jnsgd1na2vs0mg"},{"bike_id":"26f03649-3edc-4955-8b9e-7a4256866a2b","system_id":"levelo_inurba_marseille","lat":43.282489,"lon":5.350902,"is_reserved":false,"is_disabled":false,"rental_uris":{"android":"levelo://app?vid=26f03649-3edc-4955-8b9e-7a4256866a2b","ios":"levelo://app?vid=26f03649-3edc-4955-8b9e-7a4256866a2b"},"vehicle_type_id":"4","last_reported":1760699286,"current_range_meters":9200,"station_id":"ce4bhbp2rcd13ifvqerg","pricing_plan_id":"cebpf4jnsgd1na2vs0mg"},{"bike_id":"a7ae204a-52e6-45de-8bd2-796b4d44c047","system_id":"levelo_inurba_marseille","lat":43.296027,"lon":5.381098,"is_reserved":false,"is_disabled":false,"rental_uris":{"android":"levelo://app?vid=a7ae204a-52e6-45de-8bd2-796b4d44c047","ios":"levelo://app?vid=a7ae204a-52e6-45de-8bd2-796b4d44c047"},"vehicle_type_id":"4","last_reported":1760699286,"current_range_meters":9200,"station_id":"ce4bgs92rcd13ifvqcc0","pricing_plan_id":"cebpf4jnsgd1na2vs0mg"},{"bike_id":"121f55c8-5a85-4142-a96c-bf52eb873442","system_id":"levelo_inurba_marseille","lat":43.304664,"lon":5.369142,"is_reserved":false,"is_disabled":false,"rental_uris":{"android":"levelo://app?vid=121f55c8-5a85-4142-a96c-bf52eb873442","ios":"levelo://app?vid=121f55c8-5a85-4142-a96c-bf52eb873442"},"vehicle_type_id":"4","last_reported":1760699286,"current_range_meters":9200,"station_id":"","pricing_plan_id":"cebpf4jnsgd1na2vs0mg"},{"bike_id":"ec30f1a9-9dab-48b3-9944-77ecbd55f045","system_id":"levelo_inurba_marseille","lat":43.29033,"lon":5.35901,"is_reserved":false,"is_disabled":false,"rental_uris":{"android":"levelo://app?vid=ec30f1a9-9dab-48b3-9944-77ecbd55f045","ios":"levelo://app?vid=ec30f1a9-9dab-48b3-9944-77ecbd55f045"},"vehicle_type_id":"4","last_reported":1760699286,"current_range_meters":9200,"station_id":"ce4bha92rcd13ifvqeg0","pricing_plan_id":"cebpf4jnsgd1na2vs0mg"},{"bike_id":"21c3a9fe-adfc-4375-8283-33ee1b7e74f0","system_id":"levelo_inurba_marseille","lat":43.31331,"lon":5.36756,"is_reserved":false,"is_disabled":true,"rental_uris":{"android":"levelo://app?vid=21c3a9fe-adfc-4375-8283-33ee1b7e74f0","ios":"levelo://app?vid=21c3a9fe-adfc-4375-8283-33ee1b7e74f0"},"vehicle_type_id":"4","last_reported":1760699286,"current_range_meters":9200,"station_id":"ce4bgr92rcd13ifvqc6g","pricing_plan_id":"cebpf4jnsgd1na2vs0mg"},{"bike_id":"cb12ac95-b112-40d8-8b7d-06759435ef6f","system_id":"levelo_inurba_marseille","lat":43.28549,"lon":5.44999,"is_reserved":false,"is_disabled":false,"rental_uris":{"android":"levelo://app?vid=cb12ac95-b112-40d8-8b7d-06759435ef6f","ios":"levelo://app?vid=cb12ac95-b112-40d8-8b7d-06759435ef6f"},"vehicle_type_id":"4","last_reported":1760699286,"current_range_meters":9200,"station_id":"","pricing_plan_id":"cebpf4jnsgd1na2vs0mg"},{"bike_id":"e8bd1355-a3c2-43ee-91c9-5ada804bafe9","system_id":"levelo_inurba_marseille","lat":43.23193,"lon":5.35556,"is_reserved":false,"is_disabled":false,"rental_uris":{"android":"levelo://app?vid=e8bd1355-a3c2-43ee-91c9-5ada804bafe9","ios":"levelo://app?vid=e8bd1355-a3c2-43ee-91c9-5ada804bafe9"},"vehicle_type_id":"4","last_reported":1760699286,"current_range_meters":9600,"station_id":"ce4bhu92rcd13ifvqi70","pricing_plan_id":"cebpf4jnsgd1na2vs0mg"},{"bike_id":"e257a5c9-b99e-4af1-ac4f-b017f1c8b418","system_id":"levelo_inurba_marseille","lat":43.33759,"lon":5.37438,"is_reserved":false,"is_disabled":false,"rental_uris":{"android":"levelo://app?vid=e257a5c9-b99e-4af1-ac4f-b017f1c8b418","ios":"levelo://app?vid=e257a5c9-b99e-4af1-ac4f-b017f1c8b418"},"vehicle_type_id":"4","last_reported":1760699286,"current_range_meters":9600,"station_id":"","pricing_plan_id":"cebpf4jnsgd1na2vs0mg"},{"bike_id":"245a030c-0c43-41f8-a4cc-088d55252b06","system_id":"levelo_inurba_marseille","lat":43.24474,"lon":5.3693,"is_reserved":false,"is_disabled":false,"rental_uris":{"android":"levelo://app?vid=245a030c-0c43-41f8-a4cc-088d55252b06","ios":"levelo://app?vid=245a030c-0c43-41f8-a4cc-088d55252b06"},"vehicle_type_id":"4","last_reported":1760699286,"current_range_meters":9600,"station_id":"","pricing_plan_id":"cebpf4jnsgd1na2vs0mg"},{"bike_id":"033ac5cd-a62e-40e0-8d68-c5f679ed9f5a","system_id":"levelo_inurba_marseille","lat":43.29966,"lon":5.37174,"is_reserved":false,"is_disabled":false,"rental_uris":{"android":"levelo://app?vid=033ac5cd-a62e-40e0-8d68-c5f679ed9f5a","ios":"levelo://app?vid=033ac5cd-a62e-40e0-8d68-c5f679ed9f5a"},"vehicle_type_id":"4","last_reported":1760699286,"current_range_meters":9600,"station_id":"ce4bgr92rcd13ifvqc7g","pricing_plan_id":"cebpf4jnsgd1na2vs0mg"},{"bike_id":"a4911cc1-6afe-40a3-ba0e-f16af3882d45","system_id":"levelo_inurba_marseille","lat":43.217438,"lon":5.34605,"is_reserved":false,"is_disabled":false,"rental_uris":{"android":"levelo://app?vid=a4911cc1-6afe-40a3-ba0e-f16af3882d45","ios":"levelo://app?vid=a4911cc1-6afe-40a3-ba0e-f16af3882d45"},"vehicle_type_id":"4","last_reported":1760699286,"current_range_meters":9600,"station_id":"","pricing_plan_id":"cebpf4jnsgd1na2vs0mg"},{"bike_id":"168d670a-7fbf-4bc3-a2c8-b39b1a180054","system_id":"levelo_inurba_marseille","lat":43.30272,"lon":5.36893,"is_reserved":false,"is_disabled":false,"rental_uris":{"android":"levelo://app?vid=168d670a-7fbf-4bc3-a2c8-b39b1a180054","ios":"levelo://app?vid=168d670a-7fbf-4bc3-a2c8-b39b1a180054"},"vehicle_type_id":"4","last_reported":1760699286,"current_range_meters":9600,"station_id":"ce4bgqh2rcd13ifvqc5g","pricing_plan_id":"cebpf4jnsgd1na2vs0mg"},{"bike_id":"1af4ccb6-5be9-4ff4-afca-0aa5f335443b","system_id":"levelo_inurba_marseille","lat":43.3149,"lon":5.3731,"is_reserved":false,"is_disabled":false,"rental_uris":{"android":"levelo://app?vid=1af4ccb6-5be9-4ff4-afca-0aa5f335443b","ios":"levelo://app?vid=1af4ccb6-5be9-4ff4-afca-0aa5f335443b"},"vehicle_type_id":"4","last_reported":1760699286,"current_range_meters":9600,"station_id":"ce4bgt12rcd13ifvqcd0","pricing_plan_id":"cebpf4jnsgd1na2vs0mg"},{"bike_id":"33337add-7262-4041-83e3-0fac81a5b737","system_id":"levelo_inurba_marseille","lat":43.2315,"lon":5.43715,"is_reserved":false,"is_disabled":false,"rental_uris":{"android":"levelo://app?vid=33337add-7262-4041-83e3-0fac81a5b737","ios":"levelo://app?vid=33337add-7262-4041-83e3-0fac81a5b737"},"vehicle_type_id":"4","last_reported":1760699286,"current_range_meters":10000,"station_id":"ce4bhmp2rcd13ifvqgog","pricing_plan_id":"cebpf4jnsgd1na2vs0mg"},{"bike_id":"38e9bc50-eb8b-417a-91d9-58a816766350","system_id":"levelo_inurba_marseille","lat":43.28614,"lon":5.35106,"is_reserved":false,"is_disabled":false,"rental_uris":{"android":"levelo://app?vid=38e9bc50-eb8b-417a-91d9-58a816766350","ios":"levelo://app?vid=38e9bc50-eb8b-417a-91d9-58a816766350"},"vehicle_type_id":"4","last_reported":1760699286,"current_range_meters":10000,"station_id":"ce4bhch2rcd13ifvqeug","pricing_plan_id":"cebpf4jnsgd1na2vs0mg"},{"bike_id":"c10f4b85-63d1-4416-a3ae-dddf0f737b7c","system_id":"levelo_inurba_marseille","lat":43.30667,"lon":5.36833,"is_reserved":false,"is_disabled":false,"rental_uris":{"android":"levelo://app?vid=c10f4b85-63d1-4416-a3ae-dddf0f737b7c","ios":"levelo://app?vid=c10f4b85-63d1-4416-a3ae-dddf0f737b7c"},"vehicle_type_id":"4","last_reported":1760699286,"current_range_meters":10000,"station_id":"","pricing_plan_id":"cebpf4jnsgd1na2vs0mg"},{"bike_id":"9392b340-d171-48a7-acd2-ca0348810f4c","system_id":"levelo_inurba_marseille","lat":43.26519,"lon":5.38012,"is_reserved":false,"is_disabled":false,"rental_uris":{"android":"levelo://app?vid=9392b340-d171-48a7-acd2-ca0348810f4c","ios":"levelo://app?vid=9392b340-d171-48a7-acd2-ca0348810f4c"},"vehicle_type_id":"4","last_reported":1760699286,"current_range_meters":10000,"station_id":"","pricing_plan_id":"cebpf4jnsgd1na2vs0mg"},{"bike_id":"2ed11edf-5de6-49b5-b292-1a5ce8c69893","system_id":"levelo_inurba_marseille","lat":43.21741,"lon":5.34606,"is_reserved":false,"is_disabled":false,"rental_uris":{"android":"levelo://app?vid=2ed11edf-5de6-49b5-b292-1a5ce8c69893","ios":"levelo://app?vid=2ed11edf-5de6-49b5-b292-1a5ce8c69893"},"vehicle_type_id":"4","last_reported":1760699286,"current_range_meters":10000,"station_id":"st_cvj6r9ubvosntc0bgbag","pricing_plan_id":"cebpf4jnsgd1na2vs0mg"},{"bike_id":"fa178e80-b17e-4c77-b9c1-abc82df0db97","system_id":"levelo_inurba_marseille","lat":43.306325,"lon":5.373452,"is_reserved":false,"is_disabled":false,"rental_uris":{"android":"levelo://app?vid=fa178e80-b17e-4c77-b9c1-abc82df0db97","ios":"levelo://app?vid=fa178e80-b17e-4c77-b9c1-abc82df0db97"},"vehicle_type_id":"4","last_reported":1760699286,"current_range_meters":10000,"station_id":"","pricing_plan_id":"cebpf4jnsgd1na2vs0mg"},{"bike_id":"e71b6049-0273-45e6-9b9f-03844307b2eb","system_id":"levelo_inurba_marseille","lat":43.21746,"lon":5.346,"is_reserved":false,"is_disabled":false,"rental_uris":{"android":"levelo://app?vid=e71b6049-0273-45e6-9b9f-03844307b2eb","ios":"levelo://app?vid=e71b6049-0273-45e6-9b9f-03844307b2eb"},"vehicle_type_id":"4","last_reported":1760699286,"current_range_meters":10800,"station_id":"","pricing_plan_id":"cebpf4jnsgd1na2vs0mg"},{"bike_id":"12fb48c3-7e0c-49a1-9798-73624bc71a25","system_id":"levelo_inurba_marseille","lat":43.30601,"lon":5.37222,"is_reserved":false,"is_disabled":false,"rental_uris":{"android":"levelo://app?vid=12fb48c3-7e0c-49a1-9798-73624bc71a25","ios":"levelo://app?vid=12fb48c3-7e0c-49a1-9798-73624bc71a25"},"vehicle_type_id":"4","last_reported":1760699286,"current_range_meters":10800,"station_id":"ce4bgqh2rcd13ifvqc4g","pricing_plan_id":"cebpf4jnsgd1na2vs0mg"},{"bike_id":"2a5498ee-d604-476f-a7c3-7260eebaa7f3","system_id":"levelo_inurba_marseille","lat":43.29571,"lon":5.37426,"is_reserved":false,"is_disabled":false,"rental_uris":{"android":"levelo://app?vid=2a5498ee-d604-476f-a7c3-7260eebaa7f3","ios":"levelo://app?vid=2a5498ee-d604-476f-a7c3-7260eebaa7f3"},"vehicle_type_id":"4","last_reported":1760699286,"current_range_meters":10800,"station_id":"","pricing_plan_id":"cebpf4jnsgd1na2vs0mg"},{"bike_id":"d48683cf-8ad5-40be-a547-026fd935a239","system_id":"levelo_inurba_marseille","lat":43.21743,"lon":5.34604,"is_reserved":false,"is_disabled":false,"rental_uris":{"android":"levelo://app?vid=d48683cf-8ad5-40be-a547-026fd935a239","ios":"levelo://app?vid=d48683cf-8ad5-40be-a547-026fd935a239"},"vehicle_type_id":"4","last_reported":1760699286,"current_range_meters":10800,"station_id":"st_cvj6r9ubvosntc0bgbag","pricing_plan_id":"cebpf4jnsgd1na2vs0mg"},{"bike_id":"10dca079-c8a7-49f9-a064-99aeead015db","system_id":"levelo_inurba_marseille","lat":43.29058,"lon":5.37169,"is_reserved":false,"is_disabled":false,"rental_uris":{"android":"levelo://app?vid=10dca079-c8a7-49f9-a064-99aeead015db","ios":"levelo://app?vid=10dca079-c8a7-49f9-a064-99aeead015db"},"vehicle_type_id":"4","last_reported":1760699286,"current_range_meters":10800,"station_id":"ce4bh5p2rcd13ifvqe4g","pricing_plan_id":"cebpf4jnsgd1na2vs0mg"},{"bike_id":"86f5c066-a213-4112-95cc-861eead666c1","system_id":"levelo_inurba_marseille","lat":43.27194,"lon":5.39177,"is_reserved":false,"is_disabled":false,"rental_uris":{"android":"levelo://app?vid=86f5c066-a213-4112-95cc-861eead666c1","ios":"levelo://app?vid=86f5c066-a213-4112-95cc-861eead666c1"},"vehicle_type_id":"4","last_reported":1760699286,"current_range_meters":10800,"station_id":"ce4bhhp2rcd13ifvqfm0","pricing_plan_id":"cebpf4jnsgd1na2vs0mg"},{"bike_id":"98b931ed-68c5-49a3-b322-10b1288b1823","system_id":"levelo_inurba_marseille","lat":43.27612,"lon":5.36108,"is_reserved":false,"is_disabled":false,"rental_uris":{"android":"levelo://app?vid=98b931ed-68c5-49a3-b322-10b1288b1823","ios":"levelo://app?vid=98b931ed-68c5-49a3-b322-10b1288b1823"},"vehicle_type_id":"4","last_reported":1760699286,"current_range_meters":10800,"station_id":"ce4bgj92rcd13ifvqbe0","pricing_plan_id":"cebpf4jnsgd1na2vs0mg"},{"bike_id":"edc2b540-f4d1-424e-9002-80823ed0b6b2","system_id":"levelo_inurba_marseille","lat":43.28406,"lon":5.37055,"is_reserved":false,"is_disabled":false,"rental_uris":{"android":"levelo://app?vid=edc2b540-f4d1-424e-9002-80823ed0b6b2","ios":"levelo://app?vid=edc2b540-f4d1-424e-9002-80823ed0b6b2"},"vehicle_type_id":"4","last_reported":1760699286,"current_range_meters":10800,"station_id":"","pricing_plan_id":"cebpf4jnsgd1na2vs0mg"},{"bike_id":"823bce77-d698-4bef-908c-664caef4be7b","system_id":"levelo_inurba_marseille","lat":43.265507,"lon":5.403306,"is_reserved":false,"is_disabled":false,"rental_uris":{"android":"levelo://app?vid=823bce77-d698-4bef-908c-664caef4be7b","ios":"levelo://app?vid=823bce77-d698-4bef-908c-664caef4be7b"},"vehicle_type_id":"4","last_reported":1760699286,"current_range_meters":11200,"station_id":"ce4bhmp2rcd13ifvqgng","pricing_plan_id":"cebpf4jnsgd1na2vs0mg"},{"bike_id":"c11e36bd-03af-430f-871f-fd5fc0ac66c4","system_id":"levelo_inurba_marseille","lat":43.30445,"lon":5.38879,"is_reserved":false,"is_disabled":false,"rental_uris":{"android":"levelo://app?vid=c11e36bd-03af-430f-871f-fd5fc0ac66c4","ios":"levelo://app?vid=c11e36bd-03af-430f-871f-fd5fc0ac66c4"},"vehicle_type_id":"4","last_reported":1760699286,"current_range_meters":11200,"station_id":"ce4bgk12rcd13ifvqbi0","pricing_plan_id":"cebpf4jnsgd1na2vs0mg"},{"bike_id":"24d82d64-1145-442f-a9f5-19238b0b39ef","system_id":"levelo_inurba_marseille","lat":43.272133,"lon":5.391866,"is_reserved":false,"is_disabled":false,"rental_uris":{"android":"levelo://app?vid=24d82d64-1145-442f-a9f5-19238b0b39ef","ios":"levelo://app?vid=24d82d64-1145-442f-a9f5-19238b0b39ef"},"vehicle_type_id":"4","last_reported":1760699286,"current_range_meters":11200,"station_id":"","pricing_plan_id":"cebpf4jnsgd1na2vs0mg"},{"bike_id":"4671a5ca-f365-4675-96a4-5c065b736610","system_id":"levelo_inurba_marseille","lat":43.28462,"lon":5.35895,"is_reserved":false,"is_disabled":false,"rental_uris":{"android":"levelo://app?vid=4671a5ca-f365-4675-96a4-5c065b736610","ios":"levelo://app?vid=4671a5ca-f365-4675-96a4-5c065b736610"},"vehicle_type_id":"4","last_reported":1760699286,"current_range_meters":11200,"station_id":"ce4bhah2rcd13ifvqei0","pricing_plan_id":"cebpf4jnsgd1na2vs0mg"},{"bike_id":"416f580b-31c7-4ade-8604-dbd86eb8155f","system_id":"levelo_inurba_marseille","lat":43.28161,"lon":5.42127,"is_reserved":false,"is_disabled":false,"rental_uris":{"android":"levelo://app?vid=416f580b-31c7-4ade-8604-dbd86eb8155f","ios":"levelo://app?vid=416f580b-31c7-4ade-8604-dbd86eb8155f"},"vehicle_type_id":"4","last_reported":1760699286,"current_range_meters":11200,"station_id":"","pricing_plan_id":"cebpf4jnsgd1na2vs0mg"},{"bike_id":"41585c30-6fed-42a6-a6c5-1b099ccfe2a5","system_id":"levelo_inurba_marseille","lat":43.230552,"lon":5.35489,"is_reserved":false,"is_disabled":false,"rental_uris":{"android":"levelo://app?vid=41585c30-6fed-42a6-a6c5-1b099ccfe2a5","ios":"levelo://app?vid=41585c30-6fed-42a6-a6c5-1b099ccfe2a5"},"vehicle_type_id":"4","last_reported":1760699286,"current_range_meters":11200,"station_id":"cpo3342slgdg3j2ifvpg","pricing_plan_id":"cebpf4jnsgd1na2vs0mg"},{"bike_id":"4694a62b-13f3-40ab-a4f7-b6eb0b961e81","system_id":"levelo_inurba_marseille","lat":43.29004,"lon":5.35612,"is_reserved":false,"is_disabled":false,"rental_uris":{"android":"levelo://app?vid=4694a62b-13f3-40ab-a4f7-b6eb0b961e81","ios":"levelo://app?vid=4694a62b-13f3-40ab-a4f7-b6eb0b961e81"},"vehicle_type_id":"4","last_reported":1760699286,"current_range_meters":11600,"station_id":"ce4bhb92rcd13ifvqen0","pricing_plan_id":"cebpf4jnsgd1na2vs0mg"},{"bike_id":"76acc2e9-6dcf-44a8-b8c3-46b004e4856d","system_id":"levelo_inurba_marseille","lat":43.29714,"lon":5.37704,"is_reserved":false,"is_disabled":false,"rental_uris":{"android":"levelo://app?vid=76acc2e9-6dcf-44a8-b8c3-46b004e4856d","ios":"levelo://app?vid=76acc2e9-6dcf-44a8-b8c3-46b004e4856d"},"vehicle_type_id":"4","last_reported":1760699286,"current_range_meters":11600,"station_id":"ce4bgkh2rcd13ifvqbl0","pricing_plan_id":"cebpf4jnsgd1na2vs0mg"},{"bike_id":"1c3664f0-daa7-4fd0-a6d8-42680b262940","system_id":"levelo_inurba_marseille","lat":43.29929,"lon":5.37493,"is_reserved":false,"is_disabled":false,"rental_uris":{"android":"levelo://app?vid=1c3664f0-daa7-4fd0-a6d8-42680b262940","ios":"levelo://app?vid=1c3664f0-daa7-4fd0-a6d8-42680b262940"},"vehicle_type_id":"4","last_reported":1760699286,"current_range_meters":11600,"station_id":"ce4bgjh2rcd13ifvqbg0","pricing_plan_id":"cebpf4jnsgd1na2vs0mg"},{"bike_id":"a1da47ff-6915-4b1b-97ad-811638c3e3a3","system_id":"levelo_inurba_marseille","lat":43.29185,"lon":5.35801,"is_reserved":false,"is_disabled":false,"rental_uris":{"android":"levelo://app?vid=a1da47ff-6915-4b1b-97ad-811638c3e3a3","ios":"levelo://app?vid=a1da47ff-6915-4b1b-97ad-811638c3e3a3"},"vehicle_type_id":"4","last_reported":1760699286,"current_range_meters":12000,"station_id":"ce4bhb12rcd13ifvqel0","pricing_plan_id":"cebpf4jnsgd1na2vs0mg"},{"bike_id":"d773d30e-aab0-4f9a-adf7-f408dd2af785","system_id":"levelo_inurba_marseille","lat":43.24294,"lon":5.37005,"is_reserved":false,"is_disabled":false,"rental_uris":{"android":"levelo://app?vid=d773d30e-aab0-4f9a-adf7-f408dd2af785","ios":"levelo://app?vid=d773d30e-aab0-4f9a-adf7-f408dd2af785"},"vehicle_type_id":"4","last_reported":1760699286,"current_range_meters":12000,"station_id":"ce4bhhh2rcd13ifvqfk0","pricing_plan_id":"cebpf4jnsgd1na2vs0mg"},{"bike_id":"57435fa7-b01c-429d-90d1-6ad415388a00","system_id":"levelo_inurba_marseille","lat":43.30591,"lon":5.39347,"is_reserved":false,"is_disabled":false,"rental_uris":{"android":"levelo://app?vid=57435fa7-b01c-429d-90d1-6ad415388a00","ios":"levelo://app?vid=57435fa7-b01c-429d-90d1-6ad415388a00"},"vehicle_type_id":"4","last_reported":1760699286,"current_range_meters":12000,"station_id":"ce4bh0p2rcd13ifvqd80","pricing_plan_id":"cebpf4jnsgd1na2vs0mg"},{"bike_id":"83754680-0465-4aa3-9654-1ed05879f920","system_id":"levelo_inurba_marseille","lat":43.28232,"lon":5.39064,"is_reserved":false,"is_disabled":false,"rental_uris":{"android":"levelo://app?vid=83754680-0465-4aa3-9654-1ed05879f920","ios":"levelo://app?vid=83754680-0465-4aa3-9654-1ed05879f920"},"vehicle_type_id":"4","last_reported":1760699286,"current_range_meters":12000,"station_id":"ce4bhn92rcd13ifvqgsg","pricing_plan_id":"cebpf4jnsgd1na2vs0mg"},{"bike_id":"535e4397-74d6-4b14-8998-bc339256053c","system_id":"levelo_inurba_marseille","lat":43.307585,"lon":5.367988,"is_reserved":false,"is_disabled":false,"rental_uris":{"android":"levelo://app?vid=535e4397-74d6-4b14-8998-bc339256053c","ios":"levelo://app?vid=535e4397-74d6-4b14-8998-bc339256053c"},"vehicle_type_id":"4","last_reported":1760699286,"current_range_meters":12000,"station_id":"","pricing_plan_id":"cebpf4jnsgd1na2vs0mg"},{"bike_id":"3d447fe4-646a-47a1-ba72-524d9486baea","system_id":"levelo_inurba_marseille","lat":43.28693,"lon":5.39978,"is_reserved":false,"is_disabled":false,"rental_uris":{"android":"levelo://app?vid=3d447fe4-646a-47a1-ba72-524d9486baea","ios":"levelo://app?vid=3d447fe4-646a-47a1-ba72-524d9486baea"},"vehicle_type_id":"4","last_reported":1760699286,"current_range_meters":12000,"station_id":"ce4bho92rcd13ifvqh3g","pricing_plan_id":"cebpf4jnsgd1na2vs0mg"},{"bike_id":"7ba83c85-4292-4bdb-a19b-15947da743d5","system_id":"levelo_inurba_marseille","lat":43.29254,"lon":5.38454,"is_reserved":false,"is_disabled":false,"rental_uris":{"android":"levelo://app?vid=7ba83c85-4292-4bdb-a19b-15947da743d5","ios":"levelo://app?vid=7ba83c85-4292-4bdb-a19b-15947da743d5"},"vehicle_type_id":"4","last_reported":1760699286,"current_range_meters":12000,"station_id":"ce4bh692rcd13ifvqea0","pricing_plan_id":"cebpf4jnsgd1na2vs0mg"},{"bike_id":"2b52f9e4-f536-42de-a8cd-86b7b54a6021","system_id":"levelo_inurba_marseille","lat":43.24166,"lon":5.36397,"is_reserved":false,"is_disabled":false,"rental_uris":{"android":"levelo://app?vid=2b52f9e4-f536-42de-a8cd-86b7b54a6021","ios":"levelo://app?vid=2b52f9e4-f536-42de-a8cd-86b7b54a6021"},"vehicle_type_id":"4","last_reported":1760699286,"current_range_meters":12000,"station_id":"cpo36qri1sfpv3e86is0","pricing_plan_id":"cebpf4jnsgd1na2vs0mg"},{"bike_id":"65b8384d-b81c-4c32-a69e-6fee7f0239d0","system_id":"levelo_inurba_marseille","lat":43.30732,"lon":5.42438,"is_reserved":false,"is_disabled":false,"rental_uris":{"android":"levelo://app?vid=65b8384d-b81c-4c32-a69e-6fee7f0239d0","ios":"levelo://app?vid=65b8384d-b81c-4c32-a69e-6fee7f0239d0"},"vehicle_type_id":"4","last_reported":1760699286,"current_range_meters":12000,"station_id":"st_cvj6ca6bvosntc0bfgr0","pricing_plan_id":"cebpf4jnsgd1na2vs0mg"},{"bike_id":"b6587072-26bc-4d24-bf89-46b83cab579b","system_id":"levelo_inurba_marseille","lat":43.293138,"lon":5.386574,"is_reserved":false,"is_disabled":false,"rental_uris":{"android":"levelo://app?vid=b6587072-26bc-4d24-bf89-46b83cab579b","ios":"levelo://app?vid=b6587072-26bc-4d24-bf89-46b83cab579b"},"vehicle_type_id":"4","last_reported":1760699286,"current_range_meters":12400,"station_id":"","pricing_plan_id":"cebpf4jnsgd1na2vs0mg"},{"bike_id":"16222907-9112-4676-9fb5-6981d41ce45c","system_id":"levelo_inurba_marseille","lat":43.26675,"lon":5.38269,"is_reserved":false,"is_disabled":false,"rental_uris":{"android":"levelo://app?vid=16222907-9112-4676-9fb5-6981d41ce45c","ios":"levelo://app?vid=16222907-9112-4676-9fb5-6981d41ce45c"},"vehicle_type_id":"4","last_reported":1760699286,"current_range_meters":12400,"station_id":"ce4bhg92rcd13ifvqf90","pricing_plan_id":"cebpf4jnsgd1na2vs0mg"},{"bike_id":"5fe6e873-dba1-40dd-bc65-77de126f2710","system_id":"levelo_inurba_marseille","lat":43.332893,"lon":5.395256,"is_reserved":false,"is_disabled":false,"rental_uris":{"android":"levelo://app?vid=5fe6e873-dba1-40dd-bc65-77de126f2710","ios":"levelo://app?vid=5fe6e873-dba1-40dd-bc65-77de126f2710"},"vehicle_type_id":"4","last_reported":1760699286,"current_range_meters":12400,"station_id":"","pricing_plan_id":"cebpf4jnsgd1na2vs0mg"},{"bike_id":"ab8dbe06-49f3-423b-99b1-2274be7ed343","system_id":"levelo_inurba_marseille","lat":43.28673,"lon":5.3865,"is_reserved":false,"is_disabled":false,"rental_uris":{"android":"levelo://app?vid=ab8dbe06-49f3-423b-99b1-2274be7ed343","ios":"levelo://app?vid=ab8dbe06-49f3-423b-99b1-2274be7ed343"},"vehicle_type_id":"4","last_reported":1760699286,"current_range_meters":12400,"station_id":"","pricing_plan_id":"cebpf4jnsgd1na2vs0mg"},{"bike_id":"960bbce8-e621-427c-aceb-ff38a1b951b3","system_id":"levelo_inurba_marseille","lat":43.26955,"lon":5.38637,"is_reserved":false,"is_disabled":false,"rental_uris":{"android":"levelo://app?vid=960bbce8-e621-427c-aceb-ff38a1b951b3","ios":"levelo://app?vid=960bbce8-e621-427c-aceb-ff38a1b951b3"},"vehicle_type_id":"4","last_reported":1760699286,"current_range_meters":12800,"station_id":"ce4bhh92rcd13ifvqfh0","pricing_plan_id":"cebpf4jnsgd1na2vs0mg"},{"bike_id":"22dc6b48-f58d-4941-92ef-544176fd12a2","system_id":"levelo_inurba_marseille","lat":43.28489,"lon":5.44091,"is_reserved":false,"is_disabled":false,"rental_uris":{"android":"levelo://app?vid=22dc6b48-f58d-4941-92ef-544176fd12a2","ios":"levelo://app?vid=22dc6b48-f58d-4941-92ef-544176fd12a2"},"vehicle_type_id":"4","last_reported":1760699286,"current_range_meters":12800,"station_id":"","pricing_plan_id":"cebpf4jnsgd1na2vs0mg"},{"bike_id":"90c3c3b1-9084-4bfb-ba3f-94554e8ec41c","system_id":"levelo_inurba_marseille","lat":43.30793,"lon":5.37638,"is_reserved":false,"is_disabled":false,"rental_uris":{"android":"levelo://app?vid=90c3c3b1-9084-4bfb-ba3f-94554e8ec41c","ios":"levelo://app?vid=90c3c3b1-9084-4bfb-ba3f-94554e8ec41c"},"vehicle_type_id":"4","last_reported":1760699286,"current_range_meters":12800,"station_id":"ce4bgv92rcd13ifvqcq0","pricing_plan_id":"cebpf4jnsgd1na2vs0mg"},{"bike_id":"c4ed00de-3711-4102-92e5-72a600ff79ec","system_id":"levelo_inurba_marseille","lat":43.323602,"lon":5.367511,"is_reserved":false,"is_disabled":false,"rental_uris":{"android":"levelo://app?vid=c4ed00de-3711-4102-92e5-72a600ff79ec","ios":"levelo://app?vid=c4ed00de-3711-4102-92e5-72a600ff79ec"},"vehicle_type_id":"4","last_reported":1760699286,"current_range_meters":13600,"station_id":"ce4bhsh2rcd13ifvqi2g","pricing_plan_id":"cebpf4jnsgd1na2vs0mg"},{"bike_id":"5b912900-0d7a-461d-ad61-45cc8c9e7c17","system_id":"levelo_inurba_marseille","lat":43.337444,"lon":5.374475,"is_reserved":false,"is_disabled":false,"rental_uris":{"android":"levelo://app?vid=5b912900-0d7a-461d-ad61-45cc8c9e7c17","ios":"levelo://app?vid=5b912900-0d7a-461d-ad61-45cc8c9e7c17"},"vehicle_type_id":"4","last_reported":1760699286,"current_range_meters":13600,"station_id":"ce4bhph2rcd13ifvqhdg","pricing_plan_id":"cebpf4jnsgd1na2vs0mg"},{"bike_id":"ea883585-d0e4-4bcb-922c-57b2a3efdeac","system_id":"levelo_inurba_marseille","lat":43.30603,"lon":5.36678,"is_reserved":false,"is_disabled":false,"rental_uris":{"android":"levelo://app?vid=ea883585-d0e4-4bcb-922c-57b2a3efdeac","ios":"levelo://app?vid=ea883585-d0e4-4bcb-922c-57b2a3efdeac"},"vehicle_type_id":"4","last_reported":1760699286,"current_range_meters":13600,"station_id":"","pricing_plan_id":"cebpf4jnsgd1na2vs0mg"},{"bike_id":"62e81a8e-80e1-4c34-952b-37d07d169b7c","system_id":"levelo_inurba_marseille","lat":43.2957,"lon":5.39982,"is_reserved":false,"is_disabled":false,"rental_uris":{"android":"levelo://app?vid=62e81a8e-80e1-4c34-952b-37d07d169b7c","ios":"levelo://app?vid=62e81a8e-80e1-4c34-952b-37d07d169b7c"},"vehicle_type_id":"4","last_reported":1760699286,"current_range_meters":13600,"station_id":"ce4bh312rcd13ifvqdj0","pricing_plan_id":"cebpf4jnsgd1na2vs0mg"},{"bike_id":"f3a2b3fb-ec1f-4a4b-8b00-6530bf382785","system_id":"levelo_inurba_marseille","lat":43.25086,"lon":5.39523,"is_reserved":false,"is_disabled":false,"rental_uris":{"android":"levelo://app?vid=f3a2b3fb-ec1f-4a4b-8b00-6530bf382785","ios":"levelo://app?vid=f3a2b3fb-ec1f-4a4b-8b00-6530bf382785"},"vehicle_type_id":"4","last_reported":1760699286,"current_range_meters":13600,"station_id":"ce4bhm12rcd13ifvqgkg","pricing_plan_id":"cebpf4jnsgd1na2vs0mg"},{"bike_id":"66743aff-aac4-4121-b166-4a30c1f5c6fe","system_id":"levelo_inurba_marseille","lat":43.26566,"lon":5.39005,"is_reserved":false,"is_disabled":false,"rental_uris":{"android":"levelo://app?vid=66743aff-aac4-4121-b166-4a30c1f5c6fe","ios":"levelo://app?vid=66743aff-aac4-4121-b166-4a30c1f5c6fe"},"vehicle_type_id":"4","last_reported":1760699286,"current_range_meters":13600,"station_id":"ce4bhe12rcd13ifvqf30","pricing_plan_id":"cebpf4jnsgd1na2vs0mg"},{"bike_id":"8973e661-43db-4344-9079-1cb26df3ceaa","system_id":"levelo_inurba_marseille","lat":43.27669,"lon":5.38873,"is_reserved":false,"is_disabled":false,"rental_uris":{"android":"levelo://app?vid=8973e661-43db-4344-9079-1cb26df3ceaa","ios":"levelo://app?vid=8973e661-43db-4344-9079-1cb26df3ceaa"},"vehicle_type_id":"4","last_reported":1760699286,"current_range_meters":13600,"station_id":"ce4bhi12rcd13ifvqfo0","pricing_plan_id":"cebpf4jnsgd1na2vs0mg"},{"bike_id":"a817b630-bbed-48d3-97f4-9bd571b9ebab","system_id":"levelo_inurba_marseille","lat":43.29996,"lon":5.37347,"is_reserved":false,"is_disabled":false,"rental_uris":{"android":"levelo://app?vid=a817b630-bbed-48d3-97f4-9bd571b9ebab","ios":"levelo://app?vid=a817b630-bbed-48d3-97f4-9bd571b9ebab"},"vehicle_type_id":"4","last_reported":1760699286,"current_range_meters":13600,"station_id":"","pricing_plan_id":"cebpf4jnsgd1na2vs0mg"},{"bike_id":"e7a0de45-e44b-47bf-aa95-71faaf613e41","system_id":"levelo_inurba_marseille","lat":43.28313,"lon":5.43343,"is_reserved":false,"is_disabled":false,"rental_uris":{"android":"levelo://app?vid=e7a0de45-e44b-47bf-aa95-71faaf613e41","ios":"levelo://app?vid=e7a0de45-e44b-47bf-aa95-71faaf613e41"},"vehicle_type_id":"4","last_reported":1760699286,"current_range_meters":13600,"station_id":"","pricing_plan_id":"cebpf4jnsgd1na2vs0mg"},{"bike_id":"88231688-b0d4-4add-b9d3-ba4527ac8655","system_id":"levelo_inurba_marseille","lat":43.30277,"lon":5.37711,"is_reserved":false,"is_disabled":false,"rental_uris":{"android":"levelo://app?vid=88231688-b0d4-4add-b9d3-ba4527ac8655","ios":"levelo://app?vid=88231688-b0d4-4add-b9d3-ba4527ac8655"},"vehicle_type_id":"4","last_reported":1760699286,"current_range_meters":14000,"station_id":"ce4bguh2rcd13ifvqcj0","pricing_plan_id":"cebpf4jnsgd1na2vs0mg"},{"bike_id":"94f60e57-4ea5-4506-9b0b-d49e351bbd01","system_id":"levelo_inurba_marseille","lat":43.29374,"lon":5.38374,"is_reserved":false,"is_disabled":false,"rental_uris":{"android":"levelo://app?vid=94f60e57-4ea5-4506-9b0b-d49e351bbd01","ios":"levelo://app?vid=94f60e57-4ea5-4506-9b0b-d49e351bbd01"},"vehicle_type_id":"4","last_reported":1760699286,"current_range_meters":14000,"station_id":"","pricing_plan_id":"cebpf4jnsgd1na2vs0mg"},{"bike_id":"1029d6d4-189b-4bd0-845e-21801a7a2dc4","system_id":"levelo_inurba_marseille","lat":43.29721,"lon":5.37688,"is_reserved":false,"is_disabled":false,"rental_uris":{"android":"levelo://app?vid=1029d6d4-189b-4bd0-845e-21801a7a2dc4","ios":"levelo://app?vid=1029d6d4-189b-4bd0-845e-21801a7a2dc4"},"vehicle_type_id":"4","last_reported":1760699286,"current_range_meters":14000,"station_id":"ce4bgkh2rcd13ifvqbl0","pricing_plan_id":"cebpf4jnsgd1na2vs0mg"},{"bike_id":"5a3ff8f8-0f4c-4ad9-979c-a2a226ac1d30","system_id":"levelo_inurba_marseille","lat":43.279928,"lon":5.416637,"is_reserved":false,"is_disabled":false,"rental_uris":{"android":"levelo://app?vid=5a3ff8f8-0f4c-4ad9-979c-a2a226ac1d30","ios":"levelo://app?vid=5a3ff8f8-0f4c-4ad9-979c-a2a226ac1d30"},"vehicle_type_id":"4","last_reported":1760699286,"current_range_meters":14000,"station_id":"ce4bho12rcd13ifvqh1g","pricing_plan_id":"cebpf4jnsgd1na2vs0mg"},{"bike_id":"bbb8aad6-e63d-45ca-b641-91f2b4d4f82c","system_id":"levelo_inurba_marseille","lat":43.29525,"lon":5.3854,"is_reserved":false,"is_disabled":false,"rental_uris":{"android":"levelo://app?vid=bbb8aad6-e63d-45ca-b641-91f2b4d4f82c","ios":"levelo://app?vid=bbb8aad6-e63d-45ca-b641-91f2b4d4f82c"},"vehicle_type_id":"4","last_reported":1760699286,"current_range_meters":14000,"station_id":"ce4bgih2rcd13ifvqba0","pricing_plan_id":"cebpf4jnsgd1na2vs0mg"},{"bike_id":"01f9aeaf-ec52-42b6-84e4-e5dd05b4e46d","system_id":"levelo_inurba_marseille","lat":43.26224,"lon":5.40447,"is_reserved":false,"is_disabled":false,"rental_uris":{"android":"levelo://app?vid=01f9aeaf-ec52-42b6-84e4-e5dd05b4e46d","ios":"levelo://app?vid=01f9aeaf-ec52-42b6-84e4-e5dd05b4e46d"},"vehicle_type_id":"4","last_reported":1760699286,"current_range_meters":14000,"station_id":"ce4bhmh2rcd13ifvqgmg","pricing_plan_id":"cebpf4jnsgd1na2vs0mg"},{"bike_id":"a618d75f-c056-4d7b-8ccd-3fcd16a7d304","system_id":"levelo_inurba_marseille","lat":43.34146,"lon":5.409077,"is_reserved":false,"is_disabled":false,"rental_uris":{"android":"levelo://app?vid=a618d75f-c056-4d7b-8ccd-3fcd16a7d304","ios":"levelo://app?vid=a618d75f-c056-4d7b-8ccd-3fcd16a7d304"},"vehicle_type_id":"4","last_reported":1760699286,"current_range_meters":14000,"station_id":"cki0cbj6b192h4jlfktg","pricing_plan_id":"cebpf4jnsgd1na2vs0mg"},{"bike_id":"d2cfa84e-e09b-4d62-8a3c-4936e94cac4b","system_id":"levelo_inurba_marseille","lat":43.24081,"lon":5.37726,"is_reserved":false,"is_disabled":false,"rental_uris":{"android":"levelo://app?vid=d2cfa84e-e09b-4d62-8a3c-4936e94cac4b","ios":"levelo://app?vid=d2cfa84e-e09b-4d62-8a3c-4936e94cac4b"},"vehicle_type_id":"4","last_reported":1760699286,"current_range_meters":14400,"station_id":"ce4bhnp2rcd13ifvqgvg","pricing_plan_id":"cebpf4jnsgd1na2vs0mg"},{"bike_id":"e9f69862-6cb7-4d0b-a056-5ae7c11fddab","system_id":"levelo_inurba_marseille","lat":43.30929,"lon":5.40144,"is_reserved":false,"is_disabled":false,"rental_uris":{"android":"levelo://app?vid=e9f69862-6cb7-4d0b-a056-5ae7c11fddab","ios":"levelo://app?vid=e9f69862-6cb7-4d0b-a056-5ae7c11fddab"},"vehicle_type_id":"4","last_reported":1760699286,"current_range_meters":14400,"station_id":"ce4bgvp2rcd13ifvqct0","pricing_plan_id":"cebpf4jnsgd1na2vs0mg"},{"bike_id":"e47bb254-474d-4f1d-8b3a-15c2c572c76a","system_id":"levelo_inurba_marseille","lat":43.30144,"lon":5.37415,"is_reserved":false,"is_disabled":false,"rental_uris":{"android":"levelo://app?vid=e47bb254-474d-4f1d-8b3a-15c2c572c76a","ios":"levelo://app?vid=e47bb254-474d-4f1d-8b3a-15c2c572c76a"},"vehicle_type_id":"4","last_reported":1760699286,"current_range_meters":14400,"station_id":"ce4bgs92rcd13ifvqcc0","pricing_plan_id":"cebpf4jnsgd1na2vs0mg"},{"bike_id":"2f427ffa-023f-4f18-948d-448a449d3df0","system_id":"levelo_inurba_marseille","lat":43.24171,"lon":5.36394,"is_reserved":false,"is_disabled":false,"rental_uris":{"android":"levelo://app?vid=2f427ffa-023f-4f18-948d-448a449d3df0","ios":"levelo://app?vid=2f427ffa-023f-4f18-948d-448a449d3df0"},"vehicle_type_id":"4","last_reported":1760699286,"current_range_meters":14400,"station_id":"cpo36qri1sfpv3e86is0","pricing_plan_id":"cebpf4jnsgd1na2vs0mg"},{"bike_id":"25c7782c-5df2-4811-a959-756c38dba1de","system_id":"levelo_inurba_marseille","lat":43.34701,"lon":5.35883,"is_reserved":false,"is_disabled":false,"rental_uris":{"android":"levelo://app?vid=25c7782c-5df2-4811-a959-756c38dba1de","ios":"levelo://app?vid=25c7782c-5df2-4811-a959-756c38dba1de"},"vehicle_type_id":"4","last_reported":1760699286,"current_range_meters":14400,"station_id":"","pricing_plan_id":"cebpf4jnsgd1na2vs0mg"},{"bike_id":"a520cee4-c55c-4c96-a147-e1f6f42d8947","system_id":"levelo_inurba_marseille","lat":43.30158,"lon":5.38078,"is_reserved":false,"is_disabled":false,"rental_uris":{"android":"levelo://app?vid=a520cee4-c55c-4c96-a147-e1f6f42d8947","ios":"levelo://app?vid=a520cee4-c55c-4c96-a147-e1f6f42d8947"},"vehicle_type_id":"4","last_reported":1760699286,"current_range_meters":14400,"station_id":"ce4bgjp2rcd13ifvqbh0","pricing_plan_id":"cebpf4jnsgd1na2vs0mg"},{"bike_id":"c4c8e762-8a26-4257-9d60-d747eb2d8508","system_id":"levelo_inurba_marseille","lat":43.33197,"lon":5.35572,"is_reserved":false,"is_disabled":false,"rental_uris":{"android":"levelo://app?vid=c4c8e762-8a26-4257-9d60-d747eb2d8508","ios":"levelo://app?vid=c4c8e762-8a26-4257-9d60-d747eb2d8508"},"vehicle_type_id":"4","last_reported":1760699286,"current_range_meters":14400,"station_id":"","pricing_plan_id":"cebpf4jnsgd1na2vs0mg"},{"bike_id":"b4919075-6fa4-4108-9c56-f3baeb6694da","system_id":"levelo_inurba_marseille","lat":43.27961,"lon":5.38747,"is_reserved":false,"is_disabled":false,"rental_uris":{"android":"levelo://app?vid=b4919075-6fa4-4108-9c56-f3baeb6694da","ios":"levelo://app?vid=b4919075-6fa4-4108-9c56-f3baeb6694da"},"vehicle_type_id":"4","last_reported":1760699286,"current_range_meters":14800,"station_id":"ce4bhg12rcd13ifvqf80","pricing_plan_id":"cebpf4jnsgd1na2vs0mg"},{"bike_id":"ba2479bd-5a5a-46c2-83c3-00588f4cf74a","system_id":"levelo_inurba_marseille","lat":43.29773,"lon":5.36483,"is_reserved":false,"is_disabled":false,"rental_uris":{"android":"levelo://app?vid=ba2479bd-5a5a-46c2-83c3-00588f4cf74a","ios":"levelo://app?vid=ba2479bd-5a5a-46c2-83c3-00588f4cf74a"},"vehicle_type_id":"4","last_reported":1760699286,"current_range_meters":14800,"station_id":"","pricing_plan_id":"cebpf4jnsgd1na2vs0mg"},{"bike_id":"c5e45447-2956-450f-bd7e-88aaf308c04d","system_id":"levelo_inurba_marseille","lat":43.29003,"lon":5.36538,"is_reserved":false,"is_disabled":false,"rental_uris":{"android":"levelo://app?vid=c5e45447-2956-450f-bd7e-88aaf308c04d","ios":"levelo://app?vid=c5e45447-2956-450f-bd7e-88aaf308c04d"},"vehicle_type_id":"4","last_reported":1760699286,"current_range_meters":14800,"station_id":"","pricing_plan_id":"cebpf4jnsgd1na2vs0mg"},{"bike_id":"ba1570ca-bb90-4c70-be6a-656d047d81bb","system_id":"levelo_inurba_marseille","lat":43.2957,"lon":5.37502,"is_reserved":false,"is_disabled":false,"rental_uris":{"android":"levelo://app?vid=ba1570ca-bb90-4c70-be6a-656d047d81bb","ios":"levelo://app?vid=ba1570ca-bb90-4c70-be6a-656d047d81bb"},"vehicle_type_id":"4","last_reported":1760699286,"current_range_meters":14800,"station_id":"ce4bgh92rcd13ifvqb50","pricing_plan_id":"cebpf4jnsgd1na2vs0mg"},{"bike_id":"53e45f66-6c88-47d1-a739-fad578ecef73","system_id":"levelo_inurba_marseille","lat":43.237864,"lon":5.366303,"is_reserved":false,"is_disabled":false,"rental_uris":{"android":"levelo://app?vid=53e45f66-6c88-47d1-a739-fad578ecef73","ios":"levelo://app?vid=53e45f66-6c88-47d1-a739-fad578ecef73"},"vehicle_type_id":"4","last_reported":1760699286,"current_range_meters":14800,"station_id":"st_d3nk18o9ro0c73en2l3g","pricing_plan_id":"cebpf4jnsgd1na2vs0mg"},{"bike_id":"59ee4d43-eb61-4aed-a406-b083fa9d27d8","system_id":"levelo_inurba_marseille","lat":43.3107,"lon":5.38354,"is_reserved":false,"is_disabled":true,"rental_uris":{"android":"levelo://app?vid=59ee4d43-eb61-4aed-a406-b083fa9d27d8","ios":"levelo://app?vid=59ee4d43-eb61-4aed-a406-b083fa9d27d8"},"vehicle_type_id":"4","last_reported":1760699286,"current_range_meters":14800,"station_id":"ce4bgv92rcd13ifvqcr0","pricing_plan_id":"cebpf4jnsgd1na2vs0mg"},{"bike_id":"efeed3e0-0d89-49c8-88ee-54fc372b67ef","system_id":"levelo_inurba_marseille","lat":43.27487,"lon":5.42455,"is_reserved":false,"is_disabled":true,"rental_uris":{"android":"levelo://app?vid=efeed3e0-0d89-49c8-88ee-54fc372b67ef","ios":"levelo://app?vid=efeed3e0-0d89-49c8-88ee-54fc372b67ef"},"vehicle_type_id":"4","last_reported":1760699286,"current_range_meters":15200,"station_id":"ce4bhn92rcd13ifvqgrg","pricing_plan_id":"cebpf4jnsgd1na2vs0mg"},{"bike_id":"a0ee9350-7b8a-42ca-bcdd-30f3ba735650","system_id":"levelo_inurba_marseille","lat":43.30543,"lon":5.36557,"is_reserved":false,"is_disabled":false,"rental_uris":{"android":"levelo://app?vid=a0ee9350-7b8a-42ca-bcdd-30f3ba735650","ios":"levelo://app?vid=a0ee9350-7b8a-42ca-bcdd-30f3ba735650"},"vehicle_type_id":"4","last_reported":1760699286,"current_range_meters":15200,"station_id":"ce4bgs12rcd13ifvqcag","pricing_plan_id":"cebpf4jnsgd1na2vs0mg"},{"bike_id":"db8cd3ee-d988-40de-b173-0901d6375499","system_id":"levelo_inurba_marseille","lat":43.28268,"lon":5.35075,"is_reserved":false,"is_disabled":false,"rental_uris":{"android":"levelo://app?vid=db8cd3ee-d988-40de-b173-0901d6375499","ios":"levelo://app?vid=db8cd3ee-d988-40de-b173-0901d6375499"},"vehicle_type_id":"4","last_reported":1760699286,"current_range_meters":15200,"station_id":"ce4bhbp2rcd13ifvqerg","pricing_plan_id":"cebpf4jnsgd1na2vs0mg"},{"bike_id":"4712e8b7-f286-4125-9dad-d381bb9d8965","system_id":"levelo_inurba_marseille","lat":43.30806,"lon":5.38152,"is_reserved":false,"is_disabled":false,"rental_uris":{"android":"levelo://app?vid=4712e8b7-f286-4125-9dad-d381bb9d8965","ios":"levelo://app?vid=4712e8b7-f286-4125-9dad-d381bb9d8965"},"vehicle_type_id":"4","last_reported":1760699286,"current_range_meters":15200,"station_id":"ce4bgt12rcd13ifvqce0","pricing_plan_id":"cebpf4jnsgd1na2vs0mg"},{"bike_id":"03285c9f-d493-433f-be53-fe8d41507398","system_id":"levelo_inurba_marseille","lat":43.295929,"lon":5.380999,"is_reserved":false,"is_disabled":false,"rental_uris":{"android":"levelo://app?vid=03285c9f-d493-433f-be53-fe8d41507398","ios":"levelo://app?vid=03285c9f-d493-433f-be53-fe8d41507398"},"vehicle_type_id":"4","last_reported":1760699286,"current_range_meters":15200,"station_id":"ce4bgl12rcd13ifvqbo0","pricing_plan_id":"cebpf4jnsgd1na2vs0mg"},{"bike_id":"edd0bdd1-3ef7-4156-9d46-5c5f66b8e02f","system_id":"levelo_inurba_marseille","lat":43.26224,"lon":5.40452,"is_reserved":false,"is_disabled":false,"rental_uris":{"android":"levelo://app?vid=edd0bdd1-3ef7-4156-9d46-5c5f66b8e02f","ios":"levelo://app?vid=edd0bdd1-3ef7-4156-9d46-5c5f66b8e02f"},"vehicle_type_id":"4","last_reported":1760699286,"current_range_meters":15200,"station_id":"ce4bhmh2rcd13ifvqgmg","pricing_plan_id":"cebpf4jnsgd1na2vs0mg"},{"bike_id":"e91698be-061e-47f4-a58f-0189adc6bd05","system_id":"levelo_inurba_marseille","lat":43.28484,"lon":5.38414,"is_reserved":false,"is_disabled":false,"rental_uris":{"android":"levelo://app?vid=e91698be-061e-47f4-a58f-0189adc6bd05","ios":"levelo://app?vid=e91698be-061e-47f4-a58f-0189adc6bd05"},"vehicle_type_id":"4","last_reported":1760699286,"current_range_meters":15200,"station_id":"ce4bh512rcd13ifvqe3g","pricing_plan_id":"cebpf4jnsgd1na2vs0mg"},{"bike_id":"89c41095-1749-4d06-b8a0-ed875d72823e","system_id":"levelo_inurba_marseille","lat":43.32097,"lon":5.36791,"is_reserved":false,"is_disabled":false,"rental_uris":{"android":"levelo://app?vid=89c41095-1749-4d06-b8a0-ed875d72823e","ios":"levelo://app?vid=89c41095-1749-4d06-b8a0-ed875d72823e"},"vehicle_type_id":"4","last_reported":1760699286,"current_range_meters":16000,"station_id":"ce4bhrh2rcd13ifvqhug","pricing_plan_id":"cebpf4jnsgd1na2vs0mg"},{"bike_id":"82cd43dc-c0f4-4bcd-bc34-58cbbfc591fe","system_id":"levelo_inurba_marseille","lat":43.26954,"lon":5.38629,"is_reserved":false,"is_disabled":false,"rental_uris":{"android":"levelo://app?vid=82cd43dc-c0f4-4bcd-bc34-58cbbfc591fe","ios":"levelo://app?vid=82cd43dc-c0f4-4bcd-bc34-58cbbfc591fe"},"vehicle_type_id":"4","last_reported":1760699286,"current_range_meters":16000,"station_id":"ce4bhh92rcd13ifvqfh0","pricing_plan_id":"cebpf4jnsgd1na2vs0mg"},{"bike_id":"1ea58d06-2bc8-43e6-9700-ceffc676d32c","system_id":"levelo_inurba_marseille","lat":43.217213,"lon":5.346152,"is_reserved":false,"is_disabled":true,"rental_uris":{"android":"levelo://app?vid=1ea58d06-2bc8-43e6-9700-ceffc676d32c","ios":"levelo://app?vid=1ea58d06-2bc8-43e6-9700-ceffc676d32c"},"vehicle_type_id":"4","last_reported":1760699286,"current_range_meters":16000,"station_id":"cpo36qri1sfpv3e86is0","pricing_plan_id":"cebpf4jnsgd1na2vs0mg"},{"bike_id":"cff44cd1-586f-4047-8c5e-d3196826fbc4","system_id":"levelo_inurba_marseille","lat":43.23177,"lon":5.39986,"is_reserved":false,"is_disabled":false,"rental_uris":{"android":"levelo://app?vid=cff44cd1-586f-4047-8c5e-d3196826fbc4","ios":"levelo://app?vid=cff44cd1-586f-4047-8c5e-d3196826fbc4"},"vehicle_type_id":"4","last_reported":1760699286,"current_range_meters":16000,"station_id":"ce4bhn12rcd13ifvqgqg","pricing_plan_id":"cebpf4jnsgd1na2vs0mg"},{"bike_id":"22cdcf65-2510-48e0-a8e6-3fc3927a063d","system_id":"levelo_inurba_marseille","lat":43.2828,"lon":5.35062,"is_reserved":false,"is_disabled":false,"rental_uris":{"android":"levelo://app?vid=22cdcf65-2510-48e0-a8e6-3fc3927a063d","ios":"levelo://app?vid=22cdcf65-2510-48e0-a8e6-3fc3927a063d"},"vehicle_type_id":"4","last_reported":1760699286,"current_range_meters":16000,"station_id":"ce4bhbp2rcd13ifvqerg","pricing_plan_id":"cebpf4jnsgd1na2vs0mg"},{"bike_id":"ae35a2da-3f17-464a-a391-e172df1dd6ca","system_id":"levelo_inurba_marseille","lat":43.24641,"lon":5.43109,"is_reserved":false,"is_disabled":false,"rental_uris":{"android":"levelo://app?vid=ae35a2da-3f17-464a-a391-e172df1dd6ca","ios":"levelo://app?vid=ae35a2da-3f17-464a-a391-e172df1dd6ca"},"vehicle_type_id":"4","last_reported":1760699286,"current_range_meters":16400,"station_id":"st_d2m6c4gdas8pm72e190g","pricing_plan_id":"cebpf4jnsgd1na2vs0mg"},{"bike_id":"fa6885fc-0794-4c9d-b537-1984a3b59116","system_id":"levelo_inurba_marseille","lat":43.34135,"lon":5.40904,"is_reserved":false,"is_disabled":false,"rental_uris":{"android":"levelo://app?vid=fa6885fc-0794-4c9d-b537-1984a3b59116","ios":"levelo://app?vid=fa6885fc-0794-4c9d-b537-1984a3b59116"},"vehicle_type_id":"4","last_reported":1760699286,"current_range_meters":16400,"station_id":"ce4bhqh2rcd13ifvqhlg","pricing_plan_id":"cebpf4jnsgd1na2vs0mg"},{"bike_id":"f26aa09e-4982-4d7e-adbf-ff6c649b6479","system_id":"levelo_inurba_marseille","lat":43.28007,"lon":5.41661,"is_reserved":false,"is_disabled":false,"rental_uris":{"android":"levelo://app?vid=f26aa09e-4982-4d7e-adbf-ff6c649b6479","ios":"levelo://app?vid=f26aa09e-4982-4d7e-adbf-ff6c649b6479"},"vehicle_type_id":"4","last_reported":1760699286,"current_range_meters":16400,"station_id":"ce4bho12rcd13ifvqh1g","pricing_plan_id":"cebpf4jnsgd1na2vs0mg"},{"bike_id":"6eb2acec-d68e-4c9a-ad73-90879ab30bc2","system_id":"levelo_inurba_marseille","lat":43.315124,"lon":5.374115,"is_reserved":false,"is_disabled":false,"rental_uris":{"android":"levelo://app?vid=6eb2acec-d68e-4c9a-ad73-90879ab30bc2","ios":"levelo://app?vid=6eb2acec-d68e-4c9a-ad73-90879ab30bc2"},"vehicle_type_id":"4","last_reported":1760699286,"current_range_meters":16400,"station_id":"","pricing_plan_id":"cebpf4jnsgd1na2vs0mg"},{"bike_id":"8b7b53cb-dfc1-4d1a-901f-f9ddb4d896b0","system_id":"levelo_inurba_marseille","lat":43.30368,"lon":5.42488,"is_reserved":false,"is_disabled":false,"rental_uris":{"android":"levelo://app?vid=8b7b53cb-dfc1-4d1a-901f-f9ddb4d896b0","ios":"levelo://app?vid=8b7b53cb-dfc1-4d1a-901f-f9ddb4d896b0"},"vehicle_type_id":"4","last_reported":1760699286,"current_range_meters":16400,"station_id":"ce4bhoh2rcd13ifvqh6g","pricing_plan_id":"cebpf4jnsgd1na2vs0mg"},{"bike_id":"4b9c7197-a6b9-4fd9-b9c0-6c2da41b4d45","system_id":"levelo_inurba_marseille","lat":43.27678,"lon":5.38891,"is_reserved":false,"is_disabled":false,"rental_uris":{"android":"levelo://app?vid=4b9c7197-a6b9-4fd9-b9c0-6c2da41b4d45","ios":"levelo://app?vid=4b9c7197-a6b9-4fd9-b9c0-6c2da41b4d45"},"vehicle_type_id":"4","last_reported":1760699286,"current_range_meters":16400,"station_id":"ce4bhi12rcd13ifvqfo0","pricing_plan_id":"cebpf4jnsgd1na2vs0mg"},{"bike_id":"75b02a51-1325-435e-9661-29bb451a696a","system_id":"levelo_inurba_marseille","lat":43.31448,"lon":5.38488,"is_reserved":false,"is_disabled":false,"rental_uris":{"android":"levelo://app?vid=75b02a51-1325-435e-9661-29bb451a696a","ios":"levelo://app?vid=75b02a51-1325-435e-9661-29bb451a696a"},"vehicle_type_id":"4","last_reported":1760699286,"current_range_meters":16400,"station_id":"","pricing_plan_id":"cebpf4jnsgd1na2vs0mg"},{"bike_id":"baf183fe-2e90-46ae-bdeb-ea110e828487","system_id":"levelo_inurba_marseille","lat":43.28529,"lon":5.44098,"is_reserved":false,"is_disabled":false,"rental_uris":{"android":"levelo://app?vid=baf183fe-2e90-46ae-bdeb-ea110e828487","ios":"levelo://app?vid=baf183fe-2e90-46ae-bdeb-ea110e828487"},"vehicle_type_id":"4","last_reported":1760699286,"current_range_meters":16400,"station_id":"st_d3j3df2ikq2c7380ej80","pricing_plan_id":"cebpf4jnsgd1na2vs0mg"},{"bike_id":"4c435c82-0bc4-4369-80cf-ae9046a83658","system_id":"levelo_inurba_marseille","lat":43.2416,"lon":5.36393,"is_reserved":false,"is_disabled":false,"rental_uris":{"android":"levelo://app?vid=4c435c82-0bc4-4369-80cf-ae9046a83658","ios":"levelo://app?vid=4c435c82-0bc4-4369-80cf-ae9046a83658"},"vehicle_type_id":"4","last_reported":1760699286,"current_range_meters":16400,"station_id":"cpo36qri1sfpv3e86is0","pricing_plan_id":"cebpf4jnsgd1na2vs0mg"},{"bike_id":"1a8859ce-bc64-4969-aadc-84fe7d6df618","system_id":"levelo_inurba_marseille","lat":43.279775,"lon":5.387441,"is_reserved":false,"is_disabled":false,"rental_uris":{"android":"levelo://app?vid=1a8859ce-bc64-4969-aadc-84fe7d6df618","ios":"levelo://app?vid=1a8859ce-bc64-4969-aadc-84fe7d6df618"},"vehicle_type_id":"4","last_reported":1760699286,"current_range_meters":16400,"station_id":"ce4bhg12rcd13ifvqf80","pricing_plan_id":"cebpf4jnsgd1na2vs0mg"},{"bike_id":"05e8c057-ea36-4b53-bd99-1c240ff1a5fe","system_id":"levelo_inurba_marseille","lat":43.30139,"lon":5.37431,"is_reserved":false,"is_disabled":false,"rental_uris":{"android":"levelo://app?vid=05e8c057-ea36-4b53-bd99-1c240ff1a5fe","ios":"levelo://app?vid=05e8c057-ea36-4b53-bd99-1c240ff1a5fe"},"vehicle_type_id":"4","last_reported":1760699286,"current_range_meters":16400,"station_id":"ce4bgs92rcd13ifvqcc0","pricing_plan_id":"cebpf4jnsgd1na2vs0mg"},{"bike_id":"27cfde0d-9837-4cc6-868b-4bdf488edb92","system_id":"levelo_inurba_marseille","lat":43.24386,"lon":5.3706,"is_reserved":false,"is_disabled":false,"rental_uris":{"android":"levelo://app?vid=27cfde0d-9837-4cc6-868b-4bdf488edb92","ios":"levelo://app?vid=27cfde0d-9837-4cc6-868b-4bdf488edb92"},"vehicle_type_id":"4","last_reported":1760699286,"current_range_meters":16800,"station_id":"ce4bhhh2rcd13ifvqfk0","pricing_plan_id":"cebpf4jnsgd1na2vs0mg"},{"bike_id":"347ce53a-fbcb-4578-8b47-a6b336b14933","system_id":"levelo_inurba_marseille","lat":43.31483,"lon":5.37307,"is_reserved":false,"is_disabled":false,"rental_uris":{"android":"levelo://app?vid=347ce53a-fbcb-4578-8b47-a6b336b14933","ios":"levelo://app?vid=347ce53a-fbcb-4578-8b47-a6b336b14933"},"vehicle_type_id":"4","last_reported":1760699286,"current_range_meters":16800,"station_id":"ce4bgt12rcd13ifvqcd0","pricing_plan_id":"cebpf4jnsgd1na2vs0mg"},{"bike_id":"b1f2a34d-7df9-40e1-bb7c-e77712ee0c8a","system_id":"levelo_inurba_marseille","lat":43.32108,"lon":5.36775,"is_reserved":false,"is_disabled":false,"rental_uris":{"android":"levelo://app?vid=b1f2a34d-7df9-40e1-bb7c-e77712ee0c8a","ios":"levelo://app?vid=b1f2a34d-7df9-40e1-bb7c-e77712ee0c8a"},"vehicle_type_id":"4","last_reported":1760699286,"current_range_meters":16800,"station_id":"ce4bhrh2rcd13ifvqhug","pricing_plan_id":"cebpf4jnsgd1na2vs0mg"},{"bike_id":"6b63d2d9-55f9-4ac4-92a6-abe4fee41296","system_id":"levelo_inurba_marseille","lat":43.3118,"lon":5.38714,"is_reserved":false,"is_disabled":false,"rental_uris":{"android":"levelo://app?vid=6b63d2d9-55f9-4ac4-92a6-abe4fee41296","ios":"levelo://app?vid=6b63d2d9-55f9-4ac4-92a6-abe4fee41296"},"vehicle_type_id":"4","last_reported":1760699286,"current_range_meters":16800,"station_id":"ce4bgv12rcd13ifvqcp0","pricing_plan_id":"cebpf4jnsgd1na2vs0mg"},{"bike_id":"d8c15876-8b54-4f69-b130-9f8e165b5bf1","system_id":"levelo_inurba_marseille","lat":43.26686,"lon":5.41217,"is_reserved":false,"is_disabled":false,"rental_uris":{"android":"levelo://app?vid=d8c15876-8b54-4f69-b130-9f8e165b5bf1","ios":"levelo://app?vid=d8c15876-8b54-4f69-b130-9f8e165b5bf1"},"vehicle_type_id":"4","last_reported":1760699286,"current_range_meters":17200,"station_id":"","pricing_plan_id":"cebpf4jnsgd1na2vs0mg"},{"bike_id":"924ac669-be8b-47aa-9a8e-6f22baf815eb","system_id":"levelo_inurba_marseille","lat":43.3113,"lon":5.36895,"is_reserved":false,"is_disabled":false,"rental_uris":{"android":"levelo://app?vid=924ac669-be8b-47aa-9a8e-6f22baf815eb","ios":"levelo://app?vid=924ac669-be8b-47aa-9a8e-6f22baf815eb"},"vehicle_type_id":"4","last_reported":1760699286,"current_range_meters":17200,"station_id":"","pricing_plan_id":"cebpf4jnsgd1na2vs0mg"},{"bike_id":"0503aa6d-6a61-4c33-89dd-a715286b46a7","system_id":"levelo_inurba_marseille","lat":43.28275,"lon":5.3506,"is_reserved":false,"is_disabled":false,"rental_uris":{"android":"levelo://app?vid=0503aa6d-6a61-4c33-89dd-a715286b46a7","ios":"levelo://app?vid=0503aa6d-6a61-4c33-89dd-a715286b46a7"},"vehicle_type_id":"4","last_reported":1760699286,"current_range_meters":17200,"station_id":"ce4bhbp2rcd13ifvqerg","pricing_plan_id":"cebpf4jnsgd1na2vs0mg"},{"bike_id":"25ac284f-89da-4dc0-992e-755329000866","system_id":"levelo_inurba_marseille","lat":43.24136,"lon":5.36394,"is_reserved":false,"is_disabled":false,"rental_uris":{"android":"levelo://app?vid=25ac284f-89da-4dc0-992e-755329000866","ios":"levelo://app?vid=25ac284f-89da-4dc0-992e-755329000866"},"vehicle_type_id":"4","last_reported":1760699286,"current_range_meters":17200,"station_id":"cpo36qri1sfpv3e86is0","pricing_plan_id":"cebpf4jnsgd1na2vs0mg"},{"bike_id":"8aa3ec83-557d-4118-b42f-7e9ff74932f2","system_id":"levelo_inurba_marseille","lat":43.241595,"lon":5.364146,"is_reserved":false,"is_disabled":false,"rental_uris":{"android":"levelo://app?vid=8aa3ec83-557d-4118-b42f-7e9ff74932f2","ios":"levelo://app?vid=8aa3ec83-557d-4118-b42f-7e9ff74932f2"},"vehicle_type_id":"4","last_reported":1760699286,"current_range_meters":17200,"station_id":"cpo36qri1sfpv3e86is0","pricing_plan_id":"cebpf4jnsgd1na2vs0mg"},{"bike_id":"8c30526d-4d62-49e0-92a1-2ed039e24496","system_id":"levelo_inurba_marseille","lat":43.28706,"lon":5.38418,"is_reserved":false,"is_disabled":false,"rental_uris":{"android":"levelo://app?vid=8c30526d-4d62-49e0-92a1-2ed039e24496","ios":"levelo://app?vid=8c30526d-4d62-49e0-92a1-2ed039e24496"},"vehicle_type_id":"4","last_reported":1760699286,"current_range_meters":17200,"station_id":"","pricing_plan_id":"cebpf4jnsgd1na2vs0mg"},{"bike_id":"da9ead34-2a6a-416d-a1df-593d884611a5","system_id":"levelo_inurba_marseille","lat":43.304693,"lon":5.379086,"is_reserved":false,"is_disabled":false,"rental_uris":{"android":"levelo://app?vid=da9ead34-2a6a-416d-a1df-593d884611a5","ios":"levelo://app?vid=da9ead34-2a6a-416d-a1df-593d884611a5"},"vehicle_type_id":"4","last_reported":1760699286,"current_range_meters":17200,"station_id":"ce4bgup2rcd13ifvqcn0","pricing_plan_id":"cebpf4jnsgd1na2vs0mg"},{"bike_id":"651d0827-c1de-407b-b3d8-bd22b10e37d3","system_id":"levelo_inurba_marseille","lat":43.30171,"lon":5.36598,"is_reserved":false,"is_disabled":false,"rental_uris":{"android":"levelo://app?vid=651d0827-c1de-407b-b3d8-bd22b10e37d3","ios":"levelo://app?vid=651d0827-c1de-407b-b3d8-bd22b10e37d3"},"vehicle_type_id":"4","last_reported":1760699286,"current_range_meters":17200,"station_id":"ce4bgrh2rcd13ifvqc8g","pricing_plan_id":"cebpf4jnsgd1na2vs0mg"},{"bike_id":"b3f02386-ff16-4d2a-8471-7d112043a4ca","system_id":"levelo_inurba_marseille","lat":43.28612,"lon":5.35106,"is_reserved":false,"is_disabled":false,"rental_uris":{"android":"levelo://app?vid=b3f02386-ff16-4d2a-8471-7d112043a4ca","ios":"levelo://app?vid=b3f02386-ff16-4d2a-8471-7d112043a4ca"},"vehicle_type_id":"4","last_reported":1760699286,"current_range_meters":17200,"station_id":"ce4bhch2rcd13ifvqeug","pricing_plan_id":"cebpf4jnsgd1na2vs0mg"},{"bike_id":"704daf7c-8d9e-47e2-b1fd-44b036ff1d21","system_id":"levelo_inurba_marseille","lat":43.23178,"lon":5.39993,"is_reserved":false,"is_disabled":false,"rental_uris":{"android":"levelo://app?vid=704daf7c-8d9e-47e2-b1fd-44b036ff1d21","ios":"levelo://app?vid=704daf7c-8d9e-47e2-b1fd-44b036ff1d21"},"vehicle_type_id":"4","last_reported":1760699286,"current_range_meters":17200,"station_id":"ce4bhn12rcd13ifvqgqg","pricing_plan_id":"cebpf4jnsgd1na2vs0mg"},{"bike_id":"edcb744a-1021-4493-86cd-94aad7a8dbc8","system_id":"levelo_inurba_marseille","lat":43.30838,"lon":5.37123,"is_reserved":false,"is_disabled":false,"rental_uris":{"android":"levelo://app?vid=edcb744a-1021-4493-86cd-94aad7a8dbc8","ios":"levelo://app?vid=edcb744a-1021-4493-86cd-94aad7a8dbc8"},"vehicle_type_id":"4","last_reported":1760699286,"current_range_meters":17200,"station_id":"","pricing_plan_id":"cebpf4jnsgd1na2vs0mg"},{"bike_id":"8596714f-b68b-4d6f-a0f8-0627aad8be05","system_id":"levelo_inurba_marseille","lat":43.23185,"lon":5.39983,"is_reserved":false,"is_disabled":false,"rental_uris":{"android":"levelo://app?vid=8596714f-b68b-4d6f-a0f8-0627aad8be05","ios":"levelo://app?vid=8596714f-b68b-4d6f-a0f8-0627aad8be05"},"vehicle_type_id":"4","last_reported":1760699286,"current_range_meters":17200,"station_id":"ce4bhn12rcd13ifvqgqg","pricing_plan_id":"cebpf4jnsgd1na2vs0mg"},{"bike_id":"8e7aedad-b84f-42a4-bd4a-c4d0d91baef8","system_id":"levelo_inurba_marseille","lat":43.295335,"lon":5.375121,"is_reserved":false,"is_disabled":false,"rental_uris":{"android":"levelo://app?vid=8e7aedad-b84f-42a4-bd4a-c4d0d91baef8","ios":"levelo://app?vid=8e7aedad-b84f-42a4-bd4a-c4d0d91baef8"},"vehicle_type_id":"4","last_reported":1760699286,"current_range_meters":17200,"station_id":"ce4bgkp2rcd13ifvqbmg","pricing_plan_id":"cebpf4jnsgd1na2vs0mg"},{"bike_id":"74e3e01c-66c4-481d-b08c-6c10af99936d","system_id":"levelo_inurba_marseille","lat":43.33939,"lon":5.4069,"is_reserved":false,"is_disabled":false,"rental_uris":{"android":"levelo://app?vid=74e3e01c-66c4-481d-b08c-6c10af99936d","ios":"levelo://app?vid=74e3e01c-66c4-481d-b08c-6c10af99936d"},"vehicle_type_id":"4","last_reported":1760699286,"current_range_meters":17200,"station_id":"","pricing_plan_id":"cebpf4jnsgd1na2vs0mg"},{"bike_id":"0858b0c8-9381-4c7c-ba45-f36ed2187a5f","system_id":"levelo_inurba_marseille","lat":43.300585,"lon":5.378234,"is_reserved":false,"is_disabled":false,"rental_uris":{"android":"levelo://app?vid=0858b0c8-9381-4c7c-ba45-f36ed2187a5f","ios":"levelo://app?vid=0858b0c8-9381-4c7c-ba45-f36ed2187a5f"},"vehicle_type_id":"4","last_reported":1760699286,"current_range_meters":17600,"station_id":"","pricing_plan_id":"cebpf4jnsgd1na2vs0mg"},{"bike_id":"19b48d97-31f5-419e-a3ec-6f3c529e3c71","system_id":"levelo_inurba_marseille","lat":43.32077,"lon":5.36773,"is_reserved":false,"is_disabled":false,"rental_uris":{"android":"levelo://app?vid=19b48d97-31f5-419e-a3ec-6f3c529e3c71","ios":"levelo://app?vid=19b48d97-31f5-419e-a3ec-6f3c529e3c71"},"vehicle_type_id":"4","last_reported":1760699286,"current_range_meters":17600,"station_id":"ce4bhrh2rcd13ifvqhug","pricing_plan_id":"cebpf4jnsgd1na2vs0mg"},{"bike_id":"31c18ef5-0aeb-4a01-a5f6-41e694b56a88","system_id":"levelo_inurba_marseille","lat":43.31342,"lon":5.36706,"is_reserved":false,"is_disabled":false,"rental_uris":{"android":"levelo://app?vid=31c18ef5-0aeb-4a01-a5f6-41e694b56a88","ios":"levelo://app?vid=31c18ef5-0aeb-4a01-a5f6-41e694b56a88"},"vehicle_type_id":"4","last_reported":1760699286,"current_range_meters":17600,"station_id":"ce4bgr92rcd13ifvqc6g","pricing_plan_id":"cebpf4jnsgd1na2vs0mg"},{"bike_id":"45e5b7ed-cacb-40d0-a2ee-d75061f9f2c6","system_id":"levelo_inurba_marseille","lat":43.23167,"lon":5.4369,"is_reserved":false,"is_disabled":false,"rental_uris":{"android":"levelo://app?vid=45e5b7ed-cacb-40d0-a2ee-d75061f9f2c6","ios":"levelo://app?vid=45e5b7ed-cacb-40d0-a2ee-d75061f9f2c6"},"vehicle_type_id":"4","last_reported":1760699286,"current_range_meters":17600,"station_id":"ce4bhmp2rcd13ifvqgog","pricing_plan_id":"cebpf4jnsgd1na2vs0mg"},{"bike_id":"0a414463-fe1a-4833-8a11-178a3c2c879a","system_id":"levelo_inurba_marseille","lat":43.29852,"lon":5.37897,"is_reserved":false,"is_disabled":false,"rental_uris":{"android":"levelo://app?vid=0a414463-fe1a-4833-8a11-178a3c2c879a","ios":"levelo://app?vid=0a414463-fe1a-4833-8a11-178a3c2c879a"},"vehicle_type_id":"4","last_reported":1760699286,"current_range_meters":18000,"station_id":"","pricing_plan_id":"cebpf4jnsgd1na2vs0mg"},{"bike_id":"cb9da424-00ed-4a27-a380-cbdf9884da2d","system_id":"levelo_inurba_marseille","lat":43.23182,"lon":5.39981,"is_reserved":false,"is_disabled":false,"rental_uris":{"android":"levelo://app?vid=cb9da424-00ed-4a27-a380-cbdf9884da2d","ios":"levelo://app?vid=cb9da424-00ed-4a27-a380-cbdf9884da2d"},"vehicle_type_id":"4","last_reported":1760699286,"current_range_meters":18000,"station_id":"ce4bhn12rcd13ifvqgqg","pricing_plan_id":"cebpf4jnsgd1na2vs0mg"},{"bike_id":"c60825ab-3e10-4724-8d5e-340b78b2cfbc","system_id":"levelo_inurba_marseille","lat":43.26565,"lon":5.39009,"is_reserved":false,"is_disabled":false,"rental_uris":{"android":"levelo://app?vid=c60825ab-3e10-4724-8d5e-340b78b2cfbc","ios":"levelo://app?vid=c60825ab-3e10-4724-8d5e-340b78b2cfbc"},"vehicle_type_id":"4","last_reported":1760699286,"current_range_meters":18000,"station_id":"ce4bhe12rcd13ifvqf30","pricing_plan_id":"cebpf4jnsgd1na2vs0mg"},{"bike_id":"892e6f7f-9719-43bc-8dd6-426dd313e17a","system_id":"levelo_inurba_marseille","lat":43.31723,"lon":5.40435,"is_reserved":false,"is_disabled":false,"rental_uris":{"android":"levelo://app?vid=892e6f7f-9719-43bc-8dd6-426dd313e17a","ios":"levelo://app?vid=892e6f7f-9719-43bc-8dd6-426dd313e17a"},"vehicle_type_id":"4","last_reported":1760699286,"current_range_meters":18000,"station_id":"ce4bh012rcd13ifvqd00","pricing_plan_id":"cebpf4jnsgd1na2vs0mg"},{"bike_id":"bcff28a3-da20-402e-a33b-274a6474a4c2","system_id":"levelo_inurba_marseille","lat":43.25111,"lon":5.40323,"is_reserved":false,"is_disabled":false,"rental_uris":{"android":"levelo://app?vid=bcff28a3-da20-402e-a33b-274a6474a4c2","ios":"levelo://app?vid=bcff28a3-da20-402e-a33b-274a6474a4c2"},"vehicle_type_id":"4","last_reported":1760699286,"current_range_meters":18000,"station_id":"ce4bhlh2rcd13ifvqgig","pricing_plan_id":"cebpf4jnsgd1na2vs0mg"},{"bike_id":"78810220-cd6e-4f2e-ae63-621baaacdb9f","system_id":"levelo_inurba_marseille","lat":43.29711,"lon":5.37693,"is_reserved":false,"is_disabled":false,"rental_uris":{"android":"levelo://app?vid=78810220-cd6e-4f2e-ae63-621baaacdb9f","ios":"levelo://app?vid=78810220-cd6e-4f2e-ae63-621baaacdb9f"},"vehicle_type_id":"4","last_reported":1760699286,"current_range_meters":18000,"station_id":"ce4bgkh2rcd13ifvqbl0","pricing_plan_id":"cebpf4jnsgd1na2vs0mg"},{"bike_id":"5dbcb50b-663b-4a4f-a786-ea8006f89a25","system_id":"levelo_inurba_marseille","lat":43.28459,"lon":5.3589,"is_reserved":false,"is_disabled":false,"rental_uris":{"android":"levelo://app?vid=5dbcb50b-663b-4a4f-a786-ea8006f89a25","ios":"levelo://app?vid=5dbcb50b-663b-4a4f-a786-ea8006f89a25"},"vehicle_type_id":"4","last_reported":1760699286,"current_range_meters":18000,"station_id":"ce4bhah2rcd13ifvqei0","pricing_plan_id":"cebpf4jnsgd1na2vs0mg"},{"bike_id":"2c4c23a8-a37b-4a27-a287-108c5cb9b872","system_id":"levelo_inurba_marseille","lat":43.29566,"lon":5.42289,"is_reserved":false,"is_disabled":false,"rental_uris":{"android":"levelo://app?vid=2c4c23a8-a37b-4a27-a287-108c5cb9b872","ios":"levelo://app?vid=2c4c23a8-a37b-4a27-a287-108c5cb9b872"},"vehicle_type_id":"4","last_reported":1760699286,"current_range_meters":18000,"station_id":"ce4bhph2rcd13ifvqhdg","pricing_plan_id":"cebpf4jnsgd1na2vs0mg"},{"bike_id":"0ffd9de9-5666-4968-89c6-e1123c4fefd5","system_id":"levelo_inurba_marseille","lat":43.258258,"lon":5.394417,"is_reserved":false,"is_disabled":false,"rental_uris":{"android":"levelo://app?vid=0ffd9de9-5666-4968-89c6-e1123c4fefd5","ios":"levelo://app?vid=0ffd9de9-5666-4968-89c6-e1123c4fefd5"},"vehicle_type_id":"4","last_reported":1760699286,"current_range_meters":18000,"station_id":"ce4bhip2rcd13ifvqft0","pricing_plan_id":"cebpf4jnsgd1na2vs0mg"},{"bike_id":"2cb4e477-eff0-4e8f-9570-6ef1b1d2a089","system_id":"levelo_inurba_marseille","lat":43.26199,"lon":5.37933,"is_reserved":false,"is_disabled":false,"rental_uris":{"android":"levelo://app?vid=2cb4e477-eff0-4e8f-9570-6ef1b1d2a089","ios":"levelo://app?vid=2cb4e477-eff0-4e8f-9570-6ef1b1d2a089"},"vehicle_type_id":"4","last_reported":1760699286,"current_range_meters":18800,"station_id":"ce4bhjp2rcd13ifvqg90","pricing_plan_id":"cebpf4jnsgd1na2vs0mg"},{"bike_id":"b1304271-bbda-4031-9698-f60d777dad8e","system_id":"levelo_inurba_marseille","lat":43.28003,"lon":5.39988,"is_reserved":false,"is_disabled":false,"rental_uris":{"android":"levelo://app?vid=b1304271-bbda-4031-9698-f60d777dad8e","ios":"levelo://app?vid=b1304271-bbda-4031-9698-f60d777dad8e"},"vehicle_type_id":"4","last_reported":1760699286,"current_range_meters":18800,"station_id":"ce4bho92rcd13ifvqh4g","pricing_plan_id":"cebpf4jnsgd1na2vs0mg"},{"bike_id":"fc8c800e-8a5e-42e6-9232-592b069ee77b","system_id":"levelo_inurba_marseille","lat":43.27057,"lon":5.42272,"is_reserved":false,"is_disabled":false,"rental_uris":{"android":"levelo://app?vid=fc8c800e-8a5e-42e6-9232-592b069ee77b","ios":"levelo://app?vid=fc8c800e-8a5e-42e6-9232-592b069ee77b"},"vehicle_type_id":"4","last_reported":1760699286,"current_range_meters":18800,"station_id":"ce4bhk92rcd13ifvqgb0","pricing_plan_id":"cebpf4jnsgd1na2vs0mg"},{"bike_id":"862ce872-f902-47f5-bbb1-1ac3f6d12a86","system_id":"levelo_inurba_marseille","lat":43.266783,"lon":5.382688,"is_reserved":false,"is_disabled":false,"rental_uris":{"android":"levelo://app?vid=862ce872-f902-47f5-bbb1-1ac3f6d12a86","ios":"levelo://app?vid=862ce872-f902-47f5-bbb1-1ac3f6d12a86"},"vehicle_type_id":"4","last_reported":1760699286,"current_range_meters":18800,"station_id":"ce4bhg92rcd13ifvqf90","pricing_plan_id":"cebpf4jnsgd1na2vs0mg"},{"bike_id":"a6aaeaca-b7cb-4952-b8f2-862507ee2b8f","system_id":"levelo_inurba_marseille","lat":43.25087,"lon":5.39516,"is_reserved":false,"is_disabled":false,"rental_uris":{"android":"levelo://app?vid=a6aaeaca-b7cb-4952-b8f2-862507ee2b8f","ios":"levelo://app?vid=a6aaeaca-b7cb-4952-b8f2-862507ee2b8f"},"vehicle_type_id":"4","last_reported":1760699286,"current_range_meters":18800,"station_id":"ce4bhm12rcd13ifvqgkg","pricing_plan_id":"cebpf4jnsgd1na2vs0mg"},{"bike_id":"550f97e6-2472-4124-8ce9-ad13ef74b066","system_id":"levelo_inurba_marseille","lat":43.31978,"lon":5.38118,"is_reserved":false,"is_disabled":false,"rental_uris":{"android":"levelo://app?vid=550f97e6-2472-4124-8ce9-ad13ef74b066","ios":"levelo://app?vid=550f97e6-2472-4124-8ce9-ad13ef74b066"},"vehicle_type_id":"4","last_reported":1760699286,"current_range_meters":18800,"station_id":"ce4bhr12rcd13ifvqhpg","pricing_plan_id":"cebpf4jnsgd1na2vs0mg"},{"bike_id":"4352711c-f7c7-48e9-b2db-3cc881e3298f","system_id":"levelo_inurba_marseille","lat":43.295289,"lon":5.375672,"is_reserved":false,"is_disabled":false,"rental_uris":{"android":"levelo://app?vid=4352711c-f7c7-48e9-b2db-3cc881e3298f","ios":"levelo://app?vid=4352711c-f7c7-48e9-b2db-3cc881e3298f"},"vehicle_type_id":"4","last_reported":1760699286,"current_range_meters":18800,"station_id":"ce4bgh92rcd13ifvqb50","pricing_plan_id":"cebpf4jnsgd1na2vs0mg"},{"bike_id":"27b13ec2-e790-4a5a-92f0-43d8fc61aca1","system_id":"levelo_inurba_marseille","lat":43.34395,"lon":5.346908,"is_reserved":false,"is_disabled":false,"rental_uris":{"android":"levelo://app?vid=27b13ec2-e790-4a5a-92f0-43d8fc61aca1","ios":"levelo://app?vid=27b13ec2-e790-4a5a-92f0-43d8fc61aca1"},"vehicle_type_id":"4","last_reported":1760699286,"current_range_meters":18800,"station_id":"","pricing_plan_id":"cebpf4jnsgd1na2vs0mg"},