{"last_updated":1751516611,"ttl":60,"version":"2.2","data":{"bikes":[{"bike_id":"3da29fb8-fc97-44c6-b9ac-31dd456b2fd4","system_id":"levelo_inurba_marseille","lat":43.33771,"lon":5.37424,"is_reserved":false,"is_disabled":true,"rental_uris":{"android":"levelo://app?vid=3da29fb8-fc97-44c6-b9ac-31dd456b2fd4","ios":"levelo://app?vid=3da29fb8-fc97-44c6-b9ac-31dd456b2fd4"},"vehicle_type_id":"4","last_reported":1751516611,"current_range_meters":0,"station_id":"","pricing_plan_id":"cebpf4jnsgd1na2vs0mg"},{"bike_id":"01861ad8-a8d7-4be6-816e-651927c87584","system_id":"levelo_inurba_marseille","lat":43.33751,"lon":5.37456,"is_reserved":false,"is_disabled":true,"rental_uris":{"android":"levelo://app?vid=01861ad8-a8d7-4be6-816e-651927c87584","ios":"levelo://app?vid=01861ad8-a8d7-4be6-816e-651927c87584"},"vehicle_type_id":"4","last_reported":1751516611,"current_range_meters":0,"station_id":"","pricing_plan_id":"cebpf4jnsgd1na2vs0mg"},{"bike_id":"942c1066-b367-4e59-b0ad-f0a160b51d6f","system_id":"levelo_inurba_marseille","lat":43.26582,"lon":5.39489,"is_reserved":false,"is_disabled":true,"rental_uris":{"android":"levelo://app?vid=942c1066-b367-4e59-b0ad-f0a160b51d6f","ios":"levelo://app?vid=942c1066-b367-4e59-b0ad-f0a160b51d6f"},"vehicle_type_id":"4","last_reported":1751516611,"current_range_meters":0,"station_id":"","pricing_plan_id":"cebpf4jnsgd1na2vs0mg"},{"bike_id":"6e5b5a4d-1ee5-4068-9613-fb44ab4d8a9a","system_id":"levelo_inurba_marseille","lat":43.348559,"lon":5.3467,"is_reserved":false,"is_disabled":true,"rental_uris":{"android":"levelo://app?vid=6e5b5a4d-1ee5-4068-9613-fb44ab4d8a9a","ios":"levelo://app?vid=6e5b5a4d-1ee5-4068-9613-fb44ab4d8a9a"},"vehicle_type_id":"4","last_reported":1751516611,"current_range_meters":0,"station_id":"","pricing_plan_id":"cebpf4jnsgd1na2vs0mg"},{"bike_id":"88ba2eb8-6abc-42f0-a2b7-fafab863863b","system_id":"levelo_inurba_marseille","lat":43.26099,"lon":5.3734,"is_reserved":false,"is_disabled":true,"rental_uris":{"android":"levelo://app?vid=88ba2eb8-6abc-42f0-a2b7-fafab863863b","ios":"levelo://app?vid=88ba2eb8-6abc-42f0-a2b7-fafab863863b"},"vehicle_type_id":"4","last_reported":1751516611,"current_range_meters":0,"station_id":"","pricing_plan_id":"cebpf4jnsgd1na2vs0mg"},{"bike_id":"cbab8e8e-76d8-4b25-9f75-190c476c076a","system_id":"levelo_inurba_marseille","lat":43.33619,"lon":5.40965,"is_reserved":false,"is_disabled":true,"rental_uris":{"android":"levelo://app?vid=cbab8e8e-76d8-4b25-9f75-190c476c076a","ios":"levelo://app?vid=cbab8e8e-76d8-4b25-9f75-190c476c076a"},"vehicle_type_id":"4","last_reported":1751516611,"current_range_meters":0,"station_id":"ce4bhqh2rcd13ifvqhmg","pricing_plan_id":"cebpf4jnsgd1na2vs0mg"},{"bike_id":"be4771a0-f822-40f0-a95c-2aaca1d3fb3c","system_id":"levelo_inurba_marseille","lat":43.217565,"lon":5.346263,"is_reserved":false,"is_disabled":true,"rental_uris":{"android":"levelo://app?vid=be4771a0-f822-40f0-a95c-2aaca1d3fb3c","ios":"levelo://app?vid=be4771a0-f822-40f0-a95c-2aaca1d3fb3c"},"vehicle_type_id":"4","last_reported":1751516611,"current_range_meters":0,"station_id":"st_cvj6r9ubvosntc0bgbag","pricing_plan_id":"cebpf4jnsgd1na2vs0mg"},{"bike_id":"6c7c4d82-063a-43a8-9774-14951b025d13","system_id":"levelo_inurba_marseille","lat":43.2998,"lon":5.38488,"is_reserved":false,"is_disabled":true,"rental_uris":{"android":"levelo://app?vid=6c7c4d82-063a-43a8-9774-14951b025d13","ios":"levelo://app?vid=6c7c4d82-063a-43a8-9774-14951b025d13"},"vehicle_type_id":"4","last_reported":1751516611,"current_range_meters":400,"station_id":"ce4bgj92rcd13ifvqbd0","pricing_plan_id":"cebpf4jnsgd1na2vs0mg"},{"bike_id":"10be7a19-7bb3-4be8-8e03-f074498ccbe9","system_id":"levelo_inurba_marseille","lat":43.21759,"lon":5.34588,"is_reserved":false,"is_disabled":true,"rental_uris":{"android":"levelo://app?vid=10be7a19-7bb3-4be8-8e03-f074498ccbe9","ios":"levelo://app?vid=10be7a19-7bb3-4be8-8e03-f074498ccbe9"},"vehicle_type_id":"4","last_reported":1751516611,"current_range_meters":800,"station_id":"st_cvj6r9ubvosntc0bgbag","pricing_plan_id":"cebpf4jnsgd1na2vs0mg"},{"bike_id":"8e365e3c-559a-4ba6-a6c5-4c159e2434fc","system_id":"levelo_inurba_marseille","lat":43.217425,"lon":5.346077,"is_reserved":false,"is_disabled":true,"rental_uris":{"android":"levelo://app?vid=8e365e3c-559a-4ba6-a6c5-4c159e2434fc","ios":"levelo://app?vid=8e365e3c-559a-4ba6-a6c5-4c159e2434fc"},"vehicle_type_id":"4","last_reported":1751516611,"current_range_meters":1600,"station_id":"","pricing_plan_id":"cebpf4jnsgd1na2vs0mg"},{"bike_id":"4e0ceeee-cc6c-4d5b-9838-93c57bc1c3b0","system_id":"levelo_inurba_marseille","lat":43.31219,"lon":5.36894,"is_reserved":false,"is_disabled":true,"rental_uris":{"android":"levelo://app?vid=4e0ceeee-cc6c-4d5b-9838-93c57bc1c3b0","ios":"levelo://app?vid=4e0ceeee-cc6c-4d5b-9838-93c57bc1c3b0"},"vehicle_type_id":"4","last_reported":1751516611,"current_range_meters":2000,"station_id":"ce4bgl92rcd13ifvqbq0","pricing_plan_id":"cebpf4jnsgd1na2vs0mg"},{"bike_id":"eb6298f3-da23-4583-904d-84a7d9251bb0","system_id":"levelo_inurba_marseille","lat":43.29628,"lon":5.4057,"is_reserved":false,"is_disabled":true,"rental_uris":{"android":"levelo://app?vid=eb6298f3-da23-4583-904d-84a7d9251bb0","ios":"levelo://app?vid=eb6298f3-da23-4583-904d-84a7d9251bb0"},"vehicle_type_id":"4","last_reported":1751516611,"current_range_meters":2000,"station_id":"ce4bh0h2rcd13ifvqd60","pricing_plan_id":"cebpf4jnsgd1na2vs0mg"},{"bike_id":"c3ad5189-d652-438e-b937-26ef8f65dfd8","system_id":"levelo_inurba_marseille","lat":43.24185,"lon":5.39728,"is_reserved":false,"is_disabled":false,"rental_uris":{"android":"levelo://app?vid=c3ad5189-d652-438e-b937-26ef8f65dfd8","ios":"levelo://app?vid=c3ad5189-d652-438e-b937-26ef8f65dfd8"},"vehicle_type_id":"4","last_reported":1751516611,"current_range_meters":3200,"station_id":"ce4bhn12rcd13ifvqgpg","pricing_plan_id":"cebpf4jnsgd1na2vs0mg"},{"bike_id":"68b2349c-6f12-4221-a715-e2c4004b49b1","system_id":"levelo_inurba_marseille","lat":43.30329,"lon":5.40444,"is_reserved":false,"is_disabled":false,"rental_uris":{"android":"levelo://app?vid=68b2349c-6f12-4221-a715-e2c4004b49b1","ios":"levelo://app?vid=68b2349c-6f12-4221-a715-e2c4004b49b1"},"vehicle_type_id":"4","last_reported":1751516611,"current_range_meters":3600,"station_id":"ce4bh012rcd13ifvqd10","pricing_plan_id":"cebpf4jnsgd1na2vs0mg"},{"bike_id":"67eac50a-b8f2-4996-9685-42cf162dfccf","system_id":"levelo_inurba_marseille","lat":43.23178,"lon":5.39993,"is_reserved":false,"is_disabled":false,"rental_uris":{"android":"levelo://app?vid=67eac50a-b8f2-4996-9685-42cf162dfccf","ios":"levelo://app?vid=67eac50a-b8f2-4996-9685-42cf162dfccf"},"vehicle_type_id":"4","last_reported":1751516611,"current_range_meters":4000,"station_id":"ce4bhn12rcd13ifvqgqg","pricing_plan_id":"cebpf4jnsgd1na2vs0mg"},{"bike_id":"e11d94e3-dfd9-44c6-a2a8-4a3067f15209","system_id":"levelo_inurba_marseille","lat":43.30883,"lon":5.39646,"is_reserved":false,"is_disabled":false,"rental_uris":{"android":"levelo://app?vid=e11d94e3-dfd9-44c6-a2a8-4a3067f15209","ios":"levelo://app?vid=e11d94e3-dfd9-44c6-a2a8-4a3067f15209"},"vehicle_type_id":"4","last_reported":1751516611,"current_range_meters":5600,"station_id":"ce4bh012rcd13ifvqcv0","pricing_plan_id":"cebpf4jnsgd1na2vs0mg"},{"bike_id":"29c5ba0f-727f-4a5f-a809-9108e5a801e9","system_id":"levelo_inurba_marseille","lat":43.30608,"lon":5.37207,"is_reserved":false,"is_disabled":false,"rental_uris":{"android":"levelo://app?vid=29c5ba0f-727f-4a5f-a809-9108e5a801e9","ios":"levelo://app?vid=29c5ba0f-727f-4a5f-a809-9108e5a801e9"},"vehicle_type_id":"4","last_reported":1751516611,"current_range_meters":6400,"station_id":"ce4bgqh2rcd13ifvqc4g","pricing_plan_id":"cebpf4jnsgd1na2vs0mg"},{"bike_id":"a98e9b2e-2cd7-455a-b4d2-274d7e49192f","system_id":"levelo_inurba_marseille","lat":43.31329,"lon":5.39723,"is_reserved":false,"is_disabled":false,"rental_uris":{"android":"levelo://app?vid=a98e9b2e-2cd7-455a-b4d2-274d7e49192f","ios":"levelo://app?vid=a98e9b2e-2cd7-455a-b4d2-274d7e49192f"},"vehicle_type_id":"4","last_reported":1751516611,"current_range_meters":6400,"station_id":"ce4bgvp2rcd13ifvqcu0","pricing_plan_id":"cebpf4jnsgd1na2vs0mg"},{"bike_id":"8becf1b9-b72c-4763-a062-bbd587ae45bf","system_id":"levelo_inurba_marseille","lat":43.3261,"lon":5.42539,"is_reserved":false,"is_disabled":false,"rental_uris":{"android":"levelo://app?vid=8becf1b9-b72c-4763-a062-bbd587ae45bf","ios":"levelo://app?vid=8becf1b9-b72c-4763-a062-bbd587ae45bf"},"vehicle_type_id":"4","last_reported":1751516611,"current_range_meters":6800,"station_id":"","pricing_plan_id":"cebpf4jnsgd1na2vs0mg"},{"bike_id":"00f27420-e69d-44a0-a520-8d7cb86ba805","system_id":"levelo_inurba_marseille","lat":43.29699,"lon":5.37701,"is_reserved":false,"is_disabled":false,"rental_uris":{"android":"levelo://app?vid=00f27420-e69d-44a0-a520-8d7cb86ba805","ios":"levelo://app?vid=00f27420-e69d-44a0-a520-8d7cb86ba805"},"vehicle_type_id":"4","last_reported":1751516611,"current_range_meters":6800,"station_id":"ce4bgkh2rcd13ifvqbl0","pricing_plan_id":"cebpf4jnsgd1na2vs0mg"},{"bike_id":"532c027a-f8aa-4416-9c81-2664585db79f","system_id":"levelo_inurba_marseille","lat":43.262221,"lon":5.374459,"is_reserved":false,"is_disabled":false,"rental_uris":{"android":"levelo://app?vid=532c027a-f8aa-4416-9c81-2664585db79f","ios":"levelo://app?vid=532c027a-f8aa-4416-9c81-2664585db79f"},"vehicle_type_id":"4","last_reported":1751516611,"current_range_meters":6800,"station_id":"ce4bhb12rcd13ifvqel0","pricing_plan_id":"cebpf4jnsgd1na2vs0mg"},{"bike_id":"9610e57b-e24c-4c16-838c-092b893b30dc","system_id":"levelo_inurba_marseille","lat":43.217496,"lon":5.346024,"is_reserved":false,"is_disabled":false,"rental_uris":{"android":"levelo://app?vid=9610e57b-e24c-4c16-838c-092b893b30dc","ios":"levelo://app?vid=9610e57b-e24c-4c16-838c-092b893b30dc"},"vehicle_type_id":"4","last_reported":1751516611,"current_range_meters":6800,"station_id":"st_cvj6r9ubvosntc0bgbag","pricing_plan_id":"cebpf4jnsgd1na2vs0mg"},{"bike_id":"c15d4dc3-b152-4393-8b56-5b90c42e93e7","system_id":"levelo_inurba_marseille","lat":43.30436,"lon":5.38877,"is_reserved":false,"is_disabled":false,"rental_uris":{"android":"levelo://app?vid=c15d4dc3-b152-4393-8b56-5b90c42e93e7","ios":"levelo://app?vid=c15d4dc3-b152-4393-8b56-5b90c42e93e7"},"vehicle_type_id":"4","last_reported":1751516611,"current_range_meters":7200,"station_id":"ce4bgk12rcd13ifvqbi0","pricing_plan_id":"cebpf4jnsgd1na2vs0mg"},{"bike_id":"88f0d88a-1dec-4977-a19a-71293da7fba4","system_id":"levelo_inurba_marseille","lat":43.323815,"lon":5.367677,"is_reserved":false,"is_disabled":false,"rental_uris":{"android":"levelo://app?vid=88f0d88a-1dec-4977-a19a-71293da7fba4","ios":"levelo://app?vid=88f0d88a-1dec-4977-a19a-71293da7fba4"},"vehicle_type_id":"4","last_reported":1751516611,"current_range_meters":8000,"station_id":"ce4bhsh2rcd13ifvqi2g","pricing_plan_id":"cebpf4jnsgd1na2vs0mg"},{"bike_id":"3fbceb20-d877-411e-a90d-f13a05e02fc6","system_id":"levelo_inurba_marseille","lat":43.303377,"lon":5.378857,"is_reserved":false,"is_disabled":false,"rental_uris":{"android":"levelo://app?vid=3fbceb20-d877-411e-a90d-f13a05e02fc6","ios":"levelo://app?vid=3fbceb20-d877-411e-a90d-f13a05e02fc6"},"vehicle_type_id":"4","last_reported":1751516611,"current_range_meters":8400,"station_id":"","pricing_plan_id":"cebpf4jnsgd1na2vs0mg"},{"bike_id":"3c911295-c607-40e9-afbb-e93f1d4bd30f","system_id":"levelo_inurba_marseille","lat":43.25001,"lon":5.3892,"is_reserved":false,"is_disabled":false,"rental_uris":{"android":"levelo://app?vid=3c911295-c607-40e9-afbb-e93f1d4bd30f","ios":"levelo://app?vid=3c911295-c607-40e9-afbb-e93f1d4bd30f"},"vehicle_type_id":"4","last_reported":1751516611,"current_range_meters":8400,"station_id":"ce4bhgp2rcd13ifvqfd0","pricing_plan_id":"cebpf4jnsgd1na2vs0mg"},{"bike_id":"eb6f172f-68c2-4fbc-b984-276818caa76a","system_id":"levelo_inurba_marseille","lat":43.29319,"lon":5.43898,"is_reserved":false,"is_disabled":false,"rental_uris":{"android":"levelo://app?vid=eb6f172f-68c2-4fbc-b984-276818caa76a","ios":"levelo://app?vid=eb6f172f-68c2-4fbc-b984-276818caa76a"},"vehicle_type_id":"4","last_reported":1751516611,"current_range_meters":9200,"station_id":"","pricing_plan_id":"cebpf4jnsgd1na2vs0mg"},{"bike_id":"51474fa3-cca8-4bfc-bfe2-fc407f487c0c","system_id":"levelo_inurba_marseille","lat":43.30597,"lon":5.37208,"is_reserved":false,"is_disabled":false,"rental_uris":{"android":"levelo://app?vid=51474fa3-cca8-4bfc-bfe2-fc407f487c0c","ios":"levelo://app?vid=51474fa3-cca8-4bfc-bfe2-fc407f487c0c"},"vehicle_type_id":"4","last_reported":1751516611,"current_range_meters":9200,"station_id":"ce4bgqh2rcd13ifvqc4g","pricing_plan_id":"cebpf4jnsgd1na2vs0mg"},{"bike_id":"b07fad8c-ce8c-40b7-8c9c-96c9583ea3b1","system_id":"levelo_inurba_marseille","lat":43.3046,"lon":5.37909,"is_reserved":false,"is_disabled":false,"rental_uris":{"android":"levelo://app?vid=b07fad8c-ce8c-40b7-8c9c-96c9583ea3b1","ios":"levelo://app?vid=b07fad8c-ce8c-40b7-8c9c-96c9583ea3b1"},"vehicle_type_id":"4","last_reported":1751516611,"current_range_meters":9200,"station_id":"ce4bgup2rcd13ifvqcn0","pricing_plan_id":"cebpf4jnsgd1na2vs0mg"},{"bike_id":"8ad00ccc-3ccb-493b-a2b4-49cd4dd94c33","system_id":"levelo_inurba_marseille","lat":43.217547,"lon":5.346113,"is_reserved":false,"is_disabled":false,"rental_uris":{"android":"levelo://app?vid=8ad00ccc-3ccb-493b-a2b4-49cd4dd94c33","ios":"levelo://app?vid=8ad00ccc-3ccb-493b-a2b4-49cd4dd94c33"},"vehicle_type_id":"4","last_reported":1751516611,"current_range_meters":9200,"station_id":"st_cvj6r9ubvosntc0bgbag","pricing_plan_id":"cebpf4jnsgd1na2vs0mg"},{"bike_id":"77a8aa44-ccc3-4411-92e2-24abedbedb2c","system_id":"levelo_inurba_marseille","lat":43.28868,"lon":5.39314,"is_reserved":false,"is_disabled":false,"rental_uris":{"android":"levelo://app?vid=77a8aa44-ccc3-4411-92e2-24abedbedb2c","ios":"levelo://app?vid=77a8aa44-ccc3-4411-92e2-24abedbedb2c"},"vehicle_type_id":"4","last_reported":1751516611,"current_range_meters":9600,"station_id":"ce4bh2p2rcd13ifvqdi0","pricing_plan_id":"cebpf4jnsgd1na2vs0mg"},{"bike_id":"eb39a9a0-4fa6-44a4-b44e-fca77c526f7a","system_id":"levelo_inurba_marseille","lat":43.283515,"lon":5.38103,"is_reserved":false,"is_disabled":false,"rental_uris":{"android":"levelo://app?vid=eb39a9a0-4fa6-44a4-b44e-fca77c526f7a","ios":"levelo://app?vid=eb39a9a0-4fa6-44a4-b44e-fca77c526f7a"},"vehicle_type_id":"4","last_reported":1751516611,"current_range_meters":9600,"station_id":"ce4bh412rcd13ifvqdr0","pricing_plan_id":"cebpf4jnsgd1na2vs0mg"},{"bike_id":"13f4b965-89f7-4a4f-8624-7f42ad9ce8bd","system_id":"levelo_inurba_marseille","lat":43.302779,"lon":5.392295,"is_reserved":false,"is_disabled":false,"rental_uris":{"android":"levelo://app?vid=13f4b965-89f7-4a4f-8624-7f42ad9ce8bd","ios":"levelo://app?vid=13f4b965-89f7-4a4f-8624-7f42ad9ce8bd"},"vehicle_type_id":"4","last_reported":1751516611,"current_range_meters":10000,"station_id":"ce4bgkh2rcd13ifvqbk0","pricing_plan_id":"cebpf4jnsgd1na2vs0mg"},{"bike_id":"5508769a-e540-4ee2-a165-4ca58bfaffab","system_id":"levelo_inurba_marseille","lat":43.302954,"lon":5.392145,"is_reserved":false,"is_disabled":false,"rental_uris":{"android":"levelo://app?vid=5508769a-e540-4ee2-a165-4ca58bfaffab","ios":"levelo://app?vid=5508769a-e540-4ee2-a165-4ca58bfaffab"},"vehicle_type_id":"4","last_reported":1751516611,"current_range_meters":10000,"station_id":"ce4bgkh2rcd13ifvqbk0","pricing_plan_id":"cebpf4jnsgd1na2vs0mg"},{"bike_id":"53eab548-c9ae-4b06-bcf9-65448b096482","system_id":"levelo_inurba_marseille","lat":43.28864,"lon":5.39303,"is_reserved":false,"is_disabled":false,"rental_uris":{"android":"levelo://app?vid=53eab548-c9ae-4b06-bcf9-65448b096482","ios":"levelo://app?vid=53eab548-c9ae-4b06-bcf9-65448b096482"},"vehicle_type_id":"4","last_reported":1751516611,"current_range_meters":10000,"station_id":"ce4bh2p2rcd13ifvqdi0","pricing_plan_id":"cebpf4jnsgd1na2vs0mg"},{"bike_id":"de4790f9-a731-4d5f-9aa3-a4b1d4df22af","system_id":"levelo_inurba_marseille","lat":43.29441,"lon":5.39751,"is_reserved":false,"is_disabled":false,"rental_uris":{"android":"levelo://app?vid=de4790f9-a731-4d5f-9aa3-a4b1d4df22af","ios":"levelo://app?vid=de4790f9-a731-4d5f-9aa3-a4b1d4df22af"},"vehicle_type_id":"4","last_reported":1751516611,"current_range_meters":10000,"station_id":"ce4bh3h2rcd13ifvqdo0","pricing_plan_id":"cebpf4jnsgd1na2vs0mg"},{"bike_id":"b28aa0a0-791c-4a08-9a16-c7bf6ea0ed5a","system_id":"levelo_inurba_marseille","lat":43.22506,"lon":5.34772,"is_reserved":false,"is_disabled":false,"rental_uris":{"android":"levelo://app?vid=b28aa0a0-791c-4a08-9a16-c7bf6ea0ed5a","ios":"levelo://app?vid=b28aa0a0-791c-4a08-9a16-c7bf6ea0ed5a"},"vehicle_type_id":"4","last_reported":1751516611,"current_range_meters":10000,"station_id":"st_cvj5dfep6f1abm77gieg","pricing_plan_id":"cebpf4jnsgd1na2vs0mg"},{"bike_id":"bf00a211-3496-4df0-8e4e-99767047ca09","system_id":"levelo_inurba_marseille","lat":43.29971,"lon":5.376,"is_reserved":false,"is_disabled":false,"rental_uris":{"android":"levelo://app?vid=bf00a211-3496-4df0-8e4e-99767047ca09","ios":"levelo://app?vid=bf00a211-3496-4df0-8e4e-99767047ca09"},"vehicle_type_id":"4","last_reported":1751516611,"current_range_meters":10800,"station_id":"","pricing_plan_id":"cebpf4jnsgd1na2vs0mg"},{"bike_id":"15685ff9-4ea7-4801-9755-adfa9b50a352","system_id":"levelo_inurba_marseille","lat":43.304333,"lon":5.388893,"is_reserved":false,"is_disabled":false,"rental_uris":{"android":"levelo://app?vid=15685ff9-4ea7-4801-9755-adfa9b50a352","ios":"levelo://app?vid=15685ff9-4ea7-4801-9755-adfa9b50a352"},"vehicle_type_id":"4","last_reported":1751516611,"current_range_meters":10800,"station_id":"ce4bgk12rcd13ifvqbi0","pricing_plan_id":"cebpf4jnsgd1na2vs0mg"},{"bike_id":"6f187575-31af-4e1c-b0e1-6d77c6f2f751","system_id":"levelo_inurba_marseille","lat":43.286628,"lon":5.386752,"is_reserved":false,"is_disabled":false,"rental_uris":{"android":"levelo://app?vid=6f187575-31af-4e1c-b0e1-6d77c6f2f751","ios":"levelo://app?vid=6f187575-31af-4e1c-b0e1-6d77c6f2f751"},"vehicle_type_id":"4","last_reported":1751516611,"current_range_meters":10800,"station_id":"ce4bh492rcd13ifvqdug","pricing_plan_id":"cebpf4jnsgd1na2vs0mg"},{"bike_id":"ae698825-2b59-4495-8ad5-6cc2b8bb90e6","system_id":"levelo_inurba_marseille","lat":43.271853,"lon":5.409918,"is_reserved":false,"is_disabled":false,"rental_uris":{"android":"levelo://app?vid=ae698825-2b59-4495-8ad5-6cc2b8bb90e6","ios":"levelo://app?vid=ae698825-2b59-4495-8ad5-6cc2b8bb90e6"},"vehicle_type_id":"4","last_reported":1751516611,"current_range_meters":10800,"station_id":"ce4bhl12rcd13ifvqgf0","pricing_plan_id":"cebpf4jnsgd1na2vs0mg"},{"bike_id":"14291010-175d-42f0-a4a5-2d79bae5a826","system_id":"levelo_inurba_marseille","lat":43.25087,"lon":5.39501,"is_reserved":false,"is_disabled":false,"rental_uris":{"android":"levelo://app?vid=14291010-175d-42f0-a4a5-2d79bae5a826","ios":"levelo://app?vid=14291010-175d-42f0-a4a5-2d79bae5a826"},"vehicle_type_id":"4","last_reported":1751516611,"current_range_meters":10800,"station_id":"ce4bhm12rcd13ifvqgkg","pricing_plan_id":"cebpf4jnsgd1na2vs0mg"},{"bike_id":"f5469626-344e-4334-9049-486e9f34a090","system_id":"levelo_inurba_marseille","lat":43.321097,"lon":5.367786,"is_reserved":false,"is_disabled":false,"rental_uris":{"android":"levelo://app?vid=f5469626-344e-4334-9049-486e9f34a090","ios":"levelo://app?vid=f5469626-344e-4334-9049-486e9f34a090"},"vehicle_type_id":"4","last_reported":1751516611,"current_range_meters":10800,"station_id":"ce4bhrh2rcd13ifvqhug","pricing_plan_id":"cebpf4jnsgd1na2vs0mg"},{"bike_id":"7e62b058-a7ed-4634-80f1-04d3de596de7","system_id":"levelo_inurba_marseille","lat":43.29848,"lon":5.36808,"is_reserved":false,"is_disabled":false,"rental_uris":{"android":"levelo://app?vid=7e62b058-a7ed-4634-80f1-04d3de596de7","ios":"levelo://app?vid=7e62b058-a7ed-4634-80f1-04d3de596de7"},"vehicle_type_id":"4","last_reported":1751516611,"current_range_meters":11200,"station_id":"","pricing_plan_id":"cebpf4jnsgd1na2vs0mg"},{"bike_id":"e26ba497-efc7-4420-b8c5-9fa5e27f2ce4","system_id":"levelo_inurba_marseille","lat":43.31346,"lon":5.37061,"is_reserved":false,"is_disabled":false,"rental_uris":{"android":"levelo://app?vid=e26ba497-efc7-4420-b8c5-9fa5e27f2ce4","ios":"levelo://app?vid=e26ba497-efc7-4420-b8c5-9fa5e27f2ce4"},"vehicle_type_id":"4","last_reported":1751516611,"current_range_meters":11200,"station_id":"","pricing_plan_id":"cebpf4jnsgd1na2vs0mg"},{"bike_id":"cb82481d-3fdd-44c6-a6dd-53e8df93963e","system_id":"levelo_inurba_marseille","lat":43.28418,"lon":5.37516,"is_reserved":false,"is_disabled":false,"rental_uris":{"android":"levelo://app?vid=cb82481d-3fdd-44c6-a6dd-53e8df93963e","ios":"levelo://app?vid=cb82481d-3fdd-44c6-a6dd-53e8df93963e"},"vehicle_type_id":"4","last_reported":1751516611,"current_range_meters":11200,"station_id":"ce4bh412rcd13ifvqds0","pricing_plan_id":"cebpf4jnsgd1na2vs0mg"},{"bike_id":"bbd9d48f-0f1e-446b-8873-48cd4909c43d","system_id":"levelo_inurba_marseille","lat":43.246672,"lon":5.381663,"is_reserved":false,"is_disabled":false,"rental_uris":{"android":"levelo://app?vid=bbd9d48f-0f1e-446b-8873-48cd4909c43d","ios":"levelo://app?vid=bbd9d48f-0f1e-446b-8873-48cd4909c43d"},"vehicle_type_id":"4","last_reported":1751516611,"current_range_meters":11600,"station_id":"ce4bhih2rcd13ifvqfr0","pricing_plan_id":"cebpf4jnsgd1na2vs0mg"},{"bike_id":"56eb3fdf-ea87-4fcf-85df-3680fa66363e","system_id":"levelo_inurba_marseille","lat":43.22508,"lon":5.34771,"is_reserved":false,"is_disabled":false,"rental_uris":{"android":"levelo://app?vid=56eb3fdf-ea87-4fcf-85df-3680fa66363e","ios":"levelo://app?vid=56eb3fdf-ea87-4fcf-85df-3680fa66363e"},"vehicle_type_id":"4","last_reported":1751516611,"current_range_meters":11600,"station_id":"st_cvj5dfep6f1abm77gieg","pricing_plan_id":"cebpf4jnsgd1na2vs0mg"},{"bike_id":"bcfd0eda-b9ab-4bec-9ca3-3f2b86617415","system_id":"levelo_inurba_marseille","lat":43.21195,"lon":5.35056,"is_reserved":false,"is_disabled":false,"rental_uris":{"android":"levelo://app?vid=bcfd0eda-b9ab-4bec-9ca3-3f2b86617415","ios":"levelo://app?vid=bcfd0eda-b9ab-4bec-9ca3-3f2b86617415"},"vehicle_type_id":"4","last_reported":1751516611,"current_range_meters":11600,"station_id":"st_cvj6sg6p6f1abm77japg","pricing_plan_id":"cebpf4jnsgd1na2vs0mg"},{"bike_id":"86fd042d-abe6-479d-898f-b89fd2a6489d","system_id":"levelo_inurba_marseille","lat":43.30809,"lon":5.38138,"is_reserved":false,"is_disabled":false,"rental_uris":{"android":"levelo://app?vid=86fd042d-abe6-479d-898f-b89fd2a6489d","ios":"levelo://app?vid=86fd042d-abe6-479d-898f-b89fd2a6489d"},"vehicle_type_id":"4","last_reported":1751516611,"current_range_meters":12000,"station_id":"ce4bgt12rcd13ifvqce0","pricing_plan_id":"cebpf4jnsgd1na2vs0mg"},{"bike_id":"0b5d4e28-db7b-4217-89df-aa4122a89a01","system_id":"levelo_inurba_marseille","lat":43.30641,"lon":5.40082,"is_reserved":false,"is_disabled":false,"rental_uris":{"android":"levelo://app?vid=0b5d4e28-db7b-4217-89df-aa4122a89a01","ios":"levelo://app?vid=0b5d4e28-db7b-4217-89df-aa4122a89a01"},"vehicle_type_id":"4","last_reported":1751516611,"current_range_meters":12000,"station_id":"ce4bh112rcd13ifvqda0","pricing_plan_id":"cebpf4jnsgd1na2vs0mg"},{"bike_id":"38bac79f-e35b-4649-a124-62df32b2dd19","system_id":"levelo_inurba_marseille","lat":43.31172,"lon":5.38701,"is_reserved":false,"is_disabled":false,"rental_uris":{"android":"levelo://app?vid=38bac79f-e35b-4649-a124-62df32b2dd19","ios":"levelo://app?vid=38bac79f-e35b-4649-a124-62df32b2dd19"},"vehicle_type_id":"4","last_reported":1751516611,"current_range_meters":12400,"station_id":"ce4bgv12rcd13ifvqcp0","pricing_plan_id":"cebpf4jnsgd1na2vs0mg"},{"bike_id":"17ad145c-f881-4017-969d-c8638a36a818","system_id":"levelo_inurba_marseille","lat":43.26554,"lon":5.38966,"is_reserved":false,"is_disabled":false,"rental_uris":{"android":"levelo://app?vid=17ad145c-f881-4017-969d-c8638a36a818","ios":"levelo://app?vid=17ad145c-f881-4017-969d-c8638a36a818"},"vehicle_type_id":"4","last_reported":1751516611,"current_range_meters":12400,"station_id":"ce4bhe12rcd13ifvqf30","pricing_plan_id":"cebpf4jnsgd1na2vs0mg"},{"bike_id":"110be0f7-19b6-4419-935c-8afdb1f29359","system_id":"levelo_inurba_marseille","lat":43.21191,"lon":5.35052,"is_reserved":false,"is_disabled":false,"rental_uris":{"android":"levelo://app?vid=110be0f7-19b6-4419-935c-8afdb1f29359","ios":"levelo://app?vid=110be0f7-19b6-4419-935c-8afdb1f29359"},"vehicle_type_id":"4","last_reported":1751516611,"current_range_meters":12400,"station_id":"st_cvj6sg6p6f1abm77japg","pricing_plan_id":"cebpf4jnsgd1na2vs0mg"},{"bike_id":"7e0f75b3-8986-4c62-836b-8e50bf158139","system_id":"levelo_inurba_marseille","lat":43.31166,"lon":5.387098,"is_reserved":false,"is_disabled":false,"rental_uris":{"android":"levelo://app?vid=7e0f75b3-8986-4c62-836b-8e50bf158139","ios":"levelo://app?vid=7e0f75b3-8986-4c62-836b-8e50bf158139"},"vehicle_type_id":"4","last_reported":1751516611,"current_range_meters":12800,"station_id":"ce4bgv12rcd13ifvqcp0","pricing_plan_id":"cebpf4jnsgd1na2vs0mg"},{"bike_id":"9f4d3d14-e470-4ede-baac-761a7ff86bea","system_id":"levelo_inurba_marseille","lat":43.298698,"lon":5.397317,"is_reserved":false,"is_disabled":false,"rental_uris":{"android":"levelo://app?vid=9f4d3d14-e470-4ede-baac-761a7ff86bea","ios":"levelo://app?vid=9f4d3d14-e470-4ede-baac-761a7ff86bea"},"vehicle_type_id":"4","last_reported":1751516611,"current_range_meters":12800,"station_id":"ce4bh0h2rcd13ifvqd50","pricing_plan_id":"cebpf4jnsgd1na2vs0mg"},{"bike_id":"6a785a02-909e-4d8a-8794-668155cdebef","system_id":"levelo_inurba_marseille","lat":43.30613,"lon":5.40115,"is_reserved":false,"is_disabled":false,"rental_uris":{"android":"levelo://app?vid=6a785a02-909e-4d8a-8794-668155cdebef","ios":"levelo://app?vid=6a785a02-909e-4d8a-8794-668155cdebef"},"vehicle_type_id":"4","last_reported":1751516611,"current_range_meters":12800,"station_id":"ce4bh112rcd13ifvqda0","pricing_plan_id":"cebpf4jnsgd1na2vs0mg"},{"bike_id":"cddb755d-9d08-4d89-99d2-63d130e463ab","system_id":"levelo_inurba_marseille","lat":43.27181,"lon":5.4099,"is_reserved":false,"is_disabled":false,"rental_uris":{"android":"levelo://app?vid=cddb755d-9d08-4d89-99d2-63d130e463ab","ios":"levelo://app?vid=cddb755d-9d08-4d89-99d2-63d130e463ab"},"vehicle_type_id":"4","last_reported":1751516611,"current_range_meters":12800,"station_id":"ce4bhl12rcd13ifvqgf0","pricing_plan_id":"cebpf4jnsgd1na2vs0mg"},{"bike_id":"e5083142-f0d3-48ba-8ecd-37fdc0440456","system_id":"levelo_inurba_marseille","lat":43.279463,"lon":5.410415,"is_reserved":false,"is_disabled":false,"rental_uris":{"android":"levelo://app?vid=e5083142-f0d3-48ba-8ecd-37fdc0440456","ios":"levelo://app?vid=e5083142-f0d3-48ba-8ecd-37fdc0440456"},"vehicle_type_id":"4","last_reported":1751516611,"current_range_meters":12800,"station_id":"ce4bhnp2rcd13ifvqh0g","pricing_plan_id":"cebpf4jnsgd1na2vs0mg"},{"bike_id":"e36eeb04-35cc-4a52-97d7-6ba58bfe555b","system_id":"levelo_inurba_marseille","lat":43.29545,"lon":5.42302,"is_reserved":false,"is_disabled":false,"rental_uris":{"android":"levelo://app?vid=e36eeb04-35cc-4a52-97d7-6ba58bfe555b","ios":"levelo://app?vid=e36eeb04-35cc-4a52-97d7-6ba58bfe555b"},"vehicle_type_id":"4","last_reported":1751516611,"current_range_meters":12800,"station_id":"ce4bhph2rcd13ifvqhdg","pricing_plan_id":"cebpf4jnsgd1na2vs0mg"},{"bike_id":"7c38c8fe-6ed1-47b1-b201-3f5fcd5e6bc1","system_id":"levelo_inurba_marseille","lat":43.32543,"lon":5.41434,"is_reserved":false,"is_disabled":false,"rental_uris":{"android":"levelo://app?vid=7c38c8fe-6ed1-47b1-b201-3f5fcd5e6bc1","ios":"levelo://app?vid=7c38c8fe-6ed1-47b1-b201-3f5fcd5e6bc1"},"vehicle_type_id":"4","last_reported":1751516611,"current_range_meters":12800,"station_id":"ce4bhq12rcd13ifvqhhg","pricing_plan_id":"cebpf4jnsgd1na2vs0mg"},{"bike_id":"116a65fd-ba85-4855-b765-b1c858ee38ca","system_id":"levelo_inurba_marseille","lat":43.297895,"lon":5.393426,"is_reserved":false,"is_disabled":false,"rental_uris":{"android":"levelo://app?vid=116a65fd-ba85-4855-b765-b1c858ee38ca","ios":"levelo://app?vid=116a65fd-ba85-4855-b765-b1c858ee38ca"},"vehicle_type_id":"4","last_reported":1751516611,"current_range_meters":12800,"station_id":"chh1huq6cuj3fo74tm60","pricing_plan_id":"cebpf4jnsgd1na2vs0mg"},{"bike_id":"959e6f20-8ed0-4d36-bc1d-3efb82d6190b","system_id":"levelo_inurba_marseille","lat":43.21197,"lon":5.35067,"is_reserved":false,"is_disabled":false,"rental_uris":{"android":"levelo://app?vid=959e6f20-8ed0-4d36-bc1d-3efb82d6190b","ios":"levelo://app?vid=959e6f20-8ed0-4d36-bc1d-3efb82d6190b"},"vehicle_type_id":"4","last_reported":1751516611,"current_range_meters":12800,"station_id":"st_cvj6sg6p6f1abm77japg","pricing_plan_id":"cebpf4jnsgd1na2vs0mg"},{"bike_id":"16a8afe6-e43e-4d1b-a7bd-ed83d113735a","system_id":"levelo_inurba_marseille","lat":43.32436,"lon":5.41185,"is_reserved":false,"is_disabled":false,"rental_uris":{"android":"levelo://app?vid=16a8afe6-e43e-4d1b-a7bd-ed83d113735a","ios":"levelo://app?vid=16a8afe6-e43e-4d1b-a7bd-ed83d113735a"},"vehicle_type_id":"4","last_reported":1751516611,"current_range_meters":13600,"station_id":"","pricing_plan_id":"cebpf4jnsgd1na2vs0mg"},{"bike_id":"fe16e5d6-c086-4644-bea1-4f57a2866519","system_id":"levelo_inurba_marseille","lat":43.28564,"lon":5.35064,"is_reserved":false,"is_disabled":false,"rental_uris":{"android":"levelo://app?vid=fe16e5d6-c086-4644-bea1-4f57a2866519","ios":"levelo://app?vid=fe16e5d6-c086-4644-bea1-4f57a2866519"},"vehicle_type_id":"4","last_reported":1751516611,"current_range_meters":13600,"station_id":"","pricing_plan_id":"cebpf4jnsgd1na2vs0mg"},{"bike_id":"86c086a3-4857-4ae9-ae7a-3dbbd4fee659","system_id":"levelo_inurba_marseille","lat":43.25106,"lon":5.40317,"is_reserved":false,"is_disabled":false,"rental_uris":{"android":"levelo://app?vid=86c086a3-4857-4ae9-ae7a-3dbbd4fee659","ios":"levelo://app?vid=86c086a3-4857-4ae9-ae7a-3dbbd4fee659"},"vehicle_type_id":"4","last_reported":1751516611,"current_range_meters":13600,"station_id":"ce4bhlh2rcd13ifvqgig","pricing_plan_id":"cebpf4jnsgd1na2vs0mg"},{"bike_id":"64bb485e-0856-48ce-befe-bde5a394f93d","system_id":"levelo_inurba_marseille","lat":43.27628,"lon":5.38854,"is_reserved":false,"is_disabled":false,"rental_uris":{"android":"levelo://app?vid=64bb485e-0856-48ce-befe-bde5a394f93d","ios":"levelo://app?vid=64bb485e-0856-48ce-befe-bde5a394f93d"},"vehicle_type_id":"4","last_reported":1751516611,"current_range_meters":14000,"station_id":"","pricing_plan_id":"cebpf4jnsgd1na2vs0mg"},{"bike_id":"fafbe326-302a-4202-bb0b-b153f943e377","system_id":"levelo_inurba_marseille","lat":43.25937,"lon":5.40903,"is_reserved":false,"is_disabled":false,"rental_uris":{"android":"levelo://app?vid=fafbe326-302a-4202-bb0b-b153f943e377","ios":"levelo://app?vid=fafbe326-302a-4202-bb0b-b153f943e377"},"vehicle_type_id":"4","last_reported":1751516611,"current_range_meters":14000,"station_id":"ce4bhm92rcd13ifvqglg","pricing_plan_id":"cebpf4jnsgd1na2vs0mg"},{"bike_id":"09a94feb-8911-4d3d-9f22-a7f611710ea1","system_id":"levelo_inurba_marseille","lat":43.21193,"lon":5.35076,"is_reserved":false,"is_disabled":false,"rental_uris":{"android":"levelo://app?vid=09a94feb-8911-4d3d-9f22-a7f611710ea1","ios":"levelo://app?vid=09a94feb-8911-4d3d-9f22-a7f611710ea1"},"vehicle_type_id":"4","last_reported":1751516611,"current_range_meters":14000,"station_id":"st_cvj6sg6p6f1abm77japg","pricing_plan_id":"cebpf4jnsgd1na2vs0mg"},{"bike_id":"a011bf6f-5b73-42df-b628-b2dcf5029277","system_id":"levelo_inurba_marseille","lat":43.24179,"lon":5.38487,"is_reserved":false,"is_disabled":false,"rental_uris":{"android":"levelo://app?vid=a011bf6f-5b73-42df-b628-b2dcf5029277","ios":"levelo://app?vid=a011bf6f-5b73-42df-b628-b2dcf5029277"},"vehicle_type_id":"4","last_reported":1751516611,"current_range_meters":14400,"station_id":"","pricing_plan_id":"cebpf4jnsgd1na2vs0mg"},{"bike_id":"5d756fc8-7eff-429b-99d6-f03252413f12","system_id":"levelo_inurba_marseille","lat":43.305951,"lon":5.372171,"is_reserved":false,"is_disabled":false,"rental_uris":{"android":"levelo://app?vid=5d756fc8-7eff-429b-99d6-f03252413f12","ios":"levelo://app?vid=5d756fc8-7eff-429b-99d6-f03252413f12"},"vehicle_type_id":"4","last_reported":1751516611,"current_range_meters":14400,"station_id":"ce4bgqh2rcd13ifvqc4g","pricing_plan_id":"cebpf4jnsgd1na2vs0mg"},{"bike_id":"9dbea238-2ef6-46e4-acce-4271b0047517","system_id":"levelo_inurba_marseille","lat":43.31067,"lon":5.38341,"is_reserved":false,"is_disabled":false,"rental_uris":{"android":"levelo://app?vid=9dbea238-2ef6-46e4-acce-4271b0047517","ios":"levelo://app?vid=9dbea238-2ef6-46e4-acce-4271b0047517"},"vehicle_type_id":"4","last_reported":1751516611,"current_range_meters":14400,"station_id":"ce4bgv92rcd13ifvqcr0","pricing_plan_id":"cebpf4jnsgd1na2vs0mg"},{"bike_id":"0e030323-4386-4e72-9a0d-0f6a2ff539de","system_id":"levelo_inurba_marseille","lat":43.29616,"lon":5.40543,"is_reserved":false,"is_disabled":false,"rental_uris":{"android":"levelo://app?vid=0e030323-4386-4e72-9a0d-0f6a2ff539de","ios":"levelo://app?vid=0e030323-4386-4e72-9a0d-0f6a2ff539de"},"vehicle_type_id":"4","last_reported":1751516611,"current_range_meters":14400,"station_id":"ce4bh0h2rcd13ifvqd60","pricing_plan_id":"cebpf4jnsgd1na2vs0mg"},{"bike_id":"8027ba18-6b68-46ed-810a-bacee77786fd","system_id":"levelo_inurba_marseille","lat":43.28414,"lon":5.37531,"is_reserved":false,"is_disabled":false,"rental_uris":{"android":"levelo://app?vid=8027ba18-6b68-46ed-810a-bacee77786fd","ios":"levelo://app?vid=8027ba18-6b68-46ed-810a-bacee77786fd"},"vehicle_type_id":"4","last_reported":1751516611,"current_range_meters":14400,"station_id":"ce4bh412rcd13ifvqds0","pricing_plan_id":"cebpf4jnsgd1na2vs0mg"},{"bike_id":"6c0d24f1-3c10-4351-9923-09e6da1bd482","system_id":"levelo_inurba_marseille","lat":43.251052,"lon":5.403314,"is_reserved":false,"is_disabled":false,"rental_uris":{"android":"levelo://app?vid=6c0d24f1-3c10-4351-9923-09e6da1bd482","ios":"levelo://app?vid=6c0d24f1-3c10-4351-9923-09e6da1bd482"},"vehicle_type_id":"4","last_reported":1751516611,"current_range_meters":14400,"station_id":"ce4bhlh2rcd13ifvqgig","pricing_plan_id":"cebpf4jnsgd1na2vs0mg"},{"bike_id":"d0ddf138-fe04-4ce2-b7e8-70e6c3b26ca2","system_id":"levelo_inurba_marseille","lat":43.24544,"lon":5.39519,"is_reserved":false,"is_disabled":false,"rental_uris":{"android":"levelo://app?vid=d0ddf138-fe04-4ce2-b7e8-70e6c3b26ca2","ios":"levelo://app?vid=d0ddf138-fe04-4ce2-b7e8-70e6c3b26ca2"},"vehicle_type_id":"4","last_reported":1751516611,"current_range_meters":14400,"station_id":"ce4bhlp2rcd13ifvqgjg","pricing_plan_id":"cebpf4jnsgd1na2vs0mg"},{"bike_id":"9f8ca976-1d33-4202-baf8-9442771dfdb2","system_id":"levelo_inurba_marseille","lat":43.281489,"lon":5.426469,"is_reserved":false,"is_disabled":false,"rental_uris":{"android":"levelo://app?vid=9f8ca976-1d33-4202-baf8-9442771dfdb2","ios":"levelo://app?vid=9f8ca976-1d33-4202-baf8-9442771dfdb2"},"vehicle_type_id":"4","last_reported":1751516611,"current_range_meters":14400,"station_id":"ce4bhnh2rcd13ifvqgug","pricing_plan_id":"cebpf4jnsgd1na2vs0mg"},{"bike_id":"63072e0c-9f69-4913-be48-96789ec98037","system_id":"levelo_inurba_marseille","lat":43.334234,"lon":5.400672,"is_reserved":false,"is_disabled":false,"rental_uris":{"android":"levelo://app?vid=63072e0c-9f69-4913-be48-96789ec98037","ios":"levelo://app?vid=63072e0c-9f69-4913-be48-96789ec98037"},"vehicle_type_id":"4","last_reported":1751516611,"current_range_meters":14800,"station_id":"","pricing_plan_id":"cebpf4jnsgd1na2vs0mg"},{"bike_id":"29cb0c3c-dacf-4851-8a83-db66a6a15b87","system_id":"levelo_inurba_marseille","lat":43.3137,"lon":5.38492,"is_reserved":false,"is_disabled":false,"rental_uris":{"android":"levelo://app?vid=29cb0c3c-dacf-4851-8a83-db66a6a15b87","ios":"levelo://app?vid=29cb0c3c-dacf-4851-8a83-db66a6a15b87"},"vehicle_type_id":"4","last_reported":1751516611,"current_range_meters":14800,"station_id":"ce4bgt92rcd13ifvqcf0","pricing_plan_id":"cebpf4jnsgd1na2vs0mg"},{"bike_id":"727a6581-2cb9-4bdc-a97b-393d560eb464","system_id":"levelo_inurba_marseille","lat":43.2928,"lon":5.40134,"is_reserved":false,"is_disabled":false,"rental_uris":{"android":"levelo://app?vid=727a6581-2cb9-4bdc-a97b-393d560eb464","ios":"levelo://app?vid=727a6581-2cb9-4bdc-a97b-393d560eb464"},"vehicle_type_id":"4","last_reported":1751516611,"current_range_meters":14800,"station_id":"ce4bh312rcd13ifvqdk0","pricing_plan_id":"cebpf4jnsgd1na2vs0mg"},{"bike_id":"b50da02d-1fb5-4383-a93d-332785610080","system_id":"levelo_inurba_marseille","lat":43.21757,"lon":5.34593,"is_reserved":false,"is_disabled":false,"rental_uris":{"android":"levelo://app?vid=b50da02d-1fb5-4383-a93d-332785610080","ios":"levelo://app?vid=b50da02d-1fb5-4383-a93d-332785610080"},"vehicle_type_id":"4","last_reported":1751516611,"current_range_meters":14800,"station_id":"st_cvj6r9ubvosntc0bgbag","pricing_plan_id":"cebpf4jnsgd1na2vs0mg"},{"bike_id":"c10a4283-320d-4e64-8d75-ff83e94026ba","system_id":"levelo_inurba_marseille","lat":43.211903,"lon":5.350723,"is_reserved":false,"is_disabled":false,"rental_uris":{"android":"levelo://app?vid=c10a4283-320d-4e64-8d75-ff83e94026ba","ios":"levelo://app?vid=c10a4283-320d-4e64-8d75-ff83e94026ba"},"vehicle_type_id":"4","last_reported":1751516611,"current_range_meters":14800,"station_id":"st_cvj6sg6p6f1abm77japg","pricing_plan_id":"cebpf4jnsgd1na2vs0mg"},{"bike_id":"8a74f5cd-9efa-4362-bea7-a32db4dcc85c","system_id":"levelo_inurba_marseille","lat":43.21189,"lon":5.35067,"is_reserved":false,"is_disabled":false,"rental_uris":{"android":"levelo://app?vid=8a74f5cd-9efa-4362-bea7-a32db4dcc85c","ios":"levelo://app?vid=8a74f5cd-9efa-4362-bea7-a32db4dcc85c"},"vehicle_type_id":"4","last_reported":1751516611,"current_range_meters":14800,"station_id":"st_cvj6sg6p6f1abm77japg","pricing_plan_id":"cebpf4jnsgd1na2vs0mg"},{"bike_id":"48c7133e-7b27-4462-bb6d-d941ade5c84d","system_id":"levelo_inurba_marseille","lat":43.295655,"lon":5.39961,"is_reserved":false,"is_disabled":false,"rental_uris":{"android":"levelo://app?vid=48c7133e-7b27-4462-bb6d-d941ade5c84d","ios":"levelo://app?vid=48c7133e-7b27-4462-bb6d-d941ade5c84d"},"vehicle_type_id":"4","last_reported":1751516611,"current_range_meters":15200,"station_id":"ce4bh312rcd13ifvqdj0","pricing_plan_id":"cebpf4jnsgd1na2vs0mg"},{"bike_id":"ff42c446-544b-4974-b21b-72ce5c234e88","system_id":"levelo_inurba_marseille","lat":43.29298,"lon":5.40153,"is_reserved":false,"is_disabled":false,"rental_uris":{"android":"levelo://app?vid=ff42c446-544b-4974-b21b-72ce5c234e88","ios":"levelo://app?vid=ff42c446-544b-4974-b21b-72ce5c234e88"},"vehicle_type_id":"4","last_reported":1751516611,"current_range_meters":15200,"station_id":"ce4bh312rcd13ifvqdk0","pricing_plan_id":"cebpf4jnsgd1na2vs0mg"},{"bike_id":"9671bc7e-cfc8-43b8-910b-34586791d9e1","system_id":"levelo_inurba_marseille","lat":43.28432,"lon":5.39194,"is_reserved":false,"is_disabled":false,"rental_uris":{"android":"levelo://app?vid=9671bc7e-cfc8-43b8-910b-34586791d9e1","ios":"levelo://app?vid=9671bc7e-cfc8-43b8-910b-34586791d9e1"},"vehicle_type_id":"4","last_reported":1751516611,"current_range_meters":15200,"station_id":"ce4bhoh2rcd13ifvqh5g","pricing_plan_id":"cebpf4jnsgd1na2vs0mg"},{"bike_id":"8bf0d992-d2a0-428e-940a-091ee9b7c2a4","system_id":"levelo_inurba_marseille","lat":43.21196,"lon":5.35067,"is_reserved":false,"is_disabled":false,"rental_uris":{"android":"levelo://app?vid=8bf0d992-d2a0-428e-940a-091ee9b7c2a4","ios":"levelo://app?vid=8bf0d992-d2a0-428e-940a-091ee9b7c2a4"},"vehicle_type_id":"4","last_reported":1751516611,"current_range_meters":15200,"station_id":"st_cvj6sg6p6f1abm77japg","pricing_plan_id":"cebpf4jnsgd1na2vs0mg"},{"bike_id":"a588469b-12ca-41c6-8c6f-3f3bda5b7f15","system_id":"levelo_inurba_marseille","lat":43.3156,"lon":5.38368,"is_reserved":false,"is_disabled":false,"rental_uris":{"android":"levelo://app?vid=a588469b-12ca-41c6-8c6f-3f3bda5b7f15","ios":"levelo://app?vid=a588469b-12ca-41c6-8c6f-3f3bda5b7f15"},"vehicle_type_id":"4","last_reported":1751516611,"current_range_meters":16000,"station_id":"","pricing_plan_id":"cebpf4jnsgd1na2vs0mg"},{"bike_id":"f1acddb2-bdb2-48cc-a3c3-58e7e9f8eb26","system_id":"levelo_inurba_marseille","lat":43.30934,"lon":5.40149,"is_reserved":false,"is_disabled":false,"rental_uris":{"android":"levelo://app?vid=f1acddb2-bdb2-48cc-a3c3-58e7e9f8eb26","ios":"levelo://app?vid=f1acddb2-bdb2-48cc-a3c3-58e7e9f8eb26"},"vehicle_type_id":"4","last_reported":1751516611,"current_range_meters":16000,"station_id":"ce4bgvp2rcd13ifvqct0","pricing_plan_id":"cebpf4jnsgd1na2vs0mg"},{"bike_id":"d4b50c5c-b23d-491d-9d9f-944efcdab615","system_id":"levelo_inurba_marseille","lat":43.28668,"lon":5.38643,"is_reserved":false,"is_disabled":false,"rental_uris":{"android":"levelo://app?vid=d4b50c5c-b23d-491d-9d9f-944efcdab615","ios":"levelo://app?vid=d4b50c5c-b23d-491d-9d9f-944efcdab615"},"vehicle_type_id":"4","last_reported":1751516611,"current_range_meters":16000,"station_id":"ce4bh492rcd13ifvqdug","pricing_plan_id":"cebpf4jnsgd1na2vs0mg"},{"bike_id":"18974184-022a-4948-a40d-04085271b61f","system_id":"levelo_inurba_marseille","lat":43.31984,"lon":5.38129,"is_reserved":false,"is_disabled":false,"rental_uris":{"android":"levelo://app?vid=18974184-022a-4948-a40d-04085271b61f","ios":"levelo://app?vid=18974184-022a-4948-a40d-04085271b61f"},"vehicle_type_id":"4","last_reported":1751516611,"current_range_meters":16000,"station_id":"ce4bhr12rcd13ifvqhpg","pricing_plan_id":"cebpf4jnsgd1na2vs0mg"},{"bike_id":"912d67f3-78e7-48fd-8929-37f0572cfee4","system_id":"levelo_inurba_marseille","lat":43.26365,"lon":5.37389,"is_reserved":false,"is_disabled":false,"rental_uris":{"android":"levelo://app?vid=912d67f3-78e7-48fd-8929-37f0572cfee4","ios":"levelo://app?vid=912d67f3-78e7-48fd-8929-37f0572cfee4"},"vehicle_type_id":"4","last_reported":1751516611,"current_range_meters":16400,"station_id":"","pricing_plan_id":"cebpf4jnsgd1na2vs0mg"},{"bike_id":"fd91405d-8d3e-4e80-8a37-ce2c5139a070","system_id":"levelo_inurba_marseille","lat":43.29619,"lon":5.38065,"is_reserved":false,"is_disabled":false,"rental_uris":{"android":"levelo://app?vid=fd91405d-8d3e-4e80-8a37-ce2c5139a070","ios":"levelo://app?vid=fd91405d-8d3e-4e80-8a37-ce2c5139a070"},"vehicle_type_id":"4","last_reported":1751516611,"current_range_meters":16400,"station_id":"ce4bgl12rcd13ifvqbo0","pricing_plan_id":"cebpf4jnsgd1na2vs0mg"},{"bike_id":"09fae636-3f69-4553-b897-e1c9a05f7a07","system_id":"levelo_inurba_marseille","lat":43.311663,"lon":5.387215,"is_reserved":false,"is_disabled":false,"rental_uris":{"android":"levelo://app?vid=09fae636-3f69-4553-b897-e1c9a05f7a07","ios":"levelo://app?vid=09fae636-3f69-4553-b897-e1c9a05f7a07"},"vehicle_type_id":"4","last_reported":1751516611,"current_range_meters":16400,"station_id":"ce4bgv12rcd13ifvqcp0","pricing_plan_id":"cebpf4jnsgd1na2vs0mg"},{"bike_id":"4ffdf38c-3b95-4986-97e6-b1adf52c18af","system_id":"levelo_inurba_marseille","lat":43.30779,"lon":5.37645,"is_reserved":false,"is_disabled":false,"rental_uris":{"android":"levelo://app?vid=4ffdf38c-3b95-4986-97e6-b1adf52c18af","ios":"levelo://app?vid=4ffdf38c-3b95-4986-97e6-b1adf52c18af"},"vehicle_type_id":"4","last_reported":1751516611,"current_range_meters":16400,"station_id":"ce4bgv92rcd13ifvqcq0","pricing_plan_id":"cebpf4jnsgd1na2vs0mg"},{"bike_id":"68e309f4-b1e4-4f3a-b754-9a7df441dc33","system_id":"levelo_inurba_marseille","lat":43.2815,"lon":5.4264,"is_reserved":false,"is_disabled":false,"rental_uris":{"android":"levelo://app?vid=68e309f4-b1e4-4f3a-b754-9a7df441dc33","ios":"levelo://app?vid=68e309f4-b1e4-4f3a-b754-9a7df441dc33"},"vehicle_type_id":"4","last_reported":1751516611,"current_range_meters":16400,"station_id":"ce4bhnh2rcd13ifvqgug","pricing_plan_id":"cebpf4jnsgd1na2vs0mg"},{"bike_id":"0f590c2a-c81e-469d-a7d1-2741de3642a2","system_id":"levelo_inurba_marseille","lat":43.21194,"lon":5.35062,"is_reserved":false,"is_disabled":false,"rental_uris":{"android":"levelo://app?vid=0f590c2a-c81e-469d-a7d1-2741de3642a2","ios":"levelo://app?vid=0f590c2a-c81e-469d-a7d1-2741de3642a2"},"vehicle_type_id":"4","last_reported":1751516611,"current_range_meters":16400,"station_id":"st_cvj6sg6p6f1abm77japg","pricing_plan_id":"cebpf4jnsgd1na2vs0mg"},{"bike_id":"ba154a12-11bd-42a5-958a-5992f5d043d1","system_id":"levelo_inurba_marseille","lat":43.304951,"lon":5.370886,"is_reserved":false,"is_disabled":false,"rental_uris":{"android":"levelo://app?vid=ba154a12-11bd-42a5-958a-5992f5d043d1","ios":"levelo://app?vid=ba154a12-11bd-42a5-958a-5992f5d043d1"},"vehicle_type_id":"4","last_reported":1751516611,"current_range_meters":16800,"station_id":"","pricing_plan_id":"cebpf4jnsgd1na2vs0mg"},{"bike_id":"ad4becc0-0281-4fb5-833b-dab4ce81a333","system_id":"levelo_inurba_marseille","lat":43.31681,"lon":5.40468,"is_reserved":false,"is_disabled":false,"rental_uris":{"android":"levelo://app?vid=ad4becc0-0281-4fb5-833b-dab4ce81a333","ios":"levelo://app?vid=ad4becc0-0281-4fb5-833b-dab4ce81a333"},"vehicle_type_id":"4","last_reported":1751516611,"current_range_meters":16800,"station_id":"ce4bh012rcd13ifvqd00","pricing_plan_id":"cebpf4jnsgd1na2vs0mg"},{"bike_id":"d0a297e2-7985-4e5a-b046-89ddb1e1cd50","system_id":"levelo_inurba_marseille","lat":43.29577,"lon":5.3996,"is_reserved":false,"is_disabled":false,"rental_uris":{"android":"levelo://app?vid=d0a297e2-7985-4e5a-b046-89ddb1e1cd50","ios":"levelo://app?vid=d0a297e2-7985-4e5a-b046-89ddb1e1cd50"},"vehicle_type_id":"4","last_reported":1751516611,"current_range_meters":16800,"station_id":"ce4bh312rcd13ifvqdj0","pricing_plan_id":"cebpf4jnsgd1na2vs0mg"},{"bike_id":"cc8d4ab7-ec67-46b8-a0bc-35b5cf9d0f90","system_id":"levelo_inurba_marseille","lat":43.279142,"lon":5.395867,"is_reserved":false,"is_disabled":false,"rental_uris":{"android":"levelo://app?vid=cc8d4ab7-ec67-46b8-a0bc-35b5cf9d0f90","ios":"levelo://app?vid=cc8d4ab7-ec67-46b8-a0bc-35b5cf9d0f90"},"vehicle_type_id":"4","last_reported":1751516611,"current_range_meters":16800,"station_id":"ce4bhf92rcd13ifvqf40","pricing_plan_id":"cebpf4jnsgd1na2vs0mg"},{"bike_id":"517160a1-2e92-43ea-8dc7-d8e751fbc51f","system_id":"levelo_inurba_marseille","lat":43.31724,"lon":5.42386,"is_reserved":false,"is_disabled":false,"rental_uris":{"android":"levelo://app?vid=517160a1-2e92-43ea-8dc7-d8e751fbc51f","ios":"levelo://app?vid=517160a1-2e92-43ea-8dc7-d8e751fbc51f"},"vehicle_type_id":"4","last_reported":1751516611,"current_range_meters":16800,"station_id":"ce4bhp92rcd13ifvqhbg","pricing_plan_id":"cebpf4jnsgd1na2vs0mg"},{"bike_id":"3f591852-ce23-4a61-a250-d6c35138bef4","system_id":"levelo_inurba_marseille","lat":43.31502,"lon":5.373,"is_reserved":false,"is_disabled":false,"rental_uris":{"android":"levelo://app?vid=3f591852-ce23-4a61-a250-d6c35138bef4","ios":"levelo://app?vid=3f591852-ce23-4a61-a250-d6c35138bef4"},"vehicle_type_id":"4","last_reported":1751516611,"current_range_meters":17200,"station_id":"ce4bgt12rcd13ifvqcd0","pricing_plan_id":"cebpf4jnsgd1na2vs0mg"},{"bike_id":"772debc4-7a23-48ac-9b74-f20080f28919","system_id":"levelo_inurba_marseille","lat":43.258662,"lon":5.399133,"is_reserved":false,"is_disabled":false,"rental_uris":{"android":"levelo://app?vid=772debc4-7a23-48ac-9b74-f20080f28919","ios":"levelo://app?vid=772debc4-7a23-48ac-9b74-f20080f28919"},"vehicle_type_id":"4","last_reported":1751516611,"current_range_meters":17200,"station_id":"ce4bhl92rcd13ifvqghg","pricing_plan_id":"cebpf4jnsgd1na2vs0mg"},{"bike_id":"37b84a38-055a-4a6e-a56a-8ff3d0c1b2ec","system_id":"levelo_inurba_marseille","lat":43.211984,"lon":5.350769,"is_reserved":false,"is_disabled":false,"rental_uris":{"android":"levelo://app?vid=37b84a38-055a-4a6e-a56a-8ff3d0c1b2ec","ios":"levelo://app?vid=37b84a38-055a-4a6e-a56a-8ff3d0c1b2ec"},"vehicle_type_id":"4","last_reported":1751516611,"current_range_meters":17200,"station_id":"st_cvj6sg6p6f1abm77japg","pricing_plan_id":"cebpf4jnsgd1na2vs0mg"},{"bike_id":"afc674af-1cfb-4db9-b4f3-736204ee0c0c","system_id":"levelo_inurba_marseille","lat":43.3117,"lon":5.38705,"is_reserved":false,"is_disabled":false,"rental_uris":{"android":"levelo://app?vid=afc674af-1cfb-4db9-b4f3-736204ee0c0c","ios":"levelo://app?vid=afc674af-1cfb-4db9-b4f3-736204ee0c0c"},"vehicle_type_id":"4","last_reported":1751516611,"current_range_meters":17600,"station_id":"ce4bgv12rcd13ifvqcp0","pricing_plan_id":"cebpf4jnsgd1na2vs0mg"},{"bike_id":"4d4995e7-0bba-4ac2-a238-afd84a5e99b5","system_id":"levelo_inurba_marseille","lat":43.304848,"lon":5.398345,"is_reserved":false,"is_disabled":false,"rental_uris":{"android":"levelo://app?vid=4d4995e7-0bba-4ac2-a238-afd84a5e99b5","ios":"levelo://app?vid=4d4995e7-0bba-4ac2-a238-afd84a5e99b5"},"vehicle_type_id":"4","last_reported":1751516611,"current_range_meters":18000,"station_id":"","pricing_plan_id":"cebpf4jnsgd1na2vs0mg"},{"bike_id":"50bb0fdb-2cc1-4d8d-af26-b7febba54985","system_id":"levelo_inurba_marseille","lat":43.274139,"lon":5.39007,"is_reserved":false,"is_disabled":false,"rental_uris":{"android":"levelo://app?vid=50bb0fdb-2cc1-4d8d-af26-b7febba54985","ios":"levelo://app?vid=50bb0fdb-2cc1-4d8d-af26-b7febba54985"},"vehicle_type_id":"4","last_reported":1751516611,"current_range_meters":18000,"station_id":"","pricing_plan_id":"cebpf4jnsgd1na2vs0mg"},{"bike_id":"723ce655-3305-4456-bcf3-317a44e39960","system_id":"levelo_inurba_marseille","lat":43.306496,"lon":5.400714,"is_reserved":false,"is_disabled":false,"rental_uris":{"android":"levelo://app?vid=723ce655-3305-4456-bcf3-317a44e39960","ios":"levelo://app?vid=723ce655-3305-4456-bcf3-317a44e39960"},"vehicle_type_id":"4","last_reported":1751516611,"current_range_meters":18000,"station_id":"ce4bh112rcd13ifvqda0","pricing_plan_id":"cebpf4jnsgd1na2vs0mg"},{"bike_id":"ff0897d0-cd0f-4fbe-8e8d-1c5e77cc2308","system_id":"levelo_inurba_marseille","lat":43.28655,"lon":5.36346,"is_reserved":false,"is_disabled":false,"rental_uris":{"android":"levelo://app?vid=ff0897d0-cd0f-4fbe-8e8d-1c5e77cc2308","ios":"levelo://app?vid=ff0897d0-cd0f-4fbe-8e8d-1c5e77cc2308"},"vehicle_type_id":"4","last_reported":1751516611,"current_range_meters":18000,"station_id":"ce4bhah2rcd13ifvqej0","pricing_plan_id":"cebpf4jnsgd1na2vs0mg"},{"bike_id":"a6715104-7492-4ec6-a996-23050baf8551","system_id":"levelo_inurba_marseille","lat":43.22504,"lon":5.34774,"is_reserved":false,"is_disabled":false,"rental_uris":{"android":"levelo://app?vid=a6715104-7492-4ec6-a996-23050baf8551","ios":"levelo://app?vid=a6715104-7492-4ec6-a996-23050baf8551"},"vehicle_type_id":"4","last_reported":1751516611,"current_range_meters":18000,"station_id":"st_cvj5dfep6f1abm77gieg","pricing_plan_id":"cebpf4jnsgd1na2vs0mg"},{"bike_id":"0c5e46df-9adb-4aa5-842c-17a1961c0106","system_id":"levelo_inurba_marseille","lat":43.27985,"lon":5.4071,"is_reserved":false,"is_disabled":false,"rental_uris":{"android":"levelo://app?vid=0c5e46df-9adb-4aa5-842c-17a1961c0106","ios":"levelo://app?vid=0c5e46df-9adb-4aa5-842c-17a1961c0106"},"vehicle_type_id":"4","last_reported":1751516611,"current_range_meters":18800,"station_id":"","pricing_plan_id":"cebpf4jnsgd1na2vs0mg"},{"bike_id":"1f378b1f-54e0-42c0-986b-0ae91e2ba79c","system_id":"levelo_inurba_marseille","lat":43.31106,"lon":5.37777,"is_reserved":false,"is_disabled":false,"rental_uris":{"android":"levelo://app?vid=1f378b1f-54e0-42c0-986b-0ae91e2ba79c","ios":"levelo://app?vid=1f378b1f-54e0-42c0-986b-0ae91e2ba79c"},"vehicle_type_id":"4","last_reported":1751516611,"current_range_meters":18800,"station_id":"ce4bgt92rcd13ifvqcg0","pricing_plan_id":"cebpf4jnsgd1na2vs0mg"},{"bike_id":"05655a7e-2c7e-46a8-ab33-e4b9a82e4d88","system_id":"levelo_inurba_marseille","lat":43.31326,"lon":5.39699,"is_reserved":false,"is_disabled":false,"rental_uris":{"android":"levelo://app?vid=05655a7e-2c7e-46a8-ab33-e4b9a82e4d88","ios":"levelo://app?vid=05655a7e-2c7e-46a8-ab33-e4b9a82e4d88"},"vehicle_type_id":"4","last_reported":1751516611,"current_range_meters":18800,"station_id":"ce4bgvp2rcd13ifvqcu0","pricing_plan_id":"cebpf4jnsgd1na2vs0mg"},{"bike_id":"7c8b500e-ac56-4088-b0af-520d4e58222f","system_id":"levelo_inurba_marseille","lat":43.308815,"lon":5.396445,"is_reserved":false,"is_disabled":false,"rental_uris":{"android":"levelo://app?vid=7c8b500e-ac56-4088-b0af-520d4e58222f","ios":"levelo://app?vid=7c8b500e-ac56-4088-b0af-520d4e58222f"},"vehicle_type_id":"4","last_reported":1751516611,"current_range_meters":18800,"station_id":"ce4bh012rcd13ifvqcv0","pricing_plan_id":"cebpf4jnsgd1na2vs0mg"},{"bike_id":"83ada4fb-6a40-4152-8235-de894a5258cf","system_id":"levelo_inurba_marseille","lat":43.306496,"lon":5.400682,"is_reserved":false,"is_disabled":false,"rental_uris":{"android":"levelo://app?vid=83ada4fb-6a40-4152-8235-de894a5258cf","ios":"levelo://app?vid=83ada4fb-6a40-4152-8235-de894a5258cf"},"vehicle_type_id":"4","last_reported":1751516611,"current_range_meters":18800,"station_id":"ce4bh112rcd13ifvqda0","pricing_plan_id":"cebpf4jnsgd1na2vs0mg"},{"bike_id":"f2750764-8c01-445c-84a6-a41e37f605a8","system_id":"levelo_inurba_marseille","lat":43.292735,"lon":5.40145,"is_reserved":false,"is_disabled":false,"rental_uris":{"android":"levelo://app?vid=f2750764-8c01-445c-84a6-a41e37f605a8","ios":"levelo://app?vid=f2750764-8c01-445c-84a6-a41e37f605a8"},"vehicle_type_id":"4","last_reported":1751516611,"current_range_meters":18800,"station_id":"ce4bh312rcd13ifvqdk0","pricing_plan_id":"cebpf4jnsgd1na2vs0mg"},{"bike_id":"7e21e8f2-09c8-4cc5-8113-278ebd23888d","system_id":"levelo_inurba_marseille","lat":43.21203,"lon":5.35057,"is_reserved":false,"is_disabled":false,"rental_uris":{"android":"levelo://app?vid=7e21e8f2-09c8-4cc5-8113-278ebd23888d","ios":"levelo://app?vid=7e21e8f2-09c8-4cc5-8113-278ebd23888d"},"vehicle_type_id":"4","last_reported":1751516611,"current_range_meters":18800,"station_id":"st_cvj6sg6p6f1abm77japg","pricing_plan_id":"cebpf4jnsgd1na2vs0mg"},{"bike_id":"b2ce53ca-166b-417e-9d70-9bee393f75bb","system_id":"levelo_inurba_marseille","lat":43.211894,"lon":5.350739,"is_reserved":false,"is_disabled":false,"rental_uris":{"android":"levelo://app?vid=b2ce53ca-166b-417e-9d70-9bee393f75bb","ios":"levelo://app?vid=b2ce53ca-166b-417e-9d70-9bee393f75bb"},"vehicle_type_id":"4","last_reported":1751516611,"current_range_meters":18800,"station_id":"st_cvj6sg6p6f1abm77japg","pricing_plan_id":"cebpf4jnsgd1na2vs0mg"},{"bike_id":"a37f58cf-3b95-48ef-b6de-fecb08336145","system_id":"levelo_inurba_marseille","lat":43.309347,"lon":5.401535,"is_reserved":false,"is_disabled":false,"rental_uris":{"android":"levelo://app?vid=a37f58cf-3b95-48ef-b6de-fecb08336145","ios":"levelo://app?vid=a37f58cf-3b95-48ef-b6de-fecb08336145"},"vehicle_type_id":"4","last_reported":1751516611,"current_range_meters":19200,"station_id":"ce4bgvp2rcd13ifvqct0","pricing_plan_id":"cebpf4jnsgd1na2vs0mg"},{"bike_id":"f10d6634-8e0e-404b-a2d1-83daa4ce0042","system_id":"levelo_inurba_marseille","lat":43.288396,"lon":5.393251,"is_reserved":false,"is_disabled":false,"rental_uris":{"android":"levelo://app?vid=f10d6634-8e0e-404b-a2d1-83daa4ce0042","ios":"levelo://app?vid=f10d6634-8e0e-404b-a2d1-83daa4ce0042"},"vehicle_type_id":"4","last_reported":1751516611,"current_range_meters":19200,"station_id":"ce4bh2p2rcd13ifvqdi0","pricing_plan_id":"cebpf4jnsgd1na2vs0mg"},{"bike_id":"0c401de6-85b7-4c47-9aae-7ff75e6987fd","system_id":"levelo_inurba_marseille","lat":43.25085,"lon":5.39518,"is_reserved":false,"is_disabled":false,"rental_uris":{"android":"levelo://app?vid=0c401de6-85b7-4c47-9aae-7ff75e6987fd","ios":"levelo://app?vid=0c401de6-85b7-4c47-9aae-7ff75e6987fd"},"vehicle_type_id":"4","last_reported":1751516611,"current_range_meters":19200,"station_id":"ce4bhm12rcd13ifvqgkg","pricing_plan_id":"cebpf4jnsgd1na2vs0mg"},{"bike_id":"cc04118e-9312-4bf8-9106-d64e829afbaa","system_id":"levelo_inurba_marseille","lat":43.21187,"lon":5.35061,"is_reserved":false,"is_disabled":false,"rental_uris":{"android":"levelo://app?vid=cc04118e-9312-4bf8-9106-d64e829afbaa","ios":"levelo://app?vid=cc04118e-9312-4bf8-9106-d64e829afbaa"},"vehicle_type_id":"4","last_reported":1751516611,"current_range_meters":19200,"station_id":"st_cvj6sg6p6f1abm77japg","pricing_plan_id":"cebpf4jnsgd1na2vs0mg"},{"bike_id":"1c8ab180-05fd-405f-9922-b2b2c2d5142f","system_id":"levelo_inurba_marseille","lat":43.337894,"lon":5.381191,"is_reserved":false,"is_disabled":false,"rental_uris":{"android":"levelo://app?vid=1c8ab180-05fd-405f-9922-b2b2c2d5142f","ios":"levelo://app?vid=1c8ab180-05fd-405f-9922-b2b2c2d5142f"},"vehicle_type_id":"4","last_reported":1751516611,"current_range_meters":19600,"station_id":"","pricing_plan_id":"cebpf4jnsgd1na2vs0mg"},{"bike_id":"adf5d5eb-b552-4b8a-a217-c13d7a6adc15","system_id":"levelo_inurba_marseille","lat":43.288512,"lon":5.393208,"is_reserved":false,"is_disabled":false,"rental_uris":{"android":"levelo://app?vid=adf5d5eb-b552-4b8a-a217-c13d7a6adc15","ios":"levelo://app?vid=adf5d5eb-b552-4b8a-a217-c13d7a6adc15"},"vehicle_type_id":"4","last_reported":1751516611,"current_range_meters":19600,"station_id":"ce4bh2p2rcd13ifvqdi0","pricing_plan_id":"cebpf4jnsgd1na2vs0mg"},{"bike_id":"0dbbfd7c-5e93-4301-aea8-6d89ce7ed33b","system_id":"levelo_inurba_marseille","lat":43.21753,"lon":5.346067,"is_reserved":false,"is_disabled":false,"rental_uris":{"android":"levelo://app?vid=0dbbfd7c-5e93-4301-aea8-6d89ce7ed33b","ios":"levelo://app?vid=0dbbfd7c-5e93-4301-aea8-6d89ce7ed33b"},"vehicle_type_id":"4","last_reported":1751516611,"current_range_meters":19600,"station_id":"st_cvj6r9ubvosntc0bgbag","pricing_plan_id":"cebpf4jnsgd1na2vs0mg"},{"bike_id":"036157b0-7abe-438f-8fad-6a06f634ee2d","system_id":"levelo_inurba_marseille","lat":43.30154,"lon":5.38081,"is_reserved":false,"is_disabled":false,"rental_uris":{"android":"levelo://app?vid=036157b0-7abe-438f-8fad-6a06f634ee2d","ios":"levelo://app?vid=036157b0-7abe-438f-8fad-6a06f634ee2d"},"vehicle_type_id":"4","last_reported":1751516611,"current_range_meters":20000,"station_id":"ce4bgjp2rcd13ifvqbh0","pricing_plan_id":"cebpf4jnsgd1na2vs0mg"},{"bike_id":"d5d751e2-1112-4345-bdeb-facfcc29c9d3","system_id":"levelo_inurba_marseille","lat":43.30438,"lon":5.38888,"is_reserved":false,"is_disabled":false,"rental_uris":{"android":"levelo://app?vid=d5d751e2-1112-4345-bdeb-facfcc29c9d3","ios":"levelo://app?vid=d5d751e2-1112-4345-bdeb-facfcc29c9d3"},"vehicle_type_id":"4","last_reported":1751516611,"current_range_meters":20000,"station_id":"ce4bgk12rcd13ifvqbi0","pricing_plan_id":"cebpf4jnsgd1na2vs0mg"},{"bike_id":"8efd6d75-c4ae-499b-9331-5ea7c2d46d89","system_id":"levelo_inurba_marseille","lat":43.28841,"lon":5.393311,"is_reserved":false,"is_disabled":false,"rental_uris":{"android":"levelo://app?vid=8efd6d75-c4ae-499b-9331-5ea7c2d46d89","ios":"levelo://app?vid=8efd6d75-c4ae-499b-9331-5ea7c2d46d89"},"vehicle_type_id":"4","last_reported":1751516611,"current_range_meters":20000,"station_id":"ce4bh2p2rcd13ifvqdi0","pricing_plan_id":"cebpf4jnsgd1na2vs0mg"},{"bike_id":"1fec5f32-8b87-4aea-b22d-0f614d28af36","system_id":"levelo_inurba_marseille","lat":43.28037,"lon":5.36961,"is_reserved":false,"is_disabled":false,"rental_uris":{"android":"levelo://app?vid=1fec5f32-8b87-4aea-b22d-0f614d28af36","ios":"levelo://app?vid=1fec5f32-8b87-4aea-b22d-0f614d28af36"},"vehicle_type_id":"4","last_reported":1751516611,"current_range_meters":20000,"station_id":"ce4bha12rcd13ifvqef0","pricing_plan_id":"cebpf4jnsgd1na2vs0mg"},{"bike_id":"002d301c-625e-4df2-9146-8ed63d5dff97","system_id":"levelo_inurba_marseille","lat":43.29,"lon":5.35604,"is_reserved":false,"is_disabled":false,"rental_uris":{"android":"levelo://app?vid=002d301c-625e-4df2-9146-8ed63d5dff97","ios":"levelo://app?vid=002d301c-625e-4df2-9146-8ed63d5dff97"},"vehicle_type_id":"4","last_reported":1751516611,"current_range_meters":20000,"station_id":"ce4bhb92rcd13ifvqen0","pricing_plan_id":"cebpf4jnsgd1na2vs0mg"},{"bike_id":"6b5e3947-c15c-4934-b840-3be540afb5bd","system_id":"levelo_inurba_marseille","lat":43.27973,"lon":5.38728,"is_reserved":false,"is_disabled":false,"rental_uris":{"android":"levelo://app?vid=6b5e3947-c15c-4934-b840-3be540afb5bd","ios":"levelo://app?vid=6b5e3947-c15c-4934-b840-3be540afb5bd"},"vehicle_type_id":"4","last_reported":1751516611,"current_range_meters":20000,"station_id":"ce4bhg12rcd13ifvqf80","pricing_plan_id":"cebpf4jnsgd1na2vs0mg"},{"bike_id":"39a426f5-115a-45e5-bede-c3bdb1e3c555","system_id":"levelo_inurba_marseille","lat":43.25084,"lon":5.39516,"is_reserved":false,"is_disabled":false,"rental_uris":{"android":"levelo://app?vid=39a426f5-115a-45e5-bede-c3bdb1e3c555","ios":"levelo://app?vid=39a426f5-115a-45e5-bede-c3bdb1e3c555"},"vehicle_type_id":"4","last_reported":1751516611,"current_range_meters":20000,"station_id":"ce4bhm12rcd13ifvqgkg","pricing_plan_id":"cebpf4jnsgd1na2vs0mg"},{"bike_id":"e372e5e3-996c-472f-a8b0-c1a5f31fad5d","system_id":"levelo_inurba_marseille","lat":43.28697,"lon":5.39982,"is_reserved":false,"is_disabled":false,"rental_uris":{"android":"levelo://app?vid=e372e5e3-996c-472f-a8b0-c1a5f31fad5d","ios":"levelo://app?vid=e372e5e3-996c-472f-a8b0-c1a5f31fad5d"},"vehicle_type_id":"4","last_reported":1751516611,"current_range_meters":20000,"station_id":"ce4bho92rcd13ifvqh3g","pricing_plan_id":"cebpf4jnsgd1na2vs0mg"},{"bike_id":"5f1e5526-9ff8-4075-8194-48a897f058b4","system_id":"levelo_inurba_marseille","lat":43.21196,"lon":5.35058,"is_reserved":false,"is_disabled":false,"rental_uris":{"android":"levelo://app?vid=5f1e5526-9ff8-4075-8194-48a897f058b4","ios":"levelo://app?vid=5f1e5526-9ff8-4075-8194-48a897f058b4"},"vehicle_type_id":"4","last_reported":1751516611,"current_range_meters":20000,"station_id":"st_cvj6sg6p6f1abm77japg","pricing_plan_id":"cebpf4jnsgd1na2vs0mg"},{"bike_id":"7076608e-fac3-4854-985d-7d5849b88389","system_id":"levelo_inurba_marseille","lat":43.3094,"lon":5.40144,"is_reserved":false,"is_disabled":false,"rental_uris":{"android":"levelo://app?vid=7076608e-fac3-4854-985d-7d5849b88389","ios":"levelo://app?vid=7076608e-fac3-4854-985d-7d5849b88389"},"vehicle_type_id":"4","last_reported":1751516611,"current_range_meters":20400,"station_id":"ce4bgvp2rcd13ifvqct0","pricing_plan_id":"cebpf4jnsgd1na2vs0mg"},{"bike_id":"4d5d5d31-615c-4426-863c-a6498482af34","system_id":"levelo_inurba_marseille","lat":43.30646,"lon":5.40101,"is_reserved":false,"is_disabled":false,"rental_uris":{"android":"levelo://app?vid=4d5d5d31-615c-4426-863c-a6498482af34","ios":"levelo://app?vid=4d5d5d31-615c-4426-863c-a6498482af34"},"vehicle_type_id":"4","last_reported":1751516611,"current_range_meters":20400,"station_id":"ce4bh112rcd13ifvqda0","pricing_plan_id":"cebpf4jnsgd1na2vs0mg"},{"bike_id":"93e902d2-f27a-47f4-88b6-a0ce487dfdc7","system_id":"levelo_inurba_marseille","lat":43.28841,"lon":5.39311,"is_reserved":false,"is_disabled":false,"rental_uris":{"android":"levelo://app?vid=93e902d2-f27a-47f4-88b6-a0ce487dfdc7","ios":"levelo://app?vid=93e902d2-f27a-47f4-88b6-a0ce487dfdc7"},"vehicle_type_id":"4","last_reported":1751516611,"current_range_meters":20400,"station_id":"ce4bh2p2rcd13ifvqdi0","pricing_plan_id":"cebpf4jnsgd1na2vs0mg"},{"bike_id":"8d60398f-157b-403e-afe4-5a0864dff191","system_id":"levelo_inurba_marseille","lat":43.2705,"lon":5.402624,"is_reserved":false,"is_disabled":false,"rental_uris":{"android":"levelo://app?vid=8d60398f-157b-403e-afe4-5a0864dff191","ios":"levelo://app?vid=8d60398f-157b-403e-afe4-5a0864dff191"},"vehicle_type_id":"4","last_reported":1751516611,"current_range_meters":20400,"station_id":"ce4bhk92rcd13ifvqgc0","pricing_plan_id":"cebpf4jnsgd1na2vs0mg"},{"bike_id":"32c0fc37-6823-41d0-9497-8d1eea24742c","system_id":"levelo_inurba_marseille","lat":43.241684,"lon":5.363978,"is_reserved":false,"is_disabled":false,"rental_uris":{"android":"levelo://app?vid=32c0fc37-6823-41d0-9497-8d1eea24742c","ios":"levelo://app?vid=32c0fc37-6823-41d0-9497-8d1eea24742c"},"vehicle_type_id":"4","last_reported":1751516611,"current_range_meters":20400,"station_id":"cpo36qri1sfpv3e86is0","pricing_plan_id":"cebpf4jnsgd1na2vs0mg"},{"bike_id":"3eabe1e2-f9f5-41cb-a4ed-73ca7f909c5c","system_id":"levelo_inurba_marseille","lat":43.211906,"lon":5.350684,"is_reserved":false,"is_disabled":false,"rental_uris":{"android":"levelo://app?vid=3eabe1e2-f9f5-41cb-a4ed-73ca7f909c5c","ios":"levelo://app?vid=3eabe1e2-f9f5-41cb-a4ed-73ca7f909c5c"},"vehicle_type_id":"4","last_reported":1751516611,"current_range_meters":20400,"station_id":"st_cvj6sg6p6f1abm77japg","pricing_plan_id":"cebpf4jnsgd1na2vs0mg"},{"bike_id":"e9d26c79-d78f-4002-bc79-c4aa63e66364","system_id":"levelo_inurba_marseille","lat":43.311626,"lon":5.38739,"is_reserved":false,"is_disabled":false,"rental_uris":{"android":"levelo://app?vid=e9d26c79-d78f-4002-bc79-c4aa63e66364","ios":"levelo://app?vid=e9d26c79-d78f-4002-bc79-c4aa63e66364"},"vehicle_type_id":"4","last_reported":1751516611,"current_range_meters":20800,"station_id":"ce4bgv12rcd13ifvqcp0","pricing_plan_id":"cebpf4jnsgd1na2vs0mg"},{"bike_id":"b104ab62-283f-4496-8f7f-d1c732f16c33","system_id":"levelo_inurba_marseille","lat":43.28852,"lon":5.39324,"is_reserved":false,"is_disabled":false,"rental_uris":{"android":"levelo://app?vid=b104ab62-283f-4496-8f7f-d1c732f16c33","ios":"levelo://app?vid=b104ab62-283f-4496-8f7f-d1c732f16c33"},"vehicle_type_id":"4","last_reported":1751516611,"current_range_meters":20800,"station_id":"ce4bh2p2rcd13ifvqdi0","pricing_plan_id":"cebpf4jnsgd1na2vs0mg"},{"bike_id":"89da5e73-11ab-48f2-8281-2178bbf7fe7b","system_id":"levelo_inurba_marseille","lat":43.257189,"lon":5.411154,"is_reserved":false,"is_disabled":false,"rental_uris":{"android":"levelo://app?vid=89da5e73-11ab-48f2-8281-2178bbf7fe7b","ios":"levelo://app?vid=89da5e73-11ab-48f2-8281-2178bbf7fe7b"},"vehicle_type_id":"4","last_reported":1751516611,"current_range_meters":20800,"station_id":"ce4bhkp2rcd13ifvqgd0","pricing_plan_id":"cebpf4jnsgd1na2vs0mg"},{"bike_id":"0c39aa6f-2486-4f82-b13b-fbf99b07af01","system_id":"levelo_inurba_marseille","lat":43.251123,"lon":5.403239,"is_reserved":false,"is_disabled":false,"rental_uris":{"android":"levelo://app?vid=0c39aa6f-2486-4f82-b13b-fbf99b07af01","ios":"levelo://app?vid=0c39aa6f-2486-4f82-b13b-fbf99b07af01"},"vehicle_type_id":"4","last_reported":1751516611,"current_range_meters":20800,"station_id":"ce4bhlh2rcd13ifvqgig","pricing_plan_id":"cebpf4jnsgd1na2vs0mg"},{"bike_id":"08e81811-c9ab-430d-a98b-a4424b37dd49","system_id":"levelo_inurba_marseille","lat":43.295517,"lon":5.422906,"is_reserved":false,"is_disabled":false,"rental_uris":{"android":"levelo://app?vid=08e81811-c9ab-430d-a98b-a4424b37dd49","ios":"levelo://app?vid=08e81811-c9ab-430d-a98b-a4424b37dd49"},"vehicle_type_id":"4","last_reported":1751516611,"current_range_meters":20800,"station_id":"ce4bhph2rcd13ifvqhdg","pricing_plan_id":"cebpf4jnsgd1na2vs0mg"},{"bike_id":"ba926bfc-9632-4680-b0ed-32a040d6fb83","system_id":"levelo_inurba_marseille","lat":43.21191,"lon":5.35073,"is_reserved":false,"is_disabled":false,"rental_uris":{"android":"levelo://app?vid=ba926bfc-9632-4680-b0ed-32a040d6fb83","ios":"levelo://app?vid=ba926bfc-9632-4680-b0ed-32a040d6fb83"},"vehicle_type_id":"4","last_reported":1751516611,"current_range_meters":20800,"station_id":"st_cvj6sg6p6f1abm77japg","pricing_plan_id":"cebpf4jnsgd1na2vs0mg"},{"bike_id":"b13877a6-4825-4d82-b46b-67fa8ad66c5d","system_id":"levelo_inurba_marseille","lat":43.211889,"lon":5.350758,"is_reserved":false,"is_disabled":false,"rental_uris":{"android":"levelo://app?vid=b13877a6-4825-4d82-b46b-67fa8ad66c5d","ios":"levelo://app?vid=b13877a6-4825-4d82-b46b-67fa8ad66c5d"},"vehicle_type_id":"4","last_reported":1751516611,"current_range_meters":20800,"station_id":"st_cvj6sg6p6f1abm77japg","pricing_plan_id":"cebpf4jnsgd1na2vs0mg"},{"bike_id":"7712491c-e18b-4b09-bb79-30880b357c07","system_id":"levelo_inurba_marseille","lat":43.21192,"lon":5.3508,"is_reserved":false,"is_disabled":false,"rental_uris":{"android":"levelo://app?vid=7712491c-e18b-4b09-bb79-30880b357c07","ios":"levelo://app?vid=7712491c-e18b-4b09-bb79-30880b357c07"},"vehicle_type_id":"4","last_reported":1751516611,"current_range_meters":20800,"station_id":"st_cvj6sg6p6f1abm77japg","pricing_plan_id":"cebpf4jnsgd1na2vs0mg"},{"bike_id":"ddd32879-ca96-47e1-93dc-975ca4c0ce6f","system_id":"levelo_inurba_marseille","lat":43.30903,"lon":5.3963,"is_reserved":false,"is_disabled":false,"rental_uris":{"android":"levelo://app?vid=ddd32879-ca96-47e1-93dc-975ca4c0ce6f","ios":"levelo://app?vid=ddd32879-ca96-47e1-93dc-975ca4c0ce6f"},"vehicle_type_id":"4","last_reported":1751516611,"current_range_meters":21600,"station_id":"ce4bh012rcd13ifvqcv0","pricing_plan_id":"cebpf4jnsgd1na2vs0mg"},{"bike_id":"659471d9-e69a-44c8-9b53-5d580a7e8266","system_id":"levelo_inurba_marseille","lat":43.2963,"lon":5.40593,"is_reserved":false,"is_disabled":false,"rental_uris":{"android":"levelo://app?vid=659471d9-e69a-44c8-9b53-5d580a7e8266","ios":"levelo://app?vid=659471d9-e69a-44c8-9b53-5d580a7e8266"},"vehicle_type_id":"4","last_reported":1751516611,"current_range_meters":21600,"station_id":"ce4bh0h2rcd13ifvqd60","pricing_plan_id":"cebpf4jnsgd1na2vs0mg"},{"bike_id":"62faf2ff-17d9-48ef-b764-d2eb9b80a3b6","system_id":"levelo_inurba_marseille","lat":43.288459,"lon":5.393205,"is_reserved":false,"is_disabled":false,"rental_uris":{"android":"levelo://app?vid=62faf2ff-17d9-48ef-b764-d2eb9b80a3b6","ios":"levelo://app?vid=62faf2ff-17d9-48ef-b764-d2eb9b80a3b6"},"vehicle_type_id":"4","last_reported":1751516611,"current_range_meters":21600,"station_id":"ce4bh2p2rcd13ifvqdi0","pricing_plan_id":"cebpf4jnsgd1na2vs0mg"},{"bike_id":"32b69e2f-44e7-4fcf-a4f3-4a2e482f3a38","system_id":"levelo_inurba_marseille","lat":43.25104,"lon":5.40337,"is_reserved":false,"is_disabled":false,"rental_uris":{"android":"levelo://app?vid=32b69e2f-44e7-4fcf-a4f3-4a2e482f3a38","ios":"levelo://app?vid=32b69e2f-44e7-4fcf-a4f3-4a2e482f3a38"},"vehicle_type_id":"4","last_reported":1751516611,"current_range_meters":21600,"station_id":"ce4bhlh2rcd13ifvqgig","pricing_plan_id":"cebpf4jnsgd1na2vs0mg"},{"bike_id":"39fa5f31-4afa-4271-a36e-400e3970d6f0","system_id":"levelo_inurba_marseille","lat":43.303719,"lon":5.375911,"is_reserved":false,"is_disabled":false,"rental_uris":{"android":"levelo://app?vid=39fa5f31-4afa-4271-a36e-400e3970d6f0","ios":"levelo://app?vid=39fa5f31-4afa-4271-a36e-400e3970d6f0"},"vehicle_type_id":"4","last_reported":1751516611,"current_range_meters":22000,"station_id":"","pricing_plan_id":"cebpf4jnsgd1na2vs0mg"},{"bike_id":"6ec0cea8-39ad-4bae-bba6-beee2c53a1b8","system_id":"levelo_inurba_marseille","lat":43.304427,"lon":5.388986,"is_reserved":false,"is_disabled":false,"rental_uris":{"android":"levelo://app?vid=6ec0cea8-39ad-4bae-bba6-beee2c53a1b8","ios":"levelo://app?vid=6ec0cea8-39ad-4bae-bba6-beee2c53a1b8"},"vehicle_type_id":"4","last_reported":1751516611,"current_range_meters":22000,"station_id":"ce4bgk12rcd13ifvqbi0","pricing_plan_id":"cebpf4jnsgd1na2vs0mg"},{"bike_id":"0ff1558a-8dbe-4fa9-b832-cd52b6eb0a50","system_id":"levelo_inurba_marseille","lat":43.29619,"lon":5.38109,"is_reserved":false,"is_disabled":false,"rental_uris":{"android":"levelo://app?vid=0ff1558a-8dbe-4fa9-b832-cd52b6eb0a50","ios":"levelo://app?vid=0ff1558a-8dbe-4fa9-b832-cd52b6eb0a50"},"vehicle_type_id":"4","last_reported":1751516611,"current_range_meters":22000,"station_id":"ce4bgl12rcd13ifvqbo0","pricing_plan_id":"cebpf4jnsgd1na2vs0mg"},{"bike_id":"b3d7a6ac-4ad8-404e-91ae-53d96dbbd9fb","system_id":"levelo_inurba_marseille","lat":43.2119,"lon":5.35062,"is_reserved":false,"is_disabled":false,"rental_uris":{"android":"levelo://app?vid=b3d7a6ac-4ad8-404e-91ae-53d96dbbd9fb","ios":"levelo://app?vid=b3d7a6ac-4ad8-404e-91ae-53d96dbbd9fb"},"vehicle_type_id":"4","last_reported":1751516611,"current_range_meters":22000,"station_id":"st_cvj6sg6p6f1abm77japg","pricing_plan_id":"cebpf4jnsgd1na2vs0mg"},{"bike_id":"5c46c232-5362-4b17-b48d-61a5cc5e247a","system_id":"levelo_inurba_marseille","lat":43.29273,"lon":5.40099,"is_reserved":false,"is_disabled":false,"rental_uris":{"android":"levelo://app?vid=5c46c232-5362-4b17-b48d-61a5cc5e247a","ios":"levelo://app?vid=5c46c232-5362-4b17-b48d-61a5cc5e247a"},"vehicle_type_id":"4","last_reported":1751516611,"current_range_meters":22400,"station_id":"ce4bh312rcd13ifvqdk0","pricing_plan_id":"cebpf4jnsgd1na2vs0mg"},{"bike_id":"2494a4ea-d0bd-400e-9f6a-71e035c047f7","system_id":"levelo_inurba_marseille","lat":43.306551,"lon":5.400767,"is_reserved":false,"is_disabled":false,"rental_uris":{"android":"levelo://app?vid=2494a4ea-d0bd-400e-9f6a-71e035c047f7","ios":"levelo://app?vid=2494a4ea-d0bd-400e-9f6a-71e035c047f7"},"vehicle_type_id":"4","last_reported":1751516611,"current_range_meters":22800,"station_id":"ce4bh112rcd13ifvqda0","pricing_plan_id":"cebpf4jnsgd1na2vs0mg"},{"bike_id":"7d00d5b6-2715-4c52-b7e3-5515f3f69543","system_id":"levelo_inurba_marseille","lat":43.27959,"lon":5.38723,"is_reserved":false,"is_disabled":false,"rental_uris":{"android":"levelo://app?vid=7d00d5b6-2715-4c52-b7e3-5515f3f69543","ios":"levelo://app?vid=7d00d5b6-2715-4c52-b7e3-5515f3f69543"},"vehicle_type_id":"4","last_reported":1751516611,"current_range_meters":22800,"station_id":"ce4bhg12rcd13ifvqf80","pricing_plan_id":"cebpf4jnsgd1na2vs0mg"},{"bike_id":"205ecc0b-9432-4620-98d2-864e84b14e39","system_id":"levelo_inurba_marseille","lat":43.3234,"lon":5.4062,"is_reserved":false,"is_disabled":false,"rental_uris":{"android":"levelo://app?vid=205ecc0b-9432-4620-98d2-864e84b14e39","ios":"levelo://app?vid=205ecc0b-9432-4620-98d2-864e84b14e39"},"vehicle_type_id":"4","last_reported":1751516611,"current_range_meters":22800,"station_id":"ce4bhq92rcd13ifvqhjg","pricing_plan_id":"cebpf4jnsgd1na2vs0mg"},{"bike_id":"7be93d05-2405-4cfe-a0c4-c6f3670e10c7","system_id":"levelo_inurba_marseille","lat":43.21206,"lon":5.3506,"is_reserved":false,"is_disabled":false,"rental_uris":{"android":"levelo://app?vid=7be93d05-2405-4cfe-a0c4-c6f3670e10c7","ios":"levelo://app?vid=7be93d05-2405-4cfe-a0c4-c6f3670e10c7"},"vehicle_type_id":"4","last_reported":1751516611,"current_range_meters":22800,"station_id":"st_cvj6sg6p6f1abm77japg","pricing_plan_id":"cebpf4jnsgd1na2vs0mg"},{"bike_id":"833bb9ff-7b15-4a8e-91f3-ff216ef28553","system_id":"levelo_inurba_marseille","lat":43.317,"lon":5.37505,"is_reserved":false,"is_disabled":false,"rental_uris":{"android":"levelo://app?vid=833bb9ff-7b15-4a8e-91f3-ff216ef28553","ios":"levelo://app?vid=833bb9ff-7b15-4a8e-91f3-ff216ef28553"},"vehicle_type_id":"4","last_reported":1751516611,"current_range_meters":23200,"station_id":"","pricing_plan_id":"cebpf4jnsgd1na2vs0mg"},{"bike_id":"4b8da722-ee9e-48a4-a5e5-3a8a10364708","system_id":"levelo_inurba_marseille","lat":43.31231,"lon":5.37821,"is_reserved":false,"is_disabled":false,"rental_uris":{"android":"levelo://app?vid=4b8da722-ee9e-48a4-a5e5-3a8a10364708","ios":"levelo://app?vid=4b8da722-ee9e-48a4-a5e5-3a8a10364708"},"vehicle_type_id":"4","last_reported":1751516611,"current_range_meters":23200,"station_id":"","pricing_plan_id":"cebpf4jnsgd1na2vs0mg"},{"bike_id":"f6ddf5a4-4696-4262-8096-871ce854aca5","system_id":"levelo_inurba_marseille","lat":43.313286,"lon":5.396909,"is_reserved":false,"is_disabled":false,"rental_uris":{"android":"levelo://app?vid=f6ddf5a4-4696-4262-8096-871ce854aca5","ios":"levelo://app?vid=f6ddf5a4-4696-4262-8096-871ce854aca5"},"vehicle_type_id":"4","last_reported":1751516611,"current_range_meters":23200,"station_id":"ce4bgvp2rcd13ifvqcu0","pricing_plan_id":"cebpf4jnsgd1na2vs0mg"},{"bike_id":"c13c93ac-6b62-443c-9e36-caf61b27325a","system_id":"levelo_inurba_marseille","lat":43.211914,"lon":5.350682,"is_reserved":false,"is_disabled":false,"rental_uris":{"android":"levelo://app?vid=c13c93ac-6b62-443c-9e36-caf61b27325a","ios":"levelo://app?vid=c13c93ac-6b62-443c-9e36-caf61b27325a"},"vehicle_type_id":"4","last_reported":1751516611,"current_range_meters":23200,"station_id":"st_cvj6sg6p6f1abm77japg","pricing_plan_id":"cebpf4jnsgd1na2vs0mg"},{"bike_id":"b8498bc8-47af-40fb-9371-e71476626cb8","system_id":"levelo_inurba_marseille","lat":43.269003,"lon":5.393753,"is_reserved":false,"is_disabled":false,"rental_uris":{"android":"levelo://app?vid=b8498bc8-47af-40fb-9371-e71476626cb8","ios":"levelo://app?vid=b8498bc8-47af-40fb-9371-e71476626cb8"},"vehicle_type_id":"4","last_reported":1751516611,"current_range_meters":24000,"station_id":"","pricing_plan_id":"cebpf4jnsgd1na2vs0mg"},{"bike_id":"0f7c232c-2eba-473d-bc9d-bab441c952a3","system_id":"levelo_inurba_marseille","lat":43.31365,"lon":5.38506,"is_reserved":false,"is_disabled":false,"rental_uris":{"android":"levelo://app?vid=0f7c232c-2eba-473d-bc9d-bab441c952a3","ios":"levelo://app?vid=0f7c232c-2eba-473d-bc9d-bab441c952a3"},"vehicle_type_id":"4","last_reported":1751516611,"current_range_meters":24000,"station_id":"ce4bgt92rcd13ifvqcf0","pricing_plan_id":"cebpf4jnsgd1na2vs0mg"},{"bike_id":"c17a984b-ae1a-464a-b1cd-2e2050b63db0","system_id":"levelo_inurba_marseille","lat":43.29524,"lon":5.394,"is_reserved":false,"is_disabled":false,"rental_uris":{"android":"levelo://app?vid=c17a984b-ae1a-464a-b1cd-2e2050b63db0","ios":"levelo://app?vid=c17a984b-ae1a-464a-b1cd-2e2050b63db0"},"vehicle_type_id":"4","last_reported":1751516611,"current_range_meters":24000,"station_id":"ce4bh292rcd13ifvqdf0","pricing_plan_id":"cebpf4jnsgd1na2vs0mg"},{"bike_id":"68a945f7-a2d9-441e-8cb0-b97fbae07d8f","system_id":"levelo_inurba_marseille","lat":43.265766,"lon":5.39037,"is_reserved":false,"is_disabled":false,"rental_uris":{"android":"levelo://app?vid=68a945f7-a2d9-441e-8cb0-b97fbae07d8f","ios":"levelo://app?vid=68a945f7-a2d9-441e-8cb0-b97fbae07d8f"},"vehicle_type_id":"4","last_reported":1751516611,"current_range_meters":24000,"station_id":"ce4bhe12rcd13ifvqf30","pricing_plan_id":"cebpf4jnsgd1na2vs0mg"},{"bike_id":"390a291e-e8cd-4674-b52d-bba1eade14e3","system_id":"levelo_inurba_marseille","lat":43.25109,"lon":5.403364,"is_reserved":false,"is_disabled":false,"rental_uris":{"android":"levelo://app?vid=390a291e-e8cd-4674-b52d-bba1eade14e3","ios":"levelo://app?vid=390a291e-e8cd-4674-b52d-bba1eade14e3"},"vehicle_type_id":"4","last_reported":1751516611,"current_range_meters":24000,"station_id":"ce4bhlh2rcd13ifvqgig","pricing_plan_id":"cebpf4jnsgd1na2vs0mg"},{"bike_id":"32b31b9c-d35d-4831-b5c8-de2a2c2c5563","system_id":"levelo_inurba_marseille","lat":43.27995,"lon":5.41657,"is_reserved":false,"is_disabled":false,"rental_uris":{"android":"levelo://app?vid=32b31b9c-d35d-4831-b5c8-de2a2c2c5563","ios":"levelo://app?vid=32b31b9c-d35d-4831-b5c8-de2a2c2c5563"},"vehicle_type_id":"4","last_reported":1751516611,"current_range_meters":24000,"station_id":"ce4bho12rcd13ifvqh1g","pricing_plan_id":"cebpf4jnsgd1na2vs0mg"},{"bike_id":"65f2c1b8-aea5-44cd-a646-896310662439","system_id":"levelo_inurba_marseille","lat":43.28444,"lon":5.39194,"is_reserved":false,"is_disabled":false,"rental_uris":{"android":"levelo://app?vid=65f2c1b8-aea5-44cd-a646-896310662439","ios":"levelo://app?vid=65f2c1b8-aea5-44cd-a646-896310662439"},"vehicle_type_id":"4","last_reported":1751516611,"current_range_meters":24000,"station_id":"ce4bhoh2rcd13ifvqh5g","pricing_plan_id":"cebpf4jnsgd1na2vs0mg"},{"bike_id":"fbf38b6c-6a92-404d-9038-01fd2a7fbf21","system_id":"levelo_inurba_marseille","lat":43.269383,"lon":5.402517,"is_reserved":false,"is_disabled":false,"rental_uris":{"android":"levelo://app?vid=fbf38b6c-6a92-404d-9038-01fd2a7fbf21","ios":"levelo://app?vid=fbf38b6c-6a92-404d-9038-01fd2a7fbf21"},"vehicle_type_id":"4","last_reported":1751516611,"current_range_meters":24000,"station_id":"cjm6bp8fraef2m0cb0m0","pricing_plan_id":"cebpf4jnsgd1na2vs0mg"},{"bike_id":"28a631dd-f42f-497d-89ea-57176d876490","system_id":"levelo_inurba_marseille","lat":43.30557,"lon":5.36548,"is_reserved":false,"is_disabled":false,"rental_uris":{"android":"levelo://app?vid=28a631dd-f42f-497d-89ea-57176d876490","ios":"levelo://app?vid=28a631dd-f42f-497d-89ea-57176d876490"},"vehicle_type_id":"4","last_reported":1751516611,"current_range_meters":24400,"station_id":"ce4bgs12rcd13ifvqcag","pricing_plan_id":"cebpf4jnsgd1na2vs0mg"},{"bike_id":"ac0d6ace-e8f9-427f-8032-655cf2d01167","system_id":"levelo_inurba_marseille","lat":43.31074,"lon":5.38348,"is_reserved":false,"is_disabled":false,"rental_uris":{"android":"levelo://app?vid=ac0d6ace-e8f9-427f-8032-655cf2d01167","ios":"levelo://app?vid=ac0d6ace-e8f9-427f-8032-655cf2d01167"},"vehicle_type_id":"4","last_reported":1751516611,"current_range_meters":24400,"station_id":"ce4bgv92rcd13ifvqcr0","pricing_plan_id":"cebpf4jnsgd1na2vs0mg"},{"bike_id":"7033ce56-b50f-4add-88f8-f37cbfd878d8","system_id":"levelo_inurba_marseille","lat":43.217519,"lon":5.346058,"is_reserved":false,"is_disabled":false,"rental_uris":{"android":"levelo://app?vid=7033ce56-b50f-4add-88f8-f37cbfd878d8","ios":"levelo://app?vid=7033ce56-b50f-4add-88f8-f37cbfd878d8"},"vehicle_type_id":"4","last_reported":1751516611,"current_range_meters":24400,"station_id":"st_cvj6r9ubvosntc0bgbag","pricing_plan_id":"cebpf4jnsgd1na2vs0mg"},{"bike_id":"5f470112-8139-4343-b082-08a74e0b7074","system_id":"levelo_inurba_marseille","lat":43.21194,"lon":5.35085,"is_reserved":false,"is_disabled":false,"rental_uris":{"android":"levelo://app?vid=5f470112-8139-4343-b082-08a74e0b7074","ios":"levelo://app?vid=5f470112-8139-4343-b082-08a74e0b7074"},"vehicle_type_id":"4","last_reported":1751516611,"current_range_meters":24400,"station_id":"st_cvj6sg6p6f1abm77japg","pricing_plan_id":"cebpf4jnsgd1na2vs0mg"},{"bike_id":"ab82951c-2d86-4299-aa1f-8d2f5503ed2d","system_id":"levelo_inurba_marseille","lat":43.310672,"lon":5.38355,"is_reserved":false,"is_disabled":false,"rental_uris":{"android":"levelo://app?vid=ab82951c-2d86-4299-aa1f-8d2f5503ed2d","ios":"levelo://app?vid=ab82951c-2d86-4299-aa1f-8d2f5503ed2d"},"vehicle_type_id":"4","last_reported":1751516611,"current_range_meters":24800,"station_id":"ce4bgv92rcd13ifvqcr0","pricing_plan_id":"cebpf4jnsgd1na2vs0mg"},{"bike_id":"949ddf1f-e221-4d31-814e-8397a27c381e","system_id":"levelo_inurba_marseille","lat":43.30132,"lon":5.39864,"is_reserved":false,"is_disabled":false,"rental_uris":{"android":"levelo://app?vid=949ddf1f-e221-4d31-814e-8397a27c381e","ios":"levelo://app?vid=949ddf1f-e221-4d31-814e-8397a27c381e"},"vehicle_type_id":"4","last_reported":1751516611,"current_range_meters":24800,"station_id":"ce4bh0h2rcd13ifvqd40","pricing_plan_id":"cebpf4jnsgd1na2vs0mg"},{"bike_id":"866de4b9-bb2e-4c29-b43a-aedb6871b46b","system_id":"levelo_inurba_marseille","lat":43.30595,"lon":5.3936,"is_reserved":false,"is_disabled":false,"rental_uris":{"android":"levelo://app?vid=866de4b9-bb2e-4c29-b43a-aedb6871b46b","ios":"levelo://app?vid=866de4b9-bb2e-4c29-b43a-aedb6871b46b"},"vehicle_type_id":"4","last_reported":1751516611,"current_range_meters":24800,"station_id":"ce4bh0p2rcd13ifvqd80","pricing_plan_id":"cebpf4jnsgd1na2vs0mg"},{"bike_id":"90e54bb1-9992-4d02-8dd8-b193ce72b677","system_id":"levelo_inurba_marseille","lat":43.306405,"lon":5.400809,"is_reserved":false,"is_disabled":false,"rental_uris":{"android":"levelo://app?vid=90e54bb1-9992-4d02-8dd8-b193ce72b677","ios":"levelo://app?vid=90e54bb1-9992-4d02-8dd8-b193ce72b677"},"vehicle_type_id":"4","last_reported":1751516611,"current_range_meters":24800,"station_id":"ce4bh112rcd13ifvqda0","pricing_plan_id":"cebpf4jnsgd1na2vs0mg"},{"bike_id":"ce8ef9a3-3130-4090-b8c2-a8ff34d96f7e","system_id":"levelo_inurba_marseille","lat":43.29212,"lon":5.40074,"is_reserved":false,"is_disabled":false,"rental_uris":{"android":"levelo://app?vid=ce8ef9a3-3130-4090-b8c2-a8ff34d96f7e","ios":"levelo://app?vid=ce8ef9a3-3130-4090-b8c2-a8ff34d96f7e"},"vehicle_type_id":"4","last_reported":1751516611,"current_range_meters":24800,"station_id":"ce4bh312rcd13ifvqdk0","pricing_plan_id":"cebpf4jnsgd1na2vs0mg"},{"bike_id":"eef96f5e-da5d-4fc3-9a38-9612055d2c39","system_id":"levelo_inurba_marseille","lat":43.284111,"lon":5.375229,"is_reserved":false,"is_disabled":false,"rental_uris":{"android":"levelo://app?vid=eef96f5e-da5d-4fc3-9a38-9612055d2c39","ios":"levelo://app?vid=eef96f5e-da5d-4fc3-9a38-9612055d2c39"},"vehicle_type_id":"4","last_reported":1751516611,"current_range_meters":24800,"station_id":"ce4bh412rcd13ifvqds0","pricing_plan_id":"cebpf4jnsgd1na2vs0mg"},{"bike_id":"3092b187-56de-41a6-8601-30a9f9a7bb4a","system_id":"levelo_inurba_marseille","lat":43.28925,"lon":5.38385,"is_reserved":false,"is_disabled":false,"rental_uris":{"android":"levelo://app?vid=3092b187-56de-41a6-8601-30a9f9a7bb4a","ios":"levelo://app?vid=3092b187-56de-41a6-8601-30a9f9a7bb4a"},"vehicle_type_id":"4","last_reported":1751516611,"current_range_meters":24800,"station_id":"ce4bh612rcd13ifvqe6g","pricing_plan_id":"cebpf4jnsgd1na2vs0mg"},{"bike_id":"3ffb30c0-2d77-4127-8f4a-388ca1348657","system_id":"levelo_inurba_marseille","lat":43.281028,"lon":5.378343,"is_reserved":false,"is_disabled":false,"rental_uris":{"android":"levelo://app?vid=3ffb30c0-2d77-4127-8f4a-388ca1348657","ios":"levelo://app?vid=3ffb30c0-2d77-4127-8f4a-388ca1348657"},"vehicle_type_id":"4","last_reported":1751516611,"current_range_meters":24800,"station_id":"ce4bha12rcd13ifvqee0","pricing_plan_id":"cebpf4jnsgd1na2vs0mg"},{"bike_id":"c40be66c-25e4-4d54-89cf-a2102bf1a64c","system_id":"levelo_inurba_marseille","lat":43.295558,"lon":5.422842,"is_reserved":false,"is_disabled":false,"rental_uris":{"android":"levelo://app?vid=c40be66c-25e4-4d54-89cf-a2102bf1a64c","ios":"levelo://app?vid=c40be66c-25e4-4d54-89cf-a2102bf1a64c"},"vehicle_type_id":"4","last_reported":1751516611,"current_range_meters":24800,"station_id":"ce4bhph2rcd13ifvqhdg","pricing_plan_id":"cebpf4jnsgd1na2vs0mg"},{"bike_id":"f2b61d89-6d45-4bdd-a875-d861c9d1bacb","system_id":"levelo_inurba_marseille","lat":43.32283,"lon":5.38262,"is_reserved":false,"is_disabled":false,"rental_uris":{"android":"levelo://app?vid=f2b61d89-6d45-4bdd-a875-d861c9d1bacb","ios":"levelo://app?vid=f2b61d89-6d45-4bdd-a875-d861c9d1bacb"},"vehicle_type_id":"4","last_reported":1751516611,"current_range_meters":24800,"station_id":"ce4bhr12rcd13ifvqhqg","pricing_plan_id":"cebpf4jnsgd1na2vs0mg"},{"bike_id":"e51977de-b9cf-4f2b-a00f-29f9e1f8ce61","system_id":"levelo_inurba_marseille","lat":43.28848,"lon":5.393169,"is_reserved":false,"is_disabled":false,"rental_uris":{"android":"levelo://app?vid=e51977de-b9cf-4f2b-a00f-29f9e1f8ce61","ios":"levelo://app?vid=e51977de-b9cf-4f2b-a00f-29f9e1f8ce61"},"vehicle_type_id":"4","last_reported":1751516611,"current_range_meters":25200,"station_id":"ce4bh2p2rcd13ifvqdi0","pricing_plan_id":"cebpf4jnsgd1na2vs0mg"},{"bike_id":"3b6a4f0b-bb4b-407a-be21-22120cc32718","system_id":"levelo_inurba_marseille","lat":43.29285,"lon":5.40134,"is_reserved":false,"is_disabled":false,"rental_uris":{"android":"levelo://app?vid=3b6a4f0b-bb4b-407a-be21-22120cc32718","ios":"levelo://app?vid=3b6a4f0b-bb4b-407a-be21-22120cc32718"},"vehicle_type_id":"4","last_reported":1751516611,"current_range_meters":25200,"station_id":"ce4bh312rcd13ifvqdk0","pricing_plan_id":"cebpf4jnsgd1na2vs0mg"},{"bike_id":"aa3a62de-0397-48e2-bdc3-63171b67601b","system_id":"levelo_inurba_marseille","lat":43.284098,"lon":5.375169,"is_reserved":false,"is_disabled":false,"rental_uris":{"android":"levelo://app?vid=aa3a62de-0397-48e2-bdc3-63171b67601b","ios":"levelo://app?vid=aa3a62de-0397-48e2-bdc3-63171b67601b"},"vehicle_type_id":"4","last_reported":1751516611,"current_range_meters":25200,"station_id":"ce4bh412rcd13ifvqds0","pricing_plan_id":"cebpf4jnsgd1na2vs0mg"},{"bike_id":"d73d8924-f08d-4c40-89fa-b9270894039b","system_id":"levelo_inurba_marseille","lat":43.28267,"lon":5.35072,"is_reserved":false,"is_disabled":false,"rental_uris":{"android":"levelo://app?vid=d73d8924-f08d-4c40-89fa-b9270894039b","ios":"levelo://app?vid=d73d8924-f08d-4c40-89fa-b9270894039b"},"vehicle_type_id":"4","last_reported":1751516611,"current_range_meters":25200,"station_id":"ce4bhbp2rcd13ifvqerg","pricing_plan_id":"cebpf4jnsgd1na2vs0mg"},{"bike_id":"f0e80233-c3e1-4a33-9b2d-48e2f4167478","system_id":"levelo_inurba_marseille","lat":43.28617,"lon":5.35106,"is_reserved":false,"is_disabled":false,"rental_uris":{"android":"levelo://app?vid=f0e80233-c3e1-4a33-9b2d-48e2f4167478","ios":"levelo://app?vid=f0e80233-c3e1-4a33-9b2d-48e2f4167478"},"vehicle_type_id":"4","last_reported":1751516611,"current_range_meters":25200,"station_id":"ce4bhch2rcd13ifvqeug","pricing_plan_id":"cebpf4jnsgd1na2vs0mg"},{"bike_id":"c4a0137e-a333-4bf2-be2c-dc9d4d53e9f7","system_id":"levelo_inurba_marseille","lat":43.21183,"lon":5.35072,"is_reserved":false,"is_disabled":false,"rental_uris":{"android":"levelo://app?vid=c4a0137e-a333-4bf2-be2c-dc9d4d53e9f7","ios":"levelo://app?vid=c4a0137e-a333-4bf2-be2c-dc9d4d53e9f7"},"vehicle_type_id":"4","last_reported":1751516611,"current_range_meters":25200,"station_id":"st_cvj6sg6p6f1abm77japg","pricing_plan_id":"cebpf4jnsgd1na2vs0mg"},{"bike_id":"15636cd9-438f-4b33-b411-65965db0ed2f","system_id":"levelo_inurba_marseille","lat":43.314337,"lon":5.370195,"is_reserved":false,"is_disabled":false,"rental_uris":{"android":"levelo://app?vid=15636cd9-438f-4b33-b411-65965db0ed2f","ios":"levelo://app?vid=15636cd9-438f-4b33-b411-65965db0ed2f"},"vehicle_type_id":"4","last_reported":1751516611,"current_range_meters":25600,"station_id":"","pricing_plan_id":"cebpf4jnsgd1na2vs0mg"},{"bike_id":"d65b436b-4fd6-4302-8d7c-07dd5bf19c71","system_id":"levelo_inurba_marseille","lat":43.314804,"lon":5.372981,"is_reserved":false,"is_disabled":false,"rental_uris":{"android":"levelo://app?vid=d65b436b-4fd6-4302-8d7c-07dd5bf19c71","ios":"levelo://app?vid=d65b436b-4fd6-4302-8d7c-07dd5bf19c71"},"vehicle_type_id":"4","last_reported":1751516611,"current_range_meters":25600,"station_id":"ce4bgt12rcd13ifvqcd0","pricing_plan_id":"cebpf4jnsgd1na2vs0mg"},{"bike_id":"79b1a6ca-cc6a-4b32-90c1-8cbe2f9079d7","system_id":"levelo_inurba_marseille","lat":43.3171,"lon":5.37733,"is_reserved":false,"is_disabled":false,"rental_uris":{"android":"levelo://app?vid=79b1a6ca-cc6a-4b32-90c1-8cbe2f9079d7","ios":"levelo://app?vid=79b1a6ca-cc6a-4b32-90c1-8cbe2f9079d7"},"vehicle_type_id":"4","last_reported":1751516611,"current_range_meters":25600,"station_id":"ce4bgth2rcd13ifvqch0","pricing_plan_id":"cebpf4jnsgd1na2vs0mg"},{"bike_id":"52dd1687-dc25-4e76-b0bb-13acdfbe4c9c","system_id":"levelo_inurba_marseille","lat":43.30638,"lon":5.40073,"is_reserved":false,"is_disabled":false,"rental_uris":{"android":"levelo://app?vid=52dd1687-dc25-4e76-b0bb-13acdfbe4c9c","ios":"levelo://app?vid=52dd1687-dc25-4e76-b0bb-13acdfbe4c9c"},"vehicle_type_id":"4","last_reported":1751516611,"current_range_meters":25600,"station_id":"ce4bh112rcd13ifvqda0","pricing_plan_id":"cebpf4jnsgd1na2vs0mg"},{"bike_id":"3e1dd007-ebdd-4e7c-a38a-b43f9965d207","system_id":"levelo_inurba_marseille","lat":43.32654,"lon":5.4099,"is_reserved":false,"is_disabled":false,"rental_uris":{"android":"levelo://app?vid=3e1dd007-ebdd-4e7c-a38a-b43f9965d207","ios":"levelo://app?vid=3e1dd007-ebdd-4e7c-a38a-b43f9965d207"},"vehicle_type_id":"4","last_reported":1751516611,"current_range_meters":25600,"station_id":"ce4bhpp2rcd13ifvqhgg","pricing_plan_id":"cebpf4jnsgd1na2vs0mg"},{"bike_id":"4f039a50-d5c2-4166-b4da-dc50aa312411","system_id":"levelo_inurba_marseille","lat":43.32347,"lon":5.40617,"is_reserved":false,"is_disabled":false,"rental_uris":{"android":"levelo://app?vid=4f039a50-d5c2-4166-b4da-dc50aa312411","ios":"levelo://app?vid=4f039a50-d5c2-4166-b4da-dc50aa312411"},"vehicle_type_id":"4","last_reported":1751516611,"current_range_meters":25600,"station_id":"ce4bhq92rcd13ifvqhjg","pricing_plan_id":"cebpf4jnsgd1na2vs0mg"},{"bike_id":"bf24b26e-7f51-4120-9a48-54c87edaa2f7","system_id":"levelo_inurba_marseille","lat":43.211904,"lon":5.350714,"is_reserved":false,"is_disabled":false,"rental_uris":{"android":"levelo://app?vid=bf24b26e-7f51-4120-9a48-54c87edaa2f7","ios":"levelo://app?vid=bf24b26e-7f51-4120-9a48-54c87edaa2f7"},"vehicle_type_id":"4","last_reported":1751516611,"current_range_meters":25600,"station_id":"st_cvj6sg6p6f1abm77japg","pricing_plan_id":"cebpf4jnsgd1na2vs0mg"},{"bike_id":"959be157-3d43-41ed-92ca-d1ddfc6415e7","system_id":"levelo_inurba_marseille","lat":43.3045,"lon":5.36643,"is_reserved":false,"is_disabled":false,"rental_uris":{"android":"levelo://app?vid=959be157-3d43-41ed-92ca-d1ddfc6415e7","ios":"levelo://app?vid=959be157-3d43-41ed-92ca-d1ddfc6415e7"},"vehicle_type_id":"4","last_reported":1751516611,"current_range_meters":26000,"station_id":"","pricing_plan_id":"cebpf4jnsgd1na2vs0mg"},{"bike_id":"e0b8641d-4ac5-49ce-a85b-a9822dd7fff2","system_id":"levelo_inurba_marseille","lat":43.31379,"lon":5.38486,"is_reserved":false,"is_disabled":false,"rental_uris":{"android":"levelo://app?vid=e0b8641d-4ac5-49ce-a85b-a9822dd7fff2","ios":"levelo://app?vid=e0b8641d-4ac5-49ce-a85b-a9822dd7fff2"},"vehicle_type_id":"4","last_reported":1751516611,"current_range_meters":26000,"station_id":"ce4bgt92rcd13ifvqcf0","pricing_plan_id":"cebpf4jnsgd1na2vs0mg"},{"bike_id":"a3dca0ed-2dea-423c-a46a-e35b06647b39","system_id":"levelo_inurba_marseille","lat":43.311691,"lon":5.387151,"is_reserved":false,"is_disabled":false,"rental_uris":{"android":"levelo://app?vid=a3dca0ed-2dea-423c-a46a-e35b06647b39","ios":"levelo://app?vid=a3dca0ed-2dea-423c-a46a-e35b06647b39"},"vehicle_type_id":"4","last_reported":1751516611,"current_range_meters":26000,"station_id":"ce4bgv12rcd13ifvqcp0","pricing_plan_id":"cebpf4jnsgd1na2vs0mg"},{"bike_id":"c3e40d0f-9167-4a9c-ae94-9707d87ea792","system_id":"levelo_inurba_marseille","lat":43.33767,"lon":5.37469,"is_reserved":false,"is_disabled":false,"rental_uris":{"android":"levelo://app?vid=c3e40d0f-9167-4a9c-ae94-9707d87ea792","ios":"levelo://app?vid=c3e40d0f-9167-4a9c-ae94-9707d87ea792"},"vehicle_type_id":"4","last_reported":1751516611,"current_range_meters":26800,"station_id":"","pricing_plan_id":"cebpf4jnsgd1na2vs0mg"},{"bike_id":"99247d02-767d-4eea-af73-e2e8cc645f2e","system_id":"levelo_inurba_marseille","lat":43.31383,"lon":5.39686,"is_reserved":false,"is_disabled":false,"rental_uris":{"android":"levelo://app?vid=99247d02-767d-4eea-af73-e2e8cc645f2e","ios":"levelo://app?vid=99247d02-767d-4eea-af73-e2e8cc645f2e"},"vehicle_type_id":"4","last_reported":1751516611,"current_range_meters":26800,"station_id":"","pricing_plan_id":"cebpf4jnsgd1na2vs0mg"},{"bike_id":"b4e8da63-abf8-4782-9532-25d8419430a5","system_id":"levelo_inurba_marseille","lat":43.30452,"lon":5.38884,"is_reserved":false,"is_disabled":false,"rental_uris":{"android":"levelo://app?vid=b4e8da63-abf8-4782-9532-25d8419430a5","ios":"levelo://app?vid=b4e8da63-abf8-4782-9532-25d8419430a5"},"vehicle_type_id":"4","last_reported":1751516611,"current_range_meters":26800,"station_id":"ce4bgk12rcd13ifvqbi0","pricing_plan_id":"cebpf4jnsgd1na2vs0mg"},{"bike_id":"6e011d2f-c526-41b2-a696-964892dd3416","system_id":"levelo_inurba_marseille","lat":43.3169,"lon":5.3777,"is_reserved":false,"is_disabled":false,"rental_uris":{"android":"levelo://app?vid=6e011d2f-c526-41b2-a696-964892dd3416","ios":"levelo://app?vid=6e011d2f-c526-41b2-a696-964892dd3416"},"vehicle_type_id":"4","last_reported":1751516611,"current_range_meters":26800,"station_id":"ce4bgth2rcd13ifvqch0","pricing_plan_id":"cebpf4jnsgd1na2vs0mg"},{"bike_id":"ba4f4879-18ba-43dc-9421-a9aa5e602212","system_id":"levelo_inurba_marseille","lat":43.31171,"lon":5.38725,"is_reserved":false,"is_disabled":false,"rental_uris":{"android":"levelo://app?vid=ba4f4879-18ba-43dc-9421-a9aa5e602212","ios":"levelo://app?vid=ba4f4879-18ba-43dc-9421-a9aa5e602212"},"vehicle_type_id":"4","last_reported":1751516611,"current_range_meters":26800,"station_id":"ce4bgv12rcd13ifvqcp0","pricing_plan_id":"cebpf4jnsgd1na2vs0mg"},{"bike_id":"6c814df1-e73c-49ca-b1e8-dbfb5d2a2203","system_id":"levelo_inurba_marseille","lat":43.25086,"lon":5.3952,"is_reserved":false,"is_disabled":false,"rental_uris":{"android":"levelo://app?vid=6c814df1-e73c-49ca-b1e8-dbfb5d2a2203","ios":"levelo://app?vid=6c814df1-e73c-49ca-b1e8-dbfb5d2a2203"},"vehicle_type_id":"4","last_reported":1751516611,"current_range_meters":26800,"station_id":"ce4bhm12rcd13ifvqgkg","pricing_plan_id":"cebpf4jnsgd1na2vs0mg"},{"bike_id":"3f137f09-bbbe-494e-99ba-85ea1cc10bb2","system_id":"levelo_inurba_marseille","lat":43.24165,"lon":5.39728,"is_reserved":false,"is_disabled":false,"rental_uris":{"android":"levelo://app?vid=3f137f09-bbbe-494e-99ba-85ea1cc10bb2","ios":"levelo://app?vid=3f137f09-bbbe-494e-99ba-85ea1cc10bb2"},"vehicle_type_id":"4","last_reported":1751516611,"current_range_meters":26800,"station_id":"ce4bhn12rcd13ifvqgpg","pricing_plan_id":"cebpf4jnsgd1na2vs0mg"},{"bike_id":"2021cfba-f54a-4f53-aad3-111c8338a993","system_id":"levelo_inurba_marseille","lat":43.29552,"lon":5.42288,"is_reserved":false,"is_disabled":false,"rental_uris":{"android":"levelo://app?vid=2021cfba-f54a-4f53-aad3-111c8338a993","ios":"levelo://app?vid=2021cfba-f54a-4f53-aad3-111c8338a993"},"vehicle_type_id":"4","last_reported":1751516611,"current_range_meters":26800,"station_id":"ce4bhph2rcd13ifvqhdg","pricing_plan_id":"cebpf4jnsgd1na2vs0mg"},{"bike_id":"735fb3ec-51d3-42a0-b0e0-35a6ef148211","system_id":"levelo_inurba_marseille","lat":43.312479,"lon":5.373567,"is_reserved":false,"is_disabled":false,"rental_uris":{"android":"levelo://app?vid=735fb3ec-51d3-42a0-b0e0-35a6ef148211","ios":"levelo://app?vid=735fb3ec-51d3-42a0-b0e0-35a6ef148211"},"vehicle_type_id":"4","last_reported":1751516611,"current_range_meters":27200,"station_id":"","pricing_plan_id":"cebpf4jnsgd1na2vs0mg"},{"bike_id":"5b5ca915-19f5-4c5c-ba88-71fe4a9869eb","system_id":"levelo_inurba_marseille","lat":43.31705,"lon":5.37776,"is_reserved":false,"is_disabled":false,"rental_uris":{"android":"levelo://app?vid=5b5ca915-19f5-4c5c-ba88-71fe4a9869eb","ios":"levelo://app?vid=5b5ca915-19f5-4c5c-ba88-71fe4a9869eb"},"vehicle_type_id":"4","last_reported":1751516611,"current_range_meters":27200,"station_id":"ce4bgth2rcd13ifvqch0","pricing_plan_id":"cebpf4jnsgd1na2vs0mg"},{"bike_id":"6aa0b44c-d677-4218-ad2a-e3ff0532f106","system_id":"levelo_inurba_marseille","lat":43.313249,"lon":5.397149,"is_reserved":false,"is_disabled":false,"rental_uris":{"android":"levelo://app?vid=6aa0b44c-d677-4218-ad2a-e3ff0532f106","ios":"levelo://app?vid=6aa0b44c-d677-4218-ad2a-e3ff0532f106"},"vehicle_type_id":"4","last_reported":1751516611,"current_range_meters":27200,"station_id":"ce4bgvp2rcd13ifvqcu0","pricing_plan_id":"cebpf4jnsgd1na2vs0mg"},{"bike_id":"f0221b20-dc4e-4ba5-b53f-00f63c14aef8","system_id":"levelo_inurba_marseille","lat":43.28278,"lon":5.35085,"is_reserved":false,"is_disabled":false,"rental_uris":{"android":"levelo://app?vid=f0221b20-dc4e-4ba5-b53f-00f63c14aef8","ios":"levelo://app?vid=f0221b20-dc4e-4ba5-b53f-00f63c14aef8"},"vehicle_type_id":"4","last_reported":1751516611,"current_range_meters":27200,"station_id":"ce4bhbp2rcd13ifvqerg","pricing_plan_id":"cebpf4jnsgd1na2vs0mg"},{"bike_id":"ca31b2a2-75e4-451e-a57f-9b3ea99d0393","system_id":"levelo_inurba_marseille","lat":43.30426,"lon":5.412743,"is_reserved":false,"is_disabled":false,"rental_uris":{"android":"levelo://app?vid=ca31b2a2-75e4-451e-a57f-9b3ea99d0393","ios":"levelo://app?vid=ca31b2a2-75e4-451e-a57f-9b3ea99d0393"},"vehicle_type_id":"4","last_reported":1751516611,"current_range_meters":27200,"station_id":"ce4bhop2rcd13ifvqh8g","pricing_plan_id":"cebpf4jnsgd1na2vs0mg"},{"bike_id":"235b8fa3-011c-42e0-b7aa-66139a50cfae","system_id":"levelo_inurba_marseille","lat":43.241719,"lon":5.363878,"is_reserved":false,"is_disabled":false,"rental_uris":{"android":"levelo://app?vid=235b8fa3-011c-42e0-b7aa-66139a50cfae","ios":"levelo://app?vid=235b8fa3-011c-42e0-b7aa-66139a50cfae"},"vehicle_type_id":"4","last_reported":1751516611,"current_range_meters":27200,"station_id":"cpo36qri1sfpv3e86is0","pricing_plan_id":"cebpf4jnsgd1na2vs0mg"},{"bike_id":"3e8597a2-3277-46c5-8ea3-144b54d04f02","system_id":"levelo_inurba_marseille","lat":43.29904,"lon":5.38145,"is_reserved":false,"is_disabled":false,"rental_uris":{"android":"levelo://app?vid=3e8597a2-3277-46c5-8ea3-144b54d04f02","ios":"levelo://app?vid=3e8597a2-3277-46c5-8ea3-144b54d04f02"},"vehicle_type_id":"4","last_reported":1751516611,"current_range_meters":27600,"station_id":"ce4bgj12rcd13ifvqbc0","pricing_plan_id":"cebpf4jnsgd1na2vs0mg"},{"bike_id":"2e936089-7811-4258-b987-318377f08d8f","system_id":"levelo_inurba_marseille","lat":43.30146,"lon":5.381,"is_reserved":false,"is_disabled":false,"rental_uris":{"android":"levelo://app?vid=2e936089-7811-4258-b987-318377f08d8f","ios":"levelo://app?vid=2e936089-7811-4258-b987-318377f08d8f"},