{"last_updated":1738307303,"ttl":60,"version":"2.2","data":{"bikes":[{"bike_id":"56219279-1c5e-4efe-819b-8ac0b6caa470","system_id":"levelo_inurba_marseille","lat":43.30349,"lon":5.41867,"is_reserved":false,"is_disabled":false,"rental_uris":{"android":"levelo://app?vid=56219279-1c5e-4efe-819b-8ac0b6caa470","ios":"levelo://app?vid=56219279-1c5e-4efe-819b-8ac0b6caa470"},"vehicle_type_id":"4","last_reported":1738307303,"current_range_meters":38800,"station_id":"ce4bhop2rcd13ifvqh7g","pricing_plan_id":"cebpf4jnsgd1na2vs0mg"},{"bike_id":"31270426-539a-44d7-942e-c2e16893d54c","system_id":"levelo_inurba_marseille","lat":43.29573,"lon":5.37505,"is_reserved":false,"is_disabled":false,"rental_uris":{"android":"levelo://app?vid=31270426-539a-44d7-942e-c2e16893d54c","ios":"levelo://app?vid=31270426-539a-44d7-942e-c2e16893d54c"},"vehicle_type_id":"4","last_reported":1738307303,"current_range_meters":37600,"station_id":"ce4bgh92rcd13ifvqb50","pricing_plan_id":"cebpf4jnsgd1na2vs0mg"},{"bike_id":"13cf6294-7a88-44d2-a095-708804f6554d","system_id":"levelo_inurba_marseille","lat":43.30313,"lon":5.36903,"is_reserved":false,"is_disabled":false,"rental_uris":{"android":"levelo://app?vid=13cf6294-7a88-44d2-a095-708804f6554d","ios":"levelo://app?vid=13cf6294-7a88-44d2-a095-708804f6554d"},"vehicle_type_id":"4","last_reported":1738307303,"current_range_meters":38400,"station_id":"ce4bgqh2rcd13ifvqc5g","pricing_plan_id":"cebpf4jnsgd1na2vs0mg"},{"bike_id":"c9acd618-b997-46a4-b4d9-ebd1d77a888d","system_id":"levelo_inurba_marseille","lat":43.29287,"lon":5.40129,"is_reserved":false,"is_disabled":false,"rental_uris":{"android":"levelo://app?vid=c9acd618-b997-46a4-b4d9-ebd1d77a888d","ios":"levelo://app?vid=c9acd618-b997-46a4-b4d9-ebd1d77a888d"},"vehicle_type_id":"4","last_reported":1738307303,"current_range_meters":9200,"station_id":"ce4bh312rcd13ifvqdk0","pricing_plan_id":"cebpf4jnsgd1na2vs0mg"},{"bike_id":"d45a2186-1f37-427b-893e-e32d45680970","system_id":"levelo_inurba_marseille","lat":43.29048,"lon":5.39946,"is_reserved":false,"is_disabled":false,"rental_uris":{"android":"levelo://app?vid=d45a2186-1f37-427b-893e-e32d45680970","ios":"levelo://app?vid=d45a2186-1f37-427b-893e-e32d45680970"},"vehicle_type_id":"4","last_reported":1738307303,"current_range_meters":16800,"station_id":"ce4bh392rcd13ifvqdm0","pricing_plan_id":"cebpf4jnsgd1na2vs0mg"},{"bike_id":"f7f8117f-03ef-415e-85c6-2eeaf165e4f2","system_id":"levelo_inurba_marseille","lat":43.262256,"lon":5.404394,"is_reserved":false,"is_disabled":true,"rental_uris":{"android":"levelo://app?vid=f7f8117f-03ef-415e-85c6-2eeaf165e4f2","ios":"levelo://app?vid=f7f8117f-03ef-415e-85c6-2eeaf165e4f2"},"vehicle_type_id":"4","last_reported":1738307303,"current_range_meters":23200,"station_id":"ce4bhmh2rcd13ifvqgmg","pricing_plan_id":"cebpf4jnsgd1na2vs0mg"},{"bike_id":"5860a0b3-2c0e-443f-b0f2-cb8980499f09","system_id":"levelo_inurba_marseille","lat":43.29044,"lon":5.39965,"is_reserved":false,"is_disabled":false,"rental_uris":{"android":"levelo://app?vid=5860a0b3-2c0e-443f-b0f2-cb8980499f09","ios":"levelo://app?vid=5860a0b3-2c0e-443f-b0f2-cb8980499f09"},"vehicle_type_id":"4","last_reported":1738307303,"current_range_meters":37600,"station_id":"ce4bh392rcd13ifvqdm0","pricing_plan_id":"cebpf4jnsgd1na2vs0mg"},{"bike_id":"b29776bc-bced-4494-b0b8-f1096e29c4f6","system_id":"levelo_inurba_marseille","lat":43.30328,"lon":5.3649,"is_reserved":false,"is_disabled":false,"rental_uris":{"android":"levelo://app?vid=b29776bc-bced-4494-b0b8-f1096e29c4f6","ios":"levelo://app?vid=b29776bc-bced-4494-b0b8-f1096e29c4f6"},"vehicle_type_id":"4","last_reported":1738307303,"current_range_meters":35200,"station_id":"","pricing_plan_id":"cebpf4jnsgd1na2vs0mg"},{"bike_id":"c638a1eb-b4d3-4a47-88f5-4ffd2e894e36","system_id":"levelo_inurba_marseille","lat":43.28107,"lon":5.3784,"is_reserved":false,"is_disabled":false,"rental_uris":{"android":"levelo://app?vid=c638a1eb-b4d3-4a47-88f5-4ffd2e894e36","ios":"levelo://app?vid=c638a1eb-b4d3-4a47-88f5-4ffd2e894e36"},"vehicle_type_id":"4","last_reported":1738307303,"current_range_meters":33200,"station_id":"ce4bha12rcd13ifvqee0","pricing_plan_id":"cebpf4jnsgd1na2vs0mg"},{"bike_id":"0baa1483-1bd9-4e02-ab05-61cbf4d9e6e6","system_id":"levelo_inurba_marseille","lat":43.2906,"lon":5.37185,"is_reserved":false,"is_disabled":true,"rental_uris":{"android":"levelo://app?vid=0baa1483-1bd9-4e02-ab05-61cbf4d9e6e6","ios":"levelo://app?vid=0baa1483-1bd9-4e02-ab05-61cbf4d9e6e6"},"vehicle_type_id":"4","last_reported":1738307303,"current_range_meters":14400,"station_id":"ce4bh5p2rcd13ifvqe4g","pricing_plan_id":"cebpf4jnsgd1na2vs0mg"},{"bike_id":"fa90cb4b-e496-4f14-b492-c9095cf23d3f","system_id":"levelo_inurba_marseille","lat":43.29901,"lon":5.38146,"is_reserved":false,"is_disabled":true,"rental_uris":{"android":"levelo://app?vid=fa90cb4b-e496-4f14-b492-c9095cf23d3f","ios":"levelo://app?vid=fa90cb4b-e496-4f14-b492-c9095cf23d3f"},"vehicle_type_id":"4","last_reported":1738307303,"current_range_meters":26800,"station_id":"ce4bgj12rcd13ifvqbc0","pricing_plan_id":"cebpf4jnsgd1na2vs0mg"},{"bike_id":"83a618ca-80af-4bec-9a07-cd785ad379e9","system_id":"levelo_inurba_marseille","lat":43.26932,"lon":5.40249,"is_reserved":false,"is_disabled":false,"rental_uris":{"android":"levelo://app?vid=83a618ca-80af-4bec-9a07-cd785ad379e9","ios":"levelo://app?vid=83a618ca-80af-4bec-9a07-cd785ad379e9"},"vehicle_type_id":"4","last_reported":1738307303,"current_range_meters":33200,"station_id":"cjm6bp8fraef2m0cb0m0","pricing_plan_id":"cebpf4jnsgd1na2vs0mg"},{"bike_id":"029c1c55-771b-423d-b136-a4a5af8d1d8f","system_id":"levelo_inurba_marseille","lat":43.25353,"lon":5.38493,"is_reserved":false,"is_disabled":false,"rental_uris":{"android":"levelo://app?vid=029c1c55-771b-423d-b136-a4a5af8d1d8f","ios":"levelo://app?vid=029c1c55-771b-423d-b136-a4a5af8d1d8f"},"vehicle_type_id":"4","last_reported":1738307303,"current_range_meters":33600,"station_id":"ce4bhh92rcd13ifvqfh0","pricing_plan_id":"cebpf4jnsgd1na2vs0mg"},{"bike_id":"894c4f53-54a0-41ea-8136-c197654f9583","system_id":"levelo_inurba_marseille","lat":43.29597,"lon":5.38098,"is_reserved":false,"is_disabled":true,"rental_uris":{"android":"levelo://app?vid=894c4f53-54a0-41ea-8136-c197654f9583","ios":"levelo://app?vid=894c4f53-54a0-41ea-8136-c197654f9583"},"vehicle_type_id":"4","last_reported":1738307303,"current_range_meters":2000,"station_id":"ce4bgl12rcd13ifvqbo0","pricing_plan_id":"cebpf4jnsgd1na2vs0mg"},{"bike_id":"ca2fce3d-df4e-4367-b9ef-43ae3724ace7","system_id":"levelo_inurba_marseille","lat":43.25131,"lon":5.40282,"is_reserved":false,"is_disabled":false,"rental_uris":{"android":"levelo://app?vid=ca2fce3d-df4e-4367-b9ef-43ae3724ace7","ios":"levelo://app?vid=ca2fce3d-df4e-4367-b9ef-43ae3724ace7"},"vehicle_type_id":"4","last_reported":1738307303,"current_range_meters":29600,"station_id":"ce4bhlh2rcd13ifvqgig","pricing_plan_id":"cebpf4jnsgd1na2vs0mg"},{"bike_id":"3bf4d177-f44c-4dc5-bbb8-4a99b1fbed63","system_id":"levelo_inurba_marseille","lat":43.24075,"lon":5.3775,"is_reserved":false,"is_disabled":false,"rental_uris":{"android":"levelo://app?vid=3bf4d177-f44c-4dc5-bbb8-4a99b1fbed63","ios":"levelo://app?vid=3bf4d177-f44c-4dc5-bbb8-4a99b1fbed63"},"vehicle_type_id":"4","last_reported":1738307303,"current_range_meters":7200,"station_id":"ce4bhnp2rcd13ifvqgvg","pricing_plan_id":"cebpf4jnsgd1na2vs0mg"},{"bike_id":"68e0f33d-c6dd-4988-8070-60e2af279816","system_id":"levelo_inurba_marseille","lat":43.27908,"lon":5.3958,"is_reserved":false,"is_disabled":false,"rental_uris":{"android":"levelo://app?vid=68e0f33d-c6dd-4988-8070-60e2af279816","ios":"levelo://app?vid=68e0f33d-c6dd-4988-8070-60e2af279816"},"vehicle_type_id":"4","last_reported":1738307303,"current_range_meters":36400,"station_id":"ce4bhf92rcd13ifvqf40","pricing_plan_id":"cebpf4jnsgd1na2vs0mg"},{"bike_id":"bff900f1-8165-4761-a395-289b29398fe5","system_id":"levelo_inurba_marseille","lat":43.27906,"lon":5.39583,"is_reserved":false,"is_disabled":false,"rental_uris":{"android":"levelo://app?vid=bff900f1-8165-4761-a395-289b29398fe5","ios":"levelo://app?vid=bff900f1-8165-4761-a395-289b29398fe5"},"vehicle_type_id":"4","last_reported":1738307303,"current_range_meters":8000,"station_id":"ce4bhf92rcd13ifvqf40","pricing_plan_id":"cebpf4jnsgd1na2vs0mg"},{"bike_id":"32c2be47-5997-40f8-b9d1-340939e2797c","system_id":"levelo_inurba_marseille","lat":43.27812,"lon":5.40714,"is_reserved":false,"is_disabled":false,"rental_uris":{"android":"levelo://app?vid=32c2be47-5997-40f8-b9d1-340939e2797c","ios":"levelo://app?vid=32c2be47-5997-40f8-b9d1-340939e2797c"},"vehicle_type_id":"4","last_reported":1738307303,"current_range_meters":20400,"station_id":"ce4bhnh2rcd13ifvqgtg","pricing_plan_id":"cebpf4jnsgd1na2vs0mg"},{"bike_id":"a9a12b57-7eb7-49fb-ba95-6c00f1b23d00","system_id":"levelo_inurba_marseille","lat":43.28109,"lon":5.37831,"is_reserved":false,"is_disabled":false,"rental_uris":{"android":"levelo://app?vid=a9a12b57-7eb7-49fb-ba95-6c00f1b23d00","ios":"levelo://app?vid=a9a12b57-7eb7-49fb-ba95-6c00f1b23d00"},"vehicle_type_id":"4","last_reported":1738307303,"current_range_meters":17200,"station_id":"ce4bha12rcd13ifvqee0","pricing_plan_id":"cebpf4jnsgd1na2vs0mg"},{"bike_id":"1fbf3f20-0930-4b85-8900-561217e5a0eb","system_id":"levelo_inurba_marseille","lat":43.304121,"lon":5.412795,"is_reserved":false,"is_disabled":false,"rental_uris":{"android":"levelo://app?vid=1fbf3f20-0930-4b85-8900-561217e5a0eb","ios":"levelo://app?vid=1fbf3f20-0930-4b85-8900-561217e5a0eb"},"vehicle_type_id":"4","last_reported":1738307303,"current_range_meters":28800,"station_id":"ce4bhop2rcd13ifvqh8g","pricing_plan_id":"cebpf4jnsgd1na2vs0mg"},{"bike_id":"45aae4cc-4dbe-4320-8416-114ee05978f1","system_id":"levelo_inurba_marseille","lat":43.2976,"lon":5.3809,"is_reserved":false,"is_disabled":true,"rental_uris":{"android":"levelo://app?vid=45aae4cc-4dbe-4320-8416-114ee05978f1","ios":"levelo://app?vid=45aae4cc-4dbe-4320-8416-114ee05978f1"},"vehicle_type_id":"4","last_reported":1738307303,"current_range_meters":38000,"station_id":"ce4bgip2rcd13ifvqbb0","pricing_plan_id":"cebpf4jnsgd1na2vs0mg"},{"bike_id":"086c7782-679f-4d19-9aaa-d696ab0b8c4e","system_id":"levelo_inurba_marseille","lat":43.278209,"lon":5.407219,"is_reserved":false,"is_disabled":true,"rental_uris":{"android":"levelo://app?vid=086c7782-679f-4d19-9aaa-d696ab0b8c4e","ios":"levelo://app?vid=086c7782-679f-4d19-9aaa-d696ab0b8c4e"},"vehicle_type_id":"4","last_reported":1738307303,"current_range_meters":27600,"station_id":"ce4bhnh2rcd13ifvqgtg","pricing_plan_id":"cebpf4jnsgd1na2vs0mg"},{"bike_id":"5ec3d04b-f2c7-48c0-9c3b-aac07a26ef3b","system_id":"levelo_inurba_marseille","lat":43.25102,"lon":5.40337,"is_reserved":false,"is_disabled":false,"rental_uris":{"android":"levelo://app?vid=5ec3d04b-f2c7-48c0-9c3b-aac07a26ef3b","ios":"levelo://app?vid=5ec3d04b-f2c7-48c0-9c3b-aac07a26ef3b"},"vehicle_type_id":"4","last_reported":1738307303,"current_range_meters":17200,"station_id":"ce4bhlh2rcd13ifvqgig","pricing_plan_id":"cebpf4jnsgd1na2vs0mg"},{"bike_id":"93df7b93-bd44-4f48-9008-f5bad7152cc2","system_id":"levelo_inurba_marseille","lat":43.30145,"lon":5.38081,"is_reserved":false,"is_disabled":false,"rental_uris":{"android":"levelo://app?vid=93df7b93-bd44-4f48-9008-f5bad7152cc2","ios":"levelo://app?vid=93df7b93-bd44-4f48-9008-f5bad7152cc2"},"vehicle_type_id":"4","last_reported":1738307303,"current_range_meters":17600,"station_id":"ce4bgjp2rcd13ifvqbh0","pricing_plan_id":"cebpf4jnsgd1na2vs0mg"},{"bike_id":"4d04043b-d19f-4ba5-869b-e465e7c6903f","system_id":"levelo_inurba_marseille","lat":43.24066,"lon":5.37771,"is_reserved":false,"is_disabled":false,"rental_uris":{"android":"levelo://app?vid=4d04043b-d19f-4ba5-869b-e465e7c6903f","ios":"levelo://app?vid=4d04043b-d19f-4ba5-869b-e465e7c6903f"},"vehicle_type_id":"4","last_reported":1738307303,"current_range_meters":38800,"station_id":"ce4bhnp2rcd13ifvqgvg","pricing_plan_id":"cebpf4jnsgd1na2vs0mg"},{"bike_id":"befe1838-b5eb-4db0-aeea-9ea02214eae7","system_id":"levelo_inurba_marseille","lat":43.25083,"lon":5.39507,"is_reserved":false,"is_disabled":false,"rental_uris":{"android":"levelo://app?vid=befe1838-b5eb-4db0-aeea-9ea02214eae7","ios":"levelo://app?vid=befe1838-b5eb-4db0-aeea-9ea02214eae7"},"vehicle_type_id":"4","last_reported":1738307303,"current_range_meters":34800,"station_id":"ce4bhm12rcd13ifvqgkg","pricing_plan_id":"cebpf4jnsgd1na2vs0mg"},{"bike_id":"7a4b3ce6-5e76-4c3d-b967-fdb1381cfca1","system_id":"levelo_inurba_marseille","lat":43.29202,"lon":5.39323,"is_reserved":false,"is_disabled":true,"rental_uris":{"android":"levelo://app?vid=7a4b3ce6-5e76-4c3d-b967-fdb1381cfca1","ios":"levelo://app?vid=7a4b3ce6-5e76-4c3d-b967-fdb1381cfca1"},"vehicle_type_id":"4","last_reported":1738307303,"current_range_meters":400,"station_id":"ce4bh192rcd13ifvqdd0","pricing_plan_id":"cebpf4jnsgd1na2vs0mg"},{"bike_id":"a2c2f7f6-53e1-41aa-a1bb-36c8d98a1715","system_id":"levelo_inurba_marseille","lat":43.2781,"lon":5.40718,"is_reserved":false,"is_disabled":false,"rental_uris":{"android":"levelo://app?vid=a2c2f7f6-53e1-41aa-a1bb-36c8d98a1715","ios":"levelo://app?vid=a2c2f7f6-53e1-41aa-a1bb-36c8d98a1715"},"vehicle_type_id":"4","last_reported":1738307303,"current_range_meters":9200,"station_id":"ce4bhnh2rcd13ifvqgtg","pricing_plan_id":"cebpf4jnsgd1na2vs0mg"},{"bike_id":"91eeaabf-de38-4655-8d4f-f32a3b88d88e","system_id":"levelo_inurba_marseille","lat":43.292545,"lon":5.384342,"is_reserved":false,"is_disabled":true,"rental_uris":{"android":"levelo://app?vid=91eeaabf-de38-4655-8d4f-f32a3b88d88e","ios":"levelo://app?vid=91eeaabf-de38-4655-8d4f-f32a3b88d88e"},"vehicle_type_id":"4","last_reported":1738307303,"current_range_meters":20800,"station_id":"ce4bh692rcd13ifvqea0","pricing_plan_id":"cebpf4jnsgd1na2vs0mg"},{"bike_id":"ab0ec696-ce2c-4f7f-a964-2e9c9f313854","system_id":"levelo_inurba_marseille","lat":43.239665,"lon":5.366304,"is_reserved":false,"is_disabled":false,"rental_uris":{"android":"levelo://app?vid=ab0ec696-ce2c-4f7f-a964-2e9c9f313854","ios":"levelo://app?vid=ab0ec696-ce2c-4f7f-a964-2e9c9f313854"},"vehicle_type_id":"4","last_reported":1738307303,"current_range_meters":29600,"station_id":"ce4bhi12rcd13ifvqfp0","pricing_plan_id":"cebpf4jnsgd1na2vs0mg"},{"bike_id":"1c63fa7b-8bb3-4da5-8267-9c40ab75cc0b","system_id":"levelo_inurba_marseille","lat":43.33705,"lon":5.39169,"is_reserved":false,"is_disabled":false,"rental_uris":{"android":"levelo://app?vid=1c63fa7b-8bb3-4da5-8267-9c40ab75cc0b","ios":"levelo://app?vid=1c63fa7b-8bb3-4da5-8267-9c40ab75cc0b"},"vehicle_type_id":"4","last_reported":1738307303,"current_range_meters":38800,"station_id":"ce4bhr92rcd13ifvqhsg","pricing_plan_id":"cebpf4jnsgd1na2vs0mg"},{"bike_id":"e99c90aa-e079-42e2-a963-1534829ba9c7","system_id":"levelo_inurba_marseille","lat":43.262134,"lon":5.374434,"is_reserved":false,"is_disabled":false,"rental_uris":{"android":"levelo://app?vid=e99c90aa-e079-42e2-a963-1534829ba9c7","ios":"levelo://app?vid=e99c90aa-e079-42e2-a963-1534829ba9c7"},"vehicle_type_id":"4","last_reported":1738307303,"current_range_meters":33200,"station_id":"ce4bhgp2rcd13ifvqfc0","pricing_plan_id":"cebpf4jnsgd1na2vs0mg"},{"bike_id":"d908ef3b-09f1-43ac-a5bc-eb4b647015c1","system_id":"levelo_inurba_marseille","lat":43.29221,"lon":5.36048,"is_reserved":false,"is_disabled":false,"rental_uris":{"android":"levelo://app?vid=d908ef3b-09f1-43ac-a5bc-eb4b647015c1","ios":"levelo://app?vid=d908ef3b-09f1-43ac-a5bc-eb4b647015c1"},"vehicle_type_id":"4","last_reported":1738307303,"current_range_meters":9200,"station_id":"ce4bhbh2rcd13ifvqeqg","pricing_plan_id":"cebpf4jnsgd1na2vs0mg"},{"bike_id":"472815ce-dd78-4e4c-82e8-cea31da48d22","system_id":"levelo_inurba_marseille","lat":43.33746,"lon":5.39144,"is_reserved":false,"is_disabled":false,"rental_uris":{"android":"levelo://app?vid=472815ce-dd78-4e4c-82e8-cea31da48d22","ios":"levelo://app?vid=472815ce-dd78-4e4c-82e8-cea31da48d22"},"vehicle_type_id":"4","last_reported":1738307303,"current_range_meters":39200,"station_id":"ce4bhr92rcd13ifvqhsg","pricing_plan_id":"cebpf4jnsgd1na2vs0mg"},{"bike_id":"cc47836a-b908-432f-8e0e-2f793407f141","system_id":"levelo_inurba_marseille","lat":43.22943,"lon":5.35373,"is_reserved":false,"is_disabled":false,"rental_uris":{"android":"levelo://app?vid=cc47836a-b908-432f-8e0e-2f793407f141","ios":"levelo://app?vid=cc47836a-b908-432f-8e0e-2f793407f141"},"vehicle_type_id":"4","last_reported":1738307303,"current_range_meters":11200,"station_id":"cpo3532slgdg3j2ikp40","pricing_plan_id":"cebpf4jnsgd1na2vs0mg"},{"bike_id":"52db1786-8808-4a19-b276-2f2292b051fb","system_id":"levelo_inurba_marseille","lat":43.29911,"lon":5.37465,"is_reserved":false,"is_disabled":false,"rental_uris":{"android":"levelo://app?vid=52db1786-8808-4a19-b276-2f2292b051fb","ios":"levelo://app?vid=52db1786-8808-4a19-b276-2f2292b051fb"},"vehicle_type_id":"4","last_reported":1738307303,"current_range_meters":4800,"station_id":"ce4bgjh2rcd13ifvqbg0","pricing_plan_id":"cebpf4jnsgd1na2vs0mg"},{"bike_id":"f6afaadc-8a64-4520-9e68-285b035334db","system_id":"levelo_inurba_marseille","lat":43.30504,"lon":5.36724,"is_reserved":false,"is_disabled":false,"rental_uris":{"android":"levelo://app?vid=f6afaadc-8a64-4520-9e68-285b035334db","ios":"levelo://app?vid=f6afaadc-8a64-4520-9e68-285b035334db"},"vehicle_type_id":"4","last_reported":1738307303,"current_range_meters":3600,"station_id":"ce4bgrp2rcd13ifvqc9g","pricing_plan_id":"cebpf4jnsgd1na2vs0mg"},{"bike_id":"059da843-5508-4c06-84ba-9a3d19124fee","system_id":"levelo_inurba_marseille","lat":43.28817,"lon":5.35871,"is_reserved":false,"is_disabled":false,"rental_uris":{"android":"levelo://app?vid=059da843-5508-4c06-84ba-9a3d19124fee","ios":"levelo://app?vid=059da843-5508-4c06-84ba-9a3d19124fee"},"vehicle_type_id":"4","last_reported":1738307303,"current_range_meters":35600,"station_id":"ce4bhb12rcd13ifvqem0","pricing_plan_id":"cebpf4jnsgd1na2vs0mg"},{"bike_id":"7f0c4ddc-7112-417e-84e0-aac0c2a58765","system_id":"levelo_inurba_marseille","lat":43.280795,"lon":5.396589,"is_reserved":false,"is_disabled":false,"rental_uris":{"android":"levelo://app?vid=7f0c4ddc-7112-417e-84e0-aac0c2a58765","ios":"levelo://app?vid=7f0c4ddc-7112-417e-84e0-aac0c2a58765"},"vehicle_type_id":"4","last_reported":1738307303,"current_range_meters":37600,"station_id":"ce4bho12rcd13ifvqh2g","pricing_plan_id":"cebpf4jnsgd1na2vs0mg"},{"bike_id":"7fbc607b-e12b-47bd-a53f-1c18ac62adfd","system_id":"levelo_inurba_marseille","lat":43.27805,"lon":5.40723,"is_reserved":false,"is_disabled":false,"rental_uris":{"android":"levelo://app?vid=7fbc607b-e12b-47bd-a53f-1c18ac62adfd","ios":"levelo://app?vid=7fbc607b-e12b-47bd-a53f-1c18ac62adfd"},"vehicle_type_id":"4","last_reported":1738307303,"current_range_meters":34800,"station_id":"ce4bhnh2rcd13ifvqgtg","pricing_plan_id":"cebpf4jnsgd1na2vs0mg"},{"bike_id":"735cf356-6ca7-4c83-bf25-d301ccde8042","system_id":"levelo_inurba_marseille","lat":43.27174,"lon":5.40991,"is_reserved":false,"is_disabled":false,"rental_uris":{"android":"levelo://app?vid=735cf356-6ca7-4c83-bf25-d301ccde8042","ios":"levelo://app?vid=735cf356-6ca7-4c83-bf25-d301ccde8042"},"vehicle_type_id":"4","last_reported":1738307303,"current_range_meters":27200,"station_id":"ce4bhl12rcd13ifvqgf0","pricing_plan_id":"cebpf4jnsgd1na2vs0mg"},{"bike_id":"f34fcd93-0f66-400a-8f07-aa08bfa23861","system_id":"levelo_inurba_marseille","lat":43.25939,"lon":5.40911,"is_reserved":false,"is_disabled":false,"rental_uris":{"android":"levelo://app?vid=f34fcd93-0f66-400a-8f07-aa08bfa23861","ios":"levelo://app?vid=f34fcd93-0f66-400a-8f07-aa08bfa23861"},"vehicle_type_id":"4","last_reported":1738307303,"current_range_meters":38400,"station_id":"ce4bhm92rcd13ifvqglg","pricing_plan_id":"cebpf4jnsgd1na2vs0mg"},{"bike_id":"abeaed77-608d-47ae-b8e4-a2e36704ed2c","system_id":"levelo_inurba_marseille","lat":43.2704,"lon":5.40267,"is_reserved":false,"is_disabled":true,"rental_uris":{"android":"levelo://app?vid=abeaed77-608d-47ae-b8e4-a2e36704ed2c","ios":"levelo://app?vid=abeaed77-608d-47ae-b8e4-a2e36704ed2c"},"vehicle_type_id":"4","last_reported":1738307303,"current_range_meters":36800,"station_id":"ce4bhk92rcd13ifvqgc0","pricing_plan_id":"cebpf4jnsgd1na2vs0mg"},{"bike_id":"606053f9-3da2-4594-b4df-8e24b5fa812c","system_id":"levelo_inurba_marseille","lat":43.26935,"lon":5.40266,"is_reserved":false,"is_disabled":false,"rental_uris":{"android":"levelo://app?vid=606053f9-3da2-4594-b4df-8e24b5fa812c","ios":"levelo://app?vid=606053f9-3da2-4594-b4df-8e24b5fa812c"},"vehicle_type_id":"4","last_reported":1738307303,"current_range_meters":38400,"station_id":"cjm6bp8fraef2m0cb0m0","pricing_plan_id":"cebpf4jnsgd1na2vs0mg"},{"bike_id":"b5851903-f7ea-462a-a4cc-c981798b0a21","system_id":"levelo_inurba_marseille","lat":43.29417,"lon":5.38618,"is_reserved":false,"is_disabled":false,"rental_uris":{"android":"levelo://app?vid=b5851903-f7ea-462a-a4cc-c981798b0a21","ios":"levelo://app?vid=b5851903-f7ea-462a-a4cc-c981798b0a21"},"vehicle_type_id":"4","last_reported":1738307303,"current_range_meters":29600,"station_id":"ce4bh2h2rcd13ifvqdh0","pricing_plan_id":"cebpf4jnsgd1na2vs0mg"},{"bike_id":"98ce8ffc-5472-474d-a279-9cd781a6aa87","system_id":"levelo_inurba_marseille","lat":43.34139,"lon":5.40905,"is_reserved":false,"is_disabled":false,"rental_uris":{"android":"levelo://app?vid=98ce8ffc-5472-474d-a279-9cd781a6aa87","ios":"levelo://app?vid=98ce8ffc-5472-474d-a279-9cd781a6aa87"},"vehicle_type_id":"4","last_reported":1738307303,"current_range_meters":39200,"station_id":"ce4bhqh2rcd13ifvqhlg","pricing_plan_id":"cebpf4jnsgd1na2vs0mg"},{"bike_id":"7bf0b083-5d7a-408e-adaa-18c38cfadd6e","system_id":"levelo_inurba_marseille","lat":43.22923,"lon":5.35385,"is_reserved":false,"is_disabled":false,"rental_uris":{"android":"levelo://app?vid=7bf0b083-5d7a-408e-adaa-18c38cfadd6e","ios":"levelo://app?vid=7bf0b083-5d7a-408e-adaa-18c38cfadd6e"},"vehicle_type_id":"4","last_reported":1738307303,"current_range_meters":13600,"station_id":"cpo3532slgdg3j2ikp40","pricing_plan_id":"cebpf4jnsgd1na2vs0mg"},{"bike_id":"b13295cb-df55-4c47-af8c-9c0fcad8e6f3","system_id":"levelo_inurba_marseille","lat":43.31702,"lon":5.37733,"is_reserved":false,"is_disabled":false,"rental_uris":{"android":"levelo://app?vid=b13295cb-df55-4c47-af8c-9c0fcad8e6f3","ios":"levelo://app?vid=b13295cb-df55-4c47-af8c-9c0fcad8e6f3"},"vehicle_type_id":"4","last_reported":1738307303,"current_range_meters":30000,"station_id":"ce4bgth2rcd13ifvqch0","pricing_plan_id":"cebpf4jnsgd1na2vs0mg"},{"bike_id":"db14cd8a-5ba9-45f6-b197-f717b13b5230","system_id":"levelo_inurba_marseille","lat":43.298454,"lon":5.362784,"is_reserved":false,"is_disabled":false,"rental_uris":{"android":"levelo://app?vid=db14cd8a-5ba9-45f6-b197-f717b13b5230","ios":"levelo://app?vid=db14cd8a-5ba9-45f6-b197-f717b13b5230"},"vehicle_type_id":"4","last_reported":1738307303,"current_range_meters":38800,"station_id":"ce4bgpp2rcd13ifvqc3g","pricing_plan_id":"cebpf4jnsgd1na2vs0mg"},{"bike_id":"76c62025-0c64-43aa-9a5a-431b5463c6b6","system_id":"levelo_inurba_marseille","lat":43.28473,"lon":5.38421,"is_reserved":false,"is_disabled":false,"rental_uris":{"android":"levelo://app?vid=76c62025-0c64-43aa-9a5a-431b5463c6b6","ios":"levelo://app?vid=76c62025-0c64-43aa-9a5a-431b5463c6b6"},"vehicle_type_id":"4","last_reported":1738307303,"current_range_meters":17600,"station_id":"ce4bh512rcd13ifvqe3g","pricing_plan_id":"cebpf4jnsgd1na2vs0mg"},{"bike_id":"b559ad07-737f-4a02-bdb5-758c13ebfe7f","system_id":"levelo_inurba_marseille","lat":43.27913,"lon":5.39589,"is_reserved":false,"is_disabled":false,"rental_uris":{"android":"levelo://app?vid=b559ad07-737f-4a02-bdb5-758c13ebfe7f","ios":"levelo://app?vid=b559ad07-737f-4a02-bdb5-758c13ebfe7f"},"vehicle_type_id":"4","last_reported":1738307303,"current_range_meters":36400,"station_id":"ce4bhf92rcd13ifvqf40","pricing_plan_id":"cebpf4jnsgd1na2vs0mg"},{"bike_id":"10d31094-e8d4-4e9d-bf6f-3c654bea52c2","system_id":"levelo_inurba_marseille","lat":43.2815,"lon":5.42638,"is_reserved":false,"is_disabled":false,"rental_uris":{"android":"levelo://app?vid=10d31094-e8d4-4e9d-bf6f-3c654bea52c2","ios":"levelo://app?vid=10d31094-e8d4-4e9d-bf6f-3c654bea52c2"},"vehicle_type_id":"4","last_reported":1738307303,"current_range_meters":6400,"station_id":"ce4bhnh2rcd13ifvqgug","pricing_plan_id":"cebpf4jnsgd1na2vs0mg"},{"bike_id":"248c1a1f-9afa-45ca-a695-e850498bd5f6","system_id":"levelo_inurba_marseille","lat":43.31341,"lon":5.36724,"is_reserved":false,"is_disabled":false,"rental_uris":{"android":"levelo://app?vid=248c1a1f-9afa-45ca-a695-e850498bd5f6","ios":"levelo://app?vid=248c1a1f-9afa-45ca-a695-e850498bd5f6"},"vehicle_type_id":"4","last_reported":1738307303,"current_range_meters":33600,"station_id":"ce4bgr92rcd13ifvqc6g","pricing_plan_id":"cebpf4jnsgd1na2vs0mg"},{"bike_id":"9f7cbc3c-6e0b-4442-8c70-64c0b2a1452e","system_id":"levelo_inurba_marseille","lat":43.230571,"lon":5.354919,"is_reserved":false,"is_disabled":false,"rental_uris":{"android":"levelo://app?vid=9f7cbc3c-6e0b-4442-8c70-64c0b2a1452e","ios":"levelo://app?vid=9f7cbc3c-6e0b-4442-8c70-64c0b2a1452e"},"vehicle_type_id":"4","last_reported":1738307303,"current_range_meters":8800,"station_id":"cpo3342slgdg3j2ifvpg","pricing_plan_id":"cebpf4jnsgd1na2vs0mg"},{"bike_id":"c8a3a0ed-dff2-4f3c-87dc-2e6b47b1ad28","system_id":"levelo_inurba_marseille","lat":43.337444,"lon":5.374475,"is_reserved":false,"is_disabled":true,"rental_uris":{"android":"levelo://app?vid=c8a3a0ed-dff2-4f3c-87dc-2e6b47b1ad28","ios":"levelo://app?vid=c8a3a0ed-dff2-4f3c-87dc-2e6b47b1ad28"},"vehicle_type_id":"4","last_reported":1738307303,"current_range_meters":0,"station_id":"","pricing_plan_id":"cebpf4jnsgd1na2vs0mg"},{"bike_id":"a670671f-5865-4f97-bf58-77fcfbee311b","system_id":"levelo_inurba_marseille","lat":43.28345,"lon":5.38101,"is_reserved":false,"is_disabled":false,"rental_uris":{"android":"levelo://app?vid=a670671f-5865-4f97-bf58-77fcfbee311b","ios":"levelo://app?vid=a670671f-5865-4f97-bf58-77fcfbee311b"},"vehicle_type_id":"4","last_reported":1738307303,"current_range_meters":20400,"station_id":"ce4bh412rcd13ifvqdr0","pricing_plan_id":"cebpf4jnsgd1na2vs0mg"},{"bike_id":"1dddcf37-383c-4003-af32-52e01686ae88","system_id":"levelo_inurba_marseille","lat":43.29786,"lon":5.38133,"is_reserved":false,"is_disabled":false,"rental_uris":{"android":"levelo://app?vid=1dddcf37-383c-4003-af32-52e01686ae88","ios":"levelo://app?vid=1dddcf37-383c-4003-af32-52e01686ae88"},"vehicle_type_id":"4","last_reported":1738307303,"current_range_meters":10000,"station_id":"ce4bgip2rcd13ifvqbb0","pricing_plan_id":"cebpf4jnsgd1na2vs0mg"},{"bike_id":"24e4f6d7-34dd-438b-9e7b-670f39c83ad8","system_id":"levelo_inurba_marseille","lat":43.29799,"lon":5.38085,"is_reserved":false,"is_disabled":false,"rental_uris":{"android":"levelo://app?vid=24e4f6d7-34dd-438b-9e7b-670f39c83ad8","ios":"levelo://app?vid=24e4f6d7-34dd-438b-9e7b-670f39c83ad8"},"vehicle_type_id":"4","last_reported":1738307303,"current_range_meters":30400,"station_id":"ce4bgip2rcd13ifvqbb0","pricing_plan_id":"cebpf4jnsgd1na2vs0mg"},{"bike_id":"7247902a-635d-4f06-9cf7-f11e089c2d38","system_id":"levelo_inurba_marseille","lat":43.269334,"lon":5.402542,"is_reserved":false,"is_disabled":false,"rental_uris":{"android":"levelo://app?vid=7247902a-635d-4f06-9cf7-f11e089c2d38","ios":"levelo://app?vid=7247902a-635d-4f06-9cf7-f11e089c2d38"},"vehicle_type_id":"4","last_reported":1738307303,"current_range_meters":38000,"station_id":"cjm6bp8fraef2m0cb0m0","pricing_plan_id":"cebpf4jnsgd1na2vs0mg"},{"bike_id":"06ce31d2-91f0-4b63-8d08-42cd2856d75f","system_id":"levelo_inurba_marseille","lat":43.28928,"lon":5.38389,"is_reserved":false,"is_disabled":false,"rental_uris":{"android":"levelo://app?vid=06ce31d2-91f0-4b63-8d08-42cd2856d75f","ios":"levelo://app?vid=06ce31d2-91f0-4b63-8d08-42cd2856d75f"},"vehicle_type_id":"4","last_reported":1738307303,"current_range_meters":38400,"station_id":"ce4bh612rcd13ifvqe6g","pricing_plan_id":"cebpf4jnsgd1na2vs0mg"},{"bike_id":"67bc6512-e550-4b02-a35f-fa00a80893a2","system_id":"levelo_inurba_marseille","lat":43.30926,"lon":5.37286,"is_reserved":false,"is_disabled":false,"rental_uris":{"android":"levelo://app?vid=67bc6512-e550-4b02-a35f-fa00a80893a2","ios":"levelo://app?vid=67bc6512-e550-4b02-a35f-fa00a80893a2"},"vehicle_type_id":"4","last_reported":1738307303,"current_range_meters":32000,"station_id":"","pricing_plan_id":"cebpf4jnsgd1na2vs0mg"},{"bike_id":"9c1d57d3-f08b-4d7e-9389-a4b34f9d2a60","system_id":"levelo_inurba_marseille","lat":43.298,"lon":5.3809,"is_reserved":false,"is_disabled":false,"rental_uris":{"android":"levelo://app?vid=9c1d57d3-f08b-4d7e-9389-a4b34f9d2a60","ios":"levelo://app?vid=9c1d57d3-f08b-4d7e-9389-a4b34f9d2a60"},"vehicle_type_id":"4","last_reported":1738307303,"current_range_meters":39200,"station_id":"ce4bgip2rcd13ifvqbb0","pricing_plan_id":"cebpf4jnsgd1na2vs0mg"},{"bike_id":"32802d31-82e5-49aa-928e-45336ddb5e58","system_id":"levelo_inurba_marseille","lat":43.25002,"lon":5.38937,"is_reserved":false,"is_disabled":false,"rental_uris":{"android":"levelo://app?vid=32802d31-82e5-49aa-928e-45336ddb5e58","ios":"levelo://app?vid=32802d31-82e5-49aa-928e-45336ddb5e58"},"vehicle_type_id":"4","last_reported":1738307303,"current_range_meters":38800,"station_id":"ce4bhgp2rcd13ifvqfd0","pricing_plan_id":"cebpf4jnsgd1na2vs0mg"},{"bike_id":"d06240a3-8895-42e8-9212-5c068d44e9d2","system_id":"levelo_inurba_marseille","lat":43.28606,"lon":5.35103,"is_reserved":false,"is_disabled":false,"rental_uris":{"android":"levelo://app?vid=d06240a3-8895-42e8-9212-5c068d44e9d2","ios":"levelo://app?vid=d06240a3-8895-42e8-9212-5c068d44e9d2"},"vehicle_type_id":"4","last_reported":1738307303,"current_range_meters":27600,"station_id":"ce4bhch2rcd13ifvqeug","pricing_plan_id":"cebpf4jnsgd1na2vs0mg"},{"bike_id":"323795ea-b784-49f7-ad28-dfc256b8eaa4","system_id":"levelo_inurba_marseille","lat":43.302067,"lon":5.39473,"is_reserved":false,"is_disabled":true,"rental_uris":{"android":"levelo://app?vid=323795ea-b784-49f7-ad28-dfc256b8eaa4","ios":"levelo://app?vid=323795ea-b784-49f7-ad28-dfc256b8eaa4"},"vehicle_type_id":"4","last_reported":1738307303,"current_range_meters":16400,"station_id":"ce4bh0p2rcd13ifvqd70","pricing_plan_id":"cebpf4jnsgd1na2vs0mg"},{"bike_id":"b45b1506-26f7-49fd-81e0-d3360ff96724","system_id":"levelo_inurba_marseille","lat":43.290074,"lon":5.356036,"is_reserved":false,"is_disabled":false,"rental_uris":{"android":"levelo://app?vid=b45b1506-26f7-49fd-81e0-d3360ff96724","ios":"levelo://app?vid=b45b1506-26f7-49fd-81e0-d3360ff96724"},"vehicle_type_id":"4","last_reported":1738307303,"current_range_meters":38400,"station_id":"ce4bhb92rcd13ifvqen0","pricing_plan_id":"cebpf4jnsgd1na2vs0mg"},{"bike_id":"a7e1bb12-c60b-445a-9547-4b41c03d5f68","system_id":"levelo_inurba_marseille","lat":43.2814,"lon":5.42664,"is_reserved":false,"is_disabled":true,"rental_uris":{"android":"levelo://app?vid=a7e1bb12-c60b-445a-9547-4b41c03d5f68","ios":"levelo://app?vid=a7e1bb12-c60b-445a-9547-4b41c03d5f68"},"vehicle_type_id":"4","last_reported":1738307303,"current_range_meters":0,"station_id":"ce4bhnh2rcd13ifvqgug","pricing_plan_id":"cebpf4jnsgd1na2vs0mg"},{"bike_id":"d130db0a-48b7-47ee-b133-0a81904f0cda","system_id":"levelo_inurba_marseille","lat":43.290048,"lon":5.35624,"is_reserved":false,"is_disabled":true,"rental_uris":{"android":"levelo://app?vid=d130db0a-48b7-47ee-b133-0a81904f0cda","ios":"levelo://app?vid=d130db0a-48b7-47ee-b133-0a81904f0cda"},"vehicle_type_id":"4","last_reported":1738307303,"current_range_meters":34800,"station_id":"ce4bhb92rcd13ifvqen0","pricing_plan_id":"cebpf4jnsgd1na2vs0mg"},{"bike_id":"0d0eefef-63b5-4557-addb-cac3f528bd64","system_id":"levelo_inurba_marseille","lat":43.3134,"lon":5.36721,"is_reserved":false,"is_disabled":false,"rental_uris":{"android":"levelo://app?vid=0d0eefef-63b5-4557-addb-cac3f528bd64","ios":"levelo://app?vid=0d0eefef-63b5-4557-addb-cac3f528bd64"},"vehicle_type_id":"4","last_reported":1738307303,"current_range_meters":23200,"station_id":"ce4bgr92rcd13ifvqc6g","pricing_plan_id":"cebpf4jnsgd1na2vs0mg"},{"bike_id":"b809467f-fb69-4f36-b0d3-1cf34edccde0","system_id":"levelo_inurba_marseille","lat":43.28481,"lon":5.3842,"is_reserved":false,"is_disabled":false,"rental_uris":{"android":"levelo://app?vid=b809467f-fb69-4f36-b0d3-1cf34edccde0","ios":"levelo://app?vid=b809467f-fb69-4f36-b0d3-1cf34edccde0"},"vehicle_type_id":"4","last_reported":1738307303,"current_range_meters":27200,"station_id":"ce4bh512rcd13ifvqe3g","pricing_plan_id":"cebpf4jnsgd1na2vs0mg"},{"bike_id":"a36de8bd-2e3e-4fb2-8780-295adcb078f0","system_id":"levelo_inurba_marseille","lat":43.265573,"lon":5.372918,"is_reserved":false,"is_disabled":false,"rental_uris":{"android":"levelo://app?vid=a36de8bd-2e3e-4fb2-8780-295adcb078f0","ios":"levelo://app?vid=a36de8bd-2e3e-4fb2-8780-295adcb078f0"},"vehicle_type_id":"4","last_reported":1738307303,"current_range_meters":33600,"station_id":"ce4bhg12rcd13ifvqf70","pricing_plan_id":"cebpf4jnsgd1na2vs0mg"},{"bike_id":"9838cc78-2b53-49d3-ae13-82df62c4fd64","system_id":"levelo_inurba_marseille","lat":43.28412,"lon":5.40934,"is_reserved":false,"is_disabled":true,"rental_uris":{"android":"levelo://app?vid=9838cc78-2b53-49d3-ae13-82df62c4fd64","ios":"levelo://app?vid=9838cc78-2b53-49d3-ae13-82df62c4fd64"},"vehicle_type_id":"4","last_reported":1738307303,"current_range_meters":0,"station_id":"","pricing_plan_id":"cebpf4jnsgd1na2vs0mg"},{"bike_id":"b5e316c6-84ab-4e74-8a2e-84f5594c5ebd","system_id":"levelo_inurba_marseille","lat":43.28408,"lon":5.37505,"is_reserved":false,"is_disabled":true,"rental_uris":{"android":"levelo://app?vid=b5e316c6-84ab-4e74-8a2e-84f5594c5ebd","ios":"levelo://app?vid=b5e316c6-84ab-4e74-8a2e-84f5594c5ebd"},"vehicle_type_id":"4","last_reported":1738307303,"current_range_meters":9600,"station_id":"ce4bh412rcd13ifvqds0","pricing_plan_id":"cebpf4jnsgd1na2vs0mg"},{"bike_id":"990d5f70-4e8f-4396-906c-ea98f9f84fc7","system_id":"levelo_inurba_marseille","lat":43.28415,"lon":5.37514,"is_reserved":false,"is_disabled":false,"rental_uris":{"android":"levelo://app?vid=990d5f70-4e8f-4396-906c-ea98f9f84fc7","ios":"levelo://app?vid=990d5f70-4e8f-4396-906c-ea98f9f84fc7"},"vehicle_type_id":"4","last_reported":1738307303,"current_range_meters":28400,"station_id":"ce4bh412rcd13ifvqds0","pricing_plan_id":"cebpf4jnsgd1na2vs0mg"},{"bike_id":"0b1f4817-4c30-44b7-9201-5f8be66aeb19","system_id":"levelo_inurba_marseille","lat":43.280371,"lon":5.369448,"is_reserved":false,"is_disabled":false,"rental_uris":{"android":"levelo://app?vid=0b1f4817-4c30-44b7-9201-5f8be66aeb19","ios":"levelo://app?vid=0b1f4817-4c30-44b7-9201-5f8be66aeb19"},"vehicle_type_id":"4","last_reported":1738307303,"current_range_meters":38800,"station_id":"ce4bha12rcd13ifvqef0","pricing_plan_id":"cebpf4jnsgd1na2vs0mg"},{"bike_id":"1509c4ed-75ea-4503-8272-8bf929acd314","system_id":"levelo_inurba_marseille","lat":43.29989,"lon":5.38485,"is_reserved":false,"is_disabled":true,"rental_uris":{"android":"levelo://app?vid=1509c4ed-75ea-4503-8272-8bf929acd314","ios":"levelo://app?vid=1509c4ed-75ea-4503-8272-8bf929acd314"},"vehicle_type_id":"4","last_reported":1738307303,"current_range_meters":10000,"station_id":"ce4bgj92rcd13ifvqbd0","pricing_plan_id":"cebpf4jnsgd1na2vs0mg"},{"bike_id":"752f8469-844d-4827-b241-5a461c5db726","system_id":"levelo_inurba_marseille","lat":43.30936,"lon":5.39037,"is_reserved":false,"is_disabled":false,"rental_uris":{"android":"levelo://app?vid=752f8469-844d-4827-b241-5a461c5db726","ios":"levelo://app?vid=752f8469-844d-4827-b241-5a461c5db726"},"vehicle_type_id":"4","last_reported":1738307303,"current_range_meters":19600,"station_id":"ce4bgup2rcd13ifvqco0","pricing_plan_id":"cebpf4jnsgd1na2vs0mg"},{"bike_id":"a6b336c6-34d6-4b26-bccf-abefa3771ff1","system_id":"levelo_inurba_marseille","lat":43.23156,"lon":5.43704,"is_reserved":false,"is_disabled":false,"rental_uris":{"android":"levelo://app?vid=a6b336c6-34d6-4b26-bccf-abefa3771ff1","ios":"levelo://app?vid=a6b336c6-34d6-4b26-bccf-abefa3771ff1"},"vehicle_type_id":"4","last_reported":1738307303,"current_range_meters":38400,"station_id":"ce4bhmp2rcd13ifvqgog","pricing_plan_id":"cebpf4jnsgd1na2vs0mg"},{"bike_id":"9f6c79b2-892b-47dd-b852-741b9f20e95f","system_id":"levelo_inurba_marseille","lat":43.25092,"lon":5.39526,"is_reserved":false,"is_disabled":false,"rental_uris":{"android":"levelo://app?vid=9f6c79b2-892b-47dd-b852-741b9f20e95f","ios":"levelo://app?vid=9f6c79b2-892b-47dd-b852-741b9f20e95f"},"vehicle_type_id":"4","last_reported":1738307303,"current_range_meters":38800,"station_id":"ce4bhm12rcd13ifvqgkg","pricing_plan_id":"cebpf4jnsgd1na2vs0mg"},{"bike_id":"05f09aa2-f717-402a-9dac-5621750079ab","system_id":"levelo_inurba_marseille","lat":43.31702,"lon":5.43726,"is_reserved":false,"is_disabled":false,"rental_uris":{"android":"levelo://app?vid=05f09aa2-f717-402a-9dac-5621750079ab","ios":"levelo://app?vid=05f09aa2-f717-402a-9dac-5621750079ab"},"vehicle_type_id":"4","last_reported":1738307303,"current_range_meters":38800,"station_id":"ce4bhp92rcd13ifvqhcg","pricing_plan_id":"cebpf4jnsgd1na2vs0mg"},{"bike_id":"c655a1c9-006c-45e2-aaed-72c55a308aea","system_id":"levelo_inurba_marseille","lat":43.27483,"lon":5.42468,"is_reserved":false,"is_disabled":false,"rental_uris":{"android":"levelo://app?vid=c655a1c9-006c-45e2-aaed-72c55a308aea","ios":"levelo://app?vid=c655a1c9-006c-45e2-aaed-72c55a308aea"},"vehicle_type_id":"4","last_reported":1738307303,"current_range_meters":26000,"station_id":"ce4bhn92rcd13ifvqgrg","pricing_plan_id":"cebpf4jnsgd1na2vs0mg"},{"bike_id":"3d3683d0-6fa2-4625-8b79-882bbb185c30","system_id":"levelo_inurba_marseille","lat":43.32292,"lon":5.38291,"is_reserved":false,"is_disabled":false,"rental_uris":{"android":"levelo://app?vid=3d3683d0-6fa2-4625-8b79-882bbb185c30","ios":"levelo://app?vid=3d3683d0-6fa2-4625-8b79-882bbb185c30"},"vehicle_type_id":"4","last_reported":1738307303,"current_range_meters":28400,"station_id":"ce4bhr12rcd13ifvqhqg","pricing_plan_id":"cebpf4jnsgd1na2vs0mg"},{"bike_id":"395110a8-dcbf-49d6-a7c7-ec0f66f22503","system_id":"levelo_inurba_marseille","lat":43.26948,"lon":5.38633,"is_reserved":false,"is_disabled":false,"rental_uris":{"android":"levelo://app?vid=395110a8-dcbf-49d6-a7c7-ec0f66f22503","ios":"levelo://app?vid=395110a8-dcbf-49d6-a7c7-ec0f66f22503"},"vehicle_type_id":"4","last_reported":1738307303,"current_range_meters":39200,"station_id":"ce4bhh92rcd13ifvqfh0","pricing_plan_id":"cebpf4jnsgd1na2vs0mg"},{"bike_id":"3961a4ef-50e4-493a-8114-a7bef0a7838a","system_id":"levelo_inurba_marseille","lat":43.320364,"lon":5.41552,"is_reserved":false,"is_disabled":false,"rental_uris":{"android":"levelo://app?vid=3961a4ef-50e4-493a-8114-a7bef0a7838a","ios":"levelo://app?vid=3961a4ef-50e4-493a-8114-a7bef0a7838a"},"vehicle_type_id":"4","last_reported":1738307303,"current_range_meters":39200,"station_id":"ce4bhq92rcd13ifvqhkg","pricing_plan_id":"cebpf4jnsgd1na2vs0mg"},{"bike_id":"fa51714b-85e6-40ac-9424-6cd1a8b165d0","system_id":"levelo_inurba_marseille","lat":43.29187,"lon":5.35823,"is_reserved":false,"is_disabled":false,"rental_uris":{"android":"levelo://app?vid=fa51714b-85e6-40ac-9424-6cd1a8b165d0","ios":"levelo://app?vid=fa51714b-85e6-40ac-9424-6cd1a8b165d0"},"vehicle_type_id":"4","last_reported":1738307303,"current_range_meters":9600,"station_id":"ce4bhb12rcd13ifvqel0","pricing_plan_id":"cebpf4jnsgd1na2vs0mg"},{"bike_id":"4ce57a69-7bf8-474d-ad10-1e334386d79e","system_id":"levelo_inurba_marseille","lat":43.30461,"lon":5.37905,"is_reserved":false,"is_disabled":false,"rental_uris":{"android":"levelo://app?vid=4ce57a69-7bf8-474d-ad10-1e334386d79e","ios":"levelo://app?vid=4ce57a69-7bf8-474d-ad10-1e334386d79e"},"vehicle_type_id":"4","last_reported":1738307303,"current_range_meters":34800,"station_id":"ce4bgup2rcd13ifvqcn0","pricing_plan_id":"cebpf4jnsgd1na2vs0mg"},{"bike_id":"fad44938-4658-4723-aafa-4a8b19e23cbd","system_id":"levelo_inurba_marseille","lat":43.2836,"lon":5.386258,"is_reserved":false,"is_disabled":false,"rental_uris":{"android":"levelo://app?vid=fad44938-4658-4723-aafa-4a8b19e23cbd","ios":"levelo://app?vid=fad44938-4658-4723-aafa-4a8b19e23cbd"},"vehicle_type_id":"4","last_reported":1738307303,"current_range_meters":38800,"station_id":"ce4bh492rcd13ifvqdvg","pricing_plan_id":"cebpf4jnsgd1na2vs0mg"},{"bike_id":"81cbfe48-6e1a-420c-8b24-7c4f1fab9886","system_id":"levelo_inurba_marseille","lat":43.27145,"lon":5.40988,"is_reserved":false,"is_disabled":false,"rental_uris":{"android":"levelo://app?vid=81cbfe48-6e1a-420c-8b24-7c4f1fab9886","ios":"levelo://app?vid=81cbfe48-6e1a-420c-8b24-7c4f1fab9886"},"vehicle_type_id":"4","last_reported":1738307303,"current_range_meters":36400,"station_id":"ce4bhl12rcd13ifvqgf0","pricing_plan_id":"cebpf4jnsgd1na2vs0mg"},{"bike_id":"d979d8d2-ec65-47af-9229-e4270aab279a","system_id":"levelo_inurba_marseille","lat":43.23064,"lon":5.35501,"is_reserved":false,"is_disabled":false,"rental_uris":{"android":"levelo://app?vid=d979d8d2-ec65-47af-9229-e4270aab279a","ios":"levelo://app?vid=d979d8d2-ec65-47af-9229-e4270aab279a"},"vehicle_type_id":"4","last_reported":1738307303,"current_range_meters":10000,"station_id":"cpo3342slgdg3j2ifvpg","pricing_plan_id":"cebpf4jnsgd1na2vs0mg"},{"bike_id":"b177a830-e596-4432-8406-f3d49a083261","system_id":"levelo_inurba_marseille","lat":43.28145,"lon":5.42643,"is_reserved":false,"is_disabled":false,"rental_uris":{"android":"levelo://app?vid=b177a830-e596-4432-8406-f3d49a083261","ios":"levelo://app?vid=b177a830-e596-4432-8406-f3d49a083261"},"vehicle_type_id":"4","last_reported":1738307303,"current_range_meters":22800,"station_id":"ce4bhnh2rcd13ifvqgug","pricing_plan_id":"cebpf4jnsgd1na2vs0mg"},{"bike_id":"f10d9b40-8520-41ee-b039-cd6e7d066065","system_id":"levelo_inurba_marseille","lat":43.26251,"lon":5.37426,"is_reserved":false,"is_disabled":false,"rental_uris":{"android":"levelo://app?vid=f10d9b40-8520-41ee-b039-cd6e7d066065","ios":"levelo://app?vid=f10d9b40-8520-41ee-b039-cd6e7d066065"},"vehicle_type_id":"4","last_reported":1738307303,"current_range_meters":34000,"station_id":"ce4bhgp2rcd13ifvqfc0","pricing_plan_id":"cebpf4jnsgd1na2vs0mg"},{"bike_id":"6bae3c05-7a90-4a3e-bbcb-46a7ff6297da","system_id":"levelo_inurba_marseille","lat":43.29617,"lon":5.3715,"is_reserved":false,"is_disabled":false,"rental_uris":{"android":"levelo://app?vid=6bae3c05-7a90-4a3e-bbcb-46a7ff6297da","ios":"levelo://app?vid=6bae3c05-7a90-4a3e-bbcb-46a7ff6297da"},"vehicle_type_id":"4","last_reported":1738307303,"current_range_meters":38000,"station_id":"ce4bgnh2rcd13ifvqc0g","pricing_plan_id":"cebpf4jnsgd1na2vs0mg"},{"bike_id":"c29472cb-fa90-45f9-a123-f9325cfff80e","system_id":"levelo_inurba_marseille","lat":43.28475,"lon":5.38433,"is_reserved":false,"is_disabled":true,"rental_uris":{"android":"levelo://app?vid=c29472cb-fa90-45f9-a123-f9325cfff80e","ios":"levelo://app?vid=c29472cb-fa90-45f9-a123-f9325cfff80e"},"vehicle_type_id":"4","last_reported":1738307303,"current_range_meters":24400,"station_id":"ce4bh512rcd13ifvqe3g","pricing_plan_id":"cebpf4jnsgd1na2vs0mg"},{"bike_id":"8f982301-5907-46b6-b1e8-1b8abf5c682a","system_id":"levelo_inurba_marseille","lat":43.26214,"lon":5.37442,"is_reserved":false,"is_disabled":false,"rental_uris":{"android":"levelo://app?vid=8f982301-5907-46b6-b1e8-1b8abf5c682a","ios":"levelo://app?vid=8f982301-5907-46b6-b1e8-1b8abf5c682a"},"vehicle_type_id":"4","last_reported":1738307303,"current_range_meters":26800,"station_id":"ce4bhgp2rcd13ifvqfc0","pricing_plan_id":"cebpf4jnsgd1na2vs0mg"},{"bike_id":"4cc9db8a-03a2-4de4-aca9-21e8ad238f45","system_id":"levelo_inurba_marseille","lat":43.30456,"lon":5.37904,"is_reserved":false,"is_disabled":false,"rental_uris":{"android":"levelo://app?vid=4cc9db8a-03a2-4de4-aca9-21e8ad238f45","ios":"levelo://app?vid=4cc9db8a-03a2-4de4-aca9-21e8ad238f45"},"vehicle_type_id":"4","last_reported":1738307303,"current_range_meters":33600,"station_id":"ce4bgup2rcd13ifvqcn0","pricing_plan_id":"cebpf4jnsgd1na2vs0mg"},{"bike_id":"7d6260ec-6d8c-4d5b-8950-1a493871014c","system_id":"levelo_inurba_marseille","lat":43.298962,"lon":5.436644,"is_reserved":false,"is_disabled":false,"rental_uris":{"android":"levelo://app?vid=7d6260ec-6d8c-4d5b-8950-1a493871014c","ios":"levelo://app?vid=7d6260ec-6d8c-4d5b-8950-1a493871014c"},"vehicle_type_id":"4","last_reported":1738307303,"current_range_meters":30800,"station_id":"ce4bhpp2rcd13ifvqhfg","pricing_plan_id":"cebpf4jnsgd1na2vs0mg"},{"bike_id":"1b91759c-57a8-4292-83bf-b6dd4cd08d36","system_id":"levelo_inurba_marseille","lat":43.27187,"lon":5.39185,"is_reserved":false,"is_disabled":false,"rental_uris":{"android":"levelo://app?vid=1b91759c-57a8-4292-83bf-b6dd4cd08d36","ios":"levelo://app?vid=1b91759c-57a8-4292-83bf-b6dd4cd08d36"},"vehicle_type_id":"4","last_reported":1738307303,"current_range_meters":38800,"station_id":"ce4bhhp2rcd13ifvqfm0","pricing_plan_id":"cebpf4jnsgd1na2vs0mg"},{"bike_id":"1b6fd190-21fa-4758-93db-00b7057d89a9","system_id":"levelo_inurba_marseille","lat":43.25697,"lon":5.41109,"is_reserved":false,"is_disabled":false,"rental_uris":{"android":"levelo://app?vid=1b6fd190-21fa-4758-93db-00b7057d89a9","ios":"levelo://app?vid=1b6fd190-21fa-4758-93db-00b7057d89a9"},"vehicle_type_id":"4","last_reported":1738307303,"current_range_meters":36000,"station_id":"ce4bhkp2rcd13ifvqgd0","pricing_plan_id":"cebpf4jnsgd1na2vs0mg"},{"bike_id":"cf8e57d9-ff02-4e22-9e01-0a3945aabc14","system_id":"levelo_inurba_marseille","lat":43.313241,"lon":5.396993,"is_reserved":false,"is_disabled":false,"rental_uris":{"android":"levelo://app?vid=cf8e57d9-ff02-4e22-9e01-0a3945aabc14","ios":"levelo://app?vid=cf8e57d9-ff02-4e22-9e01-0a3945aabc14"},"vehicle_type_id":"4","last_reported":1738307303,"current_range_meters":10800,"station_id":"ce4bgvp2rcd13ifvqcu0","pricing_plan_id":"cebpf4jnsgd1na2vs0mg"},{"bike_id":"c31ded60-21bc-4937-b5c7-a86c611f6740","system_id":"levelo_inurba_marseille","lat":43.30432,"lon":5.38895,"is_reserved":false,"is_disabled":true,"rental_uris":{"android":"levelo://app?vid=c31ded60-21bc-4937-b5c7-a86c611f6740","ios":"levelo://app?vid=c31ded60-21bc-4937-b5c7-a86c611f6740"},"vehicle_type_id":"4","last_reported":1738307303,"current_range_meters":28000,"station_id":"ce4bgk12rcd13ifvqbi0","pricing_plan_id":"cebpf4jnsgd1na2vs0mg"},{"bike_id":"d8b1c3f9-ff6e-4179-8423-4ba0d2a2af0e","system_id":"levelo_inurba_marseille","lat":43.33727,"lon":5.39175,"is_reserved":false,"is_disabled":false,"rental_uris":{"android":"levelo://app?vid=d8b1c3f9-ff6e-4179-8423-4ba0d2a2af0e","ios":"levelo://app?vid=d8b1c3f9-ff6e-4179-8423-4ba0d2a2af0e"},"vehicle_type_id":"4","last_reported":1738307303,"current_range_meters":39200,"station_id":"ce4bhr92rcd13ifvqhsg","pricing_plan_id":"cebpf4jnsgd1na2vs0mg"},{"bike_id":"d0f2cfcc-c336-4d7d-baf0-d36ca6bbf372","system_id":"levelo_inurba_marseille","lat":43.32332,"lon":5.40622,"is_reserved":false,"is_disabled":false,"rental_uris":{"android":"levelo://app?vid=d0f2cfcc-c336-4d7d-baf0-d36ca6bbf372","ios":"levelo://app?vid=d0f2cfcc-c336-4d7d-baf0-d36ca6bbf372"},"vehicle_type_id":"4","last_reported":1738307303,"current_range_meters":32800,"station_id":"ce4bhq92rcd13ifvqhjg","pricing_plan_id":"cebpf4jnsgd1na2vs0mg"},{"bike_id":"ba0dc6f2-b89b-479e-9712-43aaa6d3abd7","system_id":"levelo_inurba_marseille","lat":43.3108,"lon":5.38386,"is_reserved":false,"is_disabled":false,"rental_uris":{"android":"levelo://app?vid=ba0dc6f2-b89b-479e-9712-43aaa6d3abd7","ios":"levelo://app?vid=ba0dc6f2-b89b-479e-9712-43aaa6d3abd7"},"vehicle_type_id":"4","last_reported":1738307303,"current_range_meters":30800,"station_id":"ce4bgv92rcd13ifvqcr0","pricing_plan_id":"cebpf4jnsgd1na2vs0mg"},{"bike_id":"8ce1a4e3-522a-4489-a1d7-76fa67ca3b1d","system_id":"levelo_inurba_marseille","lat":43.28688,"lon":5.39998,"is_reserved":false,"is_disabled":false,"rental_uris":{"android":"levelo://app?vid=8ce1a4e3-522a-4489-a1d7-76fa67ca3b1d","ios":"levelo://app?vid=8ce1a4e3-522a-4489-a1d7-76fa67ca3b1d"},"vehicle_type_id":"4","last_reported":1738307303,"current_range_meters":38800,"station_id":"ce4bho92rcd13ifvqh3g","pricing_plan_id":"cebpf4jnsgd1na2vs0mg"},{"bike_id":"165e3b0d-7743-4294-bc7c-13df3cfe9383","system_id":"levelo_inurba_marseille","lat":43.27209,"lon":5.39185,"is_reserved":false,"is_disabled":true,"rental_uris":{"android":"levelo://app?vid=165e3b0d-7743-4294-bc7c-13df3cfe9383","ios":"levelo://app?vid=165e3b0d-7743-4294-bc7c-13df3cfe9383"},"vehicle_type_id":"4","last_reported":1738307303,"current_range_meters":38000,"station_id":"ce4bhhp2rcd13ifvqfm0","pricing_plan_id":"cebpf4jnsgd1na2vs0mg"},{"bike_id":"37a316fb-b3fd-47c4-b337-ae3ed2613770","system_id":"levelo_inurba_marseille","lat":43.258728,"lon":5.399098,"is_reserved":false,"is_disabled":false,"rental_uris":{"android":"levelo://app?vid=37a316fb-b3fd-47c4-b337-ae3ed2613770","ios":"levelo://app?vid=37a316fb-b3fd-47c4-b337-ae3ed2613770"},"vehicle_type_id":"4","last_reported":1738307303,"current_range_meters":14400,"station_id":"ce4bhl92rcd13ifvqghg","pricing_plan_id":"cebpf4jnsgd1na2vs0mg"},{"bike_id":"520c39ce-f03c-4286-af26-3f5510aa22b8","system_id":"levelo_inurba_marseille","lat":43.2749,"lon":5.4245,"is_reserved":false,"is_disabled":false,"rental_uris":{"android":"levelo://app?vid=520c39ce-f03c-4286-af26-3f5510aa22b8","ios":"levelo://app?vid=520c39ce-f03c-4286-af26-3f5510aa22b8"},"vehicle_type_id":"4","last_reported":1738307303,"current_range_meters":24000,"station_id":"ce4bhn92rcd13ifvqgrg","pricing_plan_id":"cebpf4jnsgd1na2vs0mg"},{"bike_id":"4f740b6d-d120-4c2f-a536-cccfced843bf","system_id":"levelo_inurba_marseille","lat":43.258665,"lon":5.398992,"is_reserved":false,"is_disabled":false,"rental_uris":{"android":"levelo://app?vid=4f740b6d-d120-4c2f-a536-cccfced843bf","ios":"levelo://app?vid=4f740b6d-d120-4c2f-a536-cccfced843bf"},"vehicle_type_id":"4","last_reported":1738307303,"current_range_meters":29600,"station_id":"ce4bhl92rcd13ifvqghg","pricing_plan_id":"cebpf4jnsgd1na2vs0mg"},{"bike_id":"4d73c34c-8324-421e-8d75-d402308ad3e2","system_id":"levelo_inurba_marseille","lat":43.3048,"lon":5.37916,"is_reserved":false,"is_disabled":false,"rental_uris":{"android":"levelo://app?vid=4d73c34c-8324-421e-8d75-d402308ad3e2","ios":"levelo://app?vid=4d73c34c-8324-421e-8d75-d402308ad3e2"},"vehicle_type_id":"4","last_reported":1738307303,"current_range_meters":24000,"station_id":"ce4bgup2rcd13ifvqcn0","pricing_plan_id":"cebpf4jnsgd1na2vs0mg"},{"bike_id":"986e1894-1c14-4805-8a29-11b6e8f0ed4f","system_id":"levelo_inurba_marseille","lat":43.29618,"lon":5.37717,"is_reserved":false,"is_disabled":false,"rental_uris":{"android":"levelo://app?vid=986e1894-1c14-4805-8a29-11b6e8f0ed4f","ios":"levelo://app?vid=986e1894-1c14-4805-8a29-11b6e8f0ed4f"},"vehicle_type_id":"4","last_reported":1738307303,"current_range_meters":37600,"station_id":"ce4bgi92rcd13ifvqb90","pricing_plan_id":"cebpf4jnsgd1na2vs0mg"},{"bike_id":"3b2d65ce-4c43-4035-976c-824db826a28f","system_id":"levelo_inurba_marseille","lat":43.28517,"lon":5.39493,"is_reserved":false,"is_disabled":false,"rental_uris":{"android":"levelo://app?vid=3b2d65ce-4c43-4035-976c-824db826a28f","ios":"levelo://app?vid=3b2d65ce-4c43-4035-976c-824db826a28f"},"vehicle_type_id":"4","last_reported":1738307303,"current_range_meters":34000,"station_id":"","pricing_plan_id":"cebpf4jnsgd1na2vs0mg"},{"bike_id":"987d394c-f4fd-420b-a640-a44b12cfb998","system_id":"levelo_inurba_marseille","lat":43.27204,"lon":5.39184,"is_reserved":false,"is_disabled":false,"rental_uris":{"android":"levelo://app?vid=987d394c-f4fd-420b-a640-a44b12cfb998","ios":"levelo://app?vid=987d394c-f4fd-420b-a640-a44b12cfb998"},"vehicle_type_id":"4","last_reported":1738307303,"current_range_meters":38800,"station_id":"ce4bhhp2rcd13ifvqfm0","pricing_plan_id":"cebpf4jnsgd1na2vs0mg"},{"bike_id":"ee2f7bfb-3705-464e-83a9-c7d8ae9c26d7","system_id":"levelo_inurba_marseille","lat":43.303147,"lon":5.369039,"is_reserved":false,"is_disabled":false,"rental_uris":{"android":"levelo://app?vid=ee2f7bfb-3705-464e-83a9-c7d8ae9c26d7","ios":"levelo://app?vid=ee2f7bfb-3705-464e-83a9-c7d8ae9c26d7"},"vehicle_type_id":"4","last_reported":1738307303,"current_range_meters":18800,"station_id":"ce4bgqh2rcd13ifvqc5g","pricing_plan_id":"cebpf4jnsgd1na2vs0mg"},{"bike_id":"1776df26-4e48-4960-a577-9efd28622f3d","system_id":"levelo_inurba_marseille","lat":43.30942,"lon":5.39032,"is_reserved":false,"is_disabled":false,"rental_uris":{"android":"levelo://app?vid=1776df26-4e48-4960-a577-9efd28622f3d","ios":"levelo://app?vid=1776df26-4e48-4960-a577-9efd28622f3d"},"vehicle_type_id":"4","last_reported":1738307303,"current_range_meters":30000,"station_id":"ce4bgup2rcd13ifvqco0","pricing_plan_id":"cebpf4jnsgd1na2vs0mg"},{"bike_id":"93b4852a-b80c-4aa5-a82b-4c051575bbfa","system_id":"levelo_inurba_marseille","lat":43.24079,"lon":5.37739,"is_reserved":false,"is_disabled":false,"rental_uris":{"android":"levelo://app?vid=93b4852a-b80c-4aa5-a82b-4c051575bbfa","ios":"levelo://app?vid=93b4852a-b80c-4aa5-a82b-4c051575bbfa"},"vehicle_type_id":"4","last_reported":1738307303,"current_range_meters":16000,"station_id":"ce4bhnp2rcd13ifvqgvg","pricing_plan_id":"cebpf4jnsgd1na2vs0mg"},{"bike_id":"3e7ae16a-8dc5-4e6e-b0da-3f89c3a3dbf7","system_id":"levelo_inurba_marseille","lat":43.34142,"lon":5.40918,"is_reserved":false,"is_disabled":false,"rental_uris":{"android":"levelo://app?vid=3e7ae16a-8dc5-4e6e-b0da-3f89c3a3dbf7","ios":"levelo://app?vid=3e7ae16a-8dc5-4e6e-b0da-3f89c3a3dbf7"},"vehicle_type_id":"4","last_reported":1738307303,"current_range_meters":39200,"station_id":"ce4bhqh2rcd13ifvqhlg","pricing_plan_id":"cebpf4jnsgd1na2vs0mg"},{"bike_id":"d98678c3-7f26-4497-91c2-cba8237ee9ad","system_id":"levelo_inurba_marseille","lat":43.32543,"lon":5.41423,"is_reserved":false,"is_disabled":false,"rental_uris":{"android":"levelo://app?vid=d98678c3-7f26-4497-91c2-cba8237ee9ad","ios":"levelo://app?vid=d98678c3-7f26-4497-91c2-cba8237ee9ad"},"vehicle_type_id":"4","last_reported":1738307303,"current_range_meters":39200,"station_id":"ce4bhq12rcd13ifvqhhg","pricing_plan_id":"cebpf4jnsgd1na2vs0mg"},{"bike_id":"dc2b7f95-24d7-4c3e-a8c0-d3a5a0018e28","system_id":"levelo_inurba_marseille","lat":43.27492,"lon":5.42452,"is_reserved":false,"is_disabled":false,"rental_uris":{"android":"levelo://app?vid=dc2b7f95-24d7-4c3e-a8c0-d3a5a0018e28","ios":"levelo://app?vid=dc2b7f95-24d7-4c3e-a8c0-d3a5a0018e28"},"vehicle_type_id":"4","last_reported":1738307303,"current_range_meters":8000,"station_id":"ce4bhn92rcd13ifvqgrg","pricing_plan_id":"cebpf4jnsgd1na2vs0mg"},{"bike_id":"39fda13f-0f56-4d84-bd3a-f99078c8032f","system_id":"levelo_inurba_marseille","lat":43.29795,"lon":5.36253,"is_reserved":false,"is_disabled":false,"rental_uris":{"android":"levelo://app?vid=39fda13f-0f56-4d84-bd3a-f99078c8032f","ios":"levelo://app?vid=39fda13f-0f56-4d84-bd3a-f99078c8032f"},"vehicle_type_id":"4","last_reported":1738307303,"current_range_meters":38800,"station_id":"ce4bgpp2rcd13ifvqc3g","pricing_plan_id":"cebpf4jnsgd1na2vs0mg"},{"bike_id":"9fd2b53c-c176-4281-adad-9fc6e73930a3","system_id":"levelo_inurba_marseille","lat":43.2407,"lon":5.37774,"is_reserved":false,"is_disabled":false,"rental_uris":{"android":"levelo://app?vid=9fd2b53c-c176-4281-adad-9fc6e73930a3","ios":"levelo://app?vid=9fd2b53c-c176-4281-adad-9fc6e73930a3"},"vehicle_type_id":"4","last_reported":1738307303,"current_range_meters":38400,"station_id":"ce4bhnp2rcd13ifvqgvg","pricing_plan_id":"cebpf4jnsgd1na2vs0mg"},{"bike_id":"d3c861cb-3cee-4a47-9b7a-ee961b2c7366","system_id":"levelo_inurba_marseille","lat":43.27972,"lon":5.38733,"is_reserved":false,"is_disabled":false,"rental_uris":{"android":"levelo://app?vid=d3c861cb-3cee-4a47-9b7a-ee961b2c7366","ios":"levelo://app?vid=d3c861cb-3cee-4a47-9b7a-ee961b2c7366"},"vehicle_type_id":"4","last_reported":1738307303,"current_range_meters":28800,"station_id":"ce4bhg12rcd13ifvqf80","pricing_plan_id":"cebpf4jnsgd1na2vs0mg"},{"bike_id":"da8a27ef-385b-4ccf-b2dc-6715146b0e7c","system_id":"levelo_inurba_marseille","lat":43.30416,"lon":5.39758,"is_reserved":false,"is_disabled":false,"rental_uris":{"android":"levelo://app?vid=da8a27ef-385b-4ccf-b2dc-6715146b0e7c","ios":"levelo://app?vid=da8a27ef-385b-4ccf-b2dc-6715146b0e7c"},"vehicle_type_id":"4","last_reported":1738307303,"current_range_meters":30800,"station_id":"ce4bh092rcd13ifvqd20","pricing_plan_id":"cebpf4jnsgd1na2vs0mg"},{"bike_id":"f3441da0-db1e-4ca0-b77c-ee3b7855b743","system_id":"levelo_inurba_marseille","lat":43.26929,"lon":5.40267,"is_reserved":false,"is_disabled":false,"rental_uris":{"android":"levelo://app?vid=f3441da0-db1e-4ca0-b77c-ee3b7855b743","ios":"levelo://app?vid=f3441da0-db1e-4ca0-b77c-ee3b7855b743"},"vehicle_type_id":"4","last_reported":1738307303,"current_range_meters":38800,"station_id":"cjm6bp8fraef2m0cb0m0","pricing_plan_id":"cebpf4jnsgd1na2vs0mg"},{"bike_id":"cd6b353a-d9ae-47b8-9eb1-cf960e9a39fe","system_id":"levelo_inurba_marseille","lat":43.292742,"lon":5.368408,"is_reserved":false,"is_disabled":false,"rental_uris":{"android":"levelo://app?vid=cd6b353a-d9ae-47b8-9eb1-cf960e9a39fe","ios":"levelo://app?vid=cd6b353a-d9ae-47b8-9eb1-cf960e9a39fe"},"vehicle_type_id":"4","last_reported":1738307303,"current_range_meters":10800,"station_id":"ce4bhbp2rcd13ifvqesg","pricing_plan_id":"cebpf4jnsgd1na2vs0mg"},{"bike_id":"9061c30b-f0f7-46e3-8477-d3c2c36b1f53","system_id":"levelo_inurba_marseille","lat":43.28021,"lon":5.36944,"is_reserved":false,"is_disabled":true,"rental_uris":{"android":"levelo://app?vid=9061c30b-f0f7-46e3-8477-d3c2c36b1f53","ios":"levelo://app?vid=9061c30b-f0f7-46e3-8477-d3c2c36b1f53"},"vehicle_type_id":"4","last_reported":1738307303,"current_range_meters":38000,"station_id":"ce4bha12rcd13ifvqef0","pricing_plan_id":"cebpf4jnsgd1na2vs0mg"},{"bike_id":"b47546f7-90c4-40f8-abd8-4029ca471b85","system_id":"levelo_inurba_marseille","lat":43.27371,"lon":5.36266,"is_reserved":false,"is_disabled":false,"rental_uris":{"android":"levelo://app?vid=b47546f7-90c4-40f8-abd8-4029ca471b85","ios":"levelo://app?vid=b47546f7-90c4-40f8-abd8-4029ca471b85"},"vehicle_type_id":"4","last_reported":1738307303,"current_range_meters":38400,"station_id":"ce4bhbh2rcd13ifvqeo0","pricing_plan_id":"cebpf4jnsgd1na2vs0mg"},{"bike_id":"16993b99-1b15-4df1-9c73-04bda390870f","system_id":"levelo_inurba_marseille","lat":43.279031,"lon":5.379981,"is_reserved":false,"is_disabled":false,"rental_uris":{"android":"levelo://app?vid=16993b99-1b15-4df1-9c73-04bda390870f","ios":"levelo://app?vid=16993b99-1b15-4df1-9c73-04bda390870f"},"vehicle_type_id":"4","last_reported":1738307303,"current_range_meters":37600,"station_id":"ce4bhf92rcd13ifvqf50","pricing_plan_id":"cebpf4jnsgd1na2vs0mg"},{"bike_id":"20bde5ed-a913-4b38-96b3-06e41b39699f","system_id":"levelo_inurba_marseille","lat":43.31759,"lon":5.38996,"is_reserved":false,"is_disabled":false,"rental_uris":{"android":"levelo://app?vid=20bde5ed-a913-4b38-96b3-06e41b39699f","ios":"levelo://app?vid=20bde5ed-a913-4b38-96b3-06e41b39699f"},"vehicle_type_id":"4","last_reported":1738307303,"current_range_meters":36400,"station_id":"ce4bhqp2rcd13ifvqhng","pricing_plan_id":"cebpf4jnsgd1na2vs0mg"},{"bike_id":"c71f3ff0-1e25-4916-b132-86f039eda3f7","system_id":"levelo_inurba_marseille","lat":43.30458,"lon":5.37915,"is_reserved":false,"is_disabled":false,"rental_uris":{"android":"levelo://app?vid=c71f3ff0-1e25-4916-b132-86f039eda3f7","ios":"levelo://app?vid=c71f3ff0-1e25-4916-b132-86f039eda3f7"},"vehicle_type_id":"4","last_reported":1738307303,"current_range_meters":20000,"station_id":"ce4bgup2rcd13ifvqcn0","pricing_plan_id":"cebpf4jnsgd1na2vs0mg"},{"bike_id":"ab2c796a-c23b-4a3a-9534-777b873d6a05","system_id":"levelo_inurba_marseille","lat":43.241656,"lon":5.364014,"is_reserved":false,"is_disabled":false,"rental_uris":{"android":"levelo://app?vid=ab2c796a-c23b-4a3a-9534-777b873d6a05","ios":"levelo://app?vid=ab2c796a-c23b-4a3a-9534-777b873d6a05"},"vehicle_type_id":"4","last_reported":1738307303,"current_range_meters":37600,"station_id":"cpo36qri1sfpv3e86is0","pricing_plan_id":"cebpf4jnsgd1na2vs0mg"},{"bike_id":"a22bc9df-d568-4f1f-a1e9-de3b4dbe67fd","system_id":"levelo_inurba_marseille","lat":43.284199,"lon":5.349874,"is_reserved":false,"is_disabled":false,"rental_uris":{"android":"levelo://app?vid=a22bc9df-d568-4f1f-a1e9-de3b4dbe67fd","ios":"levelo://app?vid=a22bc9df-d568-4f1f-a1e9-de3b4dbe67fd"},"vehicle_type_id":"4","last_reported":1738307303,"current_range_meters":15200,"station_id":"ce4bhbh2rcd13ifvqepg","pricing_plan_id":"cebpf4jnsgd1na2vs0mg"},{"bike_id":"9d529811-8444-477d-9a82-57d5a87aec89","system_id":"levelo_inurba_marseille","lat":43.28459,"lon":5.35911,"is_reserved":false,"is_disabled":false,"rental_uris":{"android":"levelo://app?vid=9d529811-8444-477d-9a82-57d5a87aec89","ios":"levelo://app?vid=9d529811-8444-477d-9a82-57d5a87aec89"},"vehicle_type_id":"4","last_reported":1738307303,"current_range_meters":33600,"station_id":"ce4bhah2rcd13ifvqei0","pricing_plan_id":"cebpf4jnsgd1na2vs0mg"},{"bike_id":"58feef8f-17b5-470d-8151-c7a13f0dbe24","system_id":"levelo_inurba_marseille","lat":43.284098,"lon":5.375193,"is_reserved":false,"is_disabled":true,"rental_uris":{"android":"levelo://app?vid=58feef8f-17b5-470d-8151-c7a13f0dbe24","ios":"levelo://app?vid=58feef8f-17b5-470d-8151-c7a13f0dbe24"},"vehicle_type_id":"4","last_reported":1738307303,"current_range_meters":2000,"station_id":"ce4bh412rcd13ifvqds0","pricing_plan_id":"cebpf4jnsgd1na2vs0mg"},{"bike_id":"c4e6d5d6-e4f6-437e-bf71-1c23dcfc75a2","system_id":"levelo_inurba_marseille","lat":43.282664,"lon":5.350715,"is_reserved":false,"is_disabled":false,"rental_uris":{"android":"levelo://app?vid=c4e6d5d6-e4f6-437e-bf71-1c23dcfc75a2","ios":"levelo://app?vid=c4e6d5d6-e4f6-437e-bf71-1c23dcfc75a2"},"vehicle_type_id":"4","last_reported":1738307303,"current_range_meters":34800,"station_id":"ce4bhbp2rcd13ifvqerg","pricing_plan_id":"cebpf4jnsgd1na2vs0mg"},{"bike_id":"6e5449ad-6608-4558-88fd-c3665d5b3cc5","system_id":"levelo_inurba_marseille","lat":43.29523,"lon":5.38539,"is_reserved":false,"is_disabled":false,"rental_uris":{"android":"levelo://app?vid=6e5449ad-6608-4558-88fd-c3665d5b3cc5","ios":"levelo://app?vid=6e5449ad-6608-4558-88fd-c3665d5b3cc5"},"vehicle_type_id":"4","last_reported":1738307303,"current_range_meters":32000,"station_id":"ce4bgih2rcd13ifvqba0","pricing_plan_id":"cebpf4jnsgd1na2vs0mg"},{"bike_id":"59c84c8c-f740-4013-8df2-50bb9ed0c76d","system_id":"levelo_inurba_marseille","lat":43.25077,"lon":5.39507,"is_reserved":false,"is_disabled":false,"rental_uris":{"android":"levelo://app?vid=59c84c8c-f740-4013-8df2-50bb9ed0c76d","ios":"levelo://app?vid=59c84c8c-f740-4013-8df2-50bb9ed0c76d"},"vehicle_type_id":"4","last_reported":1738307303,"current_range_meters":38800,"station_id":"ce4bhm12rcd13ifvqgkg","pricing_plan_id":"cebpf4jnsgd1na2vs0mg"},{"bike_id":"349525db-a683-452e-a69d-a6cf21342dae","system_id":"levelo_inurba_marseille","lat":43.295973,"lon":5.367335,"is_reserved":false,"is_disabled":false,"rental_uris":{"android":"levelo://app?vid=349525db-a683-452e-a69d-a6cf21342dae","ios":"levelo://app?vid=349525db-a683-452e-a69d-a6cf21342dae"},"vehicle_type_id":"4","last_reported":1738307303,"current_range_meters":32400,"station_id":"ce4bgph2rcd13ifvqc2g","pricing_plan_id":"cebpf4jnsgd1na2vs0mg"},{"bike_id":"b3f9d40e-c6c3-4e70-a1cf-be32056d433c","system_id":"levelo_inurba_marseille","lat":43.243948,"lon":5.370627,"is_reserved":false,"is_disabled":true,"rental_uris":{"android":"levelo://app?vid=b3f9d40e-c6c3-4e70-a1cf-be32056d433c","ios":"levelo://app?vid=b3f9d40e-c6c3-4e70-a1cf-be32056d433c"},"vehicle_type_id":"4","last_reported":1738307303,"current_range_meters":0,"station_id":"ce4bhhh2rcd13ifvqfk0","pricing_plan_id":"cebpf4jnsgd1na2vs0mg"},{"bike_id":"d9ed5303-640c-4034-8a17-1ad90548a427","system_id":"levelo_inurba_marseille","lat":43.25084,"lon":5.39511,"is_reserved":false,"is_disabled":false,"rental_uris":{"android":"levelo://app?vid=d9ed5303-640c-4034-8a17-1ad90548a427","ios":"levelo://app?vid=d9ed5303-640c-4034-8a17-1ad90548a427"},"vehicle_type_id":"4","last_reported":1738307303,"current_range_meters":38800,"station_id":"ce4bhm12rcd13ifvqgkg","pricing_plan_id":"cebpf4jnsgd1na2vs0mg"},{"bike_id":"fc2dee61-6a5e-41ce-a75c-e2029dcb39bc","system_id":"levelo_inurba_marseille","lat":43.26556,"lon":5.37306,"is_reserved":false,"is_disabled":false,"rental_uris":{"android":"levelo://app?vid=fc2dee61-6a5e-41ce-a75c-e2029dcb39bc","ios":"levelo://app?vid=fc2dee61-6a5e-41ce-a75c-e2029dcb39bc"},"vehicle_type_id":"4","last_reported":1738307303,"current_range_meters":15200,"station_id":"ce4bhg12rcd13ifvqf70","pricing_plan_id":"cebpf4jnsgd1na2vs0mg"},{"bike_id":"1640be1d-e337-43d4-b0bf-1ff9d6a4380c","system_id":"levelo_inurba_marseille","lat":43.32478,"lon":5.36554,"is_reserved":false,"is_disabled":false,"rental_uris":{"android":"levelo://app?vid=1640be1d-e337-43d4-b0bf-1ff9d6a4380c","ios":"levelo://app?vid=1640be1d-e337-43d4-b0bf-1ff9d6a4380c"},"vehicle_type_id":"4","last_reported":1738307303,"current_range_meters":6000,"station_id":"ce4bhs12rcd13ifvqhvg","pricing_plan_id":"cebpf4jnsgd1na2vs0mg"},{"bike_id":"98d3b3e4-cfb0-4926-8be8-90a8034d23db","system_id":"levelo_inurba_marseille","lat":43.28348,"lon":5.38098,"is_reserved":false,"is_disabled":false,"rental_uris":{"android":"levelo://app?vid=98d3b3e4-cfb0-4926-8be8-90a8034d23db","ios":"levelo://app?vid=98d3b3e4-cfb0-4926-8be8-90a8034d23db"},"vehicle_type_id":"4","last_reported":1738307303,"current_range_meters":39200,"station_id":"ce4bh412rcd13ifvqdr0","pricing_plan_id":"cebpf4jnsgd1na2vs0mg"},{"bike_id":"28e881d1-0d7a-445a-bd5a-bac2f44cfb8c","system_id":"levelo_inurba_marseille","lat":43.25913,"lon":5.40882,"is_reserved":false,"is_disabled":true,"rental_uris":{"android":"levelo://app?vid=28e881d1-0d7a-445a-bd5a-bac2f44cfb8c","ios":"levelo://app?vid=28e881d1-0d7a-445a-bd5a-bac2f44cfb8c"},"vehicle_type_id":"4","last_reported":1738307303,"current_range_meters":12000,"station_id":"ce4bhm92rcd13ifvqglg","pricing_plan_id":"cebpf4jnsgd1na2vs0mg"},{"bike_id":"e8e1f7c6-d773-4c38-bfcc-4a6d773355ce","system_id":"levelo_inurba_marseille","lat":43.22915,"lon":5.35369,"is_reserved":false,"is_disabled":false,"rental_uris":{"android":"levelo://app?vid=e8e1f7c6-d773-4c38-bfcc-4a6d773355ce","ios":"levelo://app?vid=e8e1f7c6-d773-4c38-bfcc-4a6d773355ce"},"vehicle_type_id":"4","last_reported":1738307303,"current_range_meters":38800,"station_id":"cpo3532slgdg3j2ikp40","pricing_plan_id":"cebpf4jnsgd1na2vs0mg"},{"bike_id":"57b7807f-dadf-4a68-98f3-8bb7398bbe27","system_id":"levelo_inurba_marseille","lat":43.26928,"lon":5.40242,"is_reserved":false,"is_disabled":false,"rental_uris":{"android":"levelo://app?vid=57b7807f-dadf-4a68-98f3-8bb7398bbe27","ios":"levelo://app?vid=57b7807f-dadf-4a68-98f3-8bb7398bbe27"},"vehicle_type_id":"4","last_reported":1738307303,"current_range_meters":24000,"station_id":"cjm6bp8fraef2m0cb0m0","pricing_plan_id":"cebpf4jnsgd1na2vs0mg"},{"bike_id":"9c577c7e-bb6a-4366-a029-5d396357d344","system_id":"levelo_inurba_marseille","lat":43.29596,"lon":5.36743,"is_reserved":false,"is_disabled":false,"rental_uris":{"android":"levelo://app?vid=9c577c7e-bb6a-4366-a029-5d396357d344","ios":"levelo://app?vid=9c577c7e-bb6a-4366-a029-5d396357d344"},"vehicle_type_id":"4","last_reported":1738307303,"current_range_meters":37600,"station_id":"ce4bgph2rcd13ifvqc2g","pricing_plan_id":"cebpf4jnsgd1na2vs0mg"},{"bike_id":"7b6d01c3-b9c6-4cae-b2e7-64fcc0baeeaa","system_id":"levelo_inurba_marseille","lat":43.25572,"lon":5.38247,"is_reserved":false,"is_disabled":false,"rental_uris":{"android":"levelo://app?vid=7b6d01c3-b9c6-4cae-b2e7-64fcc0baeeaa","ios":"levelo://app?vid=7b6d01c3-b9c6-4cae-b2e7-64fcc0baeeaa"},"vehicle_type_id":"4","last_reported":1738307303,"current_range_meters":12800,"station_id":"ce4bhih2rcd13ifvqfs0","pricing_plan_id":"cebpf4jnsgd1na2vs0mg"},{"bike_id":"17a1d8ce-e7f3-47ac-bfe8-07e94d2954bf","system_id":"levelo_inurba_marseille","lat":43.25576,"lon":5.38235,"is_reserved":false,"is_disabled":false,"rental_uris":{"android":"levelo://app?vid=17a1d8ce-e7f3-47ac-bfe8-07e94d2954bf","ios":"levelo://app?vid=17a1d8ce-e7f3-47ac-bfe8-07e94d2954bf"},"vehicle_type_id":"4","last_reported":1738307303,"current_range_meters":38800,"station_id":"ce4bhih2rcd13ifvqfs0","pricing_plan_id":"cebpf4jnsgd1na2vs0mg"},{"bike_id":"873603c6-e1ae-4482-bc98-660199611322","system_id":"levelo_inurba_marseille","lat":43.30876,"lon":5.39648,"is_reserved":false,"is_disabled":false,"rental_uris":{"android":"levelo://app?vid=873603c6-e1ae-4482-bc98-660199611322","ios":"levelo://app?vid=873603c6-e1ae-4482-bc98-660199611322"},"vehicle_type_id":"4","last_reported":1738307303,"current_range_meters":38400,"station_id":"ce4bh012rcd13ifvqcv0","pricing_plan_id":"cebpf4jnsgd1na2vs0mg"},{"bike_id":"2319bae8-4daa-44ce-98c4-8b28e43d4dcb","system_id":"levelo_inurba_marseille","lat":43.30596,"lon":5.39361,"is_reserved":false,"is_disabled":false,"rental_uris":{"android":"levelo://app?vid=2319bae8-4daa-44ce-98c4-8b28e43d4dcb","ios":"levelo://app?vid=2319bae8-4daa-44ce-98c4-8b28e43d4dcb"},"vehicle_type_id":"4","last_reported":1738307303,"current_range_meters":22400,"station_id":"ce4bh0p2rcd13ifvqd80","pricing_plan_id":"cebpf4jnsgd1na2vs0mg"},{"bike_id":"64eb8528-a148-4813-9fc1-e5070c6b1239","system_id":"levelo_inurba_marseille","lat":43.28719,"lon":5.37939,"is_reserved":false,"is_disabled":false,"rental_uris":{"android":"levelo://app?vid=64eb8528-a148-4813-9fc1-e5070c6b1239","ios":"levelo://app?vid=64eb8528-a148-4813-9fc1-e5070c6b1239"},"vehicle_type_id":"4","last_reported":1738307303,"current_range_meters":33600,"station_id":"ce4bh9p2rcd13ifvqec0","pricing_plan_id":"cebpf4jnsgd1na2vs0mg"},{"bike_id":"6e5d8396-5214-4ff5-b68c-13cd9c01c68b","system_id":"levelo_inurba_marseille","lat":43.30463,"lon":5.37915,"is_reserved":false,"is_disabled":false,"rental_uris":{"android":"levelo://app?vid=6e5d8396-5214-4ff5-b68c-13cd9c01c68b","ios":"levelo://app?vid=6e5d8396-5214-4ff5-b68c-13cd9c01c68b"},"vehicle_type_id":"4","last_reported":1738307303,"current_range_meters":24400,"station_id":"ce4bgup2rcd13ifvqcn0","pricing_plan_id":"cebpf4jnsgd1na2vs0mg"},{"bike_id":"60335d1b-4a92-46bd-8eca-dffb02768c78","system_id":"levelo_inurba_marseille","lat":43.24989,"lon":5.38932,"is_reserved":false,"is_disabled":false,"rental_uris":{"android":"levelo://app?vid=60335d1b-4a92-46bd-8eca-dffb02768c78","ios":"levelo://app?vid=60335d1b-4a92-46bd-8eca-dffb02768c78"},"vehicle_type_id":"4","last_reported":1738307303,"current_range_meters":17200,"station_id":"ce4bhgp2rcd13ifvqfd0","pricing_plan_id":"cebpf4jnsgd1na2vs0mg"},{"bike_id":"60911234-26e8-4f42-acbb-88b4c360ca2e","system_id":"levelo_inurba_marseille","lat":43.25005,"lon":5.38939,"is_reserved":false,"is_disabled":false,"rental_uris":{"android":"levelo://app?vid=60911234-26e8-4f42-acbb-88b4c360ca2e","ios":"levelo://app?vid=60911234-26e8-4f42-acbb-88b4c360ca2e"},"vehicle_type_id":"4","last_reported":1738307303,"current_range_meters":32400,"station_id":"ce4bhgp2rcd13ifvqfd0","pricing_plan_id":"cebpf4jnsgd1na2vs0mg"},{"bike_id":"c837f71d-2688-466a-b96d-e6d4865e5925","system_id":"levelo_inurba_marseille","lat":43.305413,"lon":5.366782,"is_reserved":false,"is_disabled":false,"rental_uris":{"android":"levelo://app?vid=c837f71d-2688-466a-b96d-e6d4865e5925","ios":"levelo://app?vid=c837f71d-2688-466a-b96d-e6d4865e5925"},"vehicle_type_id":"4","last_reported":1738307303,"current_range_meters":39200,"station_id":"ce4bgrp2rcd13ifvqc9g","pricing_plan_id":"cebpf4jnsgd1na2vs0mg"},{"bike_id":"e9ec24da-025a-4dfc-8c71-776f8271cad7","system_id":"levelo_inurba_marseille","lat":43.29585,"lon":5.36751,"is_reserved":false,"is_disabled":false,"rental_uris":{"android":"levelo://app?vid=e9ec24da-025a-4dfc-8c71-776f8271cad7","ios":"levelo://app?vid=e9ec24da-025a-4dfc-8c71-776f8271cad7"},"vehicle_type_id":"4","last_reported":1738307303,"current_range_meters":38400,"station_id":"ce4bgph2rcd13ifvqc2g","pricing_plan_id":"cebpf4jnsgd1na2vs0mg"},{"bike_id":"070218cf-5f55-4a87-b307-d0bbb1caf6f4","system_id":"levelo_inurba_marseille","lat":43.23207,"lon":5.39936,"is_reserved":false,"is_disabled":false,"rental_uris":{"android":"levelo://app?vid=070218cf-5f55-4a87-b307-d0bbb1caf6f4","ios":"levelo://app?vid=070218cf-5f55-4a87-b307-d0bbb1caf6f4"},"vehicle_type_id":"4","last_reported":1738307303,"current_range_meters":38800,"station_id":"","pricing_plan_id":"cebpf4jnsgd1na2vs0mg"},{"bike_id":"c0dd6acb-e111-4830-b706-614809304a0b","system_id":"levelo_inurba_marseille","lat":43.275056,"lon":5.424492,"is_reserved":false,"is_disabled":true,"rental_uris":{"android":"levelo://app?vid=c0dd6acb-e111-4830-b706-614809304a0b","ios":"levelo://app?vid=c0dd6acb-e111-4830-b706-614809304a0b"},"vehicle_type_id":"4","last_reported":1738307303,"current_range_meters":22000,"station_id":"ce4bhn92rcd13ifvqgrg","pricing_plan_id":"cebpf4jnsgd1na2vs0mg"},{"bike_id":"d9463a0a-c1b5-4a4f-bc8d-a7266cc0e3cc","system_id":"levelo_inurba_marseille","lat":43.29177,"lon":5.37478,"is_reserved":false,"is_disabled":false,"rental_uris":{"android":"levelo://app?vid=d9463a0a-c1b5-4a4f-bc8d-a7266cc0e3cc","ios":"levelo://app?vid=d9463a0a-c1b5-4a4f-bc8d-a7266cc0e3cc"},"vehicle_type_id":"4","last_reported":1738307303,"current_range_meters":35200,"station_id":"","pricing_plan_id":"cebpf4jnsgd1na2vs0mg"},{"bike_id":"71f34f72-d3b7-46a5-9bd4-1fe057b3152f","system_id":"levelo_inurba_marseille","lat":43.22929,"lon":5.35383,"is_reserved":false,"is_disabled":false,"rental_uris":{"android":"levelo://app?vid=71f34f72-d3b7-46a5-9bd4-1fe057b3152f","ios":"levelo://app?vid=71f34f72-d3b7-46a5-9bd4-1fe057b3152f"},"vehicle_type_id":"4","last_reported":1738307303,"current_range_meters":39200,"station_id":"cpo3532slgdg3j2ikp40","pricing_plan_id":"cebpf4jnsgd1na2vs0mg"},{"bike_id":"90445bf2-7643-45b5-b4a4-c3dfe9771bc9","system_id":"levelo_inurba_marseille","lat":43.31385,"lon":5.36693,"is_reserved":false,"is_disabled":false,"rental_uris":{"android":"levelo://app?vid=90445bf2-7643-45b5-b4a4-c3dfe9771bc9","ios":"levelo://app?vid=90445bf2-7643-45b5-b4a4-c3dfe9771bc9"},"vehicle_type_id":"4","last_reported":1738307303,"current_range_meters":39200,"station_id":"ce4bgr92rcd13ifvqc6g","pricing_plan_id":"cebpf4jnsgd1na2vs0mg"},{"bike_id":"20029bdd-9f9c-4ff9-86e4-5ba6ed30f46a","system_id":"levelo_inurba_marseille","lat":43.23148,"lon":5.43705,"is_reserved":false,"is_disabled":true,"rental_uris":{"android":"levelo://app?vid=20029bdd-9f9c-4ff9-86e4-5ba6ed30f46a","ios":"levelo://app?vid=20029bdd-9f9c-4ff9-86e4-5ba6ed30f46a"},"vehicle_type_id":"4","last_reported":1738307303,"current_range_meters":0,"station_id":"ce4bhmp2rcd13ifvqgog","pricing_plan_id":"cebpf4jnsgd1na2vs0mg"},{"bike_id":"9a420f87-7d7e-4781-b326-9c09400ca210","system_id":"levelo_inurba_marseille","lat":43.26208,"lon":5.37455,"is_reserved":false,"is_disabled":false,"rental_uris":{"android":"levelo://app?vid=9a420f87-7d7e-4781-b326-9c09400ca210","ios":"levelo://app?vid=9a420f87-7d7e-4781-b326-9c09400ca210"},"vehicle_type_id":"4","last_reported":1738307303,"current_range_meters":39200,"station_id":"ce4bhgp2rcd13ifvqfc0","pricing_plan_id":"cebpf4jnsgd1na2vs0mg"},{"bike_id":"72fc3fa8-b4b1-4812-ae48-9e9672608459","system_id":"levelo_inurba_marseille","lat":43.308859,"lon":5.396345,"is_reserved":false,"is_disabled":false,"rental_uris":{"android":"levelo://app?vid=72fc3fa8-b4b1-4812-ae48-9e9672608459","ios":"levelo://app?vid=72fc3fa8-b4b1-4812-ae48-9e9672608459"},"vehicle_type_id":"4","last_reported":1738307303,"current_range_meters":38000,"station_id":"ce4bh012rcd13ifvqcv0","pricing_plan_id":"cebpf4jnsgd1na2vs0mg"},{"bike_id":"279becec-4a79-4c20-8a99-f00d2ae395c1","system_id":"levelo_inurba_marseille","lat":43.31054,"lon":5.38359,"is_reserved":false,"is_disabled":false,"rental_uris":{"android":"levelo://app?vid=279becec-4a79-4c20-8a99-f00d2ae395c1","ios":"levelo://app?vid=279becec-4a79-4c20-8a99-f00d2ae395c1"},"vehicle_type_id":"4","last_reported":1738307303,"current_range_meters":9200,"station_id":"ce4bgv92rcd13ifvqcr0","pricing_plan_id":"cebpf4jnsgd1na2vs0mg"},{"bike_id":"c7b7d5dc-fcd4-4974-ac80-02e658adb2bb","system_id":"levelo_inurba_marseille","lat":43.30128,"lon":5.38113,"is_reserved":false,"is_disabled":false,"rental_uris":{"android":"levelo://app?vid=c7b7d5dc-fcd4-4974-ac80-02e658adb2bb","ios":"levelo://app?vid=c7b7d5dc-fcd4-4974-ac80-02e658adb2bb"},"vehicle_type_id":"4","last_reported":1738307303,"current_range_meters":38800,"station_id":"ce4bgjp2rcd13ifvqbh0","pricing_plan_id":"cebpf4jnsgd1na2vs0mg"},{"bike_id":"7a8503ce-2278-4768-90d1-b87e022c42c6","system_id":"levelo_inurba_marseille","lat":43.286199,"lon":5.351011,"is_reserved":false,"is_disabled":false,"rental_uris":{"android":"levelo://app?vid=7a8503ce-2278-4768-90d1-b87e022c42c6","ios":"levelo://app?vid=7a8503ce-2278-4768-90d1-b87e022c42c6"},"vehicle_type_id":"4","last_reported":1738307303,"current_range_meters":8400,"station_id":"ce4bhch2rcd13ifvqeug","pricing_plan_id":"cebpf4jnsgd1na2vs0mg"},{"bike_id":"77982fa2-73f6-4a85-bb7c-67126c76cf24","system_id":"levelo_inurba_marseille","lat":43.301499,"lon":5.380742,"is_reserved":false,"is_disabled":false,"rental_uris":{"android":"levelo://app?vid=77982fa2-73f6-4a85-bb7c-67126c76cf24","ios":"levelo://app?vid=77982fa2-73f6-4a85-bb7c-67126c76cf24"},"vehicle_type_id":"4","last_reported":1738307303,"current_range_meters":38800,"station_id":"ce4bgjp2rcd13ifvqbh0","pricing_plan_id":"cebpf4jnsgd1na2vs0mg"},{"bike_id":"46fdb6e5-fcb2-4c4b-ab56-c91307ece41d","system_id":"levelo_inurba_marseille","lat":43.28349,"lon":5.38108,"is_reserved":false,"is_disabled":false,"rental_uris":{"android":"levelo://app?vid=46fdb6e5-fcb2-4c4b-ab56-c91307ece41d","ios":"levelo://app?vid=46fdb6e5-fcb2-4c4b-ab56-c91307ece41d"},"vehicle_type_id":"4","last_reported":1738307303,"current_range_meters":37600,"station_id":"ce4bh412rcd13ifvqdr0","pricing_plan_id":"cebpf4jnsgd1na2vs0mg"},{"bike_id":"26bf92da-d481-4630-a4ae-31c3eafacf03","system_id":"levelo_inurba_marseille","lat":43.27994,"lon":5.40024,"is_reserved":false,"is_disabled":false,"rental_uris":{"android":"levelo://app?vid=26bf92da-d481-4630-a4ae-31c3eafacf03","ios":"levelo://app?vid=26bf92da-d481-4630-a4ae-31c3eafacf03"},"vehicle_type_id":"4","last_reported":1738307303,"current_range_meters":36400,"station_id":"ce4bho92rcd13ifvqh4g","pricing_plan_id":"cebpf4jnsgd1na2vs0mg"},{"bike_id":"45fd4a2a-a5dc-4b7e-962f-4641aedb60dd","system_id":"levelo_inurba_marseille","lat":43.279843,"lon":5.416611,"is_reserved":false,"is_disabled":true,"rental_uris":{"android":"levelo://app?vid=45fd4a2a-a5dc-4b7e-962f-4641aedb60dd","ios":"levelo://app?vid=45fd4a2a-a5dc-4b7e-962f-4641aedb60dd"},"vehicle_type_id":"4","last_reported":1738307303,"current_range_meters":36000,"station_id":"ce4bho12rcd13ifvqh1g","pricing_plan_id":"cebpf4jnsgd1na2vs0mg"},{"bike_id":"bbd37f25-b511-4ba3-9ad8-9c3bb19bb776","system_id":"levelo_inurba_marseille","lat":43.303,"lon":5.36889,"is_reserved":false,"is_disabled":false,"rental_uris":{"android":"levelo://app?vid=bbd37f25-b511-4ba3-9ad8-9c3bb19bb776","ios":"levelo://app?vid=bbd37f25-b511-4ba3-9ad8-9c3bb19bb776"},"vehicle_type_id":"4","last_reported":1738307303,"current_range_meters":19600,"station_id":"ce4bgqh2rcd13ifvqc5g","pricing_plan_id":"cebpf4jnsgd1na2vs0mg"},{"bike_id":"b8cd051c-73e4-43fa-b293-cd513636745c","system_id":"levelo_inurba_marseille","lat":43.295365,"lon":5.385493,"is_reserved":false,"is_disabled":true,"rental_uris":{"android":"levelo://app?vid=b8cd051c-73e4-43fa-b293-cd513636745c","ios":"levelo://app?vid=b8cd051c-73e4-43fa-b293-cd513636745c"},"vehicle_type_id":"4","last_reported":1738307303,"current_range_meters":28000,"station_id":"ce4bgih2rcd13ifvqba0","pricing_plan_id":"cebpf4jnsgd1na2vs0mg"},{"bike_id":"4d213e19-460b-4ffc-abf2-31a900d6c917","system_id":"levelo_inurba_marseille","lat":43.276274,"lon":5.361018,"is_reserved":false,"is_disabled":false,"rental_uris":{"android":"levelo://app?vid=4d213e19-460b-4ffc-abf2-31a900d6c917","ios":"levelo://app?vid=4d213e19-460b-4ffc-abf2-31a900d6c917"},"vehicle_type_id":"4","last_reported":1738307303,"current_range_meters":38800,"station_id":"ce4bgj92rcd13ifvqbe0","pricing_plan_id":"cebpf4jnsgd1na2vs0mg"},{"bike_id":"95aee25f-5c57-4ea4-ae9b-fd75ffb2acea","system_id":"levelo_inurba_marseille","lat":43.23193,"lon":5.39985,"is_reserved":false,"is_disabled":false,"rental_uris":{"android":"levelo://app?vid=95aee25f-5c57-4ea4-ae9b-fd75ffb2acea","ios":"levelo://app?vid=95aee25f-5c57-4ea4-ae9b-fd75ffb2acea"},"vehicle_type_id":"4","last_reported":1738307303,"current_range_meters":24400,"station_id":"ce4bhn12rcd13ifvqgqg","pricing_plan_id":"cebpf4jnsgd1na2vs0mg"},{"bike_id":"8c893236-4e50-4d74-9aae-eef51dda8b0f","system_id":"levelo_inurba_marseille","lat":43.28103,"lon":5.37835,"is_reserved":false,"is_disabled":false,"rental_uris":{"android":"levelo://app?vid=8c893236-4e50-4d74-9aae-eef51dda8b0f","ios":"levelo://app?vid=8c893236-4e50-4d74-9aae-eef51dda8b0f"},"vehicle_type_id":"4","last_reported":1738307303,"current_range_meters":8400,"station_id":"ce4bha12rcd13ifvqee0","pricing_plan_id":"cebpf4jnsgd1na2vs0mg"},{"bike_id":"528fe304-774b-4f5e-99b0-3a6df52f7bd5","system_id":"levelo_inurba_marseille","lat":43.26917,"lon":5.40287,"is_reserved":false,"is_disabled":false,"rental_uris":{"android":"levelo://app?vid=528fe304-774b-4f5e-99b0-3a6df52f7bd5","ios":"levelo://app?vid=528fe304-774b-4f5e-99b0-3a6df52f7bd5"},"vehicle_type_id":"4","last_reported":1738307303,"current_range_meters":26000,"station_id":"cjm6bp8fraef2m0cb0m0","pricing_plan_id":"cebpf4jnsgd1na2vs0mg"},{"bike_id":"5f96eda3-35a5-4c25-9c2c-1664507142c2","system_id":"levelo_inurba_marseille","lat":43.29024,"lon":5.38642,"is_reserved":false,"is_disabled":false,"rental_uris":{"android":"levelo://app?vid=5f96eda3-35a5-4c25-9c2c-1664507142c2","ios":"levelo://app?vid=5f96eda3-35a5-4c25-9c2c-1664507142c2"},"vehicle_type_id":"4","last_reported":1738307303,"current_range_meters":3200,"station_id":"ce4bh4p2rcd13ifvqe0g","pricing_plan_id":"cebpf4jnsgd1na2vs0mg"},{"bike_id":"3f3b38da-8d76-49d6-be17-984cf0fc3296","system_id":"levelo_inurba_marseille","lat":43.287061,"lon":5.37938,"is_reserved":false,"is_disabled":true,"rental_uris":{"android":"levelo://app?vid=3f3b38da-8d76-49d6-be17-984cf0fc3296","ios":"levelo://app?vid=3f3b38da-8d76-49d6-be17-984cf0fc3296"},"vehicle_type_id":"4","last_reported":1738307303,"current_range_meters":16800,"station_id":"ce4bh9p2rcd13ifvqec0","pricing_plan_id":"cebpf4jnsgd1na2vs0mg"},{"bike_id":"f1c1b4b2-886a-4032-9789-fafe9a004bd4","system_id":"levelo_inurba_marseille","lat":43.28456,"lon":5.35901,"is_reserved":false,"is_disabled":false,"rental_uris":{"android":"levelo://app?vid=f1c1b4b2-886a-4032-9789-fafe9a004bd4","ios":"levelo://app?vid=f1c1b4b2-886a-4032-9789-fafe9a004bd4"},"vehicle_type_id":"4","last_reported":1738307303,"current_range_meters":38800,"station_id":"ce4bhah2rcd13ifvqei0","pricing_plan_id":"cebpf4jnsgd1na2vs0mg"},{"bike_id":"a12ae85b-f24f-4163-8f94-5bb5a813ed2c","system_id":"levelo_inurba_marseille","lat":43.30152,"lon":5.38088,"is_reserved":false,"is_disabled":false,"rental_uris":{"android":"levelo://app?vid=a12ae85b-f24f-4163-8f94-5bb5a813ed2c","ios":"levelo://app?vid=a12ae85b-f24f-4163-8f94-5bb5a813ed2c"},"vehicle_type_id":"4","last_reported":1738307303,"current_range_meters":35200,"station_id":"ce4bgjp2rcd13ifvqbh0","pricing_plan_id":"cebpf4jnsgd1na2vs0mg"},{"bike_id":"d6008e4b-c4fc-4e46-a6ec-9afe2ed04cfa","system_id":"levelo_inurba_marseille","lat":43.31509,"lon":5.38918,"is_reserved":false,"is_disabled":false,"rental_uris":{"android":"levelo://app?vid=d6008e4b-c4fc-4e46-a6ec-9afe2ed04cfa","ios":"levelo://app?vid=d6008e4b-c4fc-4e46-a6ec-9afe2ed04cfa"},"vehicle_type_id":"4","last_reported":1738307303,"current_range_meters":18000,"station_id":"","pricing_plan_id":"cebpf4jnsgd1na2vs0mg"},{"bike_id":"e1cfa601-5685-461f-8b5b-34ca50626e82","system_id":"levelo_inurba_marseille","lat":43.2846,"lon":5.38492,"is_reserved":false,"is_disabled":true,"rental_uris":{"android":"levelo://app?vid=e1cfa601-5685-461f-8b5b-34ca50626e82","ios":"levelo://app?vid=e1cfa601-5685-461f-8b5b-34ca50626e82"},"vehicle_type_id":"4","last_reported":1738307303,"current_range_meters":34800,"station_id":"ce4bh8p2rcd13ifvqeb0","pricing_plan_id":"cebpf4jnsgd1na2vs0mg"},{"bike_id":"bd8a828d-e634-4034-9cac-55889d5bbfa5","system_id":"levelo_inurba_marseille","lat":43.2818,"lon":5.42626,"is_reserved":false,"is_disabled":false,"rental_uris":{"android":"levelo://app?vid=bd8a828d-e634-4034-9cac-55889d5bbfa5","ios":"levelo://app?vid=bd8a828d-e634-4034-9cac-55889d5bbfa5"},"vehicle_type_id":"4","last_reported":1738307303,"current_range_meters":27600,"station_id":"ce4bhnh2rcd13ifvqgug","pricing_plan_id":"cebpf4jnsgd1na2vs0mg"},{"bike_id":"2cf95841-bc69-4d76-bb4f-dd1068032a77","system_id":"levelo_inurba_marseille","lat":43.29208,"lon":5.36068,"is_reserved":false,"is_disabled":false,"rental_uris":{"android":"levelo://app?vid=2cf95841-bc69-4d76-bb4f-dd1068032a77","ios":"levelo://app?vid=2cf95841-bc69-4d76-bb4f-dd1068032a77"},"vehicle_type_id":"4","last_reported":1738307303,"current_range_meters":26000,"station_id":"ce4bhbh2rcd13ifvqeqg","pricing_plan_id":"cebpf4jnsgd1na2vs0mg"},{"bike_id":"6f62346f-c4bf-4514-9be6-2d454717edd7","system_id":"levelo_inurba_marseille","lat":43.30346,"lon":5.41747,"is_reserved":false,"is_disabled":false,"rental_uris":{"android":"levelo://app?vid=6f62346f-c4bf-4514-9be6-2d454717edd7","ios":"levelo://app?vid=6f62346f-c4bf-4514-9be6-2d454717edd7"},"vehicle_type_id":"4","last_reported":1738307303,"current_range_meters":33600,"station_id":"ce4bhop2rcd13ifvqh7g","pricing_plan_id":"cebpf4jnsgd1na2vs0mg"},{"bike_id":"f9d35a32-65b2-4842-bd83-8cbe10324274","system_id":"levelo_inurba_marseille","lat":43.28638,"lon":5.351,"is_reserved":false,"is_disabled":false,"rental_uris":{"android":"levelo://app?vid=f9d35a32-65b2-4842-bd83-8cbe10324274","ios":"levelo://app?vid=f9d35a32-65b2-4842-bd83-8cbe10324274"},"vehicle_type_id":"4","last_reported":1738307303,"current_range_meters":14000,"station_id":"ce4bhch2rcd13ifvqeug","pricing_plan_id":"cebpf4jnsgd1na2vs0mg"},{"bike_id":"57ea5f77-abf9-41ff-8ffe-e281a2630bfe","system_id":"levelo_inurba_marseille","lat":43.2808,"lon":5.39673,"is_reserved":false,"is_disabled":true,"rental_uris":{"android":"levelo://app?vid=57ea5f77-abf9-41ff-8ffe-e281a2630bfe","ios":"levelo://app?vid=57ea5f77-abf9-41ff-8ffe-e281a2630bfe"},"vehicle_type_id":"4","last_reported":1738307303,"current_range_meters":37600,"station_id":"ce4bho12rcd13ifvqh2g","pricing_plan_id":"cebpf4jnsgd1na2vs0mg"},{"bike_id":"a719c1d1-84c9-4f79-93b9-ea9743df40b6","system_id":"levelo_inurba_marseille","lat":43.24066,"lon":5.37764,"is_reserved":false,"is_disabled":false,"rental_uris":{"android":"levelo://app?vid=a719c1d1-84c9-4f79-93b9-ea9743df40b6","ios":"levelo://app?vid=a719c1d1-84c9-4f79-93b9-ea9743df40b6"},"vehicle_type_id":"4","last_reported":1738307303,"current_range_meters":35600,"station_id":"ce4bhnp2rcd13ifvqgvg","pricing_plan_id":"cebpf4jnsgd1na2vs0mg"},{"bike_id":"334ebcb2-274e-4cad-b5b8-bdf65633d76a","system_id":"levelo_inurba_marseille","lat":43.29034,"lon":5.39966,"is_reserved":false,"is_disabled":true,"rental_uris":{"android":"levelo://app?vid=334ebcb2-274e-4cad-b5b8-bdf65633d76a","ios":"levelo://app?vid=334ebcb2-274e-4cad-b5b8-bdf65633d76a"},"vehicle_type_id":"4","last_reported":1738307303,"current_range_meters":2000,"station_id":"ce4bh392rcd13ifvqdm0","pricing_plan_id":"cebpf4jnsgd1na2vs0mg"},{"bike_id":"aecdacf5-379f-42fe-baf8-e46dc8f2d8b8","system_id":"levelo_inurba_marseille","lat":43.28411,"lon":5.375,"is_reserved":false,"is_disabled":false,"rental_uris":{"android":"levelo://app?vid=aecdacf5-379f-42fe-baf8-e46dc8f2d8b8","ios":"levelo://app?vid=aecdacf5-379f-42fe-baf8-e46dc8f2d8b8"},"vehicle_type_id":"4","last_reported":1738307303,"current_range_meters":27600,"station_id":"ce4bh412rcd13ifvqds0","pricing_plan_id":"cebpf4jnsgd1na2vs0mg"},{"bike_id":"1133f0a4-d0e7-4e5f-86ab-a2501be23ec3","system_id":"levelo_inurba_marseille","lat":43.28453,"lon":5.35904,"is_reserved":false,"is_disabled":false,"rental_uris":{"android":"levelo://app?vid=1133f0a4-d0e7-4e5f-86ab-a2501be23ec3","ios":"levelo://app?vid=1133f0a4-d0e7-4e5f-86ab-a2501be23ec3"},"vehicle_type_id":"4","last_reported":1738307303,"current_range_meters":25200,"station_id":"ce4bhah2rcd13ifvqei0","pricing_plan_id":"cebpf4jnsgd1na2vs0mg"},{"bike_id":"9e005288-51e5-4964-bcf6-f24f1234ca44","system_id":"levelo_inurba_marseille","lat":43.24391,"lon":5.3706,"is_reserved":false,"is_disabled":false,"rental_uris":{"android":"levelo://app?vid=9e005288-51e5-4964-bcf6-f24f1234ca44","ios":"levelo://app?vid=9e005288-51e5-4964-bcf6-f24f1234ca44"},"vehicle_type_id":"4","last_reported":1738307303,"current_range_meters":39200,"station_id":"ce4bhhh2rcd13ifvqfk0","pricing_plan_id":"cebpf4jnsgd1na2vs0mg"},{"bike_id":"1dae628c-3986-429e-856b-4f4de60ef452","system_id":"levelo_inurba_marseille","lat":43.30131,"lon":5.39855,"is_reserved":false,"is_disabled":false,"rental_uris":{"android":"levelo://app?vid=1dae628c-3986-429e-856b-4f4de60ef452","ios":"levelo://app?vid=1dae628c-3986-429e-856b-4f4de60ef452"},"vehicle_type_id":"4","last_reported":1738307303,"current_range_meters":9600,"station_id":"ce4bh0h2rcd13ifvqd40","pricing_plan_id":"cebpf4jnsgd1na2vs0mg"},{"bike_id":"56d6b97f-30a2-4c2a-8be6-a12a9fc19507","system_id":"levelo_inurba_marseille","lat":43.31756,"lon":5.390241,"is_reserved":false,"is_disabled":false,"rental_uris":{"android":"levelo://app?vid=56d6b97f-30a2-4c2a-8be6-a12a9fc19507","ios":"levelo://app?vid=56d6b97f-30a2-4c2a-8be6-a12a9fc19507"},"vehicle_type_id":"4","last_reported":1738307303,"current_range_meters":14800,"station_id":"ce4bhqp2rcd13ifvqhng","pricing_plan_id":"cebpf4jnsgd1na2vs0mg"},{"bike_id":"28ca445f-5c73-43a8-bf4c-ff0ed4a7d535","system_id":"levelo_inurba_marseille","lat":43.28536,"lon":5.39493,"is_reserved":false,"is_disabled":false,"rental_uris":{"android":"levelo://app?vid=28ca445f-5c73-43a8-bf4c-ff0ed4a7d535","ios":"levelo://app?vid=28ca445f-5c73-43a8-bf4c-ff0ed4a7d535"},"vehicle_type_id":"4","last_reported":1738307303,"current_range_meters":38000,"station_id":"ce4bh292rcd13ifvqdg0","pricing_plan_id":"cebpf4jnsgd1na2vs0mg"},{"bike_id":"d2a61873-58f7-4bc8-abeb-3ce8c1c55c8d","system_id":"levelo_inurba_marseille","lat":43.27133,"lon":5.41004,"is_reserved":false,"is_disabled":false,"rental_uris":{"android":"levelo://app?vid=d2a61873-58f7-4bc8-abeb-3ce8c1c55c8d","ios":"levelo://app?vid=d2a61873-58f7-4bc8-abeb-3ce8c1c55c8d"},"vehicle_type_id":"4","last_reported":1738307303,"current_range_meters":13600,"station_id":"ce4bhl12rcd13ifvqgf0","pricing_plan_id":"cebpf4jnsgd1na2vs0mg"},{"bike_id":"cbb6251a-7583-4acf-a6bc-87e6ff497ee3","system_id":"levelo_inurba_marseille","lat":43.3131,"lon":5.39696,"is_reserved":false,"is_disabled":false,"rental_uris":{"android":"levelo://app?vid=cbb6251a-7583-4acf-a6bc-87e6ff497ee3","ios":"levelo://app?vid=cbb6251a-7583-4acf-a6bc-87e6ff497ee3"},"vehicle_type_id":"4","last_reported":1738307303,"current_range_meters":11600,"station_id":"ce4bgvp2rcd13ifvqcu0","pricing_plan_id":"cebpf4jnsgd1na2vs0mg"},{"bike_id":"b61407a7-d93a-47a9-ae07-fdf92f9b0164","system_id":"levelo_inurba_marseille","lat":43.27621,"lon":5.36106,"is_reserved":false,"is_disabled":true,"rental_uris":{"android":"levelo://app?vid=b61407a7-d93a-47a9-ae07-fdf92f9b0164","ios":"levelo://app?vid=b61407a7-d93a-47a9-ae07-fdf92f9b0164"},"vehicle_type_id":"4","last_reported":1738307303,"current_range_meters":0,"station_id":"","pricing_plan_id":"cebpf4jnsgd1na2vs0mg"},{"bike_id":"463d2556-7f1d-4a79-b8b2-e0c1c692e866","system_id":"levelo_inurba_marseille","lat":43.280345,"lon":5.369502,"is_reserved":false,"is_disabled":false,"rental_uris":{"android":"levelo://app?vid=463d2556-7f1d-4a79-b8b2-e0c1c692e866","ios":"levelo://app?vid=463d2556-7f1d-4a79-b8b2-e0c1c692e866"},"vehicle_type_id":"4","last_reported":1738307303,"current_range_meters":19200,"station_id":"ce4bha12rcd13ifvqef0","pricing_plan_id":"cebpf4jnsgd1na2vs0mg"},{"bike_id":"6bef2781-ae86-4d27-ab5b-8461fe19be32","system_id":"levelo_inurba_marseille","lat":43.28156,"lon":5.42622,"is_reserved":false,"is_disabled":false,"rental_uris":{"android":"levelo://app?vid=6bef2781-ae86-4d27-ab5b-8461fe19be32","ios":"levelo://app?vid=6bef2781-ae86-4d27-ab5b-8461fe19be32"},"vehicle_type_id":"4","last_reported":1738307303,"current_range_meters":38400,"station_id":"ce4bhnh2rcd13ifvqgug","pricing_plan_id":"cebpf4jnsgd1na2vs0mg"},{"bike_id":"cfbb5204-c0e4-43d6-b3e4-9696e0ec11e8","system_id":"levelo_inurba_marseille","lat":43.25083,"lon":5.39532,"is_reserved":false,"is_disabled":false,"rental_uris":{"android":"levelo://app?vid=cfbb5204-c0e4-43d6-b3e4-9696e0ec11e8","ios":"levelo://app?vid=cfbb5204-c0e4-43d6-b3e4-9696e0ec11e8"},"vehicle_type_id":"4","last_reported":1738307303,"current_range_meters":14400,"station_id":"ce4bhm12rcd13ifvqgkg","pricing_plan_id":"cebpf4jnsgd1na2vs0mg"},{"bike_id":"8382186f-0d25-40e6-beca-2632cc8590f2","system_id":"levelo_inurba_marseille","lat":43.29562,"lon":5.4229,"is_reserved":false,"is_disabled":true,"rental_uris":{"android":"levelo://app?vid=8382186f-0d25-40e6-beca-2632cc8590f2","ios":"levelo://app?vid=8382186f-0d25-40e6-beca-2632cc8590f2"},"vehicle_type_id":"4","last_reported":1738307303,"current_range_meters":6400,"station_id":"ce4bhph2rcd13ifvqhdg","pricing_plan_id":"cebpf4jnsgd1na2vs0mg"},{"bike_id":"cea711d9-d253-4146-a150-77f5b6b3c1bf","system_id":"levelo_inurba_marseille","lat":43.33745,"lon":5.37483,"is_reserved":false,"is_disabled":false,"rental_uris":{"android":"levelo://app?vid=cea711d9-d253-4146-a150-77f5b6b3c1bf","ios":"levelo://app?vid=cea711d9-d253-4146-a150-77f5b6b3c1bf"},"vehicle_type_id":"4","last_reported":1738307303,"current_range_meters":38800,"station_id":"","pricing_plan_id":"cebpf4jnsgd1na2vs0mg"},{"bike_id":"2455bcc9-de4e-4c96-8d0b-2d6df96edfe7","system_id":"levelo_inurba_marseille","lat":43.28724,"lon":5.37937,"is_reserved":false,"is_disabled":false,"rental_uris":{"android":"levelo://app?vid=2455bcc9-de4e-4c96-8d0b-2d6df96edfe7","ios":"levelo://app?vid=2455bcc9-de4e-4c96-8d0b-2d6df96edfe7"},"vehicle_type_id":"4","last_reported":1738307303,"current_range_meters":38400,"station_id":"ce4bh9p2rcd13ifvqec0","pricing_plan_id":"cebpf4jnsgd1na2vs0mg"},{"bike_id":"8bdb2528-9d46-49b7-9196-e17efcd018e4","system_id":"levelo_inurba_marseille","lat":43.30405,"lon":5.4128,"is_reserved":false,"is_disabled":false,"rental_uris":{"android":"levelo://app?vid=8bdb2528-9d46-49b7-9196-e17efcd018e4","ios":"levelo://app?vid=8bdb2528-9d46-49b7-9196-e17efcd018e4"},"vehicle_type_id":"4","last_reported":1738307303,"current_range_meters":32800,"station_id":"ce4bhop2rcd13ifvqh8g","pricing_plan_id":"cebpf4jnsgd1na2vs0mg"},{"bike_id":"fc061574-043e-4aba-9633-1642a78aeb3a","system_id":"levelo_inurba_marseille","lat":43.30818,"lon":5.38163,"is_reserved":false,"is_disabled":true,"rental_uris":{"android":"levelo://app?vid=fc061574-043e-4aba-9633-1642a78aeb3a","ios":"levelo://app?vid=fc061574-043e-4aba-9633-1642a78aeb3a"},"vehicle_type_id":"4","last_reported":1738307303,"current_range_meters":12000,"station_id":"ce4bgt12rcd13ifvqce0","pricing_plan_id":"cebpf4jnsgd1na2vs0mg"},{"bike_id":"dc258c89-7709-4683-ae08-3b4e4dc4680f","system_id":"levelo_inurba_marseille","lat":43.29628,"lon":5.4061,"is_reserved":false,"is_disabled":false,"rental_uris":{"android":"levelo://app?vid=dc258c89-7709-4683-ae08-3b4e4dc4680f","ios":"levelo://app?vid=dc258c89-7709-4683-ae08-3b4e4dc4680f"},"vehicle_type_id":"4","last_reported":1738307303,"current_range_meters":9200,"station_id":"ce4bh0h2rcd13ifvqd60","pricing_plan_id":"cebpf4jnsgd1na2vs0mg"},{"bike_id":"268b7364-7a94-40d7-9b24-bede754795e4","system_id":"levelo_inurba_marseille","lat":43.28126,"lon":5.37894,"is_reserved":false,"is_disabled":false,"rental_uris":{"android":"levelo://app?vid=268b7364-7a94-40d7-9b24-bede754795e4","ios":"levelo://app?vid=268b7364-7a94-40d7-9b24-bede754795e4"},"vehicle_type_id":"4","last_reported":1738307303,"current_range_meters":32000,"station_id":"","pricing_plan_id":"cebpf4jnsgd1na2vs0mg"},{"bike_id":"c35db40f-1e4a-4039-9bdb-281fd3166633","system_id":"levelo_inurba_marseille","lat":43.25762,"lon":5.39452,"is_reserved":false,"is_disabled":false,"rental_uris":{"android":"levelo://app?vid=c35db40f-1e4a-4039-9bdb-281fd3166633","ios":"levelo://app?vid=c35db40f-1e4a-4039-9bdb-281fd3166633"},"vehicle_type_id":"4","last_reported":1738307303,"current_range_meters":38800,"station_id":"ce4bhip2rcd13ifvqft0","pricing_plan_id":"cebpf4jnsgd1na2vs0mg"},{"bike_id":"449d1d99-194d-4ddf-81df-d1b7bcf4968a","system_id":"levelo_inurba_marseille","lat":43.31326,"lon":5.39683,"is_reserved":false,"is_disabled":false,"rental_uris":{"android":"levelo://app?vid=449d1d99-194d-4ddf-81df-d1b7bcf4968a","ios":"levelo://app?vid=449d1d99-194d-4ddf-81df-d1b7bcf4968a"},"vehicle_type_id":"4","last_reported":1738307303,"current_range_meters":29600,"station_id":"ce4bgvp2rcd13ifvqcu0","pricing_plan_id":"cebpf4jnsgd1na2vs0mg"},{"bike_id":"32d9a329-7366-4eb8-8d55-73b5c99c70c3","system_id":"levelo_inurba_marseille","lat":43.23202,"lon":5.35539,"is_reserved":false,"is_disabled":false,"rental_uris":{"android":"levelo://app?vid=32d9a329-7366-4eb8-8d55-73b5c99c70c3","ios":"levelo://app?vid=32d9a329-7366-4eb8-8d55-73b5c99c70c3"},"vehicle_type_id":"4","last_reported":1738307303,"current_range_meters":38800,"station_id":"ce4bhu92rcd13ifvqi70","pricing_plan_id":"cebpf4jnsgd1na2vs0mg"},{"bike_id":"d7861766-e988-4bfb-97ef-8827400e38fd","system_id":"levelo_inurba_marseille","lat":43.23196,"lon":5.39993,"is_reserved":false,"is_disabled":false,"rental_uris":{"android":"levelo://app?vid=d7861766-e988-4bfb-97ef-8827400e38fd","ios":"levelo://app?vid=d7861766-e988-4bfb-97ef-8827400e38fd"},"vehicle_type_id":"4","last_reported":1738307303,"current_range_meters":38800,"station_id":"ce4bhn12rcd13ifvqgqg","pricing_plan_id":"cebpf4jnsgd1na2vs0mg"},{"bike_id":"0a2fd205-d616-4064-aa75-d4d529957d90","system_id":"levelo_inurba_marseille","lat":43.23063,"lon":5.35497,"is_reserved":false,"is_disabled":false,"rental_uris":{"android":"levelo://app?vid=0a2fd205-d616-4064-aa75-d4d529957d90","ios":"levelo://app?vid=0a2fd205-d616-4064-aa75-d4d529957d90"},"vehicle_type_id":"4","last_reported":1738307303,"current_range_meters":22400,"station_id":"cpo3342slgdg3j2ifvpg","pricing_plan_id":"cebpf4jnsgd1na2vs0mg"},{"bike_id":"d3555a00-aebd-4cd5-b0cb-1da00d423369","system_id":"levelo_inurba_marseille","lat":43.3046,"lon":5.38224,"is_reserved":false,"is_disabled":false,"rental_uris":{"android":"levelo://app?vid=d3555a00-aebd-4cd5-b0cb-1da00d423369","ios":"levelo://app?vid=d3555a00-aebd-4cd5-b0cb-1da00d423369"},"vehicle_type_id":"4","last_reported":1738307303,"current_range_meters":17600,"station_id":"","pricing_plan_id":"cebpf4jnsgd1na2vs0mg"},{"bike_id":"94931f21-350d-4566-8bea-491f51e9a25d","system_id":"levelo_inurba_marseille","lat":43.26925,"lon":5.38918,"is_reserved":false,"is_disabled":false,"rental_uris":{"android":"levelo://app?vid=94931f21-350d-4566-8bea-491f51e9a25d","ios":"levelo://app?vid=94931f21-350d-4566-8bea-491f51e9a25d"},"vehicle_type_id":"4","last_reported":1738307303,"current_range_meters":38800,"station_id":"ce4bhhh2rcd13ifvqfl0","pricing_plan_id":"cebpf4jnsgd1na2vs0mg"},{"bike_id":"851692c4-6ece-4a71-ba19-f442921d2278","system_id":"levelo_inurba_marseille","lat":43.298974,"lon":5.436587,"is_reserved":false,"is_disabled":false,"rental_uris":{"android":"levelo://app?vid=851692c4-6ece-4a71-ba19-f442921d2278","ios":"levelo://app?vid=851692c4-6ece-4a71-ba19-f442921d2278"},"vehicle_type_id":"4","last_reported":1738307303,"current_range_meters":37600,"station_id":"ce4bhpp2rcd13ifvqhfg","pricing_plan_id":"cebpf4jnsgd1na2vs0mg"},{"bike_id":"3951c645-adcf-415f-8d33-5c5bc84c27c8","system_id":"levelo_inurba_marseille","lat":43.27812,"lon":5.407127,"is_reserved":false,"is_disabled":false,"rental_uris":{"android":"levelo://app?vid=3951c645-adcf-415f-8d33-5c5bc84c27c8","ios":"levelo://app?vid=3951c645-adcf-415f-8d33-5c5bc84c27c8"},"vehicle_type_id":"4","last_reported":1738307303,"current_range_meters":22800,"station_id":"ce4bhnh2rcd13ifvqgtg","pricing_plan_id":"cebpf4jnsgd1na2vs0mg"},