{"last_updated":1737022177,"ttl":60,"version":"2.2","data":{"bikes":[{"bike_id":"828d2c2c-8cac-4370-9fa1-cab679f377ba","system_id":"levelo_inurba_marseille","lat":43.269623,"lon":5.386162,"is_reserved":false,"is_disabled":false,"rental_uris":{"android":"levelo://app?vid=828d2c2c-8cac-4370-9fa1-cab679f377ba","ios":"levelo://app?vid=828d2c2c-8cac-4370-9fa1-cab679f377ba"},"vehicle_type_id":"4","last_reported":1737022178,"current_range_meters":19600,"station_id":"ce4bhh92rcd13ifvqfh0","pricing_plan_id":"cebpf4jnsgd1na2vs0mg"},{"bike_id":"b21098d7-eecb-4a66-8acd-8f412d3266eb","system_id":"levelo_inurba_marseille","lat":43.25495,"lon":5.37666,"is_reserved":false,"is_disabled":false,"rental_uris":{"android":"levelo://app?vid=b21098d7-eecb-4a66-8acd-8f412d3266eb","ios":"levelo://app?vid=b21098d7-eecb-4a66-8acd-8f412d3266eb"},"vehicle_type_id":"4","last_reported":1737022178,"current_range_meters":38000,"station_id":"ce4bhh12rcd13ifvqff0","pricing_plan_id":"cebpf4jnsgd1na2vs0mg"},{"bike_id":"70a87767-5fd0-433c-aac6-675eb4693413","system_id":"levelo_inurba_marseille","lat":43.32543,"lon":5.41451,"is_reserved":false,"is_disabled":false,"rental_uris":{"android":"levelo://app?vid=70a87767-5fd0-433c-aac6-675eb4693413","ios":"levelo://app?vid=70a87767-5fd0-433c-aac6-675eb4693413"},"vehicle_type_id":"4","last_reported":1737022178,"current_range_meters":32800,"station_id":"ce4bhq12rcd13ifvqhhg","pricing_plan_id":"cebpf4jnsgd1na2vs0mg"},{"bike_id":"f876f4a2-af88-4331-b233-2a51e15f2f27","system_id":"levelo_inurba_marseille","lat":43.28373,"lon":5.38633,"is_reserved":false,"is_disabled":false,"rental_uris":{"android":"levelo://app?vid=f876f4a2-af88-4331-b233-2a51e15f2f27","ios":"levelo://app?vid=f876f4a2-af88-4331-b233-2a51e15f2f27"},"vehicle_type_id":"4","last_reported":1737022178,"current_range_meters":38800,"station_id":"ce4bh492rcd13ifvqdvg","pricing_plan_id":"cebpf4jnsgd1na2vs0mg"},{"bike_id":"204905f4-a78c-4076-b317-88addf7d0aa8","system_id":"levelo_inurba_marseille","lat":43.30149,"lon":5.38099,"is_reserved":false,"is_disabled":false,"rental_uris":{"android":"levelo://app?vid=204905f4-a78c-4076-b317-88addf7d0aa8","ios":"levelo://app?vid=204905f4-a78c-4076-b317-88addf7d0aa8"},"vehicle_type_id":"4","last_reported":1737022178,"current_range_meters":38000,"station_id":"ce4bgjp2rcd13ifvqbh0","pricing_plan_id":"cebpf4jnsgd1na2vs0mg"},{"bike_id":"481bda0e-fe18-4926-a202-e5913cf32d5b","system_id":"levelo_inurba_marseille","lat":43.2465,"lon":5.38898,"is_reserved":false,"is_disabled":false,"rental_uris":{"android":"levelo://app?vid=481bda0e-fe18-4926-a202-e5913cf32d5b","ios":"levelo://app?vid=481bda0e-fe18-4926-a202-e5913cf32d5b"},"vehicle_type_id":"4","last_reported":1737022178,"current_range_meters":28800,"station_id":"ce4bhg12rcd13ifvqf60","pricing_plan_id":"cebpf4jnsgd1na2vs0mg"},{"bike_id":"231531ce-159c-430d-a73a-34d518b1b8d8","system_id":"levelo_inurba_marseille","lat":43.25927,"lon":5.40923,"is_reserved":false,"is_disabled":false,"rental_uris":{"android":"levelo://app?vid=231531ce-159c-430d-a73a-34d518b1b8d8","ios":"levelo://app?vid=231531ce-159c-430d-a73a-34d518b1b8d8"},"vehicle_type_id":"4","last_reported":1737022178,"current_range_meters":37600,"station_id":"ce4bhm92rcd13ifvqglg","pricing_plan_id":"cebpf4jnsgd1na2vs0mg"},{"bike_id":"6d540c0f-98a4-4311-9d97-d8f4a0c4b88a","system_id":"levelo_inurba_marseille","lat":43.23221,"lon":5.39974,"is_reserved":false,"is_disabled":false,"rental_uris":{"android":"levelo://app?vid=6d540c0f-98a4-4311-9d97-d8f4a0c4b88a","ios":"levelo://app?vid=6d540c0f-98a4-4311-9d97-d8f4a0c4b88a"},"vehicle_type_id":"4","last_reported":1737022178,"current_range_meters":18800,"station_id":"","pricing_plan_id":"cebpf4jnsgd1na2vs0mg"},{"bike_id":"fa2a03be-b9a8-4a7b-bcf6-bdd836cf0e2e","system_id":"levelo_inurba_marseille","lat":43.29289,"lon":5.37439,"is_reserved":false,"is_disabled":false,"rental_uris":{"android":"levelo://app?vid=fa2a03be-b9a8-4a7b-bcf6-bdd836cf0e2e","ios":"levelo://app?vid=fa2a03be-b9a8-4a7b-bcf6-bdd836cf0e2e"},"vehicle_type_id":"4","last_reported":1737022178,"current_range_meters":17200,"station_id":"ce4bgi12rcd13ifvqb70","pricing_plan_id":"cebpf4jnsgd1na2vs0mg"},{"bike_id":"03519357-cc71-4610-a101-c7e9590195a2","system_id":"levelo_inurba_marseille","lat":43.23151,"lon":5.4371,"is_reserved":false,"is_disabled":false,"rental_uris":{"android":"levelo://app?vid=03519357-cc71-4610-a101-c7e9590195a2","ios":"levelo://app?vid=03519357-cc71-4610-a101-c7e9590195a2"},"vehicle_type_id":"4","last_reported":1737022178,"current_range_meters":29600,"station_id":"ce4bhmp2rcd13ifvqgog","pricing_plan_id":"cebpf4jnsgd1na2vs0mg"},{"bike_id":"59590efe-7589-4f56-8017-b47e9dc1601a","system_id":"levelo_inurba_marseille","lat":43.27493,"lon":5.42475,"is_reserved":false,"is_disabled":false,"rental_uris":{"android":"levelo://app?vid=59590efe-7589-4f56-8017-b47e9dc1601a","ios":"levelo://app?vid=59590efe-7589-4f56-8017-b47e9dc1601a"},"vehicle_type_id":"4","last_reported":1737022178,"current_range_meters":35200,"station_id":"ce4bhn92rcd13ifvqgrg","pricing_plan_id":"cebpf4jnsgd1na2vs0mg"},{"bike_id":"4fa358ca-b741-467a-a03f-b8033021b471","system_id":"levelo_inurba_marseille","lat":43.3376,"lon":5.3743,"is_reserved":false,"is_disabled":false,"rental_uris":{"android":"levelo://app?vid=4fa358ca-b741-467a-a03f-b8033021b471","ios":"levelo://app?vid=4fa358ca-b741-467a-a03f-b8033021b471"},"vehicle_type_id":"4","last_reported":1737022178,"current_range_meters":38800,"station_id":"","pricing_plan_id":"cebpf4jnsgd1na2vs0mg"},{"bike_id":"3eed1e72-6bde-493b-a16e-11b3c61adb92","system_id":"levelo_inurba_marseille","lat":43.28438,"lon":5.39215,"is_reserved":false,"is_disabled":true,"rental_uris":{"android":"levelo://app?vid=3eed1e72-6bde-493b-a16e-11b3c61adb92","ios":"levelo://app?vid=3eed1e72-6bde-493b-a16e-11b3c61adb92"},"vehicle_type_id":"4","last_reported":1737022178,"current_range_meters":38800,"station_id":"ce4bhoh2rcd13ifvqh5g","pricing_plan_id":"cebpf4jnsgd1na2vs0mg"},{"bike_id":"2b2cb29b-656b-412b-b107-6e49fdf15518","system_id":"levelo_inurba_marseille","lat":43.27489,"lon":5.42476,"is_reserved":false,"is_disabled":true,"rental_uris":{"android":"levelo://app?vid=2b2cb29b-656b-412b-b107-6e49fdf15518","ios":"levelo://app?vid=2b2cb29b-656b-412b-b107-6e49fdf15518"},"vehicle_type_id":"4","last_reported":1737022178,"current_range_meters":0,"station_id":"ce4bhn92rcd13ifvqgrg","pricing_plan_id":"cebpf4jnsgd1na2vs0mg"},{"bike_id":"3aa82675-a9bd-4d27-89d0-649dc1627e4f","system_id":"levelo_inurba_marseille","lat":43.25087,"lon":5.39526,"is_reserved":false,"is_disabled":false,"rental_uris":{"android":"levelo://app?vid=3aa82675-a9bd-4d27-89d0-649dc1627e4f","ios":"levelo://app?vid=3aa82675-a9bd-4d27-89d0-649dc1627e4f"},"vehicle_type_id":"4","last_reported":1737022178,"current_range_meters":19200,"station_id":"ce4bhm12rcd13ifvqgkg","pricing_plan_id":"cebpf4jnsgd1na2vs0mg"},{"bike_id":"c8cfc202-d733-4989-9330-14558b81f152","system_id":"levelo_inurba_marseille","lat":43.3095,"lon":5.39041,"is_reserved":false,"is_disabled":false,"rental_uris":{"android":"levelo://app?vid=c8cfc202-d733-4989-9330-14558b81f152","ios":"levelo://app?vid=c8cfc202-d733-4989-9330-14558b81f152"},"vehicle_type_id":"4","last_reported":1737022178,"current_range_meters":24000,"station_id":"ce4bgup2rcd13ifvqco0","pricing_plan_id":"cebpf4jnsgd1na2vs0mg"},{"bike_id":"b9d506f3-d5fd-4d37-904a-7c52215a265a","system_id":"levelo_inurba_marseille","lat":43.24174,"lon":5.39729,"is_reserved":false,"is_disabled":false,"rental_uris":{"android":"levelo://app?vid=b9d506f3-d5fd-4d37-904a-7c52215a265a","ios":"levelo://app?vid=b9d506f3-d5fd-4d37-904a-7c52215a265a"},"vehicle_type_id":"4","last_reported":1737022178,"current_range_meters":30000,"station_id":"ce4bhn12rcd13ifvqgpg","pricing_plan_id":"cebpf4jnsgd1na2vs0mg"},{"bike_id":"6c2f797b-7813-43c5-9f55-324a846683af","system_id":"levelo_inurba_marseille","lat":43.2962,"lon":5.37737,"is_reserved":false,"is_disabled":false,"rental_uris":{"android":"levelo://app?vid=6c2f797b-7813-43c5-9f55-324a846683af","ios":"levelo://app?vid=6c2f797b-7813-43c5-9f55-324a846683af"},"vehicle_type_id":"4","last_reported":1737022178,"current_range_meters":10000,"station_id":"ce4bgi92rcd13ifvqb90","pricing_plan_id":"cebpf4jnsgd1na2vs0mg"},{"bike_id":"2fcebd6b-3b60-40b2-a608-b22c63c09ef7","system_id":"levelo_inurba_marseille","lat":43.28033,"lon":5.36916,"is_reserved":false,"is_disabled":false,"rental_uris":{"android":"levelo://app?vid=2fcebd6b-3b60-40b2-a608-b22c63c09ef7","ios":"levelo://app?vid=2fcebd6b-3b60-40b2-a608-b22c63c09ef7"},"vehicle_type_id":"4","last_reported":1737022178,"current_range_meters":36800,"station_id":"ce4bha12rcd13ifvqef0","pricing_plan_id":"cebpf4jnsgd1na2vs0mg"},{"bike_id":"3dd0ce35-84cf-4b64-aab3-9d39b950bf85","system_id":"levelo_inurba_marseille","lat":43.297776,"lon":5.371072,"is_reserved":false,"is_disabled":false,"rental_uris":{"android":"levelo://app?vid=3dd0ce35-84cf-4b64-aab3-9d39b950bf85","ios":"levelo://app?vid=3dd0ce35-84cf-4b64-aab3-9d39b950bf85"},"vehicle_type_id":"4","last_reported":1737022178,"current_range_meters":38800,"station_id":"ce4bgop2rcd13ifvqc1g","pricing_plan_id":"cebpf4jnsgd1na2vs0mg"},{"bike_id":"05dcce0a-1f30-4267-9930-c165e5e4ea9d","system_id":"levelo_inurba_marseille","lat":43.24083,"lon":5.37766,"is_reserved":false,"is_disabled":false,"rental_uris":{"android":"levelo://app?vid=05dcce0a-1f30-4267-9930-c165e5e4ea9d","ios":"levelo://app?vid=05dcce0a-1f30-4267-9930-c165e5e4ea9d"},"vehicle_type_id":"4","last_reported":1737022178,"current_range_meters":38800,"station_id":"ce4bhnp2rcd13ifvqgvg","pricing_plan_id":"cebpf4jnsgd1na2vs0mg"},{"bike_id":"7b46a84d-1577-4649-8564-c1693bb65190","system_id":"levelo_inurba_marseille","lat":43.29094,"lon":5.38151,"is_reserved":false,"is_disabled":false,"rental_uris":{"android":"levelo://app?vid=7b46a84d-1577-4649-8564-c1693bb65190","ios":"levelo://app?vid=7b46a84d-1577-4649-8564-c1693bb65190"},"vehicle_type_id":"4","last_reported":1737022178,"current_range_meters":34000,"station_id":"ce4bh512rcd13ifvqe2g","pricing_plan_id":"cebpf4jnsgd1na2vs0mg"},{"bike_id":"0e842b39-329d-48e2-b781-7e3babc96cf4","system_id":"levelo_inurba_marseille","lat":43.2292,"lon":5.35395,"is_reserved":false,"is_disabled":false,"rental_uris":{"android":"levelo://app?vid=0e842b39-329d-48e2-b781-7e3babc96cf4","ios":"levelo://app?vid=0e842b39-329d-48e2-b781-7e3babc96cf4"},"vehicle_type_id":"4","last_reported":1737022178,"current_range_meters":16400,"station_id":"cpo3532slgdg3j2ikp40","pricing_plan_id":"cebpf4jnsgd1na2vs0mg"},{"bike_id":"66d86647-f3d9-43c2-8067-2511dcc8853d","system_id":"levelo_inurba_marseille","lat":43.26957,"lon":5.40257,"is_reserved":false,"is_disabled":true,"rental_uris":{"android":"levelo://app?vid=66d86647-f3d9-43c2-8067-2511dcc8853d","ios":"levelo://app?vid=66d86647-f3d9-43c2-8067-2511dcc8853d"},"vehicle_type_id":"4","last_reported":1737022178,"current_range_meters":38800,"station_id":"cjm6bp8fraef2m0cb0m0","pricing_plan_id":"cebpf4jnsgd1na2vs0mg"},{"bike_id":"937aee79-546f-48bc-976c-15c2eb35c2f7","system_id":"levelo_inurba_marseille","lat":43.28712,"lon":5.39995,"is_reserved":false,"is_disabled":true,"rental_uris":{"android":"levelo://app?vid=937aee79-546f-48bc-976c-15c2eb35c2f7","ios":"levelo://app?vid=937aee79-546f-48bc-976c-15c2eb35c2f7"},"vehicle_type_id":"4","last_reported":1737022178,"current_range_meters":28000,"station_id":"ce4bho92rcd13ifvqh3g","pricing_plan_id":"cebpf4jnsgd1na2vs0mg"},{"bike_id":"d083a596-468f-49e0-b75d-d8e094f72423","system_id":"levelo_inurba_marseille","lat":43.31375,"lon":5.36684,"is_reserved":false,"is_disabled":false,"rental_uris":{"android":"levelo://app?vid=d083a596-468f-49e0-b75d-d8e094f72423","ios":"levelo://app?vid=d083a596-468f-49e0-b75d-d8e094f72423"},"vehicle_type_id":"4","last_reported":1737022178,"current_range_meters":25200,"station_id":"ce4bgr92rcd13ifvqc6g","pricing_plan_id":"cebpf4jnsgd1na2vs0mg"},{"bike_id":"0e7c3373-583a-438f-8dea-9a5760a26114","system_id":"levelo_inurba_marseille","lat":43.30896,"lon":5.37195,"is_reserved":false,"is_disabled":false,"rental_uris":{"android":"levelo://app?vid=0e7c3373-583a-438f-8dea-9a5760a26114","ios":"levelo://app?vid=0e7c3373-583a-438f-8dea-9a5760a26114"},"vehicle_type_id":"4","last_reported":1737022178,"current_range_meters":21600,"station_id":"ce4bguh2rcd13ifvqckg","pricing_plan_id":"cebpf4jnsgd1na2vs0mg"},{"bike_id":"8b6182c3-3c5e-4a05-80f5-f25cf3a13217","system_id":"levelo_inurba_marseille","lat":43.24537,"lon":5.39529,"is_reserved":false,"is_disabled":false,"rental_uris":{"android":"levelo://app?vid=8b6182c3-3c5e-4a05-80f5-f25cf3a13217","ios":"levelo://app?vid=8b6182c3-3c5e-4a05-80f5-f25cf3a13217"},"vehicle_type_id":"4","last_reported":1737022178,"current_range_meters":24400,"station_id":"ce4bhlp2rcd13ifvqgjg","pricing_plan_id":"cebpf4jnsgd1na2vs0mg"},{"bike_id":"b3888c95-de46-4170-b14f-9aa1dba6db78","system_id":"levelo_inurba_marseille","lat":43.25937,"lon":5.40901,"is_reserved":false,"is_disabled":false,"rental_uris":{"android":"levelo://app?vid=b3888c95-de46-4170-b14f-9aa1dba6db78","ios":"levelo://app?vid=b3888c95-de46-4170-b14f-9aa1dba6db78"},"vehicle_type_id":"4","last_reported":1737022178,"current_range_meters":30000,"station_id":"ce4bhm92rcd13ifvqglg","pricing_plan_id":"cebpf4jnsgd1na2vs0mg"},{"bike_id":"a56a5d73-b81b-4d86-9035-5b5f2dcab68b","system_id":"levelo_inurba_marseille","lat":43.32534,"lon":5.4147,"is_reserved":false,"is_disabled":false,"rental_uris":{"android":"levelo://app?vid=a56a5d73-b81b-4d86-9035-5b5f2dcab68b","ios":"levelo://app?vid=a56a5d73-b81b-4d86-9035-5b5f2dcab68b"},"vehicle_type_id":"4","last_reported":1737022178,"current_range_meters":39200,"station_id":"ce4bhq12rcd13ifvqhhg","pricing_plan_id":"cebpf4jnsgd1na2vs0mg"},{"bike_id":"21991245-c0ed-460a-96c0-efd1586188d9","system_id":"levelo_inurba_marseille","lat":43.260222,"lon":5.375683,"is_reserved":false,"is_disabled":false,"rental_uris":{"android":"levelo://app?vid=21991245-c0ed-460a-96c0-efd1586188d9","ios":"levelo://app?vid=21991245-c0ed-460a-96c0-efd1586188d9"},"vehicle_type_id":"4","last_reported":1737022178,"current_range_meters":37600,"station_id":"ce4bhgh2rcd13ifvqfa0","pricing_plan_id":"cebpf4jnsgd1na2vs0mg"},{"bike_id":"8ff49768-a461-474a-93bf-77c4018d3af7","system_id":"levelo_inurba_marseille","lat":43.293647,"lon":5.378347,"is_reserved":false,"is_disabled":false,"rental_uris":{"android":"levelo://app?vid=8ff49768-a461-474a-93bf-77c4018d3af7","ios":"levelo://app?vid=8ff49768-a461-474a-93bf-77c4018d3af7"},"vehicle_type_id":"4","last_reported":1737022178,"current_range_meters":16000,"station_id":"ce4bgjh2rcd13ifvqbf0","pricing_plan_id":"cebpf4jnsgd1na2vs0mg"},{"bike_id":"b96abaf4-0fa5-4720-8999-93f7ce59d4e6","system_id":"levelo_inurba_marseille","lat":43.270701,"lon":5.422826,"is_reserved":false,"is_disabled":false,"rental_uris":{"android":"levelo://app?vid=b96abaf4-0fa5-4720-8999-93f7ce59d4e6","ios":"levelo://app?vid=b96abaf4-0fa5-4720-8999-93f7ce59d4e6"},"vehicle_type_id":"4","last_reported":1737022178,"current_range_meters":35600,"station_id":"ce4bhk92rcd13ifvqgb0","pricing_plan_id":"cebpf4jnsgd1na2vs0mg"},{"bike_id":"b447caa9-f43e-4016-9b3c-7bf84c344cc3","system_id":"levelo_inurba_marseille","lat":43.33599,"lon":5.41022,"is_reserved":false,"is_disabled":false,"rental_uris":{"android":"levelo://app?vid=b447caa9-f43e-4016-9b3c-7bf84c344cc3","ios":"levelo://app?vid=b447caa9-f43e-4016-9b3c-7bf84c344cc3"},"vehicle_type_id":"4","last_reported":1737022178,"current_range_meters":39200,"station_id":"ce4bhqh2rcd13ifvqhmg","pricing_plan_id":"cebpf4jnsgd1na2vs0mg"},{"bike_id":"43fd6972-8b77-49c4-9232-69d397e2e1ec","system_id":"levelo_inurba_marseille","lat":43.24087,"lon":5.37738,"is_reserved":false,"is_disabled":false,"rental_uris":{"android":"levelo://app?vid=43fd6972-8b77-49c4-9232-69d397e2e1ec","ios":"levelo://app?vid=43fd6972-8b77-49c4-9232-69d397e2e1ec"},"vehicle_type_id":"4","last_reported":1737022178,"current_range_meters":38800,"station_id":"ce4bhnp2rcd13ifvqgvg","pricing_plan_id":"cebpf4jnsgd1na2vs0mg"},{"bike_id":"b6cd1048-f554-4c7f-b0ce-69b94038b7b1","system_id":"levelo_inurba_marseille","lat":43.29033,"lon":5.39977,"is_reserved":false,"is_disabled":false,"rental_uris":{"android":"levelo://app?vid=b6cd1048-f554-4c7f-b0ce-69b94038b7b1","ios":"levelo://app?vid=b6cd1048-f554-4c7f-b0ce-69b94038b7b1"},"vehicle_type_id":"4","last_reported":1737022178,"current_range_meters":38800,"station_id":"ce4bh392rcd13ifvqdm0","pricing_plan_id":"cebpf4jnsgd1na2vs0mg"},{"bike_id":"e2e02b35-4af7-4b5b-848d-781db96619b3","system_id":"levelo_inurba_marseille","lat":43.29795,"lon":5.38085,"is_reserved":false,"is_disabled":false,"rental_uris":{"android":"levelo://app?vid=e2e02b35-4af7-4b5b-848d-781db96619b3","ios":"levelo://app?vid=e2e02b35-4af7-4b5b-848d-781db96619b3"},"vehicle_type_id":"4","last_reported":1737022178,"current_range_meters":8400,"station_id":"ce4bgip2rcd13ifvqbb0","pricing_plan_id":"cebpf4jnsgd1na2vs0mg"},{"bike_id":"678293be-390f-4530-bcb6-22685f5f379f","system_id":"levelo_inurba_marseille","lat":43.30463,"lon":5.37902,"is_reserved":false,"is_disabled":false,"rental_uris":{"android":"levelo://app?vid=678293be-390f-4530-bcb6-22685f5f379f","ios":"levelo://app?vid=678293be-390f-4530-bcb6-22685f5f379f"},"vehicle_type_id":"4","last_reported":1737022178,"current_range_meters":12400,"station_id":"ce4bgup2rcd13ifvqcn0","pricing_plan_id":"cebpf4jnsgd1na2vs0mg"},{"bike_id":"5f67e8b6-a145-49a4-9c10-769aa3589fe8","system_id":"levelo_inurba_marseille","lat":43.29028,"lon":5.38657,"is_reserved":false,"is_disabled":false,"rental_uris":{"android":"levelo://app?vid=5f67e8b6-a145-49a4-9c10-769aa3589fe8","ios":"levelo://app?vid=5f67e8b6-a145-49a4-9c10-769aa3589fe8"},"vehicle_type_id":"4","last_reported":1737022178,"current_range_meters":30400,"station_id":"ce4bh4p2rcd13ifvqe0g","pricing_plan_id":"cebpf4jnsgd1na2vs0mg"},{"bike_id":"c8e997c0-8580-4d0f-8d9f-0766596381e1","system_id":"levelo_inurba_marseille","lat":43.33918,"lon":5.37562,"is_reserved":false,"is_disabled":true,"rental_uris":{"android":"levelo://app?vid=c8e997c0-8580-4d0f-8d9f-0766596381e1","ios":"levelo://app?vid=c8e997c0-8580-4d0f-8d9f-0766596381e1"},"vehicle_type_id":"4","last_reported":1737022178,"current_range_meters":0,"station_id":"","pricing_plan_id":"cebpf4jnsgd1na2vs0mg"},{"bike_id":"f811c6a5-7416-44f3-9c13-a07e45f8acbd","system_id":"levelo_inurba_marseille","lat":43.25491,"lon":5.37647,"is_reserved":false,"is_disabled":false,"rental_uris":{"android":"levelo://app?vid=f811c6a5-7416-44f3-9c13-a07e45f8acbd","ios":"levelo://app?vid=f811c6a5-7416-44f3-9c13-a07e45f8acbd"},"vehicle_type_id":"4","last_reported":1737022178,"current_range_meters":18800,"station_id":"ce4bhh12rcd13ifvqff0","pricing_plan_id":"cebpf4jnsgd1na2vs0mg"},{"bike_id":"3ded76a8-388a-45a9-8e5f-d9e35103059f","system_id":"levelo_inurba_marseille","lat":43.30274,"lon":5.37711,"is_reserved":false,"is_disabled":false,"rental_uris":{"android":"levelo://app?vid=3ded76a8-388a-45a9-8e5f-d9e35103059f","ios":"levelo://app?vid=3ded76a8-388a-45a9-8e5f-d9e35103059f"},"vehicle_type_id":"4","last_reported":1737022178,"current_range_meters":16400,"station_id":"ce4bguh2rcd13ifvqcj0","pricing_plan_id":"cebpf4jnsgd1na2vs0mg"},{"bike_id":"20a1526a-6b93-4b78-8a18-19c12791dc6f","system_id":"levelo_inurba_marseille","lat":43.30278,"lon":5.37699,"is_reserved":false,"is_disabled":false,"rental_uris":{"android":"levelo://app?vid=20a1526a-6b93-4b78-8a18-19c12791dc6f","ios":"levelo://app?vid=20a1526a-6b93-4b78-8a18-19c12791dc6f"},"vehicle_type_id":"4","last_reported":1737022178,"current_range_meters":26000,"station_id":"ce4bguh2rcd13ifvqcj0","pricing_plan_id":"cebpf4jnsgd1na2vs0mg"},{"bike_id":"bef5c741-75bd-4f8f-a849-078d09ab7470","system_id":"levelo_inurba_marseille","lat":43.29891,"lon":5.43665,"is_reserved":false,"is_disabled":false,"rental_uris":{"android":"levelo://app?vid=bef5c741-75bd-4f8f-a849-078d09ab7470","ios":"levelo://app?vid=bef5c741-75bd-4f8f-a849-078d09ab7470"},"vehicle_type_id":"4","last_reported":1737022178,"current_range_meters":38800,"station_id":"ce4bhpp2rcd13ifvqhfg","pricing_plan_id":"cebpf4jnsgd1na2vs0mg"},{"bike_id":"58b5c57b-0f4c-44b0-a3c8-ca56440fe996","system_id":"levelo_inurba_marseille","lat":43.29291,"lon":5.40144,"is_reserved":false,"is_disabled":false,"rental_uris":{"android":"levelo://app?vid=58b5c57b-0f4c-44b0-a3c8-ca56440fe996","ios":"levelo://app?vid=58b5c57b-0f4c-44b0-a3c8-ca56440fe996"},"vehicle_type_id":"4","last_reported":1737022178,"current_range_meters":3200,"station_id":"ce4bh312rcd13ifvqdk0","pricing_plan_id":"cebpf4jnsgd1na2vs0mg"},{"bike_id":"426b760b-5b29-4f7d-aca9-7a9b7c2cd94a","system_id":"levelo_inurba_marseille","lat":43.24079,"lon":5.37743,"is_reserved":false,"is_disabled":false,"rental_uris":{"android":"levelo://app?vid=426b760b-5b29-4f7d-aca9-7a9b7c2cd94a","ios":"levelo://app?vid=426b760b-5b29-4f7d-aca9-7a9b7c2cd94a"},"vehicle_type_id":"4","last_reported":1737022178,"current_range_meters":27600,"station_id":"ce4bhnp2rcd13ifvqgvg","pricing_plan_id":"cebpf4jnsgd1na2vs0mg"},{"bike_id":"5dc5ff4a-6f97-4551-b16e-6accac849217","system_id":"levelo_inurba_marseille","lat":43.30545,"lon":5.36701,"is_reserved":false,"is_disabled":false,"rental_uris":{"android":"levelo://app?vid=5dc5ff4a-6f97-4551-b16e-6accac849217","ios":"levelo://app?vid=5dc5ff4a-6f97-4551-b16e-6accac849217"},"vehicle_type_id":"4","last_reported":1737022178,"current_range_meters":38400,"station_id":"ce4bgrp2rcd13ifvqc9g","pricing_plan_id":"cebpf4jnsgd1na2vs0mg"},{"bike_id":"98c7bc0d-8afd-478f-8269-b861dff04add","system_id":"levelo_inurba_marseille","lat":43.28707,"lon":5.37923,"is_reserved":false,"is_disabled":false,"rental_uris":{"android":"levelo://app?vid=98c7bc0d-8afd-478f-8269-b861dff04add","ios":"levelo://app?vid=98c7bc0d-8afd-478f-8269-b861dff04add"},"vehicle_type_id":"4","last_reported":1737022178,"current_range_meters":25600,"station_id":"ce4bh9p2rcd13ifvqec0","pricing_plan_id":"cebpf4jnsgd1na2vs0mg"},{"bike_id":"47f0faf5-7021-46f2-868a-2604e74f7115","system_id":"levelo_inurba_marseille","lat":43.3415,"lon":5.40918,"is_reserved":false,"is_disabled":false,"rental_uris":{"android":"levelo://app?vid=47f0faf5-7021-46f2-868a-2604e74f7115","ios":"levelo://app?vid=47f0faf5-7021-46f2-868a-2604e74f7115"},"vehicle_type_id":"4","last_reported":1737022178,"current_range_meters":38800,"station_id":"ce4bhqh2rcd13ifvqhlg","pricing_plan_id":"cebpf4jnsgd1na2vs0mg"},{"bike_id":"ee28e867-21e8-4831-b259-c94c83f948c2","system_id":"levelo_inurba_marseille","lat":43.29581,"lon":5.36758,"is_reserved":false,"is_disabled":false,"rental_uris":{"android":"levelo://app?vid=ee28e867-21e8-4831-b259-c94c83f948c2","ios":"levelo://app?vid=ee28e867-21e8-4831-b259-c94c83f948c2"},"vehicle_type_id":"4","last_reported":1737022178,"current_range_meters":28800,"station_id":"ce4bgph2rcd13ifvqc2g","pricing_plan_id":"cebpf4jnsgd1na2vs0mg"},{"bike_id":"47ae10c4-1543-4d0c-bb81-d1f7a87b175c","system_id":"levelo_inurba_marseille","lat":43.29563,"lon":5.37525,"is_reserved":false,"is_disabled":false,"rental_uris":{"android":"levelo://app?vid=47ae10c4-1543-4d0c-bb81-d1f7a87b175c","ios":"levelo://app?vid=47ae10c4-1543-4d0c-bb81-d1f7a87b175c"},"vehicle_type_id":"4","last_reported":1737022178,"current_range_meters":38000,"station_id":"ce4bgh92rcd13ifvqb50","pricing_plan_id":"cebpf4jnsgd1na2vs0mg"},{"bike_id":"fa53afd0-c3c0-46c2-be7e-d056eb14f6b8","system_id":"levelo_inurba_marseille","lat":43.24816,"lon":5.399,"is_reserved":false,"is_disabled":false,"rental_uris":{"android":"levelo://app?vid=fa53afd0-c3c0-46c2-be7e-d056eb14f6b8","ios":"levelo://app?vid=fa53afd0-c3c0-46c2-be7e-d056eb14f6b8"},"vehicle_type_id":"4","last_reported":1737022178,"current_range_meters":38800,"station_id":"","pricing_plan_id":"cebpf4jnsgd1na2vs0mg"},{"bike_id":"2fb6d3ea-bbe7-46b6-bd6c-8defdff1cb3a","system_id":"levelo_inurba_marseille","lat":43.313459,"lon":5.367245,"is_reserved":false,"is_disabled":false,"rental_uris":{"android":"levelo://app?vid=2fb6d3ea-bbe7-46b6-bd6c-8defdff1cb3a","ios":"levelo://app?vid=2fb6d3ea-bbe7-46b6-bd6c-8defdff1cb3a"},"vehicle_type_id":"4","last_reported":1737022178,"current_range_meters":38800,"station_id":"ce4bgr92rcd13ifvqc6g","pricing_plan_id":"cebpf4jnsgd1na2vs0mg"},{"bike_id":"1b8cc952-4975-4cc8-a6b4-ff9566cbb0d7","system_id":"levelo_inurba_marseille","lat":43.29031,"lon":5.37584,"is_reserved":false,"is_disabled":false,"rental_uris":{"android":"levelo://app?vid=1b8cc952-4975-4cc8-a6b4-ff9566cbb0d7","ios":"levelo://app?vid=1b8cc952-4975-4cc8-a6b4-ff9566cbb0d7"},"vehicle_type_id":"4","last_reported":1737022178,"current_range_meters":28000,"station_id":"ce4bh692rcd13ifvqe90","pricing_plan_id":"cebpf4jnsgd1na2vs0mg"},{"bike_id":"155dbf4b-d6fe-46aa-9097-9994452a5158","system_id":"levelo_inurba_marseille","lat":43.23071,"lon":5.35493,"is_reserved":false,"is_disabled":false,"rental_uris":{"android":"levelo://app?vid=155dbf4b-d6fe-46aa-9097-9994452a5158","ios":"levelo://app?vid=155dbf4b-d6fe-46aa-9097-9994452a5158"},"vehicle_type_id":"4","last_reported":1737022178,"current_range_meters":9200,"station_id":"cpo3342slgdg3j2ifvpg","pricing_plan_id":"cebpf4jnsgd1na2vs0mg"},{"bike_id":"d28eb562-9401-4c73-a785-28169d8131d7","system_id":"levelo_inurba_marseille","lat":43.308823,"lon":5.37251,"is_reserved":false,"is_disabled":false,"rental_uris":{"android":"levelo://app?vid=d28eb562-9401-4c73-a785-28169d8131d7","ios":"levelo://app?vid=d28eb562-9401-4c73-a785-28169d8131d7"},"vehicle_type_id":"4","last_reported":1737022178,"current_range_meters":28000,"station_id":"","pricing_plan_id":"cebpf4jnsgd1na2vs0mg"},{"bike_id":"349d08ad-dc10-4358-b054-8f4031d6147d","system_id":"levelo_inurba_marseille","lat":43.2706,"lon":5.4027,"is_reserved":false,"is_disabled":false,"rental_uris":{"android":"levelo://app?vid=349d08ad-dc10-4358-b054-8f4031d6147d","ios":"levelo://app?vid=349d08ad-dc10-4358-b054-8f4031d6147d"},"vehicle_type_id":"4","last_reported":1737022178,"current_range_meters":9600,"station_id":"ce4bhk92rcd13ifvqgc0","pricing_plan_id":"cebpf4jnsgd1na2vs0mg"},{"bike_id":"fedfa1a7-997d-435d-b7b7-1cdfb17634c4","system_id":"levelo_inurba_marseille","lat":43.31283,"lon":5.36834,"is_reserved":false,"is_disabled":false,"rental_uris":{"android":"levelo://app?vid=fedfa1a7-997d-435d-b7b7-1cdfb17634c4","ios":"levelo://app?vid=fedfa1a7-997d-435d-b7b7-1cdfb17634c4"},"vehicle_type_id":"4","last_reported":1737022178,"current_range_meters":27200,"station_id":"ce4bgl92rcd13ifvqbq0","pricing_plan_id":"cebpf4jnsgd1na2vs0mg"},{"bike_id":"98342f93-7bf2-4304-817a-494cc685e2f4","system_id":"levelo_inurba_marseille","lat":43.33739,"lon":5.39195,"is_reserved":false,"is_disabled":false,"rental_uris":{"android":"levelo://app?vid=98342f93-7bf2-4304-817a-494cc685e2f4","ios":"levelo://app?vid=98342f93-7bf2-4304-817a-494cc685e2f4"},"vehicle_type_id":"4","last_reported":1737022178,"current_range_meters":38800,"station_id":"ce4bhr92rcd13ifvqhsg","pricing_plan_id":"cebpf4jnsgd1na2vs0mg"},{"bike_id":"0e148415-5fb7-4b85-bd8d-2efc964f268e","system_id":"levelo_inurba_marseille","lat":43.33733,"lon":5.39197,"is_reserved":false,"is_disabled":false,"rental_uris":{"android":"levelo://app?vid=0e148415-5fb7-4b85-bd8d-2efc964f268e","ios":"levelo://app?vid=0e148415-5fb7-4b85-bd8d-2efc964f268e"},"vehicle_type_id":"4","last_reported":1737022178,"current_range_meters":37600,"station_id":"ce4bhr92rcd13ifvqhsg","pricing_plan_id":"cebpf4jnsgd1na2vs0mg"},{"bike_id":"c7437ba1-2911-4673-a9b2-52800ffe0f0b","system_id":"levelo_inurba_marseille","lat":43.30948,"lon":5.3905,"is_reserved":false,"is_disabled":false,"rental_uris":{"android":"levelo://app?vid=c7437ba1-2911-4673-a9b2-52800ffe0f0b","ios":"levelo://app?vid=c7437ba1-2911-4673-a9b2-52800ffe0f0b"},"vehicle_type_id":"4","last_reported":1737022178,"current_range_meters":39200,"station_id":"ce4bgup2rcd13ifvqco0","pricing_plan_id":"cebpf4jnsgd1na2vs0mg"},{"bike_id":"0de1c0c3-224c-470c-9c40-92abbb1e542e","system_id":"levelo_inurba_marseille","lat":43.27448,"lon":5.39428,"is_reserved":false,"is_disabled":true,"rental_uris":{"android":"levelo://app?vid=0de1c0c3-224c-470c-9c40-92abbb1e542e","ios":"levelo://app?vid=0de1c0c3-224c-470c-9c40-92abbb1e542e"},"vehicle_type_id":"4","last_reported":1737022178,"current_range_meters":25200,"station_id":"ce4bhdp2rcd13ifvqf20","pricing_plan_id":"cebpf4jnsgd1na2vs0mg"},{"bike_id":"aebe4cbe-0971-49ad-8897-ff5dc933331c","system_id":"levelo_inurba_marseille","lat":43.29176,"lon":5.35825,"is_reserved":false,"is_disabled":false,"rental_uris":{"android":"levelo://app?vid=aebe4cbe-0971-49ad-8897-ff5dc933331c","ios":"levelo://app?vid=aebe4cbe-0971-49ad-8897-ff5dc933331c"},"vehicle_type_id":"4","last_reported":1737022178,"current_range_meters":38000,"station_id":"ce4bhb12rcd13ifvqel0","pricing_plan_id":"cebpf4jnsgd1na2vs0mg"},{"bike_id":"1f149e26-9d4e-4970-96ec-1b76430b914b","system_id":"levelo_inurba_marseille","lat":43.24388,"lon":5.37048,"is_reserved":false,"is_disabled":false,"rental_uris":{"android":"levelo://app?vid=1f149e26-9d4e-4970-96ec-1b76430b914b","ios":"levelo://app?vid=1f149e26-9d4e-4970-96ec-1b76430b914b"},"vehicle_type_id":"4","last_reported":1737022178,"current_range_meters":38000,"station_id":"ce4bhhh2rcd13ifvqfk0","pricing_plan_id":"cebpf4jnsgd1na2vs0mg"},{"bike_id":"092945e0-363d-4feb-a950-8248bb242247","system_id":"levelo_inurba_marseille","lat":43.28927,"lon":5.36647,"is_reserved":false,"is_disabled":false,"rental_uris":{"android":"levelo://app?vid=092945e0-363d-4feb-a950-8248bb242247","ios":"levelo://app?vid=092945e0-363d-4feb-a950-8248bb242247"},"vehicle_type_id":"4","last_reported":1737022178,"current_range_meters":18000,"station_id":"ce4bhap2rcd13ifvqek0","pricing_plan_id":"cebpf4jnsgd1na2vs0mg"},{"bike_id":"816670e2-bf13-43a3-afdf-f5ecedfc0500","system_id":"levelo_inurba_marseille","lat":43.26124,"lon":5.39318,"is_reserved":false,"is_disabled":false,"rental_uris":{"android":"levelo://app?vid=816670e2-bf13-43a3-afdf-f5ecedfc0500","ios":"levelo://app?vid=816670e2-bf13-43a3-afdf-f5ecedfc0500"},"vehicle_type_id":"4","last_reported":1737022178,"current_range_meters":22000,"station_id":"ce4bhip2rcd13ifvqft0","pricing_plan_id":"cebpf4jnsgd1na2vs0mg"},{"bike_id":"460ac191-1722-409c-a3ef-139bd4b5ec93","system_id":"levelo_inurba_marseille","lat":43.31073,"lon":5.38358,"is_reserved":false,"is_disabled":false,"rental_uris":{"android":"levelo://app?vid=460ac191-1722-409c-a3ef-139bd4b5ec93","ios":"levelo://app?vid=460ac191-1722-409c-a3ef-139bd4b5ec93"},"vehicle_type_id":"4","last_reported":1737022178,"current_range_meters":33200,"station_id":"ce4bgv92rcd13ifvqcr0","pricing_plan_id":"cebpf4jnsgd1na2vs0mg"},{"bike_id":"e052f47d-c314-4142-a490-846c18d74eff","system_id":"levelo_inurba_marseille","lat":43.287,"lon":5.3796,"is_reserved":false,"is_disabled":true,"rental_uris":{"android":"levelo://app?vid=e052f47d-c314-4142-a490-846c18d74eff","ios":"levelo://app?vid=e052f47d-c314-4142-a490-846c18d74eff"},"vehicle_type_id":"4","last_reported":1737022178,"current_range_meters":27600,"station_id":"ce4bh9p2rcd13ifvqec0","pricing_plan_id":"cebpf4jnsgd1na2vs0mg"},{"bike_id":"42387eda-6a96-44c7-931c-125d67339d07","system_id":"levelo_inurba_marseille","lat":43.30903,"lon":5.36854,"is_reserved":false,"is_disabled":false,"rental_uris":{"android":"levelo://app?vid=42387eda-6a96-44c7-931c-125d67339d07","ios":"levelo://app?vid=42387eda-6a96-44c7-931c-125d67339d07"},"vehicle_type_id":"4","last_reported":1737022178,"current_range_meters":38800,"station_id":"ce4bgn92rcd13ifvqbvg","pricing_plan_id":"cebpf4jnsgd1na2vs0mg"},{"bike_id":"51a867de-4072-4eed-982d-a9c5581da22e","system_id":"levelo_inurba_marseille","lat":43.28024,"lon":5.36945,"is_reserved":false,"is_disabled":false,"rental_uris":{"android":"levelo://app?vid=51a867de-4072-4eed-982d-a9c5581da22e","ios":"levelo://app?vid=51a867de-4072-4eed-982d-a9c5581da22e"},"vehicle_type_id":"4","last_reported":1737022178,"current_range_meters":38400,"station_id":"ce4bha12rcd13ifvqef0","pricing_plan_id":"cebpf4jnsgd1na2vs0mg"},{"bike_id":"a3be0020-a5b1-43f7-b7fb-1b88f0d142ef","system_id":"levelo_inurba_marseille","lat":43.298735,"lon":5.3974,"is_reserved":false,"is_disabled":false,"rental_uris":{"android":"levelo://app?vid=a3be0020-a5b1-43f7-b7fb-1b88f0d142ef","ios":"levelo://app?vid=a3be0020-a5b1-43f7-b7fb-1b88f0d142ef"},"vehicle_type_id":"4","last_reported":1737022178,"current_range_meters":14800,"station_id":"ce4bh0h2rcd13ifvqd50","pricing_plan_id":"cebpf4jnsgd1na2vs0mg"},{"bike_id":"2de2eb04-8b58-4120-afdb-74ffab188c24","system_id":"levelo_inurba_marseille","lat":43.31358,"lon":5.36788,"is_reserved":false,"is_disabled":false,"rental_uris":{"android":"levelo://app?vid=2de2eb04-8b58-4120-afdb-74ffab188c24","ios":"levelo://app?vid=2de2eb04-8b58-4120-afdb-74ffab188c24"},"vehicle_type_id":"4","last_reported":1737022178,"current_range_meters":27200,"station_id":"ce4bgr92rcd13ifvqc6g","pricing_plan_id":"cebpf4jnsgd1na2vs0mg"},{"bike_id":"2c839bfc-228b-4afd-9c45-0e54b8f36672","system_id":"levelo_inurba_marseille","lat":43.246511,"lon":5.388936,"is_reserved":false,"is_disabled":false,"rental_uris":{"android":"levelo://app?vid=2c839bfc-228b-4afd-9c45-0e54b8f36672","ios":"levelo://app?vid=2c839bfc-228b-4afd-9c45-0e54b8f36672"},"vehicle_type_id":"4","last_reported":1737022178,"current_range_meters":39200,"station_id":"ce4bhg12rcd13ifvqf60","pricing_plan_id":"cebpf4jnsgd1na2vs0mg"},{"bike_id":"4d8eb31b-74b2-47f2-be20-308942dd430c","system_id":"levelo_inurba_marseille","lat":43.27932,"lon":5.39606,"is_reserved":false,"is_disabled":false,"rental_uris":{"android":"levelo://app?vid=4d8eb31b-74b2-47f2-be20-308942dd430c","ios":"levelo://app?vid=4d8eb31b-74b2-47f2-be20-308942dd430c"},"vehicle_type_id":"4","last_reported":1737022178,"current_range_meters":23200,"station_id":"ce4bhf92rcd13ifvqf40","pricing_plan_id":"cebpf4jnsgd1na2vs0mg"},{"bike_id":"fc1893eb-8966-4fd8-95bb-a878d4a8cff3","system_id":"levelo_inurba_marseille","lat":43.29565,"lon":5.37514,"is_reserved":false,"is_disabled":false,"rental_uris":{"android":"levelo://app?vid=fc1893eb-8966-4fd8-95bb-a878d4a8cff3","ios":"levelo://app?vid=fc1893eb-8966-4fd8-95bb-a878d4a8cff3"},"vehicle_type_id":"4","last_reported":1737022178,"current_range_meters":23200,"station_id":"ce4bgh92rcd13ifvqb50","pricing_plan_id":"cebpf4jnsgd1na2vs0mg"},{"bike_id":"2766686f-7696-4a1d-bceb-e3abea7dd924","system_id":"levelo_inurba_marseille","lat":43.31225,"lon":5.36867,"is_reserved":false,"is_disabled":false,"rental_uris":{"android":"levelo://app?vid=2766686f-7696-4a1d-bceb-e3abea7dd924","ios":"levelo://app?vid=2766686f-7696-4a1d-bceb-e3abea7dd924"},"vehicle_type_id":"4","last_reported":1737022178,"current_range_meters":33600,"station_id":"ce4bgl92rcd13ifvqbq0","pricing_plan_id":"cebpf4jnsgd1na2vs0mg"},{"bike_id":"606799db-5e8b-47d5-abc5-26aa5a54e18c","system_id":"levelo_inurba_marseille","lat":43.33606,"lon":5.41018,"is_reserved":false,"is_disabled":false,"rental_uris":{"android":"levelo://app?vid=606799db-5e8b-47d5-abc5-26aa5a54e18c","ios":"levelo://app?vid=606799db-5e8b-47d5-abc5-26aa5a54e18c"},"vehicle_type_id":"4","last_reported":1737022178,"current_range_meters":38800,"station_id":"ce4bhqh2rcd13ifvqhmg","pricing_plan_id":"cebpf4jnsgd1na2vs0mg"},{"bike_id":"a15980ac-c225-4e68-8982-6cc8c4cbfd79","system_id":"levelo_inurba_marseille","lat":43.2321,"lon":5.35576,"is_reserved":false,"is_disabled":false,"rental_uris":{"android":"levelo://app?vid=a15980ac-c225-4e68-8982-6cc8c4cbfd79","ios":"levelo://app?vid=a15980ac-c225-4e68-8982-6cc8c4cbfd79"},"vehicle_type_id":"4","last_reported":1737022178,"current_range_meters":38800,"station_id":"ce4bhu92rcd13ifvqi70","pricing_plan_id":"cebpf4jnsgd1na2vs0mg"},{"bike_id":"11f60f36-9e59-4934-b741-a49d23b7f137","system_id":"levelo_inurba_marseille","lat":43.27499,"lon":5.42469,"is_reserved":false,"is_disabled":false,"rental_uris":{"android":"levelo://app?vid=11f60f36-9e59-4934-b741-a49d23b7f137","ios":"levelo://app?vid=11f60f36-9e59-4934-b741-a49d23b7f137"},"vehicle_type_id":"4","last_reported":1737022178,"current_range_meters":32800,"station_id":"ce4bhn92rcd13ifvqgrg","pricing_plan_id":"cebpf4jnsgd1na2vs0mg"},{"bike_id":"344bd4d4-3a8a-47e1-aaad-a2c9867ce43b","system_id":"levelo_inurba_marseille","lat":43.27374,"lon":5.36257,"is_reserved":false,"is_disabled":false,"rental_uris":{"android":"levelo://app?vid=344bd4d4-3a8a-47e1-aaad-a2c9867ce43b","ios":"levelo://app?vid=344bd4d4-3a8a-47e1-aaad-a2c9867ce43b"},"vehicle_type_id":"4","last_reported":1737022178,"current_range_meters":26800,"station_id":"ce4bhbh2rcd13ifvqeo0","pricing_plan_id":"cebpf4jnsgd1na2vs0mg"},{"bike_id":"22c3f6ff-115d-4fa2-a8bf-7d4e38101e3c","system_id":"levelo_inurba_marseille","lat":43.2953,"lon":5.37499,"is_reserved":false,"is_disabled":false,"rental_uris":{"android":"levelo://app?vid=22c3f6ff-115d-4fa2-a8bf-7d4e38101e3c","ios":"levelo://app?vid=22c3f6ff-115d-4fa2-a8bf-7d4e38101e3c"},"vehicle_type_id":"4","last_reported":1737022178,"current_range_meters":18800,"station_id":"ce4bgkp2rcd13ifvqbmg","pricing_plan_id":"cebpf4jnsgd1na2vs0mg"},{"bike_id":"b6f06bf3-b439-40e0-b0fa-7a9a9dc9a110","system_id":"levelo_inurba_marseille","lat":43.29016,"lon":5.3814,"is_reserved":false,"is_disabled":false,"rental_uris":{"android":"levelo://app?vid=b6f06bf3-b439-40e0-b0fa-7a9a9dc9a110","ios":"levelo://app?vid=b6f06bf3-b439-40e0-b0fa-7a9a9dc9a110"},"vehicle_type_id":"4","last_reported":1737022178,"current_range_meters":28800,"station_id":"ce4bh4p2rcd13ifvqe1g","pricing_plan_id":"cebpf4jnsgd1na2vs0mg"},{"bike_id":"c93d49e0-cc2d-4f5c-bb53-ac3308613c89","system_id":"levelo_inurba_marseille","lat":43.2972,"lon":5.37696,"is_reserved":false,"is_disabled":false,"rental_uris":{"android":"levelo://app?vid=c93d49e0-cc2d-4f5c-bb53-ac3308613c89","ios":"levelo://app?vid=c93d49e0-cc2d-4f5c-bb53-ac3308613c89"},"vehicle_type_id":"4","last_reported":1737022178,"current_range_meters":25200,"station_id":"ce4bgkh2rcd13ifvqbl0","pricing_plan_id":"cebpf4jnsgd1na2vs0mg"},{"bike_id":"0e3ed56c-7c3e-45fd-93ad-34ae823f72d2","system_id":"levelo_inurba_marseille","lat":43.30537,"lon":5.36531,"is_reserved":false,"is_disabled":false,"rental_uris":{"android":"levelo://app?vid=0e3ed56c-7c3e-45fd-93ad-34ae823f72d2","ios":"levelo://app?vid=0e3ed56c-7c3e-45fd-93ad-34ae823f72d2"},"vehicle_type_id":"4","last_reported":1737022178,"current_range_meters":38000,"station_id":"ce4bgs12rcd13ifvqcag","pricing_plan_id":"cebpf4jnsgd1na2vs0mg"},{"bike_id":"51bb6953-dea8-4e82-96bf-52696267905f","system_id":"levelo_inurba_marseille","lat":43.230569,"lon":5.354925,"is_reserved":false,"is_disabled":false,"rental_uris":{"android":"levelo://app?vid=51bb6953-dea8-4e82-96bf-52696267905f","ios":"levelo://app?vid=51bb6953-dea8-4e82-96bf-52696267905f"},"vehicle_type_id":"4","last_reported":1737022178,"current_range_meters":37600,"station_id":"cpo3342slgdg3j2ifvpg","pricing_plan_id":"cebpf4jnsgd1na2vs0mg"},{"bike_id":"cdfd57cf-5e09-408c-85a1-5ced938a7819","system_id":"levelo_inurba_marseille","lat":43.33607,"lon":5.41018,"is_reserved":false,"is_disabled":false,"rental_uris":{"android":"levelo://app?vid=cdfd57cf-5e09-408c-85a1-5ced938a7819","ios":"levelo://app?vid=cdfd57cf-5e09-408c-85a1-5ced938a7819"},"vehicle_type_id":"4","last_reported":1737022178,"current_range_meters":38800,"station_id":"ce4bhqh2rcd13ifvqhmg","pricing_plan_id":"cebpf4jnsgd1na2vs0mg"},{"bike_id":"f592dfb4-775e-4e71-85c5-87c8e4a9408d","system_id":"levelo_inurba_marseille","lat":43.24064,"lon":5.37752,"is_reserved":false,"is_disabled":false,"rental_uris":{"android":"levelo://app?vid=f592dfb4-775e-4e71-85c5-87c8e4a9408d","ios":"levelo://app?vid=f592dfb4-775e-4e71-85c5-87c8e4a9408d"},"vehicle_type_id":"4","last_reported":1737022178,"current_range_meters":38800,"station_id":"ce4bhnp2rcd13ifvqgvg","pricing_plan_id":"cebpf4jnsgd1na2vs0mg"},{"bike_id":"f1c04f9d-9228-4985-8935-9541b807fb5a","system_id":"levelo_inurba_marseille","lat":43.2407,"lon":5.37734,"is_reserved":false,"is_disabled":false,"rental_uris":{"android":"levelo://app?vid=f1c04f9d-9228-4985-8935-9541b807fb5a","ios":"levelo://app?vid=f1c04f9d-9228-4985-8935-9541b807fb5a"},"vehicle_type_id":"4","last_reported":1737022178,"current_range_meters":25600,"station_id":"ce4bhnp2rcd13ifvqgvg","pricing_plan_id":"cebpf4jnsgd1na2vs0mg"},{"bike_id":"9ba2974b-252f-405a-82ea-0cc04cb2cc50","system_id":"levelo_inurba_marseille","lat":43.240819,"lon":5.377367,"is_reserved":false,"is_disabled":false,"rental_uris":{"android":"levelo://app?vid=9ba2974b-252f-405a-82ea-0cc04cb2cc50","ios":"levelo://app?vid=9ba2974b-252f-405a-82ea-0cc04cb2cc50"},"vehicle_type_id":"4","last_reported":1737022178,"current_range_meters":38800,"station_id":"ce4bhnp2rcd13ifvqgvg","pricing_plan_id":"cebpf4jnsgd1na2vs0mg"},{"bike_id":"3bea599d-9d1d-4ce1-a78c-b94821d3e8a3","system_id":"levelo_inurba_marseille","lat":43.24992,"lon":5.38947,"is_reserved":false,"is_disabled":false,"rental_uris":{"android":"levelo://app?vid=3bea599d-9d1d-4ce1-a78c-b94821d3e8a3","ios":"levelo://app?vid=3bea599d-9d1d-4ce1-a78c-b94821d3e8a3"},"vehicle_type_id":"4","last_reported":1737022178,"current_range_meters":37600,"station_id":"ce4bhgp2rcd13ifvqfd0","pricing_plan_id":"cebpf4jnsgd1na2vs0mg"},{"bike_id":"b2aeb265-f63f-4a31-8f48-d82ce6074995","system_id":"levelo_inurba_marseille","lat":43.27075,"lon":5.4026,"is_reserved":false,"is_disabled":false,"rental_uris":{"android":"levelo://app?vid=b2aeb265-f63f-4a31-8f48-d82ce6074995","ios":"levelo://app?vid=b2aeb265-f63f-4a31-8f48-d82ce6074995"},"vehicle_type_id":"4","last_reported":1737022178,"current_range_meters":9600,"station_id":"ce4bhk92rcd13ifvqgc0","pricing_plan_id":"cebpf4jnsgd1na2vs0mg"},{"bike_id":"f6b5a21b-caca-4bab-9767-62a516c88435","system_id":"levelo_inurba_marseille","lat":43.24642,"lon":5.38934,"is_reserved":false,"is_disabled":false,"rental_uris":{"android":"levelo://app?vid=f6b5a21b-caca-4bab-9767-62a516c88435","ios":"levelo://app?vid=f6b5a21b-caca-4bab-9767-62a516c88435"},"vehicle_type_id":"4","last_reported":1737022178,"current_range_meters":39200,"station_id":"ce4bhg12rcd13ifvqf60","pricing_plan_id":"cebpf4jnsgd1na2vs0mg"},{"bike_id":"51bc0f76-1623-4024-ac29-280ab84e5697","system_id":"levelo_inurba_marseille","lat":43.31313,"lon":5.397,"is_reserved":false,"is_disabled":false,"rental_uris":{"android":"levelo://app?vid=51bc0f76-1623-4024-ac29-280ab84e5697","ios":"levelo://app?vid=51bc0f76-1623-4024-ac29-280ab84e5697"},"vehicle_type_id":"4","last_reported":1737022178,"current_range_meters":38800,"station_id":"ce4bgvp2rcd13ifvqcu0","pricing_plan_id":"cebpf4jnsgd1na2vs0mg"},{"bike_id":"26bf88bc-9ab6-4d8a-bd3b-8823091c5a70","system_id":"levelo_inurba_marseille","lat":43.2815,"lon":5.42653,"is_reserved":false,"is_disabled":true,"rental_uris":{"android":"levelo://app?vid=26bf88bc-9ab6-4d8a-bd3b-8823091c5a70","ios":"levelo://app?vid=26bf88bc-9ab6-4d8a-bd3b-8823091c5a70"},"vehicle_type_id":"4","last_reported":1737022178,"current_range_meters":18800,"station_id":"ce4bhnh2rcd13ifvqgug","pricing_plan_id":"cebpf4jnsgd1na2vs0mg"},{"bike_id":"00650814-c228-44bd-9f52-9d4f86ad033e","system_id":"levelo_inurba_marseille","lat":43.30895,"lon":5.36854,"is_reserved":false,"is_disabled":false,"rental_uris":{"android":"levelo://app?vid=00650814-c228-44bd-9f52-9d4f86ad033e","ios":"levelo://app?vid=00650814-c228-44bd-9f52-9d4f86ad033e"},"vehicle_type_id":"4","last_reported":1737022178,"current_range_meters":28000,"station_id":"ce4bgn92rcd13ifvqbvg","pricing_plan_id":"cebpf4jnsgd1na2vs0mg"},{"bike_id":"fed0e57e-1d07-4c94-b8ec-712ffa544c47","system_id":"levelo_inurba_marseille","lat":43.23959,"lon":5.36648,"is_reserved":false,"is_disabled":false,"rental_uris":{"android":"levelo://app?vid=fed0e57e-1d07-4c94-b8ec-712ffa544c47","ios":"levelo://app?vid=fed0e57e-1d07-4c94-b8ec-712ffa544c47"},"vehicle_type_id":"4","last_reported":1737022178,"current_range_meters":20400,"station_id":"ce4bhi12rcd13ifvqfp0","pricing_plan_id":"cebpf4jnsgd1na2vs0mg"},{"bike_id":"cb57f13e-0f96-498a-b9ca-57c0b42e7a64","system_id":"levelo_inurba_marseille","lat":43.23964,"lon":5.36663,"is_reserved":false,"is_disabled":false,"rental_uris":{"android":"levelo://app?vid=cb57f13e-0f96-498a-b9ca-57c0b42e7a64","ios":"levelo://app?vid=cb57f13e-0f96-498a-b9ca-57c0b42e7a64"},"vehicle_type_id":"4","last_reported":1737022178,"current_range_meters":19600,"station_id":"ce4bhi12rcd13ifvqfp0","pricing_plan_id":"cebpf4jnsgd1na2vs0mg"},{"bike_id":"b597ad07-6de1-40dd-84d5-b7a5e82d58bb","system_id":"levelo_inurba_marseille","lat":43.25806,"lon":5.39424,"is_reserved":false,"is_disabled":false,"rental_uris":{"android":"levelo://app?vid=b597ad07-6de1-40dd-84d5-b7a5e82d58bb","ios":"levelo://app?vid=b597ad07-6de1-40dd-84d5-b7a5e82d58bb"},"vehicle_type_id":"4","last_reported":1737022178,"current_range_meters":24400,"station_id":"ce4bhip2rcd13ifvqft0","pricing_plan_id":"cebpf4jnsgd1na2vs0mg"},{"bike_id":"a740afe2-5857-4dc5-9760-43f1dc74fb9d","system_id":"levelo_inurba_marseille","lat":43.28482,"lon":5.38945,"is_reserved":false,"is_disabled":false,"rental_uris":{"android":"levelo://app?vid=a740afe2-5857-4dc5-9760-43f1dc74fb9d","ios":"levelo://app?vid=a740afe2-5857-4dc5-9760-43f1dc74fb9d"},"vehicle_type_id":"4","last_reported":1737022178,"current_range_meters":30800,"station_id":"","pricing_plan_id":"cebpf4jnsgd1na2vs0mg"},{"bike_id":"ad3243cb-ca74-48dd-80a1-833143c229ad","system_id":"levelo_inurba_marseille","lat":43.2572,"lon":5.41115,"is_reserved":false,"is_disabled":false,"rental_uris":{"android":"levelo://app?vid=ad3243cb-ca74-48dd-80a1-833143c229ad","ios":"levelo://app?vid=ad3243cb-ca74-48dd-80a1-833143c229ad"},"vehicle_type_id":"4","last_reported":1737022178,"current_range_meters":2000,"station_id":"ce4bhkp2rcd13ifvqgd0","pricing_plan_id":"cebpf4jnsgd1na2vs0mg"},{"bike_id":"8a1b1997-d919-46e0-b966-259d925ab944","system_id":"levelo_inurba_marseille","lat":43.293053,"lon":5.371531,"is_reserved":false,"is_disabled":false,"rental_uris":{"android":"levelo://app?vid=8a1b1997-d919-46e0-b966-259d925ab944","ios":"levelo://app?vid=8a1b1997-d919-46e0-b966-259d925ab944"},"vehicle_type_id":"4","last_reported":1737022178,"current_range_meters":8000,"station_id":"ce4bgh92rcd13ifvqb40","pricing_plan_id":"cebpf4jnsgd1na2vs0mg"},{"bike_id":"e5b9252e-eebf-4c90-b028-b53cc4934330","system_id":"levelo_inurba_marseille","lat":43.30352,"lon":5.41936,"is_reserved":false,"is_disabled":true,"rental_uris":{"android":"levelo://app?vid=e5b9252e-eebf-4c90-b028-b53cc4934330","ios":"levelo://app?vid=e5b9252e-eebf-4c90-b028-b53cc4934330"},"vehicle_type_id":"4","last_reported":1737022178,"current_range_meters":14000,"station_id":"ce4bhop2rcd13ifvqh7g","pricing_plan_id":"cebpf4jnsgd1na2vs0mg"},{"bike_id":"b0d9cfb0-5a2b-4f25-8ec3-d507abc35283","system_id":"levelo_inurba_marseille","lat":43.2594,"lon":5.40902,"is_reserved":false,"is_disabled":false,"rental_uris":{"android":"levelo://app?vid=b0d9cfb0-5a2b-4f25-8ec3-d507abc35283","ios":"levelo://app?vid=b0d9cfb0-5a2b-4f25-8ec3-d507abc35283"},"vehicle_type_id":"4","last_reported":1737022178,"current_range_meters":28800,"station_id":"ce4bhm92rcd13ifvqglg","pricing_plan_id":"cebpf4jnsgd1na2vs0mg"},{"bike_id":"5685b1ca-51df-4b0c-81b2-5fc50125a990","system_id":"levelo_inurba_marseille","lat":43.29573,"lon":5.37521,"is_reserved":false,"is_disabled":false,"rental_uris":{"android":"levelo://app?vid=5685b1ca-51df-4b0c-81b2-5fc50125a990","ios":"levelo://app?vid=5685b1ca-51df-4b0c-81b2-5fc50125a990"},"vehicle_type_id":"4","last_reported":1737022178,"current_range_meters":24800,"station_id":"ce4bgh92rcd13ifvqb50","pricing_plan_id":"cebpf4jnsgd1na2vs0mg"},{"bike_id":"93af35ad-738e-40e4-afcb-6d3589d7e732","system_id":"levelo_inurba_marseille","lat":43.231542,"lon":5.436982,"is_reserved":false,"is_disabled":false,"rental_uris":{"android":"levelo://app?vid=93af35ad-738e-40e4-afcb-6d3589d7e732","ios":"levelo://app?vid=93af35ad-738e-40e4-afcb-6d3589d7e732"},"vehicle_type_id":"4","last_reported":1737022178,"current_range_meters":24000,"station_id":"ce4bhmp2rcd13ifvqgog","pricing_plan_id":"cebpf4jnsgd1na2vs0mg"},{"bike_id":"7933f2f0-2e0f-422d-873c-ec932075e5a3","system_id":"levelo_inurba_marseille","lat":43.26184,"lon":5.37471,"is_reserved":false,"is_disabled":false,"rental_uris":{"android":"levelo://app?vid=7933f2f0-2e0f-422d-873c-ec932075e5a3","ios":"levelo://app?vid=7933f2f0-2e0f-422d-873c-ec932075e5a3"},"vehicle_type_id":"4","last_reported":1737022178,"current_range_meters":6800,"station_id":"ce4bhgp2rcd13ifvqfc0","pricing_plan_id":"cebpf4jnsgd1na2vs0mg"},{"bike_id":"d1b53a96-266e-4b04-a3ed-285008bed597","system_id":"levelo_inurba_marseille","lat":43.25912,"lon":5.40978,"is_reserved":false,"is_disabled":false,"rental_uris":{"android":"levelo://app?vid=d1b53a96-266e-4b04-a3ed-285008bed597","ios":"levelo://app?vid=d1b53a96-266e-4b04-a3ed-285008bed597"},"vehicle_type_id":"4","last_reported":1737022178,"current_range_meters":32000,"station_id":"ce4bhm92rcd13ifvqglg","pricing_plan_id":"cebpf4jnsgd1na2vs0mg"},{"bike_id":"694c8607-ec28-4cae-ab91-6356b18201b5","system_id":"levelo_inurba_marseille","lat":43.32534,"lon":5.41478,"is_reserved":false,"is_disabled":false,"rental_uris":{"android":"levelo://app?vid=694c8607-ec28-4cae-ab91-6356b18201b5","ios":"levelo://app?vid=694c8607-ec28-4cae-ab91-6356b18201b5"},"vehicle_type_id":"4","last_reported":1737022178,"current_range_meters":38800,"station_id":"ce4bhq12rcd13ifvqhhg","pricing_plan_id":"cebpf4jnsgd1na2vs0mg"},{"bike_id":"003a4c06-ebcc-49a0-b035-9252517a7aaa","system_id":"levelo_inurba_marseille","lat":43.25921,"lon":5.40905,"is_reserved":false,"is_disabled":false,"rental_uris":{"android":"levelo://app?vid=003a4c06-ebcc-49a0-b035-9252517a7aaa","ios":"levelo://app?vid=003a4c06-ebcc-49a0-b035-9252517a7aaa"},"vehicle_type_id":"4","last_reported":1737022178,"current_range_meters":28800,"station_id":"ce4bhm92rcd13ifvqglg","pricing_plan_id":"cebpf4jnsgd1na2vs0mg"},{"bike_id":"cd61c03b-d4f0-48f7-b777-75cd85668d7f","system_id":"levelo_inurba_marseille","lat":43.31365,"lon":5.36715,"is_reserved":false,"is_disabled":false,"rental_uris":{"android":"levelo://app?vid=cd61c03b-d4f0-48f7-b777-75cd85668d7f","ios":"levelo://app?vid=cd61c03b-d4f0-48f7-b777-75cd85668d7f"},"vehicle_type_id":"4","last_reported":1737022178,"current_range_meters":16000,"station_id":"ce4bgr92rcd13ifvqc6g","pricing_plan_id":"cebpf4jnsgd1na2vs0mg"},{"bike_id":"af21ee5b-f7eb-47bd-9d98-3e2b3e6fd530","system_id":"levelo_inurba_marseille","lat":43.31989,"lon":5.38168,"is_reserved":false,"is_disabled":false,"rental_uris":{"android":"levelo://app?vid=af21ee5b-f7eb-47bd-9d98-3e2b3e6fd530","ios":"levelo://app?vid=af21ee5b-f7eb-47bd-9d98-3e2b3e6fd530"},"vehicle_type_id":"4","last_reported":1737022178,"current_range_meters":26800,"station_id":"ce4bhr12rcd13ifvqhpg","pricing_plan_id":"cebpf4jnsgd1na2vs0mg"},{"bike_id":"001dbcb9-52ae-40c7-940b-0cf504e0a3a9","system_id":"levelo_inurba_marseille","lat":43.2872,"lon":5.3792,"is_reserved":false,"is_disabled":false,"rental_uris":{"android":"levelo://app?vid=001dbcb9-52ae-40c7-940b-0cf504e0a3a9","ios":"levelo://app?vid=001dbcb9-52ae-40c7-940b-0cf504e0a3a9"},"vehicle_type_id":"4","last_reported":1737022178,"current_range_meters":30000,"station_id":"ce4bh9p2rcd13ifvqec0","pricing_plan_id":"cebpf4jnsgd1na2vs0mg"},{"bike_id":"677a97a2-66c9-4a76-8afb-120370db4982","system_id":"levelo_inurba_marseille","lat":43.304603,"lon":5.37907,"is_reserved":false,"is_disabled":false,"rental_uris":{"android":"levelo://app?vid=677a97a2-66c9-4a76-8afb-120370db4982","ios":"levelo://app?vid=677a97a2-66c9-4a76-8afb-120370db4982"},"vehicle_type_id":"4","last_reported":1737022178,"current_range_meters":38800,"station_id":"ce4bgup2rcd13ifvqcn0","pricing_plan_id":"cebpf4jnsgd1na2vs0mg"},{"bike_id":"4aa3f937-cdd8-4b4c-a839-f6f2b47e8b14","system_id":"levelo_inurba_marseille","lat":43.30539,"lon":5.36696,"is_reserved":false,"is_disabled":false,"rental_uris":{"android":"levelo://app?vid=4aa3f937-cdd8-4b4c-a839-f6f2b47e8b14","ios":"levelo://app?vid=4aa3f937-cdd8-4b4c-a839-f6f2b47e8b14"},"vehicle_type_id":"4","last_reported":1737022178,"current_range_meters":20000,"station_id":"ce4bgrp2rcd13ifvqc9g","pricing_plan_id":"cebpf4jnsgd1na2vs0mg"},{"bike_id":"a09a941d-cd7f-4a74-ae80-30df2fc74a04","system_id":"levelo_inurba_marseille","lat":43.27176,"lon":5.4099,"is_reserved":false,"is_disabled":false,"rental_uris":{"android":"levelo://app?vid=a09a941d-cd7f-4a74-ae80-30df2fc74a04","ios":"levelo://app?vid=a09a941d-cd7f-4a74-ae80-30df2fc74a04"},"vehicle_type_id":"4","last_reported":1737022178,"current_range_meters":38000,"station_id":"ce4bhl12rcd13ifvqgf0","pricing_plan_id":"cebpf4jnsgd1na2vs0mg"},{"bike_id":"131ccd5c-2b26-44be-a7e8-61b2d82ac8f9","system_id":"levelo_inurba_marseille","lat":43.301366,"lon":5.374249,"is_reserved":false,"is_disabled":false,"rental_uris":{"android":"levelo://app?vid=131ccd5c-2b26-44be-a7e8-61b2d82ac8f9","ios":"levelo://app?vid=131ccd5c-2b26-44be-a7e8-61b2d82ac8f9"},"vehicle_type_id":"4","last_reported":1737022178,"current_range_meters":6000,"station_id":"ce4bhoh2rcd13ifvqh5g","pricing_plan_id":"cebpf4jnsgd1na2vs0mg"},{"bike_id":"4f51803b-351c-4070-b4bd-a975eb59da1e","system_id":"levelo_inurba_marseille","lat":43.33716,"lon":5.39185,"is_reserved":false,"is_disabled":false,"rental_uris":{"android":"levelo://app?vid=4f51803b-351c-4070-b4bd-a975eb59da1e","ios":"levelo://app?vid=4f51803b-351c-4070-b4bd-a975eb59da1e"},"vehicle_type_id":"4","last_reported":1737022178,"current_range_meters":14800,"station_id":"ce4bhr92rcd13ifvqhsg","pricing_plan_id":"cebpf4jnsgd1na2vs0mg"},{"bike_id":"da0cb2f5-9383-4c02-89f3-757178aa1871","system_id":"levelo_inurba_marseille","lat":43.30546,"lon":5.36552,"is_reserved":false,"is_disabled":false,"rental_uris":{"android":"levelo://app?vid=da0cb2f5-9383-4c02-89f3-757178aa1871","ios":"levelo://app?vid=da0cb2f5-9383-4c02-89f3-757178aa1871"},"vehicle_type_id":"4","last_reported":1737022178,"current_range_meters":30800,"station_id":"ce4bgs12rcd13ifvqcag","pricing_plan_id":"cebpf4jnsgd1na2vs0mg"},{"bike_id":"3d4c5d50-1462-4ff5-81d5-0928edd2d834","system_id":"levelo_inurba_marseille","lat":43.29566,"lon":5.37523,"is_reserved":false,"is_disabled":false,"rental_uris":{"android":"levelo://app?vid=3d4c5d50-1462-4ff5-81d5-0928edd2d834","ios":"levelo://app?vid=3d4c5d50-1462-4ff5-81d5-0928edd2d834"},"vehicle_type_id":"4","last_reported":1737022178,"current_range_meters":19200,"station_id":"ce4bgh92rcd13ifvqb50","pricing_plan_id":"cebpf4jnsgd1na2vs0mg"},{"bike_id":"cca7fd62-78f5-405f-9185-7346c0067ca2","system_id":"levelo_inurba_marseille","lat":43.30957,"lon":5.39051,"is_reserved":false,"is_disabled":false,"rental_uris":{"android":"levelo://app?vid=cca7fd62-78f5-405f-9185-7346c0067ca2","ios":"levelo://app?vid=cca7fd62-78f5-405f-9185-7346c0067ca2"},"vehicle_type_id":"4","last_reported":1737022178,"current_range_meters":27200,"station_id":"ce4bgup2rcd13ifvqco0","pricing_plan_id":"cebpf4jnsgd1na2vs0mg"},{"bike_id":"2cf9b171-971f-45ca-acdc-1cdcfa0c7c43","system_id":"levelo_inurba_marseille","lat":43.29017,"lon":5.38136,"is_reserved":false,"is_disabled":false,"rental_uris":{"android":"levelo://app?vid=2cf9b171-971f-45ca-acdc-1cdcfa0c7c43","ios":"levelo://app?vid=2cf9b171-971f-45ca-acdc-1cdcfa0c7c43"},"vehicle_type_id":"4","last_reported":1737022178,"current_range_meters":25200,"station_id":"ce4bh4p2rcd13ifvqe1g","pricing_plan_id":"cebpf4jnsgd1na2vs0mg"},{"bike_id":"cc1aa1c6-582b-4f1c-9ede-677c82c95ac5","system_id":"levelo_inurba_marseille","lat":43.29778,"lon":5.37104,"is_reserved":false,"is_disabled":false,"rental_uris":{"android":"levelo://app?vid=cc1aa1c6-582b-4f1c-9ede-677c82c95ac5","ios":"levelo://app?vid=cc1aa1c6-582b-4f1c-9ede-677c82c95ac5"},"vehicle_type_id":"4","last_reported":1737022178,"current_range_meters":32400,"station_id":"ce4bgop2rcd13ifvqc1g","pricing_plan_id":"cebpf4jnsgd1na2vs0mg"},{"bike_id":"1a17a578-cbbc-4dd9-8ec3-8d2b87bc098c","system_id":"levelo_inurba_marseille","lat":43.29021,"lon":5.3999,"is_reserved":false,"is_disabled":false,"rental_uris":{"android":"levelo://app?vid=1a17a578-cbbc-4dd9-8ec3-8d2b87bc098c","ios":"levelo://app?vid=1a17a578-cbbc-4dd9-8ec3-8d2b87bc098c"},"vehicle_type_id":"4","last_reported":1737022178,"current_range_meters":38800,"station_id":"ce4bh392rcd13ifvqdm0","pricing_plan_id":"cebpf4jnsgd1na2vs0mg"},{"bike_id":"8ee74a0d-b5eb-4cd3-b1ba-719ef9e2445d","system_id":"levelo_inurba_marseille","lat":43.25087,"lon":5.39529,"is_reserved":false,"is_disabled":false,"rental_uris":{"android":"levelo://app?vid=8ee74a0d-b5eb-4cd3-b1ba-719ef9e2445d","ios":"levelo://app?vid=8ee74a0d-b5eb-4cd3-b1ba-719ef9e2445d"},"vehicle_type_id":"4","last_reported":1737022178,"current_range_meters":27600,"station_id":"ce4bhm12rcd13ifvqgkg","pricing_plan_id":"cebpf4jnsgd1na2vs0mg"},{"bike_id":"7a26b63c-652f-4d2d-8353-1a9dfb4e945a","system_id":"levelo_inurba_marseille","lat":43.33723,"lon":5.39201,"is_reserved":false,"is_disabled":false,"rental_uris":{"android":"levelo://app?vid=7a26b63c-652f-4d2d-8353-1a9dfb4e945a","ios":"levelo://app?vid=7a26b63c-652f-4d2d-8353-1a9dfb4e945a"},"vehicle_type_id":"4","last_reported":1737022178,"current_range_meters":38800,"station_id":"ce4bhr92rcd13ifvqhsg","pricing_plan_id":"cebpf4jnsgd1na2vs0mg"},{"bike_id":"6816f2cb-ba75-43f5-8f74-1ecf534e9e80","system_id":"levelo_inurba_marseille","lat":43.3055,"lon":5.3653,"is_reserved":false,"is_disabled":false,"rental_uris":{"android":"levelo://app?vid=6816f2cb-ba75-43f5-8f74-1ecf534e9e80","ios":"levelo://app?vid=6816f2cb-ba75-43f5-8f74-1ecf534e9e80"},"vehicle_type_id":"4","last_reported":1737022178,"current_range_meters":36000,"station_id":"ce4bgs12rcd13ifvqcag","pricing_plan_id":"cebpf4jnsgd1na2vs0mg"},{"bike_id":"d91f02f5-11ff-4967-912e-790fc10f9a8b","system_id":"levelo_inurba_marseille","lat":43.30275,"lon":5.37712,"is_reserved":false,"is_disabled":false,"rental_uris":{"android":"levelo://app?vid=d91f02f5-11ff-4967-912e-790fc10f9a8b","ios":"levelo://app?vid=d91f02f5-11ff-4967-912e-790fc10f9a8b"},"vehicle_type_id":"4","last_reported":1737022178,"current_range_meters":24400,"station_id":"ce4bguh2rcd13ifvqcj0","pricing_plan_id":"cebpf4jnsgd1na2vs0mg"},{"bike_id":"56b8e9bc-f750-4815-bc98-9098414d16db","system_id":"levelo_inurba_marseille","lat":43.23195,"lon":5.35569,"is_reserved":false,"is_disabled":true,"rental_uris":{"android":"levelo://app?vid=56b8e9bc-f750-4815-bc98-9098414d16db","ios":"levelo://app?vid=56b8e9bc-f750-4815-bc98-9098414d16db"},"vehicle_type_id":"4","last_reported":1737022178,"current_range_meters":0,"station_id":"ce4bhu92rcd13ifvqi70","pricing_plan_id":"cebpf4jnsgd1na2vs0mg"},{"bike_id":"f2ac1cd4-34fc-43b6-85b9-ad77cbc9ae3c","system_id":"levelo_inurba_marseille","lat":43.30163,"lon":5.37433,"is_reserved":false,"is_disabled":false,"rental_uris":{"android":"levelo://app?vid=f2ac1cd4-34fc-43b6-85b9-ad77cbc9ae3c","ios":"levelo://app?vid=f2ac1cd4-34fc-43b6-85b9-ad77cbc9ae3c"},"vehicle_type_id":"4","last_reported":1737022178,"current_range_meters":38800,"station_id":"ce4bgs92rcd13ifvqcc0","pricing_plan_id":"cebpf4jnsgd1na2vs0mg"},{"bike_id":"886c2bbb-1b99-4795-80cb-99bf8240c559","system_id":"levelo_inurba_marseille","lat":43.24652,"lon":5.38912,"is_reserved":false,"is_disabled":false,"rental_uris":{"android":"levelo://app?vid=886c2bbb-1b99-4795-80cb-99bf8240c559","ios":"levelo://app?vid=886c2bbb-1b99-4795-80cb-99bf8240c559"},"vehicle_type_id":"4","last_reported":1737022178,"current_range_meters":24000,"station_id":"ce4bhg12rcd13ifvqf60","pricing_plan_id":"cebpf4jnsgd1na2vs0mg"},{"bike_id":"a8e08195-1ddf-43fc-8bb9-bba25eadbe4a","system_id":"levelo_inurba_marseille","lat":43.26191,"lon":5.37922,"is_reserved":false,"is_disabled":false,"rental_uris":{"android":"levelo://app?vid=a8e08195-1ddf-43fc-8bb9-bba25eadbe4a","ios":"levelo://app?vid=a8e08195-1ddf-43fc-8bb9-bba25eadbe4a"},"vehicle_type_id":"4","last_reported":1737022178,"current_range_meters":26800,"station_id":"ce4bhjp2rcd13ifvqg90","pricing_plan_id":"cebpf4jnsgd1na2vs0mg"},{"bike_id":"2526f8ac-6d51-4f9b-8c1e-5e92f70a92b5","system_id":"levelo_inurba_marseille","lat":43.27495,"lon":5.42451,"is_reserved":false,"is_disabled":false,"rental_uris":{"android":"levelo://app?vid=2526f8ac-6d51-4f9b-8c1e-5e92f70a92b5","ios":"levelo://app?vid=2526f8ac-6d51-4f9b-8c1e-5e92f70a92b5"},"vehicle_type_id":"4","last_reported":1737022178,"current_range_meters":16000,"station_id":"ce4bhn92rcd13ifvqgrg","pricing_plan_id":"cebpf4jnsgd1na2vs0mg"},{"bike_id":"75cdcae0-1b3b-4ba2-a5ff-9c25f49b595c","system_id":"levelo_inurba_marseille","lat":43.27059,"lon":5.40257,"is_reserved":false,"is_disabled":false,"rental_uris":{"android":"levelo://app?vid=75cdcae0-1b3b-4ba2-a5ff-9c25f49b595c","ios":"levelo://app?vid=75cdcae0-1b3b-4ba2-a5ff-9c25f49b595c"},"vehicle_type_id":"4","last_reported":1737022178,"current_range_meters":27200,"station_id":"ce4bhk92rcd13ifvqgc0","pricing_plan_id":"cebpf4jnsgd1na2vs0mg"},{"bike_id":"76a20230-0b5d-4af2-b16e-e247b44b3b1d","system_id":"levelo_inurba_marseille","lat":43.27491,"lon":5.42451,"is_reserved":false,"is_disabled":false,"rental_uris":{"android":"levelo://app?vid=76a20230-0b5d-4af2-b16e-e247b44b3b1d","ios":"levelo://app?vid=76a20230-0b5d-4af2-b16e-e247b44b3b1d"},"vehicle_type_id":"4","last_reported":1737022178,"current_range_meters":30800,"station_id":"ce4bhn92rcd13ifvqgrg","pricing_plan_id":"cebpf4jnsgd1na2vs0mg"},{"bike_id":"26425482-ac11-4df9-94c9-77bac75c56a7","system_id":"levelo_inurba_marseille","lat":43.290203,"lon":5.39986,"is_reserved":false,"is_disabled":false,"rental_uris":{"android":"levelo://app?vid=26425482-ac11-4df9-94c9-77bac75c56a7","ios":"levelo://app?vid=26425482-ac11-4df9-94c9-77bac75c56a7"},"vehicle_type_id":"4","last_reported":1737022178,"current_range_meters":36400,"station_id":"ce4bh392rcd13ifvqdm0","pricing_plan_id":"cebpf4jnsgd1na2vs0mg"},{"bike_id":"843b7b62-c298-4475-adce-4503fd3057b1","system_id":"levelo_inurba_marseille","lat":43.30115,"lon":5.39869,"is_reserved":false,"is_disabled":false,"rental_uris":{"android":"levelo://app?vid=843b7b62-c298-4475-adce-4503fd3057b1","ios":"levelo://app?vid=843b7b62-c298-4475-adce-4503fd3057b1"},"vehicle_type_id":"4","last_reported":1737022178,"current_range_meters":8000,"station_id":"ce4bh0h2rcd13ifvqd40","pricing_plan_id":"cebpf4jnsgd1na2vs0mg"},{"bike_id":"995c884a-0499-46b1-9a44-bb0a781664c5","system_id":"levelo_inurba_marseille","lat":43.25943,"lon":5.40915,"is_reserved":false,"is_disabled":false,"rental_uris":{"android":"levelo://app?vid=995c884a-0499-46b1-9a44-bb0a781664c5","ios":"levelo://app?vid=995c884a-0499-46b1-9a44-bb0a781664c5"},"vehicle_type_id":"4","last_reported":1737022178,"current_range_meters":38800,"station_id":"ce4bhm92rcd13ifvqglg","pricing_plan_id":"cebpf4jnsgd1na2vs0mg"},{"bike_id":"22465212-93af-4e0b-b803-6ee82bba56d5","system_id":"levelo_inurba_marseille","lat":43.33761,"lon":5.37447,"is_reserved":false,"is_disabled":false,"rental_uris":{"android":"levelo://app?vid=22465212-93af-4e0b-b803-6ee82bba56d5","ios":"levelo://app?vid=22465212-93af-4e0b-b803-6ee82bba56d5"},"vehicle_type_id":"4","last_reported":1737022178,"current_range_meters":38800,"station_id":"","pricing_plan_id":"cebpf4jnsgd1na2vs0mg"},{"bike_id":"60c48e84-151f-4edd-83cd-789ff87c7f63","system_id":"levelo_inurba_marseille","lat":43.28698,"lon":5.37411,"is_reserved":false,"is_disabled":false,"rental_uris":{"android":"levelo://app?vid=60c48e84-151f-4edd-83cd-789ff87c7f63","ios":"levelo://app?vid=60c48e84-151f-4edd-83cd-789ff87c7f63"},"vehicle_type_id":"4","last_reported":1737022178,"current_range_meters":25600,"station_id":"ce4bh3p2rcd13ifvqdq0","pricing_plan_id":"cebpf4jnsgd1na2vs0mg"},{"bike_id":"dffa7608-1b33-42bb-9ad8-7f65390a45e4","system_id":"levelo_inurba_marseille","lat":43.29273,"lon":5.40113,"is_reserved":false,"is_disabled":true,"rental_uris":{"android":"levelo://app?vid=dffa7608-1b33-42bb-9ad8-7f65390a45e4","ios":"levelo://app?vid=dffa7608-1b33-42bb-9ad8-7f65390a45e4"},"vehicle_type_id":"4","last_reported":1737022178,"current_range_meters":38800,"station_id":"ce4bh312rcd13ifvqdk0","pricing_plan_id":"cebpf4jnsgd1na2vs0mg"},{"bike_id":"7eb33b08-969b-4d1e-b1a6-89a0f841df57","system_id":"levelo_inurba_marseille","lat":43.29098,"lon":5.38151,"is_reserved":false,"is_disabled":false,"rental_uris":{"android":"levelo://app?vid=7eb33b08-969b-4d1e-b1a6-89a0f841df57","ios":"levelo://app?vid=7eb33b08-969b-4d1e-b1a6-89a0f841df57"},"vehicle_type_id":"4","last_reported":1737022178,"current_range_meters":28400,"station_id":"ce4bh512rcd13ifvqe2g","pricing_plan_id":"cebpf4jnsgd1na2vs0mg"},{"bike_id":"6a347207-180d-4e7c-93f5-4bea3bb7b491","system_id":"levelo_inurba_marseille","lat":43.32347,"lon":5.3898,"is_reserved":false,"is_disabled":false,"rental_uris":{"android":"levelo://app?vid=6a347207-180d-4e7c-93f5-4bea3bb7b491","ios":"levelo://app?vid=6a347207-180d-4e7c-93f5-4bea3bb7b491"},"vehicle_type_id":"4","last_reported":1737022178,"current_range_meters":33600,"station_id":"ce4bhqp2rcd13ifvqhog","pricing_plan_id":"cebpf4jnsgd1na2vs0mg"},{"bike_id":"8877e7a6-4aa2-4c5a-ac5a-26bcf6368000","system_id":"levelo_inurba_marseille","lat":43.28035,"lon":5.36953,"is_reserved":false,"is_disabled":false,"rental_uris":{"android":"levelo://app?vid=8877e7a6-4aa2-4c5a-ac5a-26bcf6368000","ios":"levelo://app?vid=8877e7a6-4aa2-4c5a-ac5a-26bcf6368000"},"vehicle_type_id":"4","last_reported":1737022178,"current_range_meters":38000,"station_id":"ce4bha12rcd13ifvqef0","pricing_plan_id":"cebpf4jnsgd1na2vs0mg"},{"bike_id":"8ea1e7e9-0f2a-4dd7-89ec-43af818b1ec4","system_id":"levelo_inurba_marseille","lat":43.31897,"lon":5.40744,"is_reserved":false,"is_disabled":false,"rental_uris":{"android":"levelo://app?vid=8ea1e7e9-0f2a-4dd7-89ec-43af818b1ec4","ios":"levelo://app?vid=8ea1e7e9-0f2a-4dd7-89ec-43af818b1ec4"},"vehicle_type_id":"4","last_reported":1737022178,"current_range_meters":10000,"station_id":"ce4bhq12rcd13ifvqhig","pricing_plan_id":"cebpf4jnsgd1na2vs0mg"},{"bike_id":"8949aca5-2f6e-45b7-8bc9-20e9801a8a4e","system_id":"levelo_inurba_marseille","lat":43.2791,"lon":5.38715,"is_reserved":false,"is_disabled":true,"rental_uris":{"android":"levelo://app?vid=8949aca5-2f6e-45b7-8bc9-20e9801a8a4e","ios":"levelo://app?vid=8949aca5-2f6e-45b7-8bc9-20e9801a8a4e"},"vehicle_type_id":"4","last_reported":1737022178,"current_range_meters":1200,"station_id":"","pricing_plan_id":"cebpf4jnsgd1na2vs0mg"},{"bike_id":"0c74b65d-6a6b-4f50-a23b-6454b7a923c5","system_id":"levelo_inurba_marseille","lat":43.30546,"lon":5.36716,"is_reserved":false,"is_disabled":false,"rental_uris":{"android":"levelo://app?vid=0c74b65d-6a6b-4f50-a23b-6454b7a923c5","ios":"levelo://app?vid=0c74b65d-6a6b-4f50-a23b-6454b7a923c5"},"vehicle_type_id":"4","last_reported":1737022178,"current_range_meters":28000,"station_id":"ce4bgrp2rcd13ifvqc9g","pricing_plan_id":"cebpf4jnsgd1na2vs0mg"},{"bike_id":"10fb2b2a-7eb6-4dfc-8833-9b37ae43939e","system_id":"levelo_inurba_marseille","lat":43.32542,"lon":5.41431,"is_reserved":false,"is_disabled":false,"rental_uris":{"android":"levelo://app?vid=10fb2b2a-7eb6-4dfc-8833-9b37ae43939e","ios":"levelo://app?vid=10fb2b2a-7eb6-4dfc-8833-9b37ae43939e"},"vehicle_type_id":"4","last_reported":1737022178,"current_range_meters":39200,"station_id":"ce4bhq12rcd13ifvqhhg","pricing_plan_id":"cebpf4jnsgd1na2vs0mg"},{"bike_id":"64b3bb9d-2c64-4d3c-b14d-a3df3628d5a5","system_id":"levelo_inurba_marseille","lat":43.30275,"lon":5.3772,"is_reserved":false,"is_disabled":false,"rental_uris":{"android":"levelo://app?vid=64b3bb9d-2c64-4d3c-b14d-a3df3628d5a5","ios":"levelo://app?vid=64b3bb9d-2c64-4d3c-b14d-a3df3628d5a5"},"vehicle_type_id":"4","last_reported":1737022178,"current_range_meters":33200,"station_id":"ce4bguh2rcd13ifvqcj0","pricing_plan_id":"cebpf4jnsgd1na2vs0mg"},{"bike_id":"8b270a27-56d2-4c12-911a-d18adeedec80","system_id":"levelo_inurba_marseille","lat":43.24645,"lon":5.38906,"is_reserved":false,"is_disabled":false,"rental_uris":{"android":"levelo://app?vid=8b270a27-56d2-4c12-911a-d18adeedec80","ios":"levelo://app?vid=8b270a27-56d2-4c12-911a-d18adeedec80"},"vehicle_type_id":"4","last_reported":1737022178,"current_range_meters":24800,"station_id":"ce4bhg12rcd13ifvqf60","pricing_plan_id":"cebpf4jnsgd1na2vs0mg"},{"bike_id":"917148ce-4c9d-450a-97ee-d2deee4d50c3","system_id":"levelo_inurba_marseille","lat":43.32476,"lon":5.36586,"is_reserved":false,"is_disabled":false,"rental_uris":{"android":"levelo://app?vid=917148ce-4c9d-450a-97ee-d2deee4d50c3","ios":"levelo://app?vid=917148ce-4c9d-450a-97ee-d2deee4d50c3"},"vehicle_type_id":"4","last_reported":1737022178,"current_range_meters":11200,"station_id":"ce4bhs12rcd13ifvqhvg","pricing_plan_id":"cebpf4jnsgd1na2vs0mg"},{"bike_id":"1789f462-080f-4ca8-a4cc-e0a2cc6279ff","system_id":"levelo_inurba_marseille","lat":43.309525,"lon":5.390297,"is_reserved":false,"is_disabled":true,"rental_uris":{"android":"levelo://app?vid=1789f462-080f-4ca8-a4cc-e0a2cc6279ff","ios":"levelo://app?vid=1789f462-080f-4ca8-a4cc-e0a2cc6279ff"},"vehicle_type_id":"4","last_reported":1737022178,"current_range_meters":0,"station_id":"ce4bgup2rcd13ifvqco0","pricing_plan_id":"cebpf4jnsgd1na2vs0mg"},{"bike_id":"5f73b1c5-bb2a-4fac-9eb7-14c830fab3ce","system_id":"levelo_inurba_marseille","lat":43.29832,"lon":5.36267,"is_reserved":false,"is_disabled":false,"rental_uris":{"android":"levelo://app?vid=5f73b1c5-bb2a-4fac-9eb7-14c830fab3ce","ios":"levelo://app?vid=5f73b1c5-bb2a-4fac-9eb7-14c830fab3ce"},"vehicle_type_id":"4","last_reported":1737022178,"current_range_meters":24000,"station_id":"ce4bgpp2rcd13ifvqc3g","pricing_plan_id":"cebpf4jnsgd1na2vs0mg"},{"bike_id":"6a7366d7-ed8c-4629-bf0c-70c2abcda36d","system_id":"levelo_inurba_marseille","lat":43.23183,"lon":5.35553,"is_reserved":false,"is_disabled":false,"rental_uris":{"android":"levelo://app?vid=6a7366d7-ed8c-4629-bf0c-70c2abcda36d","ios":"levelo://app?vid=6a7366d7-ed8c-4629-bf0c-70c2abcda36d"},"vehicle_type_id":"4","last_reported":1737022178,"current_range_meters":12000,"station_id":"ce4bhu92rcd13ifvqi70","pricing_plan_id":"cebpf4jnsgd1na2vs0mg"},{"bike_id":"753eac77-207d-448b-a7cb-5ef78c37c033","system_id":"levelo_inurba_marseille","lat":43.30284,"lon":5.37702,"is_reserved":false,"is_disabled":false,"rental_uris":{"android":"levelo://app?vid=753eac77-207d-448b-a7cb-5ef78c37c033","ios":"levelo://app?vid=753eac77-207d-448b-a7cb-5ef78c37c033"},"vehicle_type_id":"4","last_reported":1737022178,"current_range_meters":16400,"station_id":"ce4bguh2rcd13ifvqcj0","pricing_plan_id":"cebpf4jnsgd1na2vs0mg"},{"bike_id":"2d7f3353-743b-41e1-85f2-e32181d4ae48","system_id":"levelo_inurba_marseille","lat":43.31982,"lon":5.38162,"is_reserved":false,"is_disabled":false,"rental_uris":{"android":"levelo://app?vid=2d7f3353-743b-41e1-85f2-e32181d4ae48","ios":"levelo://app?vid=2d7f3353-743b-41e1-85f2-e32181d4ae48"},"vehicle_type_id":"4","last_reported":1737022178,"current_range_meters":33600,"station_id":"ce4bhr12rcd13ifvqhpg","pricing_plan_id":"cebpf4jnsgd1na2vs0mg"},{"bike_id":"7e3ee2e7-7482-4133-a472-006dba3905fa","system_id":"levelo_inurba_marseille","lat":43.25505,"lon":5.37688,"is_reserved":false,"is_disabled":false,"rental_uris":{"android":"levelo://app?vid=7e3ee2e7-7482-4133-a472-006dba3905fa","ios":"levelo://app?vid=7e3ee2e7-7482-4133-a472-006dba3905fa"},"vehicle_type_id":"4","last_reported":1737022178,"current_range_meters":28000,"station_id":"ce4bhh12rcd13ifvqff0","pricing_plan_id":"cebpf4jnsgd1na2vs0mg"},{"bike_id":"d6248787-bad6-4726-aab8-dd8572187026","system_id":"levelo_inurba_marseille","lat":43.30274,"lon":5.37724,"is_reserved":false,"is_disabled":false,"rental_uris":{"android":"levelo://app?vid=d6248787-bad6-4726-aab8-dd8572187026","ios":"levelo://app?vid=d6248787-bad6-4726-aab8-dd8572187026"},"vehicle_type_id":"4","last_reported":1737022178,"current_range_meters":34800,"station_id":"ce4bguh2rcd13ifvqcj0","pricing_plan_id":"cebpf4jnsgd1na2vs0mg"},{"bike_id":"51fa486b-5e31-483c-be2f-a8ad4efb10e7","system_id":"levelo_inurba_marseille","lat":43.259328,"lon":5.409044,"is_reserved":false,"is_disabled":false,"rental_uris":{"android":"levelo://app?vid=51fa486b-5e31-483c-be2f-a8ad4efb10e7","ios":"levelo://app?vid=51fa486b-5e31-483c-be2f-a8ad4efb10e7"},"vehicle_type_id":"4","last_reported":1737022178,"current_range_meters":36000,"station_id":"ce4bhm92rcd13ifvqglg","pricing_plan_id":"cebpf4jnsgd1na2vs0mg"},{"bike_id":"19b366c0-09f8-4786-9878-33708b14c753","system_id":"levelo_inurba_marseille","lat":43.33604,"lon":5.41012,"is_reserved":false,"is_disabled":false,"rental_uris":{"android":"levelo://app?vid=19b366c0-09f8-4786-9878-33708b14c753","ios":"levelo://app?vid=19b366c0-09f8-4786-9878-33708b14c753"},"vehicle_type_id":"4","last_reported":1737022178,"current_range_meters":7200,"station_id":"ce4bhqh2rcd13ifvqhmg","pricing_plan_id":"cebpf4jnsgd1na2vs0mg"},{"bike_id":"469e191a-6cd4-423d-823f-56893a533861","system_id":"levelo_inurba_marseille","lat":43.28708,"lon":5.39957,"is_reserved":false,"is_disabled":false,"rental_uris":{"android":"levelo://app?vid=469e191a-6cd4-423d-823f-56893a533861","ios":"levelo://app?vid=469e191a-6cd4-423d-823f-56893a533861"},"vehicle_type_id":"4","last_reported":1737022178,"current_range_meters":35200,"station_id":"ce4bho92rcd13ifvqh3g","pricing_plan_id":"cebpf4jnsgd1na2vs0mg"},{"bike_id":"a991e04d-002f-479e-8e12-bbae3959f3c4","system_id":"levelo_inurba_marseille","lat":43.29688,"lon":5.36613,"is_reserved":false,"is_disabled":false,"rental_uris":{"android":"levelo://app?vid=a991e04d-002f-479e-8e12-bbae3959f3c4","ios":"levelo://app?vid=a991e04d-002f-479e-8e12-bbae3959f3c4"},"vehicle_type_id":"4","last_reported":1737022178,"current_range_meters":27200,"station_id":"ce4bgn12rcd13ifvqbt0","pricing_plan_id":"cebpf4jnsgd1na2vs0mg"},{"bike_id":"c40afdff-6fe4-4536-972a-1fa0ea1bddfe","system_id":"levelo_inurba_marseille","lat":43.28346,"lon":5.38102,"is_reserved":false,"is_disabled":false,"rental_uris":{"android":"levelo://app?vid=c40afdff-6fe4-4536-972a-1fa0ea1bddfe","ios":"levelo://app?vid=c40afdff-6fe4-4536-972a-1fa0ea1bddfe"},"vehicle_type_id":"4","last_reported":1737022178,"current_range_meters":38800,"station_id":"ce4bh412rcd13ifvqdr0","pricing_plan_id":"cebpf4jnsgd1na2vs0mg"},{"bike_id":"b583689d-4b3b-4fec-a4c3-0358dd755494","system_id":"levelo_inurba_marseille","lat":43.26676,"lon":5.38287,"is_reserved":false,"is_disabled":false,"rental_uris":{"android":"levelo://app?vid=b583689d-4b3b-4fec-a4c3-0358dd755494","ios":"levelo://app?vid=b583689d-4b3b-4fec-a4c3-0358dd755494"},"vehicle_type_id":"4","last_reported":1737022178,"current_range_meters":38000,"station_id":"ce4bhg92rcd13ifvqf90","pricing_plan_id":"cebpf4jnsgd1na2vs0mg"},{"bike_id":"16ce2ec9-7172-43e6-998d-a0972dd67098","system_id":"levelo_inurba_marseille","lat":43.29724,"lon":5.37684,"is_reserved":false,"is_disabled":false,"rental_uris":{"android":"levelo://app?vid=16ce2ec9-7172-43e6-998d-a0972dd67098","ios":"levelo://app?vid=16ce2ec9-7172-43e6-998d-a0972dd67098"},"vehicle_type_id":"4","last_reported":1737022178,"current_range_meters":19600,"station_id":"ce4bgkh2rcd13ifvqbl0","pricing_plan_id":"cebpf4jnsgd1na2vs0mg"},{"bike_id":"ef8de47d-f7f1-47b7-98c3-b86e4c7c1ce0","system_id":"levelo_inurba_marseille","lat":43.3109,"lon":5.42438,"is_reserved":false,"is_disabled":false,"rental_uris":{"android":"levelo://app?vid=ef8de47d-f7f1-47b7-98c3-b86e4c7c1ce0","ios":"levelo://app?vid=ef8de47d-f7f1-47b7-98c3-b86e4c7c1ce0"},"vehicle_type_id":"4","last_reported":1737022178,"current_range_meters":20000,"station_id":"ce4bhp92rcd13ifvqhag","pricing_plan_id":"cebpf4jnsgd1na2vs0mg"},{"bike_id":"5d42a98e-bef8-43af-946e-751274f82d4c","system_id":"levelo_inurba_marseille","lat":43.23636,"lon":5.43602,"is_reserved":false,"is_disabled":true,"rental_uris":{"android":"levelo://app?vid=5d42a98e-bef8-43af-946e-751274f82d4c","ios":"levelo://app?vid=5d42a98e-bef8-43af-946e-751274f82d4c"},"vehicle_type_id":"4","last_reported":1737022178,"current_range_meters":32000,"station_id":"","pricing_plan_id":"cebpf4jnsgd1na2vs0mg"},{"bike_id":"b71cb508-0b8e-4e4f-bed8-38d98b2efa2d","system_id":"levelo_inurba_marseille","lat":43.29825,"lon":5.36286,"is_reserved":false,"is_disabled":false,"rental_uris":{"android":"levelo://app?vid=b71cb508-0b8e-4e4f-bed8-38d98b2efa2d","ios":"levelo://app?vid=b71cb508-0b8e-4e4f-bed8-38d98b2efa2d"},"vehicle_type_id":"4","last_reported":1737022178,"current_range_meters":35600,"station_id":"ce4bgpp2rcd13ifvqc3g","pricing_plan_id":"cebpf4jnsgd1na2vs0mg"},{"bike_id":"a2908b4f-e283-49c6-a08d-76ce2a17372d","system_id":"levelo_inurba_marseille","lat":43.29974,"lon":5.38498,"is_reserved":false,"is_disabled":true,"rental_uris":{"android":"levelo://app?vid=a2908b4f-e283-49c6-a08d-76ce2a17372d","ios":"levelo://app?vid=a2908b4f-e283-49c6-a08d-76ce2a17372d"},"vehicle_type_id":"4","last_reported":1737022178,"current_range_meters":37600,"station_id":"ce4bgj92rcd13ifvqbd0","pricing_plan_id":"cebpf4jnsgd1na2vs0mg"},{"bike_id":"6bb0c2df-6198-4645-b80a-340391eb447c","system_id":"levelo_inurba_marseille","lat":43.2814,"lon":5.42675,"is_reserved":false,"is_disabled":false,"rental_uris":{"android":"levelo://app?vid=6bb0c2df-6198-4645-b80a-340391eb447c","ios":"levelo://app?vid=6bb0c2df-6198-4645-b80a-340391eb447c"},"vehicle_type_id":"4","last_reported":1737022178,"current_range_meters":30400,"station_id":"ce4bhnh2rcd13ifvqgug","pricing_plan_id":"cebpf4jnsgd1na2vs0mg"},{"bike_id":"6c02ae22-4e33-4b73-a0d5-7fa499611cc2","system_id":"levelo_inurba_marseille","lat":43.23254,"lon":5.43673,"is_reserved":false,"is_disabled":false,"rental_uris":{"android":"levelo://app?vid=6c02ae22-4e33-4b73-a0d5-7fa499611cc2","ios":"levelo://app?vid=6c02ae22-4e33-4b73-a0d5-7fa499611cc2"},"vehicle_type_id":"4","last_reported":1737022178,"current_range_meters":35200,"station_id":"ce4bhmp2rcd13ifvqgog","pricing_plan_id":"cebpf4jnsgd1na2vs0mg"},{"bike_id":"b5505f35-094b-4e20-8a01-2b2cbb437537","system_id":"levelo_inurba_marseille","lat":43.26946,"lon":5.38648,"is_reserved":false,"is_disabled":false,"rental_uris":{"android":"levelo://app?vid=b5505f35-094b-4e20-8a01-2b2cbb437537","ios":"levelo://app?vid=b5505f35-094b-4e20-8a01-2b2cbb437537"},"vehicle_type_id":"4","last_reported":1737022178,"current_range_meters":38000,"station_id":"ce4bhh92rcd13ifvqfh0","pricing_plan_id":"cebpf4jnsgd1na2vs0mg"},{"bike_id":"f3000f12-d78d-46d5-99ca-8a4e13f94f9e","system_id":"levelo_inurba_marseille","lat":43.25495,"lon":5.37656,"is_reserved":false,"is_disabled":false,"rental_uris":{"android":"levelo://app?vid=f3000f12-d78d-46d5-99ca-8a4e13f94f9e","ios":"levelo://app?vid=f3000f12-d78d-46d5-99ca-8a4e13f94f9e"},"vehicle_type_id":"4","last_reported":1737022178,"current_range_meters":38800,"station_id":"ce4bhh12rcd13ifvqff0","pricing_plan_id":"cebpf4jnsgd1na2vs0mg"},{"bike_id":"133cc338-2cd1-4934-acb9-fb687e9c6d5f","system_id":"levelo_inurba_marseille","lat":43.29708,"lon":5.37308,"is_reserved":false,"is_disabled":false,"rental_uris":{"android":"levelo://app?vid=133cc338-2cd1-4934-acb9-fb687e9c6d5f","ios":"levelo://app?vid=133cc338-2cd1-4934-acb9-fb687e9c6d5f"},"vehicle_type_id":"4","last_reported":1737022178,"current_range_meters":38800,"station_id":"ce4bgk12rcd13ifvqbj0","pricing_plan_id":"cebpf4jnsgd1na2vs0mg"},{"bike_id":"b311f074-4836-490a-90ca-8d042c3078fa","system_id":"levelo_inurba_marseille","lat":43.28139,"lon":5.42658,"is_reserved":false,"is_disabled":false,"rental_uris":{"android":"levelo://app?vid=b311f074-4836-490a-90ca-8d042c3078fa","ios":"levelo://app?vid=b311f074-4836-490a-90ca-8d042c3078fa"},"vehicle_type_id":"4","last_reported":1737022178,"current_range_meters":24400,"station_id":"ce4bhnh2rcd13ifvqgug","pricing_plan_id":"cebpf4jnsgd1na2vs0mg"},{"bike_id":"6003524c-18e4-4d25-8fc7-903f93c12173","system_id":"levelo_inurba_marseille","lat":43.30132,"lon":5.38805,"is_reserved":false,"is_disabled":true,"rental_uris":{"android":"levelo://app?vid=6003524c-18e4-4d25-8fc7-903f93c12173","ios":"levelo://app?vid=6003524c-18e4-4d25-8fc7-903f93c12173"},"vehicle_type_id":"4","last_reported":1737022178,"current_range_meters":38800,"station_id":"ce4bghh2rcd13ifvqb60","pricing_plan_id":"cebpf4jnsgd1na2vs0mg"},{"bike_id":"ad85abad-809e-4160-8548-6f9c0ed9a3d3","system_id":"levelo_inurba_marseille","lat":43.29934,"lon":5.3656,"is_reserved":false,"is_disabled":false,"rental_uris":{"android":"levelo://app?vid=ad85abad-809e-4160-8548-6f9c0ed9a3d3","ios":"levelo://app?vid=ad85abad-809e-4160-8548-6f9c0ed9a3d3"},"vehicle_type_id":"4","last_reported":1737022178,"current_range_meters":36400,"station_id":"ce4bgm92rcd13ifvqbr0","pricing_plan_id":"cebpf4jnsgd1na2vs0mg"},{"bike_id":"581cc440-8117-4ff6-be05-02046e19d4fc","system_id":"levelo_inurba_marseille","lat":43.29043,"lon":5.39932,"is_reserved":false,"is_disabled":false,"rental_uris":{"android":"levelo://app?vid=581cc440-8117-4ff6-be05-02046e19d4fc","ios":"levelo://app?vid=581cc440-8117-4ff6-be05-02046e19d4fc"},"vehicle_type_id":"4","last_reported":1737022178,"current_range_meters":12400,"station_id":"ce4bh392rcd13ifvqdm0","pricing_plan_id":"cebpf4jnsgd1na2vs0mg"},{"bike_id":"b4aad00c-cb30-4149-b33b-cd525b616d74","system_id":"levelo_inurba_marseille","lat":43.29533,"lon":5.37497,"is_reserved":false,"is_disabled":false,"rental_uris":{"android":"levelo://app?vid=b4aad00c-cb30-4149-b33b-cd525b616d74","ios":"levelo://app?vid=b4aad00c-cb30-4149-b33b-cd525b616d74"},"vehicle_type_id":"4","last_reported":1737022178,"current_range_meters":20800,"station_id":"ce4bgkp2rcd13ifvqbmg","pricing_plan_id":"cebpf4jnsgd1na2vs0mg"},{"bike_id":"e21a33db-4ff7-44b2-a73f-b5c05a38c476","system_id":"levelo_inurba_marseille","lat":43.25492,"lon":5.37647,"is_reserved":false,"is_disabled":false,"rental_uris":{"android":"levelo://app?vid=e21a33db-4ff7-44b2-a73f-b5c05a38c476","ios":"levelo://app?vid=e21a33db-4ff7-44b2-a73f-b5c05a38c476"},"vehicle_type_id":"4","last_reported":1737022178,"current_range_meters":38400,"station_id":"ce4bhh12rcd13ifvqff0","pricing_plan_id":"cebpf4jnsgd1na2vs0mg"},{"bike_id":"b6cc3290-8d97-4a09-b52c-61d9cb4c3b4e","system_id":"levelo_inurba_marseille","lat":43.30538,"lon":5.36719,"is_reserved":false,"is_disabled":false,"rental_uris":{"android":"levelo://app?vid=b6cc3290-8d97-4a09-b52c-61d9cb4c3b4e","ios":"levelo://app?vid=b6cc3290-8d97-4a09-b52c-61d9cb4c3b4e"},"vehicle_type_id":"4","last_reported":1737022178,"current_range_meters":32800,"station_id":"ce4bgrp2rcd13ifvqc9g","pricing_plan_id":"cebpf4jnsgd1na2vs0mg"},{"bike_id":"30279267-2c15-4b66-8941-f3b2637bc5b8","system_id":"levelo_inurba_marseille","lat":43.24182,"lon":5.39728,"is_reserved":false,"is_disabled":false,"rental_uris":{"android":"levelo://app?vid=30279267-2c15-4b66-8941-f3b2637bc5b8","ios":"levelo://app?vid=30279267-2c15-4b66-8941-f3b2637bc5b8"},"vehicle_type_id":"4","last_reported":1737022178,"current_range_meters":27600,"station_id":"ce4bhn12rcd13ifvqgpg","pricing_plan_id":"cebpf4jnsgd1na2vs0mg"},{"bike_id":"436208d9-22ee-4b59-8ade-7d37f5f818f8","system_id":"levelo_inurba_marseille","lat":43.303515,"lon":5.39101,"is_reserved":false,"is_disabled":true,"rental_uris":{"android":"levelo://app?vid=436208d9-22ee-4b59-8ade-7d37f5f818f8","ios":"levelo://app?vid=436208d9-22ee-4b59-8ade-7d37f5f818f8"},"vehicle_type_id":"4","last_reported":1737022178,"current_range_meters":3600,"station_id":"ce4bgkh2rcd13ifvqbk0","pricing_plan_id":"cebpf4jnsgd1na2vs0mg"},{"bike_id":"82b6ec2a-c1ba-45bc-ab14-48f1c4176bd6","system_id":"levelo_inurba_marseille","lat":43.27572,"lon":5.38426,"is_reserved":false,"is_disabled":false,"rental_uris":{"android":"levelo://app?vid=82b6ec2a-c1ba-45bc-ab14-48f1c4176bd6","ios":"levelo://app?vid=82b6ec2a-c1ba-45bc-ab14-48f1c4176bd6"},"vehicle_type_id":"4","last_reported":1737022178,"current_range_meters":30000,"station_id":"ce4bhh92rcd13ifvqfi0","pricing_plan_id":"cebpf4jnsgd1na2vs0mg"},{"bike_id":"d96da00b-ce19-48b5-aa82-f788c8903a2f","system_id":"levelo_inurba_marseille","lat":43.30077,"lon":5.39078,"is_reserved":false,"is_disabled":false,"rental_uris":{"android":"levelo://app?vid=d96da00b-ce19-48b5-aa82-f788c8903a2f","ios":"levelo://app?vid=d96da00b-ce19-48b5-aa82-f788c8903a2f"},"vehicle_type_id":"4","last_reported":1737022178,"current_range_meters":38800,"station_id":"ce4bh192rcd13ifvqdb0","pricing_plan_id":"cebpf4jnsgd1na2vs0mg"},{"bike_id":"2aecd2f7-382e-41e1-a751-45dc704f3b47","system_id":"levelo_inurba_marseille","lat":43.26677,"lon":5.38264,"is_reserved":false,"is_disabled":false,"rental_uris":{"android":"levelo://app?vid=2aecd2f7-382e-41e1-a751-45dc704f3b47","ios":"levelo://app?vid=2aecd2f7-382e-41e1-a751-45dc704f3b47"},"vehicle_type_id":"4","last_reported":1737022178,"current_range_meters":25600,"station_id":"ce4bhg92rcd13ifvqf90","pricing_plan_id":"cebpf4jnsgd1na2vs0mg"},{"bike_id":"b66c8a7c-98ac-480c-a383-f54813a2d5aa","system_id":"levelo_inurba_marseille","lat":43.25821,"lon":5.39415,"is_reserved":false,"is_disabled":false,"rental_uris":{"android":"levelo://app?vid=b66c8a7c-98ac-480c-a383-f54813a2d5aa","ios":"levelo://app?vid=b66c8a7c-98ac-480c-a383-f54813a2d5aa"},"vehicle_type_id":"4","last_reported":1737022178,"current_range_meters":38800,"station_id":"ce4bhip2rcd13ifvqft0","pricing_plan_id":"cebpf4jnsgd1na2vs0mg"},{"bike_id":"e17b6980-3f7c-4d79-b8d3-f4bf7717c3e6","system_id":"levelo_inurba_marseille","lat":43.24705,"lon":5.38152,"is_reserved":false,"is_disabled":false,"rental_uris":{"android":"levelo://app?vid=e17b6980-3f7c-4d79-b8d3-f4bf7717c3e6","ios":"levelo://app?vid=e17b6980-3f7c-4d79-b8d3-f4bf7717c3e6"},"vehicle_type_id":"4","last_reported":1737022178,"current_range_meters":22800,"station_id":"ce4bhih2rcd13ifvqfr0","pricing_plan_id":"cebpf4jnsgd1na2vs0mg"},{"bike_id":"ccfe53f0-8dfd-4f5f-b4c7-b77b106d12b3","system_id":"levelo_inurba_marseille","lat":43.24681,"lon":5.38163,"is_reserved":false,"is_disabled":false,"rental_uris":{"android":"levelo://app?vid=ccfe53f0-8dfd-4f5f-b4c7-b77b106d12b3","ios":"levelo://app?vid=ccfe53f0-8dfd-4f5f-b4c7-b77b106d12b3"},"vehicle_type_id":"4","last_reported":1737022178,"current_range_meters":38800,"station_id":"ce4bhih2rcd13ifvqfr0","pricing_plan_id":"cebpf4jnsgd1na2vs0mg"},{"bike_id":"f502b863-3e0c-43df-b90d-ca375f733852","system_id":"levelo_inurba_marseille","lat":43.30549,"lon":5.36563,"is_reserved":false,"is_disabled":false,"rental_uris":{"android":"levelo://app?vid=f502b863-3e0c-43df-b90d-ca375f733852","ios":"levelo://app?vid=f502b863-3e0c-43df-b90d-ca375f733852"},"vehicle_type_id":"4","last_reported":1737022178,"current_range_meters":19600,"station_id":"ce4bgs12rcd13ifvqcag","pricing_plan_id":"cebpf4jnsgd1na2vs0mg"},{"bike_id":"6ce1567f-2b20-42d1-80d2-0abf181b2c5d","system_id":"levelo_inurba_marseille","lat":43.29062,"lon":5.37994,"is_reserved":false,"is_disabled":false,"rental_uris":{"android":"levelo://app?vid=6ce1567f-2b20-42d1-80d2-0abf181b2c5d","ios":"levelo://app?vid=6ce1567f-2b20-42d1-80d2-0abf181b2c5d"},"vehicle_type_id":"4","last_reported":1737022178,"current_range_meters":32000,"station_id":"","pricing_plan_id":"cebpf4jnsgd1na2vs0mg"},{"bike_id":"e80f9e53-2ace-4679-954c-10c31532cfa5","system_id":"levelo_inurba_marseille","lat":43.24083,"lon":5.37749,"is_reserved":false,"is_disabled":false,"rental_uris":{"android":"levelo://app?vid=e80f9e53-2ace-4679-954c-10c31532cfa5","ios":"levelo://app?vid=e80f9e53-2ace-4679-954c-10c31532cfa5"},"vehicle_type_id":"4","last_reported":1737022178,"current_range_meters":27600,"station_id":"ce4bhnp2rcd13ifvqgvg","pricing_plan_id":"cebpf4jnsgd1na2vs0mg"},{"bike_id":"dfa82dd5-ef08-4ffd-9d8f-0029ad66c886","system_id":"levelo_inurba_marseille","lat":43.26569,"lon":5.39019,"is_reserved":false,"is_disabled":false,"rental_uris":{"android":"levelo://app?vid=dfa82dd5-ef08-4ffd-9d8f-0029ad66c886","ios":"levelo://app?vid=dfa82dd5-ef08-4ffd-9d8f-0029ad66c886"},"vehicle_type_id":"4","last_reported":1737022178,"current_range_meters":23200,"station_id":"ce4bhe12rcd13ifvqf30","pricing_plan_id":"cebpf4jnsgd1na2vs0mg"},{"bike_id":"0b63f676-b98b-409b-ab55-aa70c557f731","system_id":"levelo_inurba_marseille","lat":43.28969,"lon":5.37856,"is_reserved":false,"is_disabled":false,"rental_uris":{"android":"levelo://app?vid=0b63f676-b98b-409b-ab55-aa70c557f731","ios":"levelo://app?vid=0b63f676-b98b-409b-ab55-aa70c557f731"},"vehicle_type_id":"4","last_reported":1737022178,"current_range_meters":34800,"station_id":"ce4bh9p2rcd13ifvqed0","pricing_plan_id":"cebpf4jnsgd1na2vs0mg"},{"bike_id":"c101e9d6-6586-4057-bcf2-225072af234f","system_id":"levelo_inurba_marseille","lat":43.30864,"lon":5.37213,"is_reserved":false,"is_disabled":false,"rental_uris":{"android":"levelo://app?vid=c101e9d6-6586-4057-bcf2-225072af234f","ios":"levelo://app?vid=c101e9d6-6586-4057-bcf2-225072af234f"},"vehicle_type_id":"4","last_reported":1737022178,"current_range_meters":28800,"station_id":"","pricing_plan_id":"cebpf4jnsgd1na2vs0mg"},{"bike_id":"c3add43b-bf52-4193-b880-0d78478473f5","system_id":"levelo_inurba_marseille","lat":43.23192,"lon":5.35567,"is_reserved":false,"is_disabled":false,"rental_uris":{"android":"levelo://app?vid=c3add43b-bf52-4193-b880-0d78478473f5","ios":"levelo://app?vid=c3add43b-bf52-4193-b880-0d78478473f5"},"vehicle_type_id":"4","last_reported":1737022178,"current_range_meters":35200,"station_id":"ce4bhu92rcd13ifvqi70","pricing_plan_id":"cebpf4jnsgd1na2vs0mg"},{"bike_id":"24170ccc-3bf5-420f-8934-aaa38745f2ac","system_id":"levelo_inurba_marseille","lat":43.27494,"lon":5.42451,"is_reserved":false,"is_disabled":true,"rental_uris":{"android":"levelo://app?vid=24170ccc-3bf5-420f-8934-aaa38745f2ac","ios":"levelo://app?vid=24170ccc-3bf5-420f-8934-aaa38745f2ac"},"vehicle_type_id":"4","last_reported":1737022178,"current_range_meters":0,"station_id":"ce4bhn92rcd13ifvqgrg","pricing_plan_id":"cebpf4jnsgd1na2vs0mg"},{"bike_id":"5d48a0a6-c1d7-4848-98aa-39b09efe2a2a","system_id":"levelo_inurba_marseille","lat":43.30136,"lon":5.37403,"is_reserved":false,"is_disabled":false,"rental_uris":{"android":"levelo://app?vid=5d48a0a6-c1d7-4848-98aa-39b09efe2a2a","ios":"levelo://app?vid=5d48a0a6-c1d7-4848-98aa-39b09efe2a2a"},"vehicle_type_id":"4","last_reported":1737022178,"current_range_meters":8000,"station_id":"ce4bgs92rcd13ifvqcc0","pricing_plan_id":"cebpf4jnsgd1na2vs0mg"},{"bike_id":"cdaad3f4-277a-4f8c-98ff-d90d4eb032cc","system_id":"levelo_inurba_marseille","lat":43.31219,"lon":5.36857,"is_reserved":false,"is_disabled":false,"rental_uris":{"android":"levelo://app?vid=cdaad3f4-277a-4f8c-98ff-d90d4eb032cc","ios":"levelo://app?vid=cdaad3f4-277a-4f8c-98ff-d90d4eb032cc"},"vehicle_type_id":"4","last_reported":1737022178,"current_range_meters":10800,"station_id":"ce4bgl92rcd13ifvqbq0","pricing_plan_id":"cebpf4jnsgd1na2vs0mg"},{"bike_id":"5565ba63-8c08-4156-ad24-a446e77f076d","system_id":"levelo_inurba_marseille","lat":43.25507,"lon":5.37649,"is_reserved":false,"is_disabled":false,"rental_uris":{"android":"levelo://app?vid=5565ba63-8c08-4156-ad24-a446e77f076d","ios":"levelo://app?vid=5565ba63-8c08-4156-ad24-a446e77f076d"},"vehicle_type_id":"4","last_reported":1737022178,"current_range_meters":35600,"station_id":"ce4bhh12rcd13ifvqff0","pricing_plan_id":"cebpf4jnsgd1na2vs0mg"},{"bike_id":"4ae5cf8c-749c-469c-9df4-d134cf204ff4","system_id":"levelo_inurba_marseille","lat":43.24082,"lon":5.37761,"is_reserved":false,"is_disabled":false,"rental_uris":{"android":"levelo://app?vid=4ae5cf8c-749c-469c-9df4-d134cf204ff4","ios":"levelo://app?vid=4ae5cf8c-749c-469c-9df4-d134cf204ff4"},"vehicle_type_id":"4","last_reported":1737022178,"current_range_meters":28400,"station_id":"ce4bhnp2rcd13ifvqgvg","pricing_plan_id":"cebpf4jnsgd1na2vs0mg"},{"bike_id":"3677afbf-68f9-4979-899f-7e1aaf00ce96","system_id":"levelo_inurba_marseille","lat":43.27949,"lon":5.41059,"is_reserved":false,"is_disabled":true,"rental_uris":{"android":"levelo://app?vid=3677afbf-68f9-4979-899f-7e1aaf00ce96","ios":"levelo://app?vid=3677afbf-68f9-4979-899f-7e1aaf00ce96"},"vehicle_type_id":"4","last_reported":1737022178,"current_range_meters":28400,"station_id":"ce4bhnp2rcd13ifvqh0g","pricing_plan_id":"cebpf4jnsgd1na2vs0mg"},{"bike_id":"e1f9a0b5-1419-4e67-ab24-a72ee45dfd85","system_id":"levelo_inurba_marseille","lat":43.24166,"lon":5.36404,"is_reserved":false,"is_disabled":false,"rental_uris":{"android":"levelo://app?vid=e1f9a0b5-1419-4e67-ab24-a72ee45dfd85","ios":"levelo://app?vid=e1f9a0b5-1419-4e67-ab24-a72ee45dfd85"},"vehicle_type_id":"4","last_reported":1737022178,"current_range_meters":22000,"station_id":"cpo36qri1sfpv3e86is0","pricing_plan_id":"cebpf4jnsgd1na2vs0mg"},{"bike_id":"e14fe674-d6e2-440f-88d5-ccc7cbea8f91","system_id":"levelo_inurba_marseille","lat":43.27489,"lon":5.42466,"is_reserved":false,"is_disabled":false,"rental_uris":{"android":"levelo://app?vid=e14fe674-d6e2-440f-88d5-ccc7cbea8f91","ios":"levelo://app?vid=e14fe674-d6e2-440f-88d5-ccc7cbea8f91"},"vehicle_type_id":"4","last_reported":1737022178,"current_range_meters":28400,"station_id":"ce4bhn92rcd13ifvqgrg","pricing_plan_id":"cebpf4jnsgd1na2vs0mg"},{"bike_id":"93bc7e9d-3047-482e-a396-1037e95fe874","system_id":"levelo_inurba_marseille","lat":43.32307,"lon":5.38301,"is_reserved":false,"is_disabled":false,"rental_uris":{"android":"levelo://app?vid=93bc7e9d-3047-482e-a396-1037e95fe874","ios":"levelo://app?vid=93bc7e9d-3047-482e-a396-1037e95fe874"},"vehicle_type_id":"4","last_reported":1737022178,"current_range_meters":18000,"station_id":"ce4bhr12rcd13ifvqhqg","pricing_plan_id":"cebpf4jnsgd1na2vs0mg"},{"bike_id":"1f0594a4-3ffd-4d41-80fb-d6812ea0d488","system_id":"levelo_inurba_marseille","lat":43.32456,"lon":5.3656,"is_reserved":false,"is_disabled":false,"rental_uris":{"android":"levelo://app?vid=1f0594a4-3ffd-4d41-80fb-d6812ea0d488","ios":"levelo://app?vid=1f0594a4-3ffd-4d41-80fb-d6812ea0d488"},"vehicle_type_id":"4","last_reported":1737022178,"current_range_meters":24400,"station_id":"ce4bhs12rcd13ifvqhvg","pricing_plan_id":"cebpf4jnsgd1na2vs0mg"},{"bike_id":"f7a93299-4b31-44c2-976e-82f7878bc418","system_id":"levelo_inurba_marseille","lat":43.25481,"lon":5.37677,"is_reserved":false,"is_disabled":false,"rental_uris":{"android":"levelo://app?vid=f7a93299-4b31-44c2-976e-82f7878bc418","ios":"levelo://app?vid=f7a93299-4b31-44c2-976e-82f7878bc418"},"vehicle_type_id":"4","last_reported":1737022178,"current_range_meters":38800,"station_id":"ce4bhh12rcd13ifvqff0","pricing_plan_id":"cebpf4jnsgd1na2vs0mg"},{"bike_id":"aa5977eb-3269-4df3-b107-6a9ca59acb18","system_id":"levelo_inurba_marseille","lat":43.2835,"lon":5.38115,"is_reserved":false,"is_disabled":false,"rental_uris":{"android":"levelo://app?vid=aa5977eb-3269-4df3-b107-6a9ca59acb18","ios":"levelo://app?vid=aa5977eb-3269-4df3-b107-6a9ca59acb18"},"vehicle_type_id":"4","last_reported":1737022178,"current_range_meters":20400,"station_id":"ce4bh412rcd13ifvqdr0","pricing_plan_id":"cebpf4jnsgd1na2vs0mg"},{"bike_id":"31f00ed0-b0ca-427a-9039-ac29c940ea2c","system_id":"levelo_inurba_marseille","lat":43.23184,"lon":5.35573,"is_reserved":false,"is_disabled":false,"rental_uris":{"android":"levelo://app?vid=31f00ed0-b0ca-427a-9039-ac29c940ea2c","ios":"levelo://app?vid=31f00ed0-b0ca-427a-9039-ac29c940ea2c"},"vehicle_type_id":"4","last_reported":1737022178,"current_range_meters":19600,"station_id":"ce4bhu92rcd13ifvqi70","pricing_plan_id":"cebpf4jnsgd1na2vs0mg"},{"bike_id":"186148b5-7eaa-47ac-a8e1-dd900de40200","system_id":"levelo_inurba_marseille","lat":43.29703,"lon":5.37701,"is_reserved":false,"is_disabled":false,"rental_uris":{"android":"levelo://app?vid=186148b5-7eaa-47ac-a8e1-dd900de40200","ios":"levelo://app?vid=186148b5-7eaa-47ac-a8e1-dd900de40200"},"vehicle_type_id":"4","last_reported":1737022178,"current_range_meters":37600,"station_id":"ce4bgkh2rcd13ifvqbl0","pricing_plan_id":"cebpf4jnsgd1na2vs0mg"},{"bike_id":"fc0fba9a-52e3-4564-ac9d-ade21d828db4","system_id":"levelo_inurba_marseille","lat":43.26791,"lon":5.39413,"is_reserved":false,"is_disabled":false,"rental_uris":{"android":"levelo://app?vid=fc0fba9a-52e3-4564-ac9d-ade21d828db4","ios":"levelo://app?vid=fc0fba9a-52e3-4564-ac9d-ade21d828db4"},"vehicle_type_id":"4","last_reported":1737022178,"current_range_meters":38800,"station_id":"ce4bhh12rcd13ifvqfg0","pricing_plan_id":"cebpf4jnsgd1na2vs0mg"},{"bike_id":"f4f9016c-8c85-4d85-a48f-08592c344b92","system_id":"levelo_inurba_marseille","lat":43.33768,"lon":5.3743,"is_reserved":false,"is_disabled":false,"rental_uris":{"android":"levelo://app?vid=f4f9016c-8c85-4d85-a48f-08592c344b92","ios":"levelo://app?vid=f4f9016c-8c85-4d85-a48f-08592c344b92"},"vehicle_type_id":"4","last_reported":1737022178,"current_range_meters":36800,"station_id":"","pricing_plan_id":"cebpf4jnsgd1na2vs0mg"},{"bike_id":"8ccdb8e3-5350-4cab-8a81-1bd6181a6c06","system_id":"levelo_inurba_marseille","lat":43.23173,"lon":5.35585,"is_reserved":false,"is_disabled":false,"rental_uris":{"android":"levelo://app?vid=8ccdb8e3-5350-4cab-8a81-1bd6181a6c06","ios":"levelo://app?vid=8ccdb8e3-5350-4cab-8a81-1bd6181a6c06"},"vehicle_type_id":"4","last_reported":1737022178,"current_range_meters":30400,"station_id":"ce4bhu92rcd13ifvqi70","pricing_plan_id":"cebpf4jnsgd1na2vs0mg"},{"bike_id":"bdf48d39-671d-4935-85fe-4c0ef8237f4f","system_id":"levelo_inurba_marseille","lat":43.29603,"lon":5.3809,"is_reserved":false,"is_disabled":false,"rental_uris":{"android":"levelo://app?vid=bdf48d39-671d-4935-85fe-4c0ef8237f4f","ios":"levelo://app?vid=bdf48d39-671d-4935-85fe-4c0ef8237f4f"},"vehicle_type_id":"4","last_reported":1737022178,"current_range_meters":28400,"station_id":"ce4bgl12rcd13ifvqbo0","pricing_plan_id":"cebpf4jnsgd1na2vs0mg"},{"bike_id":"500b8658-baf5-4bce-b6fe-d831d0682564","system_id":"levelo_inurba_marseille","lat":43.29621,"lon":5.37171,"is_reserved":false,"is_disabled":false,"rental_uris":{"android":"levelo://app?vid=500b8658-baf5-4bce-b6fe-d831d0682564","ios":"levelo://app?vid=500b8658-baf5-4bce-b6fe-d831d0682564"},"vehicle_type_id":"4","last_reported":1737022178,"current_range_meters":24800,"station_id":"ce4bgnh2rcd13ifvqc0g","pricing_plan_id":"cebpf4jnsgd1na2vs0mg"},{"bike_id":"b8785224-7deb-4578-98d9-cb5f108e380c","system_id":"levelo_inurba_marseille","lat":43.3361,"lon":5.4103,"is_reserved":false,"is_disabled":false,"rental_uris":{"android":"levelo://app?vid=b8785224-7deb-4578-98d9-cb5f108e380c","ios":"levelo://app?vid=b8785224-7deb-4578-98d9-cb5f108e380c"},"vehicle_type_id":"4","last_reported":1737022178,"current_range_meters":17200,"station_id":"ce4bhqh2rcd13ifvqhmg","pricing_plan_id":"cebpf4jnsgd1na2vs0mg"},{"bike_id":"f5863b18-13a1-4c6e-92de-5668ea912ad3","system_id":"levelo_inurba_marseille","lat":43.26218,"lon":5.40458,"is_reserved":false,"is_disabled":false,"rental_uris":{"android":"levelo://app?vid=f5863b18-13a1-4c6e-92de-5668ea912ad3","ios":"levelo://app?vid=f5863b18-13a1-4c6e-92de-5668ea912ad3"},"vehicle_type_id":"4","last_reported":1737022178,"current_range_meters":3200,"station_id":"","pricing_plan_id":"cebpf4jnsgd1na2vs0mg"},{"bike_id":"a8fad254-19bb-48fe-801d-9e93d4767cef","system_id":"levelo_inurba_marseille","lat":43.31433,"lon":5.37416,"is_reserved":false,"is_disabled":false,"rental_uris":{"android":"levelo://app?vid=a8fad254-19bb-48fe-801d-9e93d4767cef","ios":"levelo://app?vid=a8fad254-19bb-48fe-801d-9e93d4767cef"},"vehicle_type_id":"4","last_reported":1737022178,"current_range_meters":3600,"station_id":"","pricing_plan_id":"cebpf4jnsgd1na2vs0mg"},{"bike_id":"4f80b95a-af01-475b-97c0-2f920f8b927c","system_id":"levelo_inurba_marseille","lat":43.34151,"lon":5.40927,"is_reserved":false,"is_disabled":false,"rental_uris":{"android":"levelo://app?vid=4f80b95a-af01-475b-97c0-2f920f8b927c","ios":"levelo://app?vid=4f80b95a-af01-475b-97c0-2f920f8b927c"},"vehicle_type_id":"4","last_reported":1737022178,"current_range_meters":38000,"station_id":"ce4bhqh2rcd13ifvqhlg","pricing_plan_id":"cebpf4jnsgd1na2vs0mg"},{"bike_id":"bfa7c7e2-c2ac-492a-abbc-ab253b1d02d4","system_id":"levelo_inurba_marseille","lat":43.31336,"lon":5.36738,"is_reserved":false,"is_disabled":false,"rental_uris":{"android":"levelo://app?vid=bfa7c7e2-c2ac-492a-abbc-ab253b1d02d4","ios":"levelo://app?vid=bfa7c7e2-c2ac-492a-abbc-ab253b1d02d4"},"vehicle_type_id":"4","last_reported":1737022178,"current_range_meters":38800,"station_id":"ce4bgr92rcd13ifvqc6g","pricing_plan_id":"cebpf4jnsgd1na2vs0mg"},