{"last_updated":1747041117,"ttl":60,"version":"2.2","data":{"bikes":[{"bike_id":"07a116b9-83be-4e3b-a37c-8fd78bb8da13","system_id":"levelo_inurba_marseille","lat":43.25892,"lon":5.40882,"is_reserved":false,"is_disabled":false,"rental_uris":{"android":"levelo://app?vid=07a116b9-83be-4e3b-a37c-8fd78bb8da13","ios":"levelo://app?vid=07a116b9-83be-4e3b-a37c-8fd78bb8da13"},"vehicle_type_id":"4","last_reported":1747041117,"current_range_meters":2800,"station_id":"ce4bhm92rcd13ifvqglg","pricing_plan_id":"cebpf4jnsgd1na2vs0mg"},{"bike_id":"24b6d1ff-bb63-4eb5-847a-15c88c9b819f","system_id":"levelo_inurba_marseille","lat":43.26685,"lon":5.38274,"is_reserved":false,"is_disabled":false,"rental_uris":{"android":"levelo://app?vid=24b6d1ff-bb63-4eb5-847a-15c88c9b819f","ios":"levelo://app?vid=24b6d1ff-bb63-4eb5-847a-15c88c9b819f"},"vehicle_type_id":"4","last_reported":1747041117,"current_range_meters":3200,"station_id":"ce4bhg92rcd13ifvqf90","pricing_plan_id":"cebpf4jnsgd1na2vs0mg"},{"bike_id":"521797ff-6bb6-4dff-939a-7848f448f27d","system_id":"levelo_inurba_marseille","lat":43.3054,"lon":5.36562,"is_reserved":false,"is_disabled":false,"rental_uris":{"android":"levelo://app?vid=521797ff-6bb6-4dff-939a-7848f448f27d","ios":"levelo://app?vid=521797ff-6bb6-4dff-939a-7848f448f27d"},"vehicle_type_id":"4","last_reported":1747041117,"current_range_meters":3200,"station_id":"ce4bgs12rcd13ifvqcag","pricing_plan_id":"cebpf4jnsgd1na2vs0mg"},{"bike_id":"69f5be40-3f75-48a8-992a-27df5fbda2e9","system_id":"levelo_inurba_marseille","lat":43.30879,"lon":5.39638,"is_reserved":false,"is_disabled":false,"rental_uris":{"android":"levelo://app?vid=69f5be40-3f75-48a8-992a-27df5fbda2e9","ios":"levelo://app?vid=69f5be40-3f75-48a8-992a-27df5fbda2e9"},"vehicle_type_id":"4","last_reported":1747041117,"current_range_meters":3600,"station_id":"ce4bh012rcd13ifvqcv0","pricing_plan_id":"cebpf4jnsgd1na2vs0mg"},{"bike_id":"649d009d-919d-4111-9f32-851889a61878","system_id":"levelo_inurba_marseille","lat":43.2956,"lon":5.42255,"is_reserved":false,"is_disabled":false,"rental_uris":{"android":"levelo://app?vid=649d009d-919d-4111-9f32-851889a61878","ios":"levelo://app?vid=649d009d-919d-4111-9f32-851889a61878"},"vehicle_type_id":"4","last_reported":1747041117,"current_range_meters":3600,"station_id":"ce4bhph2rcd13ifvqhdg","pricing_plan_id":"cebpf4jnsgd1na2vs0mg"},{"bike_id":"df59c068-7ad0-42aa-bd6f-33f625428146","system_id":"levelo_inurba_marseille","lat":43.27495,"lon":5.42445,"is_reserved":false,"is_disabled":false,"rental_uris":{"android":"levelo://app?vid=df59c068-7ad0-42aa-bd6f-33f625428146","ios":"levelo://app?vid=df59c068-7ad0-42aa-bd6f-33f625428146"},"vehicle_type_id":"4","last_reported":1747041117,"current_range_meters":3600,"station_id":"ce4bhn92rcd13ifvqgrg","pricing_plan_id":"cebpf4jnsgd1na2vs0mg"},{"bike_id":"af37c181-9026-49df-a0ea-13007a6129cf","system_id":"levelo_inurba_marseille","lat":43.24171,"lon":5.39701,"is_reserved":false,"is_disabled":false,"rental_uris":{"android":"levelo://app?vid=af37c181-9026-49df-a0ea-13007a6129cf","ios":"levelo://app?vid=af37c181-9026-49df-a0ea-13007a6129cf"},"vehicle_type_id":"4","last_reported":1747041117,"current_range_meters":4000,"station_id":"ce4bhn12rcd13ifvqgpg","pricing_plan_id":"cebpf4jnsgd1na2vs0mg"},{"bike_id":"f1f47090-376e-489a-b9ad-7bf5f4813c6a","system_id":"levelo_inurba_marseille","lat":43.297446,"lon":5.376406,"is_reserved":false,"is_disabled":true,"rental_uris":{"android":"levelo://app?vid=f1f47090-376e-489a-b9ad-7bf5f4813c6a","ios":"levelo://app?vid=f1f47090-376e-489a-b9ad-7bf5f4813c6a"},"vehicle_type_id":"4","last_reported":1747041117,"current_range_meters":4000,"station_id":"","pricing_plan_id":"cebpf4jnsgd1na2vs0mg"},{"bike_id":"555b487c-3754-44bc-b7b6-f4ed7173d8c3","system_id":"levelo_inurba_marseille","lat":43.28488,"lon":5.38416,"is_reserved":false,"is_disabled":false,"rental_uris":{"android":"levelo://app?vid=555b487c-3754-44bc-b7b6-f4ed7173d8c3","ios":"levelo://app?vid=555b487c-3754-44bc-b7b6-f4ed7173d8c3"},"vehicle_type_id":"4","last_reported":1747041117,"current_range_meters":5600,"station_id":"ce4bh512rcd13ifvqe3g","pricing_plan_id":"cebpf4jnsgd1na2vs0mg"},{"bike_id":"f1babaf2-e271-4829-87cd-3ce430962757","system_id":"levelo_inurba_marseille","lat":43.306892,"lon":5.375084,"is_reserved":false,"is_disabled":false,"rental_uris":{"android":"levelo://app?vid=f1babaf2-e271-4829-87cd-3ce430962757","ios":"levelo://app?vid=f1babaf2-e271-4829-87cd-3ce430962757"},"vehicle_type_id":"4","last_reported":1747041117,"current_range_meters":8800,"station_id":"ce4bgv92rcd13ifvqcq0","pricing_plan_id":"cebpf4jnsgd1na2vs0mg"},{"bike_id":"8fcecb2c-9448-4339-9a6a-19f79482cffb","system_id":"levelo_inurba_marseille","lat":43.24093,"lon":5.37755,"is_reserved":false,"is_disabled":false,"rental_uris":{"android":"levelo://app?vid=8fcecb2c-9448-4339-9a6a-19f79482cffb","ios":"levelo://app?vid=8fcecb2c-9448-4339-9a6a-19f79482cffb"},"vehicle_type_id":"4","last_reported":1747041117,"current_range_meters":5600,"station_id":"ce4bhnp2rcd13ifvqgvg","pricing_plan_id":"cebpf4jnsgd1na2vs0mg"},{"bike_id":"fc2577e7-1497-425b-9d4f-ab8d7dc843c6","system_id":"levelo_inurba_marseille","lat":43.33771,"lon":5.37485,"is_reserved":false,"is_disabled":false,"rental_uris":{"android":"levelo://app?vid=fc2577e7-1497-425b-9d4f-ab8d7dc843c6","ios":"levelo://app?vid=fc2577e7-1497-425b-9d4f-ab8d7dc843c6"},"vehicle_type_id":"4","last_reported":1747041117,"current_range_meters":6400,"station_id":"","pricing_plan_id":"cebpf4jnsgd1na2vs0mg"},{"bike_id":"9cdca753-7ede-47bc-bd42-6aac9094a2a9","system_id":"levelo_inurba_marseille","lat":43.30335,"lon":5.41892,"is_reserved":false,"is_disabled":false,"rental_uris":{"android":"levelo://app?vid=9cdca753-7ede-47bc-bd42-6aac9094a2a9","ios":"levelo://app?vid=9cdca753-7ede-47bc-bd42-6aac9094a2a9"},"vehicle_type_id":"4","last_reported":1747041117,"current_range_meters":6400,"station_id":"ce4bhop2rcd13ifvqh7g","pricing_plan_id":"cebpf4jnsgd1na2vs0mg"},{"bike_id":"63bdd50a-b728-4d10-9320-dbc9bfa5973f","system_id":"levelo_inurba_marseille","lat":43.27063,"lon":5.42283,"is_reserved":false,"is_disabled":false,"rental_uris":{"android":"levelo://app?vid=63bdd50a-b728-4d10-9320-dbc9bfa5973f","ios":"levelo://app?vid=63bdd50a-b728-4d10-9320-dbc9bfa5973f"},"vehicle_type_id":"4","last_reported":1747041117,"current_range_meters":6800,"station_id":"ce4bhk92rcd13ifvqgb0","pricing_plan_id":"cebpf4jnsgd1na2vs0mg"},{"bike_id":"cfc17815-86ee-444c-a14e-53c91e445963","system_id":"levelo_inurba_marseille","lat":43.26184,"lon":5.40425,"is_reserved":false,"is_disabled":false,"rental_uris":{"android":"levelo://app?vid=cfc17815-86ee-444c-a14e-53c91e445963","ios":"levelo://app?vid=cfc17815-86ee-444c-a14e-53c91e445963"},"vehicle_type_id":"4","last_reported":1747041117,"current_range_meters":7200,"station_id":"ce4bhmh2rcd13ifvqgmg","pricing_plan_id":"cebpf4jnsgd1na2vs0mg"},{"bike_id":"910f58e1-bc11-4d4a-be16-a826726f8216","system_id":"levelo_inurba_marseille","lat":43.290429,"lon":5.359151,"is_reserved":false,"is_disabled":true,"rental_uris":{"android":"levelo://app?vid=910f58e1-bc11-4d4a-be16-a826726f8216","ios":"levelo://app?vid=910f58e1-bc11-4d4a-be16-a826726f8216"},"vehicle_type_id":"4","last_reported":1747041117,"current_range_meters":7200,"station_id":"ce4bha92rcd13ifvqeg0","pricing_plan_id":"cebpf4jnsgd1na2vs0mg"},{"bike_id":"a709c096-19a6-423a-ad85-f5169b2557a1","system_id":"levelo_inurba_marseille","lat":43.27075,"lon":5.42283,"is_reserved":false,"is_disabled":false,"rental_uris":{"android":"levelo://app?vid=a709c096-19a6-423a-ad85-f5169b2557a1","ios":"levelo://app?vid=a709c096-19a6-423a-ad85-f5169b2557a1"},"vehicle_type_id":"4","last_reported":1747041117,"current_range_meters":7200,"station_id":"ce4bhk92rcd13ifvqgb0","pricing_plan_id":"cebpf4jnsgd1na2vs0mg"},{"bike_id":"452ba7ca-dc67-4281-9f6b-84ef95399e94","system_id":"levelo_inurba_marseille","lat":43.30947,"lon":5.39024,"is_reserved":false,"is_disabled":false,"rental_uris":{"android":"levelo://app?vid=452ba7ca-dc67-4281-9f6b-84ef95399e94","ios":"levelo://app?vid=452ba7ca-dc67-4281-9f6b-84ef95399e94"},"vehicle_type_id":"4","last_reported":1747041117,"current_range_meters":8800,"station_id":"ce4bgup2rcd13ifvqco0","pricing_plan_id":"cebpf4jnsgd1na2vs0mg"},{"bike_id":"5db1bdc7-0488-4962-8cfe-c518eabb593d","system_id":"levelo_inurba_marseille","lat":43.30884,"lon":5.39651,"is_reserved":false,"is_disabled":false,"rental_uris":{"android":"levelo://app?vid=5db1bdc7-0488-4962-8cfe-c518eabb593d","ios":"levelo://app?vid=5db1bdc7-0488-4962-8cfe-c518eabb593d"},"vehicle_type_id":"4","last_reported":1747041117,"current_range_meters":7200,"station_id":"ce4bh012rcd13ifvqcv0","pricing_plan_id":"cebpf4jnsgd1na2vs0mg"},{"bike_id":"673879ad-2062-460c-8d8c-5633441c076d","system_id":"levelo_inurba_marseille","lat":43.29809,"lon":5.37105,"is_reserved":false,"is_disabled":false,"rental_uris":{"android":"levelo://app?vid=673879ad-2062-460c-8d8c-5633441c076d","ios":"levelo://app?vid=673879ad-2062-460c-8d8c-5633441c076d"},"vehicle_type_id":"4","last_reported":1747041117,"current_range_meters":8000,"station_id":"ce4bgop2rcd13ifvqc1g","pricing_plan_id":"cebpf4jnsgd1na2vs0mg"},{"bike_id":"38fd2285-da0e-4f6a-be1d-f6c2112df572","system_id":"levelo_inurba_marseille","lat":43.286558,"lon":5.363447,"is_reserved":false,"is_disabled":true,"rental_uris":{"android":"levelo://app?vid=38fd2285-da0e-4f6a-be1d-f6c2112df572","ios":"levelo://app?vid=38fd2285-da0e-4f6a-be1d-f6c2112df572"},"vehicle_type_id":"4","last_reported":1747041117,"current_range_meters":8000,"station_id":"ce4bhah2rcd13ifvqej0","pricing_plan_id":"cebpf4jnsgd1na2vs0mg"},{"bike_id":"4b460be1-c693-4bb9-911d-ee0bb3e597f1","system_id":"levelo_inurba_marseille","lat":43.324815,"lon":5.365706,"is_reserved":false,"is_disabled":false,"rental_uris":{"android":"levelo://app?vid=4b460be1-c693-4bb9-911d-ee0bb3e597f1","ios":"levelo://app?vid=4b460be1-c693-4bb9-911d-ee0bb3e597f1"},"vehicle_type_id":"4","last_reported":1747041117,"current_range_meters":8400,"station_id":"ce4bhs12rcd13ifvqhvg","pricing_plan_id":"cebpf4jnsgd1na2vs0mg"},{"bike_id":"6663a384-abed-48bd-861f-d563c5fcecd4","system_id":"levelo_inurba_marseille","lat":43.284247,"lon":5.349871,"is_reserved":false,"is_disabled":true,"rental_uris":{"android":"levelo://app?vid=6663a384-abed-48bd-861f-d563c5fcecd4","ios":"levelo://app?vid=6663a384-abed-48bd-861f-d563c5fcecd4"},"vehicle_type_id":"4","last_reported":1747041117,"current_range_meters":8400,"station_id":"ce4bhbh2rcd13ifvqepg","pricing_plan_id":"cebpf4jnsgd1na2vs0mg"},{"bike_id":"0ae16d20-a1e7-41ef-876d-f95f6b5b97f0","system_id":"levelo_inurba_marseille","lat":43.274983,"lon":5.42451,"is_reserved":false,"is_disabled":false,"rental_uris":{"android":"levelo://app?vid=0ae16d20-a1e7-41ef-876d-f95f6b5b97f0","ios":"levelo://app?vid=0ae16d20-a1e7-41ef-876d-f95f6b5b97f0"},"vehicle_type_id":"4","last_reported":1747041117,"current_range_meters":8400,"station_id":"ce4bhn92rcd13ifvqgrg","pricing_plan_id":"cebpf4jnsgd1na2vs0mg"},{"bike_id":"1926bee1-a15b-49b3-8b0b-41a7c297fe4d","system_id":"levelo_inurba_marseille","lat":43.32482,"lon":5.36578,"is_reserved":false,"is_disabled":false,"rental_uris":{"android":"levelo://app?vid=1926bee1-a15b-49b3-8b0b-41a7c297fe4d","ios":"levelo://app?vid=1926bee1-a15b-49b3-8b0b-41a7c297fe4d"},"vehicle_type_id":"4","last_reported":1747041117,"current_range_meters":8400,"station_id":"ce4bhs12rcd13ifvqhvg","pricing_plan_id":"cebpf4jnsgd1na2vs0mg"},{"bike_id":"c337e303-564b-4d60-bf0e-97b1659e42bd","system_id":"levelo_inurba_marseille","lat":43.28616,"lon":5.35104,"is_reserved":false,"is_disabled":false,"rental_uris":{"android":"levelo://app?vid=c337e303-564b-4d60-bf0e-97b1659e42bd","ios":"levelo://app?vid=c337e303-564b-4d60-bf0e-97b1659e42bd"},"vehicle_type_id":"4","last_reported":1747041117,"current_range_meters":8400,"station_id":"ce4bhch2rcd13ifvqeug","pricing_plan_id":"cebpf4jnsgd1na2vs0mg"},{"bike_id":"e66241ba-8c46-4d47-9172-29d4c5225ebe","system_id":"levelo_inurba_marseille","lat":43.24065,"lon":5.37776,"is_reserved":false,"is_disabled":false,"rental_uris":{"android":"levelo://app?vid=e66241ba-8c46-4d47-9172-29d4c5225ebe","ios":"levelo://app?vid=e66241ba-8c46-4d47-9172-29d4c5225ebe"},"vehicle_type_id":"4","last_reported":1747041117,"current_range_meters":8800,"station_id":"ce4bhnp2rcd13ifvqgvg","pricing_plan_id":"cebpf4jnsgd1na2vs0mg"},{"bike_id":"e0372e11-e2d7-499e-bc01-d37180083c7d","system_id":"levelo_inurba_marseille","lat":43.32357,"lon":5.36761,"is_reserved":false,"is_disabled":false,"rental_uris":{"android":"levelo://app?vid=e0372e11-e2d7-499e-bc01-d37180083c7d","ios":"levelo://app?vid=e0372e11-e2d7-499e-bc01-d37180083c7d"},"vehicle_type_id":"4","last_reported":1747041117,"current_range_meters":8800,"station_id":"ce4bhsh2rcd13ifvqi2g","pricing_plan_id":"cebpf4jnsgd1na2vs0mg"},{"bike_id":"51eb8992-525a-4dcd-a5ad-837578809050","system_id":"levelo_inurba_marseille","lat":43.32545,"lon":5.41437,"is_reserved":false,"is_disabled":false,"rental_uris":{"android":"levelo://app?vid=51eb8992-525a-4dcd-a5ad-837578809050","ios":"levelo://app?vid=51eb8992-525a-4dcd-a5ad-837578809050"},"vehicle_type_id":"4","last_reported":1747041117,"current_range_meters":8800,"station_id":"ce4bhq12rcd13ifvqhhg","pricing_plan_id":"cebpf4jnsgd1na2vs0mg"},{"bike_id":"30b8e52c-96e6-4e42-9ec8-74730ccbe6d8","system_id":"levelo_inurba_marseille","lat":43.29893,"lon":5.36257,"is_reserved":false,"is_disabled":false,"rental_uris":{"android":"levelo://app?vid=30b8e52c-96e6-4e42-9ec8-74730ccbe6d8","ios":"levelo://app?vid=30b8e52c-96e6-4e42-9ec8-74730ccbe6d8"},"vehicle_type_id":"4","last_reported":1747041117,"current_range_meters":8800,"station_id":"","pricing_plan_id":"cebpf4jnsgd1na2vs0mg"},{"bike_id":"32f607e3-86f4-4b83-a00e-3860ca594338","system_id":"levelo_inurba_marseille","lat":43.317179,"lon":5.42392,"is_reserved":false,"is_disabled":false,"rental_uris":{"android":"levelo://app?vid=32f607e3-86f4-4b83-a00e-3860ca594338","ios":"levelo://app?vid=32f607e3-86f4-4b83-a00e-3860ca594338"},"vehicle_type_id":"4","last_reported":1747041117,"current_range_meters":9200,"station_id":"ce4bhp92rcd13ifvqhbg","pricing_plan_id":"cebpf4jnsgd1na2vs0mg"},{"bike_id":"a469cc49-0a52-48d5-a8f9-419b2b4f9c33","system_id":"levelo_inurba_marseille","lat":43.29096,"lon":5.38126,"is_reserved":false,"is_disabled":false,"rental_uris":{"android":"levelo://app?vid=a469cc49-0a52-48d5-a8f9-419b2b4f9c33","ios":"levelo://app?vid=a469cc49-0a52-48d5-a8f9-419b2b4f9c33"},"vehicle_type_id":"4","last_reported":1747041117,"current_range_meters":9200,"station_id":"ce4bh512rcd13ifvqe2g","pricing_plan_id":"cebpf4jnsgd1na2vs0mg"},{"bike_id":"aab9279a-6902-4510-92ce-4e50b9425abe","system_id":"levelo_inurba_marseille","lat":43.29525,"lon":5.37525,"is_reserved":false,"is_disabled":false,"rental_uris":{"android":"levelo://app?vid=aab9279a-6902-4510-92ce-4e50b9425abe","ios":"levelo://app?vid=aab9279a-6902-4510-92ce-4e50b9425abe"},"vehicle_type_id":"4","last_reported":1747041117,"current_range_meters":9200,"station_id":"ce4bgkp2rcd13ifvqbmg","pricing_plan_id":"cebpf4jnsgd1na2vs0mg"},{"bike_id":"02b2ae6d-ada5-462e-b49a-c4c9de709f2c","system_id":"levelo_inurba_marseille","lat":43.31374,"lon":5.36712,"is_reserved":false,"is_disabled":false,"rental_uris":{"android":"levelo://app?vid=02b2ae6d-ada5-462e-b49a-c4c9de709f2c","ios":"levelo://app?vid=02b2ae6d-ada5-462e-b49a-c4c9de709f2c"},"vehicle_type_id":"4","last_reported":1747041117,"current_range_meters":9200,"station_id":"ce4bgr92rcd13ifvqc6g","pricing_plan_id":"cebpf4jnsgd1na2vs0mg"},{"bike_id":"492da5ca-695d-4b70-9e67-a4adbdc4a4b0","system_id":"levelo_inurba_marseille","lat":43.28415,"lon":5.34985,"is_reserved":false,"is_disabled":false,"rental_uris":{"android":"levelo://app?vid=492da5ca-695d-4b70-9e67-a4adbdc4a4b0","ios":"levelo://app?vid=492da5ca-695d-4b70-9e67-a4adbdc4a4b0"},"vehicle_type_id":"4","last_reported":1747041117,"current_range_meters":9200,"station_id":"ce4bhbh2rcd13ifvqepg","pricing_plan_id":"cebpf4jnsgd1na2vs0mg"},{"bike_id":"006ab30c-2cc3-4c51-b205-677bce8f0256","system_id":"levelo_inurba_marseille","lat":43.28427,"lon":5.34985,"is_reserved":false,"is_disabled":false,"rental_uris":{"android":"levelo://app?vid=006ab30c-2cc3-4c51-b205-677bce8f0256","ios":"levelo://app?vid=006ab30c-2cc3-4c51-b205-677bce8f0256"},"vehicle_type_id":"4","last_reported":1747041117,"current_range_meters":9200,"station_id":"ce4bhbh2rcd13ifvqepg","pricing_plan_id":"cebpf4jnsgd1na2vs0mg"},{"bike_id":"082c1f9f-4719-4cfe-b34a-37cfa3666b2e","system_id":"levelo_inurba_marseille","lat":43.28724,"lon":5.39975,"is_reserved":false,"is_disabled":true,"rental_uris":{"android":"levelo://app?vid=082c1f9f-4719-4cfe-b34a-37cfa3666b2e","ios":"levelo://app?vid=082c1f9f-4719-4cfe-b34a-37cfa3666b2e"},"vehicle_type_id":"4","last_reported":1747041117,"current_range_meters":9200,"station_id":"ce4bho92rcd13ifvqh3g","pricing_plan_id":"cebpf4jnsgd1na2vs0mg"},{"bike_id":"24fa0ea3-1d8d-480d-934b-66d97222646a","system_id":"levelo_inurba_marseille","lat":43.30955,"lon":5.39046,"is_reserved":false,"is_disabled":false,"rental_uris":{"android":"levelo://app?vid=24fa0ea3-1d8d-480d-934b-66d97222646a","ios":"levelo://app?vid=24fa0ea3-1d8d-480d-934b-66d97222646a"},"vehicle_type_id":"4","last_reported":1747041117,"current_range_meters":9600,"station_id":"ce4bgup2rcd13ifvqco0","pricing_plan_id":"cebpf4jnsgd1na2vs0mg"},{"bike_id":"888faf64-a4c0-4a63-abb9-f84eecc376b8","system_id":"levelo_inurba_marseille","lat":43.298536,"lon":5.362873,"is_reserved":false,"is_disabled":false,"rental_uris":{"android":"levelo://app?vid=888faf64-a4c0-4a63-abb9-f84eecc376b8","ios":"levelo://app?vid=888faf64-a4c0-4a63-abb9-f84eecc376b8"},"vehicle_type_id":"4","last_reported":1747041117,"current_range_meters":9600,"station_id":"ce4bgpp2rcd13ifvqc3g","pricing_plan_id":"cebpf4jnsgd1na2vs0mg"},{"bike_id":"4b8071f5-69a5-472c-8c01-3da02b499dbe","system_id":"levelo_inurba_marseille","lat":43.29281,"lon":5.36846,"is_reserved":false,"is_disabled":true,"rental_uris":{"android":"levelo://app?vid=4b8071f5-69a5-472c-8c01-3da02b499dbe","ios":"levelo://app?vid=4b8071f5-69a5-472c-8c01-3da02b499dbe"},"vehicle_type_id":"4","last_reported":1747041117,"current_range_meters":9600,"station_id":"ce4bhbp2rcd13ifvqesg","pricing_plan_id":"cebpf4jnsgd1na2vs0mg"},{"bike_id":"f5ea5731-adcf-434e-bb02-b6c06ee7246a","system_id":"levelo_inurba_marseille","lat":43.27936,"lon":5.41049,"is_reserved":false,"is_disabled":false,"rental_uris":{"android":"levelo://app?vid=f5ea5731-adcf-434e-bb02-b6c06ee7246a","ios":"levelo://app?vid=f5ea5731-adcf-434e-bb02-b6c06ee7246a"},"vehicle_type_id":"4","last_reported":1747041117,"current_range_meters":9600,"station_id":"ce4bhnp2rcd13ifvqh0g","pricing_plan_id":"cebpf4jnsgd1na2vs0mg"},{"bike_id":"6cf9cbd3-256e-4f75-9fa6-012a0bbb6d32","system_id":"levelo_inurba_marseille","lat":43.25868,"lon":5.39898,"is_reserved":false,"is_disabled":false,"rental_uris":{"android":"levelo://app?vid=6cf9cbd3-256e-4f75-9fa6-012a0bbb6d32","ios":"levelo://app?vid=6cf9cbd3-256e-4f75-9fa6-012a0bbb6d32"},"vehicle_type_id":"4","last_reported":1747041117,"current_range_meters":9600,"station_id":"ce4bhl92rcd13ifvqghg","pricing_plan_id":"cebpf4jnsgd1na2vs0mg"},{"bike_id":"4071bc6b-0376-4f46-b2a9-db87b2084a00","system_id":"levelo_inurba_marseille","lat":43.28273,"lon":5.35067,"is_reserved":false,"is_disabled":true,"rental_uris":{"android":"levelo://app?vid=4071bc6b-0376-4f46-b2a9-db87b2084a00","ios":"levelo://app?vid=4071bc6b-0376-4f46-b2a9-db87b2084a00"},"vehicle_type_id":"4","last_reported":1747041117,"current_range_meters":9600,"station_id":"ce4bhbp2rcd13ifvqerg","pricing_plan_id":"cebpf4jnsgd1na2vs0mg"},{"bike_id":"aba5618f-bb3e-4024-81c3-12b2cfaf7274","system_id":"levelo_inurba_marseille","lat":43.31484,"lon":5.37308,"is_reserved":false,"is_disabled":false,"rental_uris":{"android":"levelo://app?vid=aba5618f-bb3e-4024-81c3-12b2cfaf7274","ios":"levelo://app?vid=aba5618f-bb3e-4024-81c3-12b2cfaf7274"},"vehicle_type_id":"4","last_reported":1747041117,"current_range_meters":9600,"station_id":"ce4bgt12rcd13ifvqcd0","pricing_plan_id":"cebpf4jnsgd1na2vs0mg"},{"bike_id":"283fdfb9-005b-4325-8d66-9428f105ee8b","system_id":"levelo_inurba_marseille","lat":43.30925,"lon":5.374425,"is_reserved":false,"is_disabled":false,"rental_uris":{"android":"levelo://app?vid=283fdfb9-005b-4325-8d66-9428f105ee8b","ios":"levelo://app?vid=283fdfb9-005b-4325-8d66-9428f105ee8b"},"vehicle_type_id":"4","last_reported":1747041117,"current_range_meters":9600,"station_id":"","pricing_plan_id":"cebpf4jnsgd1na2vs0mg"},{"bike_id":"a39f3877-f542-4640-9791-7a8638d20583","system_id":"levelo_inurba_marseille","lat":43.2955,"lon":5.42278,"is_reserved":false,"is_disabled":false,"rental_uris":{"android":"levelo://app?vid=a39f3877-f542-4640-9791-7a8638d20583","ios":"levelo://app?vid=a39f3877-f542-4640-9791-7a8638d20583"},"vehicle_type_id":"4","last_reported":1747041117,"current_range_meters":9600,"station_id":"ce4bhph2rcd13ifvqhdg","pricing_plan_id":"cebpf4jnsgd1na2vs0mg"},{"bike_id":"de608a0b-278b-468e-957e-8246fb76906b","system_id":"levelo_inurba_marseille","lat":43.27975,"lon":5.38733,"is_reserved":false,"is_disabled":true,"rental_uris":{"android":"levelo://app?vid=de608a0b-278b-468e-957e-8246fb76906b","ios":"levelo://app?vid=de608a0b-278b-468e-957e-8246fb76906b"},"vehicle_type_id":"4","last_reported":1747041117,"current_range_meters":9600,"station_id":"ce4bhg12rcd13ifvqf80","pricing_plan_id":"cebpf4jnsgd1na2vs0mg"},{"bike_id":"de4a530f-3b17-41b9-bd98-d22e64d46bdc","system_id":"levelo_inurba_marseille","lat":43.321048,"lon":5.367753,"is_reserved":false,"is_disabled":false,"rental_uris":{"android":"levelo://app?vid=de4a530f-3b17-41b9-bd98-d22e64d46bdc","ios":"levelo://app?vid=de4a530f-3b17-41b9-bd98-d22e64d46bdc"},"vehicle_type_id":"4","last_reported":1747041117,"current_range_meters":9600,"station_id":"ce4bhrh2rcd13ifvqhug","pricing_plan_id":"cebpf4jnsgd1na2vs0mg"},{"bike_id":"ace8c9c0-2df3-4842-8f8d-1495427e75a8","system_id":"levelo_inurba_marseille","lat":43.27942,"lon":5.41048,"is_reserved":false,"is_disabled":true,"rental_uris":{"android":"levelo://app?vid=ace8c9c0-2df3-4842-8f8d-1495427e75a8","ios":"levelo://app?vid=ace8c9c0-2df3-4842-8f8d-1495427e75a8"},"vehicle_type_id":"4","last_reported":1747041117,"current_range_meters":10000,"station_id":"ce4bhnp2rcd13ifvqh0g","pricing_plan_id":"cebpf4jnsgd1na2vs0mg"},{"bike_id":"75f7e021-a9c5-4232-90b8-1417f51b2982","system_id":"levelo_inurba_marseille","lat":43.22499,"lon":5.34775,"is_reserved":false,"is_disabled":true,"rental_uris":{"android":"levelo://app?vid=75f7e021-a9c5-4232-90b8-1417f51b2982","ios":"levelo://app?vid=75f7e021-a9c5-4232-90b8-1417f51b2982"},"vehicle_type_id":"4","last_reported":1747041117,"current_range_meters":10000,"station_id":"st_cvj5dfep6f1abm77gieg","pricing_plan_id":"cebpf4jnsgd1na2vs0mg"},{"bike_id":"b4171753-1b57-41e7-8019-44bb8bc0cafa","system_id":"levelo_inurba_marseille","lat":43.29301,"lon":5.37459,"is_reserved":false,"is_disabled":false,"rental_uris":{"android":"levelo://app?vid=b4171753-1b57-41e7-8019-44bb8bc0cafa","ios":"levelo://app?vid=b4171753-1b57-41e7-8019-44bb8bc0cafa"},"vehicle_type_id":"4","last_reported":1747041117,"current_range_meters":11200,"station_id":"ce4bgi12rcd13ifvqb70","pricing_plan_id":"cebpf4jnsgd1na2vs0mg"},{"bike_id":"dff44ee9-d357-49fb-b8ef-b2ba825e92dc","system_id":"levelo_inurba_marseille","lat":43.33663,"lon":5.40898,"is_reserved":false,"is_disabled":false,"rental_uris":{"android":"levelo://app?vid=dff44ee9-d357-49fb-b8ef-b2ba825e92dc","ios":"levelo://app?vid=dff44ee9-d357-49fb-b8ef-b2ba825e92dc"},"vehicle_type_id":"4","last_reported":1747041117,"current_range_meters":10800,"station_id":"ce4bhqh2rcd13ifvqhmg","pricing_plan_id":"cebpf4jnsgd1na2vs0mg"},{"bike_id":"f52c819d-ca4b-4640-b458-b877db1bf990","system_id":"levelo_inurba_marseille","lat":43.29864,"lon":5.41017,"is_reserved":false,"is_disabled":false,"rental_uris":{"android":"levelo://app?vid=f52c819d-ca4b-4640-b458-b877db1bf990","ios":"levelo://app?vid=f52c819d-ca4b-4640-b458-b877db1bf990"},"vehicle_type_id":"4","last_reported":1747041117,"current_range_meters":10800,"station_id":"","pricing_plan_id":"cebpf4jnsgd1na2vs0mg"},{"bike_id":"da28b554-8b5b-4ca6-9f3b-f087512d379f","system_id":"levelo_inurba_marseille","lat":43.31369,"lon":5.36715,"is_reserved":false,"is_disabled":false,"rental_uris":{"android":"levelo://app?vid=da28b554-8b5b-4ca6-9f3b-f087512d379f","ios":"levelo://app?vid=da28b554-8b5b-4ca6-9f3b-f087512d379f"},"vehicle_type_id":"4","last_reported":1747041117,"current_range_meters":10800,"station_id":"ce4bgr92rcd13ifvqc6g","pricing_plan_id":"cebpf4jnsgd1na2vs0mg"},{"bike_id":"9c767dce-c6bc-4850-b2e9-a50d5557e52b","system_id":"levelo_inurba_marseille","lat":43.30886,"lon":5.39653,"is_reserved":false,"is_disabled":false,"rental_uris":{"android":"levelo://app?vid=9c767dce-c6bc-4850-b2e9-a50d5557e52b","ios":"levelo://app?vid=9c767dce-c6bc-4850-b2e9-a50d5557e52b"},"vehicle_type_id":"4","last_reported":1747041117,"current_range_meters":10800,"station_id":"ce4bh012rcd13ifvqcv0","pricing_plan_id":"cebpf4jnsgd1na2vs0mg"},{"bike_id":"2ee4d910-0ee1-4bc5-86c8-c77afad12b4f","system_id":"levelo_inurba_marseille","lat":43.321136,"lon":5.367678,"is_reserved":false,"is_disabled":false,"rental_uris":{"android":"levelo://app?vid=2ee4d910-0ee1-4bc5-86c8-c77afad12b4f","ios":"levelo://app?vid=2ee4d910-0ee1-4bc5-86c8-c77afad12b4f"},"vehicle_type_id":"4","last_reported":1747041117,"current_range_meters":11200,"station_id":"ce4bhrh2rcd13ifvqhug","pricing_plan_id":"cebpf4jnsgd1na2vs0mg"},{"bike_id":"0bf31d40-2ad2-494c-afdd-13acdb3f7f8d","system_id":"levelo_inurba_marseille","lat":43.29553,"lon":5.42276,"is_reserved":false,"is_disabled":false,"rental_uris":{"android":"levelo://app?vid=0bf31d40-2ad2-494c-afdd-13acdb3f7f8d","ios":"levelo://app?vid=0bf31d40-2ad2-494c-afdd-13acdb3f7f8d"},"vehicle_type_id":"4","last_reported":1747041117,"current_range_meters":11600,"station_id":"ce4bhph2rcd13ifvqhdg","pricing_plan_id":"cebpf4jnsgd1na2vs0mg"},{"bike_id":"66d11a15-31d8-4bf0-854d-74190fb4c519","system_id":"levelo_inurba_marseille","lat":43.28846,"lon":5.39302,"is_reserved":false,"is_disabled":false,"rental_uris":{"android":"levelo://app?vid=66d11a15-31d8-4bf0-854d-74190fb4c519","ios":"levelo://app?vid=66d11a15-31d8-4bf0-854d-74190fb4c519"},"vehicle_type_id":"4","last_reported":1747041117,"current_range_meters":11600,"station_id":"ce4bh2p2rcd13ifvqdi0","pricing_plan_id":"cebpf4jnsgd1na2vs0mg"},{"bike_id":"11e4597e-c0da-4b11-b293-5b1f7659f2d6","system_id":"levelo_inurba_marseille","lat":43.3133,"lon":5.36728,"is_reserved":false,"is_disabled":false,"rental_uris":{"android":"levelo://app?vid=11e4597e-c0da-4b11-b293-5b1f7659f2d6","ios":"levelo://app?vid=11e4597e-c0da-4b11-b293-5b1f7659f2d6"},"vehicle_type_id":"4","last_reported":1747041117,"current_range_meters":12000,"station_id":"ce4bgr92rcd13ifvqc6g","pricing_plan_id":"cebpf4jnsgd1na2vs0mg"},{"bike_id":"a8f961a9-ee12-42fe-b99b-1b7c40163514","system_id":"levelo_inurba_marseille","lat":43.30536,"lon":5.36557,"is_reserved":false,"is_disabled":false,"rental_uris":{"android":"levelo://app?vid=a8f961a9-ee12-42fe-b99b-1b7c40163514","ios":"levelo://app?vid=a8f961a9-ee12-42fe-b99b-1b7c40163514"},"vehicle_type_id":"4","last_reported":1747041117,"current_range_meters":12000,"station_id":"ce4bgs12rcd13ifvqcag","pricing_plan_id":"cebpf4jnsgd1na2vs0mg"},{"bike_id":"37f9a811-b11a-4a13-96cc-e5a1ddf4804e","system_id":"levelo_inurba_marseille","lat":43.23151,"lon":5.4372,"is_reserved":false,"is_disabled":false,"rental_uris":{"android":"levelo://app?vid=37f9a811-b11a-4a13-96cc-e5a1ddf4804e","ios":"levelo://app?vid=37f9a811-b11a-4a13-96cc-e5a1ddf4804e"},"vehicle_type_id":"4","last_reported":1747041117,"current_range_meters":12400,"station_id":"ce4bhmp2rcd13ifvqgog","pricing_plan_id":"cebpf4jnsgd1na2vs0mg"},{"bike_id":"c717b955-1d23-42a6-bf63-f39e0d9342dd","system_id":"levelo_inurba_marseille","lat":43.28325,"lon":5.43104,"is_reserved":false,"is_disabled":false,"rental_uris":{"android":"levelo://app?vid=c717b955-1d23-42a6-bf63-f39e0d9342dd","ios":"levelo://app?vid=c717b955-1d23-42a6-bf63-f39e0d9342dd"},"vehicle_type_id":"4","last_reported":1747041117,"current_range_meters":12400,"station_id":"","pricing_plan_id":"cebpf4jnsgd1na2vs0mg"},{"bike_id":"9e45267d-f640-4f15-a368-f95cfec32be1","system_id":"levelo_inurba_marseille","lat":43.24177,"lon":5.3973,"is_reserved":false,"is_disabled":false,"rental_uris":{"android":"levelo://app?vid=9e45267d-f640-4f15-a368-f95cfec32be1","ios":"levelo://app?vid=9e45267d-f640-4f15-a368-f95cfec32be1"},"vehicle_type_id":"4","last_reported":1747041117,"current_range_meters":12800,"station_id":"ce4bhn12rcd13ifvqgpg","pricing_plan_id":"cebpf4jnsgd1na2vs0mg"},{"bike_id":"ab505afe-02ec-4919-8458-c2d24d617e6a","system_id":"levelo_inurba_marseille","lat":43.3253,"lon":5.4145,"is_reserved":false,"is_disabled":false,"rental_uris":{"android":"levelo://app?vid=ab505afe-02ec-4919-8458-c2d24d617e6a","ios":"levelo://app?vid=ab505afe-02ec-4919-8458-c2d24d617e6a"},"vehicle_type_id":"4","last_reported":1747041117,"current_range_meters":12800,"station_id":"ce4bhq12rcd13ifvqhhg","pricing_plan_id":"cebpf4jnsgd1na2vs0mg"},{"bike_id":"77b898d6-83c3-4819-8f10-342d8faa3aa9","system_id":"levelo_inurba_marseille","lat":43.2709,"lon":5.423,"is_reserved":false,"is_disabled":true,"rental_uris":{"android":"levelo://app?vid=77b898d6-83c3-4819-8f10-342d8faa3aa9","ios":"levelo://app?vid=77b898d6-83c3-4819-8f10-342d8faa3aa9"},"vehicle_type_id":"4","last_reported":1747041117,"current_range_meters":12800,"station_id":"","pricing_plan_id":"cebpf4jnsgd1na2vs0mg"},{"bike_id":"0a4f9d32-468f-4b5f-bd61-fe0999932de1","system_id":"levelo_inurba_marseille","lat":43.29845,"lon":5.36285,"is_reserved":false,"is_disabled":false,"rental_uris":{"android":"levelo://app?vid=0a4f9d32-468f-4b5f-bd61-fe0999932de1","ios":"levelo://app?vid=0a4f9d32-468f-4b5f-bd61-fe0999932de1"},"vehicle_type_id":"4","last_reported":1747041117,"current_range_meters":12800,"station_id":"ce4bgpp2rcd13ifvqc3g","pricing_plan_id":"cebpf4jnsgd1na2vs0mg"},{"bike_id":"23f8903c-4158-4eb0-a2b8-bb0bcfc9f511","system_id":"levelo_inurba_marseille","lat":43.28271,"lon":5.35056,"is_reserved":false,"is_disabled":false,"rental_uris":{"android":"levelo://app?vid=23f8903c-4158-4eb0-a2b8-bb0bcfc9f511","ios":"levelo://app?vid=23f8903c-4158-4eb0-a2b8-bb0bcfc9f511"},"vehicle_type_id":"4","last_reported":1747041117,"current_range_meters":16000,"station_id":"ce4bhbp2rcd13ifvqerg","pricing_plan_id":"cebpf4jnsgd1na2vs0mg"},{"bike_id":"d95f009d-8106-45ed-93b2-3909b14e3efa","system_id":"levelo_inurba_marseille","lat":43.2318,"lon":5.39991,"is_reserved":false,"is_disabled":false,"rental_uris":{"android":"levelo://app?vid=d95f009d-8106-45ed-93b2-3909b14e3efa","ios":"levelo://app?vid=d95f009d-8106-45ed-93b2-3909b14e3efa"},"vehicle_type_id":"4","last_reported":1747041117,"current_range_meters":13600,"station_id":"ce4bhn12rcd13ifvqgqg","pricing_plan_id":"cebpf4jnsgd1na2vs0mg"},{"bike_id":"f8447612-9f2c-4a6d-a180-ffcd1d201b74","system_id":"levelo_inurba_marseille","lat":43.2927,"lon":5.36845,"is_reserved":false,"is_disabled":false,"rental_uris":{"android":"levelo://app?vid=f8447612-9f2c-4a6d-a180-ffcd1d201b74","ios":"levelo://app?vid=f8447612-9f2c-4a6d-a180-ffcd1d201b74"},"vehicle_type_id":"4","last_reported":1747041117,"current_range_meters":13600,"station_id":"ce4bhbp2rcd13ifvqesg","pricing_plan_id":"cebpf4jnsgd1na2vs0mg"},{"bike_id":"0a4dc782-e1df-48ff-81bf-b707284fe935","system_id":"levelo_inurba_marseille","lat":43.28425,"lon":5.34982,"is_reserved":false,"is_disabled":false,"rental_uris":{"android":"levelo://app?vid=0a4dc782-e1df-48ff-81bf-b707284fe935","ios":"levelo://app?vid=0a4dc782-e1df-48ff-81bf-b707284fe935"},"vehicle_type_id":"4","last_reported":1747041117,"current_range_meters":13600,"station_id":"ce4bhbh2rcd13ifvqepg","pricing_plan_id":"cebpf4jnsgd1na2vs0mg"},{"bike_id":"430587fb-8fad-49e9-8640-337d47ba79f5","system_id":"levelo_inurba_marseille","lat":43.29842,"lon":5.36275,"is_reserved":false,"is_disabled":false,"rental_uris":{"android":"levelo://app?vid=430587fb-8fad-49e9-8640-337d47ba79f5","ios":"levelo://app?vid=430587fb-8fad-49e9-8640-337d47ba79f5"},"vehicle_type_id":"4","last_reported":1747041117,"current_range_meters":14400,"station_id":"ce4bgpp2rcd13ifvqc3g","pricing_plan_id":"cebpf4jnsgd1na2vs0mg"},{"bike_id":"f55b6cbf-2959-4342-9d9d-bef35500f2fb","system_id":"levelo_inurba_marseille","lat":43.29316,"lon":5.3718,"is_reserved":false,"is_disabled":false,"rental_uris":{"android":"levelo://app?vid=f55b6cbf-2959-4342-9d9d-bef35500f2fb","ios":"levelo://app?vid=f55b6cbf-2959-4342-9d9d-bef35500f2fb"},"vehicle_type_id":"4","last_reported":1747041117,"current_range_meters":14400,"station_id":"ce4bgh92rcd13ifvqb40","pricing_plan_id":"cebpf4jnsgd1na2vs0mg"},{"bike_id":"67784d7a-5166-4764-82e9-066296559a47","system_id":"levelo_inurba_marseille","lat":43.25932,"lon":5.40914,"is_reserved":false,"is_disabled":false,"rental_uris":{"android":"levelo://app?vid=67784d7a-5166-4764-82e9-066296559a47","ios":"levelo://app?vid=67784d7a-5166-4764-82e9-066296559a47"},"vehicle_type_id":"4","last_reported":1747041117,"current_range_meters":14400,"station_id":"ce4bhm92rcd13ifvqglg","pricing_plan_id":"cebpf4jnsgd1na2vs0mg"},{"bike_id":"c07d3067-9ee8-4e62-a73a-83e1e6c5fb90","system_id":"levelo_inurba_marseille","lat":43.30886,"lon":5.3719,"is_reserved":false,"is_disabled":false,"rental_uris":{"android":"levelo://app?vid=c07d3067-9ee8-4e62-a73a-83e1e6c5fb90","ios":"levelo://app?vid=c07d3067-9ee8-4e62-a73a-83e1e6c5fb90"},"vehicle_type_id":"4","last_reported":1747041117,"current_range_meters":14800,"station_id":"ce4bguh2rcd13ifvqckg","pricing_plan_id":"cebpf4jnsgd1na2vs0mg"},{"bike_id":"793cb5dc-1067-4e38-969a-9e71a155a393","system_id":"levelo_inurba_marseille","lat":43.28353,"lon":5.3811,"is_reserved":false,"is_disabled":false,"rental_uris":{"android":"levelo://app?vid=793cb5dc-1067-4e38-969a-9e71a155a393","ios":"levelo://app?vid=793cb5dc-1067-4e38-969a-9e71a155a393"},"vehicle_type_id":"4","last_reported":1747041117,"current_range_meters":14800,"station_id":"ce4bh412rcd13ifvqdr0","pricing_plan_id":"cebpf4jnsgd1na2vs0mg"},{"bike_id":"8cb58eec-43c8-41aa-899e-9650f6236c9b","system_id":"levelo_inurba_marseille","lat":43.308964,"lon":5.3718,"is_reserved":false,"is_disabled":false,"rental_uris":{"android":"levelo://app?vid=8cb58eec-43c8-41aa-899e-9650f6236c9b","ios":"levelo://app?vid=8cb58eec-43c8-41aa-899e-9650f6236c9b"},"vehicle_type_id":"4","last_reported":1747041117,"current_range_meters":14800,"station_id":"ce4bguh2rcd13ifvqckg","pricing_plan_id":"cebpf4jnsgd1na2vs0mg"},{"bike_id":"c33c979d-9903-40dc-a17f-25ccdad88704","system_id":"levelo_inurba_marseille","lat":43.29476,"lon":5.39402,"is_reserved":false,"is_disabled":false,"rental_uris":{"android":"levelo://app?vid=c33c979d-9903-40dc-a17f-25ccdad88704","ios":"levelo://app?vid=c33c979d-9903-40dc-a17f-25ccdad88704"},"vehicle_type_id":"4","last_reported":1747041117,"current_range_meters":15200,"station_id":"ce4bh292rcd13ifvqdf0","pricing_plan_id":"cebpf4jnsgd1na2vs0mg"},{"bike_id":"5cbd58e0-e2b3-4101-96ec-ceeae8c321f0","system_id":"levelo_inurba_marseille","lat":43.30537,"lon":5.38429,"is_reserved":false,"is_disabled":false,"rental_uris":{"android":"levelo://app?vid=5cbd58e0-e2b3-4101-96ec-ceeae8c321f0","ios":"levelo://app?vid=5cbd58e0-e2b3-4101-96ec-ceeae8c321f0"},"vehicle_type_id":"4","last_reported":1747041117,"current_range_meters":16000,"station_id":"ce4bgg92rcd13ifvqb30","pricing_plan_id":"cebpf4jnsgd1na2vs0mg"},{"bike_id":"4452f75a-91d1-42b8-9419-788c3daeb41f","system_id":"levelo_inurba_marseille","lat":43.26564,"lon":5.39001,"is_reserved":false,"is_disabled":false,"rental_uris":{"android":"levelo://app?vid=4452f75a-91d1-42b8-9419-788c3daeb41f","ios":"levelo://app?vid=4452f75a-91d1-42b8-9419-788c3daeb41f"},"vehicle_type_id":"4","last_reported":1747041117,"current_range_meters":16000,"station_id":"ce4bhe12rcd13ifvqf30","pricing_plan_id":"cebpf4jnsgd1na2vs0mg"},{"bike_id":"4a86cdc6-b823-490b-bbf2-e6e3003db362","system_id":"levelo_inurba_marseille","lat":43.31358,"lon":5.36725,"is_reserved":false,"is_disabled":false,"rental_uris":{"android":"levelo://app?vid=4a86cdc6-b823-490b-bbf2-e6e3003db362","ios":"levelo://app?vid=4a86cdc6-b823-490b-bbf2-e6e3003db362"},"vehicle_type_id":"4","last_reported":1747041117,"current_range_meters":16400,"station_id":"ce4bgr92rcd13ifvqc6g","pricing_plan_id":"cebpf4jnsgd1na2vs0mg"},{"bike_id":"b8c359e7-2205-44ba-96e8-2cd88f3e1005","system_id":"levelo_inurba_marseille","lat":43.3211,"lon":5.36771,"is_reserved":false,"is_disabled":false,"rental_uris":{"android":"levelo://app?vid=b8c359e7-2205-44ba-96e8-2cd88f3e1005","ios":"levelo://app?vid=b8c359e7-2205-44ba-96e8-2cd88f3e1005"},"vehicle_type_id":"4","last_reported":1747041117,"current_range_meters":16400,"station_id":"ce4bhrh2rcd13ifvqhug","pricing_plan_id":"cebpf4jnsgd1na2vs0mg"},{"bike_id":"67a72ab0-87cc-425d-b084-2201da189d82","system_id":"levelo_inurba_marseille","lat":43.27492,"lon":5.42448,"is_reserved":false,"is_disabled":false,"rental_uris":{"android":"levelo://app?vid=67a72ab0-87cc-425d-b084-2201da189d82","ios":"levelo://app?vid=67a72ab0-87cc-425d-b084-2201da189d82"},"vehicle_type_id":"4","last_reported":1747041117,"current_range_meters":16400,"station_id":"ce4bhn92rcd13ifvqgrg","pricing_plan_id":"cebpf4jnsgd1na2vs0mg"},{"bike_id":"f69257da-8878-41a7-b8f6-c7f02aa7ae1d","system_id":"levelo_inurba_marseille","lat":43.25931,"lon":5.40911,"is_reserved":false,"is_disabled":false,"rental_uris":{"android":"levelo://app?vid=f69257da-8878-41a7-b8f6-c7f02aa7ae1d","ios":"levelo://app?vid=f69257da-8878-41a7-b8f6-c7f02aa7ae1d"},"vehicle_type_id":"4","last_reported":1747041117,"current_range_meters":16800,"station_id":"ce4bhm92rcd13ifvqglg","pricing_plan_id":"cebpf4jnsgd1na2vs0mg"},{"bike_id":"995e5fbf-2d3e-428b-aa14-7b4276796c93","system_id":"levelo_inurba_marseille","lat":43.33665,"lon":5.40969,"is_reserved":false,"is_disabled":false,"rental_uris":{"android":"levelo://app?vid=995e5fbf-2d3e-428b-aa14-7b4276796c93","ios":"levelo://app?vid=995e5fbf-2d3e-428b-aa14-7b4276796c93"},"vehicle_type_id":"4","last_reported":1747041117,"current_range_meters":16800,"station_id":"","pricing_plan_id":"cebpf4jnsgd1na2vs0mg"},{"bike_id":"f2f0b94a-5ffd-44ba-8001-d1b0c07242cc","system_id":"levelo_inurba_marseille","lat":43.25871,"lon":5.39898,"is_reserved":false,"is_disabled":false,"rental_uris":{"android":"levelo://app?vid=f2f0b94a-5ffd-44ba-8001-d1b0c07242cc","ios":"levelo://app?vid=f2f0b94a-5ffd-44ba-8001-d1b0c07242cc"},"vehicle_type_id":"4","last_reported":1747041117,"current_range_meters":16800,"station_id":"ce4bhl92rcd13ifvqghg","pricing_plan_id":"cebpf4jnsgd1na2vs0mg"},{"bike_id":"af6d6837-65b4-4a2d-b91b-f13f5d5f9d49","system_id":"levelo_inurba_marseille","lat":43.29973,"lon":5.38484,"is_reserved":false,"is_disabled":false,"rental_uris":{"android":"levelo://app?vid=af6d6837-65b4-4a2d-b91b-f13f5d5f9d49","ios":"levelo://app?vid=af6d6837-65b4-4a2d-b91b-f13f5d5f9d49"},"vehicle_type_id":"4","last_reported":1747041117,"current_range_meters":16800,"station_id":"ce4bgj92rcd13ifvqbd0","pricing_plan_id":"cebpf4jnsgd1na2vs0mg"},{"bike_id":"f4626725-8e14-4650-a67b-8ba8ffe65778","system_id":"levelo_inurba_marseille","lat":43.26934,"lon":5.40257,"is_reserved":false,"is_disabled":false,"rental_uris":{"android":"levelo://app?vid=f4626725-8e14-4650-a67b-8ba8ffe65778","ios":"levelo://app?vid=f4626725-8e14-4650-a67b-8ba8ffe65778"},"vehicle_type_id":"4","last_reported":1747041117,"current_range_meters":16800,"station_id":"cjm6bp8fraef2m0cb0m0","pricing_plan_id":"cebpf4jnsgd1na2vs0mg"},{"bike_id":"b3cda032-0d7f-417f-b17c-294e536268b0","system_id":"levelo_inurba_marseille","lat":43.26818,"lon":5.39431,"is_reserved":false,"is_disabled":false,"rental_uris":{"android":"levelo://app?vid=b3cda032-0d7f-417f-b17c-294e536268b0","ios":"levelo://app?vid=b3cda032-0d7f-417f-b17c-294e536268b0"},"vehicle_type_id":"4","last_reported":1747041117,"current_range_meters":16800,"station_id":"ce4bhh12rcd13ifvqfg0","pricing_plan_id":"cebpf4jnsgd1na2vs0mg"},{"bike_id":"32916f13-7d69-4a93-b60b-23a547ba571c","system_id":"levelo_inurba_marseille","lat":43.24077,"lon":5.3775,"is_reserved":false,"is_disabled":false,"rental_uris":{"android":"levelo://app?vid=32916f13-7d69-4a93-b60b-23a547ba571c","ios":"levelo://app?vid=32916f13-7d69-4a93-b60b-23a547ba571c"},"vehicle_type_id":"4","last_reported":1747041117,"current_range_meters":12800,"station_id":"ce4bhnp2rcd13ifvqgvg","pricing_plan_id":"cebpf4jnsgd1na2vs0mg"},{"bike_id":"88c68a97-0dcd-4f87-9daa-1e0e1e20a7fc","system_id":"levelo_inurba_marseille","lat":43.31084,"lon":5.42432,"is_reserved":false,"is_disabled":false,"rental_uris":{"android":"levelo://app?vid=88c68a97-0dcd-4f87-9daa-1e0e1e20a7fc","ios":"levelo://app?vid=88c68a97-0dcd-4f87-9daa-1e0e1e20a7fc"},"vehicle_type_id":"4","last_reported":1747041117,"current_range_meters":16800,"station_id":"ce4bhp92rcd13ifvqhag","pricing_plan_id":"cebpf4jnsgd1na2vs0mg"},{"bike_id":"ea1c8b97-7335-47a7-ad06-6c2727065bf8","system_id":"levelo_inurba_marseille","lat":43.27911,"lon":5.38022,"is_reserved":false,"is_disabled":false,"rental_uris":{"android":"levelo://app?vid=ea1c8b97-7335-47a7-ad06-6c2727065bf8","ios":"levelo://app?vid=ea1c8b97-7335-47a7-ad06-6c2727065bf8"},"vehicle_type_id":"4","last_reported":1747041117,"current_range_meters":16800,"station_id":"ce4bhf92rcd13ifvqf50","pricing_plan_id":"cebpf4jnsgd1na2vs0mg"},{"bike_id":"e9fc7045-df7f-44b4-8d28-a9d4ab4b47cb","system_id":"levelo_inurba_marseille","lat":43.26494,"lon":5.39537,"is_reserved":false,"is_disabled":false,"rental_uris":{"android":"levelo://app?vid=e9fc7045-df7f-44b4-8d28-a9d4ab4b47cb","ios":"levelo://app?vid=e9fc7045-df7f-44b4-8d28-a9d4ab4b47cb"},"vehicle_type_id":"4","last_reported":1747041117,"current_range_meters":17200,"station_id":"ce4bhi12rcd13ifvqfq0","pricing_plan_id":"cebpf4jnsgd1na2vs0mg"},{"bike_id":"8ec4e81a-1952-45e2-bbe6-ac34e5746298","system_id":"levelo_inurba_marseille","lat":43.28276,"lon":5.35079,"is_reserved":false,"is_disabled":false,"rental_uris":{"android":"levelo://app?vid=8ec4e81a-1952-45e2-bbe6-ac34e5746298","ios":"levelo://app?vid=8ec4e81a-1952-45e2-bbe6-ac34e5746298"},"vehicle_type_id":"4","last_reported":1747041117,"current_range_meters":16800,"station_id":"ce4bhbp2rcd13ifvqerg","pricing_plan_id":"cebpf4jnsgd1na2vs0mg"},{"bike_id":"7af0b72f-aef1-4687-8c96-17cad21329a9","system_id":"levelo_inurba_marseille","lat":43.22932,"lon":5.35372,"is_reserved":false,"is_disabled":false,"rental_uris":{"android":"levelo://app?vid=7af0b72f-aef1-4687-8c96-17cad21329a9","ios":"levelo://app?vid=7af0b72f-aef1-4687-8c96-17cad21329a9"},"vehicle_type_id":"4","last_reported":1747041117,"current_range_meters":17600,"station_id":"cpo3532slgdg3j2ikp40","pricing_plan_id":"cebpf4jnsgd1na2vs0mg"},{"bike_id":"8995a6ff-add1-4bca-a9f9-6366652969c9","system_id":"levelo_inurba_marseille","lat":43.31319,"lon":5.36729,"is_reserved":false,"is_disabled":false,"rental_uris":{"android":"levelo://app?vid=8995a6ff-add1-4bca-a9f9-6366652969c9","ios":"levelo://app?vid=8995a6ff-add1-4bca-a9f9-6366652969c9"},"vehicle_type_id":"4","last_reported":1747041117,"current_range_meters":17600,"station_id":"ce4bgr92rcd13ifvqc6g","pricing_plan_id":"cebpf4jnsgd1na2vs0mg"},{"bike_id":"b3e39d10-09f4-469c-9cf2-8e6acdaefcf8","system_id":"levelo_inurba_marseille","lat":43.26687,"lon":5.38263,"is_reserved":false,"is_disabled":false,"rental_uris":{"android":"levelo://app?vid=b3e39d10-09f4-469c-9cf2-8e6acdaefcf8","ios":"levelo://app?vid=b3e39d10-09f4-469c-9cf2-8e6acdaefcf8"},"vehicle_type_id":"4","last_reported":1747041117,"current_range_meters":17600,"station_id":"ce4bhg92rcd13ifvqf90","pricing_plan_id":"cebpf4jnsgd1na2vs0mg"},{"bike_id":"a18586b0-77ad-4ad6-8a93-261cbd6b3508","system_id":"levelo_inurba_marseille","lat":43.33608,"lon":5.41018,"is_reserved":false,"is_disabled":false,"rental_uris":{"android":"levelo://app?vid=a18586b0-77ad-4ad6-8a93-261cbd6b3508","ios":"levelo://app?vid=a18586b0-77ad-4ad6-8a93-261cbd6b3508"},"vehicle_type_id":"4","last_reported":1747041117,"current_range_meters":18000,"station_id":"ce4bhqh2rcd13ifvqhmg","pricing_plan_id":"cebpf4jnsgd1na2vs0mg"},{"bike_id":"60c69132-7413-4c86-b480-4ebf3d1d14b0","system_id":"levelo_inurba_marseille","lat":43.32531,"lon":5.4145,"is_reserved":false,"is_disabled":false,"rental_uris":{"android":"levelo://app?vid=60c69132-7413-4c86-b480-4ebf3d1d14b0","ios":"levelo://app?vid=60c69132-7413-4c86-b480-4ebf3d1d14b0"},"vehicle_type_id":"4","last_reported":1747041117,"current_range_meters":18000,"station_id":"ce4bhq12rcd13ifvqhhg","pricing_plan_id":"cebpf4jnsgd1na2vs0mg"},{"bike_id":"08543949-b6af-4d80-be53-1eac89487507","system_id":"levelo_inurba_marseille","lat":43.33727,"lon":5.39194,"is_reserved":false,"is_disabled":false,"rental_uris":{"android":"levelo://app?vid=08543949-b6af-4d80-be53-1eac89487507","ios":"levelo://app?vid=08543949-b6af-4d80-be53-1eac89487507"},"vehicle_type_id":"4","last_reported":1747041117,"current_range_meters":17600,"station_id":"ce4bhr92rcd13ifvqhsg","pricing_plan_id":"cebpf4jnsgd1na2vs0mg"},{"bike_id":"8e12d60d-0e1c-485c-a42c-f95350f26af1","system_id":"levelo_inurba_marseille","lat":43.29044,"lon":5.399863,"is_reserved":false,"is_disabled":true,"rental_uris":{"android":"levelo://app?vid=8e12d60d-0e1c-485c-a42c-f95350f26af1","ios":"levelo://app?vid=8e12d60d-0e1c-485c-a42c-f95350f26af1"},"vehicle_type_id":"4","last_reported":1747041117,"current_range_meters":18000,"station_id":"ce4bh392rcd13ifvqdm0","pricing_plan_id":"cebpf4jnsgd1na2vs0mg"},{"bike_id":"fc6e693c-992c-41f9-b827-1151421c293f","system_id":"levelo_inurba_marseille","lat":43.25942,"lon":5.40901,"is_reserved":false,"is_disabled":false,"rental_uris":{"android":"levelo://app?vid=fc6e693c-992c-41f9-b827-1151421c293f","ios":"levelo://app?vid=fc6e693c-992c-41f9-b827-1151421c293f"},"vehicle_type_id":"4","last_reported":1747041117,"current_range_meters":18000,"station_id":"ce4bhm92rcd13ifvqglg","pricing_plan_id":"cebpf4jnsgd1na2vs0mg"},{"bike_id":"274428a0-f624-470d-97ad-4d677cbd848f","system_id":"levelo_inurba_marseille","lat":43.27063,"lon":5.42278,"is_reserved":false,"is_disabled":false,"rental_uris":{"android":"levelo://app?vid=274428a0-f624-470d-97ad-4d677cbd848f","ios":"levelo://app?vid=274428a0-f624-470d-97ad-4d677cbd848f"},"vehicle_type_id":"4","last_reported":1747041117,"current_range_meters":18800,"station_id":"ce4bhk92rcd13ifvqgb0","pricing_plan_id":"cebpf4jnsgd1na2vs0mg"},{"bike_id":"283758ea-a31d-427b-86d7-4dabc43a77e3","system_id":"levelo_inurba_marseille","lat":43.30895,"lon":5.37206,"is_reserved":false,"is_disabled":false,"rental_uris":{"android":"levelo://app?vid=283758ea-a31d-427b-86d7-4dabc43a77e3","ios":"levelo://app?vid=283758ea-a31d-427b-86d7-4dabc43a77e3"},"vehicle_type_id":"4","last_reported":1747041117,"current_range_meters":18000,"station_id":"ce4bguh2rcd13ifvqckg","pricing_plan_id":"cebpf4jnsgd1na2vs0mg"},{"bike_id":"25cd2efd-cd49-4b5d-adbe-b852702c8fdf","system_id":"levelo_inurba_marseille","lat":43.26198,"lon":5.37443,"is_reserved":false,"is_disabled":false,"rental_uris":{"android":"levelo://app?vid=25cd2efd-cd49-4b5d-adbe-b852702c8fdf","ios":"levelo://app?vid=25cd2efd-cd49-4b5d-adbe-b852702c8fdf"},"vehicle_type_id":"4","last_reported":1747041117,"current_range_meters":18800,"station_id":"ce4bhgp2rcd13ifvqfc0","pricing_plan_id":"cebpf4jnsgd1na2vs0mg"},{"bike_id":"38b7b9f0-4d03-4b6a-b846-b1a53fc87f21","system_id":"levelo_inurba_marseille","lat":43.262631,"lon":5.405323,"is_reserved":false,"is_disabled":false,"rental_uris":{"android":"levelo://app?vid=38b7b9f0-4d03-4b6a-b846-b1a53fc87f21","ios":"levelo://app?vid=38b7b9f0-4d03-4b6a-b846-b1a53fc87f21"},"vehicle_type_id":"4","last_reported":1747041117,"current_range_meters":18800,"station_id":"ce4bh412rcd13ifvqds0","pricing_plan_id":"cebpf4jnsgd1na2vs0mg"},{"bike_id":"f8dc9e04-d2ee-4752-9e41-df75a435cdb1","system_id":"levelo_inurba_marseille","lat":43.32541,"lon":5.4145,"is_reserved":false,"is_disabled":false,"rental_uris":{"android":"levelo://app?vid=f8dc9e04-d2ee-4752-9e41-df75a435cdb1","ios":"levelo://app?vid=f8dc9e04-d2ee-4752-9e41-df75a435cdb1"},"vehicle_type_id":"4","last_reported":1747041117,"current_range_meters":18800,"station_id":"ce4bhq12rcd13ifvqhhg","pricing_plan_id":"cebpf4jnsgd1na2vs0mg"},{"bike_id":"0de40b9e-207f-4da7-ad0e-fb4deb0b2b5e","system_id":"levelo_inurba_marseille","lat":43.29808,"lon":5.37129,"is_reserved":false,"is_disabled":false,"rental_uris":{"android":"levelo://app?vid=0de40b9e-207f-4da7-ad0e-fb4deb0b2b5e","ios":"levelo://app?vid=0de40b9e-207f-4da7-ad0e-fb4deb0b2b5e"},"vehicle_type_id":"4","last_reported":1747041117,"current_range_meters":18800,"station_id":"ce4bgop2rcd13ifvqc1g","pricing_plan_id":"cebpf4jnsgd1na2vs0mg"},{"bike_id":"6a4f700e-2091-4ba2-940a-dc26934d0b22","system_id":"levelo_inurba_marseille","lat":43.29275,"lon":5.37559,"is_reserved":false,"is_disabled":false,"rental_uris":{"android":"levelo://app?vid=6a4f700e-2091-4ba2-940a-dc26934d0b22","ios":"levelo://app?vid=6a4f700e-2091-4ba2-940a-dc26934d0b22"},"vehicle_type_id":"4","last_reported":1747041117,"current_range_meters":19200,"station_id":"ce4bgi12rcd13ifvqb80","pricing_plan_id":"cebpf4jnsgd1na2vs0mg"},{"bike_id":"2df1ab65-61e9-4fcf-9a25-275a30df03a7","system_id":"levelo_inurba_marseille","lat":43.30911,"lon":5.36844,"is_reserved":false,"is_disabled":false,"rental_uris":{"android":"levelo://app?vid=2df1ab65-61e9-4fcf-9a25-275a30df03a7","ios":"levelo://app?vid=2df1ab65-61e9-4fcf-9a25-275a30df03a7"},"vehicle_type_id":"4","last_reported":1747041117,"current_range_meters":19200,"station_id":"ce4bgn92rcd13ifvqbvg","pricing_plan_id":"cebpf4jnsgd1na2vs0mg"},{"bike_id":"8f898ea4-0b70-46db-b495-a08fd22223a4","system_id":"levelo_inurba_marseille","lat":43.22929,"lon":5.35376,"is_reserved":false,"is_disabled":false,"rental_uris":{"android":"levelo://app?vid=8f898ea4-0b70-46db-b495-a08fd22223a4","ios":"levelo://app?vid=8f898ea4-0b70-46db-b495-a08fd22223a4"},"vehicle_type_id":"4","last_reported":1747041117,"current_range_meters":19200,"station_id":"cpo3532slgdg3j2ikp40","pricing_plan_id":"cebpf4jnsgd1na2vs0mg"},{"bike_id":"cc6105f9-6f7d-4848-9f36-916e401bfe26","system_id":"levelo_inurba_marseille","lat":43.31341,"lon":5.36735,"is_reserved":false,"is_disabled":false,"rental_uris":{"android":"levelo://app?vid=cc6105f9-6f7d-4848-9f36-916e401bfe26","ios":"levelo://app?vid=cc6105f9-6f7d-4848-9f36-916e401bfe26"},"vehicle_type_id":"4","last_reported":1747041117,"current_range_meters":19200,"station_id":"ce4bgr92rcd13ifvqc6g","pricing_plan_id":"cebpf4jnsgd1na2vs0mg"},{"bike_id":"16dd319e-4029-42c7-9933-85bcee86972c","system_id":"levelo_inurba_marseille","lat":43.30327,"lon":5.40434,"is_reserved":false,"is_disabled":false,"rental_uris":{"android":"levelo://app?vid=16dd319e-4029-42c7-9933-85bcee86972c","ios":"levelo://app?vid=16dd319e-4029-42c7-9933-85bcee86972c"},"vehicle_type_id":"4","last_reported":1747041117,"current_range_meters":19200,"station_id":"ce4bh012rcd13ifvqd10","pricing_plan_id":"cebpf4jnsgd1na2vs0mg"},{"bike_id":"64a5cfa3-2e3c-425f-b73e-e2cabdab0c4d","system_id":"levelo_inurba_marseille","lat":43.286102,"lon":5.370532,"is_reserved":false,"is_disabled":false,"rental_uris":{"android":"levelo://app?vid=64a5cfa3-2e3c-425f-b73e-e2cabdab0c4d","ios":"levelo://app?vid=64a5cfa3-2e3c-425f-b73e-e2cabdab0c4d"},"vehicle_type_id":"4","last_reported":1747041117,"current_range_meters":19200,"station_id":"ce4bht12rcd13ifvqi60","pricing_plan_id":"cebpf4jnsgd1na2vs0mg"},{"bike_id":"d0d77266-b030-48e7-bb4a-e4747b4776ec","system_id":"levelo_inurba_marseille","lat":43.301219,"lon":5.398661,"is_reserved":false,"is_disabled":true,"rental_uris":{"android":"levelo://app?vid=d0d77266-b030-48e7-bb4a-e4747b4776ec","ios":"levelo://app?vid=d0d77266-b030-48e7-bb4a-e4747b4776ec"},"vehicle_type_id":"4","last_reported":1747041117,"current_range_meters":19200,"station_id":"ce4bh0h2rcd13ifvqd40","pricing_plan_id":"cebpf4jnsgd1na2vs0mg"},{"bike_id":"2d32e7e0-ad65-460a-9513-a5743c79b680","system_id":"levelo_inurba_marseille","lat":43.29594,"lon":5.38102,"is_reserved":false,"is_disabled":false,"rental_uris":{"android":"levelo://app?vid=2d32e7e0-ad65-460a-9513-a5743c79b680","ios":"levelo://app?vid=2d32e7e0-ad65-460a-9513-a5743c79b680"},"vehicle_type_id":"4","last_reported":1747041117,"current_range_meters":18800,"station_id":"ce4bgl12rcd13ifvqbo0","pricing_plan_id":"cebpf4jnsgd1na2vs0mg"},{"bike_id":"cddebfb5-ba9a-4b45-8db6-1d3b911c2d1f","system_id":"levelo_inurba_marseille","lat":43.30895,"lon":5.36847,"is_reserved":false,"is_disabled":false,"rental_uris":{"android":"levelo://app?vid=cddebfb5-ba9a-4b45-8db6-1d3b911c2d1f","ios":"levelo://app?vid=cddebfb5-ba9a-4b45-8db6-1d3b911c2d1f"},"vehicle_type_id":"4","last_reported":1747041117,"current_range_meters":19200,"station_id":"ce4bgn92rcd13ifvqbvg","pricing_plan_id":"cebpf4jnsgd1na2vs0mg"},{"bike_id":"c2180296-e525-4f7e-aeda-5622275d4cbc","system_id":"levelo_inurba_marseille","lat":43.30517,"lon":5.36529,"is_reserved":false,"is_disabled":false,"rental_uris":{"android":"levelo://app?vid=c2180296-e525-4f7e-aeda-5622275d4cbc","ios":"levelo://app?vid=c2180296-e525-4f7e-aeda-5622275d4cbc"},"vehicle_type_id":"4","last_reported":1747041117,"current_range_meters":19600,"station_id":"ce4bgs12rcd13ifvqcag","pricing_plan_id":"cebpf4jnsgd1na2vs0mg"},{"bike_id":"3117fa6f-355d-4619-8feb-0b35b34e6d1b","system_id":"levelo_inurba_marseille","lat":43.29198,"lon":5.35802,"is_reserved":false,"is_disabled":false,"rental_uris":{"android":"levelo://app?vid=3117fa6f-355d-4619-8feb-0b35b34e6d1b","ios":"levelo://app?vid=3117fa6f-355d-4619-8feb-0b35b34e6d1b"},"vehicle_type_id":"4","last_reported":1747041117,"current_range_meters":19600,"station_id":"ce4bhb12rcd13ifvqel0","pricing_plan_id":"cebpf4jnsgd1na2vs0mg"},{"bike_id":"52113851-1488-4df3-816e-7070c016bca6","system_id":"levelo_inurba_marseille","lat":43.26578,"lon":5.39017,"is_reserved":false,"is_disabled":false,"rental_uris":{"android":"levelo://app?vid=52113851-1488-4df3-816e-7070c016bca6","ios":"levelo://app?vid=52113851-1488-4df3-816e-7070c016bca6"},"vehicle_type_id":"4","last_reported":1747041117,"current_range_meters":19600,"station_id":"ce4bhe12rcd13ifvqf30","pricing_plan_id":"cebpf4jnsgd1na2vs0mg"},{"bike_id":"3b28ae84-c2a8-482c-bf98-f246040ffcdd","system_id":"levelo_inurba_marseille","lat":43.2928,"lon":5.36855,"is_reserved":false,"is_disabled":false,"rental_uris":{"android":"levelo://app?vid=3b28ae84-c2a8-482c-bf98-f246040ffcdd","ios":"levelo://app?vid=3b28ae84-c2a8-482c-bf98-f246040ffcdd"},"vehicle_type_id":"4","last_reported":1747041117,"current_range_meters":19600,"station_id":"ce4bhbp2rcd13ifvqesg","pricing_plan_id":"cebpf4jnsgd1na2vs0mg"},{"bike_id":"f1430957-2a9d-420a-bb7c-e46cbe003d0d","system_id":"levelo_inurba_marseille","lat":43.30257,"lon":5.40092,"is_reserved":false,"is_disabled":false,"rental_uris":{"android":"levelo://app?vid=f1430957-2a9d-420a-bb7c-e46cbe003d0d","ios":"levelo://app?vid=f1430957-2a9d-420a-bb7c-e46cbe003d0d"},"vehicle_type_id":"4","last_reported":1747041117,"current_range_meters":19600,"station_id":"ce4bgvh2rcd13ifvqcs0","pricing_plan_id":"cebpf4jnsgd1na2vs0mg"},{"bike_id":"9f952b18-032d-4a87-a464-b179467689ad","system_id":"levelo_inurba_marseille","lat":43.28282,"lon":5.35073,"is_reserved":false,"is_disabled":true,"rental_uris":{"android":"levelo://app?vid=9f952b18-032d-4a87-a464-b179467689ad","ios":"levelo://app?vid=9f952b18-032d-4a87-a464-b179467689ad"},"vehicle_type_id":"4","last_reported":1747041117,"current_range_meters":19600,"station_id":"ce4bhbp2rcd13ifvqerg","pricing_plan_id":"cebpf4jnsgd1na2vs0mg"},{"bike_id":"aa0db7d6-7f29-4a87-aca9-81db8edadd6f","system_id":"levelo_inurba_marseille","lat":43.23177,"lon":5.39985,"is_reserved":false,"is_disabled":false,"rental_uris":{"android":"levelo://app?vid=aa0db7d6-7f29-4a87-aca9-81db8edadd6f","ios":"levelo://app?vid=aa0db7d6-7f29-4a87-aca9-81db8edadd6f"},"vehicle_type_id":"4","last_reported":1747041117,"current_range_meters":19600,"station_id":"ce4bhn12rcd13ifvqgqg","pricing_plan_id":"cebpf4jnsgd1na2vs0mg"},{"bike_id":"052e8be5-756e-40b8-bf8d-fe2bdca2d830","system_id":"levelo_inurba_marseille","lat":43.21192,"lon":5.35079,"is_reserved":false,"is_disabled":false,"rental_uris":{"android":"levelo://app?vid=052e8be5-756e-40b8-bf8d-fe2bdca2d830","ios":"levelo://app?vid=052e8be5-756e-40b8-bf8d-fe2bdca2d830"},"vehicle_type_id":"4","last_reported":1747041117,"current_range_meters":20000,"station_id":"st_cvj6sg6p6f1abm77japg","pricing_plan_id":"cebpf4jnsgd1na2vs0mg"},{"bike_id":"e018035b-a49f-4348-9618-24f754f704cb","system_id":"levelo_inurba_marseille","lat":43.26556,"lon":5.37281,"is_reserved":false,"is_disabled":false,"rental_uris":{"android":"levelo://app?vid=e018035b-a49f-4348-9618-24f754f704cb","ios":"levelo://app?vid=e018035b-a49f-4348-9618-24f754f704cb"},"vehicle_type_id":"4","last_reported":1747041117,"current_range_meters":20000,"station_id":"ce4bhg12rcd13ifvqf70","pricing_plan_id":"cebpf4jnsgd1na2vs0mg"},{"bike_id":"ea1eca92-ae8d-4090-800e-971b03021a45","system_id":"levelo_inurba_marseille","lat":43.274937,"lon":5.424508,"is_reserved":false,"is_disabled":false,"rental_uris":{"android":"levelo://app?vid=ea1eca92-ae8d-4090-800e-971b03021a45","ios":"levelo://app?vid=ea1eca92-ae8d-4090-800e-971b03021a45"},"vehicle_type_id":"4","last_reported":1747041117,"current_range_meters":20000,"station_id":"ce4bhn92rcd13ifvqgrg","pricing_plan_id":"cebpf4jnsgd1na2vs0mg"},{"bike_id":"3b81a612-90b1-4769-9944-0c6295e97edc","system_id":"levelo_inurba_marseille","lat":43.30554,"lon":5.36534,"is_reserved":false,"is_disabled":false,"rental_uris":{"android":"levelo://app?vid=3b81a612-90b1-4769-9944-0c6295e97edc","ios":"levelo://app?vid=3b81a612-90b1-4769-9944-0c6295e97edc"},"vehicle_type_id":"4","last_reported":1747041117,"current_range_meters":20000,"station_id":"ce4bgs12rcd13ifvqcag","pricing_plan_id":"cebpf4jnsgd1na2vs0mg"},{"bike_id":"ad318f3b-2a79-4060-98f6-ed32498cf202","system_id":"levelo_inurba_marseille","lat":43.25934,"lon":5.40902,"is_reserved":false,"is_disabled":false,"rental_uris":{"android":"levelo://app?vid=ad318f3b-2a79-4060-98f6-ed32498cf202","ios":"levelo://app?vid=ad318f3b-2a79-4060-98f6-ed32498cf202"},"vehicle_type_id":"4","last_reported":1747041117,"current_range_meters":20000,"station_id":"ce4bhm92rcd13ifvqglg","pricing_plan_id":"cebpf4jnsgd1na2vs0mg"},{"bike_id":"b336a229-0bf1-452c-97d8-afd000b0f02e","system_id":"levelo_inurba_marseille","lat":43.32475,"lon":5.36588,"is_reserved":false,"is_disabled":true,"rental_uris":{"android":"levelo://app?vid=b336a229-0bf1-452c-97d8-afd000b0f02e","ios":"levelo://app?vid=b336a229-0bf1-452c-97d8-afd000b0f02e"},"vehicle_type_id":"4","last_reported":1747041117,"current_range_meters":20000,"station_id":"ce4bhs12rcd13ifvqhvg","pricing_plan_id":"cebpf4jnsgd1na2vs0mg"},{"bike_id":"bf6d392c-76ea-4e2e-8173-b31e7f798cd8","system_id":"levelo_inurba_marseille","lat":43.2591,"lon":5.40876,"is_reserved":false,"is_disabled":false,"rental_uris":{"android":"levelo://app?vid=bf6d392c-76ea-4e2e-8173-b31e7f798cd8","ios":"levelo://app?vid=bf6d392c-76ea-4e2e-8173-b31e7f798cd8"},"vehicle_type_id":"4","last_reported":1747041117,"current_range_meters":20000,"station_id":"ce4bhm92rcd13ifvqglg","pricing_plan_id":"cebpf4jnsgd1na2vs0mg"},{"bike_id":"1a06f3e1-6099-4b0d-b785-14361e2c8265","system_id":"levelo_inurba_marseille","lat":43.31489,"lon":5.37306,"is_reserved":false,"is_disabled":false,"rental_uris":{"android":"levelo://app?vid=1a06f3e1-6099-4b0d-b785-14361e2c8265","ios":"levelo://app?vid=1a06f3e1-6099-4b0d-b785-14361e2c8265"},"vehicle_type_id":"4","last_reported":1747041117,"current_range_meters":20000,"station_id":"ce4bgt12rcd13ifvqcd0","pricing_plan_id":"cebpf4jnsgd1na2vs0mg"},{"bike_id":"b74440fb-a055-4f6e-ab47-b3f483f1cc70","system_id":"levelo_inurba_marseille","lat":43.324785,"lon":5.365612,"is_reserved":false,"is_disabled":false,"rental_uris":{"android":"levelo://app?vid=b74440fb-a055-4f6e-ab47-b3f483f1cc70","ios":"levelo://app?vid=b74440fb-a055-4f6e-ab47-b3f483f1cc70"},"vehicle_type_id":"4","last_reported":1747041117,"current_range_meters":20000,"station_id":"ce4bhs12rcd13ifvqhvg","pricing_plan_id":"cebpf4jnsgd1na2vs0mg"},{"bike_id":"10b8f2b5-af8e-4175-b655-d778d526daf3","system_id":"levelo_inurba_marseille","lat":43.30889,"lon":5.37201,"is_reserved":false,"is_disabled":false,"rental_uris":{"android":"levelo://app?vid=10b8f2b5-af8e-4175-b655-d778d526daf3","ios":"levelo://app?vid=10b8f2b5-af8e-4175-b655-d778d526daf3"},"vehicle_type_id":"4","last_reported":1747041117,"current_range_meters":20400,"station_id":"ce4bguh2rcd13ifvqckg","pricing_plan_id":"cebpf4jnsgd1na2vs0mg"},{"bike_id":"66a830f0-d9b0-4794-954b-5a2a3132c8af","system_id":"levelo_inurba_marseille","lat":43.23143,"lon":5.43709,"is_reserved":false,"is_disabled":false,"rental_uris":{"android":"levelo://app?vid=66a830f0-d9b0-4794-954b-5a2a3132c8af","ios":"levelo://app?vid=66a830f0-d9b0-4794-954b-5a2a3132c8af"},"vehicle_type_id":"4","last_reported":1747041117,"current_range_meters":20000,"station_id":"ce4bhmp2rcd13ifvqgog","pricing_plan_id":"cebpf4jnsgd1na2vs0mg"},{"bike_id":"cc25aae6-3197-44f8-8471-8a0efb35cc4f","system_id":"levelo_inurba_marseille","lat":43.30624,"lon":5.36545,"is_reserved":false,"is_disabled":false,"rental_uris":{"android":"levelo://app?vid=cc25aae6-3197-44f8-8471-8a0efb35cc4f","ios":"levelo://app?vid=cc25aae6-3197-44f8-8471-8a0efb35cc4f"},"vehicle_type_id":"4","last_reported":1747041117,"current_range_meters":20400,"station_id":"","pricing_plan_id":"cebpf4jnsgd1na2vs0mg"},{"bike_id":"c84cc980-38fe-4761-924e-99f94b7ce9c7","system_id":"levelo_inurba_marseille","lat":43.337444,"lon":5.374475,"is_reserved":false,"is_disabled":true,"rental_uris":{"android":"levelo://app?vid=c84cc980-38fe-4761-924e-99f94b7ce9c7","ios":"levelo://app?vid=c84cc980-38fe-4761-924e-99f94b7ce9c7"},"vehicle_type_id":"4","last_reported":1747041117,"current_range_meters":20400,"station_id":"","pricing_plan_id":"cebpf4jnsgd1na2vs0mg"},{"bike_id":"c984599d-0ff7-46d9-9c72-bf3789634190","system_id":"levelo_inurba_marseille","lat":43.293187,"lon":5.371638,"is_reserved":false,"is_disabled":false,"rental_uris":{"android":"levelo://app?vid=c984599d-0ff7-46d9-9c72-bf3789634190","ios":"levelo://app?vid=c984599d-0ff7-46d9-9c72-bf3789634190"},"vehicle_type_id":"4","last_reported":1747041117,"current_range_meters":20400,"station_id":"ce4bgh92rcd13ifvqb40","pricing_plan_id":"cebpf4jnsgd1na2vs0mg"},{"bike_id":"dbd895d8-924b-478f-bd90-1998095e67fd","system_id":"levelo_inurba_marseille","lat":43.25866,"lon":5.39906,"is_reserved":false,"is_disabled":false,"rental_uris":{"android":"levelo://app?vid=dbd895d8-924b-478f-bd90-1998095e67fd","ios":"levelo://app?vid=dbd895d8-924b-478f-bd90-1998095e67fd"},"vehicle_type_id":"4","last_reported":1747041117,"current_range_meters":20800,"station_id":"ce4bhl92rcd13ifvqghg","pricing_plan_id":"cebpf4jnsgd1na2vs0mg"},{"bike_id":"b941536d-3347-4768-82d9-cc6675e7dfd8","system_id":"levelo_inurba_marseille","lat":43.26565,"lon":5.38993,"is_reserved":false,"is_disabled":false,"rental_uris":{"android":"levelo://app?vid=b941536d-3347-4768-82d9-cc6675e7dfd8","ios":"levelo://app?vid=b941536d-3347-4768-82d9-cc6675e7dfd8"},"vehicle_type_id":"4","last_reported":1747041117,"current_range_meters":20800,"station_id":"ce4bhe12rcd13ifvqf30","pricing_plan_id":"cebpf4jnsgd1na2vs0mg"},{"bike_id":"0ff5100d-86c0-4f46-bc4c-c1d779085578","system_id":"levelo_inurba_marseille","lat":43.23183,"lon":5.39984,"is_reserved":false,"is_disabled":false,"rental_uris":{"android":"levelo://app?vid=0ff5100d-86c0-4f46-bc4c-c1d779085578","ios":"levelo://app?vid=0ff5100d-86c0-4f46-bc4c-c1d779085578"},"vehicle_type_id":"4","last_reported":1747041117,"current_range_meters":20800,"station_id":"ce4bhn12rcd13ifvqgqg","pricing_plan_id":"cebpf4jnsgd1na2vs0mg"},{"bike_id":"dc53d17a-6042-4f83-8552-4e608df3f076","system_id":"levelo_inurba_marseille","lat":43.25525,"lon":5.40077,"is_reserved":false,"is_disabled":false,"rental_uris":{"android":"levelo://app?vid=dc53d17a-6042-4f83-8552-4e608df3f076","ios":"levelo://app?vid=dc53d17a-6042-4f83-8552-4e608df3f076"},"vehicle_type_id":"4","last_reported":1747041117,"current_range_meters":20800,"station_id":"","pricing_plan_id":"cebpf4jnsgd1na2vs0mg"},{"bike_id":"c79e41c8-2bbc-4c46-bb8d-06eb7b747501","system_id":"levelo_inurba_marseille","lat":43.26795,"lon":5.3941,"is_reserved":false,"is_disabled":false,"rental_uris":{"android":"levelo://app?vid=c79e41c8-2bbc-4c46-bb8d-06eb7b747501","ios":"levelo://app?vid=c79e41c8-2bbc-4c46-bb8d-06eb7b747501"},"vehicle_type_id":"4","last_reported":1747041117,"current_range_meters":20800,"station_id":"ce4bhh12rcd13ifvqfg0","pricing_plan_id":"cebpf4jnsgd1na2vs0mg"},{"bike_id":"986f1567-4a9f-471e-ad2c-3c962c5d9526","system_id":"levelo_inurba_marseille","lat":43.281313,"lon":5.386037,"is_reserved":false,"is_disabled":true,"rental_uris":{"android":"levelo://app?vid=986f1567-4a9f-471e-ad2c-3c962c5d9526","ios":"levelo://app?vid=986f1567-4a9f-471e-ad2c-3c962c5d9526"},"vehicle_type_id":"4","last_reported":1747041117,"current_range_meters":20800,"station_id":"","pricing_plan_id":"cebpf4jnsgd1na2vs0mg"},{"bike_id":"504380e2-220e-4851-8fb5-3d12b71f87de","system_id":"levelo_inurba_marseille","lat":43.3091,"lon":5.36844,"is_reserved":false,"is_disabled":false,"rental_uris":{"android":"levelo://app?vid=504380e2-220e-4851-8fb5-3d12b71f87de","ios":"levelo://app?vid=504380e2-220e-4851-8fb5-3d12b71f87de"},"vehicle_type_id":"4","last_reported":1747041117,"current_range_meters":20800,"station_id":"ce4bgn92rcd13ifvqbvg","pricing_plan_id":"cebpf4jnsgd1na2vs0mg"},{"bike_id":"127a0a18-62fd-4f34-85c6-45856c5a3f95","system_id":"levelo_inurba_marseille","lat":43.289688,"lon":5.378364,"is_reserved":false,"is_disabled":false,"rental_uris":{"android":"levelo://app?vid=127a0a18-62fd-4f34-85c6-45856c5a3f95","ios":"levelo://app?vid=127a0a18-62fd-4f34-85c6-45856c5a3f95"},"vehicle_type_id":"4","last_reported":1747041117,"current_range_meters":20800,"station_id":"ce4bh9p2rcd13ifvqed0","pricing_plan_id":"cebpf4jnsgd1na2vs0mg"},{"bike_id":"e7f34094-fb6f-46cd-bc78-058f6c1ffb5f","system_id":"levelo_inurba_marseille","lat":43.29916,"lon":5.3814,"is_reserved":false,"is_disabled":false,"rental_uris":{"android":"levelo://app?vid=e7f34094-fb6f-46cd-bc78-058f6c1ffb5f","ios":"levelo://app?vid=e7f34094-fb6f-46cd-bc78-058f6c1ffb5f"},"vehicle_type_id":"4","last_reported":1747041117,"current_range_meters":21600,"station_id":"ce4bgj12rcd13ifvqbc0","pricing_plan_id":"cebpf4jnsgd1na2vs0mg"},{"bike_id":"641094cf-af75-4792-8ce7-2c9d985200e5","system_id":"levelo_inurba_marseille","lat":43.309537,"lon":5.390566,"is_reserved":false,"is_disabled":false,"rental_uris":{"android":"levelo://app?vid=641094cf-af75-4792-8ce7-2c9d985200e5","ios":"levelo://app?vid=641094cf-af75-4792-8ce7-2c9d985200e5"},"vehicle_type_id":"4","last_reported":1747041117,"current_range_meters":21600,"station_id":"ce4bgup2rcd13ifvqco0","pricing_plan_id":"cebpf4jnsgd1na2vs0mg"},{"bike_id":"9e1c9875-7a5f-4dba-bb6e-1cf063013d74","system_id":"levelo_inurba_marseille","lat":43.2919,"lon":5.358,"is_reserved":false,"is_disabled":false,"rental_uris":{"android":"levelo://app?vid=9e1c9875-7a5f-4dba-bb6e-1cf063013d74","ios":"levelo://app?vid=9e1c9875-7a5f-4dba-bb6e-1cf063013d74"},"vehicle_type_id":"4","last_reported":1747041117,"current_range_meters":21600,"station_id":"ce4bhb12rcd13ifvqel0","pricing_plan_id":"cebpf4jnsgd1na2vs0mg"},{"bike_id":"10a2934f-a63d-4b20-9284-6189164d47c9","system_id":"levelo_inurba_marseille","lat":43.30918,"lon":5.36846,"is_reserved":false,"is_disabled":false,"rental_uris":{"android":"levelo://app?vid=10a2934f-a63d-4b20-9284-6189164d47c9","ios":"levelo://app?vid=10a2934f-a63d-4b20-9284-6189164d47c9"},"vehicle_type_id":"4","last_reported":1747041117,"current_range_meters":21600,"station_id":"ce4bgn92rcd13ifvqbvg","pricing_plan_id":"cebpf4jnsgd1na2vs0mg"},{"bike_id":"0bf9c336-2203-4801-89d0-7d5a9c844224","system_id":"levelo_inurba_marseille","lat":43.274927,"lon":5.42457,"is_reserved":false,"is_disabled":false,"rental_uris":{"android":"levelo://app?vid=0bf9c336-2203-4801-89d0-7d5a9c844224","ios":"levelo://app?vid=0bf9c336-2203-4801-89d0-7d5a9c844224"},"vehicle_type_id":"4","last_reported":1747041117,"current_range_meters":21600,"station_id":"ce4bhn92rcd13ifvqgrg","pricing_plan_id":"cebpf4jnsgd1na2vs0mg"},{"bike_id":"feaed5e1-8dfb-4df7-bd3a-9eb769163c1a","system_id":"levelo_inurba_marseille","lat":43.30902,"lon":5.36828,"is_reserved":false,"is_disabled":false,"rental_uris":{"android":"levelo://app?vid=feaed5e1-8dfb-4df7-bd3a-9eb769163c1a","ios":"levelo://app?vid=feaed5e1-8dfb-4df7-bd3a-9eb769163c1a"},"vehicle_type_id":"4","last_reported":1747041117,"current_range_meters":21600,"station_id":"ce4bgn92rcd13ifvqbvg","pricing_plan_id":"cebpf4jnsgd1na2vs0mg"},{"bike_id":"b5bf798b-62b6-4c83-b4af-1967f8178485","system_id":"levelo_inurba_marseille","lat":43.34151,"lon":5.40913,"is_reserved":false,"is_disabled":false,"rental_uris":{"android":"levelo://app?vid=b5bf798b-62b6-4c83-b4af-1967f8178485","ios":"levelo://app?vid=b5bf798b-62b6-4c83-b4af-1967f8178485"},"vehicle_type_id":"4","last_reported":1747041117,"current_range_meters":22000,"station_id":"ce4bhqh2rcd13ifvqhlg","pricing_plan_id":"cebpf4jnsgd1na2vs0mg"},{"bike_id":"8de0a9a3-7e07-4fff-90c6-2e6a7262b942","system_id":"levelo_inurba_marseille","lat":43.31236,"lon":5.36862,"is_reserved":false,"is_disabled":false,"rental_uris":{"android":"levelo://app?vid=8de0a9a3-7e07-4fff-90c6-2e6a7262b942","ios":"levelo://app?vid=8de0a9a3-7e07-4fff-90c6-2e6a7262b942"},"vehicle_type_id":"4","last_reported":1747041117,"current_range_meters":22000,"station_id":"ce4bgl92rcd13ifvqbq0","pricing_plan_id":"cebpf4jnsgd1na2vs0mg"},{"bike_id":"77f04649-f9d2-4222-99e5-75d958567933","system_id":"levelo_inurba_marseille","lat":43.25952,"lon":5.40898,"is_reserved":false,"is_disabled":false,"rental_uris":{"android":"levelo://app?vid=77f04649-f9d2-4222-99e5-75d958567933","ios":"levelo://app?vid=77f04649-f9d2-4222-99e5-75d958567933"},"vehicle_type_id":"4","last_reported":1747041117,"current_range_meters":22000,"station_id":"ce4bhm92rcd13ifvqglg","pricing_plan_id":"cebpf4jnsgd1na2vs0mg"},{"bike_id":"fcf9463b-401b-4157-a5a9-4c36ca7d015d","system_id":"levelo_inurba_marseille","lat":43.3068,"lon":5.37047,"is_reserved":false,"is_disabled":false,"rental_uris":{"android":"levelo://app?vid=fcf9463b-401b-4157-a5a9-4c36ca7d015d","ios":"levelo://app?vid=fcf9463b-401b-4157-a5a9-4c36ca7d015d"},"vehicle_type_id":"4","last_reported":1747041117,"current_range_meters":22000,"station_id":"","pricing_plan_id":"cebpf4jnsgd1na2vs0mg"},{"bike_id":"025b2018-5ff3-4c4c-9661-1931d34e9be8","system_id":"levelo_inurba_marseille","lat":43.23584,"lon":5.3611,"is_reserved":false,"is_disabled":true,"rental_uris":{"android":"levelo://app?vid=025b2018-5ff3-4c4c-9661-1931d34e9be8","ios":"levelo://app?vid=025b2018-5ff3-4c4c-9661-1931d34e9be8"},"vehicle_type_id":"4","last_reported":1747041117,"current_range_meters":22000,"station_id":"","pricing_plan_id":"cebpf4jnsgd1na2vs0mg"},{"bike_id":"18471fbb-629e-4e0d-81f5-3bc41a3ecbbc","system_id":"levelo_inurba_marseille","lat":43.29844,"lon":5.36277,"is_reserved":false,"is_disabled":false,"rental_uris":{"android":"levelo://app?vid=18471fbb-629e-4e0d-81f5-3bc41a3ecbbc","ios":"levelo://app?vid=18471fbb-629e-4e0d-81f5-3bc41a3ecbbc"},"vehicle_type_id":"4","last_reported":1747041117,"current_range_meters":22000,"station_id":"ce4bgpp2rcd13ifvqc3g","pricing_plan_id":"cebpf4jnsgd1na2vs0mg"},{"bike_id":"c4fd8167-4cbc-4fe9-aac8-3233780bcf7b","system_id":"levelo_inurba_marseille","lat":43.29891,"lon":5.3625,"is_reserved":false,"is_disabled":false,"rental_uris":{"android":"levelo://app?vid=c4fd8167-4cbc-4fe9-aac8-3233780bcf7b","ios":"levelo://app?vid=c4fd8167-4cbc-4fe9-aac8-3233780bcf7b"},"vehicle_type_id":"4","last_reported":1747041117,"current_range_meters":22400,"station_id":"","pricing_plan_id":"cebpf4jnsgd1na2vs0mg"},{"bike_id":"f52ac0a1-aac5-455d-a880-8e13fabb2b52","system_id":"levelo_inurba_marseille","lat":43.32363,"lon":5.38881,"is_reserved":false,"is_disabled":false,"rental_uris":{"android":"levelo://app?vid=f52ac0a1-aac5-455d-a880-8e13fabb2b52","ios":"levelo://app?vid=f52ac0a1-aac5-455d-a880-8e13fabb2b52"},"vehicle_type_id":"4","last_reported":1747041117,"current_range_meters":22000,"station_id":"ce4bhqp2rcd13ifvqhog","pricing_plan_id":"cebpf4jnsgd1na2vs0mg"},{"bike_id":"94aecf60-80e2-4740-9194-acfe27b5c88e","system_id":"levelo_inurba_marseille","lat":43.27498,"lon":5.42462,"is_reserved":false,"is_disabled":false,"rental_uris":{"android":"levelo://app?vid=94aecf60-80e2-4740-9194-acfe27b5c88e","ios":"levelo://app?vid=94aecf60-80e2-4740-9194-acfe27b5c88e"},"vehicle_type_id":"4","last_reported":1747041117,"current_range_meters":22400,"station_id":"ce4bhn92rcd13ifvqgrg","pricing_plan_id":"cebpf4jnsgd1na2vs0mg"},{"bike_id":"ddf0ce40-ab94-4d84-87bc-0f7886d1f8d0","system_id":"levelo_inurba_marseille","lat":43.29601,"lon":5.37737,"is_reserved":false,"is_disabled":false,"rental_uris":{"android":"levelo://app?vid=ddf0ce40-ab94-4d84-87bc-0f7886d1f8d0","ios":"levelo://app?vid=ddf0ce40-ab94-4d84-87bc-0f7886d1f8d0"},"vehicle_type_id":"4","last_reported":1747041117,"current_range_meters":22400,"station_id":"ce4bgi92rcd13ifvqb90","pricing_plan_id":"cebpf4jnsgd1na2vs0mg"},{"bike_id":"c8e3f745-b06b-4bed-911e-4375e67ee469","system_id":"levelo_inurba_marseille","lat":43.25906,"lon":5.4089,"is_reserved":false,"is_disabled":false,"rental_uris":{"android":"levelo://app?vid=c8e3f745-b06b-4bed-911e-4375e67ee469","ios":"levelo://app?vid=c8e3f745-b06b-4bed-911e-4375e67ee469"},"vehicle_type_id":"4","last_reported":1747041117,"current_range_meters":22400,"station_id":"ce4bhm92rcd13ifvqglg","pricing_plan_id":"cebpf4jnsgd1na2vs0mg"},{"bike_id":"a2ca5ede-ce4f-4c21-a020-bb0d99beeee4","system_id":"levelo_inurba_marseille","lat":43.25942,"lon":5.40907,"is_reserved":false,"is_disabled":false,"rental_uris":{"android":"levelo://app?vid=a2ca5ede-ce4f-4c21-a020-bb0d99beeee4","ios":"levelo://app?vid=a2ca5ede-ce4f-4c21-a020-bb0d99beeee4"},"vehicle_type_id":"4","last_reported":1747041117,"current_range_meters":22400,"station_id":"ce4bhm92rcd13ifvqglg","pricing_plan_id":"cebpf4jnsgd1na2vs0mg"},{"bike_id":"f4f00e44-cb75-4f81-9a86-45de7991e3d4","system_id":"levelo_inurba_marseille","lat":43.2929,"lon":5.37466,"is_reserved":false,"is_disabled":false,"rental_uris":{"android":"levelo://app?vid=f4f00e44-cb75-4f81-9a86-45de7991e3d4","ios":"levelo://app?vid=f4f00e44-cb75-4f81-9a86-45de7991e3d4"},"vehicle_type_id":"4","last_reported":1747041117,"current_range_meters":22400,"station_id":"ce4bgi12rcd13ifvqb70","pricing_plan_id":"cebpf4jnsgd1na2vs0mg"},{"bike_id":"90959ec7-6883-4eec-88ce-550a9097f69f","system_id":"levelo_inurba_marseille","lat":43.2843,"lon":5.34969,"is_reserved":false,"is_disabled":true,"rental_uris":{"android":"levelo://app?vid=90959ec7-6883-4eec-88ce-550a9097f69f","ios":"levelo://app?vid=90959ec7-6883-4eec-88ce-550a9097f69f"},"vehicle_type_id":"4","last_reported":1747041117,"current_range_meters":30000,"station_id":"","pricing_plan_id":"cebpf4jnsgd1na2vs0mg"},{"bike_id":"03c7f2c6-cdb4-4a6b-9467-0c2d28c5f0ff","system_id":"levelo_inurba_marseille","lat":43.30145,"lon":5.37427,"is_reserved":false,"is_disabled":false,"rental_uris":{"android":"levelo://app?vid=03c7f2c6-cdb4-4a6b-9467-0c2d28c5f0ff","ios":"levelo://app?vid=03c7f2c6-cdb4-4a6b-9467-0c2d28c5f0ff"},"vehicle_type_id":"4","last_reported":1747041117,"current_range_meters":22400,"station_id":"ce4bgs92rcd13ifvqcc0","pricing_plan_id":"cebpf4jnsgd1na2vs0mg"},{"bike_id":"ea5f4cd8-3650-4c02-bb6d-7c8641e06da7","system_id":"levelo_inurba_marseille","lat":43.30893,"lon":5.36838,"is_reserved":false,"is_disabled":false,"rental_uris":{"android":"levelo://app?vid=ea5f4cd8-3650-4c02-bb6d-7c8641e06da7","ios":"levelo://app?vid=ea5f4cd8-3650-4c02-bb6d-7c8641e06da7"},"vehicle_type_id":"4","last_reported":1747041117,"current_range_meters":22800,"station_id":"ce4bgn92rcd13ifvqbvg","pricing_plan_id":"cebpf4jnsgd1na2vs0mg"},{"bike_id":"2b2fed0e-5e9f-4592-a25c-5cd5b9b8cbf7","system_id":"levelo_inurba_marseille","lat":43.29967,"lon":5.38492,"is_reserved":false,"is_disabled":false,"rental_uris":{"android":"levelo://app?vid=2b2fed0e-5e9f-4592-a25c-5cd5b9b8cbf7","ios":"levelo://app?vid=2b2fed0e-5e9f-4592-a25c-5cd5b9b8cbf7"},"vehicle_type_id":"4","last_reported":1747041117,"current_range_meters":22800,"station_id":"ce4bgj92rcd13ifvqbd0","pricing_plan_id":"cebpf4jnsgd1na2vs0mg"},{"bike_id":"8c762d58-fcbe-4c12-b06c-364f35e644c9","system_id":"levelo_inurba_marseille","lat":43.295736,"lon":5.375217,"is_reserved":false,"is_disabled":true,"rental_uris":{"android":"levelo://app?vid=8c762d58-fcbe-4c12-b06c-364f35e644c9","ios":"levelo://app?vid=8c762d58-fcbe-4c12-b06c-364f35e644c9"},"vehicle_type_id":"4","last_reported":1747041117,"current_range_meters":22800,"station_id":"ce4bgi92rcd13ifvqb90","pricing_plan_id":"cebpf4jnsgd1na2vs0mg"},{"bike_id":"dc641743-b968-4496-812a-3b41120ce533","system_id":"levelo_inurba_marseille","lat":43.28421,"lon":5.34987,"is_reserved":false,"is_disabled":false,"rental_uris":{"android":"levelo://app?vid=dc641743-b968-4496-812a-3b41120ce533","ios":"levelo://app?vid=dc641743-b968-4496-812a-3b41120ce533"},"vehicle_type_id":"4","last_reported":1747041117,"current_range_meters":22800,"station_id":"ce4bhbh2rcd13ifvqepg","pricing_plan_id":"cebpf4jnsgd1na2vs0mg"},{"bike_id":"47104ea8-e2fc-4e97-947c-cff2dd683076","system_id":"levelo_inurba_marseille","lat":43.29052,"lon":5.3592,"is_reserved":false,"is_disabled":false,"rental_uris":{"android":"levelo://app?vid=47104ea8-e2fc-4e97-947c-cff2dd683076","ios":"levelo://app?vid=47104ea8-e2fc-4e97-947c-cff2dd683076"},"vehicle_type_id":"4","last_reported":1747041117,"current_range_meters":22800,"station_id":"ce4bha92rcd13ifvqeg0","pricing_plan_id":"cebpf4jnsgd1na2vs0mg"},{"bike_id":"dac6d36f-1477-4b94-9228-65c8999ffac4","system_id":"levelo_inurba_marseille","lat":43.28361,"lon":5.3864,"is_reserved":false,"is_disabled":false,"rental_uris":{"android":"levelo://app?vid=dac6d36f-1477-4b94-9228-65c8999ffac4","ios":"levelo://app?vid=dac6d36f-1477-4b94-9228-65c8999ffac4"},"vehicle_type_id":"4","last_reported":1747041117,"current_range_meters":22800,"station_id":"ce4bh492rcd13ifvqdvg","pricing_plan_id":"cebpf4jnsgd1na2vs0mg"},{"bike_id":"1fe5cd3c-b89c-47be-8fa0-fbcac5696485","system_id":"levelo_inurba_marseille","lat":43.26569,"lon":5.38992,"is_reserved":false,"is_disabled":false,"rental_uris":{"android":"levelo://app?vid=1fe5cd3c-b89c-47be-8fa0-fbcac5696485","ios":"levelo://app?vid=1fe5cd3c-b89c-47be-8fa0-fbcac5696485"},"vehicle_type_id":"4","last_reported":1747041117,"current_range_meters":22800,"station_id":"ce4bhe12rcd13ifvqf30","pricing_plan_id":"cebpf4jnsgd1na2vs0mg"},{"bike_id":"7836b4bc-7d58-466b-be3c-0a70e9c2ba81","system_id":"levelo_inurba_marseille","lat":43.30551,"lon":5.36528,"is_reserved":false,"is_disabled":false,"rental_uris":{"android":"levelo://app?vid=7836b4bc-7d58-466b-be3c-0a70e9c2ba81","ios":"levelo://app?vid=7836b4bc-7d58-466b-be3c-0a70e9c2ba81"},"vehicle_type_id":"4","last_reported":1747041117,"current_range_meters":22800,"station_id":"ce4bgs12rcd13ifvqcag","pricing_plan_id":"cebpf4jnsgd1na2vs0mg"},{"bike_id":"9f480ce6-71eb-46d6-af21-ed9d3348125b","system_id":"levelo_inurba_marseille","lat":43.31477,"lon":5.37282,"is_reserved":false,"is_disabled":false,"rental_uris":{"android":"levelo://app?vid=9f480ce6-71eb-46d6-af21-ed9d3348125b","ios":"levelo://app?vid=9f480ce6-71eb-46d6-af21-ed9d3348125b"},"vehicle_type_id":"4","last_reported":1747041117,"current_range_meters":22800,"station_id":"ce4bgt12rcd13ifvqcd0","pricing_plan_id":"cebpf4jnsgd1na2vs0mg"},{"bike_id":"9190df99-a307-433e-90e0-340a66f17de6","system_id":"levelo_inurba_marseille","lat":43.25947,"lon":5.40898,"is_reserved":false,"is_disabled":false,"rental_uris":{"android":"levelo://app?vid=9190df99-a307-433e-90e0-340a66f17de6","ios":"levelo://app?vid=9190df99-a307-433e-90e0-340a66f17de6"},"vehicle_type_id":"4","last_reported":1747041117,"current_range_meters":23200,"station_id":"ce4bhm92rcd13ifvqglg","pricing_plan_id":"cebpf4jnsgd1na2vs0mg"},{"bike_id":"b78d6af9-e2ec-4b8b-9350-1fe4d2772590","system_id":"levelo_inurba_marseille","lat":43.28341,"lon":5.38103,"is_reserved":false,"is_disabled":false,"rental_uris":{"android":"levelo://app?vid=b78d6af9-e2ec-4b8b-9350-1fe4d2772590","ios":"levelo://app?vid=b78d6af9-e2ec-4b8b-9350-1fe4d2772590"},"vehicle_type_id":"4","last_reported":1747041117,"current_range_meters":23200,"station_id":"ce4bh412rcd13ifvqdr0","pricing_plan_id":"cebpf4jnsgd1na2vs0mg"},{"bike_id":"564cf414-1ef6-4d45-b079-fb3cc3e9b0f8","system_id":"levelo_inurba_marseille","lat":43.29279,"lon":5.36853,"is_reserved":false,"is_disabled":false,"rental_uris":{"android":"levelo://app?vid=564cf414-1ef6-4d45-b079-fb3cc3e9b0f8","ios":"levelo://app?vid=564cf414-1ef6-4d45-b079-fb3cc3e9b0f8"},"vehicle_type_id":"4","last_reported":1747041117,"current_range_meters":23200,"station_id":"ce4bhbp2rcd13ifvqesg","pricing_plan_id":"cebpf4jnsgd1na2vs0mg"},{"bike_id":"e4b4f8e9-f3ab-4012-80cc-8a6adcb47418","system_id":"levelo_inurba_marseille","lat":43.23174,"lon":5.39989,"is_reserved":false,"is_disabled":false,"rental_uris":{"android":"levelo://app?vid=e4b4f8e9-f3ab-4012-80cc-8a6adcb47418","ios":"levelo://app?vid=e4b4f8e9-f3ab-4012-80cc-8a6adcb47418"},"vehicle_type_id":"4","last_reported":1747041117,"current_range_meters":23200,"station_id":"","pricing_plan_id":"cebpf4jnsgd1na2vs0mg"},{"bike_id":"45eb10b2-1312-490c-9fcf-3c7991e677d0","system_id":"levelo_inurba_marseille","lat":43.29855,"lon":5.36273,"is_reserved":false,"is_disabled":false,"rental_uris":{"android":"levelo://app?vid=45eb10b2-1312-490c-9fcf-3c7991e677d0","ios":"levelo://app?vid=45eb10b2-1312-490c-9fcf-3c7991e677d0"},"vehicle_type_id":"4","last_reported":1747041117,"current_range_meters":23200,"station_id":"ce4bgpp2rcd13ifvqc3g","pricing_plan_id":"cebpf4jnsgd1na2vs0mg"},{"bike_id":"02ad220e-4f4a-4d8d-96bd-3ecf889fe3eb","system_id":"levelo_inurba_marseille","lat":43.29857,"lon":5.36261,"is_reserved":false,"is_disabled":false,"rental_uris":{"android":"levelo://app?vid=02ad220e-4f4a-4d8d-96bd-3ecf889fe3eb","ios":"levelo://app?vid=02ad220e-4f4a-4d8d-96bd-3ecf889fe3eb"},"vehicle_type_id":"4","last_reported":1747041117,"current_range_meters":23200,"station_id":"ce4bgpp2rcd13ifvqc3g","pricing_plan_id":"cebpf4jnsgd1na2vs0mg"},{"bike_id":"779ddad0-e86b-4d3f-a89c-e01d91533ea3","system_id":"levelo_inurba_marseille","lat":43.2986,"lon":5.36298,"is_reserved":false,"is_disabled":false,"rental_uris":{"android":"levelo://app?vid=779ddad0-e86b-4d3f-a89c-e01d91533ea3","ios":"levelo://app?vid=779ddad0-e86b-4d3f-a89c-e01d91533ea3"},"vehicle_type_id":"4","last_reported":1747041117,"current_range_meters":23200,"station_id":"ce4bgpp2rcd13ifvqc3g","pricing_plan_id":"cebpf4jnsgd1na2vs0mg"},{"bike_id":"5728e68c-f162-4e22-b613-26d103e45857","system_id":"levelo_inurba_marseille","lat":43.25945,"lon":5.40899,"is_reserved":false,"is_disabled":false,"rental_uris":{"android":"levelo://app?vid=5728e68c-f162-4e22-b613-26d103e45857","ios":"levelo://app?vid=5728e68c-f162-4e22-b613-26d103e45857"},"vehicle_type_id":"4","last_reported":1747041117,"current_range_meters":23200,"station_id":"ce4bhm92rcd13ifvqglg","pricing_plan_id":"cebpf4jnsgd1na2vs0mg"},{"bike_id":"e731d111-3911-4378-a89a-83bc2e86f50d","system_id":"levelo_inurba_marseille","lat":43.27615,"lon":5.36105,"is_reserved":false,"is_disabled":false,"rental_uris":{"android":"levelo://app?vid=e731d111-3911-4378-a89a-83bc2e86f50d","ios":"levelo://app?vid=e731d111-3911-4378-a89a-83bc2e86f50d"},"vehicle_type_id":"4","last_reported":1747041117,"current_range_meters":23200,"station_id":"ce4bgj92rcd13ifvqbe0","pricing_plan_id":"cebpf4jnsgd1na2vs0mg"},{"bike_id":"c05b632b-72c1-4f45-9ed8-255f586f4b08","system_id":"levelo_inurba_marseille","lat":43.336262,"lon":5.410313,"is_reserved":false,"is_disabled":false,"rental_uris":{"android":"levelo://app?vid=c05b632b-72c1-4f45-9ed8-255f586f4b08","ios":"levelo://app?vid=c05b632b-72c1-4f45-9ed8-255f586f4b08"},"vehicle_type_id":"4","last_reported":1747041117,"current_range_meters":24000,"station_id":"ce4bhqh2rcd13ifvqhmg","pricing_plan_id":"cebpf4jnsgd1na2vs0mg"},{"bike_id":"f7b28b14-5137-4023-b1b7-b7e5bb33d722","system_id":"levelo_inurba_marseille","lat":43.25937,"lon":5.40898,"is_reserved":false,"is_disabled":false,"rental_uris":{"android":"levelo://app?vid=f7b28b14-5137-4023-b1b7-b7e5bb33d722","ios":"levelo://app?vid=f7b28b14-5137-4023-b1b7-b7e5bb33d722"},"vehicle_type_id":"4","last_reported":1747041117,"current_range_meters":24000,"station_id":"ce4bhm92rcd13ifvqglg","pricing_plan_id":"cebpf4jnsgd1na2vs0mg"},{"bike_id":"04d66d1c-9824-4ef1-977b-71ea48fa7c25","system_id":"levelo_inurba_marseille","lat":43.29241,"lon":5.36494,"is_reserved":false,"is_disabled":false,"rental_uris":{"android":"levelo://app?vid=04d66d1c-9824-4ef1-977b-71ea48fa7c25","ios":"levelo://app?vid=04d66d1c-9824-4ef1-977b-71ea48fa7c25"},"vehicle_type_id":"4","last_reported":1747041117,"current_range_meters":24000,"station_id":"","pricing_plan_id":"cebpf4jnsgd1na2vs0mg"},{"bike_id":"a2ca6a83-67fe-446c-a770-98adf806b646","system_id":"levelo_inurba_marseille","lat":43.27966,"lon":5.38745,"is_reserved":false,"is_disabled":false,"rental_uris":{"android":"levelo://app?vid=a2ca6a83-67fe-446c-a770-98adf806b646","ios":"levelo://app?vid=a2ca6a83-67fe-446c-a770-98adf806b646"},"vehicle_type_id":"4","last_reported":1747041117,"current_range_meters":24000,"station_id":"ce4bhg12rcd13ifvqf80","pricing_plan_id":"cebpf4jnsgd1na2vs0mg"},{"bike_id":"3bb76f8d-de22-4c8b-9c35-324f92e2c0ce","system_id":"levelo_inurba_marseille","lat":43.27344,"lon":5.39057,"is_reserved":false,"is_disabled":true,"rental_uris":{"android":"levelo://app?vid=3bb76f8d-de22-4c8b-9c35-324f92e2c0ce","ios":"levelo://app?vid=3bb76f8d-de22-4c8b-9c35-324f92e2c0ce"},"vehicle_type_id":"4","last_reported":1747041117,"current_range_meters":24000,"station_id":"ce4bhgp2rcd13ifvqfe0","pricing_plan_id":"cebpf4jnsgd1na2vs0mg"},{"bike_id":"8584741d-2a43-4b7c-9b55-91100baec944","system_id":"levelo_inurba_marseille","lat":43.29856,"lon":5.36276,"is_reserved":false,"is_disabled":false,"rental_uris":{"android":"levelo://app?vid=8584741d-2a43-4b7c-9b55-91100baec944","ios":"levelo://app?vid=8584741d-2a43-4b7c-9b55-91100baec944"},"vehicle_type_id":"4","last_reported":1747041117,"current_range_meters":24000,"station_id":"ce4bgpp2rcd13ifvqc3g","pricing_plan_id":"cebpf4jnsgd1na2vs0mg"},{"bike_id":"581a76c6-406f-436c-80cf-424046378536","system_id":"levelo_inurba_marseille","lat":43.23136,"lon":5.43714,"is_reserved":false,"is_disabled":false,"rental_uris":{"android":"levelo://app?vid=581a76c6-406f-436c-80cf-424046378536","ios":"levelo://app?vid=581a76c6-406f-436c-80cf-424046378536"},"vehicle_type_id":"4","last_reported":1747041117,"current_range_meters":24000,"station_id":"ce4bhmp2rcd13ifvqgog","pricing_plan_id":"cebpf4jnsgd1na2vs0mg"},{"bike_id":"fd388c54-4eb4-4f54-ace2-004153200feb","system_id":"levelo_inurba_marseille","lat":43.29299,"lon":5.37181,"is_reserved":false,"is_disabled":true,"rental_uris":{"android":"levelo://app?vid=fd388c54-4eb4-4f54-ace2-004153200feb","ios":"levelo://app?vid=fd388c54-4eb4-4f54-ace2-004153200feb"},"vehicle_type_id":"4","last_reported":1747041117,"current_range_meters":24000,"station_id":"ce4bgh92rcd13ifvqb40","pricing_plan_id":"cebpf4jnsgd1na2vs0mg"},{"bike_id":"408d9330-e303-418f-8f08-2214028633bb","system_id":"levelo_inurba_marseille","lat":43.31223,"lon":5.36858,"is_reserved":false,"is_disabled":false,"rental_uris":{"android":"levelo://app?vid=408d9330-e303-418f-8f08-2214028633bb","ios":"levelo://app?vid=408d9330-e303-418f-8f08-2214028633bb"},"vehicle_type_id":"4","last_reported":1747041117,"current_range_meters":24400,"station_id":"ce4bgl92rcd13ifvqbq0","pricing_plan_id":"cebpf4jnsgd1na2vs0mg"},{"bike_id":"4d3578a6-c851-417b-8d9b-0884f2336443","system_id":"levelo_inurba_marseille","lat":43.304997,"lon":5.367013,"is_reserved":false,"is_disabled":false,"rental_uris":{"android":"levelo://app?vid=4d3578a6-c851-417b-8d9b-0884f2336443","ios":"levelo://app?vid=4d3578a6-c851-417b-8d9b-0884f2336443"},"vehicle_type_id":"4","last_reported":1747041117,"current_range_meters":24400,"station_id":"","pricing_plan_id":"cebpf4jnsgd1na2vs0mg"},{"bike_id":"575c46e6-a82d-42d2-9c69-1e1fe8214110","system_id":"levelo_inurba_marseille","lat":43.31114,"lon":5.37777,"is_reserved":false,"is_disabled":false,"rental_uris":{"android":"levelo://app?vid=575c46e6-a82d-42d2-9c69-1e1fe8214110","ios":"levelo://app?vid=575c46e6-a82d-42d2-9c69-1e1fe8214110"},"vehicle_type_id":"4","last_reported":1747041117,"current_range_meters":23200,"station_id":"ce4bgt92rcd13ifvqcg0","pricing_plan_id":"cebpf4jnsgd1na2vs0mg"},{"bike_id":"22076a30-cd42-4842-af66-be73565e119a","system_id":"levelo_inurba_marseille","lat":43.25719,"lon":5.41112,"is_reserved":false,"is_disabled":true,"rental_uris":{"android":"levelo://app?vid=22076a30-cd42-4842-af66-be73565e119a","ios":"levelo://app?vid=22076a30-cd42-4842-af66-be73565e119a"},"vehicle_type_id":"4","last_reported":1747041117,"current_range_meters":24400,"station_id":"ce4bhkp2rcd13ifvqgd0","pricing_plan_id":"cebpf4jnsgd1na2vs0mg"},{"bike_id":"99bdd88a-6c79-4c7b-9277-5e8dbca0d025","system_id":"levelo_inurba_marseille","lat":43.27064,"lon":5.42259,"is_reserved":false,"is_disabled":false,"rental_uris":{"android":"levelo://app?vid=99bdd88a-6c79-4c7b-9277-5e8dbca0d025","ios":"levelo://app?vid=99bdd88a-6c79-4c7b-9277-5e8dbca0d025"},"vehicle_type_id":"4","last_reported":1747041117,"current_range_meters":24400,"station_id":"ce4bhk92rcd13ifvqgb0","pricing_plan_id":"cebpf4jnsgd1na2vs0mg"},{"bike_id":"f4c4ab68-77c1-423e-86dd-9b083609e751","system_id":"levelo_inurba_marseille","lat":43.31274,"lon":5.36869,"is_reserved":false,"is_disabled":false,"rental_uris":{"android":"levelo://app?vid=f4c4ab68-77c1-423e-86dd-9b083609e751","ios":"levelo://app?vid=f4c4ab68-77c1-423e-86dd-9b083609e751"},"vehicle_type_id":"4","last_reported":1747041117,"current_range_meters":24400,"station_id":"ce4bgl92rcd13ifvqbq0","pricing_plan_id":"cebpf4jnsgd1na2vs0mg"},{"bike_id":"60c4fa6f-282b-4935-b414-a8ddbf55fb81","system_id":"levelo_inurba_marseille","lat":43.29004,"lon":5.35615,"is_reserved":false,"is_disabled":false,"rental_uris":{"android":"levelo://app?vid=60c4fa6f-282b-4935-b414-a8ddbf55fb81","ios":"levelo://app?vid=60c4fa6f-282b-4935-b414-a8ddbf55fb81"},"vehicle_type_id":"4","last_reported":1747041117,"current_range_meters":24000,"station_id":"ce4bhb92rcd13ifvqen0","pricing_plan_id":"cebpf4jnsgd1na2vs0mg"},{"bike_id":"27a48c26-8ec3-4167-afb4-45c5ab402f74","system_id":"levelo_inurba_marseille","lat":43.25867,"lon":5.39895,"is_reserved":false,"is_disabled":false,"rental_uris":{"android":"levelo://app?vid=27a48c26-8ec3-4167-afb4-45c5ab402f74","ios":"levelo://app?vid=27a48c26-8ec3-4167-afb4-45c5ab402f74"},"vehicle_type_id":"4","last_reported":1747041117,"current_range_meters":24800,"station_id":"ce4bhl92rcd13ifvqghg","pricing_plan_id":"cebpf4jnsgd1na2vs0mg"},{"bike_id":"07f1b24b-ba6d-438e-9eb4-f33d0faca218","system_id":"levelo_inurba_marseille","lat":43.34156,"lon":5.40896,"is_reserved":false,"is_disabled":false,"rental_uris":{"android":"levelo://app?vid=07f1b24b-ba6d-438e-9eb4-f33d0faca218","ios":"levelo://app?vid=07f1b24b-ba6d-438e-9eb4-f33d0faca218"},"vehicle_type_id":"4","last_reported":1747041117,"current_range_meters":24800,"station_id":"ce4bhqh2rcd13ifvqhlg","pricing_plan_id":"cebpf4jnsgd1na2vs0mg"},{"bike_id":"0d19f400-7a92-49b0-8bde-33c71d956a65","system_id":"levelo_inurba_marseille","lat":43.274966,"lon":5.424536,"is_reserved":false,"is_disabled":false,"rental_uris":{"android":"levelo://app?vid=0d19f400-7a92-49b0-8bde-33c71d956a65","ios":"levelo://app?vid=0d19f400-7a92-49b0-8bde-33c71d956a65"},"vehicle_type_id":"4","last_reported":1747041117,"current_range_meters":24800,"station_id":"ce4bhn92rcd13ifvqgrg","pricing_plan_id":"cebpf4jnsgd1na2vs0mg"},{"bike_id":"ebcadc07-4256-45d7-af27-ac3797fb9ed3","system_id":"levelo_inurba_marseille","lat":43.284,"lon":5.37517,"is_reserved":false,"is_disabled":true,"rental_uris":{"android":"levelo://app?vid=ebcadc07-4256-45d7-af27-ac3797fb9ed3","ios":"levelo://app?vid=ebcadc07-4256-45d7-af27-ac3797fb9ed3"},"vehicle_type_id":"4","last_reported":1747041117,"current_range_meters":24800,"station_id":"ce4bh412rcd13ifvqds0","pricing_plan_id":"cebpf4jnsgd1na2vs0mg"},{"bike_id":"40a7b2ab-49f8-4a57-9575-f98dd9e88f9b","system_id":"levelo_inurba_marseille","lat":43.295412,"lon":5.37484,"is_reserved":false,"is_disabled":true,"rental_uris":{"android":"levelo://app?vid=40a7b2ab-49f8-4a57-9575-f98dd9e88f9b","ios":"levelo://app?vid=40a7b2ab-49f8-4a57-9575-f98dd9e88f9b"},"vehicle_type_id":"4","last_reported":1747041117,"current_range_meters":24800,"station_id":"ce4bgkp2rcd13ifvqbmg","pricing_plan_id":"cebpf4jnsgd1na2vs0mg"},{"bike_id":"95b50147-3860-439b-b602-781dd5169959","system_id":"levelo_inurba_marseille","lat":43.29283,"lon":5.36821,"is_reserved":false,"is_disabled":true,"rental_uris":{"android":"levelo://app?vid=95b50147-3860-439b-b602-781dd5169959","ios":"levelo://app?vid=95b50147-3860-439b-b602-781dd5169959"},"vehicle_type_id":"4","last_reported":1747041117,"current_range_meters":24800,"station_id":"ce4bhbp2rcd13ifvqesg","pricing_plan_id":"cebpf4jnsgd1na2vs0mg"},{"bike_id":"53c5158b-8654-45d3-9c36-b5bb183b0340","system_id":"levelo_inurba_marseille","lat":43.29257,"lon":5.37617,"is_reserved":false,"is_disabled":false,"rental_uris":{"android":"levelo://app?vid=53c5158b-8654-45d3-9c36-b5bb183b0340","ios":"levelo://app?vid=53c5158b-8654-45d3-9c36-b5bb183b0340"},"vehicle_type_id":"4","last_reported":1747041117,"current_range_meters":24800,"station_id":"ce4bgi12rcd13ifvqb80","pricing_plan_id":"cebpf4jnsgd1na2vs0mg"},{"bike_id":"1e9dc27a-f4ac-474d-87e5-5275d7ce4910","system_id":"levelo_inurba_marseille","lat":43.25882,"lon":5.40937,"is_reserved":false,"is_disabled":false,"rental_uris":{"android":"levelo://app?vid=1e9dc27a-f4ac-474d-87e5-5275d7ce4910","ios":"levelo://app?vid=1e9dc27a-f4ac-474d-87e5-5275d7ce4910"},"vehicle_type_id":"4","last_reported":1747041117,"current_range_meters":25200,"station_id":"","pricing_plan_id":"cebpf4jnsgd1na2vs0mg"},{"bike_id":"33d5bdca-18e5-45b1-9662-d20e6756bf73","system_id":"levelo_inurba_marseille","lat":43.29862,"lon":5.36294,"is_reserved":false,"is_disabled":false,"rental_uris":{"android":"levelo://app?vid=33d5bdca-18e5-45b1-9662-d20e6756bf73","ios":"levelo://app?vid=33d5bdca-18e5-45b1-9662-d20e6756bf73"},"vehicle_type_id":"4","last_reported":1747041117,"current_range_meters":25200,"station_id":"ce4bgpp2rcd13ifvqc3g","pricing_plan_id":"cebpf4jnsgd1na2vs0mg"},{"bike_id":"9091c9c9-8f0e-47b9-9f55-f5ccfba57b85","system_id":"levelo_inurba_marseille","lat":43.32609,"lon":5.41484,"is_reserved":false,"is_disabled":false,"rental_uris":{"android":"levelo://app?vid=9091c9c9-8f0e-47b9-9f55-f5ccfba57b85","ios":"levelo://app?vid=9091c9c9-8f0e-47b9-9f55-f5ccfba57b85"},"vehicle_type_id":"4","last_reported":1747041117,"current_range_meters":25200,"station_id":"ce4bhq12rcd13ifvqhhg","pricing_plan_id":"cebpf4jnsgd1na2vs0mg"},{"bike_id":"d474ac13-8117-4a82-a954-f1c652393830","system_id":"levelo_inurba_marseille","lat":43.30543,"lon":5.36685,"is_reserved":false,"is_disabled":false,"rental_uris":{"android":"levelo://app?vid=d474ac13-8117-4a82-a954-f1c652393830","ios":"levelo://app?vid=d474ac13-8117-4a82-a954-f1c652393830"},"vehicle_type_id":"4","last_reported":1747041117,"current_range_meters":24800,"station_id":"ce4bgrp2rcd13ifvqc9g","pricing_plan_id":"cebpf4jnsgd1na2vs0mg"},{"bike_id":"a5788a71-0dbc-4026-ad36-7f690e861f25","system_id":"levelo_inurba_marseille","lat":43.26196,"lon":5.37445,"is_reserved":false,"is_disabled":false,"rental_uris":{"android":"levelo://app?vid=a5788a71-0dbc-4026-ad36-7f690e861f25","ios":"levelo://app?vid=a5788a71-0dbc-4026-ad36-7f690e861f25"},"vehicle_type_id":"4","last_reported":1747041117,"current_range_meters":25200,"station_id":"ce4bhgp2rcd13ifvqfc0","pricing_plan_id":"cebpf4jnsgd1na2vs0mg"},{"bike_id":"ec5dbda6-ebfd-4415-a2e6-6eb897c940b0","system_id":"levelo_inurba_marseille","lat":43.3134,"lon":5.3673,"is_reserved":false,"is_disabled":false,"rental_uris":{"android":"levelo://app?vid=ec5dbda6-ebfd-4415-a2e6-6eb897c940b0","ios":"levelo://app?vid=ec5dbda6-ebfd-4415-a2e6-6eb897c940b0"},"vehicle_type_id":"4","last_reported":1747041117,"current_range_meters":25200,"station_id":"ce4bgr92rcd13ifvqc6g","pricing_plan_id":"cebpf4jnsgd1na2vs0mg"},{"bike_id":"3aee9e0f-eb09-45d3-bbb8-6d7f5864590e","system_id":"levelo_inurba_marseille","lat":43.31365,"lon":5.36734,"is_reserved":false,"is_disabled":false,"rental_uris":{"android":"levelo://app?vid=3aee9e0f-eb09-45d3-bbb8-6d7f5864590e","ios":"levelo://app?vid=3aee9e0f-eb09-45d3-bbb8-6d7f5864590e"},"vehicle_type_id":"4","last_reported":1747041117,"current_range_meters":25200,"station_id":"ce4bgr92rcd13ifvqc6g","pricing_plan_id":"cebpf4jnsgd1na2vs0mg"},{"bike_id":"ecdc1ee8-6505-41d9-8077-03d8945089aa","system_id":"levelo_inurba_marseille","lat":43.25934,"lon":5.40909,"is_reserved":false,"is_disabled":false,"rental_uris":{"android":"levelo://app?vid=ecdc1ee8-6505-41d9-8077-03d8945089aa","ios":"levelo://app?vid=ecdc1ee8-6505-41d9-8077-03d8945089aa"},"vehicle_type_id":"4","last_reported":1747041117,"current_range_meters":25200,"station_id":"ce4bhm92rcd13ifvqglg","pricing_plan_id":"cebpf4jnsgd1na2vs0mg"},{"bike_id":"23e440a1-d28d-412a-96b5-a54ed5245570","system_id":"levelo_inurba_marseille","lat":43.30133,"lon":5.38776,"is_reserved":false,"is_disabled":true,"rental_uris":{"android":"levelo://app?vid=23e440a1-d28d-412a-96b5-a54ed5245570","ios":"levelo://app?vid=23e440a1-d28d-412a-96b5-a54ed5245570"},"vehicle_type_id":"4","last_reported":1747041117,"current_range_meters":25200,"station_id":"ce4bghh2rcd13ifvqb60","pricing_plan_id":"cebpf4jnsgd1na2vs0mg"},{"bike_id":"001dac55-ee53-476a-9924-0ffd9d379db6","system_id":"levelo_inurba_marseille","lat":43.26693,"lon":5.38263,"is_reserved":false,"is_disabled":false,"rental_uris":{"android":"levelo://app?vid=001dac55-ee53-476a-9924-0ffd9d379db6","ios":"levelo://app?vid=001dac55-ee53-476a-9924-0ffd9d379db6"},"vehicle_type_id":"4","last_reported":1747041117,"current_range_meters":25200,"station_id":"ce4bhg92rcd13ifvqf90","pricing_plan_id":"cebpf4jnsgd1na2vs0mg"},{"bike_id":"e46cb279-5b27-4d91-9204-6ed2bfb474f3","system_id":"levelo_inurba_marseille","lat":43.23198,"lon":5.40002,"is_reserved":false,"is_disabled":false,"rental_uris":{"android":"levelo://app?vid=e46cb279-5b27-4d91-9204-6ed2bfb474f3","ios":"levelo://app?vid=e46cb279-5b27-4d91-9204-6ed2bfb474f3"},"vehicle_type_id":"4","last_reported":1747041117,"current_range_meters":25200,"station_id":"ce4bhn12rcd13ifvqgqg","pricing_plan_id":"cebpf4jnsgd1na2vs0mg"},{"bike_id":"8ff15f70-971b-4b58-8bbf-f948b3ca1811","system_id":"levelo_inurba_marseille","lat":43.2842,"lon":5.34977,"is_reserved":false,"is_disabled":false,"rental_uris":{"android":"levelo://app?vid=8ff15f70-971b-4b58-8bbf-f948b3ca1811","ios":"levelo://app?vid=8ff15f70-971b-4b58-8bbf-f948b3ca1811"},"vehicle_type_id":"4","last_reported":1747041117,"current_range_meters":25200,"station_id":"ce4bhbh2rcd13ifvqepg","pricing_plan_id":"cebpf4jnsgd1na2vs0mg"},{"bike_id":"6144ad03-1e2b-4d52-86c0-aa5bb18d5e62","system_id":"levelo_inurba_marseille","lat":43.30893,"lon":5.36846,"is_reserved":false,"is_disabled":false,"rental_uris":{"android":"levelo://app?vid=6144ad03-1e2b-4d52-86c0-aa5bb18d5e62","ios":"levelo://app?vid=6144ad03-1e2b-4d52-86c0-aa5bb18d5e62"},"vehicle_type_id":"4","last_reported":1747041117,"current_range_meters":25600,"station_id":"ce4bgn92rcd13ifvqbvg","pricing_plan_id":"cebpf4jnsgd1na2vs0mg"},{"bike_id":"2ebd0a7a-93ad-4326-891a-8998a012928e","system_id":"levelo_inurba_marseille","lat":43.27494,"lon":5.424548,"is_reserved":false,"is_disabled":false,"rental_uris":{"android":"levelo://app?vid=2ebd0a7a-93ad-4326-891a-8998a012928e","ios":"levelo://app?vid=2ebd0a7a-93ad-4326-891a-8998a012928e"},