{"last_updated":1683572702,"ttl":30,"version":"2.2","data":{"bikes":[{"bike_id":"bd144823-b85b-4138-ac8d-3f84c44e6f44","system_id":"levelo_inurba_marseille","lat":43.312239,"lon":5.368562,"is_reserved":false,"is_disabled":false,"rental_uris":{"android":"levelo://app?vid=bd144823-b85b-4138-ac8d-3f84c44e6f44","ios":"levelo://app?vid=bd144823-b85b-4138-ac8d-3f84c44e6f44"},"vehicle_type_id":"4","last_reported":1683572703,"current_range_meters":23600,"station_id":"ce4bgl92rcd13ifvqbq0","pricing_plan_id":"free"},{"bike_id":"8e14fb6c-d150-4c64-bca5-d944d9529093","system_id":"levelo_inurba_marseille","lat":43.314811,"lon":5.373103,"is_reserved":false,"is_disabled":false,"rental_uris":{"android":"levelo://app?vid=8e14fb6c-d150-4c64-bca5-d944d9529093","ios":"levelo://app?vid=8e14fb6c-d150-4c64-bca5-d944d9529093"},"vehicle_type_id":"4","last_reported":1683572703,"current_range_meters":17600,"station_id":"ce4bgt12rcd13ifvqcd0","pricing_plan_id":"free"},{"bike_id":"0febad8e-019f-4ff8-a8f3-b59312f1061b","system_id":"levelo_inurba_marseille","lat":43.314811,"lon":5.373103,"is_reserved":false,"is_disabled":false,"rental_uris":{"android":"levelo://app?vid=0febad8e-019f-4ff8-a8f3-b59312f1061b","ios":"levelo://app?vid=0febad8e-019f-4ff8-a8f3-b59312f1061b"},"vehicle_type_id":"4","last_reported":1683572703,"current_range_meters":16400,"station_id":"ce4bgt12rcd13ifvqcd0","pricing_plan_id":"free"},{"bike_id":"8b32945a-4ddf-4baa-9db4-a4101422befa","system_id":"levelo_inurba_marseille","lat":43.314811,"lon":5.373104,"is_reserved":false,"is_disabled":false,"rental_uris":{"android":"levelo://app?vid=8b32945a-4ddf-4baa-9db4-a4101422befa","ios":"levelo://app?vid=8b32945a-4ddf-4baa-9db4-a4101422befa"},"vehicle_type_id":"4","last_reported":1683572703,"current_range_meters":24800,"station_id":"ce4bgt12rcd13ifvqcd0","pricing_plan_id":"free"},{"bike_id":"63243b04-e2b0-413d-87f1-8c922b4d8866","system_id":"levelo_inurba_marseille","lat":43.305714,"lon":5.365633,"is_reserved":false,"is_disabled":false,"rental_uris":{"android":"levelo://app?vid=63243b04-e2b0-413d-87f1-8c922b4d8866","ios":"levelo://app?vid=63243b04-e2b0-413d-87f1-8c922b4d8866"},"vehicle_type_id":"4","last_reported":1683572703,"current_range_meters":6800,"station_id":"ce4bgs12rcd13ifvqcag","pricing_plan_id":"free"},{"bike_id":"606406ba-10d2-4c17-a2bb-d636f09fe7ca","system_id":"levelo_inurba_marseille","lat":43.305989,"lon":5.37225,"is_reserved":false,"is_disabled":false,"rental_uris":{"android":"levelo://app?vid=606406ba-10d2-4c17-a2bb-d636f09fe7ca","ios":"levelo://app?vid=606406ba-10d2-4c17-a2bb-d636f09fe7ca"},"vehicle_type_id":"4","last_reported":1683572703,"current_range_meters":14400,"station_id":"ce4bgqh2rcd13ifvqc4g","pricing_plan_id":"free"},{"bike_id":"6785280e-e0ff-43e7-9528-a7d107fa39fa","system_id":"levelo_inurba_marseille","lat":43.311131,"lon":5.377651,"is_reserved":false,"is_disabled":false,"rental_uris":{"android":"levelo://app?vid=6785280e-e0ff-43e7-9528-a7d107fa39fa","ios":"levelo://app?vid=6785280e-e0ff-43e7-9528-a7d107fa39fa"},"vehicle_type_id":"4","last_reported":1683572703,"current_range_meters":2800,"station_id":"ce4bgt92rcd13ifvqcg0","pricing_plan_id":"free"},{"bike_id":"d354bb48-b9b4-43b6-87af-98ba91d4184c","system_id":"levelo_inurba_marseille","lat":43.311131,"lon":5.377651,"is_reserved":false,"is_disabled":false,"rental_uris":{"android":"levelo://app?vid=d354bb48-b9b4-43b6-87af-98ba91d4184c","ios":"levelo://app?vid=d354bb48-b9b4-43b6-87af-98ba91d4184c"},"vehicle_type_id":"4","last_reported":1683572703,"current_range_meters":9600,"station_id":"ce4bgt92rcd13ifvqcg0","pricing_plan_id":"free"},{"bike_id":"581d36b3-19c5-42f6-a9d5-926614f7c21b","system_id":"levelo_inurba_marseille","lat":43.317075,"lon":5.377367,"is_reserved":false,"is_disabled":false,"rental_uris":{"android":"levelo://app?vid=581d36b3-19c5-42f6-a9d5-926614f7c21b","ios":"levelo://app?vid=581d36b3-19c5-42f6-a9d5-926614f7c21b"},"vehicle_type_id":"4","last_reported":1683572703,"current_range_meters":30400,"station_id":"ce4bgth2rcd13ifvqch0","pricing_plan_id":"free"},{"bike_id":"3a49f45a-3aa2-466e-806d-bf0ef1d3ff8e","system_id":"levelo_inurba_marseille","lat":43.317075,"lon":5.377367,"is_reserved":false,"is_disabled":false,"rental_uris":{"android":"levelo://app?vid=3a49f45a-3aa2-466e-806d-bf0ef1d3ff8e","ios":"levelo://app?vid=3a49f45a-3aa2-466e-806d-bf0ef1d3ff8e"},"vehicle_type_id":"4","last_reported":1683572703,"current_range_meters":31200,"station_id":"ce4bgth2rcd13ifvqch0","pricing_plan_id":"free"},{"bike_id":"a06d57a0-4d36-4e4a-85f6-3b26881d68f1","system_id":"levelo_inurba_marseille","lat":43.317075,"lon":5.377367,"is_reserved":false,"is_disabled":false,"rental_uris":{"android":"levelo://app?vid=a06d57a0-4d36-4e4a-85f6-3b26881d68f1","ios":"levelo://app?vid=a06d57a0-4d36-4e4a-85f6-3b26881d68f1"},"vehicle_type_id":"4","last_reported":1683572703,"current_range_meters":27200,"station_id":"ce4bgth2rcd13ifvqch0","pricing_plan_id":"free"},{"bike_id":"b2b3a101-8fa9-49fe-86d2-1f52765a6aa5","system_id":"levelo_inurba_marseille","lat":43.315293,"lon":5.380349,"is_reserved":false,"is_disabled":false,"rental_uris":{"android":"levelo://app?vid=b2b3a101-8fa9-49fe-86d2-1f52765a6aa5","ios":"levelo://app?vid=b2b3a101-8fa9-49fe-86d2-1f52765a6aa5"},"vehicle_type_id":"4","last_reported":1683572703,"current_range_meters":26800,"station_id":"ce4bhsp2rcd13ifvqi50","pricing_plan_id":"free"},{"bike_id":"022aaf30-987f-40e8-abbb-56ae7432ca4e","system_id":"levelo_inurba_marseille","lat":43.315289,"lon":5.380349,"is_reserved":false,"is_disabled":false,"rental_uris":{"android":"levelo://app?vid=022aaf30-987f-40e8-abbb-56ae7432ca4e","ios":"levelo://app?vid=022aaf30-987f-40e8-abbb-56ae7432ca4e"},"vehicle_type_id":"4","last_reported":1683572703,"current_range_meters":16800,"station_id":"ce4bhsp2rcd13ifvqi50","pricing_plan_id":"free"},{"bike_id":"74dc49db-f918-43ed-a8d8-199327d2e08a","system_id":"levelo_inurba_marseille","lat":43.3025,"lon":5.36465,"is_reserved":false,"is_disabled":false,"rental_uris":{"android":"levelo://app?vid=74dc49db-f918-43ed-a8d8-199327d2e08a","ios":"levelo://app?vid=74dc49db-f918-43ed-a8d8-199327d2e08a"},"vehicle_type_id":"4","last_reported":1683572703,"current_range_meters":18800,"station_id":"","pricing_plan_id":"free"},{"bike_id":"448a1aea-2c94-44c6-8ac1-28350ae36723","system_id":"levelo_inurba_marseille","lat":43.308012,"lon":5.381511,"is_reserved":false,"is_disabled":false,"rental_uris":{"android":"levelo://app?vid=448a1aea-2c94-44c6-8ac1-28350ae36723","ios":"levelo://app?vid=448a1aea-2c94-44c6-8ac1-28350ae36723"},"vehicle_type_id":"4","last_reported":1683572703,"current_range_meters":19200,"station_id":"ce4bgt12rcd13ifvqce0","pricing_plan_id":"free"},{"bike_id":"9c0fa09f-bcfa-4968-9bcf-bff14918f2de","system_id":"levelo_inurba_marseille","lat":43.307955,"lon":5.381494,"is_reserved":false,"is_disabled":false,"rental_uris":{"android":"levelo://app?vid=9c0fa09f-bcfa-4968-9bcf-bff14918f2de","ios":"levelo://app?vid=9c0fa09f-bcfa-4968-9bcf-bff14918f2de"},"vehicle_type_id":"4","last_reported":1683572703,"current_range_meters":27200,"station_id":"ce4bgt12rcd13ifvqce0","pricing_plan_id":"free"},{"bike_id":"eaa3674e-fc2b-4278-91b7-bd516877357f","system_id":"levelo_inurba_marseille","lat":43.308012,"lon":5.381511,"is_reserved":false,"is_disabled":false,"rental_uris":{"android":"levelo://app?vid=eaa3674e-fc2b-4278-91b7-bd516877357f","ios":"levelo://app?vid=eaa3674e-fc2b-4278-91b7-bd516877357f"},"vehicle_type_id":"4","last_reported":1683572703,"current_range_meters":0,"station_id":"ce4bgt12rcd13ifvqce0","pricing_plan_id":"free"},{"bike_id":"27d316c5-d0f4-4464-8cbd-b530f2fd0912","system_id":"levelo_inurba_marseille","lat":43.304606,"lon":5.379026,"is_reserved":false,"is_disabled":false,"rental_uris":{"android":"levelo://app?vid=27d316c5-d0f4-4464-8cbd-b530f2fd0912","ios":"levelo://app?vid=27d316c5-d0f4-4464-8cbd-b530f2fd0912"},"vehicle_type_id":"4","last_reported":1683572703,"current_range_meters":24400,"station_id":"ce4bgup2rcd13ifvqcn0","pricing_plan_id":"free"},{"bike_id":"cc1f243f-d065-4398-acb1-c501e6632e28","system_id":"levelo_inurba_marseille","lat":43.30135,"lon":5.37413,"is_reserved":false,"is_disabled":false,"rental_uris":{"android":"levelo://app?vid=cc1f243f-d065-4398-acb1-c501e6632e28","ios":"levelo://app?vid=cc1f243f-d065-4398-acb1-c501e6632e28"},"vehicle_type_id":"4","last_reported":1683572703,"current_range_meters":6400,"station_id":"ce4bgs92rcd13ifvqcc0","pricing_plan_id":"free"},{"bike_id":"c8e15265-372d-4d6b-9e82-491e7d526fbe","system_id":"levelo_inurba_marseille","lat":43.30143,"lon":5.37413,"is_reserved":false,"is_disabled":false,"rental_uris":{"android":"levelo://app?vid=c8e15265-372d-4d6b-9e82-491e7d526fbe","ios":"levelo://app?vid=c8e15265-372d-4d6b-9e82-491e7d526fbe"},"vehicle_type_id":"4","last_reported":1683572703,"current_range_meters":4800,"station_id":"ce4bgs92rcd13ifvqcc0","pricing_plan_id":"free"},{"bike_id":"92fa55a9-a827-4a39-85c5-a9d87ab9b7c3","system_id":"levelo_inurba_marseille","lat":43.30022,"lon":5.36559,"is_reserved":false,"is_disabled":false,"rental_uris":{"android":"levelo://app?vid=92fa55a9-a827-4a39-85c5-a9d87ab9b7c3","ios":"levelo://app?vid=92fa55a9-a827-4a39-85c5-a9d87ab9b7c3"},"vehicle_type_id":"4","last_reported":1683572703,"current_range_meters":19600,"station_id":"","pricing_plan_id":"free"},{"bike_id":"2f11574b-448c-4ba6-b076-9fe82ad7315c","system_id":"levelo_inurba_marseille","lat":43.30143,"lon":5.37413,"is_reserved":false,"is_disabled":false,"rental_uris":{"android":"levelo://app?vid=2f11574b-448c-4ba6-b076-9fe82ad7315c","ios":"levelo://app?vid=2f11574b-448c-4ba6-b076-9fe82ad7315c"},"vehicle_type_id":"4","last_reported":1683572703,"current_range_meters":12400,"station_id":"ce4bgs92rcd13ifvqcc0","pricing_plan_id":"free"},{"bike_id":"1d0849d1-a7d1-4997-84e0-f9d02dcb2b96","system_id":"levelo_inurba_marseille","lat":43.313571,"lon":5.384829,"is_reserved":false,"is_disabled":false,"rental_uris":{"android":"levelo://app?vid=1d0849d1-a7d1-4997-84e0-f9d02dcb2b96","ios":"levelo://app?vid=1d0849d1-a7d1-4997-84e0-f9d02dcb2b96"},"vehicle_type_id":"4","last_reported":1683572703,"current_range_meters":28800,"station_id":"ce4bgt92rcd13ifvqcf0","pricing_plan_id":"free"},{"bike_id":"78138a59-a898-4e5f-ad01-04e46710b82e","system_id":"levelo_inurba_marseille","lat":43.313571,"lon":5.384829,"is_reserved":false,"is_disabled":false,"rental_uris":{"android":"levelo://app?vid=78138a59-a898-4e5f-ad01-04e46710b82e","ios":"levelo://app?vid=78138a59-a898-4e5f-ad01-04e46710b82e"},"vehicle_type_id":"4","last_reported":1683572703,"current_range_meters":5600,"station_id":"ce4bgt92rcd13ifvqcf0","pricing_plan_id":"free"},{"bike_id":"11355a26-ce04-4637-b186-e63c722271b4","system_id":"levelo_inurba_marseille","lat":43.31361,"lon":5.3851,"is_reserved":false,"is_disabled":false,"rental_uris":{"android":"levelo://app?vid=11355a26-ce04-4637-b186-e63c722271b4","ios":"levelo://app?vid=11355a26-ce04-4637-b186-e63c722271b4"},"vehicle_type_id":"4","last_reported":1683572703,"current_range_meters":26000,"station_id":"","pricing_plan_id":"free"},{"bike_id":"0ce0714d-585a-43b0-b680-40e43429f969","system_id":"levelo_inurba_marseille","lat":43.29935,"lon":5.36549,"is_reserved":false,"is_disabled":false,"rental_uris":{"android":"levelo://app?vid=0ce0714d-585a-43b0-b680-40e43429f969","ios":"levelo://app?vid=0ce0714d-585a-43b0-b680-40e43429f969"},"vehicle_type_id":"4","last_reported":1683572703,"current_range_meters":800,"station_id":"ce4bgm92rcd13ifvqbr0","pricing_plan_id":"free"},{"bike_id":"f3a62c25-6b8c-4844-a65b-01cc00b63119","system_id":"levelo_inurba_marseille","lat":43.29933,"lon":5.37275,"is_reserved":false,"is_disabled":false,"rental_uris":{"android":"levelo://app?vid=f3a62c25-6b8c-4844-a65b-01cc00b63119","ios":"levelo://app?vid=f3a62c25-6b8c-4844-a65b-01cc00b63119"},"vehicle_type_id":"4","last_reported":1683572703,"current_range_meters":18000,"station_id":"","pricing_plan_id":"free"},{"bike_id":"00809767-bafc-4814-859c-9c218861a849","system_id":"levelo_inurba_marseille","lat":43.305364,"lon":5.384119,"is_reserved":false,"is_disabled":false,"rental_uris":{"android":"levelo://app?vid=00809767-bafc-4814-859c-9c218861a849","ios":"levelo://app?vid=00809767-bafc-4814-859c-9c218861a849"},"vehicle_type_id":"4","last_reported":1683572703,"current_range_meters":21200,"station_id":"ce4bgg92rcd13ifvqb30","pricing_plan_id":"free"},{"bike_id":"2f8e978d-513e-48f2-8658-494109009252","system_id":"levelo_inurba_marseille","lat":43.298433,"lon":5.362774,"is_reserved":false,"is_disabled":false,"rental_uris":{"android":"levelo://app?vid=2f8e978d-513e-48f2-8658-494109009252","ios":"levelo://app?vid=2f8e978d-513e-48f2-8658-494109009252"},"vehicle_type_id":"4","last_reported":1683572703,"current_range_meters":31200,"station_id":"ce4bgpp2rcd13ifvqc3g","pricing_plan_id":"free"},{"bike_id":"302c892d-06cf-45b0-a839-cb6534924793","system_id":"levelo_inurba_marseille","lat":43.298433,"lon":5.362774,"is_reserved":false,"is_disabled":false,"rental_uris":{"android":"levelo://app?vid=302c892d-06cf-45b0-a839-cb6534924793","ios":"levelo://app?vid=302c892d-06cf-45b0-a839-cb6534924793"},"vehicle_type_id":"4","last_reported":1683572703,"current_range_meters":6000,"station_id":"ce4bgpp2rcd13ifvqc3g","pricing_plan_id":"free"},{"bike_id":"31d1e265-a2d0-4777-9823-f3d79cb2871b","system_id":"levelo_inurba_marseille","lat":43.298433,"lon":5.362774,"is_reserved":false,"is_disabled":false,"rental_uris":{"android":"levelo://app?vid=31d1e265-a2d0-4777-9823-f3d79cb2871b","ios":"levelo://app?vid=31d1e265-a2d0-4777-9823-f3d79cb2871b"},"vehicle_type_id":"4","last_reported":1683572703,"current_range_meters":28800,"station_id":"ce4bgpp2rcd13ifvqc3g","pricing_plan_id":"free"},{"bike_id":"5cd8a94b-7bec-4c3c-9c6b-5257da7553c1","system_id":"levelo_inurba_marseille","lat":43.311722,"lon":5.387247,"is_reserved":false,"is_disabled":false,"rental_uris":{"android":"levelo://app?vid=5cd8a94b-7bec-4c3c-9c6b-5257da7553c1","ios":"levelo://app?vid=5cd8a94b-7bec-4c3c-9c6b-5257da7553c1"},"vehicle_type_id":"4","last_reported":1683572703,"current_range_meters":5200,"station_id":"ce4bgv12rcd13ifvqcp0","pricing_plan_id":"free"},{"bike_id":"2f706956-9825-4ea0-916d-aca01333e41c","system_id":"levelo_inurba_marseille","lat":43.311722,"lon":5.387247,"is_reserved":false,"is_disabled":false,"rental_uris":{"android":"levelo://app?vid=2f706956-9825-4ea0-916d-aca01333e41c","ios":"levelo://app?vid=2f706956-9825-4ea0-916d-aca01333e41c"},"vehicle_type_id":"4","last_reported":1683572703,"current_range_meters":11600,"station_id":"ce4bgv12rcd13ifvqcp0","pricing_plan_id":"free"},{"bike_id":"2e843d9b-5da1-43bb-a83f-752d42ce94aa","system_id":"levelo_inurba_marseille","lat":43.311722,"lon":5.387247,"is_reserved":false,"is_disabled":false,"rental_uris":{"android":"levelo://app?vid=2e843d9b-5da1-43bb-a83f-752d42ce94aa","ios":"levelo://app?vid=2e843d9b-5da1-43bb-a83f-752d42ce94aa"},"vehicle_type_id":"4","last_reported":1683572703,"current_range_meters":6000,"station_id":"ce4bgv12rcd13ifvqcp0","pricing_plan_id":"free"},{"bike_id":"66739d3c-95dc-46d6-a9fb-1c8daa4306e6","system_id":"levelo_inurba_marseille","lat":43.311722,"lon":5.387247,"is_reserved":false,"is_disabled":false,"rental_uris":{"android":"levelo://app?vid=66739d3c-95dc-46d6-a9fb-1c8daa4306e6","ios":"levelo://app?vid=66739d3c-95dc-46d6-a9fb-1c8daa4306e6"},"vehicle_type_id":"4","last_reported":1683572703,"current_range_meters":7600,"station_id":"ce4bgv12rcd13ifvqcp0","pricing_plan_id":"free"},{"bike_id":"ac715d40-e1b3-42e5-bec9-0f230eece339","system_id":"levelo_inurba_marseille","lat":43.328371,"lon":5.366912,"is_reserved":false,"is_disabled":false,"rental_uris":{"android":"levelo://app?vid=ac715d40-e1b3-42e5-bec9-0f230eece339","ios":"levelo://app?vid=ac715d40-e1b3-42e5-bec9-0f230eece339"},"vehicle_type_id":"4","last_reported":1683572703,"current_range_meters":31200,"station_id":"ce4bhs92rcd13ifvqi0g","pricing_plan_id":"free"},{"bike_id":"baa0a3ce-4214-4782-b3e0-d724ee74ea37","system_id":"levelo_inurba_marseille","lat":43.328371,"lon":5.366912,"is_reserved":false,"is_disabled":false,"rental_uris":{"android":"levelo://app?vid=baa0a3ce-4214-4782-b3e0-d724ee74ea37","ios":"levelo://app?vid=baa0a3ce-4214-4782-b3e0-d724ee74ea37"},"vehicle_type_id":"4","last_reported":1683572703,"current_range_meters":26800,"station_id":"ce4bhs92rcd13ifvqi0g","pricing_plan_id":"free"},{"bike_id":"cf8c7da2-e708-4f06-83c9-fd07af8c5a8d","system_id":"levelo_inurba_marseille","lat":43.2968,"lon":5.37291,"is_reserved":false,"is_disabled":false,"rental_uris":{"android":"levelo://app?vid=cf8c7da2-e708-4f06-83c9-fd07af8c5a8d","ios":"levelo://app?vid=cf8c7da2-e708-4f06-83c9-fd07af8c5a8d"},"vehicle_type_id":"4","last_reported":1683572703,"current_range_meters":15600,"station_id":"ce4bgk12rcd13ifvqbj0","pricing_plan_id":"free"},{"bike_id":"50117bee-3e78-413c-a274-46f6715e842c","system_id":"levelo_inurba_marseille","lat":43.305364,"lon":5.384119,"is_reserved":false,"is_disabled":false,"rental_uris":{"android":"levelo://app?vid=50117bee-3e78-413c-a274-46f6715e842c","ios":"levelo://app?vid=50117bee-3e78-413c-a274-46f6715e842c"},"vehicle_type_id":"4","last_reported":1683572703,"current_range_meters":2000,"station_id":"ce4bgg92rcd13ifvqb30","pricing_plan_id":"free"},{"bike_id":"54ca3990-84eb-4b0b-8685-e3c31b4b82da","system_id":"levelo_inurba_marseille","lat":43.296129,"lon":5.370777,"is_reserved":false,"is_disabled":false,"rental_uris":{"android":"levelo://app?vid=54ca3990-84eb-4b0b-8685-e3c31b4b82da","ios":"levelo://app?vid=54ca3990-84eb-4b0b-8685-e3c31b4b82da"},"vehicle_type_id":"4","last_reported":1683572703,"current_range_meters":28400,"station_id":"ce4bgnh2rcd13ifvqc0g","pricing_plan_id":"free"},{"bike_id":"f1e8dc51-3a05-42b5-bd64-8607b1a9d10f","system_id":"levelo_inurba_marseille","lat":43.29584,"lon":5.36749,"is_reserved":false,"is_disabled":false,"rental_uris":{"android":"levelo://app?vid=f1e8dc51-3a05-42b5-bd64-8607b1a9d10f","ios":"levelo://app?vid=f1e8dc51-3a05-42b5-bd64-8607b1a9d10f"},"vehicle_type_id":"4","last_reported":1683572703,"current_range_meters":7600,"station_id":"","pricing_plan_id":"free"},{"bike_id":"8af9fde2-8c5e-4027-8de7-bf98165fae4c","system_id":"levelo_inurba_marseille","lat":43.29573,"lon":5.367355,"is_reserved":false,"is_disabled":false,"rental_uris":{"android":"levelo://app?vid=8af9fde2-8c5e-4027-8de7-bf98165fae4c","ios":"levelo://app?vid=8af9fde2-8c5e-4027-8de7-bf98165fae4c"},"vehicle_type_id":"4","last_reported":1683572703,"current_range_meters":26400,"station_id":"ce4bgph2rcd13ifvqc2g","pricing_plan_id":"free"},{"bike_id":"f6174a4e-4d2d-4e80-a7d2-54bd626aac07","system_id":"levelo_inurba_marseille","lat":43.299028,"lon":5.381509,"is_reserved":false,"is_disabled":false,"rental_uris":{"android":"levelo://app?vid=f6174a4e-4d2d-4e80-a7d2-54bd626aac07","ios":"levelo://app?vid=f6174a4e-4d2d-4e80-a7d2-54bd626aac07"},"vehicle_type_id":"4","last_reported":1683572703,"current_range_meters":6400,"station_id":"ce4bgj12rcd13ifvqbc0","pricing_plan_id":"free"},{"bike_id":"387c26fc-aef2-4a23-bae7-722931a93d3c","system_id":"levelo_inurba_marseille","lat":43.317557,"lon":5.390173,"is_reserved":false,"is_disabled":false,"rental_uris":{"android":"levelo://app?vid=387c26fc-aef2-4a23-bae7-722931a93d3c","ios":"levelo://app?vid=387c26fc-aef2-4a23-bae7-722931a93d3c"},"vehicle_type_id":"4","last_reported":1683572703,"current_range_meters":22400,"station_id":"ce4bhqp2rcd13ifvqhng","pricing_plan_id":"free"},{"bike_id":"d7abd8ad-2fcc-41a8-b1a7-e00ad973feb0","system_id":"levelo_inurba_marseille","lat":43.317557,"lon":5.390173,"is_reserved":false,"is_disabled":false,"rental_uris":{"android":"levelo://app?vid=d7abd8ad-2fcc-41a8-b1a7-e00ad973feb0","ios":"levelo://app?vid=d7abd8ad-2fcc-41a8-b1a7-e00ad973feb0"},"vehicle_type_id":"4","last_reported":1683572703,"current_range_meters":12000,"station_id":"ce4bhqp2rcd13ifvqhng","pricing_plan_id":"free"},{"bike_id":"a6833ac8-5b85-4bf3-b546-bc2dc743a297","system_id":"levelo_inurba_marseille","lat":43.3176,"lon":5.39015,"is_reserved":false,"is_disabled":false,"rental_uris":{"android":"levelo://app?vid=a6833ac8-5b85-4bf3-b546-bc2dc743a297","ios":"levelo://app?vid=a6833ac8-5b85-4bf3-b546-bc2dc743a297"},"vehicle_type_id":"4","last_reported":1683572703,"current_range_meters":14400,"station_id":"","pricing_plan_id":"free"},{"bike_id":"4f6418cd-2719-486c-8971-8645a7fa1118","system_id":"levelo_inurba_marseille","lat":43.317557,"lon":5.390173,"is_reserved":false,"is_disabled":false,"rental_uris":{"android":"levelo://app?vid=4f6418cd-2719-486c-8971-8645a7fa1118","ios":"levelo://app?vid=4f6418cd-2719-486c-8971-8645a7fa1118"},"vehicle_type_id":"4","last_reported":1683572703,"current_range_meters":10800,"station_id":"ce4bhqp2rcd13ifvqhng","pricing_plan_id":"free"},{"bike_id":"40bcea4e-adf4-4001-b0a1-f6360e1f6d72","system_id":"levelo_inurba_marseille","lat":43.317557,"lon":5.390173,"is_reserved":false,"is_disabled":false,"rental_uris":{"android":"levelo://app?vid=40bcea4e-adf4-4001-b0a1-f6360e1f6d72","ios":"levelo://app?vid=40bcea4e-adf4-4001-b0a1-f6360e1f6d72"},"vehicle_type_id":"4","last_reported":1683572703,"current_range_meters":0,"station_id":"ce4bhqp2rcd13ifvqhng","pricing_plan_id":"free"},{"bike_id":"5eed2ef4-720e-4441-9317-53bb8a9f981e","system_id":"levelo_inurba_marseille","lat":43.29587,"lon":5.3752,"is_reserved":false,"is_disabled":false,"rental_uris":{"android":"levelo://app?vid=5eed2ef4-720e-4441-9317-53bb8a9f981e","ios":"levelo://app?vid=5eed2ef4-720e-4441-9317-53bb8a9f981e"},"vehicle_type_id":"4","last_reported":1683572703,"current_range_meters":4800,"station_id":"ce4bgh92rcd13ifvqb50","pricing_plan_id":"free"},{"bike_id":"4ba44efc-29ec-48c3-97f5-568663608123","system_id":"levelo_inurba_marseille","lat":43.297794,"lon":5.370888,"is_reserved":false,"is_disabled":false,"rental_uris":{"android":"levelo://app?vid=4ba44efc-29ec-48c3-97f5-568663608123","ios":"levelo://app?vid=4ba44efc-29ec-48c3-97f5-568663608123"},"vehicle_type_id":"4","last_reported":1683572703,"current_range_meters":19600,"station_id":"ce4bgop2rcd13ifvqc1g","pricing_plan_id":"free"},{"bike_id":"7a7de1c7-b700-4a01-9d90-04859f7934aa","system_id":"levelo_inurba_marseille","lat":43.30436,"lon":5.38887,"is_reserved":false,"is_disabled":false,"rental_uris":{"android":"levelo://app?vid=7a7de1c7-b700-4a01-9d90-04859f7934aa","ios":"levelo://app?vid=7a7de1c7-b700-4a01-9d90-04859f7934aa"},"vehicle_type_id":"4","last_reported":1683572703,"current_range_meters":20000,"station_id":"ce4bgk12rcd13ifvqbi0","pricing_plan_id":"free"},{"bike_id":"275c5ca2-09f7-41c2-90b3-d19b6eca07e3","system_id":"levelo_inurba_marseille","lat":43.304274,"lon":5.388873,"is_reserved":false,"is_disabled":false,"rental_uris":{"android":"levelo://app?vid=275c5ca2-09f7-41c2-90b3-d19b6eca07e3","ios":"levelo://app?vid=275c5ca2-09f7-41c2-90b3-d19b6eca07e3"},"vehicle_type_id":"4","last_reported":1683572703,"current_range_meters":17600,"station_id":"ce4bgk12rcd13ifvqbi0","pricing_plan_id":"free"},{"bike_id":"e55943e5-cb8a-40d6-aa23-26a952c846ce","system_id":"levelo_inurba_marseille","lat":43.29798,"lon":5.38124,"is_reserved":false,"is_disabled":false,"rental_uris":{"android":"levelo://app?vid=e55943e5-cb8a-40d6-aa23-26a952c846ce","ios":"levelo://app?vid=e55943e5-cb8a-40d6-aa23-26a952c846ce"},"vehicle_type_id":"4","last_reported":1683572703,"current_range_meters":2800,"station_id":"ce4bgip2rcd13ifvqbb0","pricing_plan_id":"free"},{"bike_id":"08e06f9d-50d3-4123-b69a-b457ddf9e6dc","system_id":"levelo_inurba_marseille","lat":43.304274,"lon":5.388873,"is_reserved":false,"is_disabled":false,"rental_uris":{"android":"levelo://app?vid=08e06f9d-50d3-4123-b69a-b457ddf9e6dc","ios":"levelo://app?vid=08e06f9d-50d3-4123-b69a-b457ddf9e6dc"},"vehicle_type_id":"4","last_reported":1683572703,"current_range_meters":0,"station_id":"ce4bgk12rcd13ifvqbi0","pricing_plan_id":"free"},{"bike_id":"075733e7-fe2e-454d-8726-466fa825fe21","system_id":"levelo_inurba_marseille","lat":43.304274,"lon":5.388873,"is_reserved":false,"is_disabled":false,"rental_uris":{"android":"levelo://app?vid=075733e7-fe2e-454d-8726-466fa825fe21","ios":"levelo://app?vid=075733e7-fe2e-454d-8726-466fa825fe21"},"vehicle_type_id":"4","last_reported":1683572703,"current_range_meters":20000,"station_id":"ce4bgk12rcd13ifvqbi0","pricing_plan_id":"free"},{"bike_id":"dc4c6e31-480d-4a89-9c06-3548ecc07ac7","system_id":"levelo_inurba_marseille","lat":43.296277,"lon":5.377108,"is_reserved":false,"is_disabled":false,"rental_uris":{"android":"levelo://app?vid=dc4c6e31-480d-4a89-9c06-3548ecc07ac7","ios":"levelo://app?vid=dc4c6e31-480d-4a89-9c06-3548ecc07ac7"},"vehicle_type_id":"4","last_reported":1683572703,"current_range_meters":1200,"station_id":"ce4bgi92rcd13ifvqb90","pricing_plan_id":"free"},{"bike_id":"8755ace0-745f-46c9-bf53-258f1ca37f71","system_id":"levelo_inurba_marseille","lat":43.29617,"lon":5.37736,"is_reserved":false,"is_disabled":false,"rental_uris":{"android":"levelo://app?vid=8755ace0-745f-46c9-bf53-258f1ca37f71","ios":"levelo://app?vid=8755ace0-745f-46c9-bf53-258f1ca37f71"},"vehicle_type_id":"4","last_reported":1683572703,"current_range_meters":0,"station_id":"ce4bgi92rcd13ifvqb90","pricing_plan_id":"free"},{"bike_id":"56e70440-cd36-43e7-9505-03d4c4a56dda","system_id":"levelo_inurba_marseille","lat":43.299717,"lon":5.384845,"is_reserved":false,"is_disabled":false,"rental_uris":{"android":"levelo://app?vid=56e70440-cd36-43e7-9505-03d4c4a56dda","ios":"levelo://app?vid=56e70440-cd36-43e7-9505-03d4c4a56dda"},"vehicle_type_id":"4","last_reported":1683572703,"current_range_meters":12400,"station_id":"ce4bgj92rcd13ifvqbd0","pricing_plan_id":"free"},{"bike_id":"d7af2dd5-bccc-4048-9328-aef253ddb618","system_id":"levelo_inurba_marseille","lat":43.29973,"lon":5.38489,"is_reserved":false,"is_disabled":false,"rental_uris":{"android":"levelo://app?vid=d7af2dd5-bccc-4048-9328-aef253ddb618","ios":"levelo://app?vid=d7af2dd5-bccc-4048-9328-aef253ddb618"},"vehicle_type_id":"4","last_reported":1683572703,"current_range_meters":14400,"station_id":"ce4bgj92rcd13ifvqbd0","pricing_plan_id":"free"},{"bike_id":"b6d2584b-6561-4d93-b724-eb5530b9883a","system_id":"levelo_inurba_marseille","lat":43.299724,"lon":5.384848,"is_reserved":false,"is_disabled":false,"rental_uris":{"android":"levelo://app?vid=b6d2584b-6561-4d93-b724-eb5530b9883a","ios":"levelo://app?vid=b6d2584b-6561-4d93-b724-eb5530b9883a"},"vehicle_type_id":"4","last_reported":1683572703,"current_range_meters":27600,"station_id":"ce4bgj92rcd13ifvqbd0","pricing_plan_id":"free"},{"bike_id":"8ec57670-dbc0-4c44-bf77-7aeb1ca846ca","system_id":"levelo_inurba_marseille","lat":43.299717,"lon":5.384845,"is_reserved":false,"is_disabled":false,"rental_uris":{"android":"levelo://app?vid=8ec57670-dbc0-4c44-bf77-7aeb1ca846ca","ios":"levelo://app?vid=8ec57670-dbc0-4c44-bf77-7aeb1ca846ca"},"vehicle_type_id":"4","last_reported":1683572703,"current_range_meters":19200,"station_id":"ce4bgj92rcd13ifvqbd0","pricing_plan_id":"free"},{"bike_id":"c88dc0e8-8614-4c70-847d-f552192785e9","system_id":"levelo_inurba_marseille","lat":43.299717,"lon":5.384845,"is_reserved":false,"is_disabled":false,"rental_uris":{"android":"levelo://app?vid=c88dc0e8-8614-4c70-847d-f552192785e9","ios":"levelo://app?vid=c88dc0e8-8614-4c70-847d-f552192785e9"},"vehicle_type_id":"4","last_reported":1683572703,"current_range_meters":4400,"station_id":"ce4bgj92rcd13ifvqbd0","pricing_plan_id":"free"},{"bike_id":"4c73a051-7946-4c41-87ee-3a114ae23af8","system_id":"levelo_inurba_marseille","lat":43.299724,"lon":5.384848,"is_reserved":false,"is_disabled":false,"rental_uris":{"android":"levelo://app?vid=4c73a051-7946-4c41-87ee-3a114ae23af8","ios":"levelo://app?vid=4c73a051-7946-4c41-87ee-3a114ae23af8"},"vehicle_type_id":"4","last_reported":1683572703,"current_range_meters":2800,"station_id":"ce4bgj92rcd13ifvqbd0","pricing_plan_id":"free"},{"bike_id":"50b80eed-282b-4069-b753-adde137cdf20","system_id":"levelo_inurba_marseille","lat":43.299717,"lon":5.384845,"is_reserved":false,"is_disabled":false,"rental_uris":{"android":"levelo://app?vid=50b80eed-282b-4069-b753-adde137cdf20","ios":"levelo://app?vid=50b80eed-282b-4069-b753-adde137cdf20"},"vehicle_type_id":"4","last_reported":1683572703,"current_range_meters":8400,"station_id":"ce4bgj92rcd13ifvqbd0","pricing_plan_id":"free"},{"bike_id":"185ed428-8940-4d05-9eb2-3b3c28d768c5","system_id":"levelo_inurba_marseille","lat":43.299724,"lon":5.384848,"is_reserved":false,"is_disabled":false,"rental_uris":{"android":"levelo://app?vid=185ed428-8940-4d05-9eb2-3b3c28d768c5","ios":"levelo://app?vid=185ed428-8940-4d05-9eb2-3b3c28d768c5"},"vehicle_type_id":"4","last_reported":1683572703,"current_range_meters":31200,"station_id":"ce4bgj92rcd13ifvqbd0","pricing_plan_id":"free"},{"bike_id":"2edc1f43-3a73-407f-8b2e-bffa4592c3b1","system_id":"levelo_inurba_marseille","lat":43.299717,"lon":5.384845,"is_reserved":false,"is_disabled":false,"rental_uris":{"android":"levelo://app?vid=2edc1f43-3a73-407f-8b2e-bffa4592c3b1","ios":"levelo://app?vid=2edc1f43-3a73-407f-8b2e-bffa4592c3b1"},"vehicle_type_id":"4","last_reported":1683572703,"current_range_meters":23600,"station_id":"ce4bgj92rcd13ifvqbd0","pricing_plan_id":"free"},{"bike_id":"03494242-c142-4031-a6e5-b9ada5ea2213","system_id":"levelo_inurba_marseille","lat":43.299724,"lon":5.384848,"is_reserved":false,"is_disabled":false,"rental_uris":{"android":"levelo://app?vid=03494242-c142-4031-a6e5-b9ada5ea2213","ios":"levelo://app?vid=03494242-c142-4031-a6e5-b9ada5ea2213"},"vehicle_type_id":"4","last_reported":1683572703,"current_range_meters":30000,"station_id":"ce4bgj92rcd13ifvqbd0","pricing_plan_id":"free"},{"bike_id":"cbbfbbc6-2413-4a68-8b65-b2a9f630d590","system_id":"levelo_inurba_marseille","lat":43.299724,"lon":5.384848,"is_reserved":false,"is_disabled":false,"rental_uris":{"android":"levelo://app?vid=cbbfbbc6-2413-4a68-8b65-b2a9f630d590","ios":"levelo://app?vid=cbbfbbc6-2413-4a68-8b65-b2a9f630d590"},"vehicle_type_id":"4","last_reported":1683572703,"current_range_meters":27200,"station_id":"ce4bgj92rcd13ifvqbd0","pricing_plan_id":"free"},{"bike_id":"d4e834c1-e0cf-43b1-8aab-0cacd338c759","system_id":"levelo_inurba_marseille","lat":43.299717,"lon":5.384845,"is_reserved":false,"is_disabled":false,"rental_uris":{"android":"levelo://app?vid=d4e834c1-e0cf-43b1-8aab-0cacd338c759","ios":"levelo://app?vid=d4e834c1-e0cf-43b1-8aab-0cacd338c759"},"vehicle_type_id":"4","last_reported":1683572703,"current_range_meters":31200,"station_id":"ce4bgj92rcd13ifvqbd0","pricing_plan_id":"free"},{"bike_id":"c55d504a-fd1f-4231-ae60-a2ac1cddaeb7","system_id":"levelo_inurba_marseille","lat":43.299724,"lon":5.384848,"is_reserved":false,"is_disabled":false,"rental_uris":{"android":"levelo://app?vid=c55d504a-fd1f-4231-ae60-a2ac1cddaeb7","ios":"levelo://app?vid=c55d504a-fd1f-4231-ae60-a2ac1cddaeb7"},"vehicle_type_id":"4","last_reported":1683572703,"current_range_meters":2400,"station_id":"ce4bgj92rcd13ifvqbd0","pricing_plan_id":"free"},{"bike_id":"0d11d454-3089-4dec-9823-6f92bae0831b","system_id":"levelo_inurba_marseille","lat":43.29602,"lon":5.381084,"is_reserved":false,"is_disabled":false,"rental_uris":{"android":"levelo://app?vid=0d11d454-3089-4dec-9823-6f92bae0831b","ios":"levelo://app?vid=0d11d454-3089-4dec-9823-6f92bae0831b"},"vehicle_type_id":"4","last_reported":1683572703,"current_range_meters":21600,"station_id":"ce4bgl12rcd13ifvqbo0","pricing_plan_id":"free"},{"bike_id":"aa7cb7a0-43f0-4932-b618-3d41314d4343","system_id":"levelo_inurba_marseille","lat":43.29601,"lon":5.381084,"is_reserved":false,"is_disabled":false,"rental_uris":{"android":"levelo://app?vid=aa7cb7a0-43f0-4932-b618-3d41314d4343","ios":"levelo://app?vid=aa7cb7a0-43f0-4932-b618-3d41314d4343"},"vehicle_type_id":"4","last_reported":1683572703,"current_range_meters":6400,"station_id":"ce4bgl12rcd13ifvqbo0","pricing_plan_id":"free"},{"bike_id":"774bd473-bc53-4915-8529-039b131e459b","system_id":"levelo_inurba_marseille","lat":43.29305,"lon":5.36945,"is_reserved":false,"is_disabled":false,"rental_uris":{"android":"levelo://app?vid=774bd473-bc53-4915-8529-039b131e459b","ios":"levelo://app?vid=774bd473-bc53-4915-8529-039b131e459b"},"vehicle_type_id":"4","last_reported":1683572703,"current_range_meters":20400,"station_id":"ce4bhi12rcd13ifvqfq0","pricing_plan_id":"free"},{"bike_id":"52f9a966-88e9-4e72-92c8-0db5bd19f2c4","system_id":"levelo_inurba_marseille","lat":43.31422,"lon":5.39412,"is_reserved":false,"is_disabled":false,"rental_uris":{"android":"levelo://app?vid=52f9a966-88e9-4e72-92c8-0db5bd19f2c4","ios":"levelo://app?vid=52f9a966-88e9-4e72-92c8-0db5bd19f2c4"},"vehicle_type_id":"4","last_reported":1683572703,"current_range_meters":3600,"station_id":"","pricing_plan_id":"free"},{"bike_id":"77b9737b-b52d-44e6-a668-442ca69bd1a5","system_id":"levelo_inurba_marseille","lat":43.293249,"lon":5.371578,"is_reserved":false,"is_disabled":false,"rental_uris":{"android":"levelo://app?vid=77b9737b-b52d-44e6-a668-442ca69bd1a5","ios":"levelo://app?vid=77b9737b-b52d-44e6-a668-442ca69bd1a5"},"vehicle_type_id":"4","last_reported":1683572703,"current_range_meters":5200,"station_id":"ce4bgh92rcd13ifvqb40","pricing_plan_id":"free"},{"bike_id":"fd2bfbe7-6627-4bf2-9965-d9ffcf771d9c","system_id":"levelo_inurba_marseille","lat":43.305994,"lon":5.393687,"is_reserved":false,"is_disabled":false,"rental_uris":{"android":"levelo://app?vid=fd2bfbe7-6627-4bf2-9965-d9ffcf771d9c","ios":"levelo://app?vid=fd2bfbe7-6627-4bf2-9965-d9ffcf771d9c"},"vehicle_type_id":"4","last_reported":1683572703,"current_range_meters":25200,"station_id":"ce4bh0p2rcd13ifvqd80","pricing_plan_id":"free"},{"bike_id":"83478d56-e4e8-41b7-b649-e5104f9c8448","system_id":"levelo_inurba_marseille","lat":43.293009,"lon":5.374584,"is_reserved":false,"is_disabled":false,"rental_uris":{"android":"levelo://app?vid=83478d56-e4e8-41b7-b649-e5104f9c8448","ios":"levelo://app?vid=83478d56-e4e8-41b7-b649-e5104f9c8448"},"vehicle_type_id":"4","last_reported":1683572703,"current_range_meters":20400,"station_id":"ce4bgi12rcd13ifvqb70","pricing_plan_id":"free"},{"bike_id":"f3aab3c3-888d-431c-a61b-43392f96cf9b","system_id":"levelo_inurba_marseille","lat":43.305994,"lon":5.393687,"is_reserved":false,"is_disabled":false,"rental_uris":{"android":"levelo://app?vid=f3aab3c3-888d-431c-a61b-43392f96cf9b","ios":"levelo://app?vid=f3aab3c3-888d-431c-a61b-43392f96cf9b"},"vehicle_type_id":"4","last_reported":1683572703,"current_range_meters":0,"station_id":"ce4bh0p2rcd13ifvqd80","pricing_plan_id":"free"},{"bike_id":"d5a810b8-3bf1-4aa9-bdbb-1b4984d883b4","system_id":"levelo_inurba_marseille","lat":43.305994,"lon":5.393687,"is_reserved":false,"is_disabled":false,"rental_uris":{"android":"levelo://app?vid=d5a810b8-3bf1-4aa9-bdbb-1b4984d883b4","ios":"levelo://app?vid=d5a810b8-3bf1-4aa9-bdbb-1b4984d883b4"},"vehicle_type_id":"4","last_reported":1683572703,"current_range_meters":15600,"station_id":"ce4bh0p2rcd13ifvqd80","pricing_plan_id":"free"},{"bike_id":"c6a99708-8ce6-48a2-9fbb-402cca1d1d88","system_id":"levelo_inurba_marseille","lat":43.305994,"lon":5.393687,"is_reserved":false,"is_disabled":false,"rental_uris":{"android":"levelo://app?vid=c6a99708-8ce6-48a2-9fbb-402cca1d1d88","ios":"levelo://app?vid=c6a99708-8ce6-48a2-9fbb-402cca1d1d88"},"vehicle_type_id":"4","last_reported":1683572703,"current_range_meters":18000,"station_id":"ce4bh0p2rcd13ifvqd80","pricing_plan_id":"free"},{"bike_id":"f9ac87aa-2fee-4162-9dcf-08fad1180c36","system_id":"levelo_inurba_marseille","lat":43.305994,"lon":5.393687,"is_reserved":false,"is_disabled":false,"rental_uris":{"android":"levelo://app?vid=f9ac87aa-2fee-4162-9dcf-08fad1180c36","ios":"levelo://app?vid=f9ac87aa-2fee-4162-9dcf-08fad1180c36"},"vehicle_type_id":"4","last_reported":1683572703,"current_range_meters":4000,"station_id":"ce4bh0p2rcd13ifvqd80","pricing_plan_id":"free"},{"bike_id":"886acc7c-5a98-42ea-bbef-d5c30ee5adaf","system_id":"levelo_inurba_marseille","lat":43.305994,"lon":5.393687,"is_reserved":false,"is_disabled":false,"rental_uris":{"android":"levelo://app?vid=886acc7c-5a98-42ea-bbef-d5c30ee5adaf","ios":"levelo://app?vid=886acc7c-5a98-42ea-bbef-d5c30ee5adaf"},"vehicle_type_id":"4","last_reported":1683572703,"current_range_meters":22400,"station_id":"ce4bh0p2rcd13ifvqd80","pricing_plan_id":"free"},{"bike_id":"40dcfdcb-d876-448d-9e11-2511a5179524","system_id":"levelo_inurba_marseille","lat":43.303002,"lon":5.392142,"is_reserved":false,"is_disabled":false,"rental_uris":{"android":"levelo://app?vid=40dcfdcb-d876-448d-9e11-2511a5179524","ios":"levelo://app?vid=40dcfdcb-d876-448d-9e11-2511a5179524"},"vehicle_type_id":"4","last_reported":1683572703,"current_range_meters":13200,"station_id":"ce4bgkh2rcd13ifvqbk0","pricing_plan_id":"free"},{"bike_id":"841cdec0-8f3e-46cc-afa8-b0dc6de4a52d","system_id":"levelo_inurba_marseille","lat":43.302992,"lon":5.392136,"is_reserved":false,"is_disabled":false,"rental_uris":{"android":"levelo://app?vid=841cdec0-8f3e-46cc-afa8-b0dc6de4a52d","ios":"levelo://app?vid=841cdec0-8f3e-46cc-afa8-b0dc6de4a52d"},"vehicle_type_id":"4","last_reported":1683572703,"current_range_meters":3200,"station_id":"ce4bgkh2rcd13ifvqbk0","pricing_plan_id":"free"},{"bike_id":"7e2fa433-546c-4af2-b816-01544a5a236f","system_id":"levelo_inurba_marseille","lat":43.2938,"lon":5.37849,"is_reserved":false,"is_disabled":false,"rental_uris":{"android":"levelo://app?vid=7e2fa433-546c-4af2-b816-01544a5a236f","ios":"levelo://app?vid=7e2fa433-546c-4af2-b816-01544a5a236f"},"vehicle_type_id":"4","last_reported":1683572703,"current_range_meters":30000,"station_id":"ce4bgjh2rcd13ifvqbf0","pricing_plan_id":"free"},{"bike_id":"104ea073-9907-4e2f-af40-5bb2654f2f95","system_id":"levelo_inurba_marseille","lat":43.29218,"lon":5.36331,"is_reserved":false,"is_disabled":false,"rental_uris":{"android":"levelo://app?vid=104ea073-9907-4e2f-af40-5bb2654f2f95","ios":"levelo://app?vid=104ea073-9907-4e2f-af40-5bb2654f2f95"},"vehicle_type_id":"4","last_reported":1683572703,"current_range_meters":19600,"station_id":"","pricing_plan_id":"free"},{"bike_id":"bba5e1ac-df49-4fad-bd2e-848fc50cc171","system_id":"levelo_inurba_marseille","lat":43.29371,"lon":5.3783,"is_reserved":false,"is_disabled":false,"rental_uris":{"android":"levelo://app?vid=bba5e1ac-df49-4fad-bd2e-848fc50cc171","ios":"levelo://app?vid=bba5e1ac-df49-4fad-bd2e-848fc50cc171"},"vehicle_type_id":"4","last_reported":1683572703,"current_range_meters":0,"station_id":"ce4bgjh2rcd13ifvqbf0","pricing_plan_id":"free"},{"bike_id":"30932165-1ca2-45ec-afff-5d42f98231c1","system_id":"levelo_inurba_marseille","lat":43.302992,"lon":5.392136,"is_reserved":false,"is_disabled":false,"rental_uris":{"android":"levelo://app?vid=30932165-1ca2-45ec-afff-5d42f98231c1","ios":"levelo://app?vid=30932165-1ca2-45ec-afff-5d42f98231c1"},"vehicle_type_id":"4","last_reported":1683572703,"current_range_meters":13200,"station_id":"ce4bgkh2rcd13ifvqbk0","pricing_plan_id":"free"},{"bike_id":"c6170e7a-e397-4326-b030-1235532e5d1e","system_id":"levelo_inurba_marseille","lat":43.295748,"lon":5.37522,"is_reserved":false,"is_disabled":false,"rental_uris":{"android":"levelo://app?vid=c6170e7a-e397-4326-b030-1235532e5d1e","ios":"levelo://app?vid=c6170e7a-e397-4326-b030-1235532e5d1e"},"vehicle_type_id":"4","last_reported":1683572703,"current_range_meters":800,"station_id":"ce4bgh92rcd13ifvqb50","pricing_plan_id":"free"},{"bike_id":"35c349cb-9966-4939-9a17-a50a913f4262","system_id":"levelo_inurba_marseille","lat":43.30303,"lon":5.39216,"is_reserved":false,"is_disabled":false,"rental_uris":{"android":"levelo://app?vid=35c349cb-9966-4939-9a17-a50a913f4262","ios":"levelo://app?vid=35c349cb-9966-4939-9a17-a50a913f4262"},"vehicle_type_id":"4","last_reported":1683572703,"current_range_meters":25200,"station_id":"ce4bgkh2rcd13ifvqbk0","pricing_plan_id":"free"},{"bike_id":"5c935694-0e8b-4645-b388-f073e17035c8","system_id":"levelo_inurba_marseille","lat":43.29377,"lon":5.37862,"is_reserved":false,"is_disabled":false,"rental_uris":{"android":"levelo://app?vid=5c935694-0e8b-4645-b388-f073e17035c8","ios":"levelo://app?vid=5c935694-0e8b-4645-b388-f073e17035c8"},"vehicle_type_id":"4","last_reported":1683572703,"current_range_meters":21600,"station_id":"","pricing_plan_id":"free"},{"bike_id":"55000b42-afa3-4aa2-85a0-f79660f8880f","system_id":"levelo_inurba_marseille","lat":43.302992,"lon":5.392136,"is_reserved":false,"is_disabled":false,"rental_uris":{"android":"levelo://app?vid=55000b42-afa3-4aa2-85a0-f79660f8880f","ios":"levelo://app?vid=55000b42-afa3-4aa2-85a0-f79660f8880f"},"vehicle_type_id":"4","last_reported":1683572703,"current_range_meters":27200,"station_id":"ce4bgkh2rcd13ifvqbk0","pricing_plan_id":"free"},{"bike_id":"cbf4f3a4-4040-48cc-b348-be59380a7590","system_id":"levelo_inurba_marseille","lat":43.29372,"lon":5.37851,"is_reserved":false,"is_disabled":false,"rental_uris":{"android":"levelo://app?vid=cbf4f3a4-4040-48cc-b348-be59380a7590","ios":"levelo://app?vid=cbf4f3a4-4040-48cc-b348-be59380a7590"},"vehicle_type_id":"4","last_reported":1683572703,"current_range_meters":6400,"station_id":"ce4bgjh2rcd13ifvqbf0","pricing_plan_id":"free"},{"bike_id":"81f439ad-5e8f-4a93-8832-656f00d50850","system_id":"levelo_inurba_marseille","lat":43.292663,"lon":5.376394,"is_reserved":false,"is_disabled":false,"rental_uris":{"android":"levelo://app?vid=81f439ad-5e8f-4a93-8832-656f00d50850","ios":"levelo://app?vid=81f439ad-5e8f-4a93-8832-656f00d50850"},"vehicle_type_id":"4","last_reported":1683572703,"current_range_meters":18000,"station_id":"ce4bgi12rcd13ifvqb80","pricing_plan_id":"free"},{"bike_id":"2e65b4cf-8c3b-4527-a7ee-a6444d6ae598","system_id":"levelo_inurba_marseille","lat":43.298764,"lon":5.388973,"is_reserved":false,"is_disabled":false,"rental_uris":{"android":"levelo://app?vid=2e65b4cf-8c3b-4527-a7ee-a6444d6ae598","ios":"levelo://app?vid=2e65b4cf-8c3b-4527-a7ee-a6444d6ae598"},"vehicle_type_id":"4","last_reported":1683572703,"current_range_meters":10400,"station_id":"ce4bh392rcd13ifvqdl0","pricing_plan_id":"free"},{"bike_id":"77113bdf-4584-4a6e-ad3f-061a1e149084","system_id":"levelo_inurba_marseille","lat":43.292663,"lon":5.376389,"is_reserved":false,"is_disabled":false,"rental_uris":{"android":"levelo://app?vid=77113bdf-4584-4a6e-ad3f-061a1e149084","ios":"levelo://app?vid=77113bdf-4584-4a6e-ad3f-061a1e149084"},"vehicle_type_id":"4","last_reported":1683572703,"current_range_meters":15200,"station_id":"ce4bgi12rcd13ifvqb80","pricing_plan_id":"free"},{"bike_id":"b290d7e3-d5d3-4ffe-9937-fa9b17820d73","system_id":"levelo_inurba_marseille","lat":43.298764,"lon":5.388973,"is_reserved":false,"is_disabled":false,"rental_uris":{"android":"levelo://app?vid=b290d7e3-d5d3-4ffe-9937-fa9b17820d73","ios":"levelo://app?vid=b290d7e3-d5d3-4ffe-9937-fa9b17820d73"},"vehicle_type_id":"4","last_reported":1683572703,"current_range_meters":24000,"station_id":"ce4bh392rcd13ifvqdl0","pricing_plan_id":"free"},{"bike_id":"b1ac215b-9761-4552-90a3-a468d890f5d9","system_id":"levelo_inurba_marseille","lat":43.292642,"lon":5.384254,"is_reserved":false,"is_disabled":false,"rental_uris":{"android":"levelo://app?vid=b1ac215b-9761-4552-90a3-a468d890f5d9","ios":"levelo://app?vid=b1ac215b-9761-4552-90a3-a468d890f5d9"},"vehicle_type_id":"4","last_reported":1683572703,"current_range_meters":3200,"station_id":"ce4bh692rcd13ifvqea0","pricing_plan_id":"free"},{"bike_id":"c5b017a7-150e-4b7d-9da2-a8bc5a4d0e42","system_id":"levelo_inurba_marseille","lat":43.31324,"lon":5.39686,"is_reserved":false,"is_disabled":false,"rental_uris":{"android":"levelo://app?vid=c5b017a7-150e-4b7d-9da2-a8bc5a4d0e42","ios":"levelo://app?vid=c5b017a7-150e-4b7d-9da2-a8bc5a4d0e42"},"vehicle_type_id":"4","last_reported":1683572703,"current_range_meters":11200,"station_id":"ce4bgvp2rcd13ifvqcu0","pricing_plan_id":"free"},{"bike_id":"28593291-c317-41e0-acb7-f3211c568bc3","system_id":"levelo_inurba_marseille","lat":43.313253,"lon":5.396873,"is_reserved":false,"is_disabled":false,"rental_uris":{"android":"levelo://app?vid=28593291-c317-41e0-acb7-f3211c568bc3","ios":"levelo://app?vid=28593291-c317-41e0-acb7-f3211c568bc3"},"vehicle_type_id":"4","last_reported":1683572703,"current_range_meters":6000,"station_id":"ce4bgvp2rcd13ifvqcu0","pricing_plan_id":"free"},{"bike_id":"87c74ce0-1094-45d1-908c-3377b55dabe9","system_id":"levelo_inurba_marseille","lat":43.313291,"lon":5.396838,"is_reserved":false,"is_disabled":false,"rental_uris":{"android":"levelo://app?vid=87c74ce0-1094-45d1-908c-3377b55dabe9","ios":"levelo://app?vid=87c74ce0-1094-45d1-908c-3377b55dabe9"},"vehicle_type_id":"4","last_reported":1683572703,"current_range_meters":3200,"station_id":"ce4bgvp2rcd13ifvqcu0","pricing_plan_id":"free"},{"bike_id":"0dea751e-fdb2-453f-83ce-9226b5b144ec","system_id":"levelo_inurba_marseille","lat":43.309038,"lon":5.396546,"is_reserved":false,"is_disabled":false,"rental_uris":{"android":"levelo://app?vid=0dea751e-fdb2-453f-83ce-9226b5b144ec","ios":"levelo://app?vid=0dea751e-fdb2-453f-83ce-9226b5b144ec"},"vehicle_type_id":"4","last_reported":1683572703,"current_range_meters":17200,"station_id":"ce4bh012rcd13ifvqcv0","pricing_plan_id":"free"},{"bike_id":"ec955817-b0f8-4adf-ba33-90bb1d981929","system_id":"levelo_inurba_marseille","lat":43.309038,"lon":5.396546,"is_reserved":false,"is_disabled":false,"rental_uris":{"android":"levelo://app?vid=ec955817-b0f8-4adf-ba33-90bb1d981929","ios":"levelo://app?vid=ec955817-b0f8-4adf-ba33-90bb1d981929"},"vehicle_type_id":"4","last_reported":1683572703,"current_range_meters":23600,"station_id":"ce4bh012rcd13ifvqcv0","pricing_plan_id":"free"},{"bike_id":"61030399-0dc2-4b2d-aaa4-b7f1e569da6c","system_id":"levelo_inurba_marseille","lat":43.309038,"lon":5.396546,"is_reserved":false,"is_disabled":false,"rental_uris":{"android":"levelo://app?vid=61030399-0dc2-4b2d-aaa4-b7f1e569da6c","ios":"levelo://app?vid=61030399-0dc2-4b2d-aaa4-b7f1e569da6c"},"vehicle_type_id":"4","last_reported":1683572703,"current_range_meters":12000,"station_id":"ce4bh012rcd13ifvqcv0","pricing_plan_id":"free"},{"bike_id":"02a50577-cce1-41c4-a92a-7cd10a1769a8","system_id":"levelo_inurba_marseille","lat":43.309038,"lon":5.396546,"is_reserved":false,"is_disabled":false,"rental_uris":{"android":"levelo://app?vid=02a50577-cce1-41c4-a92a-7cd10a1769a8","ios":"levelo://app?vid=02a50577-cce1-41c4-a92a-7cd10a1769a8"},"vehicle_type_id":"4","last_reported":1683572703,"current_range_meters":20000,"station_id":"ce4bh012rcd13ifvqcv0","pricing_plan_id":"free"},{"bike_id":"0d4eeb0b-7473-4a8a-ad90-873a70a85ca2","system_id":"levelo_inurba_marseille","lat":43.29529,"lon":5.385581,"is_reserved":false,"is_disabled":false,"rental_uris":{"android":"levelo://app?vid=0d4eeb0b-7473-4a8a-ad90-873a70a85ca2","ios":"levelo://app?vid=0d4eeb0b-7473-4a8a-ad90-873a70a85ca2"},"vehicle_type_id":"4","last_reported":1683572703,"current_range_meters":28000,"station_id":"ce4bgih2rcd13ifvqba0","pricing_plan_id":"free"},{"bike_id":"346a932b-fda3-41e6-b8f1-66a3b5b17113","system_id":"levelo_inurba_marseille","lat":43.30835,"lon":5.39661,"is_reserved":false,"is_disabled":false,"rental_uris":{"android":"levelo://app?vid=346a932b-fda3-41e6-b8f1-66a3b5b17113","ios":"levelo://app?vid=346a932b-fda3-41e6-b8f1-66a3b5b17113"},"vehicle_type_id":"4","last_reported":1683572703,"current_range_meters":12400,"station_id":"","pricing_plan_id":"free"},{"bike_id":"f362a3d6-31ec-447e-b9f8-16de52b83670","system_id":"levelo_inurba_marseille","lat":43.29531,"lon":5.38548,"is_reserved":false,"is_disabled":false,"rental_uris":{"android":"levelo://app?vid=f362a3d6-31ec-447e-b9f8-16de52b83670","ios":"levelo://app?vid=f362a3d6-31ec-447e-b9f8-16de52b83670"},"vehicle_type_id":"4","last_reported":1683572703,"current_range_meters":0,"station_id":"ce4bgih2rcd13ifvqba0","pricing_plan_id":"free"},{"bike_id":"44397244-1fc0-4a26-b7d0-1bd89cd775fd","system_id":"levelo_inurba_marseille","lat":43.290779,"lon":5.371482,"is_reserved":false,"is_disabled":false,"rental_uris":{"android":"levelo://app?vid=44397244-1fc0-4a26-b7d0-1bd89cd775fd","ios":"levelo://app?vid=44397244-1fc0-4a26-b7d0-1bd89cd775fd"},"vehicle_type_id":"4","last_reported":1683572703,"current_range_meters":20400,"station_id":"ce4bh5p2rcd13ifvqe4g","pricing_plan_id":"free"},{"bike_id":"602c6608-4117-4ce5-9031-cbc67dbf6658","system_id":"levelo_inurba_marseille","lat":43.29082,"lon":5.37159,"is_reserved":false,"is_disabled":false,"rental_uris":{"android":"levelo://app?vid=602c6608-4117-4ce5-9031-cbc67dbf6658","ios":"levelo://app?vid=602c6608-4117-4ce5-9031-cbc67dbf6658"},"vehicle_type_id":"4","last_reported":1683572703,"current_range_meters":9200,"station_id":"ce4bh5p2rcd13ifvqe4g","pricing_plan_id":"free"},{"bike_id":"8a0eebc6-fad1-4779-a01d-fb9e82356810","system_id":"levelo_inurba_marseille","lat":43.29079,"lon":5.3716,"is_reserved":false,"is_disabled":false,"rental_uris":{"android":"levelo://app?vid=8a0eebc6-fad1-4779-a01d-fb9e82356810","ios":"levelo://app?vid=8a0eebc6-fad1-4779-a01d-fb9e82356810"},"vehicle_type_id":"4","last_reported":1683572703,"current_range_meters":5600,"station_id":"ce4bh5p2rcd13ifvqe4g","pricing_plan_id":"free"},{"bike_id":"10a658f6-7da2-4d0a-b492-68196bf77cd8","system_id":"levelo_inurba_marseille","lat":43.29079,"lon":5.37171,"is_reserved":false,"is_disabled":false,"rental_uris":{"android":"levelo://app?vid=10a658f6-7da2-4d0a-b492-68196bf77cd8","ios":"levelo://app?vid=10a658f6-7da2-4d0a-b492-68196bf77cd8"},"vehicle_type_id":"4","last_reported":1683572703,"current_range_meters":12000,"station_id":"ce4bh5p2rcd13ifvqe4g","pricing_plan_id":"free"},{"bike_id":"0c70f3c5-cc69-45ce-b55b-421092ab205b","system_id":"levelo_inurba_marseille","lat":43.302008,"lon":5.394694,"is_reserved":false,"is_disabled":false,"rental_uris":{"android":"levelo://app?vid=0c70f3c5-cc69-45ce-b55b-421092ab205b","ios":"levelo://app?vid=0c70f3c5-cc69-45ce-b55b-421092ab205b"},"vehicle_type_id":"4","last_reported":1683572703,"current_range_meters":16400,"station_id":"ce4bh0p2rcd13ifvqd70","pricing_plan_id":"free"},{"bike_id":"acf7fb13-4dc4-4610-b927-e83f9b9f5e4e","system_id":"levelo_inurba_marseille","lat":43.290327,"lon":5.375711,"is_reserved":false,"is_disabled":false,"rental_uris":{"android":"levelo://app?vid=acf7fb13-4dc4-4610-b927-e83f9b9f5e4e","ios":"levelo://app?vid=acf7fb13-4dc4-4610-b927-e83f9b9f5e4e"},"vehicle_type_id":"4","last_reported":1683572703,"current_range_meters":22800,"station_id":"ce4bh692rcd13ifvqe90","pricing_plan_id":"free"},{"bike_id":"d15cecec-fb69-4368-8aaf-e8f64c1aa10c","system_id":"levelo_inurba_marseille","lat":43.290327,"lon":5.375711,"is_reserved":false,"is_disabled":false,"rental_uris":{"android":"levelo://app?vid=d15cecec-fb69-4368-8aaf-e8f64c1aa10c","ios":"levelo://app?vid=d15cecec-fb69-4368-8aaf-e8f64c1aa10c"},"vehicle_type_id":"4","last_reported":1683572703,"current_range_meters":9200,"station_id":"ce4bh692rcd13ifvqe90","pricing_plan_id":"free"},{"bike_id":"e03e8a63-0096-417e-9646-82b3bbd627b8","system_id":"levelo_inurba_marseille","lat":43.290319,"lon":5.375732,"is_reserved":false,"is_disabled":false,"rental_uris":{"android":"levelo://app?vid=e03e8a63-0096-417e-9646-82b3bbd627b8","ios":"levelo://app?vid=e03e8a63-0096-417e-9646-82b3bbd627b8"},"vehicle_type_id":"4","last_reported":1683572703,"current_range_meters":31200,"station_id":"ce4bh692rcd13ifvqe90","pricing_plan_id":"free"},{"bike_id":"16a6c2c6-e8c0-4350-b741-acbe93394046","system_id":"levelo_inurba_marseille","lat":43.294162,"lon":5.386292,"is_reserved":false,"is_disabled":false,"rental_uris":{"android":"levelo://app?vid=16a6c2c6-e8c0-4350-b741-acbe93394046","ios":"levelo://app?vid=16a6c2c6-e8c0-4350-b741-acbe93394046"},"vehicle_type_id":"4","last_reported":1683572703,"current_range_meters":31200,"station_id":"ce4bh2h2rcd13ifvqdh0","pricing_plan_id":"free"},{"bike_id":"405b12d9-8ad4-4521-a9a2-b09b1848106a","system_id":"levelo_inurba_marseille","lat":43.289184,"lon":5.366408,"is_reserved":false,"is_disabled":false,"rental_uris":{"android":"levelo://app?vid=405b12d9-8ad4-4521-a9a2-b09b1848106a","ios":"levelo://app?vid=405b12d9-8ad4-4521-a9a2-b09b1848106a"},"vehicle_type_id":"4","last_reported":1683572703,"current_range_meters":8800,"station_id":"ce4bhap2rcd13ifvqek0","pricing_plan_id":"free"},{"bike_id":"9920bbbd-0be7-414e-bdd9-b616d88bdabf","system_id":"levelo_inurba_marseille","lat":43.294153,"lon":5.386305,"is_reserved":false,"is_disabled":false,"rental_uris":{"android":"levelo://app?vid=9920bbbd-0be7-414e-bdd9-b616d88bdabf","ios":"levelo://app?vid=9920bbbd-0be7-414e-bdd9-b616d88bdabf"},"vehicle_type_id":"4","last_reported":1683572703,"current_range_meters":31200,"station_id":"ce4bh2h2rcd13ifvqdh0","pricing_plan_id":"free"},{"bike_id":"f52a17b0-6be2-4b34-a150-ef892fabc10b","system_id":"levelo_inurba_marseille","lat":43.292642,"lon":5.384254,"is_reserved":false,"is_disabled":false,"rental_uris":{"android":"levelo://app?vid=f52a17b0-6be2-4b34-a150-ef892fabc10b","ios":"levelo://app?vid=f52a17b0-6be2-4b34-a150-ef892fabc10b"},"vehicle_type_id":"4","last_reported":1683572703,"current_range_meters":24800,"station_id":"ce4bh692rcd13ifvqea0","pricing_plan_id":"free"},{"bike_id":"5e8f7522-1d08-49a9-ba2d-bc50e930c8d2","system_id":"levelo_inurba_marseille","lat":43.304296,"lon":5.397513,"is_reserved":false,"is_disabled":false,"rental_uris":{"android":"levelo://app?vid=5e8f7522-1d08-49a9-ba2d-bc50e930c8d2","ios":"levelo://app?vid=5e8f7522-1d08-49a9-ba2d-bc50e930c8d2"},"vehicle_type_id":"4","last_reported":1683572703,"current_range_meters":6800,"station_id":"ce4bh092rcd13ifvqd20","pricing_plan_id":"free"},{"bike_id":"fc229a31-7b9c-4b6f-9f00-670fd601b36a","system_id":"levelo_inurba_marseille","lat":43.29261,"lon":5.38429,"is_reserved":false,"is_disabled":false,"rental_uris":{"android":"levelo://app?vid=fc229a31-7b9c-4b6f-9f00-670fd601b36a","ios":"levelo://app?vid=fc229a31-7b9c-4b6f-9f00-670fd601b36a"},"vehicle_type_id":"4","last_reported":1683572703,"current_range_meters":0,"station_id":"ce4bh692rcd13ifvqea0","pricing_plan_id":"free"},{"bike_id":"52857375-4e3a-4a8d-af1e-d7e072e4d49c","system_id":"levelo_inurba_marseille","lat":43.292644,"lon":5.384257,"is_reserved":false,"is_disabled":false,"rental_uris":{"android":"levelo://app?vid=52857375-4e3a-4a8d-af1e-d7e072e4d49c","ios":"levelo://app?vid=52857375-4e3a-4a8d-af1e-d7e072e4d49c"},"vehicle_type_id":"4","last_reported":1683572703,"current_range_meters":20400,"station_id":"ce4bh692rcd13ifvqea0","pricing_plan_id":"free"},{"bike_id":"89f333b9-efaa-46bd-b28a-3cdb2c584912","system_id":"levelo_inurba_marseille","lat":43.292621,"lon":5.384328,"is_reserved":false,"is_disabled":false,"rental_uris":{"android":"levelo://app?vid=89f333b9-efaa-46bd-b28a-3cdb2c584912","ios":"levelo://app?vid=89f333b9-efaa-46bd-b28a-3cdb2c584912"},"vehicle_type_id":"4","last_reported":1683572703,"current_range_meters":20800,"station_id":"ce4bh692rcd13ifvqea0","pricing_plan_id":"free"},{"bike_id":"afd898d9-f9e0-42f0-b6f3-c48442bcdc55","system_id":"levelo_inurba_marseille","lat":43.304296,"lon":5.397513,"is_reserved":false,"is_disabled":false,"rental_uris":{"android":"levelo://app?vid=afd898d9-f9e0-42f0-b6f3-c48442bcdc55","ios":"levelo://app?vid=afd898d9-f9e0-42f0-b6f3-c48442bcdc55"},"vehicle_type_id":"4","last_reported":1683572703,"current_range_meters":14000,"station_id":"ce4bh092rcd13ifvqd20","pricing_plan_id":"free"},{"bike_id":"6f1e789e-4254-41fd-a637-e14e602bb977","system_id":"levelo_inurba_marseille","lat":43.292642,"lon":5.384254,"is_reserved":false,"is_disabled":false,"rental_uris":{"android":"levelo://app?vid=6f1e789e-4254-41fd-a637-e14e602bb977","ios":"levelo://app?vid=6f1e789e-4254-41fd-a637-e14e602bb977"},"vehicle_type_id":"4","last_reported":1683572703,"current_range_meters":22800,"station_id":"ce4bh692rcd13ifvqea0","pricing_plan_id":"free"},{"bike_id":"90de7137-f35d-4528-88fd-2ef5eda4d159","system_id":"levelo_inurba_marseille","lat":43.292644,"lon":5.384257,"is_reserved":false,"is_disabled":false,"rental_uris":{"android":"levelo://app?vid=90de7137-f35d-4528-88fd-2ef5eda4d159","ios":"levelo://app?vid=90de7137-f35d-4528-88fd-2ef5eda4d159"},"vehicle_type_id":"4","last_reported":1683572703,"current_range_meters":11200,"station_id":"ce4bh692rcd13ifvqea0","pricing_plan_id":"free"},{"bike_id":"fba4825a-c3ad-4e1b-8a8f-3b5dd322bb5f","system_id":"levelo_inurba_marseille","lat":43.33044,"lon":5.38916,"is_reserved":false,"is_disabled":false,"rental_uris":{"android":"levelo://app?vid=fba4825a-c3ad-4e1b-8a8f-3b5dd322bb5f","ios":"levelo://app?vid=fba4825a-c3ad-4e1b-8a8f-3b5dd322bb5f"},"vehicle_type_id":"4","last_reported":1683572703,"current_range_meters":31200,"station_id":"ce4bhr92rcd13ifvqhrg","pricing_plan_id":"free"},{"bike_id":"2c4d1fc8-5966-49f2-8d08-251e531c7e7f","system_id":"levelo_inurba_marseille","lat":43.33045,"lon":5.38917,"is_reserved":false,"is_disabled":false,"rental_uris":{"android":"levelo://app?vid=2c4d1fc8-5966-49f2-8d08-251e531c7e7f","ios":"levelo://app?vid=2c4d1fc8-5966-49f2-8d08-251e531c7e7f"},"vehicle_type_id":"4","last_reported":1683572703,"current_range_meters":24400,"station_id":"ce4bhr92rcd13ifvqhrg","pricing_plan_id":"free"},{"bike_id":"c80426be-83d3-4e57-a092-befe7b8a7a79","system_id":"levelo_inurba_marseille","lat":43.330463,"lon":5.389179,"is_reserved":false,"is_disabled":false,"rental_uris":{"android":"levelo://app?vid=c80426be-83d3-4e57-a092-befe7b8a7a79","ios":"levelo://app?vid=c80426be-83d3-4e57-a092-befe7b8a7a79"},"vehicle_type_id":"4","last_reported":1683572703,"current_range_meters":24800,"station_id":"ce4bhr92rcd13ifvqhrg","pricing_plan_id":"free"},{"bike_id":"900543c1-ba77-4615-8f9b-f04944156c0b","system_id":"levelo_inurba_marseille","lat":43.330471,"lon":5.389181,"is_reserved":false,"is_disabled":false,"rental_uris":{"android":"levelo://app?vid=900543c1-ba77-4615-8f9b-f04944156c0b","ios":"levelo://app?vid=900543c1-ba77-4615-8f9b-f04944156c0b"},"vehicle_type_id":"4","last_reported":1683572703,"current_range_meters":23200,"station_id":"ce4bhr92rcd13ifvqhrg","pricing_plan_id":"free"},{"bike_id":"72f7fdc7-4763-479b-a34e-f238ca3cd360","system_id":"levelo_inurba_marseille","lat":43.330475,"lon":5.389176,"is_reserved":false,"is_disabled":false,"rental_uris":{"android":"levelo://app?vid=72f7fdc7-4763-479b-a34e-f238ca3cd360","ios":"levelo://app?vid=72f7fdc7-4763-479b-a34e-f238ca3cd360"},"vehicle_type_id":"4","last_reported":1683572703,"current_range_meters":25200,"station_id":"ce4bhr92rcd13ifvqhrg","pricing_plan_id":"free"},{"bike_id":"07d164cd-7b14-4a1e-b202-09425bdf7e33","system_id":"levelo_inurba_marseille","lat":43.290995,"lon":5.381361,"is_reserved":false,"is_disabled":false,"rental_uris":{"android":"levelo://app?vid=07d164cd-7b14-4a1e-b202-09425bdf7e33","ios":"levelo://app?vid=07d164cd-7b14-4a1e-b202-09425bdf7e33"},"vehicle_type_id":"4","last_reported":1683572703,"current_range_meters":1200,"station_id":"ce4bh512rcd13ifvqe2g","pricing_plan_id":"free"},{"bike_id":"0f789c79-226b-4c8f-ab80-8dbe22335ac0","system_id":"levelo_inurba_marseille","lat":43.290995,"lon":5.381361,"is_reserved":false,"is_disabled":false,"rental_uris":{"android":"levelo://app?vid=0f789c79-226b-4c8f-ab80-8dbe22335ac0","ios":"levelo://app?vid=0f789c79-226b-4c8f-ab80-8dbe22335ac0"},"vehicle_type_id":"4","last_reported":1683572703,"current_range_meters":0,"station_id":"ce4bh512rcd13ifvqe2g","pricing_plan_id":"free"},{"bike_id":"bc2f2d8e-3d91-4b4d-ac28-73db59aaea6f","system_id":"levelo_inurba_marseille","lat":43.295169,"lon":5.390426,"is_reserved":false,"is_disabled":false,"rental_uris":{"android":"levelo://app?vid=bc2f2d8e-3d91-4b4d-ac28-73db59aaea6f","ios":"levelo://app?vid=bc2f2d8e-3d91-4b4d-ac28-73db59aaea6f"},"vehicle_type_id":"4","last_reported":1683572703,"current_range_meters":14800,"station_id":"ce4bh3p2rcd13ifvqdp0","pricing_plan_id":"free"},{"bike_id":"fc20990b-b72e-4f54-9e24-2161a47b454b","system_id":"levelo_inurba_marseille","lat":43.295169,"lon":5.390426,"is_reserved":false,"is_disabled":false,"rental_uris":{"android":"levelo://app?vid=fc20990b-b72e-4f54-9e24-2161a47b454b","ios":"levelo://app?vid=fc20990b-b72e-4f54-9e24-2161a47b454b"},"vehicle_type_id":"4","last_reported":1683572703,"current_range_meters":28400,"station_id":"ce4bh3p2rcd13ifvqdp0","pricing_plan_id":"free"},{"bike_id":"4543bb29-14da-45b0-8f37-cf2d58f8347d","system_id":"levelo_inurba_marseille","lat":43.2901,"lon":5.381269,"is_reserved":false,"is_disabled":false,"rental_uris":{"android":"levelo://app?vid=4543bb29-14da-45b0-8f37-cf2d58f8347d","ios":"levelo://app?vid=4543bb29-14da-45b0-8f37-cf2d58f8347d"},"vehicle_type_id":"4","last_reported":1683572703,"current_range_meters":22800,"station_id":"ce4bh4p2rcd13ifvqe1g","pricing_plan_id":"free"},{"bike_id":"ca23064c-7b94-427b-aa9b-19f4774d839d","system_id":"levelo_inurba_marseille","lat":43.2901,"lon":5.381269,"is_reserved":false,"is_disabled":false,"rental_uris":{"android":"levelo://app?vid=ca23064c-7b94-427b-aa9b-19f4774d839d","ios":"levelo://app?vid=ca23064c-7b94-427b-aa9b-19f4774d839d"},"vehicle_type_id":"4","last_reported":1683572703,"current_range_meters":10400,"station_id":"ce4bh4p2rcd13ifvqe1g","pricing_plan_id":"free"},{"bike_id":"21c9b035-341f-46f8-97e1-97219e737fb8","system_id":"levelo_inurba_marseille","lat":43.30642,"lon":5.401031,"is_reserved":false,"is_disabled":false,"rental_uris":{"android":"levelo://app?vid=21c9b035-341f-46f8-97e1-97219e737fb8","ios":"levelo://app?vid=21c9b035-341f-46f8-97e1-97219e737fb8"},"vehicle_type_id":"4","last_reported":1683572703,"current_range_meters":31200,"station_id":"ce4bh112rcd13ifvqda0","pricing_plan_id":"free"},{"bike_id":"78725f08-8d42-4f1a-9002-0d0b35dc7efd","system_id":"levelo_inurba_marseille","lat":43.33751,"lon":5.37435,"is_reserved":false,"is_disabled":false,"rental_uris":{"android":"levelo://app?vid=78725f08-8d42-4f1a-9002-0d0b35dc7efd","ios":"levelo://app?vid=78725f08-8d42-4f1a-9002-0d0b35dc7efd"},"vehicle_type_id":"4","last_reported":1683572703,"current_range_meters":13600,"station_id":"","pricing_plan_id":"free"},{"bike_id":"3be8f928-1ebf-42b1-87d7-220a02387f80","system_id":"levelo_inurba_marseille","lat":43.30642,"lon":5.401031,"is_reserved":false,"is_disabled":false,"rental_uris":{"android":"levelo://app?vid=3be8f928-1ebf-42b1-87d7-220a02387f80","ios":"levelo://app?vid=3be8f928-1ebf-42b1-87d7-220a02387f80"},"vehicle_type_id":"4","last_reported":1683572703,"current_range_meters":26400,"station_id":"ce4bh112rcd13ifvqda0","pricing_plan_id":"free"},{"bike_id":"8c8cdd88-6d58-417f-8b88-b63b2f66ede5","system_id":"levelo_inurba_marseille","lat":43.30642,"lon":5.401031,"is_reserved":false,"is_disabled":false,"rental_uris":{"android":"levelo://app?vid=8c8cdd88-6d58-417f-8b88-b63b2f66ede5","ios":"levelo://app?vid=8c8cdd88-6d58-417f-8b88-b63b2f66ede5"},"vehicle_type_id":"4","last_reported":1683572703,"current_range_meters":31200,"station_id":"ce4bh112rcd13ifvqda0","pricing_plan_id":"free"},{"bike_id":"ae36dd54-0593-473b-88e7-8f2e475a657b","system_id":"levelo_inurba_marseille","lat":43.30642,"lon":5.401031,"is_reserved":false,"is_disabled":false,"rental_uris":{"android":"levelo://app?vid=ae36dd54-0593-473b-88e7-8f2e475a657b","ios":"levelo://app?vid=ae36dd54-0593-473b-88e7-8f2e475a657b"},"vehicle_type_id":"4","last_reported":1683572703,"current_range_meters":24800,"station_id":"ce4bh112rcd13ifvqda0","pricing_plan_id":"free"},{"bike_id":"7c7fe969-ca3b-4e6a-9b0a-6e22bc5df003","system_id":"levelo_inurba_marseille","lat":43.33769,"lon":5.3743,"is_reserved":false,"is_disabled":false,"rental_uris":{"android":"levelo://app?vid=7c7fe969-ca3b-4e6a-9b0a-6e22bc5df003","ios":"levelo://app?vid=7c7fe969-ca3b-4e6a-9b0a-6e22bc5df003"},"vehicle_type_id":"4","last_reported":1683572703,"current_range_meters":31200,"station_id":"ce4rr2p2rcd13i802rgg","pricing_plan_id":"free"},{"bike_id":"d68e6cbb-70c0-4768-9f51-6b20b9b205bd","system_id":"levelo_inurba_marseille","lat":43.30642,"lon":5.401031,"is_reserved":false,"is_disabled":false,"rental_uris":{"android":"levelo://app?vid=d68e6cbb-70c0-4768-9f51-6b20b9b205bd","ios":"levelo://app?vid=d68e6cbb-70c0-4768-9f51-6b20b9b205bd"},"vehicle_type_id":"4","last_reported":1683572703,"current_range_meters":12400,"station_id":"ce4bh112rcd13ifvqda0","pricing_plan_id":"free"},{"bike_id":"2bc5e800-af2c-4409-b008-30004a73afab","system_id":"levelo_inurba_marseille","lat":43.301117,"lon":5.398795,"is_reserved":false,"is_disabled":false,"rental_uris":{"android":"levelo://app?vid=2bc5e800-af2c-4409-b008-30004a73afab","ios":"levelo://app?vid=2bc5e800-af2c-4409-b008-30004a73afab"},"vehicle_type_id":"4","last_reported":1683572703,"current_range_meters":21600,"station_id":"ce4bh0h2rcd13ifvqd40","pricing_plan_id":"free"},{"bike_id":"a3a2010e-d05c-43ad-945e-3c65c516f639","system_id":"levelo_inurba_marseille","lat":43.30642,"lon":5.401031,"is_reserved":false,"is_disabled":false,"rental_uris":{"android":"levelo://app?vid=a3a2010e-d05c-43ad-945e-3c65c516f639","ios":"levelo://app?vid=a3a2010e-d05c-43ad-945e-3c65c516f639"},"vehicle_type_id":"4","last_reported":1683572703,"current_range_meters":21600,"station_id":"ce4bh112rcd13ifvqda0","pricing_plan_id":"free"},{"bike_id":"32e68baa-c670-4eea-b44b-21a67f62175c","system_id":"levelo_inurba_marseille","lat":43.301117,"lon":5.398795,"is_reserved":false,"is_disabled":false,"rental_uris":{"android":"levelo://app?vid=32e68baa-c670-4eea-b44b-21a67f62175c","ios":"levelo://app?vid=32e68baa-c670-4eea-b44b-21a67f62175c"},"vehicle_type_id":"4","last_reported":1683572703,"current_range_meters":8800,"station_id":"ce4bh0h2rcd13ifvqd40","pricing_plan_id":"free"},{"bike_id":"485b389d-2ebe-4617-aae0-fe0813a6e924","system_id":"levelo_inurba_marseille","lat":43.301117,"lon":5.398795,"is_reserved":false,"is_disabled":false,"rental_uris":{"android":"levelo://app?vid=485b389d-2ebe-4617-aae0-fe0813a6e924","ios":"levelo://app?vid=485b389d-2ebe-4617-aae0-fe0813a6e924"},"vehicle_type_id":"4","last_reported":1683572703,"current_range_meters":14800,"station_id":"ce4bh0h2rcd13ifvqd40","pricing_plan_id":"free"},{"bike_id":"31c519be-4b56-485c-aed8-f701ba1fb58d","system_id":"levelo_inurba_marseille","lat":43.301117,"lon":5.398795,"is_reserved":false,"is_disabled":false,"rental_uris":{"android":"levelo://app?vid=31c519be-4b56-485c-aed8-f701ba1fb58d","ios":"levelo://app?vid=31c519be-4b56-485c-aed8-f701ba1fb58d"},"vehicle_type_id":"4","last_reported":1683572703,"current_range_meters":27200,"station_id":"ce4bh0h2rcd13ifvqd40","pricing_plan_id":"free"},{"bike_id":"a4a5fad3-6cb4-4085-8922-23f8d32cf01e","system_id":"levelo_inurba_marseille","lat":43.298681,"lon":5.397225,"is_reserved":false,"is_disabled":false,"rental_uris":{"android":"levelo://app?vid=a4a5fad3-6cb4-4085-8922-23f8d32cf01e","ios":"levelo://app?vid=a4a5fad3-6cb4-4085-8922-23f8d32cf01e"},"vehicle_type_id":"4","last_reported":1683572703,"current_range_meters":15600,"station_id":"ce4bh0h2rcd13ifvqd50","pricing_plan_id":"free"},{"bike_id":"870d1c03-f9c8-425c-a76c-e376d645cdc6","system_id":"levelo_inurba_marseille","lat":43.298681,"lon":5.397225,"is_reserved":false,"is_disabled":false,"rental_uris":{"android":"levelo://app?vid=870d1c03-f9c8-425c-a76c-e376d645cdc6","ios":"levelo://app?vid=870d1c03-f9c8-425c-a76c-e376d645cdc6"},"vehicle_type_id":"4","last_reported":1683572703,"current_range_meters":11200,"station_id":"ce4bh0h2rcd13ifvqd50","pricing_plan_id":"free"},{"bike_id":"30814d6c-7863-415d-8827-a2d2ed2f8e59","system_id":"levelo_inurba_marseille","lat":43.298681,"lon":5.397225,"is_reserved":false,"is_disabled":false,"rental_uris":{"android":"levelo://app?vid=30814d6c-7863-415d-8827-a2d2ed2f8e59","ios":"levelo://app?vid=30814d6c-7863-415d-8827-a2d2ed2f8e59"},"vehicle_type_id":"4","last_reported":1683572703,"current_range_meters":8400,"station_id":"ce4bh0h2rcd13ifvqd50","pricing_plan_id":"free"},{"bike_id":"a102ff74-b0eb-4c62-95fc-cb598f4ac12b","system_id":"levelo_inurba_marseille","lat":43.29864,"lon":5.39726,"is_reserved":false,"is_disabled":false,"rental_uris":{"android":"levelo://app?vid=a102ff74-b0eb-4c62-95fc-cb598f4ac12b","ios":"levelo://app?vid=a102ff74-b0eb-4c62-95fc-cb598f4ac12b"},"vehicle_type_id":"4","last_reported":1683572703,"current_range_meters":18800,"station_id":"ce4bh0h2rcd13ifvqd50","pricing_plan_id":"free"},{"bike_id":"e4f446dc-8894-4469-9f4e-d7a80324155c","system_id":"levelo_inurba_marseille","lat":43.298681,"lon":5.397225,"is_reserved":false,"is_disabled":false,"rental_uris":{"android":"levelo://app?vid=e4f446dc-8894-4469-9f4e-d7a80324155c","ios":"levelo://app?vid=e4f446dc-8894-4469-9f4e-d7a80324155c"},"vehicle_type_id":"4","last_reported":1683572703,"current_range_meters":22000,"station_id":"ce4bh0h2rcd13ifvqd50","pricing_plan_id":"free"},{"bike_id":"f40e982e-e6f7-4cf6-b093-edceffa48711","system_id":"levelo_inurba_marseille","lat":43.298681,"lon":5.397225,"is_reserved":false,"is_disabled":false,"rental_uris":{"android":"levelo://app?vid=f40e982e-e6f7-4cf6-b093-edceffa48711","ios":"levelo://app?vid=f40e982e-e6f7-4cf6-b093-edceffa48711"},"vehicle_type_id":"4","last_reported":1683572703,"current_range_meters":24800,"station_id":"ce4bh0h2rcd13ifvqd50","pricing_plan_id":"free"},{"bike_id":"2c73bd9d-7d90-476b-8923-736bc1cd0bbe","system_id":"levelo_inurba_marseille","lat":43.298681,"lon":5.397225,"is_reserved":false,"is_disabled":false,"rental_uris":{"android":"levelo://app?vid=2c73bd9d-7d90-476b-8923-736bc1cd0bbe","ios":"levelo://app?vid=2c73bd9d-7d90-476b-8923-736bc1cd0bbe"},"vehicle_type_id":"4","last_reported":1683572703,"current_range_meters":31600,"station_id":"ce4bh0h2rcd13ifvqd50","pricing_plan_id":"free"},{"bike_id":"ade1003b-3faa-47b6-81a9-dc9a6ed39331","system_id":"levelo_inurba_marseille","lat":43.286593,"lon":5.363346,"is_reserved":false,"is_disabled":false,"rental_uris":{"android":"levelo://app?vid=ade1003b-3faa-47b6-81a9-dc9a6ed39331","ios":"levelo://app?vid=ade1003b-3faa-47b6-81a9-dc9a6ed39331"},"vehicle_type_id":"4","last_reported":1683572703,"current_range_meters":4000,"station_id":"ce4bhah2rcd13ifvqej0","pricing_plan_id":"free"},{"bike_id":"d27ef292-8052-4dfb-b785-db62eb192aff","system_id":"levelo_inurba_marseille","lat":43.298681,"lon":5.397225,"is_reserved":false,"is_disabled":false,"rental_uris":{"android":"levelo://app?vid=d27ef292-8052-4dfb-b785-db62eb192aff","ios":"levelo://app?vid=d27ef292-8052-4dfb-b785-db62eb192aff"},"vehicle_type_id":"4","last_reported":1683572703,"current_range_meters":31600,"station_id":"ce4bh0h2rcd13ifvqd50","pricing_plan_id":"free"},{"bike_id":"3388efd5-c354-4ca3-a0a2-68f81ed9b113","system_id":"levelo_inurba_marseille","lat":43.29871,"lon":5.39736,"is_reserved":false,"is_disabled":false,"rental_uris":{"android":"levelo://app?vid=3388efd5-c354-4ca3-a0a2-68f81ed9b113","ios":"levelo://app?vid=3388efd5-c354-4ca3-a0a2-68f81ed9b113"},"vehicle_type_id":"4","last_reported":1683572703,"current_range_meters":4400,"station_id":"ce4bh0h2rcd13ifvqd50","pricing_plan_id":"free"},{"bike_id":"508940e0-414c-4364-ae34-0b9b2ef6d468","system_id":"levelo_inurba_marseille","lat":43.286593,"lon":5.363346,"is_reserved":false,"is_disabled":false,"rental_uris":{"android":"levelo://app?vid=508940e0-414c-4364-ae34-0b9b2ef6d468","ios":"levelo://app?vid=508940e0-414c-4364-ae34-0b9b2ef6d468"},"vehicle_type_id":"4","last_reported":1683572703,"current_range_meters":5600,"station_id":"ce4bhah2rcd13ifvqej0","pricing_plan_id":"free"},{"bike_id":"21fd4991-eba0-4b16-8304-09f779322b2e","system_id":"levelo_inurba_marseille","lat":43.298681,"lon":5.397225,"is_reserved":false,"is_disabled":false,"rental_uris":{"android":"levelo://app?vid=21fd4991-eba0-4b16-8304-09f779322b2e","ios":"levelo://app?vid=21fd4991-eba0-4b16-8304-09f779322b2e"},"vehicle_type_id":"4","last_reported":1683572703,"current_range_meters":31600,"station_id":"ce4bh0h2rcd13ifvqd50","pricing_plan_id":"free"},{"bike_id":"8013d346-041a-4aaa-8ef2-b9b549422355","system_id":"levelo_inurba_marseille","lat":43.286593,"lon":5.363346,"is_reserved":false,"is_disabled":false,"rental_uris":{"android":"levelo://app?vid=8013d346-041a-4aaa-8ef2-b9b549422355","ios":"levelo://app?vid=8013d346-041a-4aaa-8ef2-b9b549422355"},"vehicle_type_id":"4","last_reported":1683572703,"current_range_meters":5600,"station_id":"ce4bhah2rcd13ifvqej0","pricing_plan_id":"free"},{"bike_id":"e01e0504-8f28-4b24-b937-c5b09fc7c79a","system_id":"levelo_inurba_marseille","lat":43.298681,"lon":5.397225,"is_reserved":false,"is_disabled":false,"rental_uris":{"android":"levelo://app?vid=e01e0504-8f28-4b24-b937-c5b09fc7c79a","ios":"levelo://app?vid=e01e0504-8f28-4b24-b937-c5b09fc7c79a"},"vehicle_type_id":"4","last_reported":1683572703,"current_range_meters":27200,"station_id":"ce4bh0h2rcd13ifvqd50","pricing_plan_id":"free"},{"bike_id":"5ab43483-e5a3-4506-b285-70a95cf4e1e3","system_id":"levelo_inurba_marseille","lat":43.2987,"lon":5.39749,"is_reserved":false,"is_disabled":false,"rental_uris":{"android":"levelo://app?vid=5ab43483-e5a3-4506-b285-70a95cf4e1e3","ios":"levelo://app?vid=5ab43483-e5a3-4506-b285-70a95cf4e1e3"},"vehicle_type_id":"4","last_reported":1683572703,"current_range_meters":0,"station_id":"ce4bh0h2rcd13ifvqd50","pricing_plan_id":"free"},{"bike_id":"3551c753-64e4-4260-bcef-c2d33f358455","system_id":"levelo_inurba_marseille","lat":43.286593,"lon":5.363346,"is_reserved":false,"is_disabled":false,"rental_uris":{"android":"levelo://app?vid=3551c753-64e4-4260-bcef-c2d33f358455","ios":"levelo://app?vid=3551c753-64e4-4260-bcef-c2d33f358455"},"vehicle_type_id":"4","last_reported":1683572703,"current_range_meters":2800,"station_id":"ce4bhah2rcd13ifvqej0","pricing_plan_id":"free"},{"bike_id":"d3f8cdd7-9e68-4d58-ade4-38ec3bf62f9b","system_id":"levelo_inurba_marseille","lat":43.295194,"lon":5.39397,"is_reserved":false,"is_disabled":false,"rental_uris":{"android":"levelo://app?vid=d3f8cdd7-9e68-4d58-ade4-38ec3bf62f9b","ios":"levelo://app?vid=d3f8cdd7-9e68-4d58-ade4-38ec3bf62f9b"},"vehicle_type_id":"4","last_reported":1683572703,"current_range_meters":17200,"station_id":"ce4bh292rcd13ifvqdf0","pricing_plan_id":"free"},{"bike_id":"44c1a6f8-edb8-490c-9541-bc7bfe1a01a2","system_id":"levelo_inurba_marseille","lat":43.295196,"lon":5.39397,"is_reserved":false,"is_disabled":false,"rental_uris":{"android":"levelo://app?vid=44c1a6f8-edb8-490c-9541-bc7bfe1a01a2","ios":"levelo://app?vid=44c1a6f8-edb8-490c-9541-bc7bfe1a01a2"},"vehicle_type_id":"4","last_reported":1683572703,"current_range_meters":9600,"station_id":"ce4bh292rcd13ifvqdf0","pricing_plan_id":"free"},{"bike_id":"55a11bd9-1501-4c33-ba0c-007cf2c927d1","system_id":"levelo_inurba_marseille","lat":43.29517,"lon":5.39399,"is_reserved":false,"is_disabled":false,"rental_uris":{"android":"levelo://app?vid=55a11bd9-1501-4c33-ba0c-007cf2c927d1","ios":"levelo://app?vid=55a11bd9-1501-4c33-ba0c-007cf2c927d1"},"vehicle_type_id":"4","last_reported":1683572703,"current_range_meters":6000,"station_id":"ce4bh292rcd13ifvqdf0","pricing_plan_id":"free"},{"bike_id":"558c4f98-7d4c-41ec-a8b4-b0248c915cf1","system_id":"levelo_inurba_marseille","lat":43.295194,"lon":5.39397,"is_reserved":false,"is_disabled":false,"rental_uris":{"android":"levelo://app?vid=558c4f98-7d4c-41ec-a8b4-b0248c915cf1","ios":"levelo://app?vid=558c4f98-7d4c-41ec-a8b4-b0248c915cf1"},"vehicle_type_id":"4","last_reported":1683572703,"current_range_meters":20000,"station_id":"ce4bh292rcd13ifvqdf0","pricing_plan_id":"free"},{"bike_id":"e5e99419-1f8b-4571-97ce-815fd146b297","system_id":"levelo_inurba_marseille","lat":43.302759,"lon":5.400793,"is_reserved":false,"is_disabled":false,"rental_uris":{"android":"levelo://app?vid=e5e99419-1f8b-4571-97ce-815fd146b297","ios":"levelo://app?vid=e5e99419-1f8b-4571-97ce-815fd146b297"},"vehicle_type_id":"4","last_reported":1683572703,"current_range_meters":21600,"station_id":"ce4bgvh2rcd13ifvqcs0","pricing_plan_id":"free"},{"bike_id":"feb6570d-cc0a-4dfd-9786-2b9a7bbfbc4e","system_id":"levelo_inurba_marseille","lat":43.302759,"lon":5.400793,"is_reserved":false,"is_disabled":false,"rental_uris":{"android":"levelo://app?vid=feb6570d-cc0a-4dfd-9786-2b9a7bbfbc4e","ios":"levelo://app?vid=feb6570d-cc0a-4dfd-9786-2b9a7bbfbc4e"},"vehicle_type_id":"4","last_reported":1683572703,"current_range_meters":31200,"station_id":"ce4bgvh2rcd13ifvqcs0","pricing_plan_id":"free"},{"bike_id":"28def054-93cf-45a7-88a2-fa07874b8d04","system_id":"levelo_inurba_marseille","lat":43.290345,"lon":5.38646,"is_reserved":false,"is_disabled":false,"rental_uris":{"android":"levelo://app?vid=28def054-93cf-45a7-88a2-fa07874b8d04","ios":"levelo://app?vid=28def054-93cf-45a7-88a2-fa07874b8d04"},"vehicle_type_id":"4","last_reported":1683572703,"current_range_meters":24800,"station_id":"ce4bh4p2rcd13ifvqe0g","pricing_plan_id":"free"},{"bike_id":"d36bb5de-1011-464b-b616-cded02a82bc9","system_id":"levelo_inurba_marseille","lat":43.290345,"lon":5.38646,"is_reserved":false,"is_disabled":false,"rental_uris":{"android":"levelo://app?vid=d36bb5de-1011-464b-b616-cded02a82bc9","ios":"levelo://app?vid=d36bb5de-1011-464b-b616-cded02a82bc9"},"vehicle_type_id":"4","last_reported":1683572703,"current_range_meters":10000,"station_id":"ce4bh4p2rcd13ifvqe0g","pricing_plan_id":"free"},{"bike_id":"ed24b3a8-6e06-4cad-8ace-3ceb3320621b","system_id":"levelo_inurba_marseille","lat":43.290336,"lon":5.386425,"is_reserved":false,"is_disabled":false,"rental_uris":{"android":"levelo://app?vid=ed24b3a8-6e06-4cad-8ace-3ceb3320621b","ios":"levelo://app?vid=ed24b3a8-6e06-4cad-8ace-3ceb3320621b"},"vehicle_type_id":"4","last_reported":1683572703,"current_range_meters":0,"station_id":"ce4bh4p2rcd13ifvqe0g","pricing_plan_id":"free"},{"bike_id":"1feb834c-3606-4813-96d9-8340df02b799","system_id":"levelo_inurba_marseille","lat":43.290336,"lon":5.386425,"is_reserved":false,"is_disabled":false,"rental_uris":{"android":"levelo://app?vid=1feb834c-3606-4813-96d9-8340df02b799","ios":"levelo://app?vid=1feb834c-3606-4813-96d9-8340df02b799"},"vehicle_type_id":"4","last_reported":1683572703,"current_range_meters":31600,"station_id":"ce4bh4p2rcd13ifvqe0g","pricing_plan_id":"free"},{"bike_id":"85db599b-d848-454e-af2c-f7d52d2c8e2e","system_id":"levelo_inurba_marseille","lat":43.290336,"lon":5.386425,"is_reserved":false,"is_disabled":false,"rental_uris":{"android":"levelo://app?vid=85db599b-d848-454e-af2c-f7d52d2c8e2e","ios":"levelo://app?vid=85db599b-d848-454e-af2c-f7d52d2c8e2e"},"vehicle_type_id":"4","last_reported":1683572703,"current_range_meters":20800,"station_id":"ce4bh4p2rcd13ifvqe0g","pricing_plan_id":"free"},{"bike_id":"ed7964b4-ed34-4387-a768-cef7ff35b940","system_id":"levelo_inurba_marseille","lat":43.302759,"lon":5.400793,"is_reserved":false,"is_disabled":false,"rental_uris":{"android":"levelo://app?vid=ed7964b4-ed34-4387-a768-cef7ff35b940","ios":"levelo://app?vid=ed7964b4-ed34-4387-a768-cef7ff35b940"},"vehicle_type_id":"4","last_reported":1683572703,"current_range_meters":31200,"station_id":"ce4bgvh2rcd13ifvqcs0","pricing_plan_id":"free"},{"bike_id":"d2d2ed47-1fca-4fc8-855f-3d52ef145f03","system_id":"levelo_inurba_marseille","lat":43.302759,"lon":5.400793,"is_reserved":false,"is_disabled":false,"rental_uris":{"android":"levelo://app?vid=d2d2ed47-1fca-4fc8-855f-3d52ef145f03","ios":"levelo://app?vid=d2d2ed47-1fca-4fc8-855f-3d52ef145f03"},"vehicle_type_id":"4","last_reported":1683572703,"current_range_meters":31600,"station_id":"ce4bgvh2rcd13ifvqcs0","pricing_plan_id":"free"},{"bike_id":"d7cdfbf4-8f23-4038-b4e8-70e6250bbcce","system_id":"levelo_inurba_marseille","lat":43.290336,"lon":5.386425,"is_reserved":false,"is_disabled":false,"rental_uris":{"android":"levelo://app?vid=d7cdfbf4-8f23-4038-b4e8-70e6250bbcce","ios":"levelo://app?vid=d7cdfbf4-8f23-4038-b4e8-70e6250bbcce"},"vehicle_type_id":"4","last_reported":1683572703,"current_range_meters":25600,"station_id":"ce4bh4p2rcd13ifvqe0g","pricing_plan_id":"free"},{"bike_id":"555acc9c-671d-4530-889c-c1ac07ee0d4b","system_id":"levelo_inurba_marseille","lat":43.302759,"lon":5.400793,"is_reserved":false,"is_disabled":false,"rental_uris":{"android":"levelo://app?vid=555acc9c-671d-4530-889c-c1ac07ee0d4b","ios":"levelo://app?vid=555acc9c-671d-4530-889c-c1ac07ee0d4b"},"vehicle_type_id":"4","last_reported":1683572703,"current_range_meters":21200,"station_id":"ce4bgvh2rcd13ifvqcs0","pricing_plan_id":"free"},{"bike_id":"c1ad753c-eb1d-4f2a-884a-304e46f50cf3","system_id":"levelo_inurba_marseille","lat":43.302759,"lon":5.400793,"is_reserved":false,"is_disabled":false,"rental_uris":{"android":"levelo://app?vid=c1ad753c-eb1d-4f2a-884a-304e46f50cf3","ios":"levelo://app?vid=c1ad753c-eb1d-4f2a-884a-304e46f50cf3"},"vehicle_type_id":"4","last_reported":1683572703,"current_range_meters":31200,"station_id":"ce4bgvh2rcd13ifvqcs0","pricing_plan_id":"free"},{"bike_id":"ffbc0c12-c157-4937-b35a-52994357074e","system_id":"levelo_inurba_marseille","lat":43.290336,"lon":5.386425,"is_reserved":false,"is_disabled":false,"rental_uris":{"android":"levelo://app?vid=ffbc0c12-c157-4937-b35a-52994357074e","ios":"levelo://app?vid=ffbc0c12-c157-4937-b35a-52994357074e"},"vehicle_type_id":"4","last_reported":1683572703,"current_range_meters":0,"station_id":"ce4bh4p2rcd13ifvqe0g","pricing_plan_id":"free"},{"bike_id":"f3496272-94a4-4819-8c95-53a12b7fc99a","system_id":"levelo_inurba_marseille","lat":43.302759,"lon":5.400793,"is_reserved":false,"is_disabled":false,"rental_uris":{"android":"levelo://app?vid=f3496272-94a4-4819-8c95-53a12b7fc99a","ios":"levelo://app?vid=f3496272-94a4-4819-8c95-53a12b7fc99a"},"vehicle_type_id":"4","last_reported":1683572703,"current_range_meters":30000,"station_id":"ce4bgvh2rcd13ifvqcs0","pricing_plan_id":"free"},{"bike_id":"ac8921e1-a6ea-40d6-8341-9525dc9a0af4","system_id":"levelo_inurba_marseille","lat":43.286039,"lon":5.370679,"is_reserved":false,"is_disabled":false,"rental_uris":{"android":"levelo://app?vid=ac8921e1-a6ea-40d6-8341-9525dc9a0af4","ios":"levelo://app?vid=ac8921e1-a6ea-40d6-8341-9525dc9a0af4"},"vehicle_type_id":"4","last_reported":1683572703,"current_range_meters":3600,"station_id":"ce4bht12rcd13ifvqi60","pricing_plan_id":"free"},{"bike_id":"5d8e9d0e-ff00-4e6f-a9f3-002675cc963a","system_id":"levelo_inurba_marseille","lat":43.286039,"lon":5.370679,"is_reserved":false,"is_disabled":false,"rental_uris":{"android":"levelo://app?vid=5d8e9d0e-ff00-4e6f-a9f3-002675cc963a","ios":"levelo://app?vid=5d8e9d0e-ff00-4e6f-a9f3-002675cc963a"},"vehicle_type_id":"4","last_reported":1683572703,"current_range_meters":23600,"station_id":"ce4bht12rcd13ifvqi60","pricing_plan_id":"free"},{"bike_id":"5692db15-3a41-4540-9a5a-ed21d8261cd9","system_id":"levelo_inurba_marseille","lat":43.286039,"lon":5.370679,"is_reserved":false,"is_disabled":false,"rental_uris":{"android":"levelo://app?vid=5692db15-3a41-4540-9a5a-ed21d8261cd9","ios":"levelo://app?vid=5692db15-3a41-4540-9a5a-ed21d8261cd9"},"vehicle_type_id":"4","last_reported":1683572703,"current_range_meters":9200,"station_id":"ce4bht12rcd13ifvqi60","pricing_plan_id":"free"},{"bike_id":"a47a394d-882f-4d53-bdfd-487968945f37","system_id":"levelo_inurba_marseille","lat":43.286039,"lon":5.370681,"is_reserved":false,"is_disabled":false,"rental_uris":{"android":"levelo://app?vid=a47a394d-882f-4d53-bdfd-487968945f37","ios":"levelo://app?vid=a47a394d-882f-4d53-bdfd-487968945f37"},"vehicle_type_id":"4","last_reported":1683572703,"current_range_meters":14400,"station_id":"ce4bht12rcd13ifvqi60","pricing_plan_id":"free"},{"bike_id":"ffd4385d-e42d-4fba-9f76-040de3ba32ce","system_id":"levelo_inurba_marseille","lat":43.286039,"lon":5.370679,"is_reserved":false,"is_disabled":false,"rental_uris":{"android":"levelo://app?vid=ffd4385d-e42d-4fba-9f76-040de3ba32ce","ios":"levelo://app?vid=ffd4385d-e42d-4fba-9f76-040de3ba32ce"},"vehicle_type_id":"4","last_reported":1683572703,"current_range_meters":22000,"station_id":"ce4bht12rcd13ifvqi60","pricing_plan_id":"free"},{"bike_id":"0cc68598-f5d0-4aa4-9e99-2d9c1f51a886","system_id":"levelo_inurba_marseille","lat":43.286039,"lon":5.370679,"is_reserved":false,"is_disabled":false,"rental_uris":{"android":"levelo://app?vid=0cc68598-f5d0-4aa4-9e99-2d9c1f51a886","ios":"levelo://app?vid=0cc68598-f5d0-4aa4-9e99-2d9c1f51a886"},"vehicle_type_id":"4","last_reported":1683572703,"current_range_meters":12800,"station_id":"ce4bht12rcd13ifvqi60","pricing_plan_id":"free"},{"bike_id":"84d5f118-606e-48d6-b173-fa009e1430bd","system_id":"levelo_inurba_marseille","lat":43.286039,"lon":5.370681,"is_reserved":false,"is_disabled":false,"rental_uris":{"android":"levelo://app?vid=84d5f118-606e-48d6-b173-fa009e1430bd","ios":"levelo://app?vid=84d5f118-606e-48d6-b173-fa009e1430bd"},"vehicle_type_id":"4","last_reported":1683572703,"current_range_meters":3600,"station_id":"ce4bht12rcd13ifvqi60","pricing_plan_id":"free"},{"bike_id":"2cb13f49-43b4-4f39-8a5d-fb596408b684","system_id":"levelo_inurba_marseille","lat":43.286039,"lon":5.370681,"is_reserved":false,"is_disabled":false,"rental_uris":{"android":"levelo://app?vid=2cb13f49-43b4-4f39-8a5d-fb596408b684","ios":"levelo://app?vid=2cb13f49-43b4-4f39-8a5d-fb596408b684"},"vehicle_type_id":"4","last_reported":1683572703,"current_range_meters":19200,"station_id":"ce4bht12rcd13ifvqi60","pricing_plan_id":"free"},{"bike_id":"c09ed9e6-5ff7-4551-96cf-d834ba882ca8","system_id":"levelo_inurba_marseille","lat":43.286039,"lon":5.370679,"is_reserved":false,"is_disabled":false,"rental_uris":{"android":"levelo://app?vid=c09ed9e6-5ff7-4551-96cf-d834ba882ca8","ios":"levelo://app?vid=c09ed9e6-5ff7-4551-96cf-d834ba882ca8"},"vehicle_type_id":"4","last_reported":1683572703,"current_range_meters":10800,"station_id":"ce4bht12rcd13ifvqi60","pricing_plan_id":"free"},{"bike_id":"ec802d6a-5279-4ccb-8bc3-5acf74169b93","system_id":"levelo_inurba_marseille","lat":43.286039,"lon":5.370679,"is_reserved":false,"is_disabled":false,"rental_uris":{"android":"levelo://app?vid=ec802d6a-5279-4ccb-8bc3-5acf74169b93","ios":"levelo://app?vid=ec802d6a-5279-4ccb-8bc3-5acf74169b93"},"vehicle_type_id":"4","last_reported":1683572703,"current_range_meters":18800,"station_id":"ce4bht12rcd13ifvqi60","pricing_plan_id":"free"},{"bike_id":"48e650f9-d423-4617-aff2-dbacf4375b13","system_id":"levelo_inurba_marseille","lat":43.286039,"lon":5.370679,"is_reserved":false,"is_disabled":false,"rental_uris":{"android":"levelo://app?vid=48e650f9-d423-4617-aff2-dbacf4375b13","ios":"levelo://app?vid=48e650f9-d423-4617-aff2-dbacf4375b13"},"vehicle_type_id":"4","last_reported":1683572703,"current_range_meters":10800,"station_id":"ce4bht12rcd13ifvqi60","pricing_plan_id":"free"},{"bike_id":"742c2010-00d2-4eae-8ae2-99616013f004","system_id":"levelo_inurba_marseille","lat":43.286039,"lon":5.370681,"is_reserved":false,"is_disabled":false,"rental_uris":{"android":"levelo://app?vid=742c2010-00d2-4eae-8ae2-99616013f004","ios":"levelo://app?vid=742c2010-00d2-4eae-8ae2-99616013f004"},"vehicle_type_id":"4","last_reported":1683572703,"current_range_meters":12400,"station_id":"ce4bht12rcd13ifvqi60","pricing_plan_id":"free"},{"bike_id":"c56749c3-d272-4843-90a2-f48972a1c742","system_id":"levelo_inurba_marseille","lat":43.286039,"lon":5.370681,"is_reserved":false,"is_disabled":false,"rental_uris":{"android":"levelo://app?vid=c56749c3-d272-4843-90a2-f48972a1c742","ios":"levelo://app?vid=c56749c3-d272-4843-90a2-f48972a1c742"},"vehicle_type_id":"4","last_reported":1683572703,"current_range_meters":22000,"station_id":"ce4bht12rcd13ifvqi60","pricing_plan_id":"free"},{"bike_id":"9e89e1bb-febc-440e-a066-5e002950af11","system_id":"levelo_inurba_marseille","lat":43.286039,"lon":5.370679,"is_reserved":false,"is_disabled":false,"rental_uris":{"android":"levelo://app?vid=9e89e1bb-febc-440e-a066-5e002950af11","ios":"levelo://app?vid=9e89e1bb-febc-440e-a066-5e002950af11"},"vehicle_type_id":"4","last_reported":1683572703,"current_range_meters":25200,"station_id":"ce4bht12rcd13ifvqi60","pricing_plan_id":"free"},{"bike_id":"408b33df-808e-408e-889a-74b4a25532b1","system_id":"levelo_inurba_marseille","lat":43.286039,"lon":5.370681,"is_reserved":false,"is_disabled":false,"rental_uris":{"android":"levelo://app?vid=408b33df-808e-408e-889a-74b4a25532b1","ios":"levelo://app?vid=408b33df-808e-408e-889a-74b4a25532b1"},"vehicle_type_id":"4","last_reported":1683572703,"current_range_meters":8000,"station_id":"ce4bht12rcd13ifvqi60","pricing_plan_id":"free"},{"bike_id":"e26356d2-ddca-45d4-8c1d-2d2d48415d08","system_id":"levelo_inurba_marseille","lat":43.287185,"lon":5.379373,"is_reserved":false,"is_disabled":false,"rental_uris":{"android":"levelo://app?vid=e26356d2-ddca-45d4-8c1d-2d2d48415d08","ios":"levelo://app?vid=e26356d2-ddca-45d4-8c1d-2d2d48415d08"},"vehicle_type_id":"4","last_reported":1683572703,"current_range_meters":0,"station_id":"ce4bh9p2rcd13ifvqec0","pricing_plan_id":"free"},{"bike_id":"e55a092f-4e1f-449c-ad98-790abb323956","system_id":"levelo_inurba_marseille","lat":43.287184,"lon":5.37937,"is_reserved":false,"is_disabled":false,"rental_uris":{"android":"levelo://app?vid=e55a092f-4e1f-449c-ad98-790abb323956","ios":"levelo://app?vid=e55a092f-4e1f-449c-ad98-790abb323956"},"vehicle_type_id":"4","last_reported":1683572703,"current_range_meters":6400,"station_id":"ce4bh9p2rcd13ifvqec0","pricing_plan_id":"free"},{"bike_id":"30941413-3e40-4afc-a222-57f81cd89a18","system_id":"levelo_inurba_marseille","lat":43.287185,"lon":5.379373,"is_reserved":false,"is_disabled":false,"rental_uris":{"android":"levelo://app?vid=30941413-3e40-4afc-a222-57f81cd89a18","ios":"levelo://app?vid=30941413-3e40-4afc-a222-57f81cd89a18"},"vehicle_type_id":"4","last_reported":1683572703,"current_range_meters":26800,"station_id":"ce4bh9p2rcd13ifvqec0","pricing_plan_id":"free"},{"bike_id":"7762b489-cb69-4fc0-8ff1-e36592259d8d","system_id":"levelo_inurba_marseille","lat":43.316523,"lon":5.404367,"is_reserved":false,"is_disabled":false,"rental_uris":{"android":"levelo://app?vid=7762b489-cb69-4fc0-8ff1-e36592259d8d","ios":"levelo://app?vid=7762b489-cb69-4fc0-8ff1-e36592259d8d"},"vehicle_type_id":"4","last_reported":1683572703,"current_range_meters":31200,"station_id":"ce4bh012rcd13ifvqd00","pricing_plan_id":"free"},{"bike_id":"7c022dc7-a3e5-4663-ab0b-c3c6b33b09e0","system_id":"levelo_inurba_marseille","lat":43.316487,"lon":5.404289,"is_reserved":false,"is_disabled":false,"rental_uris":{"android":"levelo://app?vid=7c022dc7-a3e5-4663-ab0b-c3c6b33b09e0","ios":"levelo://app?vid=7c022dc7-a3e5-4663-ab0b-c3c6b33b09e0"},"vehicle_type_id":"4","last_reported":1683572703,"current_range_meters":30000,"station_id":"","pricing_plan_id":"free"},{"bike_id":"de4ec532-1ebb-4500-a4ce-5fdbd1b1afc6","system_id":"levelo_inurba_marseille","lat":43.316517,"lon":5.404375,"is_reserved":false,"is_disabled":false,"rental_uris":{"android":"levelo://app?vid=de4ec532-1ebb-4500-a4ce-5fdbd1b1afc6","ios":"levelo://app?vid=de4ec532-1ebb-4500-a4ce-5fdbd1b1afc6"},"vehicle_type_id":"4","last_reported":1683572703,"current_range_meters":29200,"station_id":"ce4bh012rcd13ifvqd00","pricing_plan_id":"free"},{"bike_id":"599c901c-9982-4abd-be7b-c02a4e7be087","system_id":"levelo_inurba_marseille","lat":43.316523,"lon":5.404367,"is_reserved":false,"is_disabled":false,"rental_uris":{"android":"levelo://app?vid=599c901c-9982-4abd-be7b-c02a4e7be087","ios":"levelo://app?vid=599c901c-9982-4abd-be7b-c02a4e7be087"},"vehicle_type_id":"4","last_reported":1683572703,"current_range_meters":30800,"station_id":"ce4bh012rcd13ifvqd00","pricing_plan_id":"free"},{"bike_id":"1acadfab-027c-427e-a681-9553d796a5f9","system_id":"levelo_inurba_marseille","lat":43.316523,"lon":5.404367,"is_reserved":false,"is_disabled":false,"rental_uris":{"android":"levelo://app?vid=1acadfab-027c-427e-a681-9553d796a5f9","ios":"levelo://app?vid=1acadfab-027c-427e-a681-9553d796a5f9"},"vehicle_type_id":"4","last_reported":1683572703,"current_range_meters":29200,"station_id":"ce4bh012rcd13ifvqd00","pricing_plan_id":"free"},{"bike_id":"165a850c-d45c-490d-aff7-c566f5485854","system_id":"levelo_inurba_marseille","lat":43.316517,"lon":5.404375,"is_reserved":false,"is_disabled":false,"rental_uris":{"android":"levelo://app?vid=165a850c-d45c-490d-aff7-c566f5485854","ios":"levelo://app?vid=165a850c-d45c-490d-aff7-c566f5485854"},"vehicle_type_id":"4","last_reported":1683572703,"current_range_meters":28400,"station_id":"ce4bh012rcd13ifvqd00","pricing_plan_id":"free"},{"bike_id":"9d5c5e9e-1c08-470c-b1a5-a54f8e7aeb33","system_id":"levelo_inurba_marseille","lat":43.316523,"lon":5.404367,"is_reserved":false,"is_disabled":false,"rental_uris":{"android":"levelo://app?vid=9d5c5e9e-1c08-470c-b1a5-a54f8e7aeb33","ios":"levelo://app?vid=9d5c5e9e-1c08-470c-b1a5-a54f8e7aeb33"},"vehicle_type_id":"4","last_reported":1683572703,"current_range_meters":31200,"station_id":"ce4bh012rcd13ifvqd00","pricing_plan_id":"free"},{"bike_id":"c4c597ea-b0f6-47c0-9f60-afb0115781e3","system_id":"levelo_inurba_marseille","lat":43.291994,"lon":5.392907,"is_reserved":false,"is_disabled":false,"rental_uris":{"android":"levelo://app?vid=c4c597ea-b0f6-47c0-9f60-afb0115781e3","ios":"levelo://app?vid=c4c597ea-b0f6-47c0-9f60-afb0115781e3"},"vehicle_type_id":"4","last_reported":1683572703,"current_range_meters":400,"station_id":"ce4bh192rcd13ifvqdd0","pricing_plan_id":"free"},{"bike_id":"abaaa445-83a3-4779-b523-e8edd99041c1","system_id":"levelo_inurba_marseille","lat":43.291994,"lon":5.392907,"is_reserved":false,"is_disabled":false,"rental_uris":{"android":"levelo://app?vid=abaaa445-83a3-4779-b523-e8edd99041c1","ios":"levelo://app?vid=abaaa445-83a3-4779-b523-e8edd99041c1"},"vehicle_type_id":"4","last_reported":1683572703,"current_range_meters":24400,"station_id":"ce4bh192rcd13ifvqdd0","pricing_plan_id":"free"},{"bike_id":"0e965bc6-ba23-4a22-a6d4-5248f824c673","system_id":"levelo_inurba_marseille","lat":43.291994,"lon":5.392907,"is_reserved":false,"is_disabled":false,"rental_uris":{"android":"levelo://app?vid=0e965bc6-ba23-4a22-a6d4-5248f824c673","ios":"levelo://app?vid=0e965bc6-ba23-4a22-a6d4-5248f824c673"},"vehicle_type_id":"4","last_reported":1683572703,"current_range_meters":800,"station_id":"ce4bh192rcd13ifvqdd0","pricing_plan_id":"free"},{"bike_id":"f1aa2330-3b31-44a4-97f8-e98ceff08ecf","system_id":"levelo_inurba_marseille","lat":43.34082,"lon":5.36017,"is_reserved":false,"is_disabled":false,"rental_uris":{"android":"levelo://app?vid=f1aa2330-3b31-44a4-97f8-e98ceff08ecf","ios":"levelo://app?vid=f1aa2330-3b31-44a4-97f8-e98ceff08ecf"},"vehicle_type_id":"4","last_reported":1683572703,"current_range_meters":18800,"station_id":"","pricing_plan_id":"free"},{"bike_id":"191295f2-4605-4201-9159-73a7150b3565","system_id":"levelo_inurba_marseille","lat":43.284534,"lon":5.358662,"is_reserved":false,"is_disabled":false,"rental_uris":{"android":"levelo://app?vid=191295f2-4605-4201-9159-73a7150b3565","ios":"levelo://app?vid=191295f2-4605-4201-9159-73a7150b3565"},"vehicle_type_id":"4","last_reported":1683572703,"current_range_meters":12000,"station_id":"ce4bhah2rcd13ifvqei0","pricing_plan_id":"free"},{"bike_id":"33af8990-7ce9-4f96-bc66-8e7cc6a71b0f","system_id":"levelo_inurba_marseille","lat":43.284534,"lon":5.358662,"is_reserved":false,"is_disabled":false,"rental_uris":{"android":"levelo://app?vid=33af8990-7ce9-4f96-bc66-8e7cc6a71b0f","ios":"levelo://app?vid=33af8990-7ce9-4f96-bc66-8e7cc6a71b0f"},"vehicle_type_id":"4","last_reported":1683572703,"current_range_meters":10400,"station_id":"ce4bhah2rcd13ifvqei0","pricing_plan_id":"free"},{"bike_id":"b9d09017-8977-4367-ae02-5b3a00987f01","system_id":"levelo_inurba_marseille","lat":43.284534,"lon":5.358662,"is_reserved":false,"is_disabled":false,"rental_uris":{"android":"levelo://app?vid=b9d09017-8977-4367-ae02-5b3a00987f01","ios":"levelo://app?vid=b9d09017-8977-4367-ae02-5b3a00987f01"},"vehicle_type_id":"4","last_reported":1683572703,"current_range_meters":25600,"station_id":"ce4bhah2rcd13ifvqei0","pricing_plan_id":"free"},{"bike_id":"30242770-95af-4fb6-830f-ceab3d4d732e","system_id":"levelo_inurba_marseille","lat":43.285856,"lon":5.350771,"is_reserved":false,"is_disabled":false,"rental_uris":{"android":"levelo://app?vid=30242770-95af-4fb6-830f-ceab3d4d732e","ios":"levelo://app?vid=30242770-95af-4fb6-830f-ceab3d4d732e"},"vehicle_type_id":"4","last_reported":1683572703,"current_range_meters":4800,"station_id":"ce4bhch2rcd13ifvqeug","pricing_plan_id":"free"},{"bike_id":"07124ba0-c4e2-440c-9b63-a3fd345f2015","system_id":"levelo_inurba_marseille","lat":43.284534,"lon":5.358662,"is_reserved":false,"is_disabled":false,"rental_uris":{"android":"levelo://app?vid=07124ba0-c4e2-440c-9b63-a3fd345f2015","ios":"levelo://app?vid=07124ba0-c4e2-440c-9b63-a3fd345f2015"},"vehicle_type_id":"4","last_reported":1683572703,"current_range_meters":0,"station_id":"ce4bhah2rcd13ifvqei0","pricing_plan_id":"free"},{"bike_id":"95c39d27-36c5-412e-b849-852791b58e82","system_id":"levelo_inurba_marseille","lat":43.285856,"lon":5.350771,"is_reserved":false,"is_disabled":false,"rental_uris":{"android":"levelo://app?vid=95c39d27-36c5-412e-b849-852791b58e82","ios":"levelo://app?vid=95c39d27-36c5-412e-b849-852791b58e82"},"vehicle_type_id":"4","last_reported":1683572703,"current_range_meters":0,"station_id":"ce4bhch2rcd13ifvqeug","pricing_plan_id":"free"},{"bike_id":"44106708-4246-42c5-acbc-5a597da8ea70","system_id":"levelo_inurba_marseille","lat":43.285856,"lon":5.350771,"is_reserved":false,"is_disabled":false,"rental_uris":{"android":"levelo://app?vid=44106708-4246-42c5-acbc-5a597da8ea70","ios":"levelo://app?vid=44106708-4246-42c5-acbc-5a597da8ea70"},"vehicle_type_id":"4","last_reported":1683572703,"current_range_meters":4400,"station_id":"ce4bhch2rcd13ifvqeug","pricing_plan_id":"free"},{"bike_id":"7e99124f-97c2-4428-8d0e-9f13146255fd","system_id":"levelo_inurba_marseille","lat":43.29567,"lon":5.39964,"is_reserved":false,"is_disabled":false,"rental_uris":{"android":"levelo://app?vid=7e99124f-97c2-4428-8d0e-9f13146255fd","ios":"levelo://app?vid=7e99124f-97c2-4428-8d0e-9f13146255fd"},"vehicle_type_id":"4","last_reported":1683572703,"current_range_meters":18400,"station_id":"ce4bh312rcd13ifvqdj0","pricing_plan_id":"free"},{"bike_id":"960590b8-c7ff-4e0d-b189-4c9e976fcddd","system_id":"levelo_inurba_marseille","lat":43.286595,"lon":5.386795,"is_reserved":false,"is_disabled":false,"rental_uris":{"android":"levelo://app?vid=960590b8-c7ff-4e0d-b189-4c9e976fcddd","ios":"levelo://app?vid=960590b8-c7ff-4e0d-b189-4c9e976fcddd"},"vehicle_type_id":"4","last_reported":1683572703,"current_range_meters":2800,"station_id":"ce4bh492rcd13ifvqdug","pricing_plan_id":"free"},{"bike_id":"e371a777-4664-47ab-a559-e4f872795eab","system_id":"levelo_inurba_marseille","lat":43.286595,"lon":5.386795,"is_reserved":false,"is_disabled":false,"rental_uris":{"android":"levelo://app?vid=e371a777-4664-47ab-a559-e4f872795eab","ios":"levelo://app?vid=e371a777-4664-47ab-a559-e4f872795eab"},"vehicle_type_id":"4","last_reported":1683572703,"current_range_meters":27200,"station_id":"ce4bh492rcd13ifvqdug","pricing_plan_id":"free"},{"bike_id":"e8c6eaa1-32c3-4cff-86e5-ead7b54238b4","system_id":"levelo_inurba_marseille","lat":43.286595,"lon":5.386795,"is_reserved":false,"is_disabled":false,"rental_uris":{"android":"levelo://app?vid=e8c6eaa1-32c3-4cff-86e5-ead7b54238b4","ios":"levelo://app?vid=e8c6eaa1-32c3-4cff-86e5-ead7b54238b4"},"vehicle_type_id":"4","last_reported":1683572703,"current_range_meters":31600,"station_id":"ce4bh492rcd13ifvqdug","pricing_plan_id":"free"},{"bike_id":"a62c58fb-f6d4-4512-a503-1b0e1ec4b9a3","system_id":"levelo_inurba_marseille","lat":43.286595,"lon":5.386795,"is_reserved":false,"is_disabled":false,"rental_uris":{"android":"levelo://app?vid=a62c58fb-f6d4-4512-a503-1b0e1ec4b9a3","ios":"levelo://app?vid=a62c58fb-f6d4-4512-a503-1b0e1ec4b9a3"},"vehicle_type_id":"4","last_reported":1683572703,"current_range_meters":0,"station_id":"ce4bh492rcd13ifvqdug","pricing_plan_id":"free"},{"bike_id":"eeed33b8-4405-4fee-8d96-fecd07572891","system_id":"levelo_inurba_marseille","lat":43.32335,"lon":5.40613,"is_reserved":false,"is_disabled":false,"rental_uris":{"android":"levelo://app?vid=eeed33b8-4405-4fee-8d96-fecd07572891","ios":"levelo://app?vid=eeed33b8-4405-4fee-8d96-fecd07572891"},"vehicle_type_id":"4","last_reported":1683572703,"current_range_meters":31200,"station_id":"ce4bhq92rcd13ifvqhjg","pricing_plan_id":"free"},{"bike_id":"f536521f-f652-4f76-95a5-be13ca8d8868","system_id":"levelo_inurba_marseille","lat":43.32338,"lon":5.40619,"is_reserved":false,"is_disabled":false,"rental_uris":{"android":"levelo://app?vid=f536521f-f652-4f76-95a5-be13ca8d8868","ios":"levelo://app?vid=f536521f-f652-4f76-95a5-be13ca8d8868"},