{"last_updated":1761833405,"ttl":60,"version":"2.2","data":{"bikes":[{"bike_id":"aacc01e3-6d9f-491a-b1ed-d10f639e29e2","system_id":"levelo_inurba_marseille","lat":43.337444,"lon":5.374475,"is_reserved":false,"is_disabled":false,"rental_uris":{"android":"levelo://app?vid=aacc01e3-6d9f-491a-b1ed-d10f639e29e2","ios":"levelo://app?vid=aacc01e3-6d9f-491a-b1ed-d10f639e29e2"},"vehicle_type_id":"4","last_reported":1761833405,"current_range_meters":0,"station_id":"","pricing_plan_id":"cebpf4jnsgd1na2vs0mg"},{"bike_id":"35ef2eb9-fe09-4124-a7ab-f792dcbd6ddc","system_id":"levelo_inurba_marseille","lat":43.337444,"lon":5.374475,"is_reserved":false,"is_disabled":false,"rental_uris":{"android":"levelo://app?vid=35ef2eb9-fe09-4124-a7ab-f792dcbd6ddc","ios":"levelo://app?vid=35ef2eb9-fe09-4124-a7ab-f792dcbd6ddc"},"vehicle_type_id":"4","last_reported":1761833405,"current_range_meters":0,"station_id":"","pricing_plan_id":"cebpf4jnsgd1na2vs0mg"},{"bike_id":"49ddb7e7-127c-434c-8992-2e05f2e3428d","system_id":"levelo_inurba_marseille","lat":43.337444,"lon":5.374475,"is_reserved":false,"is_disabled":false,"rental_uris":{"android":"levelo://app?vid=49ddb7e7-127c-434c-8992-2e05f2e3428d","ios":"levelo://app?vid=49ddb7e7-127c-434c-8992-2e05f2e3428d"},"vehicle_type_id":"4","last_reported":1761833405,"current_range_meters":0,"station_id":"","pricing_plan_id":"cebpf4jnsgd1na2vs0mg"},{"bike_id":"b3b460c5-2faa-45c2-8fde-7b54e8b4eaf5","system_id":"levelo_inurba_marseille","lat":43.337444,"lon":5.374475,"is_reserved":false,"is_disabled":false,"rental_uris":{"android":"levelo://app?vid=b3b460c5-2faa-45c2-8fde-7b54e8b4eaf5","ios":"levelo://app?vid=b3b460c5-2faa-45c2-8fde-7b54e8b4eaf5"},"vehicle_type_id":"4","last_reported":1761833405,"current_range_meters":0,"station_id":"","pricing_plan_id":"cebpf4jnsgd1na2vs0mg"},{"bike_id":"6b8eeff3-ec31-445f-be43-f1e3ba63fb37","system_id":"levelo_inurba_marseille","lat":43.337416,"lon":5.374586,"is_reserved":false,"is_disabled":false,"rental_uris":{"android":"levelo://app?vid=6b8eeff3-ec31-445f-be43-f1e3ba63fb37","ios":"levelo://app?vid=6b8eeff3-ec31-445f-be43-f1e3ba63fb37"},"vehicle_type_id":"4","last_reported":1761833405,"current_range_meters":0,"station_id":"","pricing_plan_id":"cebpf4jnsgd1na2vs0mg"},{"bike_id":"e0e86d10-d79a-47b9-82ad-a00ae7a62a8a","system_id":"levelo_inurba_marseille","lat":43.337444,"lon":5.374475,"is_reserved":false,"is_disabled":false,"rental_uris":{"android":"levelo://app?vid=e0e86d10-d79a-47b9-82ad-a00ae7a62a8a","ios":"levelo://app?vid=e0e86d10-d79a-47b9-82ad-a00ae7a62a8a"},"vehicle_type_id":"4","last_reported":1761833405,"current_range_meters":0,"station_id":"","pricing_plan_id":"cebpf4jnsgd1na2vs0mg"},{"bike_id":"548f1c45-4f2a-4cfe-b981-5bc1daecb21b","system_id":"levelo_inurba_marseille","lat":43.337444,"lon":5.374475,"is_reserved":false,"is_disabled":false,"rental_uris":{"android":"levelo://app?vid=548f1c45-4f2a-4cfe-b981-5bc1daecb21b","ios":"levelo://app?vid=548f1c45-4f2a-4cfe-b981-5bc1daecb21b"},"vehicle_type_id":"4","last_reported":1761833405,"current_range_meters":0,"station_id":"","pricing_plan_id":"cebpf4jnsgd1na2vs0mg"},{"bike_id":"5260dce0-6ede-4de4-b006-1466527b5fbe","system_id":"levelo_inurba_marseille","lat":43.337444,"lon":5.374475,"is_reserved":false,"is_disabled":false,"rental_uris":{"android":"levelo://app?vid=5260dce0-6ede-4de4-b006-1466527b5fbe","ios":"levelo://app?vid=5260dce0-6ede-4de4-b006-1466527b5fbe"},"vehicle_type_id":"4","last_reported":1761833405,"current_range_meters":0,"station_id":"","pricing_plan_id":"cebpf4jnsgd1na2vs0mg"},{"bike_id":"fb1816a3-8e74-463a-88d2-d6b63cf0a426","system_id":"levelo_inurba_marseille","lat":43.337444,"lon":5.374475,"is_reserved":false,"is_disabled":false,"rental_uris":{"android":"levelo://app?vid=fb1816a3-8e74-463a-88d2-d6b63cf0a426","ios":"levelo://app?vid=fb1816a3-8e74-463a-88d2-d6b63cf0a426"},"vehicle_type_id":"4","last_reported":1761833405,"current_range_meters":0,"station_id":"","pricing_plan_id":"cebpf4jnsgd1na2vs0mg"},{"bike_id":"3c881d8d-608f-4c39-9df3-b2aa54f8afcf","system_id":"levelo_inurba_marseille","lat":43.337444,"lon":5.374475,"is_reserved":false,"is_disabled":false,"rental_uris":{"android":"levelo://app?vid=3c881d8d-608f-4c39-9df3-b2aa54f8afcf","ios":"levelo://app?vid=3c881d8d-608f-4c39-9df3-b2aa54f8afcf"},"vehicle_type_id":"4","last_reported":1761833405,"current_range_meters":0,"station_id":"","pricing_plan_id":"cebpf4jnsgd1na2vs0mg"},{"bike_id":"a26e4937-215f-44d2-a8de-a7d3ec75d32b","system_id":"levelo_inurba_marseille","lat":43.337444,"lon":5.374475,"is_reserved":false,"is_disabled":false,"rental_uris":{"android":"levelo://app?vid=a26e4937-215f-44d2-a8de-a7d3ec75d32b","ios":"levelo://app?vid=a26e4937-215f-44d2-a8de-a7d3ec75d32b"},"vehicle_type_id":"4","last_reported":1761833405,"current_range_meters":0,"station_id":"","pricing_plan_id":"cebpf4jnsgd1na2vs0mg"},{"bike_id":"fadc4e19-b9ad-4402-a5bc-a0eff5c2b634","system_id":"levelo_inurba_marseille","lat":43.337444,"lon":5.374475,"is_reserved":false,"is_disabled":false,"rental_uris":{"android":"levelo://app?vid=fadc4e19-b9ad-4402-a5bc-a0eff5c2b634","ios":"levelo://app?vid=fadc4e19-b9ad-4402-a5bc-a0eff5c2b634"},"vehicle_type_id":"4","last_reported":1761833405,"current_range_meters":0,"station_id":"","pricing_plan_id":"cebpf4jnsgd1na2vs0mg"},{"bike_id":"e294c151-4441-4e4a-a116-13c66dfb9429","system_id":"levelo_inurba_marseille","lat":43.337444,"lon":5.374475,"is_reserved":false,"is_disabled":false,"rental_uris":{"android":"levelo://app?vid=e294c151-4441-4e4a-a116-13c66dfb9429","ios":"levelo://app?vid=e294c151-4441-4e4a-a116-13c66dfb9429"},"vehicle_type_id":"4","last_reported":1761833405,"current_range_meters":0,"station_id":"","pricing_plan_id":"cebpf4jnsgd1na2vs0mg"},{"bike_id":"0baff1cc-f548-40f7-a934-77958566d6a5","system_id":"levelo_inurba_marseille","lat":43.337444,"lon":5.374475,"is_reserved":false,"is_disabled":false,"rental_uris":{"android":"levelo://app?vid=0baff1cc-f548-40f7-a934-77958566d6a5","ios":"levelo://app?vid=0baff1cc-f548-40f7-a934-77958566d6a5"},"vehicle_type_id":"4","last_reported":1761833405,"current_range_meters":0,"station_id":"","pricing_plan_id":"cebpf4jnsgd1na2vs0mg"},{"bike_id":"1310c5d0-e39d-4b9c-84d7-1872f297ff18","system_id":"levelo_inurba_marseille","lat":43.337444,"lon":5.374475,"is_reserved":false,"is_disabled":false,"rental_uris":{"android":"levelo://app?vid=1310c5d0-e39d-4b9c-84d7-1872f297ff18","ios":"levelo://app?vid=1310c5d0-e39d-4b9c-84d7-1872f297ff18"},"vehicle_type_id":"4","last_reported":1761833405,"current_range_meters":0,"station_id":"","pricing_plan_id":"cebpf4jnsgd1na2vs0mg"},{"bike_id":"01eaacf7-8682-4054-bf38-52456d06e6f6","system_id":"levelo_inurba_marseille","lat":43.337444,"lon":5.374475,"is_reserved":false,"is_disabled":false,"rental_uris":{"android":"levelo://app?vid=01eaacf7-8682-4054-bf38-52456d06e6f6","ios":"levelo://app?vid=01eaacf7-8682-4054-bf38-52456d06e6f6"},"vehicle_type_id":"4","last_reported":1761833405,"current_range_meters":0,"station_id":"","pricing_plan_id":"cebpf4jnsgd1na2vs0mg"},{"bike_id":"4dbab57a-b708-409a-b815-3b9a5d92f753","system_id":"levelo_inurba_marseille","lat":43.337444,"lon":5.374475,"is_reserved":false,"is_disabled":false,"rental_uris":{"android":"levelo://app?vid=4dbab57a-b708-409a-b815-3b9a5d92f753","ios":"levelo://app?vid=4dbab57a-b708-409a-b815-3b9a5d92f753"},"vehicle_type_id":"4","last_reported":1761833405,"current_range_meters":0,"station_id":"","pricing_plan_id":"cebpf4jnsgd1na2vs0mg"},{"bike_id":"00f1260a-63f9-4663-ac1e-51258f9213bd","system_id":"levelo_inurba_marseille","lat":43.337444,"lon":5.374475,"is_reserved":false,"is_disabled":false,"rental_uris":{"android":"levelo://app?vid=00f1260a-63f9-4663-ac1e-51258f9213bd","ios":"levelo://app?vid=00f1260a-63f9-4663-ac1e-51258f9213bd"},"vehicle_type_id":"4","last_reported":1761833405,"current_range_meters":0,"station_id":"","pricing_plan_id":"cebpf4jnsgd1na2vs0mg"},{"bike_id":"50aa746e-d71a-437c-bb7a-ed648a03f81b","system_id":"levelo_inurba_marseille","lat":43.337444,"lon":5.374475,"is_reserved":false,"is_disabled":false,"rental_uris":{"android":"levelo://app?vid=50aa746e-d71a-437c-bb7a-ed648a03f81b","ios":"levelo://app?vid=50aa746e-d71a-437c-bb7a-ed648a03f81b"},"vehicle_type_id":"4","last_reported":1761833405,"current_range_meters":0,"station_id":"","pricing_plan_id":"cebpf4jnsgd1na2vs0mg"},{"bike_id":"3e68cf6e-17b6-46f5-8b08-d049449e0ca4","system_id":"levelo_inurba_marseille","lat":43.337444,"lon":5.374475,"is_reserved":false,"is_disabled":false,"rental_uris":{"android":"levelo://app?vid=3e68cf6e-17b6-46f5-8b08-d049449e0ca4","ios":"levelo://app?vid=3e68cf6e-17b6-46f5-8b08-d049449e0ca4"},"vehicle_type_id":"4","last_reported":1761833405,"current_range_meters":0,"station_id":"","pricing_plan_id":"cebpf4jnsgd1na2vs0mg"},{"bike_id":"b06c4997-7e4f-467a-922f-92f2f2e27e9d","system_id":"levelo_inurba_marseille","lat":43.337444,"lon":5.374475,"is_reserved":false,"is_disabled":false,"rental_uris":{"android":"levelo://app?vid=b06c4997-7e4f-467a-922f-92f2f2e27e9d","ios":"levelo://app?vid=b06c4997-7e4f-467a-922f-92f2f2e27e9d"},"vehicle_type_id":"4","last_reported":1761833405,"current_range_meters":0,"station_id":"","pricing_plan_id":"cebpf4jnsgd1na2vs0mg"},{"bike_id":"bb49b980-4cfb-49a5-9add-f3f9d4fc6db5","system_id":"levelo_inurba_marseille","lat":43.337444,"lon":5.374475,"is_reserved":false,"is_disabled":false,"rental_uris":{"android":"levelo://app?vid=bb49b980-4cfb-49a5-9add-f3f9d4fc6db5","ios":"levelo://app?vid=bb49b980-4cfb-49a5-9add-f3f9d4fc6db5"},"vehicle_type_id":"4","last_reported":1761833405,"current_range_meters":0,"station_id":"","pricing_plan_id":"cebpf4jnsgd1na2vs0mg"},{"bike_id":"b97206fc-6c94-4378-926a-a788d4f71c09","system_id":"levelo_inurba_marseille","lat":43.337444,"lon":5.374475,"is_reserved":false,"is_disabled":false,"rental_uris":{"android":"levelo://app?vid=b97206fc-6c94-4378-926a-a788d4f71c09","ios":"levelo://app?vid=b97206fc-6c94-4378-926a-a788d4f71c09"},"vehicle_type_id":"4","last_reported":1761833405,"current_range_meters":0,"station_id":"","pricing_plan_id":"cebpf4jnsgd1na2vs0mg"},{"bike_id":"37d7ebf5-2b3d-4af3-a7cd-4f29f464d5a0","system_id":"levelo_inurba_marseille","lat":43.337444,"lon":5.374475,"is_reserved":false,"is_disabled":false,"rental_uris":{"android":"levelo://app?vid=37d7ebf5-2b3d-4af3-a7cd-4f29f464d5a0","ios":"levelo://app?vid=37d7ebf5-2b3d-4af3-a7cd-4f29f464d5a0"},"vehicle_type_id":"4","last_reported":1761833405,"current_range_meters":0,"station_id":"","pricing_plan_id":"cebpf4jnsgd1na2vs0mg"},{"bike_id":"4ce4318f-b763-4325-8589-2aecbcc80add","system_id":"levelo_inurba_marseille","lat":43.337444,"lon":5.374475,"is_reserved":false,"is_disabled":false,"rental_uris":{"android":"levelo://app?vid=4ce4318f-b763-4325-8589-2aecbcc80add","ios":"levelo://app?vid=4ce4318f-b763-4325-8589-2aecbcc80add"},"vehicle_type_id":"4","last_reported":1761833405,"current_range_meters":0,"station_id":"","pricing_plan_id":"cebpf4jnsgd1na2vs0mg"},{"bike_id":"a6a3a590-5c2a-4683-a516-e9f5572de0f8","system_id":"levelo_inurba_marseille","lat":43.337444,"lon":5.374475,"is_reserved":false,"is_disabled":false,"rental_uris":{"android":"levelo://app?vid=a6a3a590-5c2a-4683-a516-e9f5572de0f8","ios":"levelo://app?vid=a6a3a590-5c2a-4683-a516-e9f5572de0f8"},"vehicle_type_id":"4","last_reported":1761833405,"current_range_meters":0,"station_id":"","pricing_plan_id":"cebpf4jnsgd1na2vs0mg"},{"bike_id":"111bdd74-3ae9-48f5-979c-2e177e7747d9","system_id":"levelo_inurba_marseille","lat":43.337444,"lon":5.374475,"is_reserved":false,"is_disabled":false,"rental_uris":{"android":"levelo://app?vid=111bdd74-3ae9-48f5-979c-2e177e7747d9","ios":"levelo://app?vid=111bdd74-3ae9-48f5-979c-2e177e7747d9"},"vehicle_type_id":"4","last_reported":1761833405,"current_range_meters":0,"station_id":"","pricing_plan_id":"cebpf4jnsgd1na2vs0mg"},{"bike_id":"b9d871b8-65b0-40af-afa3-0bf2492a45a9","system_id":"levelo_inurba_marseille","lat":43.337444,"lon":5.374475,"is_reserved":false,"is_disabled":false,"rental_uris":{"android":"levelo://app?vid=b9d871b8-65b0-40af-afa3-0bf2492a45a9","ios":"levelo://app?vid=b9d871b8-65b0-40af-afa3-0bf2492a45a9"},"vehicle_type_id":"4","last_reported":1761833405,"current_range_meters":0,"station_id":"","pricing_plan_id":"cebpf4jnsgd1na2vs0mg"},{"bike_id":"5bec735e-fcf4-48c7-8bdc-29590fc410b1","system_id":"levelo_inurba_marseille","lat":43.337444,"lon":5.374475,"is_reserved":false,"is_disabled":false,"rental_uris":{"android":"levelo://app?vid=5bec735e-fcf4-48c7-8bdc-29590fc410b1","ios":"levelo://app?vid=5bec735e-fcf4-48c7-8bdc-29590fc410b1"},"vehicle_type_id":"4","last_reported":1761833405,"current_range_meters":0,"station_id":"","pricing_plan_id":"cebpf4jnsgd1na2vs0mg"},{"bike_id":"026e76ec-bb30-48a3-8407-a17635ff5e4d","system_id":"levelo_inurba_marseille","lat":43.337444,"lon":5.374475,"is_reserved":false,"is_disabled":false,"rental_uris":{"android":"levelo://app?vid=026e76ec-bb30-48a3-8407-a17635ff5e4d","ios":"levelo://app?vid=026e76ec-bb30-48a3-8407-a17635ff5e4d"},"vehicle_type_id":"4","last_reported":1761833405,"current_range_meters":0,"station_id":"","pricing_plan_id":"cebpf4jnsgd1na2vs0mg"},{"bike_id":"46d34bff-7ac4-476c-bd3e-8e7dba53c807","system_id":"levelo_inurba_marseille","lat":43.337444,"lon":5.374475,"is_reserved":false,"is_disabled":false,"rental_uris":{"android":"levelo://app?vid=46d34bff-7ac4-476c-bd3e-8e7dba53c807","ios":"levelo://app?vid=46d34bff-7ac4-476c-bd3e-8e7dba53c807"},"vehicle_type_id":"4","last_reported":1761833405,"current_range_meters":0,"station_id":"","pricing_plan_id":"cebpf4jnsgd1na2vs0mg"},{"bike_id":"2c7e37d6-d4ca-47ae-a0e0-a648dd4e1706","system_id":"levelo_inurba_marseille","lat":43.337444,"lon":5.374475,"is_reserved":false,"is_disabled":false,"rental_uris":{"android":"levelo://app?vid=2c7e37d6-d4ca-47ae-a0e0-a648dd4e1706","ios":"levelo://app?vid=2c7e37d6-d4ca-47ae-a0e0-a648dd4e1706"},"vehicle_type_id":"4","last_reported":1761833405,"current_range_meters":0,"station_id":"","pricing_plan_id":"cebpf4jnsgd1na2vs0mg"},{"bike_id":"94eee6a6-2463-4d2a-b222-3ef19356212a","system_id":"levelo_inurba_marseille","lat":43.337444,"lon":5.374475,"is_reserved":false,"is_disabled":false,"rental_uris":{"android":"levelo://app?vid=94eee6a6-2463-4d2a-b222-3ef19356212a","ios":"levelo://app?vid=94eee6a6-2463-4d2a-b222-3ef19356212a"},"vehicle_type_id":"4","last_reported":1761833405,"current_range_meters":0,"station_id":"","pricing_plan_id":"cebpf4jnsgd1na2vs0mg"},{"bike_id":"4592e008-320c-4bcd-ae3b-d140e613f684","system_id":"levelo_inurba_marseille","lat":43.337444,"lon":5.374475,"is_reserved":false,"is_disabled":false,"rental_uris":{"android":"levelo://app?vid=4592e008-320c-4bcd-ae3b-d140e613f684","ios":"levelo://app?vid=4592e008-320c-4bcd-ae3b-d140e613f684"},"vehicle_type_id":"4","last_reported":1761833405,"current_range_meters":0,"station_id":"","pricing_plan_id":"cebpf4jnsgd1na2vs0mg"},{"bike_id":"5807ce94-1b62-42db-8c77-9488accc83d5","system_id":"levelo_inurba_marseille","lat":43.337444,"lon":5.374475,"is_reserved":false,"is_disabled":false,"rental_uris":{"android":"levelo://app?vid=5807ce94-1b62-42db-8c77-9488accc83d5","ios":"levelo://app?vid=5807ce94-1b62-42db-8c77-9488accc83d5"},"vehicle_type_id":"4","last_reported":1761833405,"current_range_meters":0,"station_id":"","pricing_plan_id":"cebpf4jnsgd1na2vs0mg"},{"bike_id":"7fb97035-41cf-40bd-86b9-7942e1d38c2e","system_id":"levelo_inurba_marseille","lat":43.231902,"lon":5.355524,"is_reserved":false,"is_disabled":false,"rental_uris":{"android":"levelo://app?vid=7fb97035-41cf-40bd-86b9-7942e1d38c2e","ios":"levelo://app?vid=7fb97035-41cf-40bd-86b9-7942e1d38c2e"},"vehicle_type_id":"4","last_reported":1761833405,"current_range_meters":2800,"station_id":"ce4bhu92rcd13ifvqi70","pricing_plan_id":"cebpf4jnsgd1na2vs0mg"},{"bike_id":"f7dea0a7-36a4-48bc-a2b3-b7ee919f3504","system_id":"levelo_inurba_marseille","lat":43.32481,"lon":5.36574,"is_reserved":false,"is_disabled":false,"rental_uris":{"android":"levelo://app?vid=f7dea0a7-36a4-48bc-a2b3-b7ee919f3504","ios":"levelo://app?vid=f7dea0a7-36a4-48bc-a2b3-b7ee919f3504"},"vehicle_type_id":"4","last_reported":1761833405,"current_range_meters":2800,"station_id":"ce4bhs12rcd13ifvqhvg","pricing_plan_id":"cebpf4jnsgd1na2vs0mg"},{"bike_id":"ad9cd3f2-fb87-4d6e-bb5e-83827c679639","system_id":"levelo_inurba_marseille","lat":43.2292,"lon":5.35376,"is_reserved":false,"is_disabled":false,"rental_uris":{"android":"levelo://app?vid=ad9cd3f2-fb87-4d6e-bb5e-83827c679639","ios":"levelo://app?vid=ad9cd3f2-fb87-4d6e-bb5e-83827c679639"},"vehicle_type_id":"4","last_reported":1761833405,"current_range_meters":2800,"station_id":"cpo3532slgdg3j2ikp40","pricing_plan_id":"cebpf4jnsgd1na2vs0mg"},{"bike_id":"9c9cef92-0daf-4112-98c5-26fd58129a5c","system_id":"levelo_inurba_marseille","lat":43.29979,"lon":5.38491,"is_reserved":false,"is_disabled":false,"rental_uris":{"android":"levelo://app?vid=9c9cef92-0daf-4112-98c5-26fd58129a5c","ios":"levelo://app?vid=9c9cef92-0daf-4112-98c5-26fd58129a5c"},"vehicle_type_id":"4","last_reported":1761833405,"current_range_meters":2800,"station_id":"ce4bgj92rcd13ifvqbd0","pricing_plan_id":"cebpf4jnsgd1na2vs0mg"},{"bike_id":"eb8f13ff-065d-4e4e-b5e0-9c6d6156824b","system_id":"levelo_inurba_marseille","lat":43.21198,"lon":5.35072,"is_reserved":false,"is_disabled":false,"rental_uris":{"android":"levelo://app?vid=eb8f13ff-065d-4e4e-b5e0-9c6d6156824b","ios":"levelo://app?vid=eb8f13ff-065d-4e4e-b5e0-9c6d6156824b"},"vehicle_type_id":"4","last_reported":1761833405,"current_range_meters":3200,"station_id":"st_cvj6sg6p6f1abm77japg","pricing_plan_id":"cebpf4jnsgd1na2vs0mg"},{"bike_id":"5a156eb5-bbd2-4a64-8606-d5a5b7d4f28f","system_id":"levelo_inurba_marseille","lat":43.283396,"lon":5.350259,"is_reserved":false,"is_disabled":false,"rental_uris":{"android":"levelo://app?vid=5a156eb5-bbd2-4a64-8606-d5a5b7d4f28f","ios":"levelo://app?vid=5a156eb5-bbd2-4a64-8606-d5a5b7d4f28f"},"vehicle_type_id":"4","last_reported":1761833405,"current_range_meters":3600,"station_id":"","pricing_plan_id":"cebpf4jnsgd1na2vs0mg"},{"bike_id":"f4c4263d-98c6-4f3a-8b60-9a1a05afd26c","system_id":"levelo_inurba_marseille","lat":43.29,"lon":5.35618,"is_reserved":false,"is_disabled":false,"rental_uris":{"android":"levelo://app?vid=f4c4263d-98c6-4f3a-8b60-9a1a05afd26c","ios":"levelo://app?vid=f4c4263d-98c6-4f3a-8b60-9a1a05afd26c"},"vehicle_type_id":"4","last_reported":1761833405,"current_range_meters":3600,"station_id":"ce4bhb92rcd13ifvqen0","pricing_plan_id":"cebpf4jnsgd1na2vs0mg"},{"bike_id":"68e02abc-d046-4acc-8082-131425b84f81","system_id":"levelo_inurba_marseille","lat":43.25125,"lon":5.40322,"is_reserved":false,"is_disabled":false,"rental_uris":{"android":"levelo://app?vid=68e02abc-d046-4acc-8082-131425b84f81","ios":"levelo://app?vid=68e02abc-d046-4acc-8082-131425b84f81"},"vehicle_type_id":"4","last_reported":1761833405,"current_range_meters":3600,"station_id":"ce4bhlh2rcd13ifvqgig","pricing_plan_id":"cebpf4jnsgd1na2vs0mg"},{"bike_id":"d5ca831f-8041-403e-ada8-7b4196c3d5be","system_id":"levelo_inurba_marseille","lat":43.293714,"lon":5.379385,"is_reserved":false,"is_disabled":false,"rental_uris":{"android":"levelo://app?vid=d5ca831f-8041-403e-ada8-7b4196c3d5be","ios":"levelo://app?vid=d5ca831f-8041-403e-ada8-7b4196c3d5be"},"vehicle_type_id":"4","last_reported":1761833405,"current_range_meters":3600,"station_id":"","pricing_plan_id":"cebpf4jnsgd1na2vs0mg"},{"bike_id":"4b1c830b-43f1-48e8-a723-515a9d799169","system_id":"levelo_inurba_marseille","lat":43.26949,"lon":5.38641,"is_reserved":false,"is_disabled":false,"rental_uris":{"android":"levelo://app?vid=4b1c830b-43f1-48e8-a723-515a9d799169","ios":"levelo://app?vid=4b1c830b-43f1-48e8-a723-515a9d799169"},"vehicle_type_id":"4","last_reported":1761833405,"current_range_meters":4000,"station_id":"","pricing_plan_id":"cebpf4jnsgd1na2vs0mg"},{"bike_id":"292b484b-8ecb-4748-9f87-dcf7c7613346","system_id":"levelo_inurba_marseille","lat":43.23176,"lon":5.39998,"is_reserved":false,"is_disabled":false,"rental_uris":{"android":"levelo://app?vid=292b484b-8ecb-4748-9f87-dcf7c7613346","ios":"levelo://app?vid=292b484b-8ecb-4748-9f87-dcf7c7613346"},"vehicle_type_id":"4","last_reported":1761833405,"current_range_meters":4000,"station_id":"ce4bhn12rcd13ifvqgqg","pricing_plan_id":"cebpf4jnsgd1na2vs0mg"},{"bike_id":"81f4dca1-2cf6-4451-a4bf-a85c834cba8c","system_id":"levelo_inurba_marseille","lat":43.2737,"lon":5.36262,"is_reserved":false,"is_disabled":false,"rental_uris":{"android":"levelo://app?vid=81f4dca1-2cf6-4451-a4bf-a85c834cba8c","ios":"levelo://app?vid=81f4dca1-2cf6-4451-a4bf-a85c834cba8c"},"vehicle_type_id":"4","last_reported":1761833405,"current_range_meters":4000,"station_id":"ce4bhbh2rcd13ifvqeo0","pricing_plan_id":"cebpf4jnsgd1na2vs0mg"},{"bike_id":"6bde64dc-1666-4dea-9176-ad29aa924663","system_id":"levelo_inurba_marseille","lat":43.29972,"lon":5.37176,"is_reserved":false,"is_disabled":false,"rental_uris":{"android":"levelo://app?vid=6bde64dc-1666-4dea-9176-ad29aa924663","ios":"levelo://app?vid=6bde64dc-1666-4dea-9176-ad29aa924663"},"vehicle_type_id":"4","last_reported":1761833405,"current_range_meters":4400,"station_id":"ce4bgr92rcd13ifvqc7g","pricing_plan_id":"cebpf4jnsgd1na2vs0mg"},{"bike_id":"3833b388-4abd-4133-84e5-1bae415b522e","system_id":"levelo_inurba_marseille","lat":43.29702,"lon":5.36613,"is_reserved":false,"is_disabled":false,"rental_uris":{"android":"levelo://app?vid=3833b388-4abd-4133-84e5-1bae415b522e","ios":"levelo://app?vid=3833b388-4abd-4133-84e5-1bae415b522e"},"vehicle_type_id":"4","last_reported":1761833405,"current_range_meters":4400,"station_id":"ce4bgn12rcd13ifvqbt0","pricing_plan_id":"cebpf4jnsgd1na2vs0mg"},{"bike_id":"50d940b6-4375-4d29-a8ce-85543b9de9c3","system_id":"levelo_inurba_marseille","lat":43.32109,"lon":5.3677,"is_reserved":false,"is_disabled":false,"rental_uris":{"android":"levelo://app?vid=50d940b6-4375-4d29-a8ce-85543b9de9c3","ios":"levelo://app?vid=50d940b6-4375-4d29-a8ce-85543b9de9c3"},"vehicle_type_id":"4","last_reported":1761833405,"current_range_meters":4400,"station_id":"ce4bhrh2rcd13ifvqhug","pricing_plan_id":"cebpf4jnsgd1na2vs0mg"},{"bike_id":"0ee244c4-df1c-47d3-bb68-b52c4994e75a","system_id":"levelo_inurba_marseille","lat":43.31326,"lon":5.36759,"is_reserved":false,"is_disabled":false,"rental_uris":{"android":"levelo://app?vid=0ee244c4-df1c-47d3-bb68-b52c4994e75a","ios":"levelo://app?vid=0ee244c4-df1c-47d3-bb68-b52c4994e75a"},"vehicle_type_id":"4","last_reported":1761833405,"current_range_meters":5600,"station_id":"ce4bgr92rcd13ifvqc6g","pricing_plan_id":"cebpf4jnsgd1na2vs0mg"},{"bike_id":"8c5bcea8-db9c-4072-a4e4-e386ea671ef0","system_id":"levelo_inurba_marseille","lat":43.28929,"lon":5.38398,"is_reserved":false,"is_disabled":false,"rental_uris":{"android":"levelo://app?vid=8c5bcea8-db9c-4072-a4e4-e386ea671ef0","ios":"levelo://app?vid=8c5bcea8-db9c-4072-a4e4-e386ea671ef0"},"vehicle_type_id":"4","last_reported":1761833405,"current_range_meters":5600,"station_id":"ce4bh612rcd13ifvqe6g","pricing_plan_id":"cebpf4jnsgd1na2vs0mg"},{"bike_id":"4c90a383-9ca2-4fbf-8137-7359106e9da8","system_id":"levelo_inurba_marseille","lat":43.22933,"lon":5.35385,"is_reserved":false,"is_disabled":false,"rental_uris":{"android":"levelo://app?vid=4c90a383-9ca2-4fbf-8137-7359106e9da8","ios":"levelo://app?vid=4c90a383-9ca2-4fbf-8137-7359106e9da8"},"vehicle_type_id":"4","last_reported":1761833405,"current_range_meters":5600,"station_id":"cpo3532slgdg3j2ikp40","pricing_plan_id":"cebpf4jnsgd1na2vs0mg"},{"bike_id":"ed47ff24-5797-42e8-a6e5-8b984fa669d9","system_id":"levelo_inurba_marseille","lat":43.231509,"lon":5.437022,"is_reserved":false,"is_disabled":false,"rental_uris":{"android":"levelo://app?vid=ed47ff24-5797-42e8-a6e5-8b984fa669d9","ios":"levelo://app?vid=ed47ff24-5797-42e8-a6e5-8b984fa669d9"},"vehicle_type_id":"4","last_reported":1761833405,"current_range_meters":5600,"station_id":"ce4bhmp2rcd13ifvqgog","pricing_plan_id":"cebpf4jnsgd1na2vs0mg"},{"bike_id":"f6adb9c1-4a78-4322-baec-aa5f6f5d93b6","system_id":"levelo_inurba_marseille","lat":43.337896,"lon":5.374361,"is_reserved":false,"is_disabled":false,"rental_uris":{"android":"levelo://app?vid=f6adb9c1-4a78-4322-baec-aa5f6f5d93b6","ios":"levelo://app?vid=f6adb9c1-4a78-4322-baec-aa5f6f5d93b6"},"vehicle_type_id":"4","last_reported":1761833405,"current_range_meters":5600,"station_id":"","pricing_plan_id":"cebpf4jnsgd1na2vs0mg"},{"bike_id":"df4a7072-9a99-4388-960f-688f83a92f17","system_id":"levelo_inurba_marseille","lat":43.29553,"lon":5.42298,"is_reserved":false,"is_disabled":false,"rental_uris":{"android":"levelo://app?vid=df4a7072-9a99-4388-960f-688f83a92f17","ios":"levelo://app?vid=df4a7072-9a99-4388-960f-688f83a92f17"},"vehicle_type_id":"4","last_reported":1761833405,"current_range_meters":6000,"station_id":"ce4bhph2rcd13ifvqhdg","pricing_plan_id":"cebpf4jnsgd1na2vs0mg"},{"bike_id":"7dc2a3ba-2d58-4afd-816b-355ae85d057c","system_id":"levelo_inurba_marseille","lat":43.299573,"lon":5.413185,"is_reserved":false,"is_disabled":false,"rental_uris":{"android":"levelo://app?vid=7dc2a3ba-2d58-4afd-816b-355ae85d057c","ios":"levelo://app?vid=7dc2a3ba-2d58-4afd-816b-355ae85d057c"},"vehicle_type_id":"4","last_reported":1761833405,"current_range_meters":6000,"station_id":"ce4bhp12rcd13ifvqh9g","pricing_plan_id":"cebpf4jnsgd1na2vs0mg"},{"bike_id":"c4bd4ebb-8fdd-4cc7-b693-52f4f14c3ed1","system_id":"levelo_inurba_marseille","lat":43.30213,"lon":5.3947,"is_reserved":false,"is_disabled":false,"rental_uris":{"android":"levelo://app?vid=c4bd4ebb-8fdd-4cc7-b693-52f4f14c3ed1","ios":"levelo://app?vid=c4bd4ebb-8fdd-4cc7-b693-52f4f14c3ed1"},"vehicle_type_id":"4","last_reported":1761833405,"current_range_meters":6000,"station_id":"ce4bh0p2rcd13ifvqd70","pricing_plan_id":"cebpf4jnsgd1na2vs0mg"},{"bike_id":"63b77092-372a-473b-962c-de98f7248513","system_id":"levelo_inurba_marseille","lat":43.30796,"lon":5.38175,"is_reserved":false,"is_disabled":false,"rental_uris":{"android":"levelo://app?vid=63b77092-372a-473b-962c-de98f7248513","ios":"levelo://app?vid=63b77092-372a-473b-962c-de98f7248513"},"vehicle_type_id":"4","last_reported":1761833405,"current_range_meters":6000,"station_id":"ce4bgt12rcd13ifvqce0","pricing_plan_id":"cebpf4jnsgd1na2vs0mg"},{"bike_id":"41f41c53-c84d-4534-a1c0-58783d76d033","system_id":"levelo_inurba_marseille","lat":43.26556,"lon":5.37295,"is_reserved":false,"is_disabled":false,"rental_uris":{"android":"levelo://app?vid=41f41c53-c84d-4534-a1c0-58783d76d033","ios":"levelo://app?vid=41f41c53-c84d-4534-a1c0-58783d76d033"},"vehicle_type_id":"4","last_reported":1761833405,"current_range_meters":6000,"station_id":"ce4bhg12rcd13ifvqf70","pricing_plan_id":"cebpf4jnsgd1na2vs0mg"},{"bike_id":"ae8ebe94-fc0f-4409-8f77-39eb5c613a67","system_id":"levelo_inurba_marseille","lat":43.337444,"lon":5.374475,"is_reserved":false,"is_disabled":false,"rental_uris":{"android":"levelo://app?vid=ae8ebe94-fc0f-4409-8f77-39eb5c613a67","ios":"levelo://app?vid=ae8ebe94-fc0f-4409-8f77-39eb5c613a67"},"vehicle_type_id":"4","last_reported":1761833405,"current_range_meters":6400,"station_id":"","pricing_plan_id":"cebpf4jnsgd1na2vs0mg"},{"bike_id":"519838b7-218a-4352-8104-a93665726563","system_id":"levelo_inurba_marseille","lat":43.26567,"lon":5.40324,"is_reserved":false,"is_disabled":false,"rental_uris":{"android":"levelo://app?vid=519838b7-218a-4352-8104-a93665726563","ios":"levelo://app?vid=519838b7-218a-4352-8104-a93665726563"},"vehicle_type_id":"4","last_reported":1761833405,"current_range_meters":6400,"station_id":"ce4bhmp2rcd13ifvqgng","pricing_plan_id":"cebpf4jnsgd1na2vs0mg"},{"bike_id":"5a69a8d3-00cf-4272-87a3-dc22b7a01341","system_id":"levelo_inurba_marseille","lat":43.22931,"lon":5.35377,"is_reserved":false,"is_disabled":false,"rental_uris":{"android":"levelo://app?vid=5a69a8d3-00cf-4272-87a3-dc22b7a01341","ios":"levelo://app?vid=5a69a8d3-00cf-4272-87a3-dc22b7a01341"},"vehicle_type_id":"4","last_reported":1761833405,"current_range_meters":6400,"station_id":"cpo3532slgdg3j2ikp40","pricing_plan_id":"cebpf4jnsgd1na2vs0mg"},{"bike_id":"e3c50aa6-6386-41c8-a55d-eaf1343e5af1","system_id":"levelo_inurba_marseille","lat":43.30946,"lon":5.39024,"is_reserved":false,"is_disabled":false,"rental_uris":{"android":"levelo://app?vid=e3c50aa6-6386-41c8-a55d-eaf1343e5af1","ios":"levelo://app?vid=e3c50aa6-6386-41c8-a55d-eaf1343e5af1"},"vehicle_type_id":"4","last_reported":1761833405,"current_range_meters":6800,"station_id":"ce4bgup2rcd13ifvqco0","pricing_plan_id":"cebpf4jnsgd1na2vs0mg"},{"bike_id":"0d613edc-7f54-49d1-b12c-2bfcde9ff9e3","system_id":"levelo_inurba_marseille","lat":43.22565,"lon":5.41629,"is_reserved":false,"is_disabled":false,"rental_uris":{"android":"levelo://app?vid=0d613edc-7f54-49d1-b12c-2bfcde9ff9e3","ios":"levelo://app?vid=0d613edc-7f54-49d1-b12c-2bfcde9ff9e3"},"vehicle_type_id":"4","last_reported":1761833405,"current_range_meters":6800,"station_id":"st_d2o4gvlbi1j2169b742g","pricing_plan_id":"cebpf4jnsgd1na2vs0mg"},{"bike_id":"d7501644-af29-4949-85a6-6fb0d170cf4f","system_id":"levelo_inurba_marseille","lat":43.21196,"lon":5.35079,"is_reserved":false,"is_disabled":false,"rental_uris":{"android":"levelo://app?vid=d7501644-af29-4949-85a6-6fb0d170cf4f","ios":"levelo://app?vid=d7501644-af29-4949-85a6-6fb0d170cf4f"},"vehicle_type_id":"4","last_reported":1761833405,"current_range_meters":6800,"station_id":"st_cvj6sg6p6f1abm77japg","pricing_plan_id":"cebpf4jnsgd1na2vs0mg"},{"bike_id":"9d9de6c6-5f43-4fea-9c14-dbd2dda3f889","system_id":"levelo_inurba_marseille","lat":43.25577,"lon":5.38223,"is_reserved":false,"is_disabled":false,"rental_uris":{"android":"levelo://app?vid=9d9de6c6-5f43-4fea-9c14-dbd2dda3f889","ios":"levelo://app?vid=9d9de6c6-5f43-4fea-9c14-dbd2dda3f889"},"vehicle_type_id":"4","last_reported":1761833405,"current_range_meters":6800,"station_id":"ce4bhih2rcd13ifvqfs0","pricing_plan_id":"cebpf4jnsgd1na2vs0mg"},{"bike_id":"20fc368b-929c-4ea2-9553-ead9a026f02d","system_id":"levelo_inurba_marseille","lat":43.30148,"lon":5.38777,"is_reserved":false,"is_disabled":false,"rental_uris":{"android":"levelo://app?vid=20fc368b-929c-4ea2-9553-ead9a026f02d","ios":"levelo://app?vid=20fc368b-929c-4ea2-9553-ead9a026f02d"},"vehicle_type_id":"4","last_reported":1761833405,"current_range_meters":6800,"station_id":"ce4bghh2rcd13ifvqb60","pricing_plan_id":"cebpf4jnsgd1na2vs0mg"},{"bike_id":"c2541882-600f-42de-8d20-7580fe786b7b","system_id":"levelo_inurba_marseille","lat":43.24177,"lon":5.39727,"is_reserved":false,"is_disabled":false,"rental_uris":{"android":"levelo://app?vid=c2541882-600f-42de-8d20-7580fe786b7b","ios":"levelo://app?vid=c2541882-600f-42de-8d20-7580fe786b7b"},"vehicle_type_id":"4","last_reported":1761833405,"current_range_meters":7200,"station_id":"ce4bhn12rcd13ifvqgpg","pricing_plan_id":"cebpf4jnsgd1na2vs0mg"},{"bike_id":"5f2041e5-711a-49cb-91bf-e1bb2d4b0160","system_id":"levelo_inurba_marseille","lat":43.282623,"lon":5.35061,"is_reserved":false,"is_disabled":false,"rental_uris":{"android":"levelo://app?vid=5f2041e5-711a-49cb-91bf-e1bb2d4b0160","ios":"levelo://app?vid=5f2041e5-711a-49cb-91bf-e1bb2d4b0160"},"vehicle_type_id":"4","last_reported":1761833405,"current_range_meters":7200,"station_id":"ce4bhbp2rcd13ifvqerg","pricing_plan_id":"cebpf4jnsgd1na2vs0mg"},{"bike_id":"6dd7fd95-7476-4f70-b077-22f04b284bdb","system_id":"levelo_inurba_marseille","lat":43.231938,"lon":5.35552,"is_reserved":false,"is_disabled":false,"rental_uris":{"android":"levelo://app?vid=6dd7fd95-7476-4f70-b077-22f04b284bdb","ios":"levelo://app?vid=6dd7fd95-7476-4f70-b077-22f04b284bdb"},"vehicle_type_id":"4","last_reported":1761833405,"current_range_meters":8000,"station_id":"ce4bhu92rcd13ifvqi70","pricing_plan_id":"cebpf4jnsgd1na2vs0mg"},{"bike_id":"53b6c98d-8523-44d0-b268-e60f58e3aa47","system_id":"levelo_inurba_marseille","lat":43.26201,"lon":5.37936,"is_reserved":false,"is_disabled":false,"rental_uris":{"android":"levelo://app?vid=53b6c98d-8523-44d0-b268-e60f58e3aa47","ios":"levelo://app?vid=53b6c98d-8523-44d0-b268-e60f58e3aa47"},"vehicle_type_id":"4","last_reported":1761833405,"current_range_meters":8400,"station_id":"ce4bhjp2rcd13ifvqg90","pricing_plan_id":"cebpf4jnsgd1na2vs0mg"},{"bike_id":"89c9f0b2-b2f0-4e4b-a255-306dd794096e","system_id":"levelo_inurba_marseille","lat":43.26501,"lon":5.39548,"is_reserved":false,"is_disabled":false,"rental_uris":{"android":"levelo://app?vid=89c9f0b2-b2f0-4e4b-a255-306dd794096e","ios":"levelo://app?vid=89c9f0b2-b2f0-4e4b-a255-306dd794096e"},"vehicle_type_id":"4","last_reported":1761833405,"current_range_meters":8400,"station_id":"ce4bhi12rcd13ifvqfq0","pricing_plan_id":"cebpf4jnsgd1na2vs0mg"},{"bike_id":"2bf01c7f-496b-49a0-b2af-9ae1143682ed","system_id":"levelo_inurba_marseille","lat":43.22915,"lon":5.35382,"is_reserved":false,"is_disabled":false,"rental_uris":{"android":"levelo://app?vid=2bf01c7f-496b-49a0-b2af-9ae1143682ed","ios":"levelo://app?vid=2bf01c7f-496b-49a0-b2af-9ae1143682ed"},"vehicle_type_id":"4","last_reported":1761833405,"current_range_meters":8400,"station_id":"cpo3532slgdg3j2ikp40","pricing_plan_id":"cebpf4jnsgd1na2vs0mg"},{"bike_id":"8cc53a17-171d-47c7-9a18-1c12691ddffa","system_id":"levelo_inurba_marseille","lat":43.280126,"lon":5.400181,"is_reserved":false,"is_disabled":false,"rental_uris":{"android":"levelo://app?vid=8cc53a17-171d-47c7-9a18-1c12691ddffa","ios":"levelo://app?vid=8cc53a17-171d-47c7-9a18-1c12691ddffa"},"vehicle_type_id":"4","last_reported":1761833405,"current_range_meters":8400,"station_id":"ce4bho92rcd13ifvqh4g","pricing_plan_id":"cebpf4jnsgd1na2vs0mg"},{"bike_id":"d754bfb7-f057-4790-ae86-99e7de93bfe8","system_id":"levelo_inurba_marseille","lat":43.2551,"lon":5.37654,"is_reserved":false,"is_disabled":false,"rental_uris":{"android":"levelo://app?vid=d754bfb7-f057-4790-ae86-99e7de93bfe8","ios":"levelo://app?vid=d754bfb7-f057-4790-ae86-99e7de93bfe8"},"vehicle_type_id":"4","last_reported":1761833405,"current_range_meters":8800,"station_id":"ce4bhh12rcd13ifvqff0","pricing_plan_id":"cebpf4jnsgd1na2vs0mg"},{"bike_id":"b88fe5d4-4214-4acb-a8d8-15048cd72dbe","system_id":"levelo_inurba_marseille","lat":43.29552,"lon":5.42297,"is_reserved":false,"is_disabled":false,"rental_uris":{"android":"levelo://app?vid=b88fe5d4-4214-4acb-a8d8-15048cd72dbe","ios":"levelo://app?vid=b88fe5d4-4214-4acb-a8d8-15048cd72dbe"},"vehicle_type_id":"4","last_reported":1761833405,"current_range_meters":8800,"station_id":"ce4bhph2rcd13ifvqhdg","pricing_plan_id":"cebpf4jnsgd1na2vs0mg"},{"bike_id":"f90cde4e-0e2c-488e-824b-f843fc7c380d","system_id":"levelo_inurba_marseille","lat":43.30641,"lon":5.40107,"is_reserved":false,"is_disabled":false,"rental_uris":{"android":"levelo://app?vid=f90cde4e-0e2c-488e-824b-f843fc7c380d","ios":"levelo://app?vid=f90cde4e-0e2c-488e-824b-f843fc7c380d"},"vehicle_type_id":"4","last_reported":1761833405,"current_range_meters":8800,"station_id":"ce4bh112rcd13ifvqda0","pricing_plan_id":"cebpf4jnsgd1na2vs0mg"},{"bike_id":"e04bcb6a-5248-4bca-a12a-6c9def182c7b","system_id":"levelo_inurba_marseille","lat":43.28417,"lon":5.34988,"is_reserved":false,"is_disabled":false,"rental_uris":{"android":"levelo://app?vid=e04bcb6a-5248-4bca-a12a-6c9def182c7b","ios":"levelo://app?vid=e04bcb6a-5248-4bca-a12a-6c9def182c7b"},"vehicle_type_id":"4","last_reported":1761833405,"current_range_meters":8800,"station_id":"ce4bhbh2rcd13ifvqepg","pricing_plan_id":"cebpf4jnsgd1na2vs0mg"},{"bike_id":"20bb85cb-275e-4db1-b8aa-64059989515f","system_id":"levelo_inurba_marseille","lat":43.282654,"lon":5.350687,"is_reserved":false,"is_disabled":false,"rental_uris":{"android":"levelo://app?vid=20bb85cb-275e-4db1-b8aa-64059989515f","ios":"levelo://app?vid=20bb85cb-275e-4db1-b8aa-64059989515f"},"vehicle_type_id":"4","last_reported":1761833405,"current_range_meters":9200,"station_id":"ce4bhbp2rcd13ifvqerg","pricing_plan_id":"cebpf4jnsgd1na2vs0mg"},{"bike_id":"4644b8ac-affa-4d50-b2ae-974d32d38290","system_id":"levelo_inurba_marseille","lat":43.30807,"lon":5.43539,"is_reserved":false,"is_disabled":false,"rental_uris":{"android":"levelo://app?vid=4644b8ac-affa-4d50-b2ae-974d32d38290","ios":"levelo://app?vid=4644b8ac-affa-4d50-b2ae-974d32d38290"},"vehicle_type_id":"4","last_reported":1761833405,"current_range_meters":9200,"station_id":"","pricing_plan_id":"cebpf4jnsgd1na2vs0mg"},{"bike_id":"3f3dfa97-5315-4877-be4b-2b3987a52bdb","system_id":"levelo_inurba_marseille","lat":43.29003,"lon":5.3562,"is_reserved":false,"is_disabled":false,"rental_uris":{"android":"levelo://app?vid=3f3dfa97-5315-4877-be4b-2b3987a52bdb","ios":"levelo://app?vid=3f3dfa97-5315-4877-be4b-2b3987a52bdb"},"vehicle_type_id":"4","last_reported":1761833405,"current_range_meters":9200,"station_id":"ce4bhb92rcd13ifvqen0","pricing_plan_id":"cebpf4jnsgd1na2vs0mg"},{"bike_id":"8c830576-9a11-4ace-905f-fcf50c13e22a","system_id":"levelo_inurba_marseille","lat":43.31248,"lon":5.36867,"is_reserved":false,"is_disabled":false,"rental_uris":{"android":"levelo://app?vid=8c830576-9a11-4ace-905f-fcf50c13e22a","ios":"levelo://app?vid=8c830576-9a11-4ace-905f-fcf50c13e22a"},"vehicle_type_id":"4","last_reported":1761833405,"current_range_meters":9200,"station_id":"ce4bgl92rcd13ifvqbq0","pricing_plan_id":"cebpf4jnsgd1na2vs0mg"},{"bike_id":"96c5d217-5e62-4d1d-8b4d-ea127b5083fe","system_id":"levelo_inurba_marseille","lat":43.25511,"lon":5.3766,"is_reserved":false,"is_disabled":false,"rental_uris":{"android":"levelo://app?vid=96c5d217-5e62-4d1d-8b4d-ea127b5083fe","ios":"levelo://app?vid=96c5d217-5e62-4d1d-8b4d-ea127b5083fe"},"vehicle_type_id":"4","last_reported":1761833405,"current_range_meters":9200,"station_id":"ce4bhh12rcd13ifvqff0","pricing_plan_id":"cebpf4jnsgd1na2vs0mg"},{"bike_id":"faee4aed-34d1-4e59-9f3e-bc2337688920","system_id":"levelo_inurba_marseille","lat":43.31706,"lon":5.43709,"is_reserved":false,"is_disabled":true,"rental_uris":{"android":"levelo://app?vid=faee4aed-34d1-4e59-9f3e-bc2337688920","ios":"levelo://app?vid=faee4aed-34d1-4e59-9f3e-bc2337688920"},"vehicle_type_id":"4","last_reported":1761833405,"current_range_meters":9200,"station_id":"ce4bhp92rcd13ifvqhcg","pricing_plan_id":"cebpf4jnsgd1na2vs0mg"},{"bike_id":"3608648f-963a-4ee1-9f3c-8207ffee1494","system_id":"levelo_inurba_marseille","lat":43.30088,"lon":5.39073,"is_reserved":false,"is_disabled":false,"rental_uris":{"android":"levelo://app?vid=3608648f-963a-4ee1-9f3c-8207ffee1494","ios":"levelo://app?vid=3608648f-963a-4ee1-9f3c-8207ffee1494"},"vehicle_type_id":"4","last_reported":1761833405,"current_range_meters":9600,"station_id":"ce4bh192rcd13ifvqdb0","pricing_plan_id":"cebpf4jnsgd1na2vs0mg"},{"bike_id":"2425811b-6e68-4721-8b6f-533a2492c719","system_id":"levelo_inurba_marseille","lat":43.31319,"lon":5.3674,"is_reserved":false,"is_disabled":false,"rental_uris":{"android":"levelo://app?vid=2425811b-6e68-4721-8b6f-533a2492c719","ios":"levelo://app?vid=2425811b-6e68-4721-8b6f-533a2492c719"},"vehicle_type_id":"4","last_reported":1761833405,"current_range_meters":9600,"station_id":"ce4bgr92rcd13ifvqc6g","pricing_plan_id":"cebpf4jnsgd1na2vs0mg"},{"bike_id":"a1d21682-61cf-4280-aa04-e4145954c80b","system_id":"levelo_inurba_marseille","lat":43.24687,"lon":5.38148,"is_reserved":false,"is_disabled":false,"rental_uris":{"android":"levelo://app?vid=a1d21682-61cf-4280-aa04-e4145954c80b","ios":"levelo://app?vid=a1d21682-61cf-4280-aa04-e4145954c80b"},"vehicle_type_id":"4","last_reported":1761833405,"current_range_meters":9600,"station_id":"ce4bhih2rcd13ifvqfr0","pricing_plan_id":"cebpf4jnsgd1na2vs0mg"},{"bike_id":"7978f145-69d9-4185-9f5d-5e890c8bfd83","system_id":"levelo_inurba_marseille","lat":43.3034,"lon":5.37385,"is_reserved":false,"is_disabled":false,"rental_uris":{"android":"levelo://app?vid=7978f145-69d9-4185-9f5d-5e890c8bfd83","ios":"levelo://app?vid=7978f145-69d9-4185-9f5d-5e890c8bfd83"},"vehicle_type_id":"4","last_reported":1761833405,"current_range_meters":9600,"station_id":"","pricing_plan_id":"cebpf4jnsgd1na2vs0mg"},{"bike_id":"38b57c98-f633-4f62-b1d9-ddf66aacc15e","system_id":"levelo_inurba_marseille","lat":43.26676,"lon":5.38275,"is_reserved":false,"is_disabled":false,"rental_uris":{"android":"levelo://app?vid=38b57c98-f633-4f62-b1d9-ddf66aacc15e","ios":"levelo://app?vid=38b57c98-f633-4f62-b1d9-ddf66aacc15e"},"vehicle_type_id":"4","last_reported":1761833405,"current_range_meters":9600,"station_id":"ce4bhg92rcd13ifvqf90","pricing_plan_id":"cebpf4jnsgd1na2vs0mg"},{"bike_id":"81ca8b54-c7ea-4416-8c8d-cb945792bc5b","system_id":"levelo_inurba_marseille","lat":43.22568,"lon":5.41634,"is_reserved":false,"is_disabled":false,"rental_uris":{"android":"levelo://app?vid=81ca8b54-c7ea-4416-8c8d-cb945792bc5b","ios":"levelo://app?vid=81ca8b54-c7ea-4416-8c8d-cb945792bc5b"},"vehicle_type_id":"4","last_reported":1761833405,"current_range_meters":10000,"station_id":"st_d2o4gvlbi1j2169b742g","pricing_plan_id":"cebpf4jnsgd1na2vs0mg"},{"bike_id":"a1e7ff3c-f743-4064-96dd-fb3061d3db9c","system_id":"levelo_inurba_marseille","lat":43.273624,"lon":5.390597,"is_reserved":false,"is_disabled":false,"rental_uris":{"android":"levelo://app?vid=a1e7ff3c-f743-4064-96dd-fb3061d3db9c","ios":"levelo://app?vid=a1e7ff3c-f743-4064-96dd-fb3061d3db9c"},"vehicle_type_id":"4","last_reported":1761833405,"current_range_meters":10000,"station_id":"ce4bhgp2rcd13ifvqfe0","pricing_plan_id":"cebpf4jnsgd1na2vs0mg"},{"bike_id":"527eabfa-4b3e-4208-9e68-022d97311b1a","system_id":"levelo_inurba_marseille","lat":43.24076,"lon":5.37757,"is_reserved":false,"is_disabled":false,"rental_uris":{"android":"levelo://app?vid=527eabfa-4b3e-4208-9e68-022d97311b1a","ios":"levelo://app?vid=527eabfa-4b3e-4208-9e68-022d97311b1a"},"vehicle_type_id":"4","last_reported":1761833405,"current_range_meters":10800,"station_id":"ce4bhnp2rcd13ifvqgvg","pricing_plan_id":"cebpf4jnsgd1na2vs0mg"},{"bike_id":"519a2e94-6493-4644-a67f-8c251b7fe560","system_id":"levelo_inurba_marseille","lat":43.22559,"lon":5.41644,"is_reserved":false,"is_disabled":false,"rental_uris":{"android":"levelo://app?vid=519a2e94-6493-4644-a67f-8c251b7fe560","ios":"levelo://app?vid=519a2e94-6493-4644-a67f-8c251b7fe560"},"vehicle_type_id":"4","last_reported":1761833405,"current_range_meters":10800,"station_id":"st_d2o4gvlbi1j2169b742g","pricing_plan_id":"cebpf4jnsgd1na2vs0mg"},{"bike_id":"569160a4-e207-4db9-b243-c638f0330d62","system_id":"levelo_inurba_marseille","lat":43.3211,"lon":5.36773,"is_reserved":false,"is_disabled":false,"rental_uris":{"android":"levelo://app?vid=569160a4-e207-4db9-b243-c638f0330d62","ios":"levelo://app?vid=569160a4-e207-4db9-b243-c638f0330d62"},"vehicle_type_id":"4","last_reported":1761833405,"current_range_meters":10800,"station_id":"ce4bhrh2rcd13ifvqhug","pricing_plan_id":"cebpf4jnsgd1na2vs0mg"},{"bike_id":"e87715d5-9d7a-4d7e-b8c5-0b931269f671","system_id":"levelo_inurba_marseille","lat":43.282692,"lon":5.350573,"is_reserved":false,"is_disabled":false,"rental_uris":{"android":"levelo://app?vid=e87715d5-9d7a-4d7e-b8c5-0b931269f671","ios":"levelo://app?vid=e87715d5-9d7a-4d7e-b8c5-0b931269f671"},"vehicle_type_id":"4","last_reported":1761833405,"current_range_meters":11200,"station_id":"ce4bhbp2rcd13ifvqerg","pricing_plan_id":"cebpf4jnsgd1na2vs0mg"},{"bike_id":"a071c9bf-a725-4478-a4cb-1cd10ccf6c3e","system_id":"levelo_inurba_marseille","lat":43.25581,"lon":5.38237,"is_reserved":false,"is_disabled":false,"rental_uris":{"android":"levelo://app?vid=a071c9bf-a725-4478-a4cb-1cd10ccf6c3e","ios":"levelo://app?vid=a071c9bf-a725-4478-a4cb-1cd10ccf6c3e"},"vehicle_type_id":"4","last_reported":1761833405,"current_range_meters":11200,"station_id":"ce4bhih2rcd13ifvqfs0","pricing_plan_id":"cebpf4jnsgd1na2vs0mg"},{"bike_id":"c56a68e0-035e-4d6b-92ac-165a4859959a","system_id":"levelo_inurba_marseille","lat":43.28267,"lon":5.35079,"is_reserved":false,"is_disabled":false,"rental_uris":{"android":"levelo://app?vid=c56a68e0-035e-4d6b-92ac-165a4859959a","ios":"levelo://app?vid=c56a68e0-035e-4d6b-92ac-165a4859959a"},"vehicle_type_id":"4","last_reported":1761833405,"current_range_meters":11200,"station_id":"ce4bhbp2rcd13ifvqerg","pricing_plan_id":"cebpf4jnsgd1na2vs0mg"},{"bike_id":"29dadc45-9c24-4bcb-bfa8-4e9f57edaa5c","system_id":"levelo_inurba_marseille","lat":43.28266,"lon":5.35066,"is_reserved":false,"is_disabled":false,"rental_uris":{"android":"levelo://app?vid=29dadc45-9c24-4bcb-bfa8-4e9f57edaa5c","ios":"levelo://app?vid=29dadc45-9c24-4bcb-bfa8-4e9f57edaa5c"},"vehicle_type_id":"4","last_reported":1761833405,"current_range_meters":11200,"station_id":"ce4bhbp2rcd13ifvqerg","pricing_plan_id":"cebpf4jnsgd1na2vs0mg"},{"bike_id":"4850e9fa-80d9-44b7-b4a5-d50771dfbe69","system_id":"levelo_inurba_marseille","lat":43.27199,"lon":5.39192,"is_reserved":false,"is_disabled":false,"rental_uris":{"android":"levelo://app?vid=4850e9fa-80d9-44b7-b4a5-d50771dfbe69","ios":"levelo://app?vid=4850e9fa-80d9-44b7-b4a5-d50771dfbe69"},"vehicle_type_id":"4","last_reported":1761833405,"current_range_meters":11200,"station_id":"ce4bhhp2rcd13ifvqfm0","pricing_plan_id":"cebpf4jnsgd1na2vs0mg"},{"bike_id":"018742f4-ffd8-4694-a1fe-61683d7b7382","system_id":"levelo_inurba_marseille","lat":43.26775,"lon":5.39422,"is_reserved":false,"is_disabled":false,"rental_uris":{"android":"levelo://app?vid=018742f4-ffd8-4694-a1fe-61683d7b7382","ios":"levelo://app?vid=018742f4-ffd8-4694-a1fe-61683d7b7382"},"vehicle_type_id":"4","last_reported":1761833405,"current_range_meters":11200,"station_id":"ce4bhh12rcd13ifvqfg0","pricing_plan_id":"cebpf4jnsgd1na2vs0mg"},{"bike_id":"f6bb374a-9f28-4973-a0f8-814ac9776c95","system_id":"levelo_inurba_marseille","lat":43.269355,"lon":5.402577,"is_reserved":false,"is_disabled":false,"rental_uris":{"android":"levelo://app?vid=f6bb374a-9f28-4973-a0f8-814ac9776c95","ios":"levelo://app?vid=f6bb374a-9f28-4973-a0f8-814ac9776c95"},"vehicle_type_id":"4","last_reported":1761833405,"current_range_meters":11600,"station_id":"cjm6bp8fraef2m0cb0m0","pricing_plan_id":"cebpf4jnsgd1na2vs0mg"},{"bike_id":"6fff56e2-dc33-4322-9554-e738206d1bc0","system_id":"levelo_inurba_marseille","lat":43.21191,"lon":5.35085,"is_reserved":false,"is_disabled":false,"rental_uris":{"android":"levelo://app?vid=6fff56e2-dc33-4322-9554-e738206d1bc0","ios":"levelo://app?vid=6fff56e2-dc33-4322-9554-e738206d1bc0"},"vehicle_type_id":"4","last_reported":1761833405,"current_range_meters":12000,"station_id":"st_cvj6sg6p6f1abm77japg","pricing_plan_id":"cebpf4jnsgd1na2vs0mg"},{"bike_id":"3126ce35-4101-4b06-a7b2-19548fb25089","system_id":"levelo_inurba_marseille","lat":43.211942,"lon":5.350695,"is_reserved":false,"is_disabled":false,"rental_uris":{"android":"levelo://app?vid=3126ce35-4101-4b06-a7b2-19548fb25089","ios":"levelo://app?vid=3126ce35-4101-4b06-a7b2-19548fb25089"},"vehicle_type_id":"4","last_reported":1761833405,"current_range_meters":12000,"station_id":"st_cvj6sg6p6f1abm77japg","pricing_plan_id":"cebpf4jnsgd1na2vs0mg"},{"bike_id":"a82e7080-be6f-4609-8a2f-89c25390d857","system_id":"levelo_inurba_marseille","lat":43.28272,"lon":5.35096,"is_reserved":false,"is_disabled":false,"rental_uris":{"android":"levelo://app?vid=a82e7080-be6f-4609-8a2f-89c25390d857","ios":"levelo://app?vid=a82e7080-be6f-4609-8a2f-89c25390d857"},"vehicle_type_id":"4","last_reported":1761833405,"current_range_meters":12400,"station_id":"ce4bhbp2rcd13ifvqerg","pricing_plan_id":"cebpf4jnsgd1na2vs0mg"},{"bike_id":"9e27a133-27cb-441a-a656-ccac6386c4d0","system_id":"levelo_inurba_marseille","lat":43.29878,"lon":5.39738,"is_reserved":false,"is_disabled":false,"rental_uris":{"android":"levelo://app?vid=9e27a133-27cb-441a-a656-ccac6386c4d0","ios":"levelo://app?vid=9e27a133-27cb-441a-a656-ccac6386c4d0"},"vehicle_type_id":"4","last_reported":1761833405,"current_range_meters":12400,"station_id":"ce4bh0h2rcd13ifvqd50","pricing_plan_id":"cebpf4jnsgd1na2vs0mg"},{"bike_id":"ed13730a-3ba9-4dd0-9694-3922e9b991f1","system_id":"levelo_inurba_marseille","lat":43.26193,"lon":5.37471,"is_reserved":false,"is_disabled":false,"rental_uris":{"android":"levelo://app?vid=ed13730a-3ba9-4dd0-9694-3922e9b991f1","ios":"levelo://app?vid=ed13730a-3ba9-4dd0-9694-3922e9b991f1"},"vehicle_type_id":"4","last_reported":1761833405,"current_range_meters":12400,"station_id":"ce4bhgp2rcd13ifvqfc0","pricing_plan_id":"cebpf4jnsgd1na2vs0mg"},{"bike_id":"007a2f90-f745-4bee-a51b-98c80260fd5e","system_id":"levelo_inurba_marseille","lat":43.2813,"lon":5.37864,"is_reserved":false,"is_disabled":false,"rental_uris":{"android":"levelo://app?vid=007a2f90-f745-4bee-a51b-98c80260fd5e","ios":"levelo://app?vid=007a2f90-f745-4bee-a51b-98c80260fd5e"},"vehicle_type_id":"4","last_reported":1761833405,"current_range_meters":12400,"station_id":"ce4bha12rcd13ifvqee0","pricing_plan_id":"cebpf4jnsgd1na2vs0mg"},{"bike_id":"33061747-ad79-4e9e-8a34-ba77726c5b47","system_id":"levelo_inurba_marseille","lat":43.23185,"lon":5.39987,"is_reserved":false,"is_disabled":false,"rental_uris":{"android":"levelo://app?vid=33061747-ad79-4e9e-8a34-ba77726c5b47","ios":"levelo://app?vid=33061747-ad79-4e9e-8a34-ba77726c5b47"},"vehicle_type_id":"4","last_reported":1761833405,"current_range_meters":12400,"station_id":"ce4bhn12rcd13ifvqgqg","pricing_plan_id":"cebpf4jnsgd1na2vs0mg"},{"bike_id":"46a0ad8d-7adf-4b6d-846b-a20a1b5f3a44","system_id":"levelo_inurba_marseille","lat":43.28498,"lon":5.3843,"is_reserved":false,"is_disabled":false,"rental_uris":{"android":"levelo://app?vid=46a0ad8d-7adf-4b6d-846b-a20a1b5f3a44","ios":"levelo://app?vid=46a0ad8d-7adf-4b6d-846b-a20a1b5f3a44"},"vehicle_type_id":"4","last_reported":1761833405,"current_range_meters":12800,"station_id":"ce4bh512rcd13ifvqe3g","pricing_plan_id":"cebpf4jnsgd1na2vs0mg"},{"bike_id":"a4a81a3a-b1a5-4e69-b8f2-fc130ffc3362","system_id":"levelo_inurba_marseille","lat":43.265539,"lon":5.372932,"is_reserved":false,"is_disabled":false,"rental_uris":{"android":"levelo://app?vid=a4a81a3a-b1a5-4e69-b8f2-fc130ffc3362","ios":"levelo://app?vid=a4a81a3a-b1a5-4e69-b8f2-fc130ffc3362"},"vehicle_type_id":"4","last_reported":1761833405,"current_range_meters":12800,"station_id":"ce4bhg12rcd13ifvqf70","pricing_plan_id":"cebpf4jnsgd1na2vs0mg"},{"bike_id":"106d9eb9-0bf9-44ff-b226-3957474f220a","system_id":"levelo_inurba_marseille","lat":43.29967,"lon":5.41335,"is_reserved":false,"is_disabled":false,"rental_uris":{"android":"levelo://app?vid=106d9eb9-0bf9-44ff-b226-3957474f220a","ios":"levelo://app?vid=106d9eb9-0bf9-44ff-b226-3957474f220a"},"vehicle_type_id":"4","last_reported":1761833405,"current_range_meters":12800,"station_id":"ce4bhp12rcd13ifvqh9g","pricing_plan_id":"cebpf4jnsgd1na2vs0mg"},{"bike_id":"0529d8ef-fd87-4e33-a57b-542e6b117c2f","system_id":"levelo_inurba_marseille","lat":43.26947,"lon":5.38629,"is_reserved":false,"is_disabled":false,"rental_uris":{"android":"levelo://app?vid=0529d8ef-fd87-4e33-a57b-542e6b117c2f","ios":"levelo://app?vid=0529d8ef-fd87-4e33-a57b-542e6b117c2f"},"vehicle_type_id":"4","last_reported":1761833405,"current_range_meters":12800,"station_id":"ce4bhh92rcd13ifvqfh0","pricing_plan_id":"cebpf4jnsgd1na2vs0mg"},{"bike_id":"d33b5f04-f0c2-4e43-9df0-b53b6f2e4e1a","system_id":"levelo_inurba_marseille","lat":43.28278,"lon":5.35071,"is_reserved":false,"is_disabled":false,"rental_uris":{"android":"levelo://app?vid=d33b5f04-f0c2-4e43-9df0-b53b6f2e4e1a","ios":"levelo://app?vid=d33b5f04-f0c2-4e43-9df0-b53b6f2e4e1a"},"vehicle_type_id":"4","last_reported":1761833405,"current_range_meters":12800,"station_id":"ce4bhbp2rcd13ifvqerg","pricing_plan_id":"cebpf4jnsgd1na2vs0mg"},{"bike_id":"91e1088e-c9fd-411a-9e51-14d8789e8d70","system_id":"levelo_inurba_marseille","lat":43.29017,"lon":5.38148,"is_reserved":false,"is_disabled":false,"rental_uris":{"android":"levelo://app?vid=91e1088e-c9fd-411a-9e51-14d8789e8d70","ios":"levelo://app?vid=91e1088e-c9fd-411a-9e51-14d8789e8d70"},"vehicle_type_id":"4","last_reported":1761833405,"current_range_meters":13600,"station_id":"ce4bh4p2rcd13ifvqe1g","pricing_plan_id":"cebpf4jnsgd1na2vs0mg"},{"bike_id":"b4cf4ddc-86c6-4aa3-bbef-f67b3166fb08","system_id":"levelo_inurba_marseille","lat":43.32114,"lon":5.36799,"is_reserved":false,"is_disabled":false,"rental_uris":{"android":"levelo://app?vid=b4cf4ddc-86c6-4aa3-bbef-f67b3166fb08","ios":"levelo://app?vid=b4cf4ddc-86c6-4aa3-bbef-f67b3166fb08"},"vehicle_type_id":"4","last_reported":1761833405,"current_range_meters":13600,"station_id":"ce4bhrh2rcd13ifvqhug","pricing_plan_id":"cebpf4jnsgd1na2vs0mg"},{"bike_id":"370d3785-fb02-4b1b-ac56-da59133560ae","system_id":"levelo_inurba_marseille","lat":43.29197,"lon":5.35801,"is_reserved":false,"is_disabled":false,"rental_uris":{"android":"levelo://app?vid=370d3785-fb02-4b1b-ac56-da59133560ae","ios":"levelo://app?vid=370d3785-fb02-4b1b-ac56-da59133560ae"},"vehicle_type_id":"4","last_reported":1761833405,"current_range_meters":13600,"station_id":"ce4bhb12rcd13ifvqel0","pricing_plan_id":"cebpf4jnsgd1na2vs0mg"},{"bike_id":"7168787f-424e-4fa3-a19a-a58bbe8bc4c9","system_id":"levelo_inurba_marseille","lat":43.30534,"lon":5.36706,"is_reserved":false,"is_disabled":false,"rental_uris":{"android":"levelo://app?vid=7168787f-424e-4fa3-a19a-a58bbe8bc4c9","ios":"levelo://app?vid=7168787f-424e-4fa3-a19a-a58bbe8bc4c9"},"vehicle_type_id":"4","last_reported":1761833405,"current_range_meters":13600,"station_id":"ce4bgrp2rcd13ifvqc9g","pricing_plan_id":"cebpf4jnsgd1na2vs0mg"},{"bike_id":"15e2c5dd-bae1-46fb-906a-d29fa37d6e53","system_id":"levelo_inurba_marseille","lat":43.31308,"lon":5.37335,"is_reserved":false,"is_disabled":false,"rental_uris":{"android":"levelo://app?vid=15e2c5dd-bae1-46fb-906a-d29fa37d6e53","ios":"levelo://app?vid=15e2c5dd-bae1-46fb-906a-d29fa37d6e53"},"vehicle_type_id":"4","last_reported":1761833405,"current_range_meters":13600,"station_id":"","pricing_plan_id":"cebpf4jnsgd1na2vs0mg"},{"bike_id":"0c003ebf-0f85-4149-8935-7c08c6a5cd23","system_id":"levelo_inurba_marseille","lat":43.24169,"lon":5.364,"is_reserved":false,"is_disabled":false,"rental_uris":{"android":"levelo://app?vid=0c003ebf-0f85-4149-8935-7c08c6a5cd23","ios":"levelo://app?vid=0c003ebf-0f85-4149-8935-7c08c6a5cd23"},"vehicle_type_id":"4","last_reported":1761833405,"current_range_meters":14000,"station_id":"cpo36qri1sfpv3e86is0","pricing_plan_id":"cebpf4jnsgd1na2vs0mg"},{"bike_id":"a61b4572-9954-40d8-9831-b0de7d1fc47b","system_id":"levelo_inurba_marseille","lat":43.296296,"lon":5.377194,"is_reserved":false,"is_disabled":false,"rental_uris":{"android":"levelo://app?vid=a61b4572-9954-40d8-9831-b0de7d1fc47b","ios":"levelo://app?vid=a61b4572-9954-40d8-9831-b0de7d1fc47b"},"vehicle_type_id":"4","last_reported":1761833405,"current_range_meters":14000,"station_id":"","pricing_plan_id":"cebpf4jnsgd1na2vs0mg"},{"bike_id":"87f07427-7afa-4c61-8863-cee86bfb2232","system_id":"levelo_inurba_marseille","lat":43.271693,"lon":5.409658,"is_reserved":false,"is_disabled":false,"rental_uris":{"android":"levelo://app?vid=87f07427-7afa-4c61-8863-cee86bfb2232","ios":"levelo://app?vid=87f07427-7afa-4c61-8863-cee86bfb2232"},"vehicle_type_id":"4","last_reported":1761833405,"current_range_meters":14000,"station_id":"ce4bhl12rcd13ifvqgf0","pricing_plan_id":"cebpf4jnsgd1na2vs0mg"},{"bike_id":"868c9f67-46db-40c2-8054-2388a5f9841e","system_id":"levelo_inurba_marseille","lat":43.323618,"lon":5.367313,"is_reserved":false,"is_disabled":false,"rental_uris":{"android":"levelo://app?vid=868c9f67-46db-40c2-8054-2388a5f9841e","ios":"levelo://app?vid=868c9f67-46db-40c2-8054-2388a5f9841e"},"vehicle_type_id":"4","last_reported":1761833405,"current_range_meters":14000,"station_id":"ce4bhsh2rcd13ifvqi2g","pricing_plan_id":"cebpf4jnsgd1na2vs0mg"},{"bike_id":"f6946de9-6fd5-486c-846e-6aac0ac8e59f","system_id":"levelo_inurba_marseille","lat":43.21177,"lon":5.35085,"is_reserved":false,"is_disabled":false,"rental_uris":{"android":"levelo://app?vid=f6946de9-6fd5-486c-846e-6aac0ac8e59f","ios":"levelo://app?vid=f6946de9-6fd5-486c-846e-6aac0ac8e59f"},"vehicle_type_id":"4","last_reported":1761833405,"current_range_meters":14000,"station_id":"st_cvj6sg6p6f1abm77japg","pricing_plan_id":"cebpf4jnsgd1na2vs0mg"},{"bike_id":"420c6014-3dda-497a-bf80-db8c7dfa6d9c","system_id":"levelo_inurba_marseille","lat":43.30118,"lon":5.43113,"is_reserved":false,"is_disabled":false,"rental_uris":{"android":"levelo://app?vid=420c6014-3dda-497a-bf80-db8c7dfa6d9c","ios":"levelo://app?vid=420c6014-3dda-497a-bf80-db8c7dfa6d9c"},"vehicle_type_id":"4","last_reported":1761833405,"current_range_meters":14400,"station_id":"st_d3js3co5814s73ftftug","pricing_plan_id":"cebpf4jnsgd1na2vs0mg"},{"bike_id":"d8fd3902-891f-49c0-ac4d-44302ce3cb6c","system_id":"levelo_inurba_marseille","lat":43.28722,"lon":5.36093,"is_reserved":false,"is_disabled":false,"rental_uris":{"android":"levelo://app?vid=d8fd3902-891f-49c0-ac4d-44302ce3cb6c","ios":"levelo://app?vid=d8fd3902-891f-49c0-ac4d-44302ce3cb6c"},"vehicle_type_id":"4","last_reported":1761833405,"current_range_meters":14400,"station_id":"cki0cbj6b192h4jlfktg","pricing_plan_id":"cebpf4jnsgd1na2vs0mg"},{"bike_id":"a7bd560b-94cf-4013-8850-d2a90f9b3ea1","system_id":"levelo_inurba_marseille","lat":43.292364,"lon":5.36612,"is_reserved":false,"is_disabled":false,"rental_uris":{"android":"levelo://app?vid=a7bd560b-94cf-4013-8850-d2a90f9b3ea1","ios":"levelo://app?vid=a7bd560b-94cf-4013-8850-d2a90f9b3ea1"},"vehicle_type_id":"4","last_reported":1761833405,"current_range_meters":14400,"station_id":"ce4bhb12rcd13ifvqel0","pricing_plan_id":"cebpf4jnsgd1na2vs0mg"},{"bike_id":"ece027da-824a-47d0-bc54-5da75c26caf2","system_id":"levelo_inurba_marseille","lat":43.30546,"lon":5.36702,"is_reserved":false,"is_disabled":false,"rental_uris":{"android":"levelo://app?vid=ece027da-824a-47d0-bc54-5da75c26caf2","ios":"levelo://app?vid=ece027da-824a-47d0-bc54-5da75c26caf2"},"vehicle_type_id":"4","last_reported":1761833405,"current_range_meters":14400,"station_id":"ce4bgrp2rcd13ifvqc9g","pricing_plan_id":"cebpf4jnsgd1na2vs0mg"},{"bike_id":"81defd2f-11cf-4989-82b1-cbbaedf57446","system_id":"levelo_inurba_marseille","lat":43.26556,"lon":5.37286,"is_reserved":false,"is_disabled":false,"rental_uris":{"android":"levelo://app?vid=81defd2f-11cf-4989-82b1-cbbaedf57446","ios":"levelo://app?vid=81defd2f-11cf-4989-82b1-cbbaedf57446"},"vehicle_type_id":"4","last_reported":1761833405,"current_range_meters":14400,"station_id":"ce4bhg12rcd13ifvqf70","pricing_plan_id":"cebpf4jnsgd1na2vs0mg"},{"bike_id":"7c0b0646-2470-47e1-bf30-dc17368ef705","system_id":"levelo_inurba_marseille","lat":43.28419,"lon":5.34983,"is_reserved":false,"is_disabled":false,"rental_uris":{"android":"levelo://app?vid=7c0b0646-2470-47e1-bf30-dc17368ef705","ios":"levelo://app?vid=7c0b0646-2470-47e1-bf30-dc17368ef705"},"vehicle_type_id":"4","last_reported":1761833405,"current_range_meters":14400,"station_id":"ce4bhbh2rcd13ifvqepg","pricing_plan_id":"cebpf4jnsgd1na2vs0mg"},{"bike_id":"a18dbf48-2c4d-4fa4-a4c5-c9871d73c9a0","system_id":"levelo_inurba_marseille","lat":43.301994,"lon":5.383462,"is_reserved":false,"is_disabled":false,"rental_uris":{"android":"levelo://app?vid=a18dbf48-2c4d-4fa4-a4c5-c9871d73c9a0","ios":"levelo://app?vid=a18dbf48-2c4d-4fa4-a4c5-c9871d73c9a0"},"vehicle_type_id":"4","last_reported":1761833405,"current_range_meters":14800,"station_id":"ce4bgup2rcd13ifvqcn0","pricing_plan_id":"cebpf4jnsgd1na2vs0mg"},{"bike_id":"003dc589-afc6-47c4-a84a-e90cd5f91109","system_id":"levelo_inurba_marseille","lat":43.29521,"lon":5.39042,"is_reserved":false,"is_disabled":true,"rental_uris":{"android":"levelo://app?vid=003dc589-afc6-47c4-a84a-e90cd5f91109","ios":"levelo://app?vid=003dc589-afc6-47c4-a84a-e90cd5f91109"},"vehicle_type_id":"4","last_reported":1761833405,"current_range_meters":15200,"station_id":"ce4bh3p2rcd13ifvqdp0","pricing_plan_id":"cebpf4jnsgd1na2vs0mg"},{"bike_id":"6e24cad3-9399-4551-85f8-ff3e0dd147bd","system_id":"levelo_inurba_marseille","lat":43.267736,"lon":5.393999,"is_reserved":false,"is_disabled":false,"rental_uris":{"android":"levelo://app?vid=6e24cad3-9399-4551-85f8-ff3e0dd147bd","ios":"levelo://app?vid=6e24cad3-9399-4551-85f8-ff3e0dd147bd"},"vehicle_type_id":"4","last_reported":1761833405,"current_range_meters":15200,"station_id":"ce4bhh12rcd13ifvqfg0","pricing_plan_id":"cebpf4jnsgd1na2vs0mg"},{"bike_id":"092c4099-4149-48b1-85f7-36ede0238c2b","system_id":"levelo_inurba_marseille","lat":43.273801,"lon":5.362358,"is_reserved":false,"is_disabled":false,"rental_uris":{"android":"levelo://app?vid=092c4099-4149-48b1-85f7-36ede0238c2b","ios":"levelo://app?vid=092c4099-4149-48b1-85f7-36ede0238c2b"},"vehicle_type_id":"4","last_reported":1761833405,"current_range_meters":15200,"station_id":"","pricing_plan_id":"cebpf4jnsgd1na2vs0mg"},{"bike_id":"333665c2-b847-407e-8a7d-384f90686e71","system_id":"levelo_inurba_marseille","lat":43.29522,"lon":5.37515,"is_reserved":false,"is_disabled":false,"rental_uris":{"android":"levelo://app?vid=333665c2-b847-407e-8a7d-384f90686e71","ios":"levelo://app?vid=333665c2-b847-407e-8a7d-384f90686e71"},"vehicle_type_id":"4","last_reported":1761833405,"current_range_meters":15200,"station_id":"ce4bgkp2rcd13ifvqbmg","pricing_plan_id":"cebpf4jnsgd1na2vs0mg"},{"bike_id":"a58f9c98-18b8-4441-9b8b-000081db1b3a","system_id":"levelo_inurba_marseille","lat":43.29887,"lon":5.38891,"is_reserved":false,"is_disabled":false,"rental_uris":{"android":"levelo://app?vid=a58f9c98-18b8-4441-9b8b-000081db1b3a","ios":"levelo://app?vid=a58f9c98-18b8-4441-9b8b-000081db1b3a"},"vehicle_type_id":"4","last_reported":1761833405,"current_range_meters":15200,"station_id":"ce4bh392rcd13ifvqdl0","pricing_plan_id":"cebpf4jnsgd1na2vs0mg"},{"bike_id":"943e6ccb-7e0e-4389-97d3-f143ef36a9cc","system_id":"levelo_inurba_marseille","lat":43.29217,"lon":5.36062,"is_reserved":false,"is_disabled":false,"rental_uris":{"android":"levelo://app?vid=943e6ccb-7e0e-4389-97d3-f143ef36a9cc","ios":"levelo://app?vid=943e6ccb-7e0e-4389-97d3-f143ef36a9cc"},"vehicle_type_id":"4","last_reported":1761833405,"current_range_meters":16000,"station_id":"ce4bhbh2rcd13ifvqeqg","pricing_plan_id":"cebpf4jnsgd1na2vs0mg"},{"bike_id":"49eabeb8-91e9-4fed-9256-a94ef104e5f4","system_id":"levelo_inurba_marseille","lat":43.29566,"lon":5.36725,"is_reserved":false,"is_disabled":false,"rental_uris":{"android":"levelo://app?vid=49eabeb8-91e9-4fed-9256-a94ef104e5f4","ios":"levelo://app?vid=49eabeb8-91e9-4fed-9256-a94ef104e5f4"},"vehicle_type_id":"4","last_reported":1761833405,"current_range_meters":16000,"station_id":"ce4bgph2rcd13ifvqc2g","pricing_plan_id":"cebpf4jnsgd1na2vs0mg"},{"bike_id":"b82fb47f-cda5-4e99-b878-189e4e0bca52","system_id":"levelo_inurba_marseille","lat":43.27838,"lon":5.39205,"is_reserved":false,"is_disabled":false,"rental_uris":{"android":"levelo://app?vid=b82fb47f-cda5-4e99-b878-189e4e0bca52","ios":"levelo://app?vid=b82fb47f-cda5-4e99-b878-189e4e0bca52"},"vehicle_type_id":"4","last_reported":1761833405,"current_range_meters":16000,"station_id":"ce4bhjp2rcd13ifvqga0","pricing_plan_id":"cebpf4jnsgd1na2vs0mg"},{"bike_id":"79ab418a-79c0-4a6e-993b-761280f132d6","system_id":"levelo_inurba_marseille","lat":43.284839,"lon":5.485351,"is_reserved":false,"is_disabled":false,"rental_uris":{"android":"levelo://app?vid=79ab418a-79c0-4a6e-993b-761280f132d6","ios":"levelo://app?vid=79ab418a-79c0-4a6e-993b-761280f132d6"},"vehicle_type_id":"4","last_reported":1761833405,"current_range_meters":16000,"station_id":"","pricing_plan_id":"cebpf4jnsgd1na2vs0mg"},{"bike_id":"8efa85ea-85a4-497e-90d4-42675f4ad12a","system_id":"levelo_inurba_marseille","lat":43.264593,"lon":5.373405,"is_reserved":false,"is_disabled":false,"rental_uris":{"android":"levelo://app?vid=8efa85ea-85a4-497e-90d4-42675f4ad12a","ios":"levelo://app?vid=8efa85ea-85a4-497e-90d4-42675f4ad12a"},"vehicle_type_id":"4","last_reported":1761833405,"current_range_meters":16000,"station_id":"","pricing_plan_id":"cebpf4jnsgd1na2vs0mg"},{"bike_id":"14714d93-c04e-43cb-b803-62fe0b7aab38","system_id":"levelo_inurba_marseille","lat":43.28268,"lon":5.35072,"is_reserved":false,"is_disabled":false,"rental_uris":{"android":"levelo://app?vid=14714d93-c04e-43cb-b803-62fe0b7aab38","ios":"levelo://app?vid=14714d93-c04e-43cb-b803-62fe0b7aab38"},"vehicle_type_id":"4","last_reported":1761833405,"current_range_meters":16000,"station_id":"ce4bhbp2rcd13ifvqerg","pricing_plan_id":"cebpf4jnsgd1na2vs0mg"},{"bike_id":"2e1550aa-7312-43a5-85a0-bee591735a63","system_id":"levelo_inurba_marseille","lat":43.25106,"lon":5.40326,"is_reserved":false,"is_disabled":false,"rental_uris":{"android":"levelo://app?vid=2e1550aa-7312-43a5-85a0-bee591735a63","ios":"levelo://app?vid=2e1550aa-7312-43a5-85a0-bee591735a63"},"vehicle_type_id":"4","last_reported":1761833405,"current_range_meters":16400,"station_id":"ce4bhlh2rcd13ifvqgig","pricing_plan_id":"cebpf4jnsgd1na2vs0mg"},{"bike_id":"9b93b5e1-c939-4745-bf85-2d21945442dc","system_id":"levelo_inurba_marseille","lat":43.29986,"lon":5.3641,"is_reserved":false,"is_disabled":false,"rental_uris":{"android":"levelo://app?vid=9b93b5e1-c939-4745-bf85-2d21945442dc","ios":"levelo://app?vid=9b93b5e1-c939-4745-bf85-2d21945442dc"},"vehicle_type_id":"4","last_reported":1761833405,"current_range_meters":16400,"station_id":"","pricing_plan_id":"cebpf4jnsgd1na2vs0mg"},{"bike_id":"c2b29e2a-9ddf-4599-9569-ebeda3771708","system_id":"levelo_inurba_marseille","lat":43.21187,"lon":5.35085,"is_reserved":false,"is_disabled":false,"rental_uris":{"android":"levelo://app?vid=c2b29e2a-9ddf-4599-9569-ebeda3771708","ios":"levelo://app?vid=c2b29e2a-9ddf-4599-9569-ebeda3771708"},"vehicle_type_id":"4","last_reported":1761833405,"current_range_meters":16400,"station_id":"st_cvj6sg6p6f1abm77japg","pricing_plan_id":"cebpf4jnsgd1na2vs0mg"},{"bike_id":"d5bbb776-d7ff-49d7-be0e-2d35407b2074","system_id":"levelo_inurba_marseille","lat":43.296997,"lon":5.37688,"is_reserved":false,"is_disabled":false,"rental_uris":{"android":"levelo://app?vid=d5bbb776-d7ff-49d7-be0e-2d35407b2074","ios":"levelo://app?vid=d5bbb776-d7ff-49d7-be0e-2d35407b2074"},"vehicle_type_id":"4","last_reported":1761833405,"current_range_meters":16400,"station_id":"ce4bgkh2rcd13ifvqbl0","pricing_plan_id":"cebpf4jnsgd1na2vs0mg"},{"bike_id":"13464d0e-40d8-4a8c-be93-0b2fbb0e9120","system_id":"levelo_inurba_marseille","lat":43.30292,"lon":5.36874,"is_reserved":false,"is_disabled":false,"rental_uris":{"android":"levelo://app?vid=13464d0e-40d8-4a8c-be93-0b2fbb0e9120","ios":"levelo://app?vid=13464d0e-40d8-4a8c-be93-0b2fbb0e9120"},"vehicle_type_id":"4","last_reported":1761833405,"current_range_meters":16400,"station_id":"ce4bgqh2rcd13ifvqc5g","pricing_plan_id":"cebpf4jnsgd1na2vs0mg"},{"bike_id":"9e30ec6f-fe2c-4b3a-908f-0710dec2429d","system_id":"levelo_inurba_marseille","lat":43.30132,"lon":5.38775,"is_reserved":false,"is_disabled":false,"rental_uris":{"android":"levelo://app?vid=9e30ec6f-fe2c-4b3a-908f-0710dec2429d","ios":"levelo://app?vid=9e30ec6f-fe2c-4b3a-908f-0710dec2429d"},"vehicle_type_id":"4","last_reported":1761833405,"current_range_meters":16400,"station_id":"ce4bghh2rcd13ifvqb60","pricing_plan_id":"cebpf4jnsgd1na2vs0mg"},{"bike_id":"7059abfa-bba6-43b2-8c14-96f92d7be186","system_id":"levelo_inurba_marseille","lat":43.309143,"lon":5.368475,"is_reserved":false,"is_disabled":false,"rental_uris":{"android":"levelo://app?vid=7059abfa-bba6-43b2-8c14-96f92d7be186","ios":"levelo://app?vid=7059abfa-bba6-43b2-8c14-96f92d7be186"},"vehicle_type_id":"4","last_reported":1761833405,"current_range_meters":16400,"station_id":"ce4bgn92rcd13ifvqbvg","pricing_plan_id":"cebpf4jnsgd1na2vs0mg"},{"bike_id":"bf838397-5dca-46e4-b963-564225dd8a64","system_id":"levelo_inurba_marseille","lat":43.2408,"lon":5.37762,"is_reserved":false,"is_disabled":false,"rental_uris":{"android":"levelo://app?vid=bf838397-5dca-46e4-b963-564225dd8a64","ios":"levelo://app?vid=bf838397-5dca-46e4-b963-564225dd8a64"},"vehicle_type_id":"4","last_reported":1761833405,"current_range_meters":16400,"station_id":"ce4bhnp2rcd13ifvqgvg","pricing_plan_id":"cebpf4jnsgd1na2vs0mg"},{"bike_id":"2fd86c53-d195-4ab3-a5e6-984f6c0f4c38","system_id":"levelo_inurba_marseille","lat":43.26575,"lon":5.37302,"is_reserved":false,"is_disabled":false,"rental_uris":{"android":"levelo://app?vid=2fd86c53-d195-4ab3-a5e6-984f6c0f4c38","ios":"levelo://app?vid=2fd86c53-d195-4ab3-a5e6-984f6c0f4c38"},"vehicle_type_id":"4","last_reported":1761833405,"current_range_meters":16800,"station_id":"ce4bhg12rcd13ifvqf70","pricing_plan_id":"cebpf4jnsgd1na2vs0mg"},{"bike_id":"13b5bebc-2277-4643-9efc-b419c3a09bbd","system_id":"levelo_inurba_marseille","lat":43.22929,"lon":5.35385,"is_reserved":false,"is_disabled":false,"rental_uris":{"android":"levelo://app?vid=13b5bebc-2277-4643-9efc-b419c3a09bbd","ios":"levelo://app?vid=13b5bebc-2277-4643-9efc-b419c3a09bbd"},"vehicle_type_id":"4","last_reported":1761833405,"current_range_meters":16800,"station_id":"cpo3532slgdg3j2ikp40","pricing_plan_id":"cebpf4jnsgd1na2vs0mg"},{"bike_id":"562b7e74-2065-4a33-8ea3-3cb60ad24f49","system_id":"levelo_inurba_marseille","lat":43.3015,"lon":5.38091,"is_reserved":false,"is_disabled":false,"rental_uris":{"android":"levelo://app?vid=562b7e74-2065-4a33-8ea3-3cb60ad24f49","ios":"levelo://app?vid=562b7e74-2065-4a33-8ea3-3cb60ad24f49"},"vehicle_type_id":"4","last_reported":1761833405,"current_range_meters":16800,"station_id":"ce4bgjp2rcd13ifvqbh0","pricing_plan_id":"cebpf4jnsgd1na2vs0mg"},{"bike_id":"88327406-ba65-4ce0-831c-3da476dbb691","system_id":"levelo_inurba_marseille","lat":43.23789,"lon":5.36637,"is_reserved":false,"is_disabled":false,"rental_uris":{"android":"levelo://app?vid=88327406-ba65-4ce0-831c-3da476dbb691","ios":"levelo://app?vid=88327406-ba65-4ce0-831c-3da476dbb691"},"vehicle_type_id":"4","last_reported":1761833405,"current_range_meters":16800,"station_id":"st_d3nk18o9ro0c73en2l3g","pricing_plan_id":"cebpf4jnsgd1na2vs0mg"},{"bike_id":"da0420b8-69e2-4ddf-9915-f492ed723756","system_id":"levelo_inurba_marseille","lat":43.30175,"lon":5.36619,"is_reserved":false,"is_disabled":false,"rental_uris":{"android":"levelo://app?vid=da0420b8-69e2-4ddf-9915-f492ed723756","ios":"levelo://app?vid=da0420b8-69e2-4ddf-9915-f492ed723756"},"vehicle_type_id":"4","last_reported":1761833405,"current_range_meters":16800,"station_id":"ce4bgrh2rcd13ifvqc8g","pricing_plan_id":"cebpf4jnsgd1na2vs0mg"},{"bike_id":"8bd76c8d-f5a7-49ff-b58b-3b6e9febc7f1","system_id":"levelo_inurba_marseille","lat":43.28533,"lon":5.44103,"is_reserved":false,"is_disabled":false,"rental_uris":{"android":"levelo://app?vid=8bd76c8d-f5a7-49ff-b58b-3b6e9febc7f1","ios":"levelo://app?vid=8bd76c8d-f5a7-49ff-b58b-3b6e9febc7f1"},"vehicle_type_id":"4","last_reported":1761833405,"current_range_meters":16800,"station_id":"st_d3j3df2ikq2c7380ej80","pricing_plan_id":"cebpf4jnsgd1na2vs0mg"},{"bike_id":"43602c37-7763-4b0c-9efc-820bd499d789","system_id":"levelo_inurba_marseille","lat":43.26677,"lon":5.38277,"is_reserved":false,"is_disabled":false,"rental_uris":{"android":"levelo://app?vid=43602c37-7763-4b0c-9efc-820bd499d789","ios":"levelo://app?vid=43602c37-7763-4b0c-9efc-820bd499d789"},"vehicle_type_id":"4","last_reported":1761833405,"current_range_meters":16800,"station_id":"ce4bhg92rcd13ifvqf90","pricing_plan_id":"cebpf4jnsgd1na2vs0mg"},{"bike_id":"c1b80a2d-4c09-4897-a6de-d7dc582f3acd","system_id":"levelo_inurba_marseille","lat":43.30283,"lon":5.3772,"is_reserved":false,"is_disabled":false,"rental_uris":{"android":"levelo://app?vid=c1b80a2d-4c09-4897-a6de-d7dc582f3acd","ios":"levelo://app?vid=c1b80a2d-4c09-4897-a6de-d7dc582f3acd"},"vehicle_type_id":"4","last_reported":1761833405,"current_range_meters":16800,"station_id":"ce4bguh2rcd13ifvqcj0","pricing_plan_id":"cebpf4jnsgd1na2vs0mg"},{"bike_id":"091b1cc6-ee35-4c11-88b4-b45025ecb805","system_id":"levelo_inurba_marseille","lat":43.27374,"lon":5.36261,"is_reserved":false,"is_disabled":false,"rental_uris":{"android":"levelo://app?vid=091b1cc6-ee35-4c11-88b4-b45025ecb805","ios":"levelo://app?vid=091b1cc6-ee35-4c11-88b4-b45025ecb805"},"vehicle_type_id":"4","last_reported":1761833405,"current_range_meters":16800,"station_id":"ce4bhbh2rcd13ifvqeo0","pricing_plan_id":"cebpf4jnsgd1na2vs0mg"},{"bike_id":"201e2a4c-73e3-4f87-93fe-8854747b415c","system_id":"levelo_inurba_marseille","lat":43.30148,"lon":5.3743,"is_reserved":false,"is_disabled":false,"rental_uris":{"android":"levelo://app?vid=201e2a4c-73e3-4f87-93fe-8854747b415c","ios":"levelo://app?vid=201e2a4c-73e3-4f87-93fe-8854747b415c"},"vehicle_type_id":"4","last_reported":1761833405,"current_range_meters":16800,"station_id":"ce4bgs92rcd13ifvqcc0","pricing_plan_id":"cebpf4jnsgd1na2vs0mg"},{"bike_id":"4edecd14-ac00-46ee-8c48-fddbd9043867","system_id":"levelo_inurba_marseille","lat":43.24082,"lon":5.37755,"is_reserved":false,"is_disabled":false,"rental_uris":{"android":"levelo://app?vid=4edecd14-ac00-46ee-8c48-fddbd9043867","ios":"levelo://app?vid=4edecd14-ac00-46ee-8c48-fddbd9043867"},"vehicle_type_id":"4","last_reported":1761833405,"current_range_meters":16800,"station_id":"ce4bhnp2rcd13ifvqgvg","pricing_plan_id":"cebpf4jnsgd1na2vs0mg"},{"bike_id":"9a8c6b52-40de-40a8-961b-f25b9a19491b","system_id":"levelo_inurba_marseille","lat":43.270729,"lon":5.422847,"is_reserved":false,"is_disabled":false,"rental_uris":{"android":"levelo://app?vid=9a8c6b52-40de-40a8-961b-f25b9a19491b","ios":"levelo://app?vid=9a8c6b52-40de-40a8-961b-f25b9a19491b"},"vehicle_type_id":"4","last_reported":1761833405,"current_range_meters":17200,"station_id":"ce4bhk92rcd13ifvqgb0","pricing_plan_id":"cebpf4jnsgd1na2vs0mg"},{"bike_id":"20f4b636-0263-461f-8528-cd153df38e8b","system_id":"levelo_inurba_marseille","lat":43.24996,"lon":5.38944,"is_reserved":false,"is_disabled":false,"rental_uris":{"android":"levelo://app?vid=20f4b636-0263-461f-8528-cd153df38e8b","ios":"levelo://app?vid=20f4b636-0263-461f-8528-cd153df38e8b"},"vehicle_type_id":"4","last_reported":1761833405,"current_range_meters":17200,"station_id":"ce4bhgp2rcd13ifvqfd0","pricing_plan_id":"cebpf4jnsgd1na2vs0mg"},{"bike_id":"05986b28-4ed8-4668-a9d9-55ba6965e46a","system_id":"levelo_inurba_marseille","lat":43.304605,"lon":5.379006,"is_reserved":false,"is_disabled":false,"rental_uris":{"android":"levelo://app?vid=05986b28-4ed8-4668-a9d9-55ba6965e46a","ios":"levelo://app?vid=05986b28-4ed8-4668-a9d9-55ba6965e46a"},"vehicle_type_id":"4","last_reported":1761833405,"current_range_meters":17200,"station_id":"ce4bgup2rcd13ifvqcn0","pricing_plan_id":"cebpf4jnsgd1na2vs0mg"},{"bike_id":"80c53fab-d9fd-4b9a-94e7-e3f3183e35da","system_id":"levelo_inurba_marseille","lat":43.33026,"lon":5.39041,"is_reserved":false,"is_disabled":false,"rental_uris":{"android":"levelo://app?vid=80c53fab-d9fd-4b9a-94e7-e3f3183e35da","ios":"levelo://app?vid=80c53fab-d9fd-4b9a-94e7-e3f3183e35da"},"vehicle_type_id":"4","last_reported":1761833405,"current_range_meters":17200,"station_id":"ce4bhr92rcd13ifvqhrg","pricing_plan_id":"cebpf4jnsgd1na2vs0mg"},{"bike_id":"084b77c3-bae6-43e9-9ec8-af1ca907a562","system_id":"levelo_inurba_marseille","lat":43.25514,"lon":5.37673,"is_reserved":false,"is_disabled":false,"rental_uris":{"android":"levelo://app?vid=084b77c3-bae6-43e9-9ec8-af1ca907a562","ios":"levelo://app?vid=084b77c3-bae6-43e9-9ec8-af1ca907a562"},"vehicle_type_id":"4","last_reported":1761833405,"current_range_meters":17200,"station_id":"ce4bhh12rcd13ifvqff0","pricing_plan_id":"cebpf4jnsgd1na2vs0mg"},{"bike_id":"db401dcb-dc87-4e19-81ad-a3908ab9e53a","system_id":"levelo_inurba_marseille","lat":43.28845,"lon":5.40053,"is_reserved":false,"is_disabled":false,"rental_uris":{"android":"levelo://app?vid=db401dcb-dc87-4e19-81ad-a3908ab9e53a","ios":"levelo://app?vid=db401dcb-dc87-4e19-81ad-a3908ab9e53a"},"vehicle_type_id":"4","last_reported":1761833405,"current_range_meters":17200,"station_id":"","pricing_plan_id":"cebpf4jnsgd1na2vs0mg"},{"bike_id":"554f1e7c-3bf8-4dca-9530-f74bddc64a48","system_id":"levelo_inurba_marseille","lat":43.30535,"lon":5.36549,"is_reserved":false,"is_disabled":false,"rental_uris":{"android":"levelo://app?vid=554f1e7c-3bf8-4dca-9530-f74bddc64a48","ios":"levelo://app?vid=554f1e7c-3bf8-4dca-9530-f74bddc64a48"},"vehicle_type_id":"4","last_reported":1761833405,"current_range_meters":17200,"station_id":"ce4bgs12rcd13ifvqcag","pricing_plan_id":"cebpf4jnsgd1na2vs0mg"},{"bike_id":"05a47c24-c74d-4482-aade-5974399cb310","system_id":"levelo_inurba_marseille","lat":43.29606,"lon":5.37672,"is_reserved":false,"is_disabled":false,"rental_uris":{"android":"levelo://app?vid=05a47c24-c74d-4482-aade-5974399cb310","ios":"levelo://app?vid=05a47c24-c74d-4482-aade-5974399cb310"},"vehicle_type_id":"4","last_reported":1761833405,"current_range_meters":17200,"station_id":"ce4bgi92rcd13ifvqb90","pricing_plan_id":"cebpf4jnsgd1na2vs0mg"},{"bike_id":"e671f4da-ae38-4741-ac49-c7dc0bd573f8","system_id":"levelo_inurba_marseille","lat":43.22929,"lon":5.35378,"is_reserved":false,"is_disabled":false,"rental_uris":{"android":"levelo://app?vid=e671f4da-ae38-4741-ac49-c7dc0bd573f8","ios":"levelo://app?vid=e671f4da-ae38-4741-ac49-c7dc0bd573f8"},"vehicle_type_id":"4","last_reported":1761833405,"current_range_meters":17200,"station_id":"cpo3532slgdg3j2ikp40","pricing_plan_id":"cebpf4jnsgd1na2vs0mg"},{"bike_id":"216e46ca-be00-4e8e-a1e1-fb94531ee1ae","system_id":"levelo_inurba_marseille","lat":43.29557,"lon":5.42254,"is_reserved":false,"is_disabled":true,"rental_uris":{"android":"levelo://app?vid=216e46ca-be00-4e8e-a1e1-fb94531ee1ae","ios":"levelo://app?vid=216e46ca-be00-4e8e-a1e1-fb94531ee1ae"},"vehicle_type_id":"4","last_reported":1761833405,"current_range_meters":17600,"station_id":"ce4bhph2rcd13ifvqhdg","pricing_plan_id":"cebpf4jnsgd1na2vs0mg"},{"bike_id":"6132fbb0-fb1f-4c42-a930-257bf68886c2","system_id":"levelo_inurba_marseille","lat":43.30893,"lon":5.36891,"is_reserved":false,"is_disabled":false,"rental_uris":{"android":"levelo://app?vid=6132fbb0-fb1f-4c42-a930-257bf68886c2","ios":"levelo://app?vid=6132fbb0-fb1f-4c42-a930-257bf68886c2"},"vehicle_type_id":"4","last_reported":1761833405,"current_range_meters":17600,"station_id":"ce4bgn92rcd13ifvqbvg","pricing_plan_id":"cebpf4jnsgd1na2vs0mg"},{"bike_id":"ac054415-4e37-4567-b95e-73970b5e64bc","system_id":"levelo_inurba_marseille","lat":43.32462,"lon":5.36607,"is_reserved":false,"is_disabled":false,"rental_uris":{"android":"levelo://app?vid=ac054415-4e37-4567-b95e-73970b5e64bc","ios":"levelo://app?vid=ac054415-4e37-4567-b95e-73970b5e64bc"},"vehicle_type_id":"4","last_reported":1761833405,"current_range_meters":17600,"station_id":"ce4bhs12rcd13ifvqhvg","pricing_plan_id":"cebpf4jnsgd1na2vs0mg"},{"bike_id":"ede3cf36-d636-426c-9ea0-80f695930f6d","system_id":"levelo_inurba_marseille","lat":43.3028,"lon":5.377,"is_reserved":false,"is_disabled":false,"rental_uris":{"android":"levelo://app?vid=ede3cf36-d636-426c-9ea0-80f695930f6d","ios":"levelo://app?vid=ede3cf36-d636-426c-9ea0-80f695930f6d"},"vehicle_type_id":"4","last_reported":1761833405,"current_range_meters":17600,"station_id":"ce4bguh2rcd13ifvqcj0","pricing_plan_id":"cebpf4jnsgd1na2vs0mg"},{"bike_id":"bba4fbbf-f903-430a-a15f-e35b200d8539","system_id":"levelo_inurba_marseille","lat":43.29966,"lon":5.38499,"is_reserved":false,"is_disabled":false,"rental_uris":{"android":"levelo://app?vid=bba4fbbf-f903-430a-a15f-e35b200d8539","ios":"levelo://app?vid=bba4fbbf-f903-430a-a15f-e35b200d8539"},"vehicle_type_id":"4","last_reported":1761833405,"current_range_meters":17600,"station_id":"ce4bgj92rcd13ifvqbd0","pricing_plan_id":"cebpf4jnsgd1na2vs0mg"},{"bike_id":"f6e41c21-0e74-476c-8273-8a6a7b44e6bc","system_id":"levelo_inurba_marseille","lat":43.30732,"lon":5.4245,"is_reserved":false,"is_disabled":false,"rental_uris":{"android":"levelo://app?vid=f6e41c21-0e74-476c-8273-8a6a7b44e6bc","ios":"levelo://app?vid=f6e41c21-0e74-476c-8273-8a6a7b44e6bc"},"vehicle_type_id":"4","last_reported":1761833405,"current_range_meters":17600,"station_id":"st_cvj6ca6bvosntc0bfgr0","pricing_plan_id":"cebpf4jnsgd1na2vs0mg"},{"bike_id":"5203885f-5331-4646-bd8c-8ca8114d6e46","system_id":"levelo_inurba_marseille","lat":43.29942,"lon":5.36553,"is_reserved":false,"is_disabled":false,"rental_uris":{"android":"levelo://app?vid=5203885f-5331-4646-bd8c-8ca8114d6e46","ios":"levelo://app?vid=5203885f-5331-4646-bd8c-8ca8114d6e46"},"vehicle_type_id":"4","last_reported":1761833405,"current_range_meters":18000,"station_id":"ce4bgm92rcd13ifvqbr0","pricing_plan_id":"cebpf4jnsgd1na2vs0mg"},{"bike_id":"e2174bcc-dfe4-4cd0-b2f3-5b16cc38c3c9","system_id":"levelo_inurba_marseille","lat":43.29004,"lon":5.35617,"is_reserved":false,"is_disabled":false,"rental_uris":{"android":"levelo://app?vid=e2174bcc-dfe4-4cd0-b2f3-5b16cc38c3c9","ios":"levelo://app?vid=e2174bcc-dfe4-4cd0-b2f3-5b16cc38c3c9"},"vehicle_type_id":"4","last_reported":1761833405,"current_range_meters":18000,"station_id":"ce4bhb92rcd13ifvqen0","pricing_plan_id":"cebpf4jnsgd1na2vs0mg"},{"bike_id":"1884d5c9-bd91-4658-bea4-a53682273fa1","system_id":"levelo_inurba_marseille","lat":43.27996,"lon":5.40023,"is_reserved":false,"is_disabled":false,"rental_uris":{"android":"levelo://app?vid=1884d5c9-bd91-4658-bea4-a53682273fa1","ios":"levelo://app?vid=1884d5c9-bd91-4658-bea4-a53682273fa1"},"vehicle_type_id":"4","last_reported":1761833405,"current_range_meters":18000,"station_id":"ce4bho92rcd13ifvqh4g","pricing_plan_id":"cebpf4jnsgd1na2vs0mg"},{"bike_id":"e1980826-0420-482d-ab48-a83920c13f3b","system_id":"levelo_inurba_marseille","lat":43.28267,"lon":5.35081,"is_reserved":false,"is_disabled":false,"rental_uris":{"android":"levelo://app?vid=e1980826-0420-482d-ab48-a83920c13f3b","ios":"levelo://app?vid=e1980826-0420-482d-ab48-a83920c13f3b"},"vehicle_type_id":"4","last_reported":1761833405,"current_range_meters":18000,"station_id":"ce4bhbp2rcd13ifvqerg","pricing_plan_id":"cebpf4jnsgd1na2vs0mg"},{"bike_id":"a4dac4fa-66e6-48be-a654-6e17cdc7ca0b","system_id":"levelo_inurba_marseille","lat":43.337571,"lon":5.374323,"is_reserved":false,"is_disabled":false,"rental_uris":{"android":"levelo://app?vid=a4dac4fa-66e6-48be-a654-6e17cdc7ca0b","ios":"levelo://app?vid=a4dac4fa-66e6-48be-a654-6e17cdc7ca0b"},"vehicle_type_id":"4","last_reported":1761833405,"current_range_meters":18000,"station_id":"","pricing_plan_id":"cebpf4jnsgd1na2vs0mg"},{"bike_id":"20c1c26d-be2a-4cac-8028-038f5ffc2f00","system_id":"levelo_inurba_marseille","lat":43.292751,"lon":5.368521,"is_reserved":false,"is_disabled":false,"rental_uris":{"android":"levelo://app?vid=20c1c26d-be2a-4cac-8028-038f5ffc2f00","ios":"levelo://app?vid=20c1c26d-be2a-4cac-8028-038f5ffc2f00"},"vehicle_type_id":"4","last_reported":1761833405,"current_range_meters":18000,"station_id":"ce4bhbp2rcd13ifvqesg","pricing_plan_id":"cebpf4jnsgd1na2vs0mg"},{"bike_id":"6ff8291f-9469-45a6-ae59-75edaabc89ae","system_id":"levelo_inurba_marseille","lat":43.290409,"lon":5.359128,"is_reserved":false,"is_disabled":false,"rental_uris":{"android":"levelo://app?vid=6ff8291f-9469-45a6-ae59-75edaabc89ae","ios":"levelo://app?vid=6ff8291f-9469-45a6-ae59-75edaabc89ae"},"vehicle_type_id":"4","last_reported":1761833405,"current_range_meters":18000,"station_id":"","pricing_plan_id":"cebpf4jnsgd1na2vs0mg"},{"bike_id":"70e3e0f4-e383-46a4-93e3-5cb9990c4fa0","system_id":"levelo_inurba_marseille","lat":43.29085,"lon":5.38205,"is_reserved":false,"is_disabled":false,"rental_uris":{"android":"levelo://app?vid=70e3e0f4-e383-46a4-93e3-5cb9990c4fa0","ios":"levelo://app?vid=70e3e0f4-e383-46a4-93e3-5cb9990c4fa0"},"vehicle_type_id":"4","last_reported":1761833405,"current_range_meters":18000,"station_id":"","pricing_plan_id":"cebpf4jnsgd1na2vs0mg"},{"bike_id":"8a0ff850-cf9f-4e75-bc3f-994489f28f31","system_id":"levelo_inurba_marseille","lat":43.22568,"lon":5.41619,"is_reserved":false,"is_disabled":false,"rental_uris":{"android":"levelo://app?vid=8a0ff850-cf9f-4e75-bc3f-994489f28f31","ios":"levelo://app?vid=8a0ff850-cf9f-4e75-bc3f-994489f28f31"},"vehicle_type_id":"4","last_reported":1761833405,"current_range_meters":18000,"station_id":"st_d2o4gvlbi1j2169b742g","pricing_plan_id":"cebpf4jnsgd1na2vs0mg"},{"bike_id":"4a269658-efc3-43fb-9a59-9805d56ddae4","system_id":"levelo_inurba_marseille","lat":43.26548,"lon":5.37293,"is_reserved":false,"is_disabled":false,"rental_uris":{"android":"levelo://app?vid=4a269658-efc3-43fb-9a59-9805d56ddae4","ios":"levelo://app?vid=4a269658-efc3-43fb-9a59-9805d56ddae4"},"vehicle_type_id":"4","last_reported":1761833405,"current_range_meters":18000,"station_id":"ce4bhg12rcd13ifvqf70","pricing_plan_id":"cebpf4jnsgd1na2vs0mg"},{"bike_id":"9852e0a1-4995-4628-84f2-0d56389f5aef","system_id":"levelo_inurba_marseille","lat":43.317182,"lon":5.423972,"is_reserved":false,"is_disabled":false,"rental_uris":{"android":"levelo://app?vid=9852e0a1-4995-4628-84f2-0d56389f5aef","ios":"levelo://app?vid=9852e0a1-4995-4628-84f2-0d56389f5aef"},"vehicle_type_id":"4","last_reported":1761833405,"current_range_meters":18000,"station_id":"ce4bhp92rcd13ifvqhbg","pricing_plan_id":"cebpf4jnsgd1na2vs0mg"},{"bike_id":"b8f404d3-62c4-4489-a471-d37212346558","system_id":"levelo_inurba_marseille","lat":43.310466,"lon":5.378789,"is_reserved":false,"is_disabled":false,"rental_uris":{"android":"levelo://app?vid=b8f404d3-62c4-4489-a471-d37212346558","ios":"levelo://app?vid=b8f404d3-62c4-4489-a471-d37212346558"},"vehicle_type_id":"4","last_reported":1761833405,"current_range_meters":18000,"station_id":"","pricing_plan_id":"cebpf4jnsgd1na2vs0mg"},{"bike_id":"32a35b9b-6aca-4b70-9bd2-e6acde4ddbcc","system_id":"levelo_inurba_marseille","lat":43.22943,"lon":5.35383,"is_reserved":false,"is_disabled":false,"rental_uris":{"android":"levelo://app?vid=32a35b9b-6aca-4b70-9bd2-e6acde4ddbcc","ios":"levelo://app?vid=32a35b9b-6aca-4b70-9bd2-e6acde4ddbcc"},"vehicle_type_id":"4","last_reported":1761833405,"current_range_meters":18000,"station_id":"cpo3532slgdg3j2ikp40","pricing_plan_id":"cebpf4jnsgd1na2vs0mg"},{"bike_id":"7a9fb83c-20b6-4523-b21c-c0281b479d00","system_id":"levelo_inurba_marseille","lat":43.2835,"lon":5.38106,"is_reserved":false,"is_disabled":false,"rental_uris":{"android":"levelo://app?vid=7a9fb83c-20b6-4523-b21c-c0281b479d00","ios":"levelo://app?vid=7a9fb83c-20b6-4523-b21c-c0281b479d00"},"vehicle_type_id":"4","last_reported":1761833405,"current_range_meters":18000,"station_id":"ce4bh412rcd13ifvqdr0","pricing_plan_id":"cebpf4jnsgd1na2vs0mg"},{"bike_id":"c0a1ab8d-72ff-4114-b274-fdab8f1c3cb0","system_id":"levelo_inurba_marseille","lat":43.24173,"lon":5.39719,"is_reserved":false,"is_disabled":false,"rental_uris":{"android":"levelo://app?vid=c0a1ab8d-72ff-4114-b274-fdab8f1c3cb0","ios":"levelo://app?vid=c0a1ab8d-72ff-4114-b274-fdab8f1c3cb0"},"vehicle_type_id":"4","last_reported":1761833405,"current_range_meters":18800,"station_id":"ce4bhn12rcd13ifvqgpg","pricing_plan_id":"cebpf4jnsgd1na2vs0mg"},{"bike_id":"9da932a5-8f71-41d5-90d3-bb657dc1c603","system_id":"levelo_inurba_marseille","lat":43.276635,"lon":5.388816,"is_reserved":false,"is_disabled":false,"rental_uris":{"android":"levelo://app?vid=9da932a5-8f71-41d5-90d3-bb657dc1c603","ios":"levelo://app?vid=9da932a5-8f71-41d5-90d3-bb657dc1c603"},"vehicle_type_id":"4","last_reported":1761833405,"current_range_meters":18800,"station_id":"ce4bhi12rcd13ifvqfo0","pricing_plan_id":"cebpf4jnsgd1na2vs0mg"},{"bike_id":"9ac8df58-676e-4fc2-9f8b-0af9e67b316e","system_id":"levelo_inurba_marseille","lat":43.295725,"lon":5.375146,"is_reserved":false,"is_disabled":false,"rental_uris":{"android":"levelo://app?vid=9ac8df58-676e-4fc2-9f8b-0af9e67b316e","ios":"levelo://app?vid=9ac8df58-676e-4fc2-9f8b-0af9e67b316e"},"vehicle_type_id":"4","last_reported":1761833405,"current_range_meters":18800,"station_id":"","pricing_plan_id":"cebpf4jnsgd1na2vs0mg"},{"bike_id":"77825bb4-3e2a-495d-a98a-064d3fd7b623","system_id":"levelo_inurba_marseille","lat":43.305395,"lon":5.365645,"is_reserved":false,"is_disabled":false,"rental_uris":{"android":"levelo://app?vid=77825bb4-3e2a-495d-a98a-064d3fd7b623","ios":"levelo://app?vid=77825bb4-3e2a-495d-a98a-064d3fd7b623"},"vehicle_type_id":"4","last_reported":1761833405,"current_range_meters":18800,"station_id":"ce4bgs12rcd13ifvqcag","pricing_plan_id":"cebpf4jnsgd1na2vs0mg"},{"bike_id":"a27ea015-9d73-41b0-aa36-b3953f30b56d","system_id":"levelo_inurba_marseille","lat":43.24634,"lon":5.38906,"is_reserved":false,"is_disabled":false,"rental_uris":{"android":"levelo://app?vid=a27ea015-9d73-41b0-aa36-b3953f30b56d","ios":"levelo://app?vid=a27ea015-9d73-41b0-aa36-b3953f30b56d"},"vehicle_type_id":"4","last_reported":1761833405,"current_range_meters":19200,"station_id":"ce4bhg12rcd13ifvqf60","pricing_plan_id":"cebpf4jnsgd1na2vs0mg"},{"bike_id":"8dda8a7d-2490-4566-8e8e-9e58bcafa24e","system_id":"levelo_inurba_marseille","lat":43.27365,"lon":5.36255,"is_reserved":false,"is_disabled":false,"rental_uris":{"android":"levelo://app?vid=8dda8a7d-2490-4566-8e8e-9e58bcafa24e","ios":"levelo://app?vid=8dda8a7d-2490-4566-8e8e-9e58bcafa24e"},"vehicle_type_id":"4","last_reported":1761833405,"current_range_meters":19200,"station_id":"ce4bhbh2rcd13ifvqeo0","pricing_plan_id":"cebpf4jnsgd1na2vs0mg"},{"bike_id":"50b299dd-eb04-4ec0-b13c-36fb80431a45","system_id":"levelo_inurba_marseille","lat":43.31716,"lon":5.43721,"is_reserved":false,"is_disabled":false,"rental_uris":{"android":"levelo://app?vid=50b299dd-eb04-4ec0-b13c-36fb80431a45","ios":"levelo://app?vid=50b299dd-eb04-4ec0-b13c-36fb80431a45"},"vehicle_type_id":"4","last_reported":1761833405,"current_range_meters":19200,"station_id":"ce4bhp92rcd13ifvqhcg","pricing_plan_id":"cebpf4jnsgd1na2vs0mg"},{"bike_id":"3cdb08b0-77c7-4e1f-ba18-06cdf855b596","system_id":"levelo_inurba_marseille","lat":43.29786,"lon":5.37099,"is_reserved":false,"is_disabled":false,"rental_uris":{"android":"levelo://app?vid=3cdb08b0-77c7-4e1f-ba18-06cdf855b596","ios":"levelo://app?vid=3cdb08b0-77c7-4e1f-ba18-06cdf855b596"},"vehicle_type_id":"4","last_reported":1761833405,"current_range_meters":19200,"station_id":"ce4bgop2rcd13ifvqc1g","pricing_plan_id":"cebpf4jnsgd1na2vs0mg"},{"bike_id":"ee261a32-9de1-4b9e-a923-6c91e1e26176","system_id":"levelo_inurba_marseille","lat":43.28504,"lon":5.4839,"is_reserved":false,"is_disabled":false,"rental_uris":{"android":"levelo://app?vid=ee261a32-9de1-4b9e-a923-6c91e1e26176","ios":"levelo://app?vid=ee261a32-9de1-4b9e-a923-6c91e1e26176"},"vehicle_type_id":"4","last_reported":1761833405,"current_range_meters":19200,"station_id":"st_d3svhcjqgbts73a3dn0g","pricing_plan_id":"cebpf4jnsgd1na2vs0mg"},{"bike_id":"0a9abdf5-79f0-47db-9743-c4be71bd0ac0","system_id":"levelo_inurba_marseille","lat":43.301244,"lon":5.43121,"is_reserved":false,"is_disabled":false,"rental_uris":{"android":"levelo://app?vid=0a9abdf5-79f0-47db-9743-c4be71bd0ac0","ios":"levelo://app?vid=0a9abdf5-79f0-47db-9743-c4be71bd0ac0"},"vehicle_type_id":"4","last_reported":1761833405,"current_range_meters":19200,"station_id":"st_d3js3co5814s73ftftug","pricing_plan_id":"cebpf4jnsgd1na2vs0mg"},{"bike_id":"ade39380-d3ac-4843-aac0-8d8c294215d1","system_id":"levelo_inurba_marseille","lat":43.273745,"lon":5.362607,"is_reserved":false,"is_disabled":false,"rental_uris":{"android":"levelo://app?vid=ade39380-d3ac-4843-aac0-8d8c294215d1","ios":"levelo://app?vid=ade39380-d3ac-4843-aac0-8d8c294215d1"},"vehicle_type_id":"4","last_reported":1761833405,"current_range_meters":19200,"station_id":"ce4bhbh2rcd13ifvqeo0","pricing_plan_id":"cebpf4jnsgd1na2vs0mg"},{"bike_id":"aafb70ec-a77b-46a3-b6fe-dfc7c656bf67","system_id":"levelo_inurba_marseille","lat":43.29596,"lon":5.38109,"is_reserved":false,"is_disabled":false,"rental_uris":{"android":"levelo://app?vid=aafb70ec-a77b-46a3-b6fe-dfc7c656bf67","ios":"levelo://app?vid=aafb70ec-a77b-46a3-b6fe-dfc7c656bf67"},"vehicle_type_id":"4","last_reported":1761833405,"current_range_meters":19200,"station_id":"ce4bgl12rcd13ifvqbo0","pricing_plan_id":"cebpf4jnsgd1na2vs0mg"},{"bike_id":"4c7df9e5-7b07-484f-bae3-75095ca4be64","system_id":"levelo_inurba_marseille","lat":43.29234,"lon":5.36079,"is_reserved":false,"is_disabled":false,"rental_uris":{"android":"levelo://app?vid=4c7df9e5-7b07-484f-bae3-75095ca4be64","ios":"levelo://app?vid=4c7df9e5-7b07-484f-bae3-75095ca4be64"},"vehicle_type_id":"4","last_reported":1761833405,"current_range_meters":19200,"station_id":"ce4bhbh2rcd13ifvqeqg","pricing_plan_id":"cebpf4jnsgd1na2vs0mg"},{"bike_id":"7d25d21d-1831-4eba-9168-89d3ade37c3e","system_id":"levelo_inurba_marseille","lat":43.30284,"lon":5.37725,"is_reserved":false,"is_disabled":false,"rental_uris":{"android":"levelo://app?vid=7d25d21d-1831-4eba-9168-89d3ade37c3e","ios":"levelo://app?vid=7d25d21d-1831-4eba-9168-89d3ade37c3e"},"vehicle_type_id":"4","last_reported":1761833405,"current_range_meters":19200,"station_id":"ce4bguh2rcd13ifvqcj0","pricing_plan_id":"cebpf4jnsgd1na2vs0mg"},{"bike_id":"dbfa8b75-76d2-466a-aaa4-30c98b4d5a54","system_id":"levelo_inurba_marseille","lat":43.29194,"lon":5.39326,"is_reserved":false,"is_disabled":false,"rental_uris":{"android":"levelo://app?vid=dbfa8b75-76d2-466a-aaa4-30c98b4d5a54","ios":"levelo://app?vid=dbfa8b75-76d2-466a-aaa4-30c98b4d5a54"},"vehicle_type_id":"4","last_reported":1761833405,"current_range_meters":19200,"station_id":"ce4bh192rcd13ifvqdd0","pricing_plan_id":"cebpf4jnsgd1na2vs0mg"},{"bike_id":"dc019d93-95a9-47c6-b72a-c76434025334","system_id":"levelo_inurba_marseille","lat":43.30191,"lon":5.36616,"is_reserved":false,"is_disabled":false,"rental_uris":{"android":"levelo://app?vid=dc019d93-95a9-47c6-b72a-c76434025334","ios":"levelo://app?vid=dc019d93-95a9-47c6-b72a-c76434025334"},"vehicle_type_id":"4","last_reported":1761833405,"current_range_meters":19600,"station_id":"ce4bgrh2rcd13ifvqc8g","pricing_plan_id":"cebpf4jnsgd1na2vs0mg"},{"bike_id":"4dfe3a7a-891b-4a3a-a7d8-8b0c8654af30","system_id":"levelo_inurba_marseille","lat":43.260404,"lon":5.37568,"is_reserved":false,"is_disabled":false,"rental_uris":{"android":"levelo://app?vid=4dfe3a7a-891b-4a3a-a7d8-8b0c8654af30","ios":"levelo://app?vid=4dfe3a7a-891b-4a3a-a7d8-8b0c8654af30"},"vehicle_type_id":"4","last_reported":1761833405,"current_range_meters":19600,"station_id":"ce4bhgh2rcd13ifvqfa0","pricing_plan_id":"cebpf4jnsgd1na2vs0mg"},{"bike_id":"f7986849-5488-47e8-b8c2-0ebfdf9d8390","system_id":"levelo_inurba_marseille","lat":43.24658,"lon":5.38175,"is_reserved":false,"is_disabled":false,"rental_uris":{"android":"levelo://app?vid=f7986849-5488-47e8-b8c2-0ebfdf9d8390","ios":"levelo://app?vid=f7986849-5488-47e8-b8c2-0ebfdf9d8390"},"vehicle_type_id":"4","last_reported":1761833405,"current_range_meters":19600,"station_id":"ce4bhih2rcd13ifvqfr0","pricing_plan_id":"cebpf4jnsgd1na2vs0mg"},{"bike_id":"937fa348-a197-40ba-831e-17917fb55595","system_id":"levelo_inurba_marseille","lat":43.295288,"lon":5.375012,"is_reserved":false,"is_disabled":false,"rental_uris":{"android":"levelo://app?vid=937fa348-a197-40ba-831e-17917fb55595","ios":"levelo://app?vid=937fa348-a197-40ba-831e-17917fb55595"},"vehicle_type_id":"4","last_reported":1761833405,"current_range_meters":19600,"station_id":"ce4bgkp2rcd13ifvqbmg","pricing_plan_id":"cebpf4jnsgd1na2vs0mg"},{"bike_id":"179ce6e6-2ed9-442e-92a4-9e439bdae226","system_id":"levelo_inurba_marseille","lat":43.31206,"lon":5.36836,"is_reserved":false,"is_disabled":false,"rental_uris":{"android":"levelo://app?vid=179ce6e6-2ed9-442e-92a4-9e439bdae226","ios":"levelo://app?vid=179ce6e6-2ed9-442e-92a4-9e439bdae226"},"vehicle_type_id":"4","last_reported":1761833405,"current_range_meters":19600,"station_id":"ce4bgl92rcd13ifvqbq0","pricing_plan_id":"cebpf4jnsgd1na2vs0mg"},{"bike_id":"8addfb9c-68d4-4b75-8da3-df90ea7c453f","system_id":"levelo_inurba_marseille","lat":43.30958,"lon":5.39037,"is_reserved":false,"is_disabled":false,"rental_uris":{"android":"levelo://app?vid=8addfb9c-68d4-4b75-8da3-df90ea7c453f","ios":"levelo://app?vid=8addfb9c-68d4-4b75-8da3-df90ea7c453f"},"vehicle_type_id":"4","last_reported":1761833405,"current_range_meters":19600,"station_id":"ce4bgup2rcd13ifvqco0","pricing_plan_id":"cebpf4jnsgd1na2vs0mg"},{"bike_id":"3e147cc7-1c05-4c10-88db-3d10fe34fe3a","system_id":"levelo_inurba_marseille","lat":43.24638,"lon":5.43146,"is_reserved":false,"is_disabled":false,"rental_uris":{"android":"levelo://app?vid=3e147cc7-1c05-4c10-88db-3d10fe34fe3a","ios":"levelo://app?vid=3e147cc7-1c05-4c10-88db-3d10fe34fe3a"},"vehicle_type_id":"4","last_reported":1761833405,"current_range_meters":19600,"station_id":"st_d2m6c4gdas8pm72e190g","pricing_plan_id":"cebpf4jnsgd1na2vs0mg"},{"bike_id":"dedb4f63-ea54-40fc-9c19-5ff9807fc89a","system_id":"levelo_inurba_marseille","lat":43.27374,"lon":5.36261,"is_reserved":false,"is_disabled":false,"rental_uris":{"android":"levelo://app?vid=dedb4f63-ea54-40fc-9c19-5ff9807fc89a","ios":"levelo://app?vid=dedb4f63-ea54-40fc-9c19-5ff9807fc89a"},"vehicle_type_id":"4","last_reported":1761833405,"current_range_meters":19600,"station_id":"ce4bhbh2rcd13ifvqeo0","pricing_plan_id":"cebpf4jnsgd1na2vs0mg"},{"bike_id":"af2c285e-f32d-4d8d-ae09-9412491fbea1","system_id":"levelo_inurba_marseille","lat":43.29531,"lon":5.37506,"is_reserved":false,"is_disabled":false,"rental_uris":{"android":"levelo://app?vid=af2c285e-f32d-4d8d-ae09-9412491fbea1","ios":"levelo://app?vid=af2c285e-f32d-4d8d-ae09-9412491fbea1"},"vehicle_type_id":"4","last_reported":1761833405,"current_range_meters":20000,"station_id":"ce4bgkp2rcd13ifvqbmg","pricing_plan_id":"cebpf4jnsgd1na2vs0mg"},{"bike_id":"4dfda3f6-0107-4abe-9691-c087da796c03","system_id":"levelo_inurba_marseille","lat":43.2904,"lon":5.37581,"is_reserved":false,"is_disabled":false,"rental_uris":{"android":"levelo://app?vid=4dfda3f6-0107-4abe-9691-c087da796c03","ios":"levelo://app?vid=4dfda3f6-0107-4abe-9691-c087da796c03"},"vehicle_type_id":"4","last_reported":1761833405,"current_range_meters":20000,"station_id":"ce4bh692rcd13ifvqe90","pricing_plan_id":"cebpf4jnsgd1na2vs0mg"},{"bike_id":"e974006c-e3c8-4c1a-9a8d-ea5c7e7acb49","system_id":"levelo_inurba_marseille","lat":43.285362,"lon":5.44098,"is_reserved":false,"is_disabled":false,"rental_uris":{"android":"levelo://app?vid=e974006c-e3c8-4c1a-9a8d-ea5c7e7acb49","ios":"levelo://app?vid=e974006c-e3c8-4c1a-9a8d-ea5c7e7acb49"},"vehicle_type_id":"4","last_reported":1761833405,"current_range_meters":20000,"station_id":"st_d3j3df2ikq2c7380ej80","pricing_plan_id":"cebpf4jnsgd1na2vs0mg"},{"bike_id":"e02b8061-ba2d-4d7c-8048-3c9472854eb0","system_id":"levelo_inurba_marseille","lat":43.27365,"lon":5.39072,"is_reserved":false,"is_disabled":false,"rental_uris":{"android":"levelo://app?vid=e02b8061-ba2d-4d7c-8048-3c9472854eb0","ios":"levelo://app?vid=e02b8061-ba2d-4d7c-8048-3c9472854eb0"},"vehicle_type_id":"4","last_reported":1761833405,"current_range_meters":20000,"station_id":"","pricing_plan_id":"cebpf4jnsgd1na2vs0mg"},{"bike_id":"3de66f8b-79d6-4293-b9e8-b41af2d7ad2e","system_id":"levelo_inurba_marseille","lat":43.30423,"lon":5.41295,"is_reserved":false,"is_disabled":false,"rental_uris":{"android":"levelo://app?vid=3de66f8b-79d6-4293-b9e8-b41af2d7ad2e","ios":"levelo://app?vid=3de66f8b-79d6-4293-b9e8-b41af2d7ad2e"},"vehicle_type_id":"4","last_reported":1761833405,"current_range_meters":20000,"station_id":"ce4bhop2rcd13ifvqh8g","pricing_plan_id":"cebpf4jnsgd1na2vs0mg"},{"bike_id":"d09d98ee-bea7-4a20-b7b9-bff4910302ec","system_id":"levelo_inurba_marseille","lat":43.31368,"lon":5.37214,"is_reserved":false,"is_disabled":false,"rental_uris":{"android":"levelo://app?vid=d09d98ee-bea7-4a20-b7b9-bff4910302ec","ios":"levelo://app?vid=d09d98ee-bea7-4a20-b7b9-bff4910302ec"},"vehicle_type_id":"4","last_reported":1761833405,"current_range_meters":20000,"station_id":"","pricing_plan_id":"cebpf4jnsgd1na2vs0mg"},{"bike_id":"90cc4e35-1e9a-4d48-878d-a3997094c0ce","system_id":"levelo_inurba_marseille","lat":43.24637,"lon":5.43133,"is_reserved":false,"is_disabled":false,"rental_uris":{"android":"levelo://app?vid=90cc4e35-1e9a-4d48-878d-a3997094c0ce","ios":"levelo://app?vid=90cc4e35-1e9a-4d48-878d-a3997094c0ce"},"vehicle_type_id":"4","last_reported":1761833405,"current_range_meters":20000,"station_id":"st_d2m6c4gdas8pm72e190g","pricing_plan_id":"cebpf4jnsgd1na2vs0mg"},{"bike_id":"dcbb1bcf-3578-4538-9c07-4308781b29eb","system_id":"levelo_inurba_marseille","lat":43.25727,"lon":5.41112,"is_reserved":false,"is_disabled":false,"rental_uris":{"android":"levelo://app?vid=dcbb1bcf-3578-4538-9c07-4308781b29eb","ios":"levelo://app?vid=dcbb1bcf-3578-4538-9c07-4308781b29eb"},"vehicle_type_id":"4","last_reported":1761833405,"current_range_meters":20400,"station_id":"ce4bhkp2rcd13ifvqgd0","pricing_plan_id":"cebpf4jnsgd1na2vs0mg"},