{"last_updated":1703196363,"ttl":30,"version":"2.2","data":{"bikes":[{"bike_id":"3f165bd7-2447-4d48-82ef-d0fdf1685239","system_id":"levelo_inurba_marseille","lat":43.312239,"lon":5.368562,"is_reserved":false,"is_disabled":false,"rental_uris":{"android":"levelo://app?vid=3f165bd7-2447-4d48-82ef-d0fdf1685239","ios":"levelo://app?vid=3f165bd7-2447-4d48-82ef-d0fdf1685239"},"vehicle_type_id":"4","last_reported":1703196364,"current_range_meters":21200,"station_id":"ce4bgl92rcd13ifvqbq0","pricing_plan_id":"free"},{"bike_id":"97bcd857-7bb6-4540-9e17-566d8bbdb6fe","system_id":"levelo_inurba_marseille","lat":43.314811,"lon":5.373103,"is_reserved":false,"is_disabled":false,"rental_uris":{"android":"levelo://app?vid=97bcd857-7bb6-4540-9e17-566d8bbdb6fe","ios":"levelo://app?vid=97bcd857-7bb6-4540-9e17-566d8bbdb6fe"},"vehicle_type_id":"4","last_reported":1703196364,"current_range_meters":21600,"station_id":"ce4bgt12rcd13ifvqcd0","pricing_plan_id":"free"},{"bike_id":"f558af9e-816d-4927-8f8c-5cf13710a33d","system_id":"levelo_inurba_marseille","lat":43.309039,"lon":5.371797,"is_reserved":false,"is_disabled":false,"rental_uris":{"android":"levelo://app?vid=f558af9e-816d-4927-8f8c-5cf13710a33d","ios":"levelo://app?vid=f558af9e-816d-4927-8f8c-5cf13710a33d"},"vehicle_type_id":"4","last_reported":1703196364,"current_range_meters":24800,"station_id":"ce4bguh2rcd13ifvqckg","pricing_plan_id":"free"},{"bike_id":"492b87f2-ef87-4d81-abd0-12d5e227433c","system_id":"levelo_inurba_marseille","lat":43.309039,"lon":5.371797,"is_reserved":false,"is_disabled":false,"rental_uris":{"android":"levelo://app?vid=492b87f2-ef87-4d81-abd0-12d5e227433c","ios":"levelo://app?vid=492b87f2-ef87-4d81-abd0-12d5e227433c"},"vehicle_type_id":"4","last_reported":1703196364,"current_range_meters":25600,"station_id":"ce4bguh2rcd13ifvqckg","pricing_plan_id":"free"},{"bike_id":"a3b00ee6-46aa-4401-9ca1-14ed5c31feed","system_id":"levelo_inurba_marseille","lat":43.305989,"lon":5.37225,"is_reserved":false,"is_disabled":false,"rental_uris":{"android":"levelo://app?vid=a3b00ee6-46aa-4401-9ca1-14ed5c31feed","ios":"levelo://app?vid=a3b00ee6-46aa-4401-9ca1-14ed5c31feed"},"vehicle_type_id":"4","last_reported":1703196364,"current_range_meters":25200,"station_id":"ce4bgqh2rcd13ifvqc4g","pricing_plan_id":"free"},{"bike_id":"2c7b79af-09e0-4238-8c42-2ce974430ca4","system_id":"levelo_inurba_marseille","lat":43.305989,"lon":5.37225,"is_reserved":false,"is_disabled":false,"rental_uris":{"android":"levelo://app?vid=2c7b79af-09e0-4238-8c42-2ce974430ca4","ios":"levelo://app?vid=2c7b79af-09e0-4238-8c42-2ce974430ca4"},"vehicle_type_id":"4","last_reported":1703196364,"current_range_meters":800,"station_id":"ce4bgqh2rcd13ifvqc4g","pricing_plan_id":"free"},{"bike_id":"386c82fe-10d7-49c7-8d0b-ee164cbd52f7","system_id":"levelo_inurba_marseille","lat":43.305989,"lon":5.37225,"is_reserved":false,"is_disabled":false,"rental_uris":{"android":"levelo://app?vid=386c82fe-10d7-49c7-8d0b-ee164cbd52f7","ios":"levelo://app?vid=386c82fe-10d7-49c7-8d0b-ee164cbd52f7"},"vehicle_type_id":"4","last_reported":1703196364,"current_range_meters":27600,"station_id":"ce4bgqh2rcd13ifvqc4g","pricing_plan_id":"free"},{"bike_id":"3f7382c3-8eb3-4665-b4f9-5d14aa0fb469","system_id":"levelo_inurba_marseille","lat":43.311125,"lon":5.377624,"is_reserved":false,"is_disabled":false,"rental_uris":{"android":"levelo://app?vid=3f7382c3-8eb3-4665-b4f9-5d14aa0fb469","ios":"levelo://app?vid=3f7382c3-8eb3-4665-b4f9-5d14aa0fb469"},"vehicle_type_id":"4","last_reported":1703196364,"current_range_meters":24800,"station_id":"ce4bgt92rcd13ifvqcg0","pricing_plan_id":"free"},{"bike_id":"22bc17d1-ff8b-4310-9fa0-9af6c0cd0cb5","system_id":"levelo_inurba_marseille","lat":43.30304,"lon":5.368987,"is_reserved":false,"is_disabled":false,"rental_uris":{"android":"levelo://app?vid=22bc17d1-ff8b-4310-9fa0-9af6c0cd0cb5","ios":"levelo://app?vid=22bc17d1-ff8b-4310-9fa0-9af6c0cd0cb5"},"vehicle_type_id":"4","last_reported":1703196364,"current_range_meters":14800,"station_id":"ce4bgqh2rcd13ifvqc5g","pricing_plan_id":"free"},{"bike_id":"6c662160-2878-403e-9cb2-748204edb49f","system_id":"levelo_inurba_marseille","lat":43.315373,"lon":5.380294,"is_reserved":false,"is_disabled":false,"rental_uris":{"android":"levelo://app?vid=6c662160-2878-403e-9cb2-748204edb49f","ios":"levelo://app?vid=6c662160-2878-403e-9cb2-748204edb49f"},"vehicle_type_id":"4","last_reported":1703196364,"current_range_meters":6400,"station_id":"ce4bhsp2rcd13ifvqi50","pricing_plan_id":"free"},{"bike_id":"882be059-391f-4de1-8692-150c5db58c11","system_id":"levelo_inurba_marseille","lat":43.31531,"lon":5.38044,"is_reserved":false,"is_disabled":false,"rental_uris":{"android":"levelo://app?vid=882be059-391f-4de1-8692-150c5db58c11","ios":"levelo://app?vid=882be059-391f-4de1-8692-150c5db58c11"},"vehicle_type_id":"4","last_reported":1703196364,"current_range_meters":0,"station_id":"ce4bhsp2rcd13ifvqi50","pricing_plan_id":"free"},{"bike_id":"b308f8c2-ba33-4192-af9f-5fa5a39279bb","system_id":"levelo_inurba_marseille","lat":43.301939,"lon":5.366286,"is_reserved":false,"is_disabled":false,"rental_uris":{"android":"levelo://app?vid=b308f8c2-ba33-4192-af9f-5fa5a39279bb","ios":"levelo://app?vid=b308f8c2-ba33-4192-af9f-5fa5a39279bb"},"vehicle_type_id":"4","last_reported":1703196364,"current_range_meters":28400,"station_id":"ce4bgrh2rcd13ifvqc8g","pricing_plan_id":"free"},{"bike_id":"a93d2dad-c0a9-4b29-80e8-6798190215d1","system_id":"levelo_inurba_marseille","lat":43.301939,"lon":5.366286,"is_reserved":false,"is_disabled":false,"rental_uris":{"android":"levelo://app?vid=a93d2dad-c0a9-4b29-80e8-6798190215d1","ios":"levelo://app?vid=a93d2dad-c0a9-4b29-80e8-6798190215d1"},"vehicle_type_id":"4","last_reported":1703196364,"current_range_meters":0,"station_id":"ce4bgrh2rcd13ifvqc8g","pricing_plan_id":"free"},{"bike_id":"26e4b55d-4243-4287-9e88-fbeda384b486","system_id":"levelo_inurba_marseille","lat":43.310852,"lon":5.381908,"is_reserved":false,"is_disabled":false,"rental_uris":{"android":"levelo://app?vid=26e4b55d-4243-4287-9e88-fbeda384b486","ios":"levelo://app?vid=26e4b55d-4243-4287-9e88-fbeda384b486"},"vehicle_type_id":"4","last_reported":1703196364,"current_range_meters":12400,"station_id":"","pricing_plan_id":"free"},{"bike_id":"0f29f9fc-ade1-445d-ba8d-4631c9525c9b","system_id":"levelo_inurba_marseille","lat":43.30636,"lon":5.37995,"is_reserved":false,"is_disabled":false,"rental_uris":{"android":"levelo://app?vid=0f29f9fc-ade1-445d-ba8d-4631c9525c9b","ios":"levelo://app?vid=0f29f9fc-ade1-445d-ba8d-4631c9525c9b"},"vehicle_type_id":"4","last_reported":1703196364,"current_range_meters":0,"station_id":"","pricing_plan_id":"free"},{"bike_id":"fdc7b46a-b9cc-4b7e-bfa0-64ffad58f770","system_id":"levelo_inurba_marseille","lat":43.308012,"lon":5.381511,"is_reserved":false,"is_disabled":false,"rental_uris":{"android":"levelo://app?vid=fdc7b46a-b9cc-4b7e-bfa0-64ffad58f770","ios":"levelo://app?vid=fdc7b46a-b9cc-4b7e-bfa0-64ffad58f770"},"vehicle_type_id":"4","last_reported":1703196364,"current_range_meters":5200,"station_id":"ce4bgt12rcd13ifvqce0","pricing_plan_id":"free"},{"bike_id":"ea63f5ff-ed2a-4a1c-a64b-fef4232b63de","system_id":"levelo_inurba_marseille","lat":43.324771,"lon":5.36557,"is_reserved":false,"is_disabled":false,"rental_uris":{"android":"levelo://app?vid=ea63f5ff-ed2a-4a1c-a64b-fef4232b63de","ios":"levelo://app?vid=ea63f5ff-ed2a-4a1c-a64b-fef4232b63de"},"vehicle_type_id":"4","last_reported":1703196364,"current_range_meters":4800,"station_id":"ce4bhs12rcd13ifvqhvg","pricing_plan_id":"free"},{"bike_id":"e52f9475-58f3-4f52-9805-0db351cd971e","system_id":"levelo_inurba_marseille","lat":43.302784,"lon":5.377158,"is_reserved":false,"is_disabled":false,"rental_uris":{"android":"levelo://app?vid=e52f9475-58f3-4f52-9805-0db351cd971e","ios":"levelo://app?vid=e52f9475-58f3-4f52-9805-0db351cd971e"},"vehicle_type_id":"4","last_reported":1703196364,"current_range_meters":7200,"station_id":"ce4bguh2rcd13ifvqcj0","pricing_plan_id":"free"},{"bike_id":"dc0f6af5-c02c-4610-baea-e5c6ca16f530","system_id":"levelo_inurba_marseille","lat":43.319964,"lon":5.381478,"is_reserved":false,"is_disabled":false,"rental_uris":{"android":"levelo://app?vid=dc0f6af5-c02c-4610-baea-e5c6ca16f530","ios":"levelo://app?vid=dc0f6af5-c02c-4610-baea-e5c6ca16f530"},"vehicle_type_id":"4","last_reported":1703196364,"current_range_meters":30800,"station_id":"ce4bhr12rcd13ifvqhpg","pricing_plan_id":"free"},{"bike_id":"51360f23-00df-4b8c-b369-faeb35be788d","system_id":"levelo_inurba_marseille","lat":43.319935,"lon":5.381699,"is_reserved":false,"is_disabled":false,"rental_uris":{"android":"levelo://app?vid=51360f23-00df-4b8c-b369-faeb35be788d","ios":"levelo://app?vid=51360f23-00df-4b8c-b369-faeb35be788d"},"vehicle_type_id":"4","last_reported":1703196364,"current_range_meters":29600,"station_id":"ce4bhr12rcd13ifvqhpg","pricing_plan_id":"free"},{"bike_id":"0effb7f6-23e5-4f02-a1eb-80bdf14a191a","system_id":"levelo_inurba_marseille","lat":43.319925,"lon":5.381547,"is_reserved":false,"is_disabled":false,"rental_uris":{"android":"levelo://app?vid=0effb7f6-23e5-4f02-a1eb-80bdf14a191a","ios":"levelo://app?vid=0effb7f6-23e5-4f02-a1eb-80bdf14a191a"},"vehicle_type_id":"4","last_reported":1703196364,"current_range_meters":31200,"station_id":"ce4bhr12rcd13ifvqhpg","pricing_plan_id":"free"},{"bike_id":"500571ea-4fba-4810-9e11-0fd87d0b12b3","system_id":"levelo_inurba_marseille","lat":43.319935,"lon":5.381699,"is_reserved":false,"is_disabled":false,"rental_uris":{"android":"levelo://app?vid=500571ea-4fba-4810-9e11-0fd87d0b12b3","ios":"levelo://app?vid=500571ea-4fba-4810-9e11-0fd87d0b12b3"},"vehicle_type_id":"4","last_reported":1703196364,"current_range_meters":29200,"station_id":"ce4bhr12rcd13ifvqhpg","pricing_plan_id":"free"},{"bike_id":"af0ab532-e26f-41d4-b9ce-17ae08ae4cee","system_id":"levelo_inurba_marseille","lat":43.320005,"lon":5.381601,"is_reserved":false,"is_disabled":false,"rental_uris":{"android":"levelo://app?vid=af0ab532-e26f-41d4-b9ce-17ae08ae4cee","ios":"levelo://app?vid=af0ab532-e26f-41d4-b9ce-17ae08ae4cee"},"vehicle_type_id":"4","last_reported":1703196364,"current_range_meters":8800,"station_id":"ce4bhr12rcd13ifvqhpg","pricing_plan_id":"free"},{"bike_id":"c5cae810-39cc-4218-86e0-83a8342df03b","system_id":"levelo_inurba_marseille","lat":43.325747,"lon":5.366387,"is_reserved":false,"is_disabled":false,"rental_uris":{"android":"levelo://app?vid=c5cae810-39cc-4218-86e0-83a8342df03b","ios":"levelo://app?vid=c5cae810-39cc-4218-86e0-83a8342df03b"},"vehicle_type_id":"4","last_reported":1703196364,"current_range_meters":11200,"station_id":"","pricing_plan_id":"free"},{"bike_id":"6c8e9413-1a3f-4707-a277-42fdfc09d431","system_id":"levelo_inurba_marseille","lat":43.299724,"lon":5.371829,"is_reserved":false,"is_disabled":false,"rental_uris":{"android":"levelo://app?vid=6c8e9413-1a3f-4707-a277-42fdfc09d431","ios":"levelo://app?vid=6c8e9413-1a3f-4707-a277-42fdfc09d431"},"vehicle_type_id":"4","last_reported":1703196364,"current_range_meters":28400,"station_id":"ce4bgr92rcd13ifvqc7g","pricing_plan_id":"free"},{"bike_id":"2dd73ae6-cf2b-4e57-bdc8-26fede62deb4","system_id":"levelo_inurba_marseille","lat":43.299222,"lon":5.365554,"is_reserved":false,"is_disabled":false,"rental_uris":{"android":"levelo://app?vid=2dd73ae6-cf2b-4e57-bdc8-26fede62deb4","ios":"levelo://app?vid=2dd73ae6-cf2b-4e57-bdc8-26fede62deb4"},"vehicle_type_id":"4","last_reported":1703196364,"current_range_meters":22000,"station_id":"ce4bgm92rcd13ifvqbr0","pricing_plan_id":"free"},{"bike_id":"2e9f5103-6aa1-498d-96e6-3f66cfffb65f","system_id":"levelo_inurba_marseille","lat":43.299724,"lon":5.371829,"is_reserved":false,"is_disabled":false,"rental_uris":{"android":"levelo://app?vid=2e9f5103-6aa1-498d-96e6-3f66cfffb65f","ios":"levelo://app?vid=2e9f5103-6aa1-498d-96e6-3f66cfffb65f"},"vehicle_type_id":"4","last_reported":1703196364,"current_range_meters":18800,"station_id":"ce4bgr92rcd13ifvqc7g","pricing_plan_id":"free"},{"bike_id":"f1c0c3e9-ac08-4a1d-882e-5abea29e8414","system_id":"levelo_inurba_marseille","lat":43.298433,"lon":5.362774,"is_reserved":false,"is_disabled":false,"rental_uris":{"android":"levelo://app?vid=f1c0c3e9-ac08-4a1d-882e-5abea29e8414","ios":"levelo://app?vid=f1c0c3e9-ac08-4a1d-882e-5abea29e8414"},"vehicle_type_id":"4","last_reported":1703196364,"current_range_meters":27200,"station_id":"ce4bgpp2rcd13ifvqc3g","pricing_plan_id":"free"},{"bike_id":"76f32eff-77ff-43ae-a091-dc6f022bbd1d","system_id":"levelo_inurba_marseille","lat":43.311722,"lon":5.387247,"is_reserved":false,"is_disabled":false,"rental_uris":{"android":"levelo://app?vid=76f32eff-77ff-43ae-a091-dc6f022bbd1d","ios":"levelo://app?vid=76f32eff-77ff-43ae-a091-dc6f022bbd1d"},"vehicle_type_id":"4","last_reported":1703196364,"current_range_meters":2800,"station_id":"ce4bgv12rcd13ifvqcp0","pricing_plan_id":"free"},{"bike_id":"aa26c708-c384-40e3-b40c-f93f26be9d99","system_id":"levelo_inurba_marseille","lat":43.311722,"lon":5.387247,"is_reserved":false,"is_disabled":false,"rental_uris":{"android":"levelo://app?vid=aa26c708-c384-40e3-b40c-f93f26be9d99","ios":"levelo://app?vid=aa26c708-c384-40e3-b40c-f93f26be9d99"},"vehicle_type_id":"4","last_reported":1703196364,"current_range_meters":17600,"station_id":"ce4bgv12rcd13ifvqcp0","pricing_plan_id":"free"},{"bike_id":"0cdbd0f0-d3c9-4a82-8c6d-6ffa03bfbf25","system_id":"levelo_inurba_marseille","lat":43.326937,"lon":5.373183,"is_reserved":false,"is_disabled":false,"rental_uris":{"android":"levelo://app?vid=0cdbd0f0-d3c9-4a82-8c6d-6ffa03bfbf25","ios":"levelo://app?vid=0cdbd0f0-d3c9-4a82-8c6d-6ffa03bfbf25"},"vehicle_type_id":"4","last_reported":1703196364,"current_range_meters":18800,"station_id":"","pricing_plan_id":"free"},{"bike_id":"1378810b-812d-44e5-847a-1b7aeb90e4c4","system_id":"levelo_inurba_marseille","lat":43.29882,"lon":5.375,"is_reserved":false,"is_disabled":false,"rental_uris":{"android":"levelo://app?vid=1378810b-812d-44e5-847a-1b7aeb90e4c4","ios":"levelo://app?vid=1378810b-812d-44e5-847a-1b7aeb90e4c4"},"vehicle_type_id":"4","last_reported":1703196364,"current_range_meters":13600,"station_id":"","pricing_plan_id":"free"},{"bike_id":"ae1f8c4d-1e19-4507-b3e2-1aab6bd85eb3","system_id":"levelo_inurba_marseille","lat":43.297794,"lon":5.370888,"is_reserved":false,"is_disabled":false,"rental_uris":{"android":"levelo://app?vid=ae1f8c4d-1e19-4507-b3e2-1aab6bd85eb3","ios":"levelo://app?vid=ae1f8c4d-1e19-4507-b3e2-1aab6bd85eb3"},"vehicle_type_id":"4","last_reported":1703196364,"current_range_meters":19600,"station_id":"ce4bgop2rcd13ifvqc1g","pricing_plan_id":"free"},{"bike_id":"b58c4005-ed15-40ec-b249-38d0c39e7d3b","system_id":"levelo_inurba_marseille","lat":43.322872,"lon":5.382756,"is_reserved":false,"is_disabled":false,"rental_uris":{"android":"levelo://app?vid=b58c4005-ed15-40ec-b249-38d0c39e7d3b","ios":"levelo://app?vid=b58c4005-ed15-40ec-b249-38d0c39e7d3b"},"vehicle_type_id":"4","last_reported":1703196364,"current_range_meters":12400,"station_id":"ce4bhr12rcd13ifvqhqg","pricing_plan_id":"free"},{"bike_id":"2d0ccb8c-a8f7-4ee9-8463-316526ef0ad5","system_id":"levelo_inurba_marseille","lat":43.322872,"lon":5.382756,"is_reserved":false,"is_disabled":false,"rental_uris":{"android":"levelo://app?vid=2d0ccb8c-a8f7-4ee9-8463-316526ef0ad5","ios":"levelo://app?vid=2d0ccb8c-a8f7-4ee9-8463-316526ef0ad5"},"vehicle_type_id":"4","last_reported":1703196364,"current_range_meters":31200,"station_id":"ce4bhr12rcd13ifvqhqg","pricing_plan_id":"free"},{"bike_id":"f6678c52-8fdb-46d8-969e-3297a365c131","system_id":"levelo_inurba_marseille","lat":43.322872,"lon":5.382756,"is_reserved":false,"is_disabled":false,"rental_uris":{"android":"levelo://app?vid=f6678c52-8fdb-46d8-969e-3297a365c131","ios":"levelo://app?vid=f6678c52-8fdb-46d8-969e-3297a365c131"},"vehicle_type_id":"4","last_reported":1703196364,"current_range_meters":28000,"station_id":"ce4bhr12rcd13ifvqhqg","pricing_plan_id":"free"},{"bike_id":"e299beb3-acc1-46fa-9fec-22d2fe5e6b13","system_id":"levelo_inurba_marseille","lat":43.32828,"lon":5.36675,"is_reserved":false,"is_disabled":false,"rental_uris":{"android":"levelo://app?vid=e299beb3-acc1-46fa-9fec-22d2fe5e6b13","ios":"levelo://app?vid=e299beb3-acc1-46fa-9fec-22d2fe5e6b13"},"vehicle_type_id":"4","last_reported":1703196364,"current_range_meters":20800,"station_id":"ce4bhs92rcd13ifvqi0g","pricing_plan_id":"free"},{"bike_id":"8bf0395d-c27d-407d-bf00-1fe14b7d1f01","system_id":"levelo_inurba_marseille","lat":43.32829,"lon":5.36682,"is_reserved":false,"is_disabled":false,"rental_uris":{"android":"levelo://app?vid=8bf0395d-c27d-407d-bf00-1fe14b7d1f01","ios":"levelo://app?vid=8bf0395d-c27d-407d-bf00-1fe14b7d1f01"},"vehicle_type_id":"4","last_reported":1703196364,"current_range_meters":8400,"station_id":"ce4bhs92rcd13ifvqi0g","pricing_plan_id":"free"},{"bike_id":"684c5c3f-3697-417a-8f5a-512984e93bcf","system_id":"levelo_inurba_marseille","lat":43.297163,"lon":5.365866,"is_reserved":false,"is_disabled":false,"rental_uris":{"android":"levelo://app?vid=684c5c3f-3697-417a-8f5a-512984e93bcf","ios":"levelo://app?vid=684c5c3f-3697-417a-8f5a-512984e93bcf"},"vehicle_type_id":"4","last_reported":1703196364,"current_range_meters":5600,"station_id":"ce4bgn12rcd13ifvqbt0","pricing_plan_id":"free"},{"bike_id":"220dbcc5-f9b9-4ec1-a000-a1e02fed0e9b","system_id":"levelo_inurba_marseille","lat":43.295938,"lon":5.367819,"is_reserved":false,"is_disabled":false,"rental_uris":{"android":"levelo://app?vid=220dbcc5-f9b9-4ec1-a000-a1e02fed0e9b","ios":"levelo://app?vid=220dbcc5-f9b9-4ec1-a000-a1e02fed0e9b"},"vehicle_type_id":"4","last_reported":1703196364,"current_range_meters":23600,"station_id":"","pricing_plan_id":"free"},{"bike_id":"90968a67-98fa-4167-9faf-bddd9dbebd09","system_id":"levelo_inurba_marseille","lat":43.296131,"lon":5.370773,"is_reserved":false,"is_disabled":false,"rental_uris":{"android":"levelo://app?vid=90968a67-98fa-4167-9faf-bddd9dbebd09","ios":"levelo://app?vid=90968a67-98fa-4167-9faf-bddd9dbebd09"},"vehicle_type_id":"4","last_reported":1703196364,"current_range_meters":19200,"station_id":"ce4bgnh2rcd13ifvqc0g","pricing_plan_id":"free"},{"bike_id":"e59074bb-49fe-49a4-9b5c-50c0e3847ad9","system_id":"levelo_inurba_marseille","lat":43.29573,"lon":5.367355,"is_reserved":false,"is_disabled":false,"rental_uris":{"android":"levelo://app?vid=e59074bb-49fe-49a4-9b5c-50c0e3847ad9","ios":"levelo://app?vid=e59074bb-49fe-49a4-9b5c-50c0e3847ad9"},"vehicle_type_id":"4","last_reported":1703196364,"current_range_meters":23600,"station_id":"ce4bgph2rcd13ifvqc2g","pricing_plan_id":"free"},{"bike_id":"87408ba8-94e3-4190-9a1c-3dc92e5aa134","system_id":"levelo_inurba_marseille","lat":43.309589,"lon":5.390258,"is_reserved":false,"is_disabled":false,"rental_uris":{"android":"levelo://app?vid=87408ba8-94e3-4190-9a1c-3dc92e5aa134","ios":"levelo://app?vid=87408ba8-94e3-4190-9a1c-3dc92e5aa134"},"vehicle_type_id":"4","last_reported":1703196364,"current_range_meters":18400,"station_id":"ce4bgup2rcd13ifvqco0","pricing_plan_id":"free"},{"bike_id":"834b9782-39e8-4602-8b8d-ea95026281ec","system_id":"levelo_inurba_marseille","lat":43.317575,"lon":5.390157,"is_reserved":false,"is_disabled":false,"rental_uris":{"android":"levelo://app?vid=834b9782-39e8-4602-8b8d-ea95026281ec","ios":"levelo://app?vid=834b9782-39e8-4602-8b8d-ea95026281ec"},"vehicle_type_id":"4","last_reported":1703196364,"current_range_meters":2800,"station_id":"ce4bhqp2rcd13ifvqhng","pricing_plan_id":"free"},{"bike_id":"7b89b0ee-9ba8-4aaf-8663-348001241aa8","system_id":"levelo_inurba_marseille","lat":43.317557,"lon":5.390173,"is_reserved":false,"is_disabled":false,"rental_uris":{"android":"levelo://app?vid=7b89b0ee-9ba8-4aaf-8663-348001241aa8","ios":"levelo://app?vid=7b89b0ee-9ba8-4aaf-8663-348001241aa8"},"vehicle_type_id":"4","last_reported":1703196364,"current_range_meters":27200,"station_id":"ce4bhqp2rcd13ifvqhng","pricing_plan_id":"free"},{"bike_id":"53d02047-2fc2-4d30-88b2-583fd58923ab","system_id":"levelo_inurba_marseille","lat":43.317557,"lon":5.390173,"is_reserved":false,"is_disabled":false,"rental_uris":{"android":"levelo://app?vid=53d02047-2fc2-4d30-88b2-583fd58923ab","ios":"levelo://app?vid=53d02047-2fc2-4d30-88b2-583fd58923ab"},"vehicle_type_id":"4","last_reported":1703196364,"current_range_meters":26800,"station_id":"ce4bhqp2rcd13ifvqhng","pricing_plan_id":"free"},{"bike_id":"ae888067-7f3e-4e33-92b8-11e8d530e87c","system_id":"levelo_inurba_marseille","lat":43.304274,"lon":5.388873,"is_reserved":false,"is_disabled":false,"rental_uris":{"android":"levelo://app?vid=ae888067-7f3e-4e33-92b8-11e8d530e87c","ios":"levelo://app?vid=ae888067-7f3e-4e33-92b8-11e8d530e87c"},"vehicle_type_id":"4","last_reported":1703196364,"current_range_meters":22400,"station_id":"ce4bgk12rcd13ifvqbi0","pricing_plan_id":"free"},{"bike_id":"94f020cf-be68-4563-ac4e-311a4afbc303","system_id":"levelo_inurba_marseille","lat":43.304278,"lon":5.388868,"is_reserved":false,"is_disabled":false,"rental_uris":{"android":"levelo://app?vid=94f020cf-be68-4563-ac4e-311a4afbc303","ios":"levelo://app?vid=94f020cf-be68-4563-ac4e-311a4afbc303"},"vehicle_type_id":"4","last_reported":1703196364,"current_range_meters":800,"station_id":"ce4bgk12rcd13ifvqbi0","pricing_plan_id":"free"},{"bike_id":"319f3744-f359-46e4-a09b-82c1c105bfd0","system_id":"levelo_inurba_marseille","lat":43.295748,"lon":5.37522,"is_reserved":false,"is_disabled":false,"rental_uris":{"android":"levelo://app?vid=319f3744-f359-46e4-a09b-82c1c105bfd0","ios":"levelo://app?vid=319f3744-f359-46e4-a09b-82c1c105bfd0"},"vehicle_type_id":"4","last_reported":1703196364,"current_range_meters":4800,"station_id":"ce4bgh92rcd13ifvqb50","pricing_plan_id":"free"},{"bike_id":"3ae66d64-1e9e-46fa-b495-349f3b7ad5b9","system_id":"levelo_inurba_marseille","lat":43.304278,"lon":5.388868,"is_reserved":false,"is_disabled":false,"rental_uris":{"android":"levelo://app?vid=3ae66d64-1e9e-46fa-b495-349f3b7ad5b9","ios":"levelo://app?vid=3ae66d64-1e9e-46fa-b495-349f3b7ad5b9"},"vehicle_type_id":"4","last_reported":1703196364,"current_range_meters":28000,"station_id":"ce4bgk12rcd13ifvqbi0","pricing_plan_id":"free"},{"bike_id":"caf667f9-6a72-46ab-9f57-9d8cb007530f","system_id":"levelo_inurba_marseille","lat":43.30494,"lon":5.39061,"is_reserved":false,"is_disabled":false,"rental_uris":{"android":"levelo://app?vid=caf667f9-6a72-46ab-9f57-9d8cb007530f","ios":"levelo://app?vid=caf667f9-6a72-46ab-9f57-9d8cb007530f"},"vehicle_type_id":"4","last_reported":1703196364,"current_range_meters":0,"station_id":"","pricing_plan_id":"free"},{"bike_id":"4ec7f9ee-3059-4281-9f08-dc41f2a9f5d0","system_id":"levelo_inurba_marseille","lat":43.32362,"lon":5.38881,"is_reserved":false,"is_disabled":false,"rental_uris":{"android":"levelo://app?vid=4ec7f9ee-3059-4281-9f08-dc41f2a9f5d0","ios":"levelo://app?vid=4ec7f9ee-3059-4281-9f08-dc41f2a9f5d0"},"vehicle_type_id":"4","last_reported":1703196364,"current_range_meters":9200,"station_id":"ce4bhqp2rcd13ifvqhog","pricing_plan_id":"free"},{"bike_id":"7825f2e2-5dc0-48bf-9610-bf0be308ff43","system_id":"levelo_inurba_marseille","lat":43.32365,"lon":5.38884,"is_reserved":false,"is_disabled":false,"rental_uris":{"android":"levelo://app?vid=7825f2e2-5dc0-48bf-9610-bf0be308ff43","ios":"levelo://app?vid=7825f2e2-5dc0-48bf-9610-bf0be308ff43"},"vehicle_type_id":"4","last_reported":1703196364,"current_range_meters":1200,"station_id":"ce4bhqp2rcd13ifvqhog","pricing_plan_id":"free"},{"bike_id":"6bc005d8-6c9e-4ae1-b98d-409c3cb65d81","system_id":"levelo_inurba_marseille","lat":43.32367,"lon":5.388836,"is_reserved":false,"is_disabled":false,"rental_uris":{"android":"levelo://app?vid=6bc005d8-6c9e-4ae1-b98d-409c3cb65d81","ios":"levelo://app?vid=6bc005d8-6c9e-4ae1-b98d-409c3cb65d81"},"vehicle_type_id":"4","last_reported":1703196364,"current_range_meters":15200,"station_id":"ce4bhqp2rcd13ifvqhog","pricing_plan_id":"free"},{"bike_id":"1040f803-f34e-4b97-8997-13e49fac425b","system_id":"levelo_inurba_marseille","lat":43.293009,"lon":5.374584,"is_reserved":false,"is_disabled":false,"rental_uris":{"android":"levelo://app?vid=1040f803-f34e-4b97-8997-13e49fac425b","ios":"levelo://app?vid=1040f803-f34e-4b97-8997-13e49fac425b"},"vehicle_type_id":"4","last_reported":1703196364,"current_range_meters":10800,"station_id":"ce4bgi12rcd13ifvqb70","pricing_plan_id":"free"},{"bike_id":"3c6065a3-e76d-4db8-bfd2-e2018d755b15","system_id":"levelo_inurba_marseille","lat":43.30595,"lon":5.39359,"is_reserved":false,"is_disabled":false,"rental_uris":{"android":"levelo://app?vid=3c6065a3-e76d-4db8-bfd2-e2018d755b15","ios":"levelo://app?vid=3c6065a3-e76d-4db8-bfd2-e2018d755b15"},"vehicle_type_id":"4","last_reported":1703196364,"current_range_meters":9200,"station_id":"ce4bh0p2rcd13ifvqd80","pricing_plan_id":"free"},{"bike_id":"cbe5b2cf-15f4-4757-b608-4910b7f9c377","system_id":"levelo_inurba_marseille","lat":43.305994,"lon":5.393687,"is_reserved":false,"is_disabled":false,"rental_uris":{"android":"levelo://app?vid=cbe5b2cf-15f4-4757-b608-4910b7f9c377","ios":"levelo://app?vid=cbe5b2cf-15f4-4757-b608-4910b7f9c377"},"vehicle_type_id":"4","last_reported":1703196364,"current_range_meters":18400,"station_id":"ce4bh0p2rcd13ifvqd80","pricing_plan_id":"free"},{"bike_id":"59bd43fc-64af-4403-bd9a-4cb7817a6ecf","system_id":"levelo_inurba_marseille","lat":43.30296,"lon":5.39205,"is_reserved":false,"is_disabled":false,"rental_uris":{"android":"levelo://app?vid=59bd43fc-64af-4403-bd9a-4cb7817a6ecf","ios":"levelo://app?vid=59bd43fc-64af-4403-bd9a-4cb7817a6ecf"},"vehicle_type_id":"4","last_reported":1703196364,"current_range_meters":0,"station_id":"ce4bgkh2rcd13ifvqbk0","pricing_plan_id":"free"},{"bike_id":"cd46c0ee-d6ff-479b-91c7-43a1954e514c","system_id":"levelo_inurba_marseille","lat":43.302992,"lon":5.392136,"is_reserved":false,"is_disabled":false,"rental_uris":{"android":"levelo://app?vid=cd46c0ee-d6ff-479b-91c7-43a1954e514c","ios":"levelo://app?vid=cd46c0ee-d6ff-479b-91c7-43a1954e514c"},"vehicle_type_id":"4","last_reported":1703196364,"current_range_meters":29600,"station_id":"ce4bgkh2rcd13ifvqbk0","pricing_plan_id":"free"},{"bike_id":"c5587fe6-8e9d-423a-b484-c1b8dce0a2b2","system_id":"levelo_inurba_marseille","lat":43.30085,"lon":5.390856,"is_reserved":false,"is_disabled":false,"rental_uris":{"android":"levelo://app?vid=c5587fe6-8e9d-423a-b484-c1b8dce0a2b2","ios":"levelo://app?vid=c5587fe6-8e9d-423a-b484-c1b8dce0a2b2"},"vehicle_type_id":"4","last_reported":1703196364,"current_range_meters":19200,"station_id":"ce4bh192rcd13ifvqdb0","pricing_plan_id":"free"},{"bike_id":"b92d8c08-4834-44b1-858c-d7cabc5a10f3","system_id":"levelo_inurba_marseille","lat":43.29263,"lon":5.376198,"is_reserved":false,"is_disabled":false,"rental_uris":{"android":"levelo://app?vid=b92d8c08-4834-44b1-858c-d7cabc5a10f3","ios":"levelo://app?vid=b92d8c08-4834-44b1-858c-d7cabc5a10f3"},"vehicle_type_id":"4","last_reported":1703196364,"current_range_meters":25600,"station_id":"","pricing_plan_id":"free"},{"bike_id":"e2cd3274-80e1-44d0-b122-63a88b800651","system_id":"levelo_inurba_marseille","lat":43.29864,"lon":5.38906,"is_reserved":false,"is_disabled":false,"rental_uris":{"android":"levelo://app?vid=e2cd3274-80e1-44d0-b122-63a88b800651","ios":"levelo://app?vid=e2cd3274-80e1-44d0-b122-63a88b800651"},"vehicle_type_id":"4","last_reported":1703196364,"current_range_meters":8000,"station_id":"","pricing_plan_id":"free"},{"bike_id":"5066ad13-2803-49f4-869a-be1bd76f0d11","system_id":"levelo_inurba_marseille","lat":43.291994,"lon":5.357886,"is_reserved":false,"is_disabled":false,"rental_uris":{"android":"levelo://app?vid=5066ad13-2803-49f4-869a-be1bd76f0d11","ios":"levelo://app?vid=5066ad13-2803-49f4-869a-be1bd76f0d11"},"vehicle_type_id":"4","last_reported":1703196364,"current_range_meters":0,"station_id":"ce4bhb12rcd13ifvqel0","pricing_plan_id":"free"},{"bike_id":"b4b912dd-25bf-44d2-98c8-dfbf78288a63","system_id":"levelo_inurba_marseille","lat":43.291994,"lon":5.357886,"is_reserved":false,"is_disabled":false,"rental_uris":{"android":"levelo://app?vid=b4b912dd-25bf-44d2-98c8-dfbf78288a63","ios":"levelo://app?vid=b4b912dd-25bf-44d2-98c8-dfbf78288a63"},"vehicle_type_id":"4","last_reported":1703196364,"current_range_meters":14000,"station_id":"ce4bhb12rcd13ifvqel0","pricing_plan_id":"free"},{"bike_id":"95a3e35a-3104-4144-8d27-87d5a86d65e6","system_id":"levelo_inurba_marseille","lat":43.313291,"lon":5.396838,"is_reserved":false,"is_disabled":false,"rental_uris":{"android":"levelo://app?vid=95a3e35a-3104-4144-8d27-87d5a86d65e6","ios":"levelo://app?vid=95a3e35a-3104-4144-8d27-87d5a86d65e6"},"vehicle_type_id":"4","last_reported":1703196364,"current_range_meters":22800,"station_id":"ce4bgvp2rcd13ifvqcu0","pricing_plan_id":"free"},{"bike_id":"434d14e8-130f-405b-8158-613dd2934d56","system_id":"levelo_inurba_marseille","lat":43.313291,"lon":5.396838,"is_reserved":false,"is_disabled":false,"rental_uris":{"android":"levelo://app?vid=434d14e8-130f-405b-8158-613dd2934d56","ios":"levelo://app?vid=434d14e8-130f-405b-8158-613dd2934d56"},"vehicle_type_id":"4","last_reported":1703196364,"current_range_meters":30000,"station_id":"ce4bgvp2rcd13ifvqcu0","pricing_plan_id":"free"},{"bike_id":"98d32d63-4e61-4cb1-8956-26130116eb84","system_id":"levelo_inurba_marseille","lat":43.313291,"lon":5.396838,"is_reserved":false,"is_disabled":false,"rental_uris":{"android":"levelo://app?vid=98d32d63-4e61-4cb1-8956-26130116eb84","ios":"levelo://app?vid=98d32d63-4e61-4cb1-8956-26130116eb84"},"vehicle_type_id":"4","last_reported":1703196364,"current_range_meters":7200,"station_id":"ce4bgvp2rcd13ifvqcu0","pricing_plan_id":"free"},{"bike_id":"e15180be-0f1e-4dc8-acdb-8d6edc541f43","system_id":"levelo_inurba_marseille","lat":43.313291,"lon":5.396838,"is_reserved":false,"is_disabled":false,"rental_uris":{"android":"levelo://app?vid=e15180be-0f1e-4dc8-acdb-8d6edc541f43","ios":"levelo://app?vid=e15180be-0f1e-4dc8-acdb-8d6edc541f43"},"vehicle_type_id":"4","last_reported":1703196364,"current_range_meters":18400,"station_id":"ce4bgvp2rcd13ifvqcu0","pricing_plan_id":"free"},{"bike_id":"9d58efe2-96e6-4766-9ebc-c407ffa9d805","system_id":"levelo_inurba_marseille","lat":43.309038,"lon":5.396546,"is_reserved":false,"is_disabled":false,"rental_uris":{"android":"levelo://app?vid=9d58efe2-96e6-4766-9ebc-c407ffa9d805","ios":"levelo://app?vid=9d58efe2-96e6-4766-9ebc-c407ffa9d805"},"vehicle_type_id":"4","last_reported":1703196364,"current_range_meters":18400,"station_id":"ce4bh012rcd13ifvqcv0","pricing_plan_id":"free"},{"bike_id":"16349042-18f1-4e7d-97f4-7178285831ac","system_id":"levelo_inurba_marseille","lat":43.309038,"lon":5.396546,"is_reserved":false,"is_disabled":false,"rental_uris":{"android":"levelo://app?vid=16349042-18f1-4e7d-97f4-7178285831ac","ios":"levelo://app?vid=16349042-18f1-4e7d-97f4-7178285831ac"},"vehicle_type_id":"4","last_reported":1703196364,"current_range_meters":4000,"station_id":"ce4bh012rcd13ifvqcv0","pricing_plan_id":"free"},{"bike_id":"45f99cda-befa-42ee-a2ee-ea05b8e79130","system_id":"levelo_inurba_marseille","lat":43.313291,"lon":5.396838,"is_reserved":false,"is_disabled":false,"rental_uris":{"android":"levelo://app?vid=45f99cda-befa-42ee-a2ee-ea05b8e79130","ios":"levelo://app?vid=45f99cda-befa-42ee-a2ee-ea05b8e79130"},"vehicle_type_id":"4","last_reported":1703196364,"current_range_meters":26000,"station_id":"ce4bgvp2rcd13ifvqcu0","pricing_plan_id":"free"},{"bike_id":"7600b465-ae55-430f-a74a-3301103ebfcf","system_id":"levelo_inurba_marseille","lat":43.313291,"lon":5.396838,"is_reserved":false,"is_disabled":false,"rental_uris":{"android":"levelo://app?vid=7600b465-ae55-430f-a74a-3301103ebfcf","ios":"levelo://app?vid=7600b465-ae55-430f-a74a-3301103ebfcf"},"vehicle_type_id":"4","last_reported":1703196364,"current_range_meters":27200,"station_id":"ce4bgvp2rcd13ifvqcu0","pricing_plan_id":"free"},{"bike_id":"9ed7b195-fec8-4dc8-9ee9-a10e00fc7f31","system_id":"levelo_inurba_marseille","lat":43.309047,"lon":5.396551,"is_reserved":false,"is_disabled":false,"rental_uris":{"android":"levelo://app?vid=9ed7b195-fec8-4dc8-9ee9-a10e00fc7f31","ios":"levelo://app?vid=9ed7b195-fec8-4dc8-9ee9-a10e00fc7f31"},"vehicle_type_id":"4","last_reported":1703196364,"current_range_meters":21200,"station_id":"ce4bh012rcd13ifvqcv0","pricing_plan_id":"free"},{"bike_id":"569df881-44aa-4fb0-bd43-e2c14ad0998e","system_id":"levelo_inurba_marseille","lat":43.309038,"lon":5.396546,"is_reserved":false,"is_disabled":false,"rental_uris":{"android":"levelo://app?vid=569df881-44aa-4fb0-bd43-e2c14ad0998e","ios":"levelo://app?vid=569df881-44aa-4fb0-bd43-e2c14ad0998e"},"vehicle_type_id":"4","last_reported":1703196364,"current_range_meters":30000,"station_id":"ce4bh012rcd13ifvqcv0","pricing_plan_id":"free"},{"bike_id":"dadec077-0df0-4e3f-a2e2-94987a23d35f","system_id":"levelo_inurba_marseille","lat":43.313291,"lon":5.396838,"is_reserved":false,"is_disabled":false,"rental_uris":{"android":"levelo://app?vid=dadec077-0df0-4e3f-a2e2-94987a23d35f","ios":"levelo://app?vid=dadec077-0df0-4e3f-a2e2-94987a23d35f"},"vehicle_type_id":"4","last_reported":1703196364,"current_range_meters":28800,"station_id":"ce4bgvp2rcd13ifvqcu0","pricing_plan_id":"free"},{"bike_id":"b9646351-f737-4e55-8e3a-b98138fcb149","system_id":"levelo_inurba_marseille","lat":43.29532,"lon":5.38543,"is_reserved":false,"is_disabled":false,"rental_uris":{"android":"levelo://app?vid=b9646351-f737-4e55-8e3a-b98138fcb149","ios":"levelo://app?vid=b9646351-f737-4e55-8e3a-b98138fcb149"},"vehicle_type_id":"4","last_reported":1703196364,"current_range_meters":3200,"station_id":"ce4bgih2rcd13ifvqba0","pricing_plan_id":"free"},{"bike_id":"e0b733d2-1149-4b09-a7e6-851a2c15bca4","system_id":"levelo_inurba_marseille","lat":43.29353,"lon":5.383506,"is_reserved":false,"is_disabled":false,"rental_uris":{"android":"levelo://app?vid=e0b733d2-1149-4b09-a7e6-851a2c15bca4","ios":"levelo://app?vid=e0b733d2-1149-4b09-a7e6-851a2c15bca4"},"vehicle_type_id":"4","last_reported":1703196364,"current_range_meters":3600,"station_id":"","pricing_plan_id":"free"},{"bike_id":"2653f605-94ba-44d8-a55d-d47340179a1f","system_id":"levelo_inurba_marseille","lat":43.302117,"lon":5.394733,"is_reserved":false,"is_disabled":false,"rental_uris":{"android":"levelo://app?vid=2653f605-94ba-44d8-a55d-d47340179a1f","ios":"levelo://app?vid=2653f605-94ba-44d8-a55d-d47340179a1f"},"vehicle_type_id":"4","last_reported":1703196364,"current_range_meters":30000,"station_id":"ce4bh0p2rcd13ifvqd70","pricing_plan_id":"free"},{"bike_id":"6f7c93d2-c5a6-44bb-bb95-2061367c2b18","system_id":"levelo_inurba_marseille","lat":43.302008,"lon":5.394694,"is_reserved":false,"is_disabled":false,"rental_uris":{"android":"levelo://app?vid=6f7c93d2-c5a6-44bb-bb95-2061367c2b18","ios":"levelo://app?vid=6f7c93d2-c5a6-44bb-bb95-2061367c2b18"},"vehicle_type_id":"4","last_reported":1703196364,"current_range_meters":28800,"station_id":"ce4bh0p2rcd13ifvqd70","pricing_plan_id":"free"},{"bike_id":"cf733848-d84b-499e-87a3-c89b7cff5fb7","system_id":"levelo_inurba_marseille","lat":43.3021,"lon":5.39476,"is_reserved":false,"is_disabled":false,"rental_uris":{"android":"levelo://app?vid=cf733848-d84b-499e-87a3-c89b7cff5fb7","ios":"levelo://app?vid=cf733848-d84b-499e-87a3-c89b7cff5fb7"},"vehicle_type_id":"4","last_reported":1703196364,"current_range_meters":0,"station_id":"ce4bh0p2rcd13ifvqd70","pricing_plan_id":"free"},{"bike_id":"da61600b-af4e-4853-957f-a0295327d58c","system_id":"levelo_inurba_marseille","lat":43.29426,"lon":5.38624,"is_reserved":false,"is_disabled":false,"rental_uris":{"android":"levelo://app?vid=da61600b-af4e-4853-957f-a0295327d58c","ios":"levelo://app?vid=da61600b-af4e-4853-957f-a0295327d58c"},"vehicle_type_id":"4","last_reported":1703196364,"current_range_meters":4800,"station_id":"ce4bh2h2rcd13ifvqdh0","pricing_plan_id":"free"},{"bike_id":"59d407c4-de20-4c1f-adbc-64ddb31297a7","system_id":"levelo_inurba_marseille","lat":43.294162,"lon":5.386292,"is_reserved":false,"is_disabled":false,"rental_uris":{"android":"levelo://app?vid=59d407c4-de20-4c1f-adbc-64ddb31297a7","ios":"levelo://app?vid=59d407c4-de20-4c1f-adbc-64ddb31297a7"},"vehicle_type_id":"4","last_reported":1703196364,"current_range_meters":6400,"station_id":"ce4bh2h2rcd13ifvqdh0","pricing_plan_id":"free"},{"bike_id":"20aefd0d-4e21-4f4f-8108-d84f6ad10e13","system_id":"levelo_inurba_marseille","lat":43.290327,"lon":5.375711,"is_reserved":false,"is_disabled":false,"rental_uris":{"android":"levelo://app?vid=20aefd0d-4e21-4f4f-8108-d84f6ad10e13","ios":"levelo://app?vid=20aefd0d-4e21-4f4f-8108-d84f6ad10e13"},"vehicle_type_id":"4","last_reported":1703196364,"current_range_meters":0,"station_id":"ce4bh692rcd13ifvqe90","pricing_plan_id":"free"},{"bike_id":"39d1d8e2-afa2-4e4e-aa96-f0d5f6bc7da1","system_id":"levelo_inurba_marseille","lat":43.29422,"lon":5.38627,"is_reserved":false,"is_disabled":false,"rental_uris":{"android":"levelo://app?vid=39d1d8e2-afa2-4e4e-aa96-f0d5f6bc7da1","ios":"levelo://app?vid=39d1d8e2-afa2-4e4e-aa96-f0d5f6bc7da1"},"vehicle_type_id":"4","last_reported":1703196364,"current_range_meters":17600,"station_id":"ce4bh2h2rcd13ifvqdh0","pricing_plan_id":"free"},{"bike_id":"5749d636-89ca-4e31-928c-d1a6834f4869","system_id":"levelo_inurba_marseille","lat":43.294162,"lon":5.386292,"is_reserved":false,"is_disabled":false,"rental_uris":{"android":"levelo://app?vid=5749d636-89ca-4e31-928c-d1a6834f4869","ios":"levelo://app?vid=5749d636-89ca-4e31-928c-d1a6834f4869"},"vehicle_type_id":"4","last_reported":1703196364,"current_range_meters":8800,"station_id":"ce4bh2h2rcd13ifvqdh0","pricing_plan_id":"free"},{"bike_id":"b255d341-f1c2-4c79-abc3-1f1910096150","system_id":"levelo_inurba_marseille","lat":43.294162,"lon":5.386292,"is_reserved":false,"is_disabled":false,"rental_uris":{"android":"levelo://app?vid=b255d341-f1c2-4c79-abc3-1f1910096150","ios":"levelo://app?vid=b255d341-f1c2-4c79-abc3-1f1910096150"},"vehicle_type_id":"4","last_reported":1703196364,"current_range_meters":24400,"station_id":"ce4bh2h2rcd13ifvqdh0","pricing_plan_id":"free"},{"bike_id":"22e835aa-c1d9-4711-8714-4ff717ce60c4","system_id":"levelo_inurba_marseille","lat":43.294153,"lon":5.386305,"is_reserved":false,"is_disabled":false,"rental_uris":{"android":"levelo://app?vid=22e835aa-c1d9-4711-8714-4ff717ce60c4","ios":"levelo://app?vid=22e835aa-c1d9-4711-8714-4ff717ce60c4"},"vehicle_type_id":"4","last_reported":1703196364,"current_range_meters":400,"station_id":"ce4bh2h2rcd13ifvqdh0","pricing_plan_id":"free"},{"bike_id":"2ffc53ec-c420-4fc3-9c05-91259ace94d0","system_id":"levelo_inurba_marseille","lat":43.294153,"lon":5.386305,"is_reserved":false,"is_disabled":false,"rental_uris":{"android":"levelo://app?vid=2ffc53ec-c420-4fc3-9c05-91259ace94d0","ios":"levelo://app?vid=2ffc53ec-c420-4fc3-9c05-91259ace94d0"},"vehicle_type_id":"4","last_reported":1703196364,"current_range_meters":17600,"station_id":"ce4bh2h2rcd13ifvqdh0","pricing_plan_id":"free"},{"bike_id":"e6b9267f-4405-43ee-8269-ded61e780564","system_id":"levelo_inurba_marseille","lat":43.289184,"lon":5.366408,"is_reserved":false,"is_disabled":false,"rental_uris":{"android":"levelo://app?vid=e6b9267f-4405-43ee-8269-ded61e780564","ios":"levelo://app?vid=e6b9267f-4405-43ee-8269-ded61e780564"},"vehicle_type_id":"4","last_reported":1703196364,"current_range_meters":26000,"station_id":"ce4bhap2rcd13ifvqek0","pricing_plan_id":"free"},{"bike_id":"c0b65bd9-394b-4d22-9dd4-cc24e2cff8b7","system_id":"levelo_inurba_marseille","lat":43.304274,"lon":5.397513,"is_reserved":false,"is_disabled":false,"rental_uris":{"android":"levelo://app?vid=c0b65bd9-394b-4d22-9dd4-cc24e2cff8b7","ios":"levelo://app?vid=c0b65bd9-394b-4d22-9dd4-cc24e2cff8b7"},"vehicle_type_id":"4","last_reported":1703196364,"current_range_meters":18800,"station_id":"ce4bh092rcd13ifvqd20","pricing_plan_id":"free"},{"bike_id":"de68e452-23c9-4df1-a51c-1f8969ea80bf","system_id":"levelo_inurba_marseille","lat":43.304296,"lon":5.397513,"is_reserved":false,"is_disabled":false,"rental_uris":{"android":"levelo://app?vid=de68e452-23c9-4df1-a51c-1f8969ea80bf","ios":"levelo://app?vid=de68e452-23c9-4df1-a51c-1f8969ea80bf"},"vehicle_type_id":"4","last_reported":1703196364,"current_range_meters":16800,"station_id":"ce4bh092rcd13ifvqd20","pricing_plan_id":"free"},{"bike_id":"c6cb8b39-bc12-4f1c-b0f5-36377909f91a","system_id":"levelo_inurba_marseille","lat":43.29261,"lon":5.38441,"is_reserved":false,"is_disabled":false,"rental_uris":{"android":"levelo://app?vid=c6cb8b39-bc12-4f1c-b0f5-36377909f91a","ios":"levelo://app?vid=c6cb8b39-bc12-4f1c-b0f5-36377909f91a"},"vehicle_type_id":"4","last_reported":1703196364,"current_range_meters":0,"station_id":"ce4bh692rcd13ifvqea0","pricing_plan_id":"free"},{"bike_id":"aaf369e7-b0c4-4783-bce7-5c4e29d8ca47","system_id":"levelo_inurba_marseille","lat":43.292616,"lon":5.384464,"is_reserved":false,"is_disabled":false,"rental_uris":{"android":"levelo://app?vid=aaf369e7-b0c4-4783-bce7-5c4e29d8ca47","ios":"levelo://app?vid=aaf369e7-b0c4-4783-bce7-5c4e29d8ca47"},"vehicle_type_id":"4","last_reported":1703196364,"current_range_meters":0,"station_id":"ce4bh692rcd13ifvqea0","pricing_plan_id":"free"},{"bike_id":"172aa6bc-4bb0-4030-9da2-5dc735cbc145","system_id":"levelo_inurba_marseille","lat":43.304296,"lon":5.397513,"is_reserved":false,"is_disabled":false,"rental_uris":{"android":"levelo://app?vid=172aa6bc-4bb0-4030-9da2-5dc735cbc145","ios":"levelo://app?vid=172aa6bc-4bb0-4030-9da2-5dc735cbc145"},"vehicle_type_id":"4","last_reported":1703196364,"current_range_meters":12400,"station_id":"ce4bh092rcd13ifvqd20","pricing_plan_id":"free"},{"bike_id":"4eb255d5-3dcd-4eaf-b86c-a5f726c59d86","system_id":"levelo_inurba_marseille","lat":43.304274,"lon":5.397513,"is_reserved":false,"is_disabled":false,"rental_uris":{"android":"levelo://app?vid=4eb255d5-3dcd-4eaf-b86c-a5f726c59d86","ios":"levelo://app?vid=4eb255d5-3dcd-4eaf-b86c-a5f726c59d86"},"vehicle_type_id":"4","last_reported":1703196364,"current_range_meters":6800,"station_id":"ce4bh092rcd13ifvqd20","pricing_plan_id":"free"},{"bike_id":"fe04619a-837f-4215-99fb-c7797369a2b1","system_id":"levelo_inurba_marseille","lat":43.330442,"lon":5.389148,"is_reserved":false,"is_disabled":false,"rental_uris":{"android":"levelo://app?vid=fe04619a-837f-4215-99fb-c7797369a2b1","ios":"levelo://app?vid=fe04619a-837f-4215-99fb-c7797369a2b1"},"vehicle_type_id":"4","last_reported":1703196364,"current_range_meters":20400,"station_id":"ce4bhr92rcd13ifvqhrg","pricing_plan_id":"free"},{"bike_id":"730450b7-95b7-4402-ad6e-de22f3dcf8f0","system_id":"levelo_inurba_marseille","lat":43.290103,"lon":5.356114,"is_reserved":false,"is_disabled":false,"rental_uris":{"android":"levelo://app?vid=730450b7-95b7-4402-ad6e-de22f3dcf8f0","ios":"levelo://app?vid=730450b7-95b7-4402-ad6e-de22f3dcf8f0"},"vehicle_type_id":"4","last_reported":1703196364,"current_range_meters":24800,"station_id":"ce4bhb92rcd13ifvqen0","pricing_plan_id":"free"},{"bike_id":"0c117c73-9b27-4175-b015-03e56caac421","system_id":"levelo_inurba_marseille","lat":43.29523,"lon":5.3904,"is_reserved":false,"is_disabled":false,"rental_uris":{"android":"levelo://app?vid=0c117c73-9b27-4175-b015-03e56caac421","ios":"levelo://app?vid=0c117c73-9b27-4175-b015-03e56caac421"},"vehicle_type_id":"4","last_reported":1703196364,"current_range_meters":0,"station_id":"ce4bh3p2rcd13ifvqdp0","pricing_plan_id":"free"},{"bike_id":"39e41860-2ae3-479e-8f42-21d1102ceadb","system_id":"levelo_inurba_marseille","lat":43.289741,"lon":5.378306,"is_reserved":false,"is_disabled":false,"rental_uris":{"android":"levelo://app?vid=39e41860-2ae3-479e-8f42-21d1102ceadb","ios":"levelo://app?vid=39e41860-2ae3-479e-8f42-21d1102ceadb"},"vehicle_type_id":"4","last_reported":1703196364,"current_range_meters":27600,"station_id":"ce4bh9p2rcd13ifvqed0","pricing_plan_id":"free"},{"bike_id":"35a9c6ce-a812-4193-a62e-ac16dcd1226a","system_id":"levelo_inurba_marseille","lat":43.28856,"lon":5.358371,"is_reserved":false,"is_disabled":false,"rental_uris":{"android":"levelo://app?vid=35a9c6ce-a812-4193-a62e-ac16dcd1226a","ios":"levelo://app?vid=35a9c6ce-a812-4193-a62e-ac16dcd1226a"},"vehicle_type_id":"4","last_reported":1703196364,"current_range_meters":6400,"station_id":"ce4bhb12rcd13ifvqem0","pricing_plan_id":"free"},{"bike_id":"95a5d527-02e9-4477-bca4-7a559443ba1e","system_id":"levelo_inurba_marseille","lat":43.28856,"lon":5.358371,"is_reserved":false,"is_disabled":false,"rental_uris":{"android":"levelo://app?vid=95a5d527-02e9-4477-bca4-7a559443ba1e","ios":"levelo://app?vid=95a5d527-02e9-4477-bca4-7a559443ba1e"},"vehicle_type_id":"4","last_reported":1703196364,"current_range_meters":5600,"station_id":"ce4bhb12rcd13ifvqem0","pricing_plan_id":"free"},{"bike_id":"2d69ba61-662c-4ce0-8aea-66e66ad60cb7","system_id":"levelo_inurba_marseille","lat":43.28856,"lon":5.358371,"is_reserved":false,"is_disabled":false,"rental_uris":{"android":"levelo://app?vid=2d69ba61-662c-4ce0-8aea-66e66ad60cb7","ios":"levelo://app?vid=2d69ba61-662c-4ce0-8aea-66e66ad60cb7"},"vehicle_type_id":"4","last_reported":1703196364,"current_range_meters":0,"station_id":"ce4bhb12rcd13ifvqem0","pricing_plan_id":"free"},{"bike_id":"5314fd90-ced2-4c2f-a2f0-960d716cc80a","system_id":"levelo_inurba_marseille","lat":43.28856,"lon":5.358371,"is_reserved":false,"is_disabled":false,"rental_uris":{"android":"levelo://app?vid=5314fd90-ced2-4c2f-a2f0-960d716cc80a","ios":"levelo://app?vid=5314fd90-ced2-4c2f-a2f0-960d716cc80a"},"vehicle_type_id":"4","last_reported":1703196364,"current_range_meters":14800,"station_id":"ce4bhb12rcd13ifvqem0","pricing_plan_id":"free"},{"bike_id":"41cf56c2-064a-488c-8678-1cb6b2316c86","system_id":"levelo_inurba_marseille","lat":43.312609,"lon":5.401662,"is_reserved":false,"is_disabled":false,"rental_uris":{"android":"levelo://app?vid=41cf56c2-064a-488c-8678-1cb6b2316c86","ios":"levelo://app?vid=41cf56c2-064a-488c-8678-1cb6b2316c86"},"vehicle_type_id":"4","last_reported":1703196364,"current_range_meters":18000,"station_id":"ce4bh092rcd13ifvqd30","pricing_plan_id":"free"},{"bike_id":"0758ba9b-eec1-4a13-8fa3-d200e4b83daf","system_id":"levelo_inurba_marseille","lat":43.312609,"lon":5.401662,"is_reserved":false,"is_disabled":false,"rental_uris":{"android":"levelo://app?vid=0758ba9b-eec1-4a13-8fa3-d200e4b83daf","ios":"levelo://app?vid=0758ba9b-eec1-4a13-8fa3-d200e4b83daf"},"vehicle_type_id":"4","last_reported":1703196364,"current_range_meters":17600,"station_id":"ce4bh092rcd13ifvqd30","pricing_plan_id":"free"},{"bike_id":"da224aca-9757-4a57-88ba-cd0e45a5fdd2","system_id":"levelo_inurba_marseille","lat":43.309371,"lon":5.401449,"is_reserved":false,"is_disabled":false,"rental_uris":{"android":"levelo://app?vid=da224aca-9757-4a57-88ba-cd0e45a5fdd2","ios":"levelo://app?vid=da224aca-9757-4a57-88ba-cd0e45a5fdd2"},"vehicle_type_id":"4","last_reported":1703196364,"current_range_meters":10800,"station_id":"ce4bgvp2rcd13ifvqct0","pricing_plan_id":"free"},{"bike_id":"1a59bbe6-4ce8-4bd7-8490-51717c6c735e","system_id":"levelo_inurba_marseille","lat":43.312609,"lon":5.401662,"is_reserved":false,"is_disabled":false,"rental_uris":{"android":"levelo://app?vid=1a59bbe6-4ce8-4bd7-8490-51717c6c735e","ios":"levelo://app?vid=1a59bbe6-4ce8-4bd7-8490-51717c6c735e"},"vehicle_type_id":"4","last_reported":1703196364,"current_range_meters":5200,"station_id":"ce4bh092rcd13ifvqd30","pricing_plan_id":"free"},{"bike_id":"5c81a891-9f9f-45af-8799-b5e5314532fa","system_id":"levelo_inurba_marseille","lat":43.33751,"lon":5.37437,"is_reserved":false,"is_disabled":false,"rental_uris":{"android":"levelo://app?vid=5c81a891-9f9f-45af-8799-b5e5314532fa","ios":"levelo://app?vid=5c81a891-9f9f-45af-8799-b5e5314532fa"},"vehicle_type_id":"4","last_reported":1703196364,"current_range_meters":25200,"station_id":"","pricing_plan_id":"free"},{"bike_id":"284f9061-f39d-4a8d-b72d-d997729b14de","system_id":"levelo_inurba_marseille","lat":43.312609,"lon":5.401662,"is_reserved":false,"is_disabled":false,"rental_uris":{"android":"levelo://app?vid=284f9061-f39d-4a8d-b72d-d997729b14de","ios":"levelo://app?vid=284f9061-f39d-4a8d-b72d-d997729b14de"},"vehicle_type_id":"4","last_reported":1703196364,"current_range_meters":3600,"station_id":"ce4bh092rcd13ifvqd30","pricing_plan_id":"free"},{"bike_id":"f686e92f-8790-4c07-83c0-e05c875b57d5","system_id":"levelo_inurba_marseille","lat":43.309371,"lon":5.401449,"is_reserved":false,"is_disabled":false,"rental_uris":{"android":"levelo://app?vid=f686e92f-8790-4c07-83c0-e05c875b57d5","ios":"levelo://app?vid=f686e92f-8790-4c07-83c0-e05c875b57d5"},"vehicle_type_id":"4","last_reported":1703196364,"current_range_meters":8800,"station_id":"ce4bgvp2rcd13ifvqct0","pricing_plan_id":"free"},{"bike_id":"4803233a-4ba6-4264-9299-c6a830b3a856","system_id":"levelo_inurba_marseille","lat":43.30638,"lon":5.40086,"is_reserved":false,"is_disabled":false,"rental_uris":{"android":"levelo://app?vid=4803233a-4ba6-4264-9299-c6a830b3a856","ios":"levelo://app?vid=4803233a-4ba6-4264-9299-c6a830b3a856"},"vehicle_type_id":"4","last_reported":1703196364,"current_range_meters":17200,"station_id":"ce4bh112rcd13ifvqda0","pricing_plan_id":"free"},{"bike_id":"77e6b6ed-e434-41b9-8e36-952127e579ff","system_id":"levelo_inurba_marseille","lat":43.30646,"lon":5.40091,"is_reserved":false,"is_disabled":false,"rental_uris":{"android":"levelo://app?vid=77e6b6ed-e434-41b9-8e36-952127e579ff","ios":"levelo://app?vid=77e6b6ed-e434-41b9-8e36-952127e579ff"},"vehicle_type_id":"4","last_reported":1703196364,"current_range_meters":4400,"station_id":"ce4bh112rcd13ifvqda0","pricing_plan_id":"free"},{"bike_id":"3fd70949-c7ac-4269-bcf5-324f7e88de5d","system_id":"levelo_inurba_marseille","lat":43.30644,"lon":5.40091,"is_reserved":false,"is_disabled":false,"rental_uris":{"android":"levelo://app?vid=3fd70949-c7ac-4269-bcf5-324f7e88de5d","ios":"levelo://app?vid=3fd70949-c7ac-4269-bcf5-324f7e88de5d"},"vehicle_type_id":"4","last_reported":1703196364,"current_range_meters":6400,"station_id":"ce4bh112rcd13ifvqda0","pricing_plan_id":"free"},{"bike_id":"f3d3b68e-f7e9-4db0-8e4d-abfe9aa0c7bc","system_id":"levelo_inurba_marseille","lat":43.30643,"lon":5.40094,"is_reserved":false,"is_disabled":false,"rental_uris":{"android":"levelo://app?vid=f3d3b68e-f7e9-4db0-8e4d-abfe9aa0c7bc","ios":"levelo://app?vid=f3d3b68e-f7e9-4db0-8e4d-abfe9aa0c7bc"},"vehicle_type_id":"4","last_reported":1703196364,"current_range_meters":2000,"station_id":"ce4bh112rcd13ifvqda0","pricing_plan_id":"free"},{"bike_id":"337955db-d8ba-4f5e-b077-77e188f45be6","system_id":"levelo_inurba_marseille","lat":43.306527,"lon":5.400976,"is_reserved":false,"is_disabled":false,"rental_uris":{"android":"levelo://app?vid=337955db-d8ba-4f5e-b077-77e188f45be6","ios":"levelo://app?vid=337955db-d8ba-4f5e-b077-77e188f45be6"},"vehicle_type_id":"4","last_reported":1703196364,"current_range_meters":20400,"station_id":"ce4bh112rcd13ifvqda0","pricing_plan_id":"free"},{"bike_id":"2df0bbf5-1265-4c8b-8faa-82c98a136e46","system_id":"levelo_inurba_marseille","lat":43.30642,"lon":5.40096,"is_reserved":false,"is_disabled":false,"rental_uris":{"android":"levelo://app?vid=2df0bbf5-1265-4c8b-8faa-82c98a136e46","ios":"levelo://app?vid=2df0bbf5-1265-4c8b-8faa-82c98a136e46"},"vehicle_type_id":"4","last_reported":1703196364,"current_range_meters":15200,"station_id":"ce4bh112rcd13ifvqda0","pricing_plan_id":"free"},{"bike_id":"763fa1e9-ee9c-42de-8f1e-f64d2f8cdbc0","system_id":"levelo_inurba_marseille","lat":43.306412,"lon":5.401035,"is_reserved":false,"is_disabled":false,"rental_uris":{"android":"levelo://app?vid=763fa1e9-ee9c-42de-8f1e-f64d2f8cdbc0","ios":"levelo://app?vid=763fa1e9-ee9c-42de-8f1e-f64d2f8cdbc0"},"vehicle_type_id":"4","last_reported":1703196364,"current_range_meters":4400,"station_id":"ce4bh112rcd13ifvqda0","pricing_plan_id":"free"},{"bike_id":"a4d298b7-c127-45cd-9124-4eff460c842c","system_id":"levelo_inurba_marseille","lat":43.301117,"lon":5.398795,"is_reserved":false,"is_disabled":false,"rental_uris":{"android":"levelo://app?vid=a4d298b7-c127-45cd-9124-4eff460c842c","ios":"levelo://app?vid=a4d298b7-c127-45cd-9124-4eff460c842c"},"vehicle_type_id":"4","last_reported":1703196364,"current_range_meters":5600,"station_id":"ce4bh0h2rcd13ifvqd40","pricing_plan_id":"free"},{"bike_id":"783b44d6-7fa2-4a72-8c1b-47896d85b61a","system_id":"levelo_inurba_marseille","lat":43.301117,"lon":5.398795,"is_reserved":false,"is_disabled":false,"rental_uris":{"android":"levelo://app?vid=783b44d6-7fa2-4a72-8c1b-47896d85b61a","ios":"levelo://app?vid=783b44d6-7fa2-4a72-8c1b-47896d85b61a"},"vehicle_type_id":"4","last_reported":1703196364,"current_range_meters":6800,"station_id":"ce4bh0h2rcd13ifvqd40","pricing_plan_id":"free"},{"bike_id":"d7871565-7fd7-4103-ba59-6c3a96d1a2fd","system_id":"levelo_inurba_marseille","lat":43.301117,"lon":5.398795,"is_reserved":false,"is_disabled":false,"rental_uris":{"android":"levelo://app?vid=d7871565-7fd7-4103-ba59-6c3a96d1a2fd","ios":"levelo://app?vid=d7871565-7fd7-4103-ba59-6c3a96d1a2fd"},"vehicle_type_id":"4","last_reported":1703196364,"current_range_meters":13200,"station_id":"ce4bh0h2rcd13ifvqd40","pricing_plan_id":"free"},{"bike_id":"7c0bb16a-8beb-435f-84e4-f07ce7992af5","system_id":"levelo_inurba_marseille","lat":43.301117,"lon":5.398795,"is_reserved":false,"is_disabled":false,"rental_uris":{"android":"levelo://app?vid=7c0bb16a-8beb-435f-84e4-f07ce7992af5","ios":"levelo://app?vid=7c0bb16a-8beb-435f-84e4-f07ce7992af5"},"vehicle_type_id":"4","last_reported":1703196364,"current_range_meters":22000,"station_id":"ce4bh0h2rcd13ifvqd40","pricing_plan_id":"free"},{"bike_id":"5f147c6d-83bf-4674-b7cd-cac60e2f3776","system_id":"levelo_inurba_marseille","lat":43.28727,"lon":5.36078,"is_reserved":false,"is_disabled":false,"rental_uris":{"android":"levelo://app?vid=5f147c6d-83bf-4674-b7cd-cac60e2f3776","ios":"levelo://app?vid=5f147c6d-83bf-4674-b7cd-cac60e2f3776"},"vehicle_type_id":"4","last_reported":1703196364,"current_range_meters":20000,"station_id":"cki0cbj6b192h4jlfktg","pricing_plan_id":"free"},{"bike_id":"986bbb1d-0459-4b21-829b-5da168e40ec0","system_id":"levelo_inurba_marseille","lat":43.28727,"lon":5.36078,"is_reserved":false,"is_disabled":false,"rental_uris":{"android":"levelo://app?vid=986bbb1d-0459-4b21-829b-5da168e40ec0","ios":"levelo://app?vid=986bbb1d-0459-4b21-829b-5da168e40ec0"},"vehicle_type_id":"4","last_reported":1703196364,"current_range_meters":7600,"station_id":"cki0cbj6b192h4jlfktg","pricing_plan_id":"free"},{"bike_id":"e63c5e04-8e78-4297-b9b1-7f8e3ad98104","system_id":"levelo_inurba_marseille","lat":43.28727,"lon":5.36078,"is_reserved":false,"is_disabled":false,"rental_uris":{"android":"levelo://app?vid=e63c5e04-8e78-4297-b9b1-7f8e3ad98104","ios":"levelo://app?vid=e63c5e04-8e78-4297-b9b1-7f8e3ad98104"},"vehicle_type_id":"4","last_reported":1703196364,"current_range_meters":11600,"station_id":"cki0cbj6b192h4jlfktg","pricing_plan_id":"free"},{"bike_id":"a96b6b94-efb1-4357-a5ac-d7d9e034cee8","system_id":"levelo_inurba_marseille","lat":43.286591,"lon":5.363346,"is_reserved":false,"is_disabled":false,"rental_uris":{"android":"levelo://app?vid=a96b6b94-efb1-4357-a5ac-d7d9e034cee8","ios":"levelo://app?vid=a96b6b94-efb1-4357-a5ac-d7d9e034cee8"},"vehicle_type_id":"4","last_reported":1703196364,"current_range_meters":12800,"station_id":"ce4bhah2rcd13ifvqej0","pricing_plan_id":"free"},{"bike_id":"04035cdb-601e-415f-8001-120e902ae14d","system_id":"levelo_inurba_marseille","lat":43.298681,"lon":5.397225,"is_reserved":false,"is_disabled":false,"rental_uris":{"android":"levelo://app?vid=04035cdb-601e-415f-8001-120e902ae14d","ios":"levelo://app?vid=04035cdb-601e-415f-8001-120e902ae14d"},"vehicle_type_id":"4","last_reported":1703196364,"current_range_meters":13600,"station_id":"ce4bh0h2rcd13ifvqd50","pricing_plan_id":"free"},{"bike_id":"4b97a246-132f-4e94-a373-fd2cedcc3f8e","system_id":"levelo_inurba_marseille","lat":43.298681,"lon":5.397225,"is_reserved":false,"is_disabled":false,"rental_uris":{"android":"levelo://app?vid=4b97a246-132f-4e94-a373-fd2cedcc3f8e","ios":"levelo://app?vid=4b97a246-132f-4e94-a373-fd2cedcc3f8e"},"vehicle_type_id":"4","last_reported":1703196364,"current_range_meters":15600,"station_id":"ce4bh0h2rcd13ifvqd50","pricing_plan_id":"free"},{"bike_id":"9784f3c8-247b-4347-aca8-91164f7d03ce","system_id":"levelo_inurba_marseille","lat":43.286593,"lon":5.363346,"is_reserved":false,"is_disabled":false,"rental_uris":{"android":"levelo://app?vid=9784f3c8-247b-4347-aca8-91164f7d03ce","ios":"levelo://app?vid=9784f3c8-247b-4347-aca8-91164f7d03ce"},"vehicle_type_id":"4","last_reported":1703196364,"current_range_meters":0,"station_id":"ce4bhah2rcd13ifvqej0","pricing_plan_id":"free"},{"bike_id":"901d1908-4990-4e58-aa83-abb419e3b86b","system_id":"levelo_inurba_marseille","lat":43.286961,"lon":5.373785,"is_reserved":false,"is_disabled":false,"rental_uris":{"android":"levelo://app?vid=901d1908-4990-4e58-aa83-abb419e3b86b","ios":"levelo://app?vid=901d1908-4990-4e58-aa83-abb419e3b86b"},"vehicle_type_id":"4","last_reported":1703196364,"current_range_meters":26400,"station_id":"ce4bh3p2rcd13ifvqdq0","pricing_plan_id":"free"},{"bike_id":"657b4d30-11c4-4174-ae70-5f17e3ee8719","system_id":"levelo_inurba_marseille","lat":43.286039,"lon":5.370679,"is_reserved":false,"is_disabled":false,"rental_uris":{"android":"levelo://app?vid=657b4d30-11c4-4174-ae70-5f17e3ee8719","ios":"levelo://app?vid=657b4d30-11c4-4174-ae70-5f17e3ee8719"},"vehicle_type_id":"4","last_reported":1703196364,"current_range_meters":28800,"station_id":"ce4bht12rcd13ifvqi60","pricing_plan_id":"free"},{"bike_id":"4d882ab1-2188-4a1b-93c0-ea8a8c1f82e2","system_id":"levelo_inurba_marseille","lat":43.286039,"lon":5.370679,"is_reserved":false,"is_disabled":false,"rental_uris":{"android":"levelo://app?vid=4d882ab1-2188-4a1b-93c0-ea8a8c1f82e2","ios":"levelo://app?vid=4d882ab1-2188-4a1b-93c0-ea8a8c1f82e2"},"vehicle_type_id":"4","last_reported":1703196364,"current_range_meters":29600,"station_id":"ce4bht12rcd13ifvqi60","pricing_plan_id":"free"},{"bike_id":"983ef4bd-15ac-4651-8cde-3bd14abec0b1","system_id":"levelo_inurba_marseille","lat":43.28604,"lon":5.37068,"is_reserved":false,"is_disabled":false,"rental_uris":{"android":"levelo://app?vid=983ef4bd-15ac-4651-8cde-3bd14abec0b1","ios":"levelo://app?vid=983ef4bd-15ac-4651-8cde-3bd14abec0b1"},"vehicle_type_id":"4","last_reported":1703196364,"current_range_meters":0,"station_id":"ce4bht12rcd13ifvqi60","pricing_plan_id":"free"},{"bike_id":"b5ba4e31-c8a5-4cda-8e3b-5ca032e9d193","system_id":"levelo_inurba_marseille","lat":43.316821,"lon":5.404737,"is_reserved":false,"is_disabled":false,"rental_uris":{"android":"levelo://app?vid=b5ba4e31-c8a5-4cda-8e3b-5ca032e9d193","ios":"levelo://app?vid=b5ba4e31-c8a5-4cda-8e3b-5ca032e9d193"},"vehicle_type_id":"4","last_reported":1703196364,"current_range_meters":15200,"station_id":"ce4bh012rcd13ifvqd00","pricing_plan_id":"free"},{"bike_id":"ccd51165-f4f1-4994-ab1f-db1f3ac78838","system_id":"levelo_inurba_marseille","lat":43.316821,"lon":5.404737,"is_reserved":false,"is_disabled":false,"rental_uris":{"android":"levelo://app?vid=ccd51165-f4f1-4994-ab1f-db1f3ac78838","ios":"levelo://app?vid=ccd51165-f4f1-4994-ab1f-db1f3ac78838"},"vehicle_type_id":"4","last_reported":1703196364,"current_range_meters":10800,"station_id":"ce4bh012rcd13ifvqd00","pricing_plan_id":"free"},{"bike_id":"79ceb97f-5fba-4b46-ad1c-30e377ac8dc5","system_id":"levelo_inurba_marseille","lat":43.291994,"lon":5.392907,"is_reserved":false,"is_disabled":false,"rental_uris":{"android":"levelo://app?vid=79ceb97f-5fba-4b46-ad1c-30e377ac8dc5","ios":"levelo://app?vid=79ceb97f-5fba-4b46-ad1c-30e377ac8dc5"},"vehicle_type_id":"4","last_reported":1703196364,"current_range_meters":400,"station_id":"ce4bh192rcd13ifvqdd0","pricing_plan_id":"free"},{"bike_id":"1e55e673-918d-4cf6-80fd-f45266ebab14","system_id":"levelo_inurba_marseille","lat":43.291994,"lon":5.392907,"is_reserved":false,"is_disabled":false,"rental_uris":{"android":"levelo://app?vid=1e55e673-918d-4cf6-80fd-f45266ebab14","ios":"levelo://app?vid=1e55e673-918d-4cf6-80fd-f45266ebab14"},"vehicle_type_id":"4","last_reported":1703196364,"current_range_meters":15200,"station_id":"ce4bh192rcd13ifvqdd0","pricing_plan_id":"free"},{"bike_id":"b1c38bac-293d-4f4e-9104-cc29dff78f8f","system_id":"levelo_inurba_marseille","lat":43.291994,"lon":5.392907,"is_reserved":false,"is_disabled":false,"rental_uris":{"android":"levelo://app?vid=b1c38bac-293d-4f4e-9104-cc29dff78f8f","ios":"levelo://app?vid=b1c38bac-293d-4f4e-9104-cc29dff78f8f"},"vehicle_type_id":"4","last_reported":1703196364,"current_range_meters":0,"station_id":"ce4bh192rcd13ifvqdd0","pricing_plan_id":"free"},{"bike_id":"7c2636e3-4942-4723-b44c-8451a7ead0ad","system_id":"levelo_inurba_marseille","lat":43.284538,"lon":5.358657,"is_reserved":false,"is_disabled":false,"rental_uris":{"android":"levelo://app?vid=7c2636e3-4942-4723-b44c-8451a7ead0ad","ios":"levelo://app?vid=7c2636e3-4942-4723-b44c-8451a7ead0ad"},"vehicle_type_id":"4","last_reported":1703196364,"current_range_meters":19600,"station_id":"ce4bhah2rcd13ifvqei0","pricing_plan_id":"free"},{"bike_id":"d831b56a-b1fc-47e5-b882-a485e822b747","system_id":"levelo_inurba_marseille","lat":43.28461,"lon":5.35901,"is_reserved":false,"is_disabled":false,"rental_uris":{"android":"levelo://app?vid=d831b56a-b1fc-47e5-b882-a485e822b747","ios":"levelo://app?vid=d831b56a-b1fc-47e5-b882-a485e822b747"},"vehicle_type_id":"4","last_reported":1703196364,"current_range_meters":0,"station_id":"ce4bhah2rcd13ifvqei0","pricing_plan_id":"free"},{"bike_id":"81bd09d0-ce4c-4a7e-981c-d4a1fbb9d52d","system_id":"levelo_inurba_marseille","lat":43.284538,"lon":5.358657,"is_reserved":false,"is_disabled":false,"rental_uris":{"android":"levelo://app?vid=81bd09d0-ce4c-4a7e-981c-d4a1fbb9d52d","ios":"levelo://app?vid=81bd09d0-ce4c-4a7e-981c-d4a1fbb9d52d"},"vehicle_type_id":"4","last_reported":1703196364,"current_range_meters":11600,"station_id":"ce4bhah2rcd13ifvqei0","pricing_plan_id":"free"},{"bike_id":"9382ba44-52c5-40f8-a4e8-d5c089cb2a27","system_id":"levelo_inurba_marseille","lat":43.284538,"lon":5.358657,"is_reserved":false,"is_disabled":false,"rental_uris":{"android":"levelo://app?vid=9382ba44-52c5-40f8-a4e8-d5c089cb2a27","ios":"levelo://app?vid=9382ba44-52c5-40f8-a4e8-d5c089cb2a27"},"vehicle_type_id":"4","last_reported":1703196364,"current_range_meters":14400,"station_id":"ce4bhah2rcd13ifvqei0","pricing_plan_id":"free"},{"bike_id":"614713e0-f904-46db-a563-19679d087ee5","system_id":"levelo_inurba_marseille","lat":43.294314,"lon":5.397498,"is_reserved":false,"is_disabled":false,"rental_uris":{"android":"levelo://app?vid=614713e0-f904-46db-a563-19679d087ee5","ios":"levelo://app?vid=614713e0-f904-46db-a563-19679d087ee5"},"vehicle_type_id":"4","last_reported":1703196364,"current_range_meters":30400,"station_id":"ce4bh3h2rcd13ifvqdo0","pricing_plan_id":"free"},{"bike_id":"b46f17f1-7187-440c-83c9-b6c7d75f2b5a","system_id":"levelo_inurba_marseille","lat":43.285856,"lon":5.350771,"is_reserved":false,"is_disabled":false,"rental_uris":{"android":"levelo://app?vid=b46f17f1-7187-440c-83c9-b6c7d75f2b5a","ios":"levelo://app?vid=b46f17f1-7187-440c-83c9-b6c7d75f2b5a"},"vehicle_type_id":"4","last_reported":1703196364,"current_range_meters":2800,"station_id":"ce4bhch2rcd13ifvqeug","pricing_plan_id":"free"},{"bike_id":"789e01f2-07aa-4639-b704-45c4198e6450","system_id":"levelo_inurba_marseille","lat":43.283998,"lon":5.375062,"is_reserved":false,"is_disabled":false,"rental_uris":{"android":"levelo://app?vid=789e01f2-07aa-4639-b704-45c4198e6450","ios":"levelo://app?vid=789e01f2-07aa-4639-b704-45c4198e6450"},"vehicle_type_id":"4","last_reported":1703196364,"current_range_meters":13600,"station_id":"ce4bh412rcd13ifvqds0","pricing_plan_id":"free"},{"bike_id":"8538e6dd-dbef-4a5a-a119-9a857fd021ad","system_id":"levelo_inurba_marseille","lat":43.33218,"lon":5.397067,"is_reserved":false,"is_disabled":false,"rental_uris":{"android":"levelo://app?vid=8538e6dd-dbef-4a5a-a119-9a857fd021ad","ios":"levelo://app?vid=8538e6dd-dbef-4a5a-a119-9a857fd021ad"},"vehicle_type_id":"4","last_reported":1703196364,"current_range_meters":0,"station_id":"","pricing_plan_id":"free"},{"bike_id":"424f93a3-84da-48dc-abc2-07ef639b1ab9","system_id":"levelo_inurba_marseille","lat":43.28664,"lon":5.38673,"is_reserved":false,"is_disabled":false,"rental_uris":{"android":"levelo://app?vid=424f93a3-84da-48dc-abc2-07ef639b1ab9","ios":"levelo://app?vid=424f93a3-84da-48dc-abc2-07ef639b1ab9"},"vehicle_type_id":"4","last_reported":1703196364,"current_range_meters":18400,"station_id":"ce4bh492rcd13ifvqdug","pricing_plan_id":"free"},{"bike_id":"9d6893e2-7192-4a6d-82e0-69c0a3078e44","system_id":"levelo_inurba_marseille","lat":43.319179,"lon":5.407725,"is_reserved":false,"is_disabled":false,"rental_uris":{"android":"levelo://app?vid=9d6893e2-7192-4a6d-82e0-69c0a3078e44","ios":"levelo://app?vid=9d6893e2-7192-4a6d-82e0-69c0a3078e44"},"vehicle_type_id":"4","last_reported":1703196364,"current_range_meters":0,"station_id":"ce4bhq12rcd13ifvqhig","pricing_plan_id":"free"},{"bike_id":"dfdadb00-295f-4147-bb7b-992e830130a9","system_id":"levelo_inurba_marseille","lat":43.323464,"lon":5.406297,"is_reserved":false,"is_disabled":false,"rental_uris":{"android":"levelo://app?vid=dfdadb00-295f-4147-bb7b-992e830130a9","ios":"levelo://app?vid=dfdadb00-295f-4147-bb7b-992e830130a9"},"vehicle_type_id":"4","last_reported":1703196364,"current_range_meters":31200,"station_id":"ce4bhq92rcd13ifvqhjg","pricing_plan_id":"free"},{"bike_id":"aa1bea3e-ff5f-4c49-a630-426ec3e7598d","system_id":"levelo_inurba_marseille","lat":43.323464,"lon":5.406297,"is_reserved":false,"is_disabled":false,"rental_uris":{"android":"levelo://app?vid=aa1bea3e-ff5f-4c49-a630-426ec3e7598d","ios":"levelo://app?vid=aa1bea3e-ff5f-4c49-a630-426ec3e7598d"},"vehicle_type_id":"4","last_reported":1703196364,"current_range_meters":30800,"station_id":"ce4bhq92rcd13ifvqhjg","pricing_plan_id":"free"},{"bike_id":"85bfb1f2-8daa-429b-9279-5f2872ae49ce","system_id":"levelo_inurba_marseille","lat":43.284793,"lon":5.384119,"is_reserved":false,"is_disabled":false,"rental_uris":{"android":"levelo://app?vid=85bfb1f2-8daa-429b-9279-5f2872ae49ce","ios":"levelo://app?vid=85bfb1f2-8daa-429b-9279-5f2872ae49ce"},"vehicle_type_id":"4","last_reported":1703196364,"current_range_meters":22400,"station_id":"ce4bh512rcd13ifvqe3g","pricing_plan_id":"free"},{"bike_id":"8785336d-3dfd-4f26-bfca-3d884280a672","system_id":"levelo_inurba_marseille","lat":43.297946,"lon":5.404063,"is_reserved":false,"is_disabled":false,"rental_uris":{"android":"levelo://app?vid=8785336d-3dfd-4f26-bfca-3d884280a672","ios":"levelo://app?vid=8785336d-3dfd-4f26-bfca-3d884280a672"},"vehicle_type_id":"4","last_reported":1703196364,"current_range_meters":18000,"station_id":"ce4bh112rcd13ifvqd90","pricing_plan_id":"free"},{"bike_id":"a2d6fbe2-6f68-408a-b2e9-a4eb0b7457b6","system_id":"levelo_inurba_marseille","lat":43.284793,"lon":5.384113,"is_reserved":false,"is_disabled":false,"rental_uris":{"android":"levelo://app?vid=a2d6fbe2-6f68-408a-b2e9-a4eb0b7457b6","ios":"levelo://app?vid=a2d6fbe2-6f68-408a-b2e9-a4eb0b7457b6"},"vehicle_type_id":"4","last_reported":1703196364,"current_range_meters":30400,"station_id":"ce4bh512rcd13ifvqe3g","pricing_plan_id":"free"},{"bike_id":"4bad87de-9f68-483c-a1e2-7bed09f95159","system_id":"levelo_inurba_marseille","lat":43.288501,"lon":5.393087,"is_reserved":false,"is_disabled":false,"rental_uris":{"android":"levelo://app?vid=4bad87de-9f68-483c-a1e2-7bed09f95159","ios":"levelo://app?vid=4bad87de-9f68-483c-a1e2-7bed09f95159"},"vehicle_type_id":"4","last_reported":1703196364,"current_range_meters":10800,"station_id":"ce4bh2p2rcd13ifvqdi0","pricing_plan_id":"free"},{"bike_id":"d56a2764-677e-4209-adfa-b8c19fb45def","system_id":"levelo_inurba_marseille","lat":43.32396,"lon":5.40656,"is_reserved":false,"is_disabled":false,"rental_uris":{"android":"levelo://app?vid=d56a2764-677e-4209-adfa-b8c19fb45def","ios":"levelo://app?vid=d56a2764-677e-4209-adfa-b8c19fb45def"},"vehicle_type_id":"4","last_reported":1703196364,"current_range_meters":16400,"station_id":"","pricing_plan_id":"free"},{"bike_id":"7efd8742-6b3d-4841-850f-5429d694aafd","system_id":"levelo_inurba_marseille","lat":43.284219,"lon":5.3497,"is_reserved":false,"is_disabled":false,"rental_uris":{"android":"levelo://app?vid=7efd8742-6b3d-4841-850f-5429d694aafd","ios":"levelo://app?vid=7efd8742-6b3d-4841-850f-5429d694aafd"},"vehicle_type_id":"4","last_reported":1703196364,"current_range_meters":12000,"station_id":"ce4bhbh2rcd13ifvqepg","pricing_plan_id":"free"},{"bike_id":"2158a846-6c1a-421d-8c30-5f0480c00175","system_id":"levelo_inurba_marseille","lat":43.284219,"lon":5.3497,"is_reserved":false,"is_disabled":false,"rental_uris":{"android":"levelo://app?vid=2158a846-6c1a-421d-8c30-5f0480c00175","ios":"levelo://app?vid=2158a846-6c1a-421d-8c30-5f0480c00175"},"vehicle_type_id":"4","last_reported":1703196364,"current_range_meters":28400,"station_id":"ce4bhbh2rcd13ifvqepg","pricing_plan_id":"free"},{"bike_id":"0f42eedd-bd33-445f-91fc-4e7504a96eb4","system_id":"levelo_inurba_marseille","lat":43.324316,"lon":5.407066,"is_reserved":false,"is_disabled":false,"rental_uris":{"android":"levelo://app?vid=0f42eedd-bd33-445f-91fc-4e7504a96eb4","ios":"levelo://app?vid=0f42eedd-bd33-445f-91fc-4e7504a96eb4"},"vehicle_type_id":"4","last_reported":1703196364,"current_range_meters":15600,"station_id":"","pricing_plan_id":"free"},{"bike_id":"90b26108-4dd8-43f2-a4e1-3cf57f5e6f6d","system_id":"levelo_inurba_marseille","lat":43.28039,"lon":5.369297,"is_reserved":false,"is_disabled":false,"rental_uris":{"android":"levelo://app?vid=90b26108-4dd8-43f2-a4e1-3cf57f5e6f6d","ios":"levelo://app?vid=90b26108-4dd8-43f2-a4e1-3cf57f5e6f6d"},"vehicle_type_id":"4","last_reported":1703196364,"current_range_meters":14000,"station_id":"ce4bha12rcd13ifvqef0","pricing_plan_id":"free"},{"bike_id":"65cc50fe-2134-4b29-bb15-9a4245357cdd","system_id":"levelo_inurba_marseille","lat":43.280382,"lon":5.369291,"is_reserved":false,"is_disabled":false,"rental_uris":{"android":"levelo://app?vid=65cc50fe-2134-4b29-bb15-9a4245357cdd","ios":"levelo://app?vid=65cc50fe-2134-4b29-bb15-9a4245357cdd"},"vehicle_type_id":"4","last_reported":1703196364,"current_range_meters":30800,"station_id":"ce4bha12rcd13ifvqef0","pricing_plan_id":"free"},{"bike_id":"d455de63-4ee9-4350-af98-c8f411895641","system_id":"levelo_inurba_marseille","lat":43.28039,"lon":5.369297,"is_reserved":false,"is_disabled":false,"rental_uris":{"android":"levelo://app?vid=d455de63-4ee9-4350-af98-c8f411895641","ios":"levelo://app?vid=d455de63-4ee9-4350-af98-c8f411895641"},"vehicle_type_id":"4","last_reported":1703196364,"current_range_meters":29200,"station_id":"ce4bha12rcd13ifvqef0","pricing_plan_id":"free"},{"bike_id":"761d47f8-37d7-4029-aae5-ce269d0cb6ad","system_id":"levelo_inurba_marseille","lat":43.281044,"lon":5.378308,"is_reserved":false,"is_disabled":false,"rental_uris":{"android":"levelo://app?vid=761d47f8-37d7-4029-aae5-ce269d0cb6ad","ios":"levelo://app?vid=761d47f8-37d7-4029-aae5-ce269d0cb6ad"},"vehicle_type_id":"4","last_reported":1703196364,"current_range_meters":22400,"station_id":"ce4bha12rcd13ifvqee0","pricing_plan_id":"free"},{"bike_id":"0c61c31d-3223-44cf-9de7-f3b258c1565a","system_id":"levelo_inurba_marseille","lat":43.296263,"lon":5.40601,"is_reserved":false,"is_disabled":false,"rental_uris":{"android":"levelo://app?vid=0c61c31d-3223-44cf-9de7-f3b258c1565a","ios":"levelo://app?vid=0c61c31d-3223-44cf-9de7-f3b258c1565a"},"vehicle_type_id":"4","last_reported":1703196364,"current_range_meters":22000,"station_id":"ce4bh0h2rcd13ifvqd60","pricing_plan_id":"free"},{"bike_id":"a83675bb-b76b-4c93-b089-6349e8f609e6","system_id":"levelo_inurba_marseille","lat":43.296312,"lon":5.405965,"is_reserved":false,"is_disabled":false,"rental_uris":{"android":"levelo://app?vid=a83675bb-b76b-4c93-b089-6349e8f609e6","ios":"levelo://app?vid=a83675bb-b76b-4c93-b089-6349e8f609e6"},"vehicle_type_id":"4","last_reported":1703196364,"current_range_meters":29200,"station_id":"ce4bh2h2rcd13ifvqdh0","pricing_plan_id":"free"},{"bike_id":"babe4483-c6c5-491e-85d2-9879a1697949","system_id":"levelo_inurba_marseille","lat":43.284462,"lon":5.392121,"is_reserved":false,"is_disabled":false,"rental_uris":{"android":"levelo://app?vid=babe4483-c6c5-491e-85d2-9879a1697949","ios":"levelo://app?vid=babe4483-c6c5-491e-85d2-9879a1697949"},"vehicle_type_id":"4","last_reported":1703196364,"current_range_meters":29200,"station_id":"ce4bhoh2rcd13ifvqh5g","pricing_plan_id":"free"},{"bike_id":"fac80a83-a280-44fe-86f0-3ec94d048ca3","system_id":"levelo_inurba_marseille","lat":43.28573,"lon":5.394992,"is_reserved":false,"is_disabled":false,"rental_uris":{"android":"levelo://app?vid=fac80a83-a280-44fe-86f0-3ec94d048ca3","ios":"levelo://app?vid=fac80a83-a280-44fe-86f0-3ec94d048ca3"},"vehicle_type_id":"4","last_reported":1703196364,"current_range_meters":0,"station_id":"ce4bh292rcd13ifvqdg0","pricing_plan_id":"free"},{"bike_id":"7600fc08-cfb1-4e11-b521-d39c27b76b5c","system_id":"levelo_inurba_marseille","lat":43.28573,"lon":5.394992,"is_reserved":false,"is_disabled":false,"rental_uris":{"android":"levelo://app?vid=7600fc08-cfb1-4e11-b521-d39c27b76b5c","ios":"levelo://app?vid=7600fc08-cfb1-4e11-b521-d39c27b76b5c"},"vehicle_type_id":"4","last_reported":1703196364,"current_range_meters":30000,"station_id":"ce4bh292rcd13ifvqdg0","pricing_plan_id":"free"},{"bike_id":"1a2a7a79-5229-40dd-ad78-17531549a2e1","system_id":"levelo_inurba_marseille","lat":43.28573,"lon":5.394992,"is_reserved":false,"is_disabled":false,"rental_uris":{"android":"levelo://app?vid=1a2a7a79-5229-40dd-ad78-17531549a2e1","ios":"levelo://app?vid=1a2a7a79-5229-40dd-ad78-17531549a2e1"},"vehicle_type_id":"4","last_reported":1703196364,"current_range_meters":20800,"station_id":"ce4bh292rcd13ifvqdg0","pricing_plan_id":"free"},{"bike_id":"8e916718-8e97-4602-92d8-836b75f84880","system_id":"levelo_inurba_marseille","lat":43.326605,"lon":5.409903,"is_reserved":false,"is_disabled":false,"rental_uris":{"android":"levelo://app?vid=8e916718-8e97-4602-92d8-836b75f84880","ios":"levelo://app?vid=8e916718-8e97-4602-92d8-836b75f84880"},"vehicle_type_id":"4","last_reported":1703196364,"current_range_meters":30000,"station_id":"ce4bhpp2rcd13ifvqhgg","pricing_plan_id":"free"},{"bike_id":"7f302279-6c81-430d-b83b-d444e2cd8d7d","system_id":"levelo_inurba_marseille","lat":43.279063,"lon":5.380036,"is_reserved":false,"is_disabled":false,"rental_uris":{"android":"levelo://app?vid=7f302279-6c81-430d-b83b-d444e2cd8d7d","ios":"levelo://app?vid=7f302279-6c81-430d-b83b-d444e2cd8d7d"},"vehicle_type_id":"4","last_reported":1703196364,"current_range_meters":16800,"station_id":"ce4bhf92rcd13ifvqf50","pricing_plan_id":"free"},{"bike_id":"c43ea10e-6fbd-4f5e-8d72-028597a39902","system_id":"levelo_inurba_marseille","lat":43.287154,"lon":5.399979,"is_reserved":false,"is_disabled":false,"rental_uris":{"android":"levelo://app?vid=c43ea10e-6fbd-4f5e-8d72-028597a39902","ios":"levelo://app?vid=c43ea10e-6fbd-4f5e-8d72-028597a39902"},"vehicle_type_id":"4","last_reported":1703196364,"current_range_meters":21600,"station_id":"ce4bho92rcd13ifvqh3g","pricing_plan_id":"free"},{"bike_id":"d1c12543-13a2-43ac-9a7a-805901e74491","system_id":"levelo_inurba_marseille","lat":43.287154,"lon":5.399979,"is_reserved":false,"is_disabled":false,"rental_uris":{"android":"levelo://app?vid=d1c12543-13a2-43ac-9a7a-805901e74491","ios":"levelo://app?vid=d1c12543-13a2-43ac-9a7a-805901e74491"},"vehicle_type_id":"4","last_reported":1703196364,"current_range_meters":14400,"station_id":"ce4bho92rcd13ifvqh3g","pricing_plan_id":"free"},{"bike_id":"48f6e051-9a01-470b-a58d-04d779d3f1e2","system_id":"levelo_inurba_marseille","lat":43.287154,"lon":5.399979,"is_reserved":false,"is_disabled":false,"rental_uris":{"android":"levelo://app?vid=48f6e051-9a01-470b-a58d-04d779d3f1e2","ios":"levelo://app?vid=48f6e051-9a01-470b-a58d-04d779d3f1e2"},"vehicle_type_id":"4","last_reported":1703196364,"current_range_meters":14800,"station_id":"ce4bho92rcd13ifvqh3g","pricing_plan_id":"free"},{"bike_id":"7803d554-da04-4080-b32d-249732d086ae","system_id":"levelo_inurba_marseille","lat":43.287154,"lon":5.399979,"is_reserved":false,"is_disabled":false,"rental_uris":{"android":"levelo://app?vid=7803d554-da04-4080-b32d-249732d086ae","ios":"levelo://app?vid=7803d554-da04-4080-b32d-249732d086ae"},"vehicle_type_id":"4","last_reported":1703196364,"current_range_meters":1200,"station_id":"ce4bho92rcd13ifvqh3g","pricing_plan_id":"free"},{"bike_id":"d421cad1-6533-4885-9cde-5b8f0aa16d67","system_id":"levelo_inurba_marseille","lat":43.299577,"lon":5.413277,"is_reserved":false,"is_disabled":false,"rental_uris":{"android":"levelo://app?vid=d421cad1-6533-4885-9cde-5b8f0aa16d67","ios":"levelo://app?vid=d421cad1-6533-4885-9cde-5b8f0aa16d67"},"vehicle_type_id":"4","last_reported":1703196364,"current_range_meters":6000,"station_id":"ce4bhp12rcd13ifvqh9g","pricing_plan_id":"free"},{"bike_id":"9d306e1f-a8e6-4454-bd3e-2cb69cf6da2b","system_id":"levelo_inurba_marseille","lat":43.279742,"lon":5.38744,"is_reserved":false,"is_disabled":false,"rental_uris":{"android":"levelo://app?vid=9d306e1f-a8e6-4454-bd3e-2cb69cf6da2b","ios":"levelo://app?vid=9d306e1f-a8e6-4454-bd3e-2cb69cf6da2b"},"vehicle_type_id":"4","last_reported":1703196364,"current_range_meters":4800,"station_id":"ce4bhg12rcd13ifvqf80","pricing_plan_id":"free"},{"bike_id":"aa6eeeb9-266d-4245-a0d8-1432a7450451","system_id":"levelo_inurba_marseille","lat":43.279742,"lon":5.38744,"is_reserved":false,"is_disabled":false,"rental_uris":{"android":"levelo://app?vid=aa6eeeb9-266d-4245-a0d8-1432a7450451","ios":"levelo://app?vid=aa6eeeb9-266d-4245-a0d8-1432a7450451"},"vehicle_type_id":"4","last_reported":1703196364,"current_range_meters":26000,"station_id":"ce4bhg12rcd13ifvqf80","pricing_plan_id":"free"},{"bike_id":"9c0b68dd-985d-45a8-8ffd-4b6b5ce40508","system_id":"levelo_inurba_marseille","lat":43.29263,"lon":5.40894,"is_reserved":false,"is_disabled":false,"rental_uris":{"android":"levelo://app?vid=9c0b68dd-985d-45a8-8ffd-4b6b5ce40508","ios":"levelo://app?vid=9c0b68dd-985d-45a8-8ffd-4b6b5ce40508"},"vehicle_type_id":"4","last_reported":1703196364,"current_range_meters":10800,"station_id":"ce4bh192rcd13ifvqdc0","pricing_plan_id":"free"},{"bike_id":"515731b8-9e9c-44f1-a190-39c368ddcb1f","system_id":"levelo_inurba_marseille","lat":43.292569,"lon":5.409107,"is_reserved":false,"is_disabled":false,"rental_uris":{"android":"levelo://app?vid=515731b8-9e9c-44f1-a190-39c368ddcb1f","ios":"levelo://app?vid=515731b8-9e9c-44f1-a190-39c368ddcb1f"},"vehicle_type_id":"4","last_reported":1703196364,"current_range_meters":1600,"station_id":"ce4bh192rcd13ifvqdc0","pricing_plan_id":"free"},{"bike_id":"8d9d10e2-ac2a-420d-a5f9-d371b704ea94","system_id":"levelo_inurba_marseille","lat":43.292569,"lon":5.409107,"is_reserved":false,"is_disabled":false,"rental_uris":{"android":"levelo://app?vid=8d9d10e2-ac2a-420d-a5f9-d371b704ea94","ios":"levelo://app?vid=8d9d10e2-ac2a-420d-a5f9-d371b704ea94"},"vehicle_type_id":"4","last_reported":1703196364,"current_range_meters":11200,"station_id":"ce4bh192rcd13ifvqdc0","pricing_plan_id":"free"},{"bike_id":"a3a9ee9e-bbe8-4e23-9267-4f64c69ca7b1","system_id":"levelo_inurba_marseille","lat":43.292569,"lon":5.409107,"is_reserved":false,"is_disabled":false,"rental_uris":{"android":"levelo://app?vid=a3a9ee9e-bbe8-4e23-9267-4f64c69ca7b1","ios":"levelo://app?vid=a3a9ee9e-bbe8-4e23-9267-4f64c69ca7b1"},"vehicle_type_id":"4","last_reported":1703196364,"current_range_meters":3600,"station_id":"ce4bh192rcd13ifvqdc0","pricing_plan_id":"free"},{"bike_id":"ce0e9fc3-e69f-4802-94b0-e30fd9af3603","system_id":"levelo_inurba_marseille","lat":43.292569,"lon":5.409107,"is_reserved":false,"is_disabled":false,"rental_uris":{"android":"levelo://app?vid=ce0e9fc3-e69f-4802-94b0-e30fd9af3603","ios":"levelo://app?vid=ce0e9fc3-e69f-4802-94b0-e30fd9af3603"},"vehicle_type_id":"4","last_reported":1703196364,"current_range_meters":1600,"station_id":"ce4bh192rcd13ifvqdc0","pricing_plan_id":"free"},{"bike_id":"8dd69acf-c793-447a-8783-89367ca6bd4c","system_id":"levelo_inurba_marseille","lat":43.280784,"lon":5.396622,"is_reserved":false,"is_disabled":false,"rental_uris":{"android":"levelo://app?vid=8dd69acf-c793-447a-8783-89367ca6bd4c","ios":"levelo://app?vid=8dd69acf-c793-447a-8783-89367ca6bd4c"},"vehicle_type_id":"4","last_reported":1703196364,"current_range_meters":26400,"station_id":"ce4bho12rcd13ifvqh2g","pricing_plan_id":"free"},{"bike_id":"ed47a379-ff26-4271-8a21-5d800d0ed53a","system_id":"levelo_inurba_marseille","lat":43.280784,"lon":5.396622,"is_reserved":false,"is_disabled":false,"rental_uris":{"android":"levelo://app?vid=ed47a379-ff26-4271-8a21-5d800d0ed53a","ios":"levelo://app?vid=ed47a379-ff26-4271-8a21-5d800d0ed53a"},"vehicle_type_id":"4","last_reported":1703196364,"current_range_meters":27600,"station_id":"ce4bho12rcd13ifvqh2g","pricing_plan_id":"free"},{"bike_id":"0dbfd95a-4cf2-4e6f-a184-f8465d8b479f","system_id":"levelo_inurba_marseille","lat":43.278401,"lon":5.392152,"is_reserved":false,"is_disabled":false,"rental_uris":{"android":"levelo://app?vid=0dbfd95a-4cf2-4e6f-a184-f8465d8b479f","ios":"levelo://app?vid=0dbfd95a-4cf2-4e6f-a184-f8465d8b479f"},"vehicle_type_id":"4","last_reported":1703196364,"current_range_meters":24000,"station_id":"ce4bhjp2rcd13ifvqga0","pricing_plan_id":"free"},{"bike_id":"e10cc150-4041-48d5-aaa1-023406c60c29","system_id":"levelo_inurba_marseille","lat":43.273613,"lon":5.362705,"is_reserved":false,"is_disabled":false,"rental_uris":{"android":"levelo://app?vid=e10cc150-4041-48d5-aaa1-023406c60c29","ios":"levelo://app?vid=e10cc150-4041-48d5-aaa1-023406c60c29"},"vehicle_type_id":"4","last_reported":1703196364,"current_range_meters":14000,"station_id":"ce4bhbh2rcd13ifvqeo0","pricing_plan_id":"free"},{"bike_id":"f6722288-54cd-4113-bd35-2c45bbbe5f84","system_id":"levelo_inurba_marseille","lat":43.27565,"lon":5.384243,"is_reserved":false,"is_disabled":false,"rental_uris":{"android":"levelo://app?vid=f6722288-54cd-4113-bd35-2c45bbbe5f84","ios":"levelo://app?vid=f6722288-54cd-4113-bd35-2c45bbbe5f84"},"vehicle_type_id":"4","last_reported":1703196364,"current_range_meters":26000,"station_id":"ce4bhh92rcd13ifvqfi0","pricing_plan_id":"free"},{"bike_id":"abe7b8a3-3af6-4156-a136-f077a1595c56","system_id":"levelo_inurba_marseille","lat":43.273609,"lon":5.362708,"is_reserved":false,"is_disabled":false,"rental_uris":{"android":"levelo://app?vid=abe7b8a3-3af6-4156-a136-f077a1595c56","ios":"levelo://app?vid=abe7b8a3-3af6-4156-a136-f077a1595c56"},"vehicle_type_id":"4","last_reported":1703196364,"current_range_meters":27200,"station_id":"ce4bhbh2rcd13ifvqeo0","pricing_plan_id":"free"},{"bike_id":"f1edc802-0ccc-4821-9ca7-279093c88d45","system_id":"levelo_inurba_marseille","lat":43.336134,"lon":5.410341,"is_reserved":false,"is_disabled":false,"rental_uris":{"android":"levelo://app?vid=f1edc802-0ccc-4821-9ca7-279093c88d45","ios":"levelo://app?vid=f1edc802-0ccc-4821-9ca7-279093c88d45"},"vehicle_type_id":"4","last_reported":1703196364,"current_range_meters":25600,"station_id":"ce4bhqh2rcd13ifvqhmg","pricing_plan_id":"free"},{"bike_id":"1bd068ac-52da-4ed2-966a-1cdc88eb0554","system_id":"levelo_inurba_marseille","lat":43.279975,"lon":5.40009,"is_reserved":false,"is_disabled":false,"rental_uris":{"android":"levelo://app?vid=1bd068ac-52da-4ed2-966a-1cdc88eb0554","ios":"levelo://app?vid=1bd068ac-52da-4ed2-966a-1cdc88eb0554"},"vehicle_type_id":"4","last_reported":1703196364,"current_range_meters":22000,"station_id":"ce4bho92rcd13ifvqh4g","pricing_plan_id":"free"},{"bike_id":"b3b1917b-e8fd-4337-a586-ebe5889634cc","system_id":"levelo_inurba_marseille","lat":43.279952,"lon":5.400085,"is_reserved":false,"is_disabled":false,"rental_uris":{"android":"levelo://app?vid=b3b1917b-e8fd-4337-a586-ebe5889634cc","ios":"levelo://app?vid=b3b1917b-e8fd-4337-a586-ebe5889634cc"},"vehicle_type_id":"4","last_reported":1703196364,"current_range_meters":24000,"station_id":"ce4bho92rcd13ifvqh4g","pricing_plan_id":"free"},{"bike_id":"db97d23b-b358-42c7-9b7c-756cec040fbb","system_id":"levelo_inurba_marseille","lat":43.317121,"lon":5.423936,"is_reserved":false,"is_disabled":false,"rental_uris":{"android":"levelo://app?vid=db97d23b-b358-42c7-9b7c-756cec040fbb","ios":"levelo://app?vid=db97d23b-b358-42c7-9b7c-756cec040fbb"},"vehicle_type_id":"4","last_reported":1703196364,"current_range_meters":31600,"station_id":"ce4bhp92rcd13ifvqhbg","pricing_plan_id":"free"},{"bike_id":"498eff31-f366-4e6d-8222-0820a528cb33","system_id":"levelo_inurba_marseille","lat":43.317121,"lon":5.423936,"is_reserved":false,"is_disabled":false,"rental_uris":{"android":"levelo://app?vid=498eff31-f366-4e6d-8222-0820a528cb33","ios":"levelo://app?vid=498eff31-f366-4e6d-8222-0820a528cb33"},"vehicle_type_id":"4","last_reported":1703196364,"current_range_meters":22400,"station_id":"ce4bhp92rcd13ifvqhbg","pricing_plan_id":"free"},{"bike_id":"7ada0439-e02f-43f4-a65c-6cdbad12b2d5","system_id":"levelo_inurba_marseille","lat":43.317121,"lon":5.423936,"is_reserved":false,"is_disabled":false,"rental_uris":{"android":"levelo://app?vid=7ada0439-e02f-43f4-a65c-6cdbad12b2d5","ios":"levelo://app?vid=7ada0439-e02f-43f4-a65c-6cdbad12b2d5"},"vehicle_type_id":"4","last_reported":1703196364,"current_range_meters":28400,"station_id":"ce4bhp92rcd13ifvqhbg","pricing_plan_id":"free"},{"bike_id":"097bc4e0-b542-4537-a4e9-cb2bbc6d2077","system_id":"levelo_inurba_marseille","lat":43.340804,"lon":5.410219,"is_reserved":false,"is_disabled":false,"rental_uris":{"android":"levelo://app?vid=097bc4e0-b542-4537-a4e9-cb2bbc6d2077","ios":"levelo://app?vid=097bc4e0-b542-4537-a4e9-cb2bbc6d2077"},"vehicle_type_id":"4","last_reported":1703196364,"current_range_meters":30400,"station_id":"ce4bhqh2rcd13ifvqhlg","pricing_plan_id":"free"},{"bike_id":"bc96446b-31f5-4313-822f-625edd6d0b52","system_id":"levelo_inurba_marseille","lat":43.295523,"lon":5.422926,"is_reserved":false,"is_disabled":false,"rental_uris":{"android":"levelo://app?vid=bc96446b-31f5-4313-822f-625edd6d0b52","ios":"levelo://app?vid=bc96446b-31f5-4313-822f-625edd6d0b52"},"vehicle_type_id":"4","last_reported":1703196364,"current_range_meters":26800,"station_id":"ce4bhph2rcd13ifvqhdg","pricing_plan_id":"free"},{"bike_id":"96484c65-8dd7-4167-a438-a7d837c6b7a7","system_id":"levelo_inurba_marseille","lat":43.295523,"lon":5.422926,"is_reserved":false,"is_disabled":false,"rental_uris":{"android":"levelo://app?vid=96484c65-8dd7-4167-a438-a7d837c6b7a7","ios":"levelo://app?vid=96484c65-8dd7-4167-a438-a7d837c6b7a7"},"vehicle_type_id":"4","last_reported":1703196364,"current_range_meters":31200,"station_id":"ce4bhph2rcd13ifvqhdg","pricing_plan_id":"free"},{"bike_id":"0454933a-5656-4345-852e-0e25afae89fb","system_id":"levelo_inurba_marseille","lat":43.295523,"lon":5.422926,"is_reserved":false,"is_disabled":false,"rental_uris":{"android":"levelo://app?vid=0454933a-5656-4345-852e-0e25afae89fb","ios":"levelo://app?vid=0454933a-5656-4345-852e-0e25afae89fb"},"vehicle_type_id":"4","last_reported":1703196364,"current_range_meters":29600,"station_id":"ce4bhph2rcd13ifvqhdg","pricing_plan_id":"free"},{"bike_id":"a80c78b0-54bd-4c06-a456-7ff9cb5fb92c","system_id":"levelo_inurba_marseille","lat":43.29556,"lon":5.422811,"is_reserved":false,"is_disabled":false,"rental_uris":{"android":"levelo://app?vid=a80c78b0-54bd-4c06-a456-7ff9cb5fb92c","ios":"levelo://app?vid=a80c78b0-54bd-4c06-a456-7ff9cb5fb92c"},"vehicle_type_id":"4","last_reported":1703196364,"current_range_meters":11600,"station_id":"ce4bhph2rcd13ifvqhdg","pricing_plan_id":"free"},{"bike_id":"7b50e92c-923d-47a0-98cd-9b6ef12b5315","system_id":"levelo_inurba_marseille","lat":43.295523,"lon":5.422926,"is_reserved":false,"is_disabled":false,"rental_uris":{"android":"levelo://app?vid=7b50e92c-923d-47a0-98cd-9b6ef12b5315","ios":"levelo://app?vid=7b50e92c-923d-47a0-98cd-9b6ef12b5315"},"vehicle_type_id":"4","last_reported":1703196364,"current_range_meters":25600,"station_id":"ce4bhph2rcd13ifvqhdg","pricing_plan_id":"free"},{"bike_id":"9449eb80-d18a-481d-bf00-b32c1d52c065","system_id":"levelo_inurba_marseille","lat":43.295523,"lon":5.422926,"is_reserved":false,"is_disabled":false,"rental_uris":{"android":"levelo://app?vid=9449eb80-d18a-481d-bf00-b32c1d52c065","ios":"levelo://app?vid=9449eb80-d18a-481d-bf00-b32c1d52c065"},"vehicle_type_id":"4","last_reported":1703196364,"current_range_meters":6400,"station_id":"ce4bhph2rcd13ifvqhdg","pricing_plan_id":"free"},{"bike_id":"218ca4ab-a316-43a6-87cd-acfc23cd8e62","system_id":"levelo_inurba_marseille","lat":43.295523,"lon":5.422926,"is_reserved":false,"is_disabled":false,"rental_uris":{"android":"levelo://app?vid=218ca4ab-a316-43a6-87cd-acfc23cd8e62","ios":"levelo://app?vid=218ca4ab-a316-43a6-87cd-acfc23cd8e62"},"vehicle_type_id":"4","last_reported":1703196364,"current_range_meters":21600,"station_id":"ce4bhph2rcd13ifvqhdg","pricing_plan_id":"free"},{"bike_id":"b55db1a0-b820-479b-9929-7610c21584c5","system_id":"levelo_inurba_marseille","lat":43.295511,"lon":5.422926,"is_reserved":false,"is_disabled":false,"rental_uris":{"android":"levelo://app?vid=b55db1a0-b820-479b-9929-7610c21584c5","ios":"levelo://app?vid=b55db1a0-b820-479b-9929-7610c21584c5"},"vehicle_type_id":"4","last_reported":1703196364,"current_range_meters":25200,"station_id":"ce4bhph2rcd13ifvqhdg","pricing_plan_id":"free"},{"bike_id":"7d800ac1-1b26-47dd-97c6-49cd89d9ab11","system_id":"levelo_inurba_marseille","lat":43.295511,"lon":5.422926,"is_reserved":false,"is_disabled":false,"rental_uris":{"android":"levelo://app?vid=7d800ac1-1b26-47dd-97c6-49cd89d9ab11","ios":"levelo://app?vid=7d800ac1-1b26-47dd-97c6-49cd89d9ab11"},"vehicle_type_id":"4","last_reported":1703196364,"current_range_meters":14400,"station_id":"ce4bhph2rcd13ifvqhdg","pricing_plan_id":"free"},{"bike_id":"23d13786-8601-4dce-a424-5d4a35dea444","system_id":"levelo_inurba_marseille","lat":43.295511,"lon":5.422926,"is_reserved":false,"is_disabled":false,"rental_uris":{"android":"levelo://app?vid=23d13786-8601-4dce-a424-5d4a35dea444","ios":"levelo://app?vid=23d13786-8601-4dce-a424-5d4a35dea444"},"vehicle_type_id":"4","last_reported":1703196364,"current_range_meters":18400,"station_id":"ce4bhph2rcd13ifvqhdg","pricing_plan_id":"free"},{"bike_id":"9f2b1114-cc48-4150-8294-6c7a458bf29d","system_id":"levelo_inurba_marseille","lat":43.278128,"lon":5.407195,"is_reserved":false,"is_disabled":false,"rental_uris":{"android":"levelo://app?vid=9f2b1114-cc48-4150-8294-6c7a458bf29d","ios":"levelo://app?vid=9f2b1114-cc48-4150-8294-6c7a458bf29d"},"vehicle_type_id":"4","last_reported":1703196364,"current_range_meters":14800,"station_id":"ce4bhnh2rcd13ifvqgtg","pricing_plan_id":"free"},{"bike_id":"4c5533f9-37d0-4c34-9e51-5d21edfb20ad","system_id":"levelo_inurba_marseille","lat":43.278128,"lon":5.407195,"is_reserved":false,"is_disabled":false,"rental_uris":{"android":"levelo://app?vid=4c5533f9-37d0-4c34-9e51-5d21edfb20ad","ios":"levelo://app?vid=4c5533f9-37d0-4c34-9e51-5d21edfb20ad"},"vehicle_type_id":"4","last_reported":1703196364,"current_range_meters":22800,"station_id":"ce4bhnh2rcd13ifvqgtg","pricing_plan_id":"free"},{"bike_id":"2385a3dc-ecc5-4c8e-b554-c8e4b25ef268","system_id":"levelo_inurba_marseille","lat":43.278128,"lon":5.407195,"is_reserved":false,"is_disabled":false,"rental_uris":{"android":"levelo://app?vid=2385a3dc-ecc5-4c8e-b554-c8e4b25ef268","ios":"levelo://app?vid=2385a3dc-ecc5-4c8e-b554-c8e4b25ef268"},"vehicle_type_id":"4","last_reported":1703196364,"current_range_meters":24400,"station_id":"ce4bhnh2rcd13ifvqgtg","pricing_plan_id":"free"},{"bike_id":"59d66a0a-b392-45cf-9cfd-32926820ebdd","system_id":"levelo_inurba_marseille","lat":43.2781,"lon":5.40712,"is_reserved":false,"is_disabled":false,"rental_uris":{"android":"levelo://app?vid=59d66a0a-b392-45cf-9cfd-32926820ebdd","ios":"levelo://app?vid=59d66a0a-b392-45cf-9cfd-32926820ebdd"},"vehicle_type_id":"4","last_reported":1703196364,"current_range_meters":0,"station_id":"ce4bhnh2rcd13ifvqgtg","pricing_plan_id":"free"},{"bike_id":"199d6611-9c4f-4815-877f-00c49477778f","system_id":"levelo_inurba_marseille","lat":43.278128,"lon":5.407195,"is_reserved":false,"is_disabled":false,"rental_uris":{"android":"levelo://app?vid=199d6611-9c4f-4815-877f-00c49477778f","ios":"levelo://app?vid=199d6611-9c4f-4815-877f-00c49477778f"},"vehicle_type_id":"4","last_reported":1703196364,"current_range_meters":10400,"station_id":"ce4bhnh2rcd13ifvqgtg","pricing_plan_id":"free"},{"bike_id":"b979e0ac-564d-4365-807b-d6390958382e","system_id":"levelo_inurba_marseille","lat":43.278128,"lon":5.407195,"is_reserved":false,"is_disabled":false,"rental_uris":{"android":"levelo://app?vid=b979e0ac-564d-4365-807b-d6390958382e","ios":"levelo://app?vid=b979e0ac-564d-4365-807b-d6390958382e"},"vehicle_type_id":"4","last_reported":1703196364,"current_range_meters":22000,"station_id":"ce4bhnh2rcd13ifvqgtg","pricing_plan_id":"free"},{"bike_id":"1816294e-acfe-4c85-b191-7e56aab0b239","system_id":"levelo_inurba_marseille","lat":43.269467,"lon":5.386439,"is_reserved":false,"is_disabled":false,"rental_uris":{"android":"levelo://app?vid=1816294e-acfe-4c85-b191-7e56aab0b239","ios":"levelo://app?vid=1816294e-acfe-4c85-b191-7e56aab0b239"},"vehicle_type_id":"4","last_reported":1703196364,"current_range_meters":11600,"station_id":"ce4bhh92rcd13ifvqfh0","pricing_plan_id":"free"},{"bike_id":"72b2f34c-31f6-4eb9-823e-d44187203595","system_id":"levelo_inurba_marseille","lat":43.279465,"lon":5.410561,"is_reserved":false,"is_disabled":false,"rental_uris":{"android":"levelo://app?vid=72b2f34c-31f6-4eb9-823e-d44187203595","ios":"levelo://app?vid=72b2f34c-31f6-4eb9-823e-d44187203595"},"vehicle_type_id":"4","last_reported":1703196364,"current_range_meters":6400,"station_id":"ce4bhnp2rcd13ifvqh0g","pricing_plan_id":"free"},{"bike_id":"56e77a7b-e5be-46cd-ac56-fbe5af53b827","system_id":"levelo_inurba_marseille","lat":43.27996,"lon":5.416624,"is_reserved":false,"is_disabled":false,"rental_uris":{"android":"levelo://app?vid=56e77a7b-e5be-46cd-ac56-fbe5af53b827","ios":"levelo://app?vid=56e77a7b-e5be-46cd-ac56-fbe5af53b827"},"vehicle_type_id":"4","last_reported":1703196364,"current_range_meters":6400,"station_id":"ce4bho12rcd13ifvqh1g","pricing_plan_id":"free"},{"bike_id":"9692d61b-7af5-4076-aa8d-aca8a3a47860","system_id":"levelo_inurba_marseille","lat":43.27996,"lon":5.416624,"is_reserved":false,"is_disabled":false,"rental_uris":{"android":"levelo://app?vid=9692d61b-7af5-4076-aa8d-aca8a3a47860","ios":"levelo://app?vid=9692d61b-7af5-4076-aa8d-aca8a3a47860"},"vehicle_type_id":"4","last_reported":1703196364,"current_range_meters":21200,"station_id":"ce4bho12rcd13ifvqh1g","pricing_plan_id":"free"},{"bike_id":"ce0c4d09-c919-48d9-92ee-b40420eed1b4","system_id":"levelo_inurba_marseille","lat":43.27996,"lon":5.416624,"is_reserved":false,"is_disabled":false,"rental_uris":{"android":"levelo://app?vid=ce0c4d09-c919-48d9-92ee-b40420eed1b4","ios":"levelo://app?vid=ce0c4d09-c919-48d9-92ee-b40420eed1b4"},"vehicle_type_id":"4","last_reported":1703196364,"current_range_meters":11200,"station_id":"ce4bho12rcd13ifvqh1g","pricing_plan_id":"free"},{"bike_id":"57a7d671-dfda-4301-b34c-9843199a6119","system_id":"levelo_inurba_marseille","lat":43.27996,"lon":5.416624,"is_reserved":false,"is_disabled":false,"rental_uris":{"android":"levelo://app?vid=57a7d671-dfda-4301-b34c-9843199a6119","ios":"levelo://app?vid=57a7d671-dfda-4301-b34c-9843199a6119"},"vehicle_type_id":"4","last_reported":1703196364,"current_range_meters":16400,"station_id":"ce4bho12rcd13ifvqh1g","pricing_plan_id":"free"},{"bike_id":"73c210fb-a655-4271-85b4-334effb9941b","system_id":"levelo_inurba_marseille","lat":43.27996,"lon":5.416624,"is_reserved":false,"is_disabled":false,"rental_uris":{"android":"levelo://app?vid=73c210fb-a655-4271-85b4-334effb9941b","ios":"levelo://app?vid=73c210fb-a655-4271-85b4-334effb9941b"},"vehicle_type_id":"4","last_reported":1703196364,"current_range_meters":26800,"station_id":"ce4bho12rcd13ifvqh1g","pricing_plan_id":"free"},{"bike_id":"ffb42bd9-1283-4b45-a202-2c80fe9adde6","system_id":"levelo_inurba_marseille","lat":43.267966,"lon":5.393976,"is_reserved":false,"is_disabled":false,"rental_uris":{"android":"levelo://app?vid=ffb42bd9-1283-4b45-a202-2c80fe9adde6","ios":"levelo://app?vid=ffb42bd9-1283-4b45-a202-2c80fe9adde6"},"vehicle_type_id":"4","last_reported":1703196364,"current_range_meters":22000,"station_id":"ce4bhh12rcd13ifvqfg0","pricing_plan_id":"free"},{"bike_id":"fb6a6b4b-49a9-42d9-99f7-b6424ad2d0bd","system_id":"levelo_inurba_marseille","lat":43.265569,"lon":5.390047,"is_reserved":false,"is_disabled":false,"rental_uris":{"android":"levelo://app?vid=fb6a6b4b-49a9-42d9-99f7-b6424ad2d0bd","ios":"levelo://app?vid=fb6a6b4b-49a9-42d9-99f7-b6424ad2d0bd"},"vehicle_type_id":"4","last_reported":1703196364,"current_range_meters":3200,"station_id":"ce4bhe12rcd13ifvqf30","pricing_plan_id":"free"},{"bike_id":"56874854-692d-4d9c-82a9-b6ca4904d248","system_id":"levelo_inurba_marseille","lat":43.26934,"lon":5.4026,"is_reserved":false,"is_disabled":false,"rental_uris":{"android":"levelo://app?vid=56874854-692d-4d9c-82a9-b6ca4904d248","ios":"levelo://app?vid=56874854-692d-4d9c-82a9-b6ca4904d248"},"vehicle_type_id":"4","last_reported":1703196364,"current_range_meters":0,"station_id":"cjm6bp8fraef2m0cb0m0","pricing_plan_id":"free"},{"bike_id":"f9bd8812-361b-4cf8-a08f-c5df49e9a80a","system_id":"levelo_inurba_marseille","lat":43.31711,"lon":5.43705,"is_reserved":false,"is_disabled":false,"rental_uris":{"android":"levelo://app?vid=f9bd8812-361b-4cf8-a08f-c5df49e9a80a","ios":"levelo://app?vid=f9bd8812-361b-4cf8-a08f-c5df49e9a80a"},"vehicle_type_id":"4","last_reported":1703196364,"current_range_meters":18400,"station_id":"ce4bhp92rcd13ifvqhcg","pricing_plan_id":"free"},{"bike_id":"2e62984b-8771-47f8-8e36-d6a6f38059c0","system_id":"levelo_inurba_marseille","lat":43.317104,"lon":5.436818,"is_reserved":false,"is_disabled":false,"rental_uris":{"android":"levelo://app?vid=2e62984b-8771-47f8-8e36-d6a6f38059c0","ios":"levelo://app?vid=2e62984b-8771-47f8-8e36-d6a6f38059c0"},"vehicle_type_id":"4","last_reported":1703196364,"current_range_meters":28400,"station_id":"ce4bhp92rcd13ifvqhcg","pricing_plan_id":"free"},{"bike_id":"2d6427c7-a10a-4b24-b0a5-95d867c65295","system_id":"levelo_inurba_marseille","lat":43.317104,"lon":5.436818,"is_reserved":false,"is_disabled":false,"rental_uris":{"android":"levelo://app?vid=2d6427c7-a10a-4b24-b0a5-95d867c65295","ios":"levelo://app?vid=2d6427c7-a10a-4b24-b0a5-95d867c65295"},"vehicle_type_id":"4","last_reported":1703196364,"current_range_meters":22400,"station_id":"ce4bhp92rcd13ifvqhcg","pricing_plan_id":"free"},{"bike_id":"56adf3c8-c8d4-4438-805b-e2423bf864eb","system_id":"levelo_inurba_marseille","lat":43.26202,"lon":5.379299,"is_reserved":false,"is_disabled":false,"rental_uris":{"android":"levelo://app?vid=56adf3c8-c8d4-4438-805b-e2423bf864eb","ios":"levelo://app?vid=56adf3c8-c8d4-4438-805b-e2423bf864eb"},"vehicle_type_id":"4","last_reported":1703196364,"current_range_meters":26400,"station_id":"ce4bhjp2rcd13ifvqg90","pricing_plan_id":"free"},{"bike_id":"9a5f8174-3e72-4d9c-80d4-82c546a62721","system_id":"levelo_inurba_marseille","lat":43.271368,"lon":5.40928,"is_reserved":false,"is_disabled":false,"rental_uris":{"android":"levelo://app?vid=9a5f8174-3e72-4d9c-80d4-82c546a62721","ios":"levelo://app?vid=9a5f8174-3e72-4d9c-80d4-82c546a62721"},"vehicle_type_id":"4","last_reported":1703196364,"current_range_meters":26800,"station_id":"ce4bhl12rcd13ifvqgf0","pricing_plan_id":"free"},{"bike_id":"fea80754-0ed8-4101-9df0-e35e99a4821b","system_id":"levelo_inurba_marseille","lat":43.27177,"lon":5.41003,"is_reserved":false,"is_disabled":false,"rental_uris":{"android":"levelo://app?vid=fea80754-0ed8-4101-9df0-e35e99a4821b","ios":"levelo://app?vid=fea80754-0ed8-4101-9df0-e35e99a4821b"},"vehicle_type_id":"4","last_reported":1703196364,"current_range_meters":28400,"station_id":"ce4bhl12rcd13ifvqgf0","pricing_plan_id":"free"},{"bike_id":"4d94d7e5-0d63-4bd9-95f3-644dbd9b0307","system_id":"levelo_inurba_marseille","lat":43.271388,"lon":5.409269,"is_reserved":false,"is_disabled":false,"rental_uris":{"android":"levelo://app?vid=4d94d7e5-0d63-4bd9-95f3-644dbd9b0307","ios":"levelo://app?vid=4d94d7e5-0d63-4bd9-95f3-644dbd9b0307"},