{"last_updated":1778506541,"ttl":60,"version":"2.2","data":{"bikes":[{"bike_id":"31620c74-0c14-4f76-b057-782a6c3126ee","system_id":"levelo_inurba_marseille","lat":43.24799,"lon":5.37449,"is_reserved":false,"is_disabled":false,"rental_uris":{"android":"levelo://app?vid=31620c74-0c14-4f76-b057-782a6c3126ee","ios":"levelo://app?vid=31620c74-0c14-4f76-b057-782a6c3126ee"},"vehicle_type_id":"4","last_reported":1778506541,"current_range_meters":2800,"station_id":"ce4bhgh2rcd13ifvqfb0","pricing_plan_id":"cebpf4jnsgd1na2vs0mg"},{"bike_id":"3545b5c1-c8b0-4e00-a4e0-ddbcd3f0bbb5","system_id":"levelo_inurba_marseille","lat":43.24182,"lon":5.39735,"is_reserved":false,"is_disabled":false,"rental_uris":{"android":"levelo://app?vid=3545b5c1-c8b0-4e00-a4e0-ddbcd3f0bbb5","ios":"levelo://app?vid=3545b5c1-c8b0-4e00-a4e0-ddbcd3f0bbb5"},"vehicle_type_id":"4","last_reported":1778506541,"current_range_meters":2800,"station_id":"ce4bhn12rcd13ifvqgpg","pricing_plan_id":"cebpf4jnsgd1na2vs0mg"},{"bike_id":"cc5ac29e-d824-46cc-97be-f9a5c0ffb7de","system_id":"levelo_inurba_marseille","lat":43.2796,"lon":5.39582,"is_reserved":false,"is_disabled":false,"rental_uris":{"android":"levelo://app?vid=cc5ac29e-d824-46cc-97be-f9a5c0ffb7de","ios":"levelo://app?vid=cc5ac29e-d824-46cc-97be-f9a5c0ffb7de"},"vehicle_type_id":"4","last_reported":1778506541,"current_range_meters":2800,"station_id":"ce4bhf92rcd13ifvqf40","pricing_plan_id":"cebpf4jnsgd1na2vs0mg"},{"bike_id":"cce62180-fd5a-4639-ab7d-8e814adcf987","system_id":"levelo_inurba_marseille","lat":43.28424,"lon":5.34992,"is_reserved":false,"is_disabled":false,"rental_uris":{"android":"levelo://app?vid=cce62180-fd5a-4639-ab7d-8e814adcf987","ios":"levelo://app?vid=cce62180-fd5a-4639-ab7d-8e814adcf987"},"vehicle_type_id":"4","last_reported":1778506541,"current_range_meters":2800,"station_id":"ce4bhbh2rcd13ifvqepg","pricing_plan_id":"cebpf4jnsgd1na2vs0mg"},{"bike_id":"fc9021dd-6a45-4eae-9ef5-c862bf514c41","system_id":"levelo_inurba_marseille","lat":43.29913,"lon":5.37462,"is_reserved":false,"is_disabled":true,"rental_uris":{"android":"levelo://app?vid=fc9021dd-6a45-4eae-9ef5-c862bf514c41","ios":"levelo://app?vid=fc9021dd-6a45-4eae-9ef5-c862bf514c41"},"vehicle_type_id":"4","last_reported":1778506541,"current_range_meters":2800,"station_id":"","pricing_plan_id":"cebpf4jnsgd1na2vs0mg"},{"bike_id":"18ce8587-878a-4858-b601-9d7adf009359","system_id":"levelo_inurba_marseille","lat":43.27172,"lon":5.39156,"is_reserved":false,"is_disabled":true,"rental_uris":{"android":"levelo://app?vid=18ce8587-878a-4858-b601-9d7adf009359","ios":"levelo://app?vid=18ce8587-878a-4858-b601-9d7adf009359"},"vehicle_type_id":"4","last_reported":1778506541,"current_range_meters":3200,"station_id":"ce4bhhp2rcd13ifvqfm0","pricing_plan_id":"cebpf4jnsgd1na2vs0mg"},{"bike_id":"dc3c1ae4-2e4d-4477-83ea-a0ef256ed5b7","system_id":"levelo_inurba_marseille","lat":43.29577,"lon":5.37499,"is_reserved":false,"is_disabled":true,"rental_uris":{"android":"levelo://app?vid=dc3c1ae4-2e4d-4477-83ea-a0ef256ed5b7","ios":"levelo://app?vid=dc3c1ae4-2e4d-4477-83ea-a0ef256ed5b7"},"vehicle_type_id":"4","last_reported":1778506541,"current_range_meters":3200,"station_id":"ce4bgh92rcd13ifvqb50","pricing_plan_id":"cebpf4jnsgd1na2vs0mg"},{"bike_id":"be7383ac-c2d2-402b-8bfc-4584706b845c","system_id":"levelo_inurba_marseille","lat":43.26372,"lon":5.41058,"is_reserved":false,"is_disabled":false,"rental_uris":{"android":"levelo://app?vid=be7383ac-c2d2-402b-8bfc-4584706b845c","ios":"levelo://app?vid=be7383ac-c2d2-402b-8bfc-4584706b845c"},"vehicle_type_id":"4","last_reported":1778506541,"current_range_meters":3200,"station_id":"st_d4e5ca6na9uc73bfl5fg","pricing_plan_id":"cebpf4jnsgd1na2vs0mg"},{"bike_id":"5b5a15fd-42e3-46a6-b878-7eda56b4b179","system_id":"levelo_inurba_marseille","lat":43.30807,"lon":5.38173,"is_reserved":false,"is_disabled":true,"rental_uris":{"android":"levelo://app?vid=5b5a15fd-42e3-46a6-b878-7eda56b4b179","ios":"levelo://app?vid=5b5a15fd-42e3-46a6-b878-7eda56b4b179"},"vehicle_type_id":"4","last_reported":1778506541,"current_range_meters":3200,"station_id":"ce4bgt12rcd13ifvqce0","pricing_plan_id":"cebpf4jnsgd1na2vs0mg"},{"bike_id":"89bdea9c-d861-4eda-8128-66d6f942d629","system_id":"levelo_inurba_marseille","lat":43.25287,"lon":5.42208,"is_reserved":false,"is_disabled":true,"rental_uris":{"android":"levelo://app?vid=89bdea9c-d861-4eda-8128-66d6f942d629","ios":"levelo://app?vid=89bdea9c-d861-4eda-8128-66d6f942d629"},"vehicle_type_id":"4","last_reported":1778506541,"current_range_meters":3200,"station_id":"st_d2m65c5bi1j21697t3ng","pricing_plan_id":"cebpf4jnsgd1na2vs0mg"},{"bike_id":"f6cf03c6-7189-424c-a1a6-0a5425e7c128","system_id":"levelo_inurba_marseille","lat":43.23148,"lon":5.43709,"is_reserved":false,"is_disabled":false,"rental_uris":{"android":"levelo://app?vid=f6cf03c6-7189-424c-a1a6-0a5425e7c128","ios":"levelo://app?vid=f6cf03c6-7189-424c-a1a6-0a5425e7c128"},"vehicle_type_id":"4","last_reported":1778506541,"current_range_meters":3200,"station_id":"ce4bhmp2rcd13ifvqgog","pricing_plan_id":"cebpf4jnsgd1na2vs0mg"},{"bike_id":"5103ffce-f606-4635-b3ef-fe0ac08024a2","system_id":"levelo_inurba_marseille","lat":43.25727,"lon":5.41109,"is_reserved":false,"is_disabled":false,"rental_uris":{"android":"levelo://app?vid=5103ffce-f606-4635-b3ef-fe0ac08024a2","ios":"levelo://app?vid=5103ffce-f606-4635-b3ef-fe0ac08024a2"},"vehicle_type_id":"4","last_reported":1778506541,"current_range_meters":3200,"station_id":"ce4bhkp2rcd13ifvqgd0","pricing_plan_id":"cebpf4jnsgd1na2vs0mg"},{"bike_id":"48d9e1fb-f568-4f54-8a16-e2cc98917175","system_id":"levelo_inurba_marseille","lat":43.250914,"lon":5.39514,"is_reserved":false,"is_disabled":false,"rental_uris":{"android":"levelo://app?vid=48d9e1fb-f568-4f54-8a16-e2cc98917175","ios":"levelo://app?vid=48d9e1fb-f568-4f54-8a16-e2cc98917175"},"vehicle_type_id":"4","last_reported":1778506541,"current_range_meters":3200,"station_id":"ce4bhm12rcd13ifvqgkg","pricing_plan_id":"cebpf4jnsgd1na2vs0mg"},{"bike_id":"360fabcf-7148-4f04-8f44-348d99cbecab","system_id":"levelo_inurba_marseille","lat":43.25149,"lon":5.40382,"is_reserved":false,"is_disabled":false,"rental_uris":{"android":"levelo://app?vid=360fabcf-7148-4f04-8f44-348d99cbecab","ios":"levelo://app?vid=360fabcf-7148-4f04-8f44-348d99cbecab"},"vehicle_type_id":"4","last_reported":1778506541,"current_range_meters":3600,"station_id":"","pricing_plan_id":"cebpf4jnsgd1na2vs0mg"},{"bike_id":"04318cd3-98ea-450b-b5f3-4a7277c0604c","system_id":"levelo_inurba_marseille","lat":43.24631,"lon":5.43144,"is_reserved":false,"is_disabled":false,"rental_uris":{"android":"levelo://app?vid=04318cd3-98ea-450b-b5f3-4a7277c0604c","ios":"levelo://app?vid=04318cd3-98ea-450b-b5f3-4a7277c0604c"},"vehicle_type_id":"4","last_reported":1778506541,"current_range_meters":3600,"station_id":"st_d2m6c4gdas8pm72e190g","pricing_plan_id":"cebpf4jnsgd1na2vs0mg"},{"bike_id":"507be34d-72bf-45c5-957c-3bfa43203607","system_id":"levelo_inurba_marseille","lat":43.32026,"lon":5.38103,"is_reserved":false,"is_disabled":true,"rental_uris":{"android":"levelo://app?vid=507be34d-72bf-45c5-957c-3bfa43203607","ios":"levelo://app?vid=507be34d-72bf-45c5-957c-3bfa43203607"},"vehicle_type_id":"4","last_reported":1778506541,"current_range_meters":3600,"station_id":"ce4bhr12rcd13ifvqhpg","pricing_plan_id":"cebpf4jnsgd1na2vs0mg"},{"bike_id":"77b3d37b-8f45-44fe-b681-2e376ba276f0","system_id":"levelo_inurba_marseille","lat":43.22575,"lon":5.41629,"is_reserved":false,"is_disabled":false,"rental_uris":{"android":"levelo://app?vid=77b3d37b-8f45-44fe-b681-2e376ba276f0","ios":"levelo://app?vid=77b3d37b-8f45-44fe-b681-2e376ba276f0"},"vehicle_type_id":"4","last_reported":1778506541,"current_range_meters":3600,"station_id":"st_d2o4gvlbi1j2169b742g","pricing_plan_id":"cebpf4jnsgd1na2vs0mg"},{"bike_id":"1bb5e473-433a-4f5c-bcbd-0c85212090bf","system_id":"levelo_inurba_marseille","lat":43.29545,"lon":5.38261,"is_reserved":false,"is_disabled":true,"rental_uris":{"android":"levelo://app?vid=1bb5e473-433a-4f5c-bcbd-0c85212090bf","ios":"levelo://app?vid=1bb5e473-433a-4f5c-bcbd-0c85212090bf"},"vehicle_type_id":"4","last_reported":1778506541,"current_range_meters":3600,"station_id":"","pricing_plan_id":"cebpf4jnsgd1na2vs0mg"},{"bike_id":"6ad6bffd-2a3b-4cb8-8817-38c678e97594","system_id":"levelo_inurba_marseille","lat":43.27348,"lon":5.4243,"is_reserved":false,"is_disabled":false,"rental_uris":{"android":"levelo://app?vid=6ad6bffd-2a3b-4cb8-8817-38c678e97594","ios":"levelo://app?vid=6ad6bffd-2a3b-4cb8-8817-38c678e97594"},"vehicle_type_id":"4","last_reported":1778506541,"current_range_meters":3600,"station_id":"","pricing_plan_id":"cebpf4jnsgd1na2vs0mg"},{"bike_id":"7a55cea0-fb18-4ae3-8d05-e6520bed9b73","system_id":"levelo_inurba_marseille","lat":43.32098,"lon":5.36822,"is_reserved":false,"is_disabled":false,"rental_uris":{"android":"levelo://app?vid=7a55cea0-fb18-4ae3-8d05-e6520bed9b73","ios":"levelo://app?vid=7a55cea0-fb18-4ae3-8d05-e6520bed9b73"},"vehicle_type_id":"4","last_reported":1778506541,"current_range_meters":3600,"station_id":"ce4bhrh2rcd13ifvqhug","pricing_plan_id":"cebpf4jnsgd1na2vs0mg"},{"bike_id":"44ee2362-fe04-4866-ae78-314487a1c926","system_id":"levelo_inurba_marseille","lat":43.26054,"lon":5.38641,"is_reserved":false,"is_disabled":false,"rental_uris":{"android":"levelo://app?vid=44ee2362-fe04-4866-ae78-314487a1c926","ios":"levelo://app?vid=44ee2362-fe04-4866-ae78-314487a1c926"},"vehicle_type_id":"4","last_reported":1778506541,"current_range_meters":3600,"station_id":"","pricing_plan_id":"cebpf4jnsgd1na2vs0mg"},{"bike_id":"46b19468-372c-45b7-86e2-3842d41cc106","system_id":"levelo_inurba_marseille","lat":43.301508,"lon":5.380785,"is_reserved":false,"is_disabled":false,"rental_uris":{"android":"levelo://app?vid=46b19468-372c-45b7-86e2-3842d41cc106","ios":"levelo://app?vid=46b19468-372c-45b7-86e2-3842d41cc106"},"vehicle_type_id":"4","last_reported":1778506541,"current_range_meters":3600,"station_id":"ce4bgjp2rcd13ifvqbh0","pricing_plan_id":"cebpf4jnsgd1na2vs0mg"},{"bike_id":"a689c208-6c2b-4a95-81ae-77dcf72d227d","system_id":"levelo_inurba_marseille","lat":43.27237,"lon":5.39193,"is_reserved":false,"is_disabled":false,"rental_uris":{"android":"levelo://app?vid=a689c208-6c2b-4a95-81ae-77dcf72d227d","ios":"levelo://app?vid=a689c208-6c2b-4a95-81ae-77dcf72d227d"},"vehicle_type_id":"4","last_reported":1778506541,"current_range_meters":4000,"station_id":"ce4bhhp2rcd13ifvqfm0","pricing_plan_id":"cebpf4jnsgd1na2vs0mg"},{"bike_id":"b5f29cd1-9b76-4e43-a4e7-d260fbddd313","system_id":"levelo_inurba_marseille","lat":43.32394,"lon":5.37019,"is_reserved":false,"is_disabled":false,"rental_uris":{"android":"levelo://app?vid=b5f29cd1-9b76-4e43-a4e7-d260fbddd313","ios":"levelo://app?vid=b5f29cd1-9b76-4e43-a4e7-d260fbddd313"},"vehicle_type_id":"4","last_reported":1778506541,"current_range_meters":4000,"station_id":"","pricing_plan_id":"cebpf4jnsgd1na2vs0mg"},{"bike_id":"35693135-8f79-42dd-b68e-6f35f1df5427","system_id":"levelo_inurba_marseille","lat":43.29777,"lon":5.38097,"is_reserved":false,"is_disabled":false,"rental_uris":{"android":"levelo://app?vid=35693135-8f79-42dd-b68e-6f35f1df5427","ios":"levelo://app?vid=35693135-8f79-42dd-b68e-6f35f1df5427"},"vehicle_type_id":"4","last_reported":1778506541,"current_range_meters":4000,"station_id":"ce4bgip2rcd13ifvqbb0","pricing_plan_id":"cebpf4jnsgd1na2vs0mg"},{"bike_id":"a8c2b891-dc5e-4292-aa83-307d2e8c7830","system_id":"levelo_inurba_marseille","lat":43.26368,"lon":5.41095,"is_reserved":false,"is_disabled":false,"rental_uris":{"android":"levelo://app?vid=a8c2b891-dc5e-4292-aa83-307d2e8c7830","ios":"levelo://app?vid=a8c2b891-dc5e-4292-aa83-307d2e8c7830"},"vehicle_type_id":"4","last_reported":1778506541,"current_range_meters":4000,"station_id":"st_d4e5ca6na9uc73bfl5fg","pricing_plan_id":"cebpf4jnsgd1na2vs0mg"},{"bike_id":"d4b82220-b80f-4072-9d63-30aaa267b9e0","system_id":"levelo_inurba_marseille","lat":43.30524,"lon":5.36733,"is_reserved":false,"is_disabled":false,"rental_uris":{"android":"levelo://app?vid=d4b82220-b80f-4072-9d63-30aaa267b9e0","ios":"levelo://app?vid=d4b82220-b80f-4072-9d63-30aaa267b9e0"},"vehicle_type_id":"4","last_reported":1778506541,"current_range_meters":4000,"station_id":"ce4bgrp2rcd13ifvqc9g","pricing_plan_id":"cebpf4jnsgd1na2vs0mg"},{"bike_id":"44ba616c-102d-4859-acf6-1c3a43efa65a","system_id":"levelo_inurba_marseille","lat":43.26219,"lon":5.40464,"is_reserved":false,"is_disabled":false,"rental_uris":{"android":"levelo://app?vid=44ba616c-102d-4859-acf6-1c3a43efa65a","ios":"levelo://app?vid=44ba616c-102d-4859-acf6-1c3a43efa65a"},"vehicle_type_id":"4","last_reported":1778506541,"current_range_meters":4000,"station_id":"ce4bhmh2rcd13ifvqgmg","pricing_plan_id":"cebpf4jnsgd1na2vs0mg"},{"bike_id":"4deaec04-c5a3-483a-af63-5bc0076f1c8e","system_id":"levelo_inurba_marseille","lat":43.28485,"lon":5.40154,"is_reserved":false,"is_disabled":false,"rental_uris":{"android":"levelo://app?vid=4deaec04-c5a3-483a-af63-5bc0076f1c8e","ios":"levelo://app?vid=4deaec04-c5a3-483a-af63-5bc0076f1c8e"},"vehicle_type_id":"4","last_reported":1778506541,"current_range_meters":4000,"station_id":"","pricing_plan_id":"cebpf4jnsgd1na2vs0mg"},{"bike_id":"37b581d4-a78c-4db1-8701-3ab33cd83c8a","system_id":"levelo_inurba_marseille","lat":43.30127,"lon":5.43125,"is_reserved":false,"is_disabled":true,"rental_uris":{"android":"levelo://app?vid=37b581d4-a78c-4db1-8701-3ab33cd83c8a","ios":"levelo://app?vid=37b581d4-a78c-4db1-8701-3ab33cd83c8a"},"vehicle_type_id":"4","last_reported":1778506541,"current_range_meters":4000,"station_id":"st_d3js3co5814s73ftftug","pricing_plan_id":"cebpf4jnsgd1na2vs0mg"},{"bike_id":"fd2aabb0-69b1-4e19-8f89-0b64d5239b99","system_id":"levelo_inurba_marseille","lat":43.24893,"lon":5.4049,"is_reserved":false,"is_disabled":false,"rental_uris":{"android":"levelo://app?vid=fd2aabb0-69b1-4e19-8f89-0b64d5239b99","ios":"levelo://app?vid=fd2aabb0-69b1-4e19-8f89-0b64d5239b99"},"vehicle_type_id":"4","last_reported":1778506541,"current_range_meters":4000,"station_id":"","pricing_plan_id":"cebpf4jnsgd1na2vs0mg"},{"bike_id":"328fc79b-6804-4d01-af71-228a208e5176","system_id":"levelo_inurba_marseille","lat":43.23312,"lon":5.35794,"is_reserved":false,"is_disabled":false,"rental_uris":{"android":"levelo://app?vid=328fc79b-6804-4d01-af71-228a208e5176","ios":"levelo://app?vid=328fc79b-6804-4d01-af71-228a208e5176"},"vehicle_type_id":"4","last_reported":1778506541,"current_range_meters":4000,"station_id":"","pricing_plan_id":"cebpf4jnsgd1na2vs0mg"},{"bike_id":"103ccc8b-89ea-4672-baa1-7ed7fb06f1e1","system_id":"levelo_inurba_marseille","lat":43.30792,"lon":5.40013,"is_reserved":false,"is_disabled":false,"rental_uris":{"android":"levelo://app?vid=103ccc8b-89ea-4672-baa1-7ed7fb06f1e1","ios":"levelo://app?vid=103ccc8b-89ea-4672-baa1-7ed7fb06f1e1"},"vehicle_type_id":"4","last_reported":1778506541,"current_range_meters":4000,"station_id":"","pricing_plan_id":"cebpf4jnsgd1na2vs0mg"},{"bike_id":"dc785dff-5a59-4a78-ae38-bb776299d6ea","system_id":"levelo_inurba_marseille","lat":43.2174,"lon":5.34605,"is_reserved":false,"is_disabled":false,"rental_uris":{"android":"levelo://app?vid=dc785dff-5a59-4a78-ae38-bb776299d6ea","ios":"levelo://app?vid=dc785dff-5a59-4a78-ae38-bb776299d6ea"},"vehicle_type_id":"4","last_reported":1778506541,"current_range_meters":4000,"station_id":"st_cvj6r9ubvosntc0bgbag","pricing_plan_id":"cebpf4jnsgd1na2vs0mg"},{"bike_id":"17a6c136-b38f-4cce-948f-b2b4b128b0ae","system_id":"levelo_inurba_marseille","lat":43.30526,"lon":5.3656,"is_reserved":false,"is_disabled":false,"rental_uris":{"android":"levelo://app?vid=17a6c136-b38f-4cce-948f-b2b4b128b0ae","ios":"levelo://app?vid=17a6c136-b38f-4cce-948f-b2b4b128b0ae"},"vehicle_type_id":"4","last_reported":1778506541,"current_range_meters":4400,"station_id":"ce4bgs12rcd13ifvqcag","pricing_plan_id":"cebpf4jnsgd1na2vs0mg"},{"bike_id":"18cc8fb2-f4e2-4347-87fe-01c3dde71dd3","system_id":"levelo_inurba_marseille","lat":43.25114,"lon":5.40317,"is_reserved":false,"is_disabled":false,"rental_uris":{"android":"levelo://app?vid=18cc8fb2-f4e2-4347-87fe-01c3dde71dd3","ios":"levelo://app?vid=18cc8fb2-f4e2-4347-87fe-01c3dde71dd3"},"vehicle_type_id":"4","last_reported":1778506541,"current_range_meters":4400,"station_id":"ce4bhlh2rcd13ifvqgig","pricing_plan_id":"cebpf4jnsgd1na2vs0mg"},{"bike_id":"3da2fb52-61bb-4052-b8e4-2f0dba17569b","system_id":"levelo_inurba_marseille","lat":43.31963,"lon":5.43982,"is_reserved":false,"is_disabled":false,"rental_uris":{"android":"levelo://app?vid=3da2fb52-61bb-4052-b8e4-2f0dba17569b","ios":"levelo://app?vid=3da2fb52-61bb-4052-b8e4-2f0dba17569b"},"vehicle_type_id":"4","last_reported":1778506541,"current_range_meters":4400,"station_id":"","pricing_plan_id":"cebpf4jnsgd1na2vs0mg"},{"bike_id":"d3323c4d-f608-4cf7-b375-36e28c226228","system_id":"levelo_inurba_marseille","lat":43.30095,"lon":5.39089,"is_reserved":false,"is_disabled":false,"rental_uris":{"android":"levelo://app?vid=d3323c4d-f608-4cf7-b375-36e28c226228","ios":"levelo://app?vid=d3323c4d-f608-4cf7-b375-36e28c226228"},"vehicle_type_id":"4","last_reported":1778506541,"current_range_meters":4400,"station_id":"ce4bh192rcd13ifvqdb0","pricing_plan_id":"cebpf4jnsgd1na2vs0mg"},{"bike_id":"f7325664-231f-4d91-adea-08851f268f90","system_id":"levelo_inurba_marseille","lat":43.33159,"lon":5.37699,"is_reserved":false,"is_disabled":false,"rental_uris":{"android":"levelo://app?vid=f7325664-231f-4d91-adea-08851f268f90","ios":"levelo://app?vid=f7325664-231f-4d91-adea-08851f268f90"},"vehicle_type_id":"4","last_reported":1778506541,"current_range_meters":4400,"station_id":"st_d46cu089ee8s73dldbu0","pricing_plan_id":"cebpf4jnsgd1na2vs0mg"},{"bike_id":"00924d2f-1daf-4de9-a8a1-25a1ac4a461b","system_id":"levelo_inurba_marseille","lat":43.24084,"lon":5.37761,"is_reserved":false,"is_disabled":false,"rental_uris":{"android":"levelo://app?vid=00924d2f-1daf-4de9-a8a1-25a1ac4a461b","ios":"levelo://app?vid=00924d2f-1daf-4de9-a8a1-25a1ac4a461b"},"vehicle_type_id":"4","last_reported":1778506541,"current_range_meters":4800,"station_id":"ce4bhnp2rcd13ifvqgvg","pricing_plan_id":"cebpf4jnsgd1na2vs0mg"},{"bike_id":"c1775866-e028-474b-ad8d-5f809a1ea766","system_id":"levelo_inurba_marseille","lat":43.31084,"lon":5.3687,"is_reserved":false,"is_disabled":false,"rental_uris":{"android":"levelo://app?vid=c1775866-e028-474b-ad8d-5f809a1ea766","ios":"levelo://app?vid=c1775866-e028-474b-ad8d-5f809a1ea766"},"vehicle_type_id":"4","last_reported":1778506541,"current_range_meters":4800,"station_id":"","pricing_plan_id":"cebpf4jnsgd1na2vs0mg"},{"bike_id":"50b9163b-20cf-4836-b9a5-535132894940","system_id":"levelo_inurba_marseille","lat":43.28864,"lon":5.42526,"is_reserved":false,"is_disabled":false,"rental_uris":{"android":"levelo://app?vid=50b9163b-20cf-4836-b9a5-535132894940","ios":"levelo://app?vid=50b9163b-20cf-4836-b9a5-535132894940"},"vehicle_type_id":"4","last_reported":1778506541,"current_range_meters":4800,"station_id":"st_d3b462108ojc7389ooeg","pricing_plan_id":"cebpf4jnsgd1na2vs0mg"},{"bike_id":"f6f40374-43fa-47de-b3a0-6f7526ff03b2","system_id":"levelo_inurba_marseille","lat":43.24073,"lon":5.37755,"is_reserved":false,"is_disabled":false,"rental_uris":{"android":"levelo://app?vid=f6f40374-43fa-47de-b3a0-6f7526ff03b2","ios":"levelo://app?vid=f6f40374-43fa-47de-b3a0-6f7526ff03b2"},"vehicle_type_id":"4","last_reported":1778506541,"current_range_meters":4800,"station_id":"","pricing_plan_id":"cebpf4jnsgd1na2vs0mg"},{"bike_id":"a5d6933b-d56b-4291-aa61-26dfb66725ec","system_id":"levelo_inurba_marseille","lat":43.28175,"lon":5.38874,"is_reserved":false,"is_disabled":false,"rental_uris":{"android":"levelo://app?vid=a5d6933b-d56b-4291-aa61-26dfb66725ec","ios":"levelo://app?vid=a5d6933b-d56b-4291-aa61-26dfb66725ec"},"vehicle_type_id":"4","last_reported":1778506541,"current_range_meters":4800,"station_id":"","pricing_plan_id":"cebpf4jnsgd1na2vs0mg"},{"bike_id":"12b81894-1bdb-4792-9d2c-5ac42a64951c","system_id":"levelo_inurba_marseille","lat":43.29842,"lon":5.36283,"is_reserved":false,"is_disabled":false,"rental_uris":{"android":"levelo://app?vid=12b81894-1bdb-4792-9d2c-5ac42a64951c","ios":"levelo://app?vid=12b81894-1bdb-4792-9d2c-5ac42a64951c"},"vehicle_type_id":"4","last_reported":1778506541,"current_range_meters":4800,"station_id":"ce4bgpp2rcd13ifvqc3g","pricing_plan_id":"cebpf4jnsgd1na2vs0mg"},{"bike_id":"f3f15437-d3fc-4c65-b632-60fc6ac54440","system_id":"levelo_inurba_marseille","lat":43.28612,"lon":5.3511,"is_reserved":false,"is_disabled":false,"rental_uris":{"android":"levelo://app?vid=f3f15437-d3fc-4c65-b632-60fc6ac54440","ios":"levelo://app?vid=f3f15437-d3fc-4c65-b632-60fc6ac54440"},"vehicle_type_id":"4","last_reported":1778506541,"current_range_meters":4800,"station_id":"ce4bhch2rcd13ifvqeug","pricing_plan_id":"cebpf4jnsgd1na2vs0mg"},{"bike_id":"e4aebd6e-8fc8-49dd-bbe2-a86d51301b27","system_id":"levelo_inurba_marseille","lat":43.2119,"lon":5.35081,"is_reserved":false,"is_disabled":false,"rental_uris":{"android":"levelo://app?vid=e4aebd6e-8fc8-49dd-bbe2-a86d51301b27","ios":"levelo://app?vid=e4aebd6e-8fc8-49dd-bbe2-a86d51301b27"},"vehicle_type_id":"4","last_reported":1778506541,"current_range_meters":4800,"station_id":"st_cvj6sg6p6f1abm77japg","pricing_plan_id":"cebpf4jnsgd1na2vs0mg"},{"bike_id":"50923957-aabe-4b5c-a5da-e5bd054575cf","system_id":"levelo_inurba_marseille","lat":43.21724,"lon":5.34612,"is_reserved":false,"is_disabled":false,"rental_uris":{"android":"levelo://app?vid=50923957-aabe-4b5c-a5da-e5bd054575cf","ios":"levelo://app?vid=50923957-aabe-4b5c-a5da-e5bd054575cf"},"vehicle_type_id":"4","last_reported":1778506541,"current_range_meters":5600,"station_id":"st_cvj6r9ubvosntc0bgbag","pricing_plan_id":"cebpf4jnsgd1na2vs0mg"},{"bike_id":"721109d1-0709-40e5-a7dc-a3d23cd2fe0b","system_id":"levelo_inurba_marseille","lat":43.28413,"lon":5.34998,"is_reserved":false,"is_disabled":false,"rental_uris":{"android":"levelo://app?vid=721109d1-0709-40e5-a7dc-a3d23cd2fe0b","ios":"levelo://app?vid=721109d1-0709-40e5-a7dc-a3d23cd2fe0b"},"vehicle_type_id":"4","last_reported":1778506541,"current_range_meters":5600,"station_id":"ce4bhbh2rcd13ifvqepg","pricing_plan_id":"cebpf4jnsgd1na2vs0mg"},{"bike_id":"df36804c-76e0-46da-b589-9672ef5fe9ad","system_id":"levelo_inurba_marseille","lat":43.27679,"lon":5.389,"is_reserved":false,"is_disabled":false,"rental_uris":{"android":"levelo://app?vid=df36804c-76e0-46da-b589-9672ef5fe9ad","ios":"levelo://app?vid=df36804c-76e0-46da-b589-9672ef5fe9ad"},"vehicle_type_id":"4","last_reported":1778506541,"current_range_meters":5600,"station_id":"ce4bhi12rcd13ifvqfo0","pricing_plan_id":"cebpf4jnsgd1na2vs0mg"},{"bike_id":"40326dfc-c43c-49b9-91fd-f253b800ccf8","system_id":"levelo_inurba_marseille","lat":43.28668,"lon":5.37971,"is_reserved":false,"is_disabled":true,"rental_uris":{"android":"levelo://app?vid=40326dfc-c43c-49b9-91fd-f253b800ccf8","ios":"levelo://app?vid=40326dfc-c43c-49b9-91fd-f253b800ccf8"},"vehicle_type_id":"4","last_reported":1778506541,"current_range_meters":5600,"station_id":"ce4bh9p2rcd13ifvqec0","pricing_plan_id":"cebpf4jnsgd1na2vs0mg"},{"bike_id":"f84cebb1-9831-43b9-b9a9-007babb32c4d","system_id":"levelo_inurba_marseille","lat":43.3119,"lon":5.37775,"is_reserved":false,"is_disabled":false,"rental_uris":{"android":"levelo://app?vid=f84cebb1-9831-43b9-b9a9-007babb32c4d","ios":"levelo://app?vid=f84cebb1-9831-43b9-b9a9-007babb32c4d"},"vehicle_type_id":"4","last_reported":1778506541,"current_range_meters":5600,"station_id":"","pricing_plan_id":"cebpf4jnsgd1na2vs0mg"},{"bike_id":"88f94a2d-9e83-435c-8c78-79839468d82b","system_id":"levelo_inurba_marseille","lat":43.3247,"lon":5.38522,"is_reserved":false,"is_disabled":false,"rental_uris":{"android":"levelo://app?vid=88f94a2d-9e83-435c-8c78-79839468d82b","ios":"levelo://app?vid=88f94a2d-9e83-435c-8c78-79839468d82b"},"vehicle_type_id":"4","last_reported":1778506541,"current_range_meters":5600,"station_id":"","pricing_plan_id":"cebpf4jnsgd1na2vs0mg"},{"bike_id":"765a7459-9a8b-4960-86c2-98cdbe67cee9","system_id":"levelo_inurba_marseille","lat":43.270594,"lon":5.402597,"is_reserved":false,"is_disabled":false,"rental_uris":{"android":"levelo://app?vid=765a7459-9a8b-4960-86c2-98cdbe67cee9","ios":"levelo://app?vid=765a7459-9a8b-4960-86c2-98cdbe67cee9"},"vehicle_type_id":"4","last_reported":1778506541,"current_range_meters":5600,"station_id":"ce4bhk92rcd13ifvqgc0","pricing_plan_id":"cebpf4jnsgd1na2vs0mg"},{"bike_id":"46a2fe4b-1794-4c93-b089-9e4d559a7b2e","system_id":"levelo_inurba_marseille","lat":43.24175,"lon":5.36385,"is_reserved":false,"is_disabled":false,"rental_uris":{"android":"levelo://app?vid=46a2fe4b-1794-4c93-b089-9e4d559a7b2e","ios":"levelo://app?vid=46a2fe4b-1794-4c93-b089-9e4d559a7b2e"},"vehicle_type_id":"4","last_reported":1778506541,"current_range_meters":5600,"station_id":"cpo36qri1sfpv3e86is0","pricing_plan_id":"cebpf4jnsgd1na2vs0mg"},{"bike_id":"d90b9e56-373f-462c-846f-568bf856a061","system_id":"levelo_inurba_marseille","lat":43.28298,"lon":5.35045,"is_reserved":false,"is_disabled":false,"rental_uris":{"android":"levelo://app?vid=d90b9e56-373f-462c-846f-568bf856a061","ios":"levelo://app?vid=d90b9e56-373f-462c-846f-568bf856a061"},"vehicle_type_id":"4","last_reported":1778506541,"current_range_meters":5600,"station_id":"ce4bhbp2rcd13ifvqerg","pricing_plan_id":"cebpf4jnsgd1na2vs0mg"},{"bike_id":"376b952a-259d-42cc-9451-6512406ad6bb","system_id":"levelo_inurba_marseille","lat":43.299265,"lon":5.374808,"is_reserved":false,"is_disabled":false,"rental_uris":{"android":"levelo://app?vid=376b952a-259d-42cc-9451-6512406ad6bb","ios":"levelo://app?vid=376b952a-259d-42cc-9451-6512406ad6bb"},"vehicle_type_id":"4","last_reported":1778506541,"current_range_meters":5600,"station_id":"ce4bgjh2rcd13ifvqbg0","pricing_plan_id":"cebpf4jnsgd1na2vs0mg"},{"bike_id":"dc3d872f-b541-4dd3-a578-2855f0ad8694","system_id":"levelo_inurba_marseille","lat":43.33143,"lon":5.37784,"is_reserved":false,"is_disabled":false,"rental_uris":{"android":"levelo://app?vid=dc3d872f-b541-4dd3-a578-2855f0ad8694","ios":"levelo://app?vid=dc3d872f-b541-4dd3-a578-2855f0ad8694"},"vehicle_type_id":"4","last_reported":1778506541,"current_range_meters":5600,"station_id":"","pricing_plan_id":"cebpf4jnsgd1na2vs0mg"},{"bike_id":"28dff6bb-afd2-4d4f-a533-73c109347c3d","system_id":"levelo_inurba_marseille","lat":43.31278,"lon":5.36854,"is_reserved":false,"is_disabled":false,"rental_uris":{"android":"levelo://app?vid=28dff6bb-afd2-4d4f-a533-73c109347c3d","ios":"levelo://app?vid=28dff6bb-afd2-4d4f-a533-73c109347c3d"},"vehicle_type_id":"4","last_reported":1778506541,"current_range_meters":5600,"station_id":"ce4bgl92rcd13ifvqbq0","pricing_plan_id":"cebpf4jnsgd1na2vs0mg"},{"bike_id":"66343956-eb5e-4554-9641-d0887b91611e","system_id":"levelo_inurba_marseille","lat":43.30317,"lon":5.36908,"is_reserved":false,"is_disabled":false,"rental_uris":{"android":"levelo://app?vid=66343956-eb5e-4554-9641-d0887b91611e","ios":"levelo://app?vid=66343956-eb5e-4554-9641-d0887b91611e"},"vehicle_type_id":"4","last_reported":1778506541,"current_range_meters":5600,"station_id":"ce4bgqh2rcd13ifvqc5g","pricing_plan_id":"cebpf4jnsgd1na2vs0mg"},{"bike_id":"0a69c15d-9b30-469e-9063-1ba4c113aa45","system_id":"levelo_inurba_marseille","lat":43.31325,"lon":5.36675,"is_reserved":false,"is_disabled":false,"rental_uris":{"android":"levelo://app?vid=0a69c15d-9b30-469e-9063-1ba4c113aa45","ios":"levelo://app?vid=0a69c15d-9b30-469e-9063-1ba4c113aa45"},"vehicle_type_id":"4","last_reported":1778506541,"current_range_meters":5600,"station_id":"ce4bgr92rcd13ifvqc6g","pricing_plan_id":"cebpf4jnsgd1na2vs0mg"},{"bike_id":"b40db3a5-b863-4a59-9f60-12f3dc699db2","system_id":"levelo_inurba_marseille","lat":43.248092,"lon":5.374632,"is_reserved":false,"is_disabled":false,"rental_uris":{"android":"levelo://app?vid=b40db3a5-b863-4a59-9f60-12f3dc699db2","ios":"levelo://app?vid=b40db3a5-b863-4a59-9f60-12f3dc699db2"},"vehicle_type_id":"4","last_reported":1778506541,"current_range_meters":6000,"station_id":"ce4bhgh2rcd13ifvqfb0","pricing_plan_id":"cebpf4jnsgd1na2vs0mg"},{"bike_id":"bb46ee03-6b2f-4f4b-98c2-225e604bbcc1","system_id":"levelo_inurba_marseille","lat":43.308,"lon":5.38162,"is_reserved":false,"is_disabled":false,"rental_uris":{"android":"levelo://app?vid=bb46ee03-6b2f-4f4b-98c2-225e604bbcc1","ios":"levelo://app?vid=bb46ee03-6b2f-4f4b-98c2-225e604bbcc1"},"vehicle_type_id":"4","last_reported":1778506541,"current_range_meters":6000,"station_id":"ce4bgt12rcd13ifvqce0","pricing_plan_id":"cebpf4jnsgd1na2vs0mg"},{"bike_id":"13213726-740c-4a57-8eca-95627b2485fd","system_id":"levelo_inurba_marseille","lat":43.27661,"lon":5.38931,"is_reserved":false,"is_disabled":false,"rental_uris":{"android":"levelo://app?vid=13213726-740c-4a57-8eca-95627b2485fd","ios":"levelo://app?vid=13213726-740c-4a57-8eca-95627b2485fd"},"vehicle_type_id":"4","last_reported":1778506541,"current_range_meters":6000,"station_id":"ce4bhi12rcd13ifvqfo0","pricing_plan_id":"cebpf4jnsgd1na2vs0mg"},{"bike_id":"26f1ee11-26f0-48a6-adf8-b08959a2c168","system_id":"levelo_inurba_marseille","lat":43.25931,"lon":5.40913,"is_reserved":false,"is_disabled":false,"rental_uris":{"android":"levelo://app?vid=26f1ee11-26f0-48a6-adf8-b08959a2c168","ios":"levelo://app?vid=26f1ee11-26f0-48a6-adf8-b08959a2c168"},"vehicle_type_id":"4","last_reported":1778506541,"current_range_meters":6000,"station_id":"ce4bhm92rcd13ifvqglg","pricing_plan_id":"cebpf4jnsgd1na2vs0mg"},{"bike_id":"91da7aa1-e043-4706-a6a9-94d0841ef524","system_id":"levelo_inurba_marseille","lat":43.31185,"lon":5.36874,"is_reserved":false,"is_disabled":false,"rental_uris":{"android":"levelo://app?vid=91da7aa1-e043-4706-a6a9-94d0841ef524","ios":"levelo://app?vid=91da7aa1-e043-4706-a6a9-94d0841ef524"},"vehicle_type_id":"4","last_reported":1778506541,"current_range_meters":6000,"station_id":"ce4bgl92rcd13ifvqbq0","pricing_plan_id":"cebpf4jnsgd1na2vs0mg"},{"bike_id":"1729d4de-fade-4fe6-b22e-dea6dbc3ec8e","system_id":"levelo_inurba_marseille","lat":43.290283,"lon":5.386529,"is_reserved":false,"is_disabled":false,"rental_uris":{"android":"levelo://app?vid=1729d4de-fade-4fe6-b22e-dea6dbc3ec8e","ios":"levelo://app?vid=1729d4de-fade-4fe6-b22e-dea6dbc3ec8e"},"vehicle_type_id":"4","last_reported":1778506541,"current_range_meters":6000,"station_id":"ce4bh4p2rcd13ifvqe0g","pricing_plan_id":"cebpf4jnsgd1na2vs0mg"},{"bike_id":"ad5679ce-edd6-4470-89c6-4b9b39a1a379","system_id":"levelo_inurba_marseille","lat":43.28259,"lon":5.3507,"is_reserved":false,"is_disabled":false,"rental_uris":{"android":"levelo://app?vid=ad5679ce-edd6-4470-89c6-4b9b39a1a379","ios":"levelo://app?vid=ad5679ce-edd6-4470-89c6-4b9b39a1a379"},"vehicle_type_id":"4","last_reported":1778506541,"current_range_meters":6000,"station_id":"ce4bhbp2rcd13ifvqerg","pricing_plan_id":"cebpf4jnsgd1na2vs0mg"},{"bike_id":"2ecad9be-e707-4242-9663-2ae61c9ef400","system_id":"levelo_inurba_marseille","lat":43.28621,"lon":5.35131,"is_reserved":false,"is_disabled":false,"rental_uris":{"android":"levelo://app?vid=2ecad9be-e707-4242-9663-2ae61c9ef400","ios":"levelo://app?vid=2ecad9be-e707-4242-9663-2ae61c9ef400"},"vehicle_type_id":"4","last_reported":1778506541,"current_range_meters":6000,"station_id":"ce4bhch2rcd13ifvqeug","pricing_plan_id":"cebpf4jnsgd1na2vs0mg"},{"bike_id":"cd23dca3-9288-4d49-a2bd-e5731c2d5b02","system_id":"levelo_inurba_marseille","lat":43.298922,"lon":5.389119,"is_reserved":false,"is_disabled":false,"rental_uris":{"android":"levelo://app?vid=cd23dca3-9288-4d49-a2bd-e5731c2d5b02","ios":"levelo://app?vid=cd23dca3-9288-4d49-a2bd-e5731c2d5b02"},"vehicle_type_id":"4","last_reported":1778506541,"current_range_meters":6000,"station_id":"ce4bh392rcd13ifvqdl0","pricing_plan_id":"cebpf4jnsgd1na2vs0mg"},{"bike_id":"85b91fc3-5e4b-4ab8-871e-244077c4ec75","system_id":"levelo_inurba_marseille","lat":43.24613,"lon":5.43186,"is_reserved":false,"is_disabled":false,"rental_uris":{"android":"levelo://app?vid=85b91fc3-5e4b-4ab8-871e-244077c4ec75","ios":"levelo://app?vid=85b91fc3-5e4b-4ab8-871e-244077c4ec75"},"vehicle_type_id":"4","last_reported":1778506541,"current_range_meters":6000,"station_id":"st_d2m6c4gdas8pm72e190g","pricing_plan_id":"cebpf4jnsgd1na2vs0mg"},{"bike_id":"88049ccf-a823-49be-a699-eb2ad440588f","system_id":"levelo_inurba_marseille","lat":43.25866,"lon":5.39915,"is_reserved":false,"is_disabled":true,"rental_uris":{"android":"levelo://app?vid=88049ccf-a823-49be-a699-eb2ad440588f","ios":"levelo://app?vid=88049ccf-a823-49be-a699-eb2ad440588f"},"vehicle_type_id":"4","last_reported":1778506541,"current_range_meters":6000,"station_id":"ce4bhl92rcd13ifvqghg","pricing_plan_id":"cebpf4jnsgd1na2vs0mg"},{"bike_id":"dec258b3-c130-43be-aabb-2d11497a2264","system_id":"levelo_inurba_marseille","lat":43.24626,"lon":5.43137,"is_reserved":false,"is_disabled":false,"rental_uris":{"android":"levelo://app?vid=dec258b3-c130-43be-aabb-2d11497a2264","ios":"levelo://app?vid=dec258b3-c130-43be-aabb-2d11497a2264"},"vehicle_type_id":"4","last_reported":1778506541,"current_range_meters":6000,"station_id":"st_d2m6c4gdas8pm72e190g","pricing_plan_id":"cebpf4jnsgd1na2vs0mg"},{"bike_id":"79427353-37d4-4880-86b4-2ea2a51f64e1","system_id":"levelo_inurba_marseille","lat":43.29289,"lon":5.37465,"is_reserved":false,"is_disabled":false,"rental_uris":{"android":"levelo://app?vid=79427353-37d4-4880-86b4-2ea2a51f64e1","ios":"levelo://app?vid=79427353-37d4-4880-86b4-2ea2a51f64e1"},"vehicle_type_id":"4","last_reported":1778506541,"current_range_meters":6000,"station_id":"","pricing_plan_id":"cebpf4jnsgd1na2vs0mg"},{"bike_id":"2b589459-ec78-49cd-8740-cea23f8d460d","system_id":"levelo_inurba_marseille","lat":43.21762,"lon":5.34624,"is_reserved":false,"is_disabled":false,"rental_uris":{"android":"levelo://app?vid=2b589459-ec78-49cd-8740-cea23f8d460d","ios":"levelo://app?vid=2b589459-ec78-49cd-8740-cea23f8d460d"},"vehicle_type_id":"4","last_reported":1778506541,"current_range_meters":6400,"station_id":"st_cvj6r9ubvosntc0bgbag","pricing_plan_id":"cebpf4jnsgd1na2vs0mg"},{"bike_id":"ad7f14fe-e8a2-424d-b709-8f617e37256e","system_id":"levelo_inurba_marseille","lat":43.29006,"lon":5.35646,"is_reserved":false,"is_disabled":false,"rental_uris":{"android":"levelo://app?vid=ad7f14fe-e8a2-424d-b709-8f617e37256e","ios":"levelo://app?vid=ad7f14fe-e8a2-424d-b709-8f617e37256e"},"vehicle_type_id":"4","last_reported":1778506541,"current_range_meters":6400,"station_id":"ce4bhb92rcd13ifvqen0","pricing_plan_id":"cebpf4jnsgd1na2vs0mg"},{"bike_id":"51c33c4f-93e3-4914-8b70-f8494a43df13","system_id":"levelo_inurba_marseille","lat":43.28405,"lon":5.37551,"is_reserved":false,"is_disabled":true,"rental_uris":{"android":"levelo://app?vid=51c33c4f-93e3-4914-8b70-f8494a43df13","ios":"levelo://app?vid=51c33c4f-93e3-4914-8b70-f8494a43df13"},"vehicle_type_id":"4","last_reported":1778506541,"current_range_meters":6400,"station_id":"ce4bh412rcd13ifvqds0","pricing_plan_id":"cebpf4jnsgd1na2vs0mg"},{"bike_id":"44b82dc4-674a-446b-8c81-727d389f2177","system_id":"levelo_inurba_marseille","lat":43.28696,"lon":5.46682,"is_reserved":false,"is_disabled":false,"rental_uris":{"android":"levelo://app?vid=44b82dc4-674a-446b-8c81-727d389f2177","ios":"levelo://app?vid=44b82dc4-674a-446b-8c81-727d389f2177"},"vehicle_type_id":"4","last_reported":1778506541,"current_range_meters":6400,"station_id":"st_d6tc3vkotcvc738tfjhg","pricing_plan_id":"cebpf4jnsgd1na2vs0mg"},{"bike_id":"a67a660e-c737-406b-8af1-9b28644bd883","system_id":"levelo_inurba_marseille","lat":43.28614,"lon":5.39879,"is_reserved":false,"is_disabled":false,"rental_uris":{"android":"levelo://app?vid=a67a660e-c737-406b-8af1-9b28644bd883","ios":"levelo://app?vid=a67a660e-c737-406b-8af1-9b28644bd883"},"vehicle_type_id":"4","last_reported":1778506541,"current_range_meters":6400,"station_id":"st_d4a7ka997mjs738ck50g","pricing_plan_id":"cebpf4jnsgd1na2vs0mg"},{"bike_id":"78a9a63d-bfc5-417b-ba0a-b36a92d8cc91","system_id":"levelo_inurba_marseille","lat":43.24807,"lon":5.37454,"is_reserved":false,"is_disabled":false,"rental_uris":{"android":"levelo://app?vid=78a9a63d-bfc5-417b-ba0a-b36a92d8cc91","ios":"levelo://app?vid=78a9a63d-bfc5-417b-ba0a-b36a92d8cc91"},"vehicle_type_id":"4","last_reported":1778506541,"current_range_meters":6400,"station_id":"ce4bhgh2rcd13ifvqfb0","pricing_plan_id":"cebpf4jnsgd1na2vs0mg"},{"bike_id":"43508dde-469c-4176-8d9a-ef9992e89043","system_id":"levelo_inurba_marseille","lat":43.31246,"lon":5.36779,"is_reserved":false,"is_disabled":false,"rental_uris":{"android":"levelo://app?vid=43508dde-469c-4176-8d9a-ef9992e89043","ios":"levelo://app?vid=43508dde-469c-4176-8d9a-ef9992e89043"},"vehicle_type_id":"4","last_reported":1778506541,"current_range_meters":6400,"station_id":"","pricing_plan_id":"cebpf4jnsgd1na2vs0mg"},{"bike_id":"a53a2dde-0fdf-4410-9022-47641302d60c","system_id":"levelo_inurba_marseille","lat":43.28955,"lon":5.36683,"is_reserved":false,"is_disabled":false,"rental_uris":{"android":"levelo://app?vid=a53a2dde-0fdf-4410-9022-47641302d60c","ios":"levelo://app?vid=a53a2dde-0fdf-4410-9022-47641302d60c"},"vehicle_type_id":"4","last_reported":1778506541,"current_range_meters":6400,"station_id":"","pricing_plan_id":"cebpf4jnsgd1na2vs0mg"},{"bike_id":"9079a0b7-622c-4af0-9a02-529117624bb2","system_id":"levelo_inurba_marseille","lat":43.23892,"lon":5.37454,"is_reserved":false,"is_disabled":false,"rental_uris":{"android":"levelo://app?vid=9079a0b7-622c-4af0-9a02-529117624bb2","ios":"levelo://app?vid=9079a0b7-622c-4af0-9a02-529117624bb2"},"vehicle_type_id":"4","last_reported":1778506541,"current_range_meters":6400,"station_id":"st_d6sm7csbq4hs73f8fpjg","pricing_plan_id":"cebpf4jnsgd1na2vs0mg"},{"bike_id":"fead0082-95a2-43ea-889d-2d3099afaff8","system_id":"levelo_inurba_marseille","lat":43.29872,"lon":5.38064,"is_reserved":false,"is_disabled":false,"rental_uris":{"android":"levelo://app?vid=fead0082-95a2-43ea-889d-2d3099afaff8","ios":"levelo://app?vid=fead0082-95a2-43ea-889d-2d3099afaff8"},"vehicle_type_id":"4","last_reported":1778506541,"current_range_meters":6400,"station_id":"","pricing_plan_id":"cebpf4jnsgd1na2vs0mg"},{"bike_id":"1444485a-c039-4304-9126-5c37bea9c8f6","system_id":"levelo_inurba_marseille","lat":43.28952,"lon":5.36412,"is_reserved":false,"is_disabled":false,"rental_uris":{"android":"levelo://app?vid=1444485a-c039-4304-9126-5c37bea9c8f6","ios":"levelo://app?vid=1444485a-c039-4304-9126-5c37bea9c8f6"},"vehicle_type_id":"4","last_reported":1778506541,"current_range_meters":6400,"station_id":"ce4bhc92rcd13ifvqetg","pricing_plan_id":"cebpf4jnsgd1na2vs0mg"},{"bike_id":"85848f87-2086-4bcc-99c6-54082387897b","system_id":"levelo_inurba_marseille","lat":43.24638,"lon":5.43147,"is_reserved":false,"is_disabled":false,"rental_uris":{"android":"levelo://app?vid=85848f87-2086-4bcc-99c6-54082387897b","ios":"levelo://app?vid=85848f87-2086-4bcc-99c6-54082387897b"},"vehicle_type_id":"4","last_reported":1778506541,"current_range_meters":6800,"station_id":"st_d2m6c4gdas8pm72e190g","pricing_plan_id":"cebpf4jnsgd1na2vs0mg"},{"bike_id":"791c74b2-cd78-47b0-86de-d73597579821","system_id":"levelo_inurba_marseille","lat":43.305964,"lon":5.393521,"is_reserved":false,"is_disabled":true,"rental_uris":{"android":"levelo://app?vid=791c74b2-cd78-47b0-86de-d73597579821","ios":"levelo://app?vid=791c74b2-cd78-47b0-86de-d73597579821"},"vehicle_type_id":"4","last_reported":1778506541,"current_range_meters":6800,"station_id":"ce4bgh92rcd13ifvqb40","pricing_plan_id":"cebpf4jnsgd1na2vs0mg"},{"bike_id":"73e6f80a-b54a-4863-a594-a6fb1a5f606e","system_id":"levelo_inurba_marseille","lat":43.24096,"lon":5.37796,"is_reserved":false,"is_disabled":false,"rental_uris":{"android":"levelo://app?vid=73e6f80a-b54a-4863-a594-a6fb1a5f606e","ios":"levelo://app?vid=73e6f80a-b54a-4863-a594-a6fb1a5f606e"},"vehicle_type_id":"4","last_reported":1778506541,"current_range_meters":6800,"station_id":"ce4bhnp2rcd13ifvqgvg","pricing_plan_id":"cebpf4jnsgd1na2vs0mg"},{"bike_id":"42863b2c-5e74-41a0-a4f2-b1ba8f69e300","system_id":"levelo_inurba_marseille","lat":43.2959,"lon":5.38089,"is_reserved":false,"is_disabled":false,"rental_uris":{"android":"levelo://app?vid=42863b2c-5e74-41a0-a4f2-b1ba8f69e300","ios":"levelo://app?vid=42863b2c-5e74-41a0-a4f2-b1ba8f69e300"},"vehicle_type_id":"4","last_reported":1778506541,"current_range_meters":6800,"station_id":"ce4bgl12rcd13ifvqbo0","pricing_plan_id":"cebpf4jnsgd1na2vs0mg"},{"bike_id":"73f536ba-10bb-4495-9a15-2694f1773919","system_id":"levelo_inurba_marseille","lat":43.295759,"lon":5.375218,"is_reserved":false,"is_disabled":false,"rental_uris":{"android":"levelo://app?vid=73f536ba-10bb-4495-9a15-2694f1773919","ios":"levelo://app?vid=73f536ba-10bb-4495-9a15-2694f1773919"},"vehicle_type_id":"4","last_reported":1778506541,"current_range_meters":6800,"station_id":"ce4bgnh2rcd13ifvqc0g","pricing_plan_id":"cebpf4jnsgd1na2vs0mg"},{"bike_id":"2a88c8d6-901a-46de-936e-8ca8169700e0","system_id":"levelo_inurba_marseille","lat":43.24638,"lon":5.38914,"is_reserved":false,"is_disabled":false,"rental_uris":{"android":"levelo://app?vid=2a88c8d6-901a-46de-936e-8ca8169700e0","ios":"levelo://app?vid=2a88c8d6-901a-46de-936e-8ca8169700e0"},"vehicle_type_id":"4","last_reported":1778506541,"current_range_meters":6800,"station_id":"ce4bhg12rcd13ifvqf60","pricing_plan_id":"cebpf4jnsgd1na2vs0mg"},{"bike_id":"a92dc77f-df39-48c8-affc-a8c97580f9c0","system_id":"levelo_inurba_marseille","lat":43.26551,"lon":5.37285,"is_reserved":false,"is_disabled":false,"rental_uris":{"android":"levelo://app?vid=a92dc77f-df39-48c8-affc-a8c97580f9c0","ios":"levelo://app?vid=a92dc77f-df39-48c8-affc-a8c97580f9c0"},"vehicle_type_id":"4","last_reported":1778506541,"current_range_meters":6800,"station_id":"ce4bhg12rcd13ifvqf70","pricing_plan_id":"cebpf4jnsgd1na2vs0mg"},{"bike_id":"0aa0f504-94fe-42c5-a1d6-d8ddfb182735","system_id":"levelo_inurba_marseille","lat":43.24312,"lon":5.3884,"is_reserved":false,"is_disabled":false,"rental_uris":{"android":"levelo://app?vid=0aa0f504-94fe-42c5-a1d6-d8ddfb182735","ios":"levelo://app?vid=0aa0f504-94fe-42c5-a1d6-d8ddfb182735"},"vehicle_type_id":"4","last_reported":1778506541,"current_range_meters":6800,"station_id":"","pricing_plan_id":"cebpf4jnsgd1na2vs0mg"},{"bike_id":"d4aff205-73f1-42ee-8e1f-95ea17a0f3d5","system_id":"levelo_inurba_marseille","lat":43.28893,"lon":5.37803,"is_reserved":false,"is_disabled":false,"rental_uris":{"android":"levelo://app?vid=d4aff205-73f1-42ee-8e1f-95ea17a0f3d5","ios":"levelo://app?vid=d4aff205-73f1-42ee-8e1f-95ea17a0f3d5"},"vehicle_type_id":"4","last_reported":1778506541,"current_range_meters":6800,"station_id":"","pricing_plan_id":"cebpf4jnsgd1na2vs0mg"},{"bike_id":"bb91073f-c25b-4664-8db4-b99273fe7993","system_id":"levelo_inurba_marseille","lat":43.290267,"lon":5.357463,"is_reserved":false,"is_disabled":false,"rental_uris":{"android":"levelo://app?vid=bb91073f-c25b-4664-8db4-b99273fe7993","ios":"levelo://app?vid=bb91073f-c25b-4664-8db4-b99273fe7993"},"vehicle_type_id":"4","last_reported":1778506541,"current_range_meters":6800,"station_id":"ce4bhb92rcd13ifvqen0","pricing_plan_id":"cebpf4jnsgd1na2vs0mg"},{"bike_id":"390b0db0-9531-4ed5-8ee2-c5021109ceb1","system_id":"levelo_inurba_marseille","lat":43.2659,"lon":5.37306,"is_reserved":false,"is_disabled":false,"rental_uris":{"android":"levelo://app?vid=390b0db0-9531-4ed5-8ee2-c5021109ceb1","ios":"levelo://app?vid=390b0db0-9531-4ed5-8ee2-c5021109ceb1"},"vehicle_type_id":"4","last_reported":1778506541,"current_range_meters":6800,"station_id":"ce4bhg12rcd13ifvqf70","pricing_plan_id":"cebpf4jnsgd1na2vs0mg"},{"bike_id":"f99e5b30-6adf-4af6-9228-9ab20336512c","system_id":"levelo_inurba_marseille","lat":43.21747,"lon":5.34602,"is_reserved":false,"is_disabled":true,"rental_uris":{"android":"levelo://app?vid=f99e5b30-6adf-4af6-9228-9ab20336512c","ios":"levelo://app?vid=f99e5b30-6adf-4af6-9228-9ab20336512c"},"vehicle_type_id":"4","last_reported":1778506541,"current_range_meters":6800,"station_id":"st_cvj6r9ubvosntc0bgbag","pricing_plan_id":"cebpf4jnsgd1na2vs0mg"},{"bike_id":"cfbccf87-8283-40b4-8920-f03797173400","system_id":"levelo_inurba_marseille","lat":43.21188,"lon":5.35075,"is_reserved":false,"is_disabled":false,"rental_uris":{"android":"levelo://app?vid=cfbccf87-8283-40b4-8920-f03797173400","ios":"levelo://app?vid=cfbccf87-8283-40b4-8920-f03797173400"},"vehicle_type_id":"4","last_reported":1778506541,"current_range_meters":6800,"station_id":"st_cvj6sg6p6f1abm77japg","pricing_plan_id":"cebpf4jnsgd1na2vs0mg"},{"bike_id":"8b964928-84ec-4234-baa9-f00919ec70c6","system_id":"levelo_inurba_marseille","lat":43.23916,"lon":5.37471,"is_reserved":false,"is_disabled":false,"rental_uris":{"android":"levelo://app?vid=8b964928-84ec-4234-baa9-f00919ec70c6","ios":"levelo://app?vid=8b964928-84ec-4234-baa9-f00919ec70c6"},"vehicle_type_id":"4","last_reported":1778506541,"current_range_meters":6800,"station_id":"st_d6sm7csbq4hs73f8fpjg","pricing_plan_id":"cebpf4jnsgd1na2vs0mg"},{"bike_id":"eafa6a0d-279e-4121-a78c-d72b7422aae3","system_id":"levelo_inurba_marseille","lat":43.29706,"lon":5.37705,"is_reserved":false,"is_disabled":false,"rental_uris":{"android":"levelo://app?vid=eafa6a0d-279e-4121-a78c-d72b7422aae3","ios":"levelo://app?vid=eafa6a0d-279e-4121-a78c-d72b7422aae3"},"vehicle_type_id":"4","last_reported":1778506541,"current_range_meters":7200,"station_id":"ce4bgkh2rcd13ifvqbl0","pricing_plan_id":"cebpf4jnsgd1na2vs0mg"},{"bike_id":"cf7ae309-d891-460e-ab87-bc46e8324309","system_id":"levelo_inurba_marseille","lat":43.33556,"lon":5.37472,"is_reserved":false,"is_disabled":false,"rental_uris":{"android":"levelo://app?vid=cf7ae309-d891-460e-ab87-bc46e8324309","ios":"levelo://app?vid=cf7ae309-d891-460e-ab87-bc46e8324309"},"vehicle_type_id":"4","last_reported":1778506541,"current_range_meters":7200,"station_id":"st_d46tts09ee8s73dlu43g","pricing_plan_id":"cebpf4jnsgd1na2vs0mg"},{"bike_id":"ad1c38c7-10c5-4712-bf53-99c76ca86c1f","system_id":"levelo_inurba_marseille","lat":43.28712,"lon":5.3862,"is_reserved":false,"is_disabled":false,"rental_uris":{"android":"levelo://app?vid=ad1c38c7-10c5-4712-bf53-99c76ca86c1f","ios":"levelo://app?vid=ad1c38c7-10c5-4712-bf53-99c76ca86c1f"},"vehicle_type_id":"4","last_reported":1778506541,"current_range_meters":7200,"station_id":"ce4bh492rcd13ifvqdug","pricing_plan_id":"cebpf4jnsgd1na2vs0mg"},{"bike_id":"ac3d0288-806c-484d-a53f-2698f9156917","system_id":"levelo_inurba_marseille","lat":43.26063,"lon":5.39413,"is_reserved":false,"is_disabled":false,"rental_uris":{"android":"levelo://app?vid=ac3d0288-806c-484d-a53f-2698f9156917","ios":"levelo://app?vid=ac3d0288-806c-484d-a53f-2698f9156917"},"vehicle_type_id":"4","last_reported":1778506541,"current_range_meters":7200,"station_id":"ce4bhh92rcd13ifvqfj0","pricing_plan_id":"cebpf4jnsgd1na2vs0mg"},{"bike_id":"a59720a6-5131-46aa-8736-eeb9e3da68c7","system_id":"levelo_inurba_marseille","lat":43.2977,"lon":5.37051,"is_reserved":false,"is_disabled":false,"rental_uris":{"android":"levelo://app?vid=a59720a6-5131-46aa-8736-eeb9e3da68c7","ios":"levelo://app?vid=a59720a6-5131-46aa-8736-eeb9e3da68c7"},"vehicle_type_id":"4","last_reported":1778506541,"current_range_meters":7200,"station_id":"ce4bgop2rcd13ifvqc1g","pricing_plan_id":"cebpf4jnsgd1na2vs0mg"},{"bike_id":"2f2e39b6-e095-4ebe-a4d2-4236f8bb7489","system_id":"levelo_inurba_marseille","lat":43.24808,"lon":5.37447,"is_reserved":false,"is_disabled":false,"rental_uris":{"android":"levelo://app?vid=2f2e39b6-e095-4ebe-a4d2-4236f8bb7489","ios":"levelo://app?vid=2f2e39b6-e095-4ebe-a4d2-4236f8bb7489"},"vehicle_type_id":"4","last_reported":1778506541,"current_range_meters":7200,"station_id":"ce4bhgh2rcd13ifvqfb0","pricing_plan_id":"cebpf4jnsgd1na2vs0mg"},{"bike_id":"662c8520-bfe6-4791-897f-ed06d541dc6e","system_id":"levelo_inurba_marseille","lat":43.27076,"lon":5.38305,"is_reserved":false,"is_disabled":false,"rental_uris":{"android":"levelo://app?vid=662c8520-bfe6-4791-897f-ed06d541dc6e","ios":"levelo://app?vid=662c8520-bfe6-4791-897f-ed06d541dc6e"},"vehicle_type_id":"4","last_reported":1778506541,"current_range_meters":7200,"station_id":"st_d3n2fo6cfp8s73cte1j0","pricing_plan_id":"cebpf4jnsgd1na2vs0mg"},{"bike_id":"aa0c8b0b-4233-4521-ad3e-361a43272d65","system_id":"levelo_inurba_marseille","lat":43.31498,"lon":5.3684,"is_reserved":false,"is_disabled":false,"rental_uris":{"android":"levelo://app?vid=aa0c8b0b-4233-4521-ad3e-361a43272d65","ios":"levelo://app?vid=aa0c8b0b-4233-4521-ad3e-361a43272d65"},"vehicle_type_id":"4","last_reported":1778506541,"current_range_meters":7200,"station_id":"","pricing_plan_id":"cebpf4jnsgd1na2vs0mg"},{"bike_id":"2045449d-114f-47cf-8791-7d12be9f5d63","system_id":"levelo_inurba_marseille","lat":43.29812,"lon":5.44087,"is_reserved":false,"is_disabled":false,"rental_uris":{"android":"levelo://app?vid=2045449d-114f-47cf-8791-7d12be9f5d63","ios":"levelo://app?vid=2045449d-114f-47cf-8791-7d12be9f5d63"},"vehicle_type_id":"4","last_reported":1778506541,"current_range_meters":7200,"station_id":"st_d3jp68qikq2c7381ktn0","pricing_plan_id":"cebpf4jnsgd1na2vs0mg"},{"bike_id":"369803e0-cf2f-4230-a91a-a5b633dc7de3","system_id":"levelo_inurba_marseille","lat":43.3316,"lon":5.37691,"is_reserved":false,"is_disabled":false,"rental_uris":{"android":"levelo://app?vid=369803e0-cf2f-4230-a91a-a5b633dc7de3","ios":"levelo://app?vid=369803e0-cf2f-4230-a91a-a5b633dc7de3"},"vehicle_type_id":"4","last_reported":1778506541,"current_range_meters":7200,"station_id":"st_d46cu089ee8s73dldbu0","pricing_plan_id":"cebpf4jnsgd1na2vs0mg"},{"bike_id":"60fbc3ab-c75d-4f23-9ff9-859eed8ea37d","system_id":"levelo_inurba_marseille","lat":43.28914,"lon":5.38383,"is_reserved":false,"is_disabled":false,"rental_uris":{"android":"levelo://app?vid=60fbc3ab-c75d-4f23-9ff9-859eed8ea37d","ios":"levelo://app?vid=60fbc3ab-c75d-4f23-9ff9-859eed8ea37d"},"vehicle_type_id":"4","last_reported":1778506541,"current_range_meters":7200,"station_id":"ce4bh612rcd13ifvqe6g","pricing_plan_id":"cebpf4jnsgd1na2vs0mg"},{"bike_id":"fa9453b3-cbb3-4438-b2d4-a10dd44014e6","system_id":"levelo_inurba_marseille","lat":43.30553,"lon":5.36572,"is_reserved":false,"is_disabled":false,"rental_uris":{"android":"levelo://app?vid=fa9453b3-cbb3-4438-b2d4-a10dd44014e6","ios":"levelo://app?vid=fa9453b3-cbb3-4438-b2d4-a10dd44014e6"},"vehicle_type_id":"4","last_reported":1778506541,"current_range_meters":7200,"station_id":"ce4bgs12rcd13ifvqcag","pricing_plan_id":"cebpf4jnsgd1na2vs0mg"},{"bike_id":"1fa4b452-9d0c-43b3-a29a-3d70cafac9f2","system_id":"levelo_inurba_marseille","lat":43.32238,"lon":5.36884,"is_reserved":false,"is_disabled":false,"rental_uris":{"android":"levelo://app?vid=1fa4b452-9d0c-43b3-a29a-3d70cafac9f2","ios":"levelo://app?vid=1fa4b452-9d0c-43b3-a29a-3d70cafac9f2"},"vehicle_type_id":"4","last_reported":1778506541,"current_range_meters":7200,"station_id":"","pricing_plan_id":"cebpf4jnsgd1na2vs0mg"},{"bike_id":"eb77a4c1-971a-4242-88f3-b2ec5c06ea79","system_id":"levelo_inurba_marseille","lat":43.33157,"lon":5.37691,"is_reserved":false,"is_disabled":false,"rental_uris":{"android":"levelo://app?vid=eb77a4c1-971a-4242-88f3-b2ec5c06ea79","ios":"levelo://app?vid=eb77a4c1-971a-4242-88f3-b2ec5c06ea79"},"vehicle_type_id":"4","last_reported":1778506541,"current_range_meters":7200,"station_id":"st_d46cu089ee8s73dldbu0","pricing_plan_id":"cebpf4jnsgd1na2vs0mg"},{"bike_id":"ee069008-39bb-4ab7-b067-9d318671a94f","system_id":"levelo_inurba_marseille","lat":43.31167,"lon":5.36873,"is_reserved":false,"is_disabled":false,"rental_uris":{"android":"levelo://app?vid=ee069008-39bb-4ab7-b067-9d318671a94f","ios":"levelo://app?vid=ee069008-39bb-4ab7-b067-9d318671a94f"},"vehicle_type_id":"4","last_reported":1778506541,"current_range_meters":7200,"station_id":"ce4bgl92rcd13ifvqbq0","pricing_plan_id":"cebpf4jnsgd1na2vs0mg"},{"bike_id":"fa4af37d-1756-445f-a154-0753e1e0cbeb","system_id":"levelo_inurba_marseille","lat":43.27189,"lon":5.39178,"is_reserved":false,"is_disabled":false,"rental_uris":{"android":"levelo://app?vid=fa4af37d-1756-445f-a154-0753e1e0cbeb","ios":"levelo://app?vid=fa4af37d-1756-445f-a154-0753e1e0cbeb"},"vehicle_type_id":"4","last_reported":1778506541,"current_range_meters":7200,"station_id":"ce4bhhp2rcd13ifvqfm0","pricing_plan_id":"cebpf4jnsgd1na2vs0mg"},{"bike_id":"e6f97e5e-858e-416a-abde-cea17b95debe","system_id":"levelo_inurba_marseille","lat":43.287,"lon":5.46693,"is_reserved":false,"is_disabled":false,"rental_uris":{"android":"levelo://app?vid=e6f97e5e-858e-416a-abde-cea17b95debe","ios":"levelo://app?vid=e6f97e5e-858e-416a-abde-cea17b95debe"},"vehicle_type_id":"4","last_reported":1778506541,"current_range_meters":7200,"station_id":"","pricing_plan_id":"cebpf4jnsgd1na2vs0mg"},{"bike_id":"dac4f4ab-4cdf-40bf-ba8d-0d51152a56b2","system_id":"levelo_inurba_marseille","lat":43.29258,"lon":5.38446,"is_reserved":false,"is_disabled":false,"rental_uris":{"android":"levelo://app?vid=dac4f4ab-4cdf-40bf-ba8d-0d51152a56b2","ios":"levelo://app?vid=dac4f4ab-4cdf-40bf-ba8d-0d51152a56b2"},"vehicle_type_id":"4","last_reported":1778506541,"current_range_meters":7200,"station_id":"ce4bh692rcd13ifvqea0","pricing_plan_id":"cebpf4jnsgd1na2vs0mg"},{"bike_id":"a3ed2d44-8104-4877-b9af-7ce6ad2a01a2","system_id":"levelo_inurba_marseille","lat":43.29035,"lon":5.37168,"is_reserved":false,"is_disabled":false,"rental_uris":{"android":"levelo://app?vid=a3ed2d44-8104-4877-b9af-7ce6ad2a01a2","ios":"levelo://app?vid=a3ed2d44-8104-4877-b9af-7ce6ad2a01a2"},"vehicle_type_id":"4","last_reported":1778506541,"current_range_meters":7200,"station_id":"","pricing_plan_id":"cebpf4jnsgd1na2vs0mg"},{"bike_id":"9d4784b8-10a9-4863-8ff2-38cf427d852c","system_id":"levelo_inurba_marseille","lat":43.23905,"lon":5.37491,"is_reserved":false,"is_disabled":false,"rental_uris":{"android":"levelo://app?vid=9d4784b8-10a9-4863-8ff2-38cf427d852c","ios":"levelo://app?vid=9d4784b8-10a9-4863-8ff2-38cf427d852c"},"vehicle_type_id":"4","last_reported":1778506541,"current_range_meters":7200,"station_id":"st_d6sm7csbq4hs73f8fpjg","pricing_plan_id":"cebpf4jnsgd1na2vs0mg"},{"bike_id":"255adc3a-feb7-448b-9eca-69550a27e0ce","system_id":"levelo_inurba_marseille","lat":43.29539,"lon":5.39404,"is_reserved":false,"is_disabled":false,"rental_uris":{"android":"levelo://app?vid=255adc3a-feb7-448b-9eca-69550a27e0ce","ios":"levelo://app?vid=255adc3a-feb7-448b-9eca-69550a27e0ce"},"vehicle_type_id":"4","last_reported":1778506541,"current_range_meters":7200,"station_id":"ce4bh292rcd13ifvqdf0","pricing_plan_id":"cebpf4jnsgd1na2vs0mg"},{"bike_id":"eaa46970-3ae2-41f2-a7df-b5b40f3e2ef9","system_id":"levelo_inurba_marseille","lat":43.28716,"lon":5.37947,"is_reserved":false,"is_disabled":false,"rental_uris":{"android":"levelo://app?vid=eaa46970-3ae2-41f2-a7df-b5b40f3e2ef9","ios":"levelo://app?vid=eaa46970-3ae2-41f2-a7df-b5b40f3e2ef9"},"vehicle_type_id":"4","last_reported":1778506541,"current_range_meters":7200,"station_id":"ce4bh9p2rcd13ifvqec0","pricing_plan_id":"cebpf4jnsgd1na2vs0mg"},{"bike_id":"baa7857d-322c-4a23-a8af-769cb8a532ab","system_id":"levelo_inurba_marseille","lat":43.29003,"lon":5.35633,"is_reserved":false,"is_disabled":false,"rental_uris":{"android":"levelo://app?vid=baa7857d-322c-4a23-a8af-769cb8a532ab","ios":"levelo://app?vid=baa7857d-322c-4a23-a8af-769cb8a532ab"},"vehicle_type_id":"4","last_reported":1778506541,"current_range_meters":7200,"station_id":"ce4bhb92rcd13ifvqen0","pricing_plan_id":"cebpf4jnsgd1na2vs0mg"},{"bike_id":"9aad11a4-9a52-4fec-9725-ef5ceb82088c","system_id":"levelo_inurba_marseille","lat":43.24604,"lon":5.43092,"is_reserved":false,"is_disabled":true,"rental_uris":{"android":"levelo://app?vid=9aad11a4-9a52-4fec-9725-ef5ceb82088c","ios":"levelo://app?vid=9aad11a4-9a52-4fec-9725-ef5ceb82088c"},"vehicle_type_id":"4","last_reported":1778506541,"current_range_meters":7200,"station_id":"st_d2m6c4gdas8pm72e190g","pricing_plan_id":"cebpf4jnsgd1na2vs0mg"},{"bike_id":"168f4a9e-736f-4dd7-91dd-519b879aa5a5","system_id":"levelo_inurba_marseille","lat":43.32495,"lon":5.41475,"is_reserved":false,"is_disabled":false,"rental_uris":{"android":"levelo://app?vid=168f4a9e-736f-4dd7-91dd-519b879aa5a5","ios":"levelo://app?vid=168f4a9e-736f-4dd7-91dd-519b879aa5a5"},"vehicle_type_id":"4","last_reported":1778506541,"current_range_meters":7200,"station_id":"ce4bhq12rcd13ifvqhhg","pricing_plan_id":"cebpf4jnsgd1na2vs0mg"},{"bike_id":"78fe31c0-55de-4714-babb-e5b1234c06de","system_id":"levelo_inurba_marseille","lat":43.290719,"lon":5.37155,"is_reserved":false,"is_disabled":false,"rental_uris":{"android":"levelo://app?vid=78fe31c0-55de-4714-babb-e5b1234c06de","ios":"levelo://app?vid=78fe31c0-55de-4714-babb-e5b1234c06de"},"vehicle_type_id":"4","last_reported":1778506541,"current_range_meters":7200,"station_id":"ce4bh5p2rcd13ifvqe4g","pricing_plan_id":"cebpf4jnsgd1na2vs0mg"},{"bike_id":"d41dd175-5bfe-48c4-8352-4a80d32b168e","system_id":"levelo_inurba_marseille","lat":43.24966,"lon":5.38966,"is_reserved":false,"is_disabled":false,"rental_uris":{"android":"levelo://app?vid=d41dd175-5bfe-48c4-8352-4a80d32b168e","ios":"levelo://app?vid=d41dd175-5bfe-48c4-8352-4a80d32b168e"},"vehicle_type_id":"4","last_reported":1778506541,"current_range_meters":7200,"station_id":"","pricing_plan_id":"cebpf4jnsgd1na2vs0mg"},{"bike_id":"a687de40-285a-4965-b64b-ee2f6457bc7f","system_id":"levelo_inurba_marseille","lat":43.337444,"lon":5.374475,"is_reserved":false,"is_disabled":false,"rental_uris":{"android":"levelo://app?vid=a687de40-285a-4965-b64b-ee2f6457bc7f","ios":"levelo://app?vid=a687de40-285a-4965-b64b-ee2f6457bc7f"},"vehicle_type_id":"4","last_reported":1778506541,"current_range_meters":8000,"station_id":"ce4bgjh2rcd13ifvqbf0","pricing_plan_id":"cebpf4jnsgd1na2vs0mg"},{"bike_id":"9385a7db-a696-47a2-8c9b-9a34adad8836","system_id":"levelo_inurba_marseille","lat":43.30551,"lon":5.36533,"is_reserved":false,"is_disabled":false,"rental_uris":{"android":"levelo://app?vid=9385a7db-a696-47a2-8c9b-9a34adad8836","ios":"levelo://app?vid=9385a7db-a696-47a2-8c9b-9a34adad8836"},"vehicle_type_id":"4","last_reported":1778506541,"current_range_meters":8000,"station_id":"ce4bgs12rcd13ifvqcag","pricing_plan_id":"cebpf4jnsgd1na2vs0mg"},{"bike_id":"bcdae4e5-b106-4397-81a5-71eb7d3f1f17","system_id":"levelo_inurba_marseille","lat":43.29531,"lon":5.38533,"is_reserved":false,"is_disabled":false,"rental_uris":{"android":"levelo://app?vid=bcdae4e5-b106-4397-81a5-71eb7d3f1f17","ios":"levelo://app?vid=bcdae4e5-b106-4397-81a5-71eb7d3f1f17"},"vehicle_type_id":"4","last_reported":1778506541,"current_range_meters":8000,"station_id":"ce4bgih2rcd13ifvqba0","pricing_plan_id":"cebpf4jnsgd1na2vs0mg"},{"bike_id":"e0dcdb7c-f6c9-48b1-9d51-9065196df587","system_id":"levelo_inurba_marseille","lat":43.2815,"lon":5.4264,"is_reserved":false,"is_disabled":true,"rental_uris":{"android":"levelo://app?vid=e0dcdb7c-f6c9-48b1-9d51-9065196df587","ios":"levelo://app?vid=e0dcdb7c-f6c9-48b1-9d51-9065196df587"},"vehicle_type_id":"4","last_reported":1778506541,"current_range_meters":8000,"station_id":"ce4bhnh2rcd13ifvqgug","pricing_plan_id":"cebpf4jnsgd1na2vs0mg"},{"bike_id":"2c205be0-813e-41d0-94f4-7991676c9362","system_id":"levelo_inurba_marseille","lat":43.28262,"lon":5.35068,"is_reserved":false,"is_disabled":false,"rental_uris":{"android":"levelo://app?vid=2c205be0-813e-41d0-94f4-7991676c9362","ios":"levelo://app?vid=2c205be0-813e-41d0-94f4-7991676c9362"},"vehicle_type_id":"4","last_reported":1778506541,"current_range_meters":8000,"station_id":"ce4bhbp2rcd13ifvqerg","pricing_plan_id":"cebpf4jnsgd1na2vs0mg"},{"bike_id":"47233bff-c071-48e3-9d2d-1470323b23f8","system_id":"levelo_inurba_marseille","lat":43.23153,"lon":5.4373,"is_reserved":false,"is_disabled":false,"rental_uris":{"android":"levelo://app?vid=47233bff-c071-48e3-9d2d-1470323b23f8","ios":"levelo://app?vid=47233bff-c071-48e3-9d2d-1470323b23f8"},"vehicle_type_id":"4","last_reported":1778506541,"current_range_meters":8000,"station_id":"ce4bhmp2rcd13ifvqgog","pricing_plan_id":"cebpf4jnsgd1na2vs0mg"},{"bike_id":"ffb34908-81f0-450d-91ec-59fc53e9ad76","system_id":"levelo_inurba_marseille","lat":43.33954,"lon":5.4168,"is_reserved":false,"is_disabled":false,"rental_uris":{"android":"levelo://app?vid=ffb34908-81f0-450d-91ec-59fc53e9ad76","ios":"levelo://app?vid=ffb34908-81f0-450d-91ec-59fc53e9ad76"},"vehicle_type_id":"4","last_reported":1778506541,"current_range_meters":8000,"station_id":"","pricing_plan_id":"cebpf4jnsgd1na2vs0mg"},{"bike_id":"6ff26e1e-c165-48e6-a586-46f84a81bf64","system_id":"levelo_inurba_marseille","lat":43.30515,"lon":5.36541,"is_reserved":false,"is_disabled":false,"rental_uris":{"android":"levelo://app?vid=6ff26e1e-c165-48e6-a586-46f84a81bf64","ios":"levelo://app?vid=6ff26e1e-c165-48e6-a586-46f84a81bf64"},"vehicle_type_id":"4","last_reported":1778506541,"current_range_meters":8000,"station_id":"","pricing_plan_id":"cebpf4jnsgd1na2vs0mg"},{"bike_id":"d508981c-4bb3-47a6-805a-1de997ca9a9f","system_id":"levelo_inurba_marseille","lat":43.30538,"lon":5.36722,"is_reserved":false,"is_disabled":false,"rental_uris":{"android":"levelo://app?vid=d508981c-4bb3-47a6-805a-1de997ca9a9f","ios":"levelo://app?vid=d508981c-4bb3-47a6-805a-1de997ca9a9f"},"vehicle_type_id":"4","last_reported":1778506541,"current_range_meters":8000,"station_id":"ce4bgrp2rcd13ifvqc9g","pricing_plan_id":"cebpf4jnsgd1na2vs0mg"},{"bike_id":"f4f8f0c6-dd30-4ad6-be7b-5d86141875d6","system_id":"levelo_inurba_marseille","lat":43.30526,"lon":5.36726,"is_reserved":false,"is_disabled":false,"rental_uris":{"android":"levelo://app?vid=f4f8f0c6-dd30-4ad6-be7b-5d86141875d6","ios":"levelo://app?vid=f4f8f0c6-dd30-4ad6-be7b-5d86141875d6"},"vehicle_type_id":"4","last_reported":1778506541,"current_range_meters":8000,"station_id":"ce4bgrp2rcd13ifvqc9g","pricing_plan_id":"cebpf4jnsgd1na2vs0mg"},{"bike_id":"73fb9017-f41a-4e8d-9bf3-a08e76317853","system_id":"levelo_inurba_marseille","lat":43.30946,"lon":5.39022,"is_reserved":false,"is_disabled":false,"rental_uris":{"android":"levelo://app?vid=73fb9017-f41a-4e8d-9bf3-a08e76317853","ios":"levelo://app?vid=73fb9017-f41a-4e8d-9bf3-a08e76317853"},"vehicle_type_id":"4","last_reported":1778506541,"current_range_meters":8000,"station_id":"ce4bgup2rcd13ifvqco0","pricing_plan_id":"cebpf4jnsgd1na2vs0mg"},{"bike_id":"f300a674-6057-4960-b245-ebb8a2a82161","system_id":"levelo_inurba_marseille","lat":43.28412,"lon":5.35001,"is_reserved":false,"is_disabled":false,"rental_uris":{"android":"levelo://app?vid=f300a674-6057-4960-b245-ebb8a2a82161","ios":"levelo://app?vid=f300a674-6057-4960-b245-ebb8a2a82161"},"vehicle_type_id":"4","last_reported":1778506541,"current_range_meters":8000,"station_id":"ce4bhbh2rcd13ifvqepg","pricing_plan_id":"cebpf4jnsgd1na2vs0mg"},{"bike_id":"16c2f8a9-69ea-4448-b67e-aa72ddd8f31c","system_id":"levelo_inurba_marseille","lat":43.30133,"lon":5.37416,"is_reserved":false,"is_disabled":false,"rental_uris":{"android":"levelo://app?vid=16c2f8a9-69ea-4448-b67e-aa72ddd8f31c","ios":"levelo://app?vid=16c2f8a9-69ea-4448-b67e-aa72ddd8f31c"},"vehicle_type_id":"4","last_reported":1778506541,"current_range_meters":8000,"station_id":"ce4bgs92rcd13ifvqcc0","pricing_plan_id":"cebpf4jnsgd1na2vs0mg"},{"bike_id":"e1503575-8d47-4546-b8cd-a7397d82e305","system_id":"levelo_inurba_marseille","lat":43.28855,"lon":5.42522,"is_reserved":false,"is_disabled":false,"rental_uris":{"android":"levelo://app?vid=e1503575-8d47-4546-b8cd-a7397d82e305","ios":"levelo://app?vid=e1503575-8d47-4546-b8cd-a7397d82e305"},"vehicle_type_id":"4","last_reported":1778506541,"current_range_meters":8000,"station_id":"st_d3b462108ojc7389ooeg","pricing_plan_id":"cebpf4jnsgd1na2vs0mg"},{"bike_id":"d7dbf59b-5468-472d-b78e-c8fcdde2744f","system_id":"levelo_inurba_marseille","lat":43.23143,"lon":5.43699,"is_reserved":false,"is_disabled":false,"rental_uris":{"android":"levelo://app?vid=d7dbf59b-5468-472d-b78e-c8fcdde2744f","ios":"levelo://app?vid=d7dbf59b-5468-472d-b78e-c8fcdde2744f"},"vehicle_type_id":"4","last_reported":1778506541,"current_range_meters":8000,"station_id":"ce4bhmp2rcd13ifvqgog","pricing_plan_id":"cebpf4jnsgd1na2vs0mg"},{"bike_id":"27cf4444-d607-44fc-a3b4-a8a2c520ad3b","system_id":"levelo_inurba_marseille","lat":43.32533,"lon":5.41433,"is_reserved":false,"is_disabled":false,"rental_uris":{"android":"levelo://app?vid=27cf4444-d607-44fc-a3b4-a8a2c520ad3b","ios":"levelo://app?vid=27cf4444-d607-44fc-a3b4-a8a2c520ad3b"},"vehicle_type_id":"4","last_reported":1778506541,"current_range_meters":8000,"station_id":"ce4bhq12rcd13ifvqhhg","pricing_plan_id":"cebpf4jnsgd1na2vs0mg"},{"bike_id":"7d924b09-9d5e-45d5-950c-813fd94d7ab2","system_id":"levelo_inurba_marseille","lat":43.29262,"lon":5.38447,"is_reserved":false,"is_disabled":false,"rental_uris":{"android":"levelo://app?vid=7d924b09-9d5e-45d5-950c-813fd94d7ab2","ios":"levelo://app?vid=7d924b09-9d5e-45d5-950c-813fd94d7ab2"},"vehicle_type_id":"4","last_reported":1778506541,"current_range_meters":8000,"station_id":"ce4bh692rcd13ifvqea0","pricing_plan_id":"cebpf4jnsgd1na2vs0mg"},{"bike_id":"f00c248b-fecd-46a7-889e-7df6169475f1","system_id":"levelo_inurba_marseille","lat":43.27441,"lon":5.39402,"is_reserved":false,"is_disabled":false,"rental_uris":{"android":"levelo://app?vid=f00c248b-fecd-46a7-889e-7df6169475f1","ios":"levelo://app?vid=f00c248b-fecd-46a7-889e-7df6169475f1"},"vehicle_type_id":"4","last_reported":1778506541,"current_range_meters":8400,"station_id":"ce4bhdp2rcd13ifvqf20","pricing_plan_id":"cebpf4jnsgd1na2vs0mg"},{"bike_id":"9f856cc5-da26-4ec5-9964-697a80b3cd72","system_id":"levelo_inurba_marseille","lat":43.28623,"lon":5.35102,"is_reserved":false,"is_disabled":false,"rental_uris":{"android":"levelo://app?vid=9f856cc5-da26-4ec5-9964-697a80b3cd72","ios":"levelo://app?vid=9f856cc5-da26-4ec5-9964-697a80b3cd72"},"vehicle_type_id":"4","last_reported":1778506541,"current_range_meters":8400,"station_id":"ce4bhch2rcd13ifvqeug","pricing_plan_id":"cebpf4jnsgd1na2vs0mg"},{"bike_id":"2a15f532-2d52-4f08-85d5-53f0f8106724","system_id":"levelo_inurba_marseille","lat":43.3129,"lon":5.36731,"is_reserved":false,"is_disabled":false,"rental_uris":{"android":"levelo://app?vid=2a15f532-2d52-4f08-85d5-53f0f8106724","ios":"levelo://app?vid=2a15f532-2d52-4f08-85d5-53f0f8106724"},"vehicle_type_id":"4","last_reported":1778506541,"current_range_meters":8400,"station_id":"ce4bgr92rcd13ifvqc6g","pricing_plan_id":"cebpf4jnsgd1na2vs0mg"},{"bike_id":"abef5b6c-1ccc-45e4-8c2e-19519fcf785d","system_id":"levelo_inurba_marseille","lat":43.31295,"lon":5.36758,"is_reserved":false,"is_disabled":false,"rental_uris":{"android":"levelo://app?vid=abef5b6c-1ccc-45e4-8c2e-19519fcf785d","ios":"levelo://app?vid=abef5b6c-1ccc-45e4-8c2e-19519fcf785d"},"vehicle_type_id":"4","last_reported":1778506541,"current_range_meters":8400,"station_id":"ce4bgr92rcd13ifvqc6g","pricing_plan_id":"cebpf4jnsgd1na2vs0mg"},{"bike_id":"f08fd671-6039-42d3-9555-565586ddb900","system_id":"levelo_inurba_marseille","lat":43.23202,"lon":5.35561,"is_reserved":false,"is_disabled":false,"rental_uris":{"android":"levelo://app?vid=f08fd671-6039-42d3-9555-565586ddb900","ios":"levelo://app?vid=f08fd671-6039-42d3-9555-565586ddb900"},"vehicle_type_id":"4","last_reported":1778506541,"current_range_meters":8400,"station_id":"ce4bhu92rcd13ifvqi70","pricing_plan_id":"cebpf4jnsgd1na2vs0mg"},{"bike_id":"3419066d-e378-4156-bb5f-c2cc9ce3cfb0","system_id":"levelo_inurba_marseille","lat":43.27475,"lon":5.42489,"is_reserved":false,"is_disabled":false,"rental_uris":{"android":"levelo://app?vid=3419066d-e378-4156-bb5f-c2cc9ce3cfb0","ios":"levelo://app?vid=3419066d-e378-4156-bb5f-c2cc9ce3cfb0"},"vehicle_type_id":"4","last_reported":1778506541,"current_range_meters":8400,"station_id":"ce4bhn92rcd13ifvqgrg","pricing_plan_id":"cebpf4jnsgd1na2vs0mg"},{"bike_id":"0a31404c-6afa-4ef3-9273-dea3f9d30f94","system_id":"levelo_inurba_marseille","lat":43.25726,"lon":5.41116,"is_reserved":false,"is_disabled":false,"rental_uris":{"android":"levelo://app?vid=0a31404c-6afa-4ef3-9273-dea3f9d30f94","ios":"levelo://app?vid=0a31404c-6afa-4ef3-9273-dea3f9d30f94"},"vehicle_type_id":"4","last_reported":1778506541,"current_range_meters":8400,"station_id":"ce4bhkp2rcd13ifvqgd0","pricing_plan_id":"cebpf4jnsgd1na2vs0mg"},{"bike_id":"69c7ecf0-104e-42b6-af75-d5a8c799deab","system_id":"levelo_inurba_marseille","lat":43.2174,"lon":5.34593,"is_reserved":false,"is_disabled":false,"rental_uris":{"android":"levelo://app?vid=69c7ecf0-104e-42b6-af75-d5a8c799deab","ios":"levelo://app?vid=69c7ecf0-104e-42b6-af75-d5a8c799deab"},"vehicle_type_id":"4","last_reported":1778506541,"current_range_meters":8400,"station_id":"st_cvj6r9ubvosntc0bgbag","pricing_plan_id":"cebpf4jnsgd1na2vs0mg"},{"bike_id":"ec52d4cf-f8c9-43d9-9271-a432f86aa150","system_id":"levelo_inurba_marseille","lat":43.23158,"lon":5.43696,"is_reserved":false,"is_disabled":false,"rental_uris":{"android":"levelo://app?vid=ec52d4cf-f8c9-43d9-9271-a432f86aa150","ios":"levelo://app?vid=ec52d4cf-f8c9-43d9-9271-a432f86aa150"},"vehicle_type_id":"4","last_reported":1778506541,"current_range_meters":8400,"station_id":"ce4bhmp2rcd13ifvqgog","pricing_plan_id":"cebpf4jnsgd1na2vs0mg"},{"bike_id":"ee4ae8ad-baac-4ca4-b488-3ec551753c66","system_id":"levelo_inurba_marseille","lat":43.21194,"lon":5.35084,"is_reserved":false,"is_disabled":false,"rental_uris":{"android":"levelo://app?vid=ee4ae8ad-baac-4ca4-b488-3ec551753c66","ios":"levelo://app?vid=ee4ae8ad-baac-4ca4-b488-3ec551753c66"},"vehicle_type_id":"4","last_reported":1778506541,"current_range_meters":8400,"station_id":"st_cvj6sg6p6f1abm77japg","pricing_plan_id":"cebpf4jnsgd1na2vs0mg"},{"bike_id":"63fb50bb-626e-4c8c-a904-a1887ca132bf","system_id":"levelo_inurba_marseille","lat":43.25489,"lon":5.37649,"is_reserved":false,"is_disabled":false,"rental_uris":{"android":"levelo://app?vid=63fb50bb-626e-4c8c-a904-a1887ca132bf","ios":"levelo://app?vid=63fb50bb-626e-4c8c-a904-a1887ca132bf"},"vehicle_type_id":"4","last_reported":1778506541,"current_range_meters":8400,"station_id":"ce4bhh12rcd13ifvqff0","pricing_plan_id":"cebpf4jnsgd1na2vs0mg"},{"bike_id":"e3b32efc-f569-4792-8761-60c097854bfa","system_id":"levelo_inurba_marseille","lat":43.29205,"lon":5.42691,"is_reserved":false,"is_disabled":false,"rental_uris":{"android":"levelo://app?vid=e3b32efc-f569-4792-8761-60c097854bfa","ios":"levelo://app?vid=e3b32efc-f569-4792-8761-60c097854bfa"},"vehicle_type_id":"4","last_reported":1778506541,"current_range_meters":8400,"station_id":"","pricing_plan_id":"cebpf4jnsgd1na2vs0mg"},{"bike_id":"f4e18f2e-132c-42a4-bd0f-187c5484ee98","system_id":"levelo_inurba_marseille","lat":43.2826,"lon":5.35065,"is_reserved":false,"is_disabled":false,"rental_uris":{"android":"levelo://app?vid=f4e18f2e-132c-42a4-bd0f-187c5484ee98","ios":"levelo://app?vid=f4e18f2e-132c-42a4-bd0f-187c5484ee98"},"vehicle_type_id":"4","last_reported":1778506541,"current_range_meters":8400,"station_id":"ce4bhbp2rcd13ifvqerg","pricing_plan_id":"cebpf4jnsgd1na2vs0mg"},{"bike_id":"c91df724-5b59-4289-b01a-509c9ed50268","system_id":"levelo_inurba_marseille","lat":43.2388,"lon":5.37492,"is_reserved":false,"is_disabled":false,"rental_uris":{"android":"levelo://app?vid=c91df724-5b59-4289-b01a-509c9ed50268","ios":"levelo://app?vid=c91df724-5b59-4289-b01a-509c9ed50268"},"vehicle_type_id":"4","last_reported":1778506541,"current_range_meters":8800,"station_id":"st_d6sm7csbq4hs73f8fpjg","pricing_plan_id":"cebpf4jnsgd1na2vs0mg"},{"bike_id":"ff750a6d-4eb9-4369-a446-03b9f1f21b2f","system_id":"levelo_inurba_marseille","lat":43.31252,"lon":5.36833,"is_reserved":false,"is_disabled":false,"rental_uris":{"android":"levelo://app?vid=ff750a6d-4eb9-4369-a446-03b9f1f21b2f","ios":"levelo://app?vid=ff750a6d-4eb9-4369-a446-03b9f1f21b2f"},"vehicle_type_id":"4","last_reported":1778506541,"current_range_meters":8800,"station_id":"ce4bgl92rcd13ifvqbq0","pricing_plan_id":"cebpf4jnsgd1na2vs0mg"},{"bike_id":"ce8907b4-95ae-4cb1-8ed0-698c7f370c57","system_id":"levelo_inurba_marseille","lat":43.28151,"lon":5.42674,"is_reserved":false,"is_disabled":false,"rental_uris":{"android":"levelo://app?vid=ce8907b4-95ae-4cb1-8ed0-698c7f370c57","ios":"levelo://app?vid=ce8907b4-95ae-4cb1-8ed0-698c7f370c57"},"vehicle_type_id":"4","last_reported":1778506541,"current_range_meters":8800,"station_id":"ce4bhnh2rcd13ifvqgug","pricing_plan_id":"cebpf4jnsgd1na2vs0mg"},{"bike_id":"e1fc6127-8c15-41b2-b8fd-4aea30bf0617","system_id":"levelo_inurba_marseille","lat":43.23145,"lon":5.43722,"is_reserved":false,"is_disabled":false,"rental_uris":{"android":"levelo://app?vid=e1fc6127-8c15-41b2-b8fd-4aea30bf0617","ios":"levelo://app?vid=e1fc6127-8c15-41b2-b8fd-4aea30bf0617"},"vehicle_type_id":"4","last_reported":1778506541,"current_range_meters":8800,"station_id":"ce4bhmp2rcd13ifvqgog","pricing_plan_id":"cebpf4jnsgd1na2vs0mg"},{"bike_id":"1f9561d8-586e-48b6-8f59-b32daf0821a8","system_id":"levelo_inurba_marseille","lat":43.28697,"lon":5.46678,"is_reserved":false,"is_disabled":false,"rental_uris":{"android":"levelo://app?vid=1f9561d8-586e-48b6-8f59-b32daf0821a8","ios":"levelo://app?vid=1f9561d8-586e-48b6-8f59-b32daf0821a8"},"vehicle_type_id":"4","last_reported":1778506541,"current_range_meters":8800,"station_id":"st_d6tc3vkotcvc738tfjhg","pricing_plan_id":"cebpf4jnsgd1na2vs0mg"},{"bike_id":"f686b01a-c70f-439e-97a0-39cc13ce32f3","system_id":"levelo_inurba_marseille","lat":43.24065,"lon":5.37695,"is_reserved":false,"is_disabled":true,"rental_uris":{"android":"levelo://app?vid=f686b01a-c70f-439e-97a0-39cc13ce32f3","ios":"levelo://app?vid=f686b01a-c70f-439e-97a0-39cc13ce32f3"},"vehicle_type_id":"4","last_reported":1778506541,"current_range_meters":8800,"station_id":"ce4bhnp2rcd13ifvqgvg","pricing_plan_id":"cebpf4jnsgd1na2vs0mg"},{"bike_id":"9db1df65-ef62-498f-9f2e-d2b2f091fe22","system_id":"levelo_inurba_marseille","lat":43.27311,"lon":5.39112,"is_reserved":false,"is_disabled":false,"rental_uris":{"android":"levelo://app?vid=9db1df65-ef62-498f-9f2e-d2b2f091fe22","ios":"levelo://app?vid=9db1df65-ef62-498f-9f2e-d2b2f091fe22"},"vehicle_type_id":"4","last_reported":1778506541,"current_range_meters":8800,"station_id":"ce4bhgp2rcd13ifvqfe0","pricing_plan_id":"cebpf4jnsgd1na2vs0mg"},{"bike_id":"8ed842d5-11ab-4284-b9ac-f0538153653d","system_id":"levelo_inurba_marseille","lat":43.31401,"lon":5.36754,"is_reserved":false,"is_disabled":false,"rental_uris":{"android":"levelo://app?vid=8ed842d5-11ab-4284-b9ac-f0538153653d","ios":"levelo://app?vid=8ed842d5-11ab-4284-b9ac-f0538153653d"},"vehicle_type_id":"4","last_reported":1778506541,"current_range_meters":8800,"station_id":"","pricing_plan_id":"cebpf4jnsgd1na2vs0mg"},{"bike_id":"d865f9a0-14b6-46bd-bba4-d835d1328292","system_id":"levelo_inurba_marseille","lat":43.31175,"lon":5.38709,"is_reserved":false,"is_disabled":true,"rental_uris":{"android":"levelo://app?vid=d865f9a0-14b6-46bd-bba4-d835d1328292","ios":"levelo://app?vid=d865f9a0-14b6-46bd-bba4-d835d1328292"},"vehicle_type_id":"4","last_reported":1778506541,"current_range_meters":8800,"station_id":"ce4bgv12rcd13ifvqcp0","pricing_plan_id":"cebpf4jnsgd1na2vs0mg"},{"bike_id":"f1e6658f-a05d-4ffa-b1f2-3a3847f11699","system_id":"levelo_inurba_marseille","lat":43.30146,"lon":5.39854,"is_reserved":false,"is_disabled":false,"rental_uris":{"android":"levelo://app?vid=f1e6658f-a05d-4ffa-b1f2-3a3847f11699","ios":"levelo://app?vid=f1e6658f-a05d-4ffa-b1f2-3a3847f11699"},"vehicle_type_id":"4","last_reported":1778506541,"current_range_meters":8800,"station_id":"ce4bh0h2rcd13ifvqd40","pricing_plan_id":"cebpf4jnsgd1na2vs0mg"},{"bike_id":"71a33395-519e-4307-a4fd-d537d1762317","system_id":"levelo_inurba_marseille","lat":43.23189,"lon":5.3556,"is_reserved":false,"is_disabled":false,"rental_uris":{"android":"levelo://app?vid=71a33395-519e-4307-a4fd-d537d1762317","ios":"levelo://app?vid=71a33395-519e-4307-a4fd-d537d1762317"},"vehicle_type_id":"4","last_reported":1778506541,"current_range_meters":8800,"station_id":"ce4bhu92rcd13ifvqi70","pricing_plan_id":"cebpf4jnsgd1na2vs0mg"},{"bike_id":"b06dc624-9d1b-44bd-b8d1-2da3c164f736","system_id":"levelo_inurba_marseille","lat":43.30502,"lon":5.45979,"is_reserved":false,"is_disabled":false,"rental_uris":{"android":"levelo://app?vid=b06dc624-9d1b-44bd-b8d1-2da3c164f736","ios":"levelo://app?vid=b06dc624-9d1b-44bd-b8d1-2da3c164f736"},"vehicle_type_id":"4","last_reported":1778506541,"current_range_meters":8800,"station_id":"","pricing_plan_id":"cebpf4jnsgd1na2vs0mg"},{"bike_id":"0ddd0f78-9812-40a7-8df5-3cfa52853e97","system_id":"levelo_inurba_marseille","lat":43.28267,"lon":5.3508,"is_reserved":false,"is_disabled":false,"rental_uris":{"android":"levelo://app?vid=0ddd0f78-9812-40a7-8df5-3cfa52853e97","ios":"levelo://app?vid=0ddd0f78-9812-40a7-8df5-3cfa52853e97"},"vehicle_type_id":"4","last_reported":1778506541,"current_range_meters":8800,"station_id":"ce4bhbp2rcd13ifvqerg","pricing_plan_id":"cebpf4jnsgd1na2vs0mg"},{"bike_id":"4a6c5906-a992-4e7a-b6d8-7aa59e3d9561","system_id":"levelo_inurba_marseille","lat":43.32485,"lon":5.36579,"is_reserved":false,"is_disabled":false,"rental_uris":{"android":"levelo://app?vid=4a6c5906-a992-4e7a-b6d8-7aa59e3d9561","ios":"levelo://app?vid=4a6c5906-a992-4e7a-b6d8-7aa59e3d9561"},"vehicle_type_id":"4","last_reported":1778506541,"current_range_meters":8800,"station_id":"ce4bhs12rcd13ifvqhvg","pricing_plan_id":"cebpf4jnsgd1na2vs0mg"},{"bike_id":"a477a1a3-f071-4e56-a635-b34d7283b460","system_id":"levelo_inurba_marseille","lat":43.33552,"lon":5.37509,"is_reserved":false,"is_disabled":false,"rental_uris":{"android":"levelo://app?vid=a477a1a3-f071-4e56-a635-b34d7283b460","ios":"levelo://app?vid=a477a1a3-f071-4e56-a635-b34d7283b460"},"vehicle_type_id":"4","last_reported":1778506541,"current_range_meters":8800,"station_id":"st_d46tts09ee8s73dlu43g","pricing_plan_id":"cebpf4jnsgd1na2vs0mg"},{"bike_id":"8a82bdb2-56f3-4160-9eee-f91a591be97e","system_id":"levelo_inurba_marseille","lat":43.28102,"lon":5.37838,"is_reserved":false,"is_disabled":false,"rental_uris":{"android":"levelo://app?vid=8a82bdb2-56f3-4160-9eee-f91a591be97e","ios":"levelo://app?vid=8a82bdb2-56f3-4160-9eee-f91a591be97e"},"vehicle_type_id":"4","last_reported":1778506541,"current_range_meters":8800,"station_id":"ce4bha12rcd13ifvqee0","pricing_plan_id":"cebpf4jnsgd1na2vs0mg"},{"bike_id":"08ea9bf7-363f-4ee9-9e69-2d90ee75a08b","system_id":"levelo_inurba_marseille","lat":43.275,"lon":5.4247,"is_reserved":false,"is_disabled":false,"rental_uris":{"android":"levelo://app?vid=08ea9bf7-363f-4ee9-9e69-2d90ee75a08b","ios":"levelo://app?vid=08ea9bf7-363f-4ee9-9e69-2d90ee75a08b"},"vehicle_type_id":"4","last_reported":1778506541,"current_range_meters":8800,"station_id":"ce4bhn92rcd13ifvqgrg","pricing_plan_id":"cebpf4jnsgd1na2vs0mg"},{"bike_id":"2235f32f-8d3d-4697-8075-6ed827ec757d","system_id":"levelo_inurba_marseille","lat":43.25502,"lon":5.37673,"is_reserved":false,"is_disabled":false,"rental_uris":{"android":"levelo://app?vid=2235f32f-8d3d-4697-8075-6ed827ec757d","ios":"levelo://app?vid=2235f32f-8d3d-4697-8075-6ed827ec757d"},"vehicle_type_id":"4","last_reported":1778506541,"current_range_meters":8800,"station_id":"ce4bhh12rcd13ifvqff0","pricing_plan_id":"cebpf4jnsgd1na2vs0mg"},{"bike_id":"89057c05-c72e-4f5a-a0db-f5b7c4f54905","system_id":"levelo_inurba_marseille","lat":43.27944,"lon":5.41063,"is_reserved":false,"is_disabled":true,"rental_uris":{"android":"levelo://app?vid=89057c05-c72e-4f5a-a0db-f5b7c4f54905","ios":"levelo://app?vid=89057c05-c72e-4f5a-a0db-f5b7c4f54905"},"vehicle_type_id":"4","last_reported":1778506541,"current_range_meters":8800,"station_id":"ce4bhnp2rcd13ifvqh0g","pricing_plan_id":"cebpf4jnsgd1na2vs0mg"},{"bike_id":"3aed107c-06a6-4d54-8ce7-7de7a0ddc8c3","system_id":"levelo_inurba_marseille","lat":43.295785,"lon":5.375028,"is_reserved":false,"is_disabled":false,"rental_uris":{"android":"levelo://app?vid=3aed107c-06a6-4d54-8ce7-7de7a0ddc8c3","ios":"levelo://app?vid=3aed107c-06a6-4d54-8ce7-7de7a0ddc8c3"},"vehicle_type_id":"4","last_reported":1778506541,"current_range_meters":8800,"station_id":"ce4bgh92rcd13ifvqb50","pricing_plan_id":"cebpf4jnsgd1na2vs0mg"},{"bike_id":"90ea200b-a3c8-4c80-9121-b1aa0e15329c","system_id":"levelo_inurba_marseille","lat":43.282684,"lon":5.350703,"is_reserved":false,"is_disabled":false,"rental_uris":{"android":"levelo://app?vid=90ea200b-a3c8-4c80-9121-b1aa0e15329c","ios":"levelo://app?vid=90ea200b-a3c8-4c80-9121-b1aa0e15329c"},"vehicle_type_id":"4","last_reported":1778506541,"current_range_meters":8800,"station_id":"ce4bhbp2rcd13ifvqerg","pricing_plan_id":"cebpf4jnsgd1na2vs0mg"},{"bike_id":"a0130f1b-ce31-44b6-bbce-189c0edcff68","system_id":"levelo_inurba_marseille","lat":43.30405,"lon":5.37936,"is_reserved":false,"is_disabled":true,"rental_uris":{"android":"levelo://app?vid=a0130f1b-ce31-44b6-bbce-189c0edcff68","ios":"levelo://app?vid=a0130f1b-ce31-44b6-bbce-189c0edcff68"},"vehicle_type_id":"4","last_reported":1778506541,"current_range_meters":8800,"station_id":"","pricing_plan_id":"cebpf4jnsgd1na2vs0mg"},{"bike_id":"712b6481-0414-4e83-8c0d-322086583ab8","system_id":"levelo_inurba_marseille","lat":43.21744,"lon":5.34606,"is_reserved":false,"is_disabled":false,"rental_uris":{"android":"levelo://app?vid=712b6481-0414-4e83-8c0d-322086583ab8","ios":"levelo://app?vid=712b6481-0414-4e83-8c0d-322086583ab8"},"vehicle_type_id":"4","last_reported":1778506541,"current_range_meters":8800,"station_id":"st_cvj6r9ubvosntc0bgbag","pricing_plan_id":"cebpf4jnsgd1na2vs0mg"},{"bike_id":"8673eca3-8676-4675-8699-2fd983e8eddf","system_id":"levelo_inurba_marseille","lat":43.28614,"lon":5.35101,"is_reserved":false,"is_disabled":false,"rental_uris":{"android":"levelo://app?vid=8673eca3-8676-4675-8699-2fd983e8eddf","ios":"levelo://app?vid=8673eca3-8676-4675-8699-2fd983e8eddf"},"vehicle_type_id":"4","last_reported":1778506541,"current_range_meters":8800,"station_id":"ce4bhch2rcd13ifvqeug","pricing_plan_id":"cebpf4jnsgd1na2vs0mg"},{"bike_id":"de15025b-6ccd-4c02-a679-94e68edc9c98","system_id":"levelo_inurba_marseille","lat":43.28783,"lon":5.42417,"is_reserved":false,"is_disabled":false,"rental_uris":{"android":"levelo://app?vid=de15025b-6ccd-4c02-a679-94e68edc9c98","ios":"levelo://app?vid=de15025b-6ccd-4c02-a679-94e68edc9c98"},"vehicle_type_id":"4","last_reported":1778506541,"current_range_meters":8800,"station_id":"","pricing_plan_id":"cebpf4jnsgd1na2vs0mg"},{"bike_id":"8e4b050e-78bc-4587-a179-01ce687f4825","system_id":"levelo_inurba_marseille","lat":43.24647,"lon":5.38912,"is_reserved":false,"is_disabled":false,"rental_uris":{"android":"levelo://app?vid=8e4b050e-78bc-4587-a179-01ce687f4825","ios":"levelo://app?vid=8e4b050e-78bc-4587-a179-01ce687f4825"},"vehicle_type_id":"4","last_reported":1778506541,"current_range_meters":8800,"station_id":"ce4bhg12rcd13ifvqf60","pricing_plan_id":"cebpf4jnsgd1na2vs0mg"},{"bike_id":"c971285a-2942-4d03-ab35-c302dd383c39","system_id":"levelo_inurba_marseille","lat":43.290694,"lon":5.3716,"is_reserved":false,"is_disabled":false,"rental_uris":{"android":"levelo://app?vid=c971285a-2942-4d03-ab35-c302dd383c39","ios":"levelo://app?vid=c971285a-2942-4d03-ab35-c302dd383c39"},"vehicle_type_id":"4","last_reported":1778506541,"current_range_meters":8800,"station_id":"ce4bh5p2rcd13ifvqe4g","pricing_plan_id":"cebpf4jnsgd1na2vs0mg"},{"bike_id":"b8893028-cea4-4668-b166-d19c9bcf479a","system_id":"levelo_inurba_marseille","lat":43.29524,"lon":5.38534,"is_reserved":false,"is_disabled":false,"rental_uris":{"android":"levelo://app?vid=b8893028-cea4-4668-b166-d19c9bcf479a","ios":"levelo://app?vid=b8893028-cea4-4668-b166-d19c9bcf479a"},"vehicle_type_id":"4","last_reported":1778506541,"current_range_meters":8800,"station_id":"ce4bgih2rcd13ifvqba0","pricing_plan_id":"cebpf4jnsgd1na2vs0mg"},{"bike_id":"914b94a4-bf59-4af5-993a-5a5d7a6154fb","system_id":"levelo_inurba_marseille","lat":43.31761,"lon":5.39018,"is_reserved":false,"is_disabled":false,"rental_uris":{"android":"levelo://app?vid=914b94a4-bf59-4af5-993a-5a5d7a6154fb","ios":"levelo://app?vid=914b94a4-bf59-4af5-993a-5a5d7a6154fb"},"vehicle_type_id":"4","last_reported":1778506541,"current_range_meters":8800,"station_id":"ce4bhqp2rcd13ifvqhng","pricing_plan_id":"cebpf4jnsgd1na2vs0mg"},{"bike_id":"e235c370-0ade-40b1-8380-7c0b37892d18","system_id":"levelo_inurba_marseille","lat":43.26216,"lon":5.37443,"is_reserved":false,"is_disabled":false,"rental_uris":{"android":"levelo://app?vid=e235c370-0ade-40b1-8380-7c0b37892d18","ios":"levelo://app?vid=e235c370-0ade-40b1-8380-7c0b37892d18"},"vehicle_type_id":"4","last_reported":1778506541,"current_range_meters":9200,"station_id":"ce4bhgp2rcd13ifvqfc0","pricing_plan_id":"cebpf4jnsgd1na2vs0mg"},{"bike_id":"6687113e-3a7a-46e3-867b-b9b5b727b9e3","system_id":"levelo_inurba_marseille","lat":43.29707,"lon":5.36599,"is_reserved":false,"is_disabled":true,"rental_uris":{"android":"levelo://app?vid=6687113e-3a7a-46e3-867b-b9b5b727b9e3","ios":"levelo://app?vid=6687113e-3a7a-46e3-867b-b9b5b727b9e3"},"vehicle_type_id":"4","last_reported":1778506541,"current_range_meters":9200,"station_id":"ce4bgn12rcd13ifvqbt0","pricing_plan_id":"cebpf4jnsgd1na2vs0mg"},{"bike_id":"3d635ac5-5a9d-4ccb-a2ae-7125267d9eca","system_id":"levelo_inurba_marseille","lat":43.23144,"lon":5.43742,"is_reserved":false,"is_disabled":false,"rental_uris":{"android":"levelo://app?vid=3d635ac5-5a9d-4ccb-a2ae-7125267d9eca","ios":"levelo://app?vid=3d635ac5-5a9d-4ccb-a2ae-7125267d9eca"},"vehicle_type_id":"4","last_reported":1778506541,"current_range_meters":9200,"station_id":"ce4bhmp2rcd13ifvqgog","pricing_plan_id":"cebpf4jnsgd1na2vs0mg"},{"bike_id":"4084ae76-3cea-4122-bfc3-addd8584af62","system_id":"levelo_inurba_marseille","lat":43.21771,"lon":5.34584,"is_reserved":false,"is_disabled":false,"rental_uris":{"android":"levelo://app?vid=4084ae76-3cea-4122-bfc3-addd8584af62","ios":"levelo://app?vid=4084ae76-3cea-4122-bfc3-addd8584af62"},"vehicle_type_id":"4","last_reported":1778506541,"current_range_meters":9200,"station_id":"st_cvj6r9ubvosntc0bgbag","pricing_plan_id":"cebpf4jnsgd1na2vs0mg"},{"bike_id":"6dab8bd3-0325-4f22-a312-816867099451","system_id":"levelo_inurba_marseille","lat":43.2315,"lon":5.43719,"is_reserved":false,"is_disabled":false,"rental_uris":{"android":"levelo://app?vid=6dab8bd3-0325-4f22-a312-816867099451","ios":"levelo://app?vid=6dab8bd3-0325-4f22-a312-816867099451"},"vehicle_type_id":"4","last_reported":1778506541,"current_range_meters":9200,"station_id":"ce4bhmp2rcd13ifvqgog","pricing_plan_id":"cebpf4jnsgd1na2vs0mg"},{"bike_id":"002d1676-a704-4135-b245-6c297a5aed56","system_id":"levelo_inurba_marseille","lat":43.2417,"lon":5.36403,"is_reserved":false,"is_disabled":false,"rental_uris":{"android":"levelo://app?vid=002d1676-a704-4135-b245-6c297a5aed56","ios":"levelo://app?vid=002d1676-a704-4135-b245-6c297a5aed56"},"vehicle_type_id":"4","last_reported":1778506541,"current_range_meters":9200,"station_id":"cpo36qri1sfpv3e86is0","pricing_plan_id":"cebpf4jnsgd1na2vs0mg"},{"bike_id":"5ba3fae2-a183-402a-911f-fcc4c29f80e9","system_id":"levelo_inurba_marseille","lat":43.2706,"lon":5.38302,"is_reserved":false,"is_disabled":false,"rental_uris":{"android":"levelo://app?vid=5ba3fae2-a183-402a-911f-fcc4c29f80e9","ios":"levelo://app?vid=5ba3fae2-a183-402a-911f-fcc4c29f80e9"},"vehicle_type_id":"4","last_reported":1778506541,"current_range_meters":9200,"station_id":"st_d3n2fo6cfp8s73cte1j0","pricing_plan_id":"cebpf4jnsgd1na2vs0mg"},{"bike_id":"be5f4577-3b4a-485a-8c4b-23d34115983e","system_id":"levelo_inurba_marseille","lat":43.31505,"lon":5.36812,"is_reserved":false,"is_disabled":false,"rental_uris":{"android":"levelo://app?vid=be5f4577-3b4a-485a-8c4b-23d34115983e","ios":"levelo://app?vid=be5f4577-3b4a-485a-8c4b-23d34115983e"},"vehicle_type_id":"4","last_reported":1778506541,"current_range_meters":9200,"station_id":"ce4bgr92rcd13ifvqc6g","pricing_plan_id":"cebpf4jnsgd1na2vs0mg"},{"bike_id":"4f8736d0-c26f-4f03-a5c2-8ffb1d9867ba","system_id":"levelo_inurba_marseille","lat":43.27211,"lon":5.39095,"is_reserved":false,"is_disabled":false,"rental_uris":{"android":"levelo://app?vid=4f8736d0-c26f-4f03-a5c2-8ffb1d9867ba","ios":"levelo://app?vid=4f8736d0-c26f-4f03-a5c2-8ffb1d9867ba"},"vehicle_type_id":"4","last_reported":1778506541,"current_range_meters":9200,"station_id":"","pricing_plan_id":"cebpf4jnsgd1na2vs0mg"},{"bike_id":"8de3e2aa-00df-4e48-ac24-764efb227e87","system_id":"levelo_inurba_marseille","lat":43.2571,"lon":5.41085,"is_reserved":false,"is_disabled":false,"rental_uris":{"android":"levelo://app?vid=8de3e2aa-00df-4e48-ac24-764efb227e87","ios":"levelo://app?vid=8de3e2aa-00df-4e48-ac24-764efb227e87"},"vehicle_type_id":"4","last_reported":1778506541,"current_range_meters":9200,"station_id":"ce4bhkp2rcd13ifvqgd0","pricing_plan_id":"cebpf4jnsgd1na2vs0mg"},{"bike_id":"3ba83b48-1d42-4a86-bc26-b35cdac413f5","system_id":"levelo_inurba_marseille","lat":43.33159,"lon":5.37692,"is_reserved":false,"is_disabled":false,"rental_uris":{"android":"levelo://app?vid=3ba83b48-1d42-4a86-bc26-b35cdac413f5","ios":"levelo://app?vid=3ba83b48-1d42-4a86-bc26-b35cdac413f5"},"vehicle_type_id":"4","last_reported":1778506541,"current_range_meters":9200,"station_id":"st_d46cu089ee8s73dldbu0","pricing_plan_id":"cebpf4jnsgd1na2vs0mg"},{"bike_id":"ec719921-c8ab-4fe5-9ad8-473f4e8fddd6","system_id":"levelo_inurba_marseille","lat":43.3063,"lon":5.39456,"is_reserved":false,"is_disabled":false,"rental_uris":{"android":"levelo://app?vid=ec719921-c8ab-4fe5-9ad8-473f4e8fddd6","ios":"levelo://app?vid=ec719921-c8ab-4fe5-9ad8-473f4e8fddd6"},"vehicle_type_id":"4","last_reported":1778506541,"current_range_meters":9200,"station_id":"","pricing_plan_id":"cebpf4jnsgd1na2vs0mg"},{"bike_id":"d854bc6f-909b-4d3e-90cc-8439f71a5d98","system_id":"levelo_inurba_marseille","lat":43.23117,"lon":5.437,"is_reserved":false,"is_disabled":false,"rental_uris":{"android":"levelo://app?vid=d854bc6f-909b-4d3e-90cc-8439f71a5d98","ios":"levelo://app?vid=d854bc6f-909b-4d3e-90cc-8439f71a5d98"},"vehicle_type_id":"4","last_reported":1778506541,"current_range_meters":9200,"station_id":"ce4bhmp2rcd13ifvqgog","pricing_plan_id":"cebpf4jnsgd1na2vs0mg"},{"bike_id":"ce4e6d3d-4673-43cd-8ecc-c61d227e3357","system_id":"levelo_inurba_marseille","lat":43.31262,"lon":5.36834,"is_reserved":false,"is_disabled":false,"rental_uris":{"android":"levelo://app?vid=ce4e6d3d-4673-43cd-8ecc-c61d227e3357","ios":"levelo://app?vid=ce4e6d3d-4673-43cd-8ecc-c61d227e3357"},"vehicle_type_id":"4","last_reported":1778506541,"current_range_meters":9200,"station_id":"ce4bgl92rcd13ifvqbq0","pricing_plan_id":"cebpf4jnsgd1na2vs0mg"},{"bike_id":"65364571-5f11-4e03-8153-acf2d64cc36c","system_id":"levelo_inurba_marseille","lat":43.27831,"lon":5.39224,"is_reserved":false,"is_disabled":false,"rental_uris":{"android":"levelo://app?vid=65364571-5f11-4e03-8153-acf2d64cc36c","ios":"levelo://app?vid=65364571-5f11-4e03-8153-acf2d64cc36c"},"vehicle_type_id":"4","last_reported":1778506541,"current_range_meters":9200,"station_id":"ce4bhjp2rcd13ifvqga0","pricing_plan_id":"cebpf4jnsgd1na2vs0mg"},{"bike_id":"449a7ec8-3b8c-48af-8eeb-ef3e955542ee","system_id":"levelo_inurba_marseille","lat":43.29013,"lon":5.42888,"is_reserved":false,"is_disabled":false,"rental_uris":{"android":"levelo://app?vid=449a7ec8-3b8c-48af-8eeb-ef3e955542ee","ios":"levelo://app?vid=449a7ec8-3b8c-48af-8eeb-ef3e955542ee"},"vehicle_type_id":"4","last_reported":1778506541,"current_range_meters":9200,"station_id":"","pricing_plan_id":"cebpf4jnsgd1na2vs0mg"},{"bike_id":"3dfa7927-9a6c-4ea0-97ff-03c39d95f99c","system_id":"levelo_inurba_marseille","lat":43.29966,"lon":5.385,"is_reserved":false,"is_disabled":false,"rental_uris":{"android":"levelo://app?vid=3dfa7927-9a6c-4ea0-97ff-03c39d95f99c","ios":"levelo://app?vid=3dfa7927-9a6c-4ea0-97ff-03c39d95f99c"},"vehicle_type_id":"4","last_reported":1778506541,"current_range_meters":9600,"station_id":"ce4bgj92rcd13ifvqbd0","pricing_plan_id":"cebpf4jnsgd1na2vs0mg"},{"bike_id":"6404d429-d7aa-4fe1-9b5b-cee756c89926","system_id":"levelo_inurba_marseille","lat":43.2464,"lon":5.38186,"is_reserved":false,"is_disabled":false,"rental_uris":{"android":"levelo://app?vid=6404d429-d7aa-4fe1-9b5b-cee756c89926","ios":"levelo://app?vid=6404d429-d7aa-4fe1-9b5b-cee756c89926"},"vehicle_type_id":"4","last_reported":1778506541,"current_range_meters":9600,"station_id":"ce4bhih2rcd13ifvqfr0","pricing_plan_id":"cebpf4jnsgd1na2vs0mg"},{"bike_id":"3be85b86-a688-4a58-954d-034578c3e1ae","system_id":"levelo_inurba_marseille","lat":43.2988,"lon":5.38899,"is_reserved":false,"is_disabled":false,"rental_uris":{"android":"levelo://app?vid=3be85b86-a688-4a58-954d-034578c3e1ae","ios":"levelo://app?vid=3be85b86-a688-4a58-954d-034578c3e1ae"},"vehicle_type_id":"4","last_reported":1778506541,"current_range_meters":9600,"station_id":"ce4bh392rcd13ifvqdl0","pricing_plan_id":"cebpf4jnsgd1na2vs0mg"},{"bike_id":"73ecf7b6-9cb4-4130-8a88-d492bb1aec77","system_id":"levelo_inurba_marseille","lat":43.30139,"lon":5.37418,"is_reserved":false,"is_disabled":false,"rental_uris":{"android":"levelo://app?vid=73ecf7b6-9cb4-4130-8a88-d492bb1aec77","ios":"levelo://app?vid=73ecf7b6-9cb4-4130-8a88-d492bb1aec77"},"vehicle_type_id":"4","last_reported":1778506541,"current_range_meters":9600,"station_id":"ce4bgs92rcd13ifvqcc0","pricing_plan_id":"cebpf4jnsgd1na2vs0mg"},{"bike_id":"fa6ecc6e-df25-471a-9b43-79f31ccf0e9b","system_id":"levelo_inurba_marseille","lat":43.29055,"lon":5.37189,"is_reserved":false,"is_disabled":false,"rental_uris":{"android":"levelo://app?vid=fa6ecc6e-df25-471a-9b43-79f31ccf0e9b","ios":"levelo://app?vid=fa6ecc6e-df25-471a-9b43-79f31ccf0e9b"},"vehicle_type_id":"4","last_reported":1778506541,"current_range_meters":9600,"station_id":"ce4bh5p2rcd13ifvqe4g","pricing_plan_id":"cebpf4jnsgd1na2vs0mg"},{"bike_id":"00ab4ca1-2e53-4f34-aacb-a5bac9265e58","system_id":"levelo_inurba_marseille","lat":43.305441,"lon":5.365563,"is_reserved":false,"is_disabled":false,"rental_uris":{"android":"levelo://app?vid=00ab4ca1-2e53-4f34-aacb-a5bac9265e58","ios":"levelo://app?vid=00ab4ca1-2e53-4f34-aacb-a5bac9265e58"},"vehicle_type_id":"4","last_reported":1778506541,"current_range_meters":9600,"station_id":"ce4bgs12rcd13ifvqcag","pricing_plan_id":"cebpf4jnsgd1na2vs0mg"},{"bike_id":"f62eda22-27e3-4253-8b08-52502c685222","system_id":"levelo_inurba_marseille","lat":43.29745,"lon":5.37696,"is_reserved":false,"is_disabled":false,"rental_uris":{"android":"levelo://app?vid=f62eda22-27e3-4253-8b08-52502c685222","ios":"levelo://app?vid=f62eda22-27e3-4253-8b08-52502c685222"},"vehicle_type_id":"4","last_reported":1778506541,"current_range_meters":9600,"station_id":"ce4bgkh2rcd13ifvqbl0","pricing_plan_id":"cebpf4jnsgd1na2vs0mg"},{"bike_id":"6763b0b4-a7d8-410f-aaf8-3fadc4644b7c","system_id":"levelo_inurba_marseille","lat":43.29227,"lon":5.39907,"is_reserved":false,"is_disabled":false,"rental_uris":{"android":"levelo://app?vid=6763b0b4-a7d8-410f-aaf8-3fadc4644b7c","ios":"levelo://app?vid=6763b0b4-a7d8-410f-aaf8-3fadc4644b7c"},"vehicle_type_id":"4","last_reported":1778506541,"current_range_meters":9600,"station_id":"ce4bh312rcd13ifvqdk0","pricing_plan_id":"cebpf4jnsgd1na2vs0mg"},{"bike_id":"29bfbd1c-5438-4fe1-8f5e-21c75f0f87df","system_id":"levelo_inurba_marseille","lat":43.31165,"lon":5.36696,"is_reserved":false,"is_disabled":true,"rental_uris":{"android":"levelo://app?vid=29bfbd1c-5438-4fe1-8f5e-21c75f0f87df","ios":"levelo://app?vid=29bfbd1c-5438-4fe1-8f5e-21c75f0f87df"},"vehicle_type_id":"4","last_reported":1778506541,"current_range_meters":9600,"station_id":"ce4bgl92rcd13ifvqbq0","pricing_plan_id":"cebpf4jnsgd1na2vs0mg"},{"bike_id":"2abb2ff8-06d5-4e4a-ba40-c51367cc0f82","system_id":"levelo_inurba_marseille","lat":43.21177,"lon":5.35105,"is_reserved":false,"is_disabled":false,"rental_uris":{"android":"levelo://app?vid=2abb2ff8-06d5-4e4a-ba40-c51367cc0f82","ios":"levelo://app?vid=2abb2ff8-06d5-4e4a-ba40-c51367cc0f82"},"vehicle_type_id":"4","last_reported":1778506541,"current_range_meters":9600,"station_id":"st_cvj6sg6p6f1abm77japg","pricing_plan_id":"cebpf4jnsgd1na2vs0mg"},{"bike_id":"6e9d5796-aa95-4906-8baf-7bbaf4c9ce76","system_id":"levelo_inurba_marseille","lat":43.29788,"lon":5.3711,"is_reserved":false,"is_disabled":false,"rental_uris":{"android":"levelo://app?vid=6e9d5796-aa95-4906-8baf-7bbaf4c9ce76","ios":"levelo://app?vid=6e9d5796-aa95-4906-8baf-7bbaf4c9ce76"},"vehicle_type_id":"4","last_reported":1778506541,"current_range_meters":9600,"station_id":"ce4bgop2rcd13ifvqc1g","pricing_plan_id":"cebpf4jnsgd1na2vs0mg"},{"bike_id":"20e7f8cc-0303-4099-8fea-785071f0186f","system_id":"levelo_inurba_marseille","lat":43.28258,"lon":5.35069,"is_reserved":false,"is_disabled":false,"rental_uris":{"android":"levelo://app?vid=20e7f8cc-0303-4099-8fea-785071f0186f","ios":"levelo://app?vid=20e7f8cc-0303-4099-8fea-785071f0186f"},"vehicle_type_id":"4","last_reported":1778506541,"current_range_meters":9600,"station_id":"ce4bhbp2rcd13ifvqerg","pricing_plan_id":"cebpf4jnsgd1na2vs0mg"},{"bike_id":"8fcad46b-3b55-4180-af03-8c0101da7fda","system_id":"levelo_inurba_marseille","lat":43.2901,"lon":5.35642,"is_reserved":false,"is_disabled":false,"rental_uris":{"android":"levelo://app?vid=8fcad46b-3b55-4180-af03-8c0101da7fda","ios":"levelo://app?vid=8fcad46b-3b55-4180-af03-8c0101da7fda"},"vehicle_type_id":"4","last_reported":1778506541,"current_range_meters":10000,"station_id":"ce4bhb92rcd13ifvqen0","pricing_plan_id":"cebpf4jnsgd1na2vs0mg"},{"bike_id":"763d8259-c75a-422a-9489-e968b3e578bd","system_id":"levelo_inurba_marseille","lat":43.2315,"lon":5.43705,"is_reserved":false,"is_disabled":false,"rental_uris":{"android":"levelo://app?vid=763d8259-c75a-422a-9489-e968b3e578bd","ios":"levelo://app?vid=763d8259-c75a-422a-9489-e968b3e578bd"},"vehicle_type_id":"4","last_reported":1778506541,"current_range_meters":10000,"station_id":"ce4bhmp2rcd13ifvqgog","pricing_plan_id":"cebpf4jnsgd1na2vs0mg"},{"bike_id":"534f503c-5cba-4002-8f30-e40286b87ff9","system_id":"levelo_inurba_marseille","lat":43.21208,"lon":5.3507,"is_reserved":false,"is_disabled":false,"rental_uris":{"android":"levelo://app?vid=534f503c-5cba-4002-8f30-e40286b87ff9","ios":"levelo://app?vid=534f503c-5cba-4002-8f30-e40286b87ff9"},"vehicle_type_id":"4","last_reported":1778506541,"current_range_meters":10000,"station_id":"st_cvj6sg6p6f1abm77japg","pricing_plan_id":"cebpf4jnsgd1na2vs0mg"},{"bike_id":"3af05bb2-2bfb-41a0-839d-60cceeb971c7","system_id":"levelo_inurba_marseille","lat":43.29015,"lon":5.38128,"is_reserved":false,"is_disabled":false,"rental_uris":{"android":"levelo://app?vid=3af05bb2-2bfb-41a0-839d-60cceeb971c7","ios":"levelo://app?vid=3af05bb2-2bfb-41a0-839d-60cceeb971c7"},"vehicle_type_id":"4","last_reported":1778506541,"current_range_meters":10000,"station_id":"ce4bh4p2rcd13ifvqe1g","pricing_plan_id":"cebpf4jnsgd1na2vs0mg"},{"bike_id":"0964889c-0695-4946-abd6-dea2d0abdc47","system_id":"levelo_inurba_marseille","lat":43.28261,"lon":5.35064,"is_reserved":false,"is_disabled":false,"rental_uris":{"android":"levelo://app?vid=0964889c-0695-4946-abd6-dea2d0abdc47","ios":"levelo://app?vid=0964889c-0695-4946-abd6-dea2d0abdc47"},"vehicle_type_id":"4","last_reported":1778506541,"current_range_meters":10000,"station_id":"ce4bhbp2rcd13ifvqerg","pricing_plan_id":"cebpf4jnsgd1na2vs0mg"},{"bike_id":"e08f9c8c-621f-4992-a527-79abe14d5433","system_id":"levelo_inurba_marseille","lat":43.28373,"lon":5.38627,"is_reserved":false,"is_disabled":false,"rental_uris":{"android":"levelo://app?vid=e08f9c8c-621f-4992-a527-79abe14d5433","ios":"levelo://app?vid=e08f9c8c-621f-4992-a527-79abe14d5433"},"vehicle_type_id":"4","last_reported":1778506541,"current_range_meters":10000,"station_id":"ce4bh492rcd13ifvqdvg","pricing_plan_id":"cebpf4jnsgd1na2vs0mg"},{"bike_id":"5c9db42e-23ec-4934-97f2-f98ed3d293c4","system_id":"levelo_inurba_marseille","lat":43.25082,"lon":5.39514,"is_reserved":false,"is_disabled":false,"rental_uris":{"android":"levelo://app?vid=5c9db42e-23ec-4934-97f2-f98ed3d293c4","ios":"levelo://app?vid=5c9db42e-23ec-4934-97f2-f98ed3d293c4"},"vehicle_type_id":"4","last_reported":1778506541,"current_range_meters":10000,"station_id":"","pricing_plan_id":"cebpf4jnsgd1na2vs0mg"},{"bike_id":"2d1bddbc-70da-40ce-9067-982933e27fcf","system_id":"levelo_inurba_marseille","lat":43.28727,"lon":5.36058,"is_reserved":false,"is_disabled":false,"rental_uris":{"android":"levelo://app?vid=2d1bddbc-70da-40ce-9067-982933e27fcf","ios":"levelo://app?vid=2d1bddbc-70da-40ce-9067-982933e27fcf"},