{"last_updated":1746498401,"ttl":60,"version":"2.2","data":{"bikes":[{"bike_id":"1e3195f6-106c-4dd3-8852-0494cfce0d2f","system_id":"levelo_inurba_marseille","lat":43.28602,"lon":5.37066,"is_reserved":false,"is_disabled":false,"rental_uris":{"android":"levelo://app?vid=1e3195f6-106c-4dd3-8852-0494cfce0d2f","ios":"levelo://app?vid=1e3195f6-106c-4dd3-8852-0494cfce0d2f"},"vehicle_type_id":"4","last_reported":1746498401,"current_range_meters":2800,"station_id":"ce4bht12rcd13ifvqi60","pricing_plan_id":"cebpf4jnsgd1na2vs0mg"},{"bike_id":"72e74cfa-bbc6-46d3-ac70-1aa6083acaeb","system_id":"levelo_inurba_marseille","lat":43.29406,"lon":5.38628,"is_reserved":false,"is_disabled":false,"rental_uris":{"android":"levelo://app?vid=72e74cfa-bbc6-46d3-ac70-1aa6083acaeb","ios":"levelo://app?vid=72e74cfa-bbc6-46d3-ac70-1aa6083acaeb"},"vehicle_type_id":"4","last_reported":1746498401,"current_range_meters":3200,"station_id":"ce4bh2h2rcd13ifvqdh0","pricing_plan_id":"cebpf4jnsgd1na2vs0mg"},{"bike_id":"d21a1bf2-ff47-419b-9fda-93647c68b552","system_id":"levelo_inurba_marseille","lat":43.28099,"lon":5.37838,"is_reserved":false,"is_disabled":false,"rental_uris":{"android":"levelo://app?vid=d21a1bf2-ff47-419b-9fda-93647c68b552","ios":"levelo://app?vid=d21a1bf2-ff47-419b-9fda-93647c68b552"},"vehicle_type_id":"4","last_reported":1746498401,"current_range_meters":3600,"station_id":"ce4bha12rcd13ifvqee0","pricing_plan_id":"cebpf4jnsgd1na2vs0mg"},{"bike_id":"19cc5d4a-3669-481b-add7-2079b93dcf06","system_id":"levelo_inurba_marseille","lat":43.27942,"lon":5.41047,"is_reserved":false,"is_disabled":false,"rental_uris":{"android":"levelo://app?vid=19cc5d4a-3669-481b-add7-2079b93dcf06","ios":"levelo://app?vid=19cc5d4a-3669-481b-add7-2079b93dcf06"},"vehicle_type_id":"4","last_reported":1746498401,"current_range_meters":4000,"station_id":"ce4bhnp2rcd13ifvqh0g","pricing_plan_id":"cebpf4jnsgd1na2vs0mg"},{"bike_id":"2f51ff5b-9e12-4b6c-9106-9df85a9d5650","system_id":"levelo_inurba_marseille","lat":43.30149,"lon":5.37403,"is_reserved":false,"is_disabled":true,"rental_uris":{"android":"levelo://app?vid=2f51ff5b-9e12-4b6c-9106-9df85a9d5650","ios":"levelo://app?vid=2f51ff5b-9e12-4b6c-9106-9df85a9d5650"},"vehicle_type_id":"4","last_reported":1746498401,"current_range_meters":4000,"station_id":"ce4bgs92rcd13ifvqcc0","pricing_plan_id":"cebpf4jnsgd1na2vs0mg"},{"bike_id":"0c6712bb-c246-4d03-b305-0f5d0e9a0657","system_id":"levelo_inurba_marseille","lat":43.24632,"lon":5.38179,"is_reserved":false,"is_disabled":false,"rental_uris":{"android":"levelo://app?vid=0c6712bb-c246-4d03-b305-0f5d0e9a0657","ios":"levelo://app?vid=0c6712bb-c246-4d03-b305-0f5d0e9a0657"},"vehicle_type_id":"4","last_reported":1746498401,"current_range_meters":4000,"station_id":"ce4bhih2rcd13ifvqfr0","pricing_plan_id":"cebpf4jnsgd1na2vs0mg"},{"bike_id":"640e33c0-8be5-4bb3-b3cb-ef05d0e18d40","system_id":"levelo_inurba_marseille","lat":43.29267,"lon":5.37621,"is_reserved":false,"is_disabled":true,"rental_uris":{"android":"levelo://app?vid=640e33c0-8be5-4bb3-b3cb-ef05d0e18d40","ios":"levelo://app?vid=640e33c0-8be5-4bb3-b3cb-ef05d0e18d40"},"vehicle_type_id":"4","last_reported":1746498401,"current_range_meters":4400,"station_id":"ce4bgi12rcd13ifvqb80","pricing_plan_id":"cebpf4jnsgd1na2vs0mg"},{"bike_id":"f17ceb46-7339-44ff-b2fe-42d604ad05a3","system_id":"levelo_inurba_marseille","lat":43.229362,"lon":5.353764,"is_reserved":false,"is_disabled":false,"rental_uris":{"android":"levelo://app?vid=f17ceb46-7339-44ff-b2fe-42d604ad05a3","ios":"levelo://app?vid=f17ceb46-7339-44ff-b2fe-42d604ad05a3"},"vehicle_type_id":"4","last_reported":1746498401,"current_range_meters":4800,"station_id":"cpo3532slgdg3j2ikp40","pricing_plan_id":"cebpf4jnsgd1na2vs0mg"},{"bike_id":"b315a341-1b0c-4a43-901f-7ff8a489a0b3","system_id":"levelo_inurba_marseille","lat":43.276694,"lon":5.38924,"is_reserved":false,"is_disabled":false,"rental_uris":{"android":"levelo://app?vid=b315a341-1b0c-4a43-901f-7ff8a489a0b3","ios":"levelo://app?vid=b315a341-1b0c-4a43-901f-7ff8a489a0b3"},"vehicle_type_id":"4","last_reported":1746498401,"current_range_meters":4800,"station_id":"ce4bhi12rcd13ifvqfo0","pricing_plan_id":"cebpf4jnsgd1na2vs0mg"},{"bike_id":"66b646b3-6352-44bb-9bfb-21570512e3e5","system_id":"levelo_inurba_marseille","lat":43.281,"lon":5.40396,"is_reserved":false,"is_disabled":false,"rental_uris":{"android":"levelo://app?vid=66b646b3-6352-44bb-9bfb-21570512e3e5","ios":"levelo://app?vid=66b646b3-6352-44bb-9bfb-21570512e3e5"},"vehicle_type_id":"4","last_reported":1746498401,"current_range_meters":5600,"station_id":"","pricing_plan_id":"cebpf4jnsgd1na2vs0mg"},{"bike_id":"9064d971-3a4c-4284-ab13-670f9e6ead80","system_id":"levelo_inurba_marseille","lat":43.239625,"lon":5.366395,"is_reserved":false,"is_disabled":false,"rental_uris":{"android":"levelo://app?vid=9064d971-3a4c-4284-ab13-670f9e6ead80","ios":"levelo://app?vid=9064d971-3a4c-4284-ab13-670f9e6ead80"},"vehicle_type_id":"4","last_reported":1746498401,"current_range_meters":6000,"station_id":"ce4bhi12rcd13ifvqfp0","pricing_plan_id":"cebpf4jnsgd1na2vs0mg"},{"bike_id":"e8d3c57f-002a-4ddc-8c08-58b239aae800","system_id":"levelo_inurba_marseille","lat":43.26232,"lon":5.40462,"is_reserved":false,"is_disabled":false,"rental_uris":{"android":"levelo://app?vid=e8d3c57f-002a-4ddc-8c08-58b239aae800","ios":"levelo://app?vid=e8d3c57f-002a-4ddc-8c08-58b239aae800"},"vehicle_type_id":"4","last_reported":1746498401,"current_range_meters":6000,"station_id":"ce4bhmh2rcd13ifvqgmg","pricing_plan_id":"cebpf4jnsgd1na2vs0mg"},{"bike_id":"c7569f25-9bc2-4a7b-94d5-25bad92fcfaa","system_id":"levelo_inurba_marseille","lat":43.2793,"lon":5.38265,"is_reserved":false,"is_disabled":false,"rental_uris":{"android":"levelo://app?vid=c7569f25-9bc2-4a7b-94d5-25bad92fcfaa","ios":"levelo://app?vid=c7569f25-9bc2-4a7b-94d5-25bad92fcfaa"},"vehicle_type_id":"4","last_reported":1746498401,"current_range_meters":6000,"station_id":"","pricing_plan_id":"cebpf4jnsgd1na2vs0mg"},{"bike_id":"2c488c66-db1f-4eb1-b8a8-65da619378ac","system_id":"levelo_inurba_marseille","lat":43.29896,"lon":5.38129,"is_reserved":false,"is_disabled":true,"rental_uris":{"android":"levelo://app?vid=2c488c66-db1f-4eb1-b8a8-65da619378ac","ios":"levelo://app?vid=2c488c66-db1f-4eb1-b8a8-65da619378ac"},"vehicle_type_id":"4","last_reported":1746498401,"current_range_meters":6000,"station_id":"ce4bgj12rcd13ifvqbc0","pricing_plan_id":"cebpf4jnsgd1na2vs0mg"},{"bike_id":"5ed25235-2c54-4555-9b77-e5696daaf187","system_id":"levelo_inurba_marseille","lat":43.28418,"lon":5.37531,"is_reserved":false,"is_disabled":false,"rental_uris":{"android":"levelo://app?vid=5ed25235-2c54-4555-9b77-e5696daaf187","ios":"levelo://app?vid=5ed25235-2c54-4555-9b77-e5696daaf187"},"vehicle_type_id":"4","last_reported":1746498401,"current_range_meters":6000,"station_id":"ce4bh412rcd13ifvqds0","pricing_plan_id":"cebpf4jnsgd1na2vs0mg"},{"bike_id":"f4058794-639c-4973-ab5d-8009a25ee731","system_id":"levelo_inurba_marseille","lat":43.23956,"lon":5.36633,"is_reserved":false,"is_disabled":false,"rental_uris":{"android":"levelo://app?vid=f4058794-639c-4973-ab5d-8009a25ee731","ios":"levelo://app?vid=f4058794-639c-4973-ab5d-8009a25ee731"},"vehicle_type_id":"4","last_reported":1746498401,"current_range_meters":6400,"station_id":"ce4bhi12rcd13ifvqfp0","pricing_plan_id":"cebpf4jnsgd1na2vs0mg"},{"bike_id":"9560e695-2cb4-4bfb-b95c-1c8364f718f8","system_id":"levelo_inurba_marseille","lat":43.258208,"lon":5.394275,"is_reserved":false,"is_disabled":false,"rental_uris":{"android":"levelo://app?vid=9560e695-2cb4-4bfb-b95c-1c8364f718f8","ios":"levelo://app?vid=9560e695-2cb4-4bfb-b95c-1c8364f718f8"},"vehicle_type_id":"4","last_reported":1746498401,"current_range_meters":6400,"station_id":"ce4bhip2rcd13ifvqft0","pricing_plan_id":"cebpf4jnsgd1na2vs0mg"},{"bike_id":"356abf12-57d2-4a47-ac3e-d8689708fbf2","system_id":"levelo_inurba_marseille","lat":43.32333,"lon":5.4062,"is_reserved":false,"is_disabled":false,"rental_uris":{"android":"levelo://app?vid=356abf12-57d2-4a47-ac3e-d8689708fbf2","ios":"levelo://app?vid=356abf12-57d2-4a47-ac3e-d8689708fbf2"},"vehicle_type_id":"4","last_reported":1746498401,"current_range_meters":6800,"station_id":"ce4bhq92rcd13ifvqhjg","pricing_plan_id":"cebpf4jnsgd1na2vs0mg"},{"bike_id":"4a1ddc00-ef3f-44e5-8a81-a42cab71cc7d","system_id":"levelo_inurba_marseille","lat":43.3025,"lon":5.40062,"is_reserved":false,"is_disabled":false,"rental_uris":{"android":"levelo://app?vid=4a1ddc00-ef3f-44e5-8a81-a42cab71cc7d","ios":"levelo://app?vid=4a1ddc00-ef3f-44e5-8a81-a42cab71cc7d"},"vehicle_type_id":"4","last_reported":1746498401,"current_range_meters":6800,"station_id":"ce4bgvh2rcd13ifvqcs0","pricing_plan_id":"cebpf4jnsgd1na2vs0mg"},{"bike_id":"10d563a4-424a-4a44-88bc-065a04b5247a","system_id":"levelo_inurba_marseille","lat":43.21741,"lon":5.34611,"is_reserved":false,"is_disabled":true,"rental_uris":{"android":"levelo://app?vid=10d563a4-424a-4a44-88bc-065a04b5247a","ios":"levelo://app?vid=10d563a4-424a-4a44-88bc-065a04b5247a"},"vehicle_type_id":"4","last_reported":1746498401,"current_range_meters":6800,"station_id":"","pricing_plan_id":"cebpf4jnsgd1na2vs0mg"},{"bike_id":"5c7249a3-596f-4101-8dbd-1087a1f3b438","system_id":"levelo_inurba_marseille","lat":43.2321,"lon":5.3557,"is_reserved":false,"is_disabled":false,"rental_uris":{"android":"levelo://app?vid=5c7249a3-596f-4101-8dbd-1087a1f3b438","ios":"levelo://app?vid=5c7249a3-596f-4101-8dbd-1087a1f3b438"},"vehicle_type_id":"4","last_reported":1746498401,"current_range_meters":7200,"station_id":"ce4bhu92rcd13ifvqi70","pricing_plan_id":"cebpf4jnsgd1na2vs0mg"},{"bike_id":"d08e881c-4ac2-413a-af9c-5ff0285ab7f6","system_id":"levelo_inurba_marseille","lat":43.27944,"lon":5.410326,"is_reserved":false,"is_disabled":false,"rental_uris":{"android":"levelo://app?vid=d08e881c-4ac2-413a-af9c-5ff0285ab7f6","ios":"levelo://app?vid=d08e881c-4ac2-413a-af9c-5ff0285ab7f6"},"vehicle_type_id":"4","last_reported":1746498401,"current_range_meters":7200,"station_id":"ce4bhnp2rcd13ifvqh0g","pricing_plan_id":"cebpf4jnsgd1na2vs0mg"},{"bike_id":"75e8ec7b-b97d-4041-ba4c-e6403b45949f","system_id":"levelo_inurba_marseille","lat":43.23962,"lon":5.36633,"is_reserved":false,"is_disabled":false,"rental_uris":{"android":"levelo://app?vid=75e8ec7b-b97d-4041-ba4c-e6403b45949f","ios":"levelo://app?vid=75e8ec7b-b97d-4041-ba4c-e6403b45949f"},"vehicle_type_id":"4","last_reported":1746498401,"current_range_meters":7200,"station_id":"ce4bhi12rcd13ifvqfp0","pricing_plan_id":"cebpf4jnsgd1na2vs0mg"},{"bike_id":"1d2a1f80-05b8-4c24-b414-f056b8eb3c7d","system_id":"levelo_inurba_marseille","lat":43.28926,"lon":5.36409,"is_reserved":false,"is_disabled":false,"rental_uris":{"android":"levelo://app?vid=1d2a1f80-05b8-4c24-b414-f056b8eb3c7d","ios":"levelo://app?vid=1d2a1f80-05b8-4c24-b414-f056b8eb3c7d"},"vehicle_type_id":"4","last_reported":1746498401,"current_range_meters":8000,"station_id":"ce4bhc92rcd13ifvqetg","pricing_plan_id":"cebpf4jnsgd1na2vs0mg"},{"bike_id":"482344f1-460c-48ea-83dd-01b9a385e5cf","system_id":"levelo_inurba_marseille","lat":43.306679,"lon":5.368518,"is_reserved":false,"is_disabled":false,"rental_uris":{"android":"levelo://app?vid=482344f1-460c-48ea-83dd-01b9a385e5cf","ios":"levelo://app?vid=482344f1-460c-48ea-83dd-01b9a385e5cf"},"vehicle_type_id":"4","last_reported":1746498401,"current_range_meters":8000,"station_id":"","pricing_plan_id":"cebpf4jnsgd1na2vs0mg"},{"bike_id":"3fe14760-50d4-43a8-b058-218490851f16","system_id":"levelo_inurba_marseille","lat":43.28853,"lon":5.35853,"is_reserved":false,"is_disabled":false,"rental_uris":{"android":"levelo://app?vid=3fe14760-50d4-43a8-b058-218490851f16","ios":"levelo://app?vid=3fe14760-50d4-43a8-b058-218490851f16"},"vehicle_type_id":"4","last_reported":1746498401,"current_range_meters":8000,"station_id":"ce4bhb12rcd13ifvqem0","pricing_plan_id":"cebpf4jnsgd1na2vs0mg"},{"bike_id":"0df6ff4a-d789-4276-8939-264863baa64d","system_id":"levelo_inurba_marseille","lat":43.3176,"lon":5.3902,"is_reserved":false,"is_disabled":false,"rental_uris":{"android":"levelo://app?vid=0df6ff4a-d789-4276-8939-264863baa64d","ios":"levelo://app?vid=0df6ff4a-d789-4276-8939-264863baa64d"},"vehicle_type_id":"4","last_reported":1746498401,"current_range_meters":8400,"station_id":"ce4bhqp2rcd13ifvqhng","pricing_plan_id":"cebpf4jnsgd1na2vs0mg"},{"bike_id":"dccab0c5-be19-4968-9ea0-b5a301b5020b","system_id":"levelo_inurba_marseille","lat":43.26805,"lon":5.40262,"is_reserved":false,"is_disabled":false,"rental_uris":{"android":"levelo://app?vid=dccab0c5-be19-4968-9ea0-b5a301b5020b","ios":"levelo://app?vid=dccab0c5-be19-4968-9ea0-b5a301b5020b"},"vehicle_type_id":"4","last_reported":1746498401,"current_range_meters":8400,"station_id":"ce501612rcd8frsf0b60","pricing_plan_id":"cebpf4jnsgd1na2vs0mg"},{"bike_id":"08d06c84-d9e9-43f6-aa7a-603249ac6ecd","system_id":"levelo_inurba_marseille","lat":43.27999,"lon":5.40012,"is_reserved":false,"is_disabled":false,"rental_uris":{"android":"levelo://app?vid=08d06c84-d9e9-43f6-aa7a-603249ac6ecd","ios":"levelo://app?vid=08d06c84-d9e9-43f6-aa7a-603249ac6ecd"},"vehicle_type_id":"4","last_reported":1746498401,"current_range_meters":8400,"station_id":"ce4bho92rcd13ifvqh4g","pricing_plan_id":"cebpf4jnsgd1na2vs0mg"},{"bike_id":"b73c5f22-57c3-42fb-a428-749049909d64","system_id":"levelo_inurba_marseille","lat":43.2794,"lon":5.41052,"is_reserved":false,"is_disabled":false,"rental_uris":{"android":"levelo://app?vid=b73c5f22-57c3-42fb-a428-749049909d64","ios":"levelo://app?vid=b73c5f22-57c3-42fb-a428-749049909d64"},"vehicle_type_id":"4","last_reported":1746498401,"current_range_meters":8400,"station_id":"ce4bhnp2rcd13ifvqh0g","pricing_plan_id":"cebpf4jnsgd1na2vs0mg"},{"bike_id":"1e84e465-2e14-47ac-91f0-53a839d6422a","system_id":"levelo_inurba_marseille","lat":43.31361,"lon":5.38503,"is_reserved":false,"is_disabled":false,"rental_uris":{"android":"levelo://app?vid=1e84e465-2e14-47ac-91f0-53a839d6422a","ios":"levelo://app?vid=1e84e465-2e14-47ac-91f0-53a839d6422a"},"vehicle_type_id":"4","last_reported":1746498401,"current_range_meters":8400,"station_id":"ce4bgt92rcd13ifvqcf0","pricing_plan_id":"cebpf4jnsgd1na2vs0mg"},{"bike_id":"04b4674b-4434-40e5-9e75-4a7229750edd","system_id":"levelo_inurba_marseille","lat":43.27946,"lon":5.41054,"is_reserved":false,"is_disabled":false,"rental_uris":{"android":"levelo://app?vid=04b4674b-4434-40e5-9e75-4a7229750edd","ios":"levelo://app?vid=04b4674b-4434-40e5-9e75-4a7229750edd"},"vehicle_type_id":"4","last_reported":1746498401,"current_range_meters":8800,"station_id":"ce4bhnp2rcd13ifvqh0g","pricing_plan_id":"cebpf4jnsgd1na2vs0mg"},{"bike_id":"90728acd-507e-4586-8514-7150be18c1a3","system_id":"levelo_inurba_marseille","lat":43.31999,"lon":5.381559,"is_reserved":false,"is_disabled":true,"rental_uris":{"android":"levelo://app?vid=90728acd-507e-4586-8514-7150be18c1a3","ios":"levelo://app?vid=90728acd-507e-4586-8514-7150be18c1a3"},"vehicle_type_id":"4","last_reported":1746498401,"current_range_meters":8800,"station_id":"ce4bhr12rcd13ifvqhpg","pricing_plan_id":"cebpf4jnsgd1na2vs0mg"},{"bike_id":"a105130d-2c0b-47d7-ad9e-26b35e0360b8","system_id":"levelo_inurba_marseille","lat":43.23951,"lon":5.36633,"is_reserved":false,"is_disabled":false,"rental_uris":{"android":"levelo://app?vid=a105130d-2c0b-47d7-ad9e-26b35e0360b8","ios":"levelo://app?vid=a105130d-2c0b-47d7-ad9e-26b35e0360b8"},"vehicle_type_id":"4","last_reported":1746498401,"current_range_meters":8800,"station_id":"ce4bhi12rcd13ifvqfp0","pricing_plan_id":"cebpf4jnsgd1na2vs0mg"},{"bike_id":"bda5329c-0ca8-4429-8276-953c6ccd9961","system_id":"levelo_inurba_marseille","lat":43.27979,"lon":5.416635,"is_reserved":false,"is_disabled":false,"rental_uris":{"android":"levelo://app?vid=bda5329c-0ca8-4429-8276-953c6ccd9961","ios":"levelo://app?vid=bda5329c-0ca8-4429-8276-953c6ccd9961"},"vehicle_type_id":"4","last_reported":1746498401,"current_range_meters":8800,"station_id":"ce4bho12rcd13ifvqh1g","pricing_plan_id":"cebpf4jnsgd1na2vs0mg"},{"bike_id":"33e48a61-b681-49b6-9f4c-c501fbecaaba","system_id":"levelo_inurba_marseille","lat":43.31713,"lon":5.43722,"is_reserved":false,"is_disabled":false,"rental_uris":{"android":"levelo://app?vid=33e48a61-b681-49b6-9f4c-c501fbecaaba","ios":"levelo://app?vid=33e48a61-b681-49b6-9f4c-c501fbecaaba"},"vehicle_type_id":"4","last_reported":1746498401,"current_range_meters":8800,"station_id":"ce4bhp92rcd13ifvqhcg","pricing_plan_id":"cebpf4jnsgd1na2vs0mg"},{"bike_id":"7a2589c6-a8c1-46f5-a962-7daecd246db4","system_id":"levelo_inurba_marseille","lat":43.315375,"lon":5.380299,"is_reserved":false,"is_disabled":false,"rental_uris":{"android":"levelo://app?vid=7a2589c6-a8c1-46f5-a962-7daecd246db4","ios":"levelo://app?vid=7a2589c6-a8c1-46f5-a962-7daecd246db4"},"vehicle_type_id":"4","last_reported":1746498401,"current_range_meters":8800,"station_id":"ce4bhsp2rcd13ifvqi50","pricing_plan_id":"cebpf4jnsgd1na2vs0mg"},{"bike_id":"2306010e-85bf-4d9b-a6bc-107f35580834","system_id":"levelo_inurba_marseille","lat":43.25822,"lon":5.39432,"is_reserved":false,"is_disabled":false,"rental_uris":{"android":"levelo://app?vid=2306010e-85bf-4d9b-a6bc-107f35580834","ios":"levelo://app?vid=2306010e-85bf-4d9b-a6bc-107f35580834"},"vehicle_type_id":"4","last_reported":1746498401,"current_range_meters":8800,"station_id":"ce4bhip2rcd13ifvqft0","pricing_plan_id":"cebpf4jnsgd1na2vs0mg"},{"bike_id":"18fac1a9-fda6-48d8-9aa6-1f61711dea16","system_id":"levelo_inurba_marseille","lat":43.313576,"lon":5.384868,"is_reserved":false,"is_disabled":false,"rental_uris":{"android":"levelo://app?vid=18fac1a9-fda6-48d8-9aa6-1f61711dea16","ios":"levelo://app?vid=18fac1a9-fda6-48d8-9aa6-1f61711dea16"},"vehicle_type_id":"4","last_reported":1746498401,"current_range_meters":9200,"station_id":"ce4bgt92rcd13ifvqcf0","pricing_plan_id":"cebpf4jnsgd1na2vs0mg"},{"bike_id":"7bac376f-17c2-4484-a95b-9218bce59ef6","system_id":"levelo_inurba_marseille","lat":43.2467,"lon":5.38195,"is_reserved":false,"is_disabled":false,"rental_uris":{"android":"levelo://app?vid=7bac376f-17c2-4484-a95b-9218bce59ef6","ios":"levelo://app?vid=7bac376f-17c2-4484-a95b-9218bce59ef6"},"vehicle_type_id":"4","last_reported":1746498401,"current_range_meters":9200,"station_id":"ce4bhih2rcd13ifvqfr0","pricing_plan_id":"cebpf4jnsgd1na2vs0mg"},{"bike_id":"0516f56f-d6da-4619-b60f-e7bb507cb1e3","system_id":"levelo_inurba_marseille","lat":43.32355,"lon":5.38903,"is_reserved":false,"is_disabled":false,"rental_uris":{"android":"levelo://app?vid=0516f56f-d6da-4619-b60f-e7bb507cb1e3","ios":"levelo://app?vid=0516f56f-d6da-4619-b60f-e7bb507cb1e3"},"vehicle_type_id":"4","last_reported":1746498401,"current_range_meters":9200,"station_id":"ce4bhqp2rcd13ifvqhog","pricing_plan_id":"cebpf4jnsgd1na2vs0mg"},{"bike_id":"d9ebccfe-dd7b-4132-a6f6-002262765ed4","system_id":"levelo_inurba_marseille","lat":43.27997,"lon":5.40013,"is_reserved":false,"is_disabled":false,"rental_uris":{"android":"levelo://app?vid=d9ebccfe-dd7b-4132-a6f6-002262765ed4","ios":"levelo://app?vid=d9ebccfe-dd7b-4132-a6f6-002262765ed4"},"vehicle_type_id":"4","last_reported":1746498401,"current_range_meters":9200,"station_id":"ce4bho92rcd13ifvqh4g","pricing_plan_id":"cebpf4jnsgd1na2vs0mg"},{"bike_id":"9fc13afb-e947-475e-b143-9f3ee51b87b5","system_id":"levelo_inurba_marseille","lat":43.303,"lon":5.39211,"is_reserved":false,"is_disabled":true,"rental_uris":{"android":"levelo://app?vid=9fc13afb-e947-475e-b143-9f3ee51b87b5","ios":"levelo://app?vid=9fc13afb-e947-475e-b143-9f3ee51b87b5"},"vehicle_type_id":"4","last_reported":1746498401,"current_range_meters":9600,"station_id":"ce4bgkh2rcd13ifvqbk0","pricing_plan_id":"cebpf4jnsgd1na2vs0mg"},{"bike_id":"f26290d6-f201-4d9e-83cc-5ce13015ceeb","system_id":"levelo_inurba_marseille","lat":43.30593,"lon":5.37243,"is_reserved":false,"is_disabled":false,"rental_uris":{"android":"levelo://app?vid=f26290d6-f201-4d9e-83cc-5ce13015ceeb","ios":"levelo://app?vid=f26290d6-f201-4d9e-83cc-5ce13015ceeb"},"vehicle_type_id":"4","last_reported":1746498401,"current_range_meters":9600,"station_id":"ce4bgqh2rcd13ifvqc4g","pricing_plan_id":"cebpf4jnsgd1na2vs0mg"},{"bike_id":"1858d475-64c1-4a30-a90d-6e80fdac193d","system_id":"levelo_inurba_marseille","lat":43.27956,"lon":5.41077,"is_reserved":false,"is_disabled":false,"rental_uris":{"android":"levelo://app?vid=1858d475-64c1-4a30-a90d-6e80fdac193d","ios":"levelo://app?vid=1858d475-64c1-4a30-a90d-6e80fdac193d"},"vehicle_type_id":"4","last_reported":1746498401,"current_range_meters":9600,"station_id":"ce4bhnp2rcd13ifvqh0g","pricing_plan_id":"cebpf4jnsgd1na2vs0mg"},{"bike_id":"45c16268-dcf5-4e4a-b4f6-0b7cb10c71b1","system_id":"levelo_inurba_marseille","lat":43.30595,"lon":5.393552,"is_reserved":false,"is_disabled":false,"rental_uris":{"android":"levelo://app?vid=45c16268-dcf5-4e4a-b4f6-0b7cb10c71b1","ios":"levelo://app?vid=45c16268-dcf5-4e4a-b4f6-0b7cb10c71b1"},"vehicle_type_id":"4","last_reported":1746498401,"current_range_meters":9600,"station_id":"ce4bh0p2rcd13ifvqd80","pricing_plan_id":"cebpf4jnsgd1na2vs0mg"},{"bike_id":"e2f490ed-ecfa-4469-9d51-1b9b6532ce21","system_id":"levelo_inurba_marseille","lat":43.29199,"lon":5.35813,"is_reserved":false,"is_disabled":false,"rental_uris":{"android":"levelo://app?vid=e2f490ed-ecfa-4469-9d51-1b9b6532ce21","ios":"levelo://app?vid=e2f490ed-ecfa-4469-9d51-1b9b6532ce21"},"vehicle_type_id":"4","last_reported":1746498401,"current_range_meters":10000,"station_id":"ce4bhb12rcd13ifvqel0","pricing_plan_id":"cebpf4jnsgd1na2vs0mg"},{"bike_id":"1a56d2e1-6609-455c-8523-959d44394069","system_id":"levelo_inurba_marseille","lat":43.303076,"lon":5.391984,"is_reserved":false,"is_disabled":true,"rental_uris":{"android":"levelo://app?vid=1a56d2e1-6609-455c-8523-959d44394069","ios":"levelo://app?vid=1a56d2e1-6609-455c-8523-959d44394069"},"vehicle_type_id":"4","last_reported":1746498401,"current_range_meters":10000,"station_id":"ce4bgkh2rcd13ifvqbk0","pricing_plan_id":"cebpf4jnsgd1na2vs0mg"},{"bike_id":"f9cec597-af13-4a8a-be1d-b7cf54819d4d","system_id":"levelo_inurba_marseille","lat":43.28956,"lon":5.40741,"is_reserved":false,"is_disabled":false,"rental_uris":{"android":"levelo://app?vid=f9cec597-af13-4a8a-be1d-b7cf54819d4d","ios":"levelo://app?vid=f9cec597-af13-4a8a-be1d-b7cf54819d4d"},"vehicle_type_id":"4","last_reported":1746498401,"current_range_meters":10000,"station_id":"","pricing_plan_id":"cebpf4jnsgd1na2vs0mg"},{"bike_id":"a340f385-a1e7-485c-aa95-241503da679d","system_id":"levelo_inurba_marseille","lat":43.31344,"lon":5.38509,"is_reserved":false,"is_disabled":false,"rental_uris":{"android":"levelo://app?vid=a340f385-a1e7-485c-aa95-241503da679d","ios":"levelo://app?vid=a340f385-a1e7-485c-aa95-241503da679d"},"vehicle_type_id":"4","last_reported":1746498401,"current_range_meters":10000,"station_id":"ce4bgt92rcd13ifvqcf0","pricing_plan_id":"cebpf4jnsgd1na2vs0mg"},{"bike_id":"9d4cc952-e455-4fba-8b3f-d5cacd90c8d5","system_id":"levelo_inurba_marseille","lat":43.2508,"lon":5.3952,"is_reserved":false,"is_disabled":false,"rental_uris":{"android":"levelo://app?vid=9d4cc952-e455-4fba-8b3f-d5cacd90c8d5","ios":"levelo://app?vid=9d4cc952-e455-4fba-8b3f-d5cacd90c8d5"},"vehicle_type_id":"4","last_reported":1746498401,"current_range_meters":10000,"station_id":"ce4bhm12rcd13ifvqgkg","pricing_plan_id":"cebpf4jnsgd1na2vs0mg"},{"bike_id":"4567db42-a456-48b6-bc7d-8dd13247fcc0","system_id":"levelo_inurba_marseille","lat":43.27945,"lon":5.41072,"is_reserved":false,"is_disabled":false,"rental_uris":{"android":"levelo://app?vid=4567db42-a456-48b6-bc7d-8dd13247fcc0","ios":"levelo://app?vid=4567db42-a456-48b6-bc7d-8dd13247fcc0"},"vehicle_type_id":"4","last_reported":1746498401,"current_range_meters":10000,"station_id":"ce4bhnp2rcd13ifvqh0g","pricing_plan_id":"cebpf4jnsgd1na2vs0mg"},{"bike_id":"f6aaa213-9bb7-4b13-824c-e6011a655632","system_id":"levelo_inurba_marseille","lat":43.29211,"lon":5.44168,"is_reserved":false,"is_disabled":false,"rental_uris":{"android":"levelo://app?vid=f6aaa213-9bb7-4b13-824c-e6011a655632","ios":"levelo://app?vid=f6aaa213-9bb7-4b13-824c-e6011a655632"},"vehicle_type_id":"4","last_reported":1746498401,"current_range_meters":10000,"station_id":"","pricing_plan_id":"cebpf4jnsgd1na2vs0mg"},{"bike_id":"41aaa1ed-a708-4a9a-b5aa-450e891d24b0","system_id":"levelo_inurba_marseille","lat":43.26563,"lon":5.3904,"is_reserved":false,"is_disabled":true,"rental_uris":{"android":"levelo://app?vid=41aaa1ed-a708-4a9a-b5aa-450e891d24b0","ios":"levelo://app?vid=41aaa1ed-a708-4a9a-b5aa-450e891d24b0"},"vehicle_type_id":"4","last_reported":1746498401,"current_range_meters":10000,"station_id":"ce4bhe12rcd13ifvqf30","pricing_plan_id":"cebpf4jnsgd1na2vs0mg"},{"bike_id":"7430b6cc-b229-4c9f-aeae-8e2c8fcf43c9","system_id":"levelo_inurba_marseille","lat":43.24118,"lon":5.39764,"is_reserved":false,"is_disabled":false,"rental_uris":{"android":"levelo://app?vid=7430b6cc-b229-4c9f-aeae-8e2c8fcf43c9","ios":"levelo://app?vid=7430b6cc-b229-4c9f-aeae-8e2c8fcf43c9"},"vehicle_type_id":"4","last_reported":1746498401,"current_range_meters":10000,"station_id":"ce4bhn12rcd13ifvqgpg","pricing_plan_id":"cebpf4jnsgd1na2vs0mg"},{"bike_id":"5b8d1337-a035-4531-8ae9-843647d6f95e","system_id":"levelo_inurba_marseille","lat":43.23177,"lon":5.39988,"is_reserved":false,"is_disabled":false,"rental_uris":{"android":"levelo://app?vid=5b8d1337-a035-4531-8ae9-843647d6f95e","ios":"levelo://app?vid=5b8d1337-a035-4531-8ae9-843647d6f95e"},"vehicle_type_id":"4","last_reported":1746498401,"current_range_meters":10800,"station_id":"ce4bhn12rcd13ifvqgqg","pricing_plan_id":"cebpf4jnsgd1na2vs0mg"},{"bike_id":"8de468c6-9e73-4fff-9ec1-822aa1e3ad27","system_id":"levelo_inurba_marseille","lat":43.28919,"lon":5.36644,"is_reserved":false,"is_disabled":false,"rental_uris":{"android":"levelo://app?vid=8de468c6-9e73-4fff-9ec1-822aa1e3ad27","ios":"levelo://app?vid=8de468c6-9e73-4fff-9ec1-822aa1e3ad27"},"vehicle_type_id":"4","last_reported":1746498401,"current_range_meters":10800,"station_id":"ce4bhap2rcd13ifvqek0","pricing_plan_id":"cebpf4jnsgd1na2vs0mg"},{"bike_id":"9d8f73eb-df09-4699-86a7-d631e2319093","system_id":"levelo_inurba_marseille","lat":43.26267,"lon":5.37447,"is_reserved":false,"is_disabled":false,"rental_uris":{"android":"levelo://app?vid=9d8f73eb-df09-4699-86a7-d631e2319093","ios":"levelo://app?vid=9d8f73eb-df09-4699-86a7-d631e2319093"},"vehicle_type_id":"4","last_reported":1746498401,"current_range_meters":10800,"station_id":"","pricing_plan_id":"cebpf4jnsgd1na2vs0mg"},{"bike_id":"b486f5fd-1209-4352-985e-d268bb97a482","system_id":"levelo_inurba_marseille","lat":43.28402,"lon":5.3499,"is_reserved":false,"is_disabled":false,"rental_uris":{"android":"levelo://app?vid=b486f5fd-1209-4352-985e-d268bb97a482","ios":"levelo://app?vid=b486f5fd-1209-4352-985e-d268bb97a482"},"vehicle_type_id":"4","last_reported":1746498401,"current_range_meters":10800,"station_id":"ce4bhbh2rcd13ifvqepg","pricing_plan_id":"cebpf4jnsgd1na2vs0mg"},{"bike_id":"62bfa9fa-531f-4d2b-9e57-eb50b2d48c8c","system_id":"levelo_inurba_marseille","lat":43.24278,"lon":5.38014,"is_reserved":false,"is_disabled":false,"rental_uris":{"android":"levelo://app?vid=62bfa9fa-531f-4d2b-9e57-eb50b2d48c8c","ios":"levelo://app?vid=62bfa9fa-531f-4d2b-9e57-eb50b2d48c8c"},"vehicle_type_id":"4","last_reported":1746498401,"current_range_meters":10800,"station_id":"","pricing_plan_id":"cebpf4jnsgd1na2vs0mg"},{"bike_id":"08ff2bcf-7233-4803-aa19-4c645279e28a","system_id":"levelo_inurba_marseille","lat":43.292536,"lon":5.409005,"is_reserved":false,"is_disabled":false,"rental_uris":{"android":"levelo://app?vid=08ff2bcf-7233-4803-aa19-4c645279e28a","ios":"levelo://app?vid=08ff2bcf-7233-4803-aa19-4c645279e28a"},"vehicle_type_id":"4","last_reported":1746498401,"current_range_meters":10800,"station_id":"ce4bh192rcd13ifvqdc0","pricing_plan_id":"cebpf4jnsgd1na2vs0mg"},{"bike_id":"fbda12d9-6999-44a5-a236-2a288c2ac07c","system_id":"levelo_inurba_marseille","lat":43.24069,"lon":5.37785,"is_reserved":false,"is_disabled":false,"rental_uris":{"android":"levelo://app?vid=fbda12d9-6999-44a5-a236-2a288c2ac07c","ios":"levelo://app?vid=fbda12d9-6999-44a5-a236-2a288c2ac07c"},"vehicle_type_id":"4","last_reported":1746498401,"current_range_meters":11200,"station_id":"ce4bhnp2rcd13ifvqgvg","pricing_plan_id":"cebpf4jnsgd1na2vs0mg"},{"bike_id":"0cb139c7-ebfc-4316-b1f8-0830598824b5","system_id":"levelo_inurba_marseille","lat":43.29789,"lon":5.3936,"is_reserved":false,"is_disabled":true,"rental_uris":{"android":"levelo://app?vid=0cb139c7-ebfc-4316-b1f8-0830598824b5","ios":"levelo://app?vid=0cb139c7-ebfc-4316-b1f8-0830598824b5"},"vehicle_type_id":"4","last_reported":1746498401,"current_range_meters":11200,"station_id":"chh1huq6cuj3fo74tm60","pricing_plan_id":"cebpf4jnsgd1na2vs0mg"},{"bike_id":"46515b8e-2c91-48c1-8869-455cffd3d0b7","system_id":"levelo_inurba_marseille","lat":43.27953,"lon":5.41054,"is_reserved":false,"is_disabled":false,"rental_uris":{"android":"levelo://app?vid=46515b8e-2c91-48c1-8869-455cffd3d0b7","ios":"levelo://app?vid=46515b8e-2c91-48c1-8869-455cffd3d0b7"},"vehicle_type_id":"4","last_reported":1746498401,"current_range_meters":11200,"station_id":"ce4bhnp2rcd13ifvqh0g","pricing_plan_id":"cebpf4jnsgd1na2vs0mg"},{"bike_id":"bfd18729-234a-4c72-b47b-2cff574b2dc5","system_id":"levelo_inurba_marseille","lat":43.29252,"lon":5.38284,"is_reserved":false,"is_disabled":false,"rental_uris":{"android":"levelo://app?vid=bfd18729-234a-4c72-b47b-2cff574b2dc5","ios":"levelo://app?vid=bfd18729-234a-4c72-b47b-2cff574b2dc5"},"vehicle_type_id":"4","last_reported":1746498401,"current_range_meters":11200,"station_id":"","pricing_plan_id":"cebpf4jnsgd1na2vs0mg"},{"bike_id":"0c377d9d-9a3a-47a7-9944-6039314b5e15","system_id":"levelo_inurba_marseille","lat":43.24593,"lon":5.40481,"is_reserved":false,"is_disabled":false,"rental_uris":{"android":"levelo://app?vid=0c377d9d-9a3a-47a7-9944-6039314b5e15","ios":"levelo://app?vid=0c377d9d-9a3a-47a7-9944-6039314b5e15"},"vehicle_type_id":"4","last_reported":1746498401,"current_range_meters":11200,"station_id":"","pricing_plan_id":"cebpf4jnsgd1na2vs0mg"},{"bike_id":"7c8d8e15-5a3e-4c1b-b912-e8bd98750196","system_id":"levelo_inurba_marseille","lat":43.28147,"lon":5.42654,"is_reserved":false,"is_disabled":false,"rental_uris":{"android":"levelo://app?vid=7c8d8e15-5a3e-4c1b-b912-e8bd98750196","ios":"levelo://app?vid=7c8d8e15-5a3e-4c1b-b912-e8bd98750196"},"vehicle_type_id":"4","last_reported":1746498401,"current_range_meters":11200,"station_id":"ce4bhnh2rcd13ifvqgug","pricing_plan_id":"cebpf4jnsgd1na2vs0mg"},{"bike_id":"d690aaf7-832d-40b0-91ff-d0898ba3e8d4","system_id":"levelo_inurba_marseille","lat":43.2657,"lon":5.39032,"is_reserved":false,"is_disabled":false,"rental_uris":{"android":"levelo://app?vid=d690aaf7-832d-40b0-91ff-d0898ba3e8d4","ios":"levelo://app?vid=d690aaf7-832d-40b0-91ff-d0898ba3e8d4"},"vehicle_type_id":"4","last_reported":1746498401,"current_range_meters":11200,"station_id":"ce4bhe12rcd13ifvqf30","pricing_plan_id":"cebpf4jnsgd1na2vs0mg"},{"bike_id":"b60c17f5-436e-489e-8f3c-790e6084ac64","system_id":"levelo_inurba_marseille","lat":43.21183,"lon":5.35082,"is_reserved":false,"is_disabled":false,"rental_uris":{"android":"levelo://app?vid=b60c17f5-436e-489e-8f3c-790e6084ac64","ios":"levelo://app?vid=b60c17f5-436e-489e-8f3c-790e6084ac64"},"vehicle_type_id":"4","last_reported":1746498401,"current_range_meters":11600,"station_id":"st_cvj6sg6p6f1abm77japg","pricing_plan_id":"cebpf4jnsgd1na2vs0mg"},{"bike_id":"5423b67b-7d78-436a-846a-99a9f32bc3c9","system_id":"levelo_inurba_marseille","lat":43.25084,"lon":5.39523,"is_reserved":false,"is_disabled":false,"rental_uris":{"android":"levelo://app?vid=5423b67b-7d78-436a-846a-99a9f32bc3c9","ios":"levelo://app?vid=5423b67b-7d78-436a-846a-99a9f32bc3c9"},"vehicle_type_id":"4","last_reported":1746498401,"current_range_meters":11600,"station_id":"ce4bhm12rcd13ifvqgkg","pricing_plan_id":"cebpf4jnsgd1na2vs0mg"},{"bike_id":"05a84f69-0592-442a-b098-6253d0b70e9e","system_id":"levelo_inurba_marseille","lat":43.3,"lon":5.37239,"is_reserved":false,"is_disabled":false,"rental_uris":{"android":"levelo://app?vid=05a84f69-0592-442a-b098-6253d0b70e9e","ios":"levelo://app?vid=05a84f69-0592-442a-b098-6253d0b70e9e"},"vehicle_type_id":"4","last_reported":1746498401,"current_range_meters":11600,"station_id":"","pricing_plan_id":"cebpf4jnsgd1na2vs0mg"},{"bike_id":"a46b5721-597c-404e-8ddb-3ba6469f967d","system_id":"levelo_inurba_marseille","lat":43.23187,"lon":5.35559,"is_reserved":false,"is_disabled":false,"rental_uris":{"android":"levelo://app?vid=a46b5721-597c-404e-8ddb-3ba6469f967d","ios":"levelo://app?vid=a46b5721-597c-404e-8ddb-3ba6469f967d"},"vehicle_type_id":"4","last_reported":1746498401,"current_range_meters":12000,"station_id":"ce4bhu92rcd13ifvqi70","pricing_plan_id":"cebpf4jnsgd1na2vs0mg"},{"bike_id":"ec3ab4d5-4298-47d6-af0f-cfe6418ed1b9","system_id":"levelo_inurba_marseille","lat":43.25118,"lon":5.40358,"is_reserved":false,"is_disabled":false,"rental_uris":{"android":"levelo://app?vid=ec3ab4d5-4298-47d6-af0f-cfe6418ed1b9","ios":"levelo://app?vid=ec3ab4d5-4298-47d6-af0f-cfe6418ed1b9"},"vehicle_type_id":"4","last_reported":1746498401,"current_range_meters":12000,"station_id":"ce4bhlh2rcd13ifvqgig","pricing_plan_id":"cebpf4jnsgd1na2vs0mg"},{"bike_id":"bd0f5d5e-963b-4fe6-aa82-9fc047b0ac51","system_id":"levelo_inurba_marseille","lat":43.299042,"lon":5.388155,"is_reserved":false,"is_disabled":false,"rental_uris":{"android":"levelo://app?vid=bd0f5d5e-963b-4fe6-aa82-9fc047b0ac51","ios":"levelo://app?vid=bd0f5d5e-963b-4fe6-aa82-9fc047b0ac51"},"vehicle_type_id":"4","last_reported":1746498401,"current_range_meters":12000,"station_id":"","pricing_plan_id":"cebpf4jnsgd1na2vs0mg"},{"bike_id":"156b2893-1935-4e6b-a870-c55ec5e1824b","system_id":"levelo_inurba_marseille","lat":43.308054,"lon":5.435041,"is_reserved":false,"is_disabled":false,"rental_uris":{"android":"levelo://app?vid=156b2893-1935-4e6b-a870-c55ec5e1824b","ios":"levelo://app?vid=156b2893-1935-4e6b-a870-c55ec5e1824b"},"vehicle_type_id":"4","last_reported":1746498401,"current_range_meters":12000,"station_id":"ce4bhph2rcd13ifvqheg","pricing_plan_id":"cebpf4jnsgd1na2vs0mg"},{"bike_id":"db607aba-0db6-423b-a818-c23224727203","system_id":"levelo_inurba_marseille","lat":43.23152,"lon":5.43706,"is_reserved":false,"is_disabled":false,"rental_uris":{"android":"levelo://app?vid=db607aba-0db6-423b-a818-c23224727203","ios":"levelo://app?vid=db607aba-0db6-423b-a818-c23224727203"},"vehicle_type_id":"4","last_reported":1746498401,"current_range_meters":12000,"station_id":"ce4bhmp2rcd13ifvqgog","pricing_plan_id":"cebpf4jnsgd1na2vs0mg"},{"bike_id":"e59f121e-ba4f-4890-a742-2d0c49eae7d8","system_id":"levelo_inurba_marseille","lat":43.315394,"lon":5.380265,"is_reserved":false,"is_disabled":false,"rental_uris":{"android":"levelo://app?vid=e59f121e-ba4f-4890-a742-2d0c49eae7d8","ios":"levelo://app?vid=e59f121e-ba4f-4890-a742-2d0c49eae7d8"},"vehicle_type_id":"4","last_reported":1746498401,"current_range_meters":12400,"station_id":"ce4bhsp2rcd13ifvqi50","pricing_plan_id":"cebpf4jnsgd1na2vs0mg"},{"bike_id":"a564814d-612a-4672-a9dd-f9719d2b6023","system_id":"levelo_inurba_marseille","lat":43.284043,"lon":5.375192,"is_reserved":false,"is_disabled":false,"rental_uris":{"android":"levelo://app?vid=a564814d-612a-4672-a9dd-f9719d2b6023","ios":"levelo://app?vid=a564814d-612a-4672-a9dd-f9719d2b6023"},"vehicle_type_id":"4","last_reported":1746498401,"current_range_meters":12400,"station_id":"ce4bh412rcd13ifvqds0","pricing_plan_id":"cebpf4jnsgd1na2vs0mg"},{"bike_id":"936a637d-a079-4ff8-ae5b-41a138df9f05","system_id":"levelo_inurba_marseille","lat":43.279708,"lon":5.387261,"is_reserved":false,"is_disabled":false,"rental_uris":{"android":"levelo://app?vid=936a637d-a079-4ff8-ae5b-41a138df9f05","ios":"levelo://app?vid=936a637d-a079-4ff8-ae5b-41a138df9f05"},"vehicle_type_id":"4","last_reported":1746498401,"current_range_meters":12400,"station_id":"ce4bhg12rcd13ifvqf80","pricing_plan_id":"cebpf4jnsgd1na2vs0mg"},{"bike_id":"adf5dfc5-5664-4b0f-8d86-0129f9858272","system_id":"levelo_inurba_marseille","lat":43.30781,"lon":5.37653,"is_reserved":false,"is_disabled":false,"rental_uris":{"android":"levelo://app?vid=adf5dfc5-5664-4b0f-8d86-0129f9858272","ios":"levelo://app?vid=adf5dfc5-5664-4b0f-8d86-0129f9858272"},"vehicle_type_id":"4","last_reported":1746498401,"current_range_meters":12400,"station_id":"ce4bgv92rcd13ifvqcq0","pricing_plan_id":"cebpf4jnsgd1na2vs0mg"},{"bike_id":"7e7dc147-9fb8-4df0-905e-a56344049728","system_id":"levelo_inurba_marseille","lat":43.290274,"lon":5.386476,"is_reserved":false,"is_disabled":true,"rental_uris":{"android":"levelo://app?vid=7e7dc147-9fb8-4df0-905e-a56344049728","ios":"levelo://app?vid=7e7dc147-9fb8-4df0-905e-a56344049728"},"vehicle_type_id":"4","last_reported":1746498401,"current_range_meters":12400,"station_id":"ce4bh4p2rcd13ifvqe0g","pricing_plan_id":"cebpf4jnsgd1na2vs0mg"},{"bike_id":"311ec4e0-482e-4b83-a693-e6b86a1abb04","system_id":"levelo_inurba_marseille","lat":43.33139,"lon":5.41381,"is_reserved":false,"is_disabled":false,"rental_uris":{"android":"levelo://app?vid=311ec4e0-482e-4b83-a693-e6b86a1abb04","ios":"levelo://app?vid=311ec4e0-482e-4b83-a693-e6b86a1abb04"},"vehicle_type_id":"4","last_reported":1746498401,"current_range_meters":12400,"station_id":"","pricing_plan_id":"cebpf4jnsgd1na2vs0mg"},{"bike_id":"44d1a496-4f16-46a6-b178-f49cec17003e","system_id":"levelo_inurba_marseille","lat":43.27174,"lon":5.4099,"is_reserved":false,"is_disabled":false,"rental_uris":{"android":"levelo://app?vid=44d1a496-4f16-46a6-b178-f49cec17003e","ios":"levelo://app?vid=44d1a496-4f16-46a6-b178-f49cec17003e"},"vehicle_type_id":"4","last_reported":1746498401,"current_range_meters":12800,"station_id":"ce4bhl12rcd13ifvqgf0","pricing_plan_id":"cebpf4jnsgd1na2vs0mg"},{"bike_id":"13fcfc94-37a5-49a8-a177-77725e8512b6","system_id":"levelo_inurba_marseille","lat":43.30464,"lon":5.37904,"is_reserved":false,"is_disabled":true,"rental_uris":{"android":"levelo://app?vid=13fcfc94-37a5-49a8-a177-77725e8512b6","ios":"levelo://app?vid=13fcfc94-37a5-49a8-a177-77725e8512b6"},"vehicle_type_id":"4","last_reported":1746498401,"current_range_meters":12800,"station_id":"ce4bgup2rcd13ifvqcn0","pricing_plan_id":"cebpf4jnsgd1na2vs0mg"},{"bike_id":"c9592205-9409-4f74-aed1-7c4141a58caa","system_id":"levelo_inurba_marseille","lat":43.27135,"lon":5.36373,"is_reserved":false,"is_disabled":false,"rental_uris":{"android":"levelo://app?vid=c9592205-9409-4f74-aed1-7c4141a58caa","ios":"levelo://app?vid=c9592205-9409-4f74-aed1-7c4141a58caa"},"vehicle_type_id":"4","last_reported":1746498401,"current_range_meters":12800,"station_id":"","pricing_plan_id":"cebpf4jnsgd1na2vs0mg"},{"bike_id":"7e86d21d-45f2-4214-8268-1894a29d6870","system_id":"levelo_inurba_marseille","lat":43.278133,"lon":5.407184,"is_reserved":false,"is_disabled":false,"rental_uris":{"android":"levelo://app?vid=7e86d21d-45f2-4214-8268-1894a29d6870","ios":"levelo://app?vid=7e86d21d-45f2-4214-8268-1894a29d6870"},"vehicle_type_id":"4","last_reported":1746498401,"current_range_meters":12800,"station_id":"ce4bhnh2rcd13ifvqgtg","pricing_plan_id":"cebpf4jnsgd1na2vs0mg"},{"bike_id":"a9b78ccc-48f0-4502-b89e-0369c4bf7b0b","system_id":"levelo_inurba_marseille","lat":43.23192,"lon":5.39992,"is_reserved":false,"is_disabled":false,"rental_uris":{"android":"levelo://app?vid=a9b78ccc-48f0-4502-b89e-0369c4bf7b0b","ios":"levelo://app?vid=a9b78ccc-48f0-4502-b89e-0369c4bf7b0b"},"vehicle_type_id":"4","last_reported":1746498401,"current_range_meters":12800,"station_id":"ce4bhn12rcd13ifvqgqg","pricing_plan_id":"cebpf4jnsgd1na2vs0mg"},{"bike_id":"2d3a4e18-5e5c-41fd-a652-c6f84f49b159","system_id":"levelo_inurba_marseille","lat":43.293759,"lon":5.378515,"is_reserved":false,"is_disabled":true,"rental_uris":{"android":"levelo://app?vid=2d3a4e18-5e5c-41fd-a652-c6f84f49b159","ios":"levelo://app?vid=2d3a4e18-5e5c-41fd-a652-c6f84f49b159"},"vehicle_type_id":"4","last_reported":1746498401,"current_range_meters":12800,"station_id":"ce4bgjh2rcd13ifvqbf0","pricing_plan_id":"cebpf4jnsgd1na2vs0mg"},{"bike_id":"ff98988f-b7b5-4b59-aafa-108198aebfdf","system_id":"levelo_inurba_marseille","lat":43.311685,"lon":5.387172,"is_reserved":false,"is_disabled":false,"rental_uris":{"android":"levelo://app?vid=ff98988f-b7b5-4b59-aafa-108198aebfdf","ios":"levelo://app?vid=ff98988f-b7b5-4b59-aafa-108198aebfdf"},"vehicle_type_id":"4","last_reported":1746498401,"current_range_meters":13600,"station_id":"ce4bgv12rcd13ifvqcp0","pricing_plan_id":"cebpf4jnsgd1na2vs0mg"},{"bike_id":"7ae923fd-583b-405f-968d-fb1bcede32b7","system_id":"levelo_inurba_marseille","lat":43.25084,"lon":5.39495,"is_reserved":false,"is_disabled":false,"rental_uris":{"android":"levelo://app?vid=7ae923fd-583b-405f-968d-fb1bcede32b7","ios":"levelo://app?vid=7ae923fd-583b-405f-968d-fb1bcede32b7"},"vehicle_type_id":"4","last_reported":1746498401,"current_range_meters":13600,"station_id":"ce4bhm12rcd13ifvqgkg","pricing_plan_id":"cebpf4jnsgd1na2vs0mg"},{"bike_id":"858bed88-3c9c-4c60-b913-cfc9a1021309","system_id":"levelo_inurba_marseille","lat":43.31751,"lon":5.39028,"is_reserved":false,"is_disabled":true,"rental_uris":{"android":"levelo://app?vid=858bed88-3c9c-4c60-b913-cfc9a1021309","ios":"levelo://app?vid=858bed88-3c9c-4c60-b913-cfc9a1021309"},"vehicle_type_id":"4","last_reported":1746498401,"current_range_meters":13600,"station_id":"ce4bhqp2rcd13ifvqhng","pricing_plan_id":"cebpf4jnsgd1na2vs0mg"},{"bike_id":"7ca09d8d-51db-4057-abe2-e9c1bdbcdfac","system_id":"levelo_inurba_marseille","lat":43.229279,"lon":5.353746,"is_reserved":false,"is_disabled":true,"rental_uris":{"android":"levelo://app?vid=7ca09d8d-51db-4057-abe2-e9c1bdbcdfac","ios":"levelo://app?vid=7ca09d8d-51db-4057-abe2-e9c1bdbcdfac"},"vehicle_type_id":"4","last_reported":1746498401,"current_range_meters":14000,"station_id":"cpo3532slgdg3j2ikp40","pricing_plan_id":"cebpf4jnsgd1na2vs0mg"},{"bike_id":"34b1efd4-48c2-4719-84d4-6a6a73d11d34","system_id":"levelo_inurba_marseille","lat":43.31482,"lon":5.37305,"is_reserved":false,"is_disabled":false,"rental_uris":{"android":"levelo://app?vid=34b1efd4-48c2-4719-84d4-6a6a73d11d34","ios":"levelo://app?vid=34b1efd4-48c2-4719-84d4-6a6a73d11d34"},"vehicle_type_id":"4","last_reported":1746498401,"current_range_meters":14000,"station_id":"ce4bgt12rcd13ifvqcd0","pricing_plan_id":"cebpf4jnsgd1na2vs0mg"},{"bike_id":"99791781-d390-4e2d-ae81-dea9cba97e90","system_id":"levelo_inurba_marseille","lat":43.29987,"lon":5.41359,"is_reserved":false,"is_disabled":false,"rental_uris":{"android":"levelo://app?vid=99791781-d390-4e2d-ae81-dea9cba97e90","ios":"levelo://app?vid=99791781-d390-4e2d-ae81-dea9cba97e90"},"vehicle_type_id":"4","last_reported":1746498401,"current_range_meters":14400,"station_id":"ce4bhp12rcd13ifvqh9g","pricing_plan_id":"cebpf4jnsgd1na2vs0mg"},{"bike_id":"8dac27be-a00b-4425-aba9-9ad4ebb57a63","system_id":"levelo_inurba_marseille","lat":43.286624,"lon":5.386846,"is_reserved":false,"is_disabled":true,"rental_uris":{"android":"levelo://app?vid=8dac27be-a00b-4425-aba9-9ad4ebb57a63","ios":"levelo://app?vid=8dac27be-a00b-4425-aba9-9ad4ebb57a63"},"vehicle_type_id":"4","last_reported":1746498401,"current_range_meters":14400,"station_id":"ce4bh492rcd13ifvqdug","pricing_plan_id":"cebpf4jnsgd1na2vs0mg"},{"bike_id":"3f84d55c-f7b3-443f-a8ba-1f83ba8291a2","system_id":"levelo_inurba_marseille","lat":43.21189,"lon":5.35108,"is_reserved":false,"is_disabled":false,"rental_uris":{"android":"levelo://app?vid=3f84d55c-f7b3-443f-a8ba-1f83ba8291a2","ios":"levelo://app?vid=3f84d55c-f7b3-443f-a8ba-1f83ba8291a2"},"vehicle_type_id":"4","last_reported":1746498401,"current_range_meters":14400,"station_id":"st_cvj6sg6p6f1abm77japg","pricing_plan_id":"cebpf4jnsgd1na2vs0mg"},{"bike_id":"bedea05d-d78e-49aa-a496-3f51d4ea594b","system_id":"levelo_inurba_marseille","lat":43.28448,"lon":5.35897,"is_reserved":false,"is_disabled":false,"rental_uris":{"android":"levelo://app?vid=bedea05d-d78e-49aa-a496-3f51d4ea594b","ios":"levelo://app?vid=bedea05d-d78e-49aa-a496-3f51d4ea594b"},"vehicle_type_id":"4","last_reported":1746498401,"current_range_meters":14800,"station_id":"ce4bhah2rcd13ifvqei0","pricing_plan_id":"cebpf4jnsgd1na2vs0mg"},{"bike_id":"e3bb4c0a-ea28-4d8b-a92a-340ecfdd5f1d","system_id":"levelo_inurba_marseille","lat":43.3107,"lon":5.37546,"is_reserved":false,"is_disabled":false,"rental_uris":{"android":"levelo://app?vid=e3bb4c0a-ea28-4d8b-a92a-340ecfdd5f1d","ios":"levelo://app?vid=e3bb4c0a-ea28-4d8b-a92a-340ecfdd5f1d"},"vehicle_type_id":"4","last_reported":1746498401,"current_range_meters":14800,"station_id":"","pricing_plan_id":"cebpf4jnsgd1na2vs0mg"},{"bike_id":"2df614bf-145f-44cd-b174-f8bd8326963c","system_id":"levelo_inurba_marseille","lat":43.315411,"lon":5.380199,"is_reserved":false,"is_disabled":false,"rental_uris":{"android":"levelo://app?vid=2df614bf-145f-44cd-b174-f8bd8326963c","ios":"levelo://app?vid=2df614bf-145f-44cd-b174-f8bd8326963c"},"vehicle_type_id":"4","last_reported":1746498401,"current_range_meters":14800,"station_id":"ce4bhsp2rcd13ifvqi50","pricing_plan_id":"cebpf4jnsgd1na2vs0mg"},{"bike_id":"f923bc7e-7ddd-48e1-9a5c-e4b11899f853","system_id":"levelo_inurba_marseille","lat":43.30878,"lon":5.3966,"is_reserved":false,"is_disabled":false,"rental_uris":{"android":"levelo://app?vid=f923bc7e-7ddd-48e1-9a5c-e4b11899f853","ios":"levelo://app?vid=f923bc7e-7ddd-48e1-9a5c-e4b11899f853"},"vehicle_type_id":"4","last_reported":1746498401,"current_range_meters":14800,"station_id":"ce4bh012rcd13ifvqcv0","pricing_plan_id":"cebpf4jnsgd1na2vs0mg"},{"bike_id":"5a7d2749-ecbc-4351-94f2-8339d95d4c06","system_id":"levelo_inurba_marseille","lat":43.3154,"lon":5.38035,"is_reserved":false,"is_disabled":false,"rental_uris":{"android":"levelo://app?vid=5a7d2749-ecbc-4351-94f2-8339d95d4c06","ios":"levelo://app?vid=5a7d2749-ecbc-4351-94f2-8339d95d4c06"},"vehicle_type_id":"4","last_reported":1746498401,"current_range_meters":14800,"station_id":"ce4bhsp2rcd13ifvqi50","pricing_plan_id":"cebpf4jnsgd1na2vs0mg"},{"bike_id":"99097e50-dd2e-47c3-a879-f48655baf4d9","system_id":"levelo_inurba_marseille","lat":43.24589,"lon":5.40857,"is_reserved":false,"is_disabled":false,"rental_uris":{"android":"levelo://app?vid=99097e50-dd2e-47c3-a879-f48655baf4d9","ios":"levelo://app?vid=99097e50-dd2e-47c3-a879-f48655baf4d9"},"vehicle_type_id":"4","last_reported":1746498401,"current_range_meters":15200,"station_id":"","pricing_plan_id":"cebpf4jnsgd1na2vs0mg"},{"bike_id":"bfb768d4-db43-4db8-8659-afeb33dd4edd","system_id":"levelo_inurba_marseille","lat":43.30741,"lon":5.42453,"is_reserved":false,"is_disabled":false,"rental_uris":{"android":"levelo://app?vid=bfb768d4-db43-4db8-8659-afeb33dd4edd","ios":"levelo://app?vid=bfb768d4-db43-4db8-8659-afeb33dd4edd"},"vehicle_type_id":"4","last_reported":1746498401,"current_range_meters":15200,"station_id":"st_cvj6ca6bvosntc0bfgr0","pricing_plan_id":"cebpf4jnsgd1na2vs0mg"},{"bike_id":"5cf9bea3-9c42-4bef-a5e8-cfcc39d36971","system_id":"levelo_inurba_marseille","lat":43.3112,"lon":5.3778,"is_reserved":false,"is_disabled":false,"rental_uris":{"android":"levelo://app?vid=5cf9bea3-9c42-4bef-a5e8-cfcc39d36971","ios":"levelo://app?vid=5cf9bea3-9c42-4bef-a5e8-cfcc39d36971"},"vehicle_type_id":"4","last_reported":1746498401,"current_range_meters":15200,"station_id":"ce4bgt92rcd13ifvqcg0","pricing_plan_id":"cebpf4jnsgd1na2vs0mg"},{"bike_id":"7ed36353-092b-453c-b837-0c3c8d44cb54","system_id":"levelo_inurba_marseille","lat":43.28413,"lon":5.37528,"is_reserved":false,"is_disabled":false,"rental_uris":{"android":"levelo://app?vid=7ed36353-092b-453c-b837-0c3c8d44cb54","ios":"levelo://app?vid=7ed36353-092b-453c-b837-0c3c8d44cb54"},"vehicle_type_id":"4","last_reported":1746498401,"current_range_meters":16000,"station_id":"ce4bh412rcd13ifvqds0","pricing_plan_id":"cebpf4jnsgd1na2vs0mg"},{"bike_id":"5987d684-ebbc-4e3b-9225-d827a0b9ff39","system_id":"levelo_inurba_marseille","lat":43.23966,"lon":5.366201,"is_reserved":false,"is_disabled":false,"rental_uris":{"android":"levelo://app?vid=5987d684-ebbc-4e3b-9225-d827a0b9ff39","ios":"levelo://app?vid=5987d684-ebbc-4e3b-9225-d827a0b9ff39"},"vehicle_type_id":"4","last_reported":1746498401,"current_range_meters":16000,"station_id":"ce4bhi12rcd13ifvqfp0","pricing_plan_id":"cebpf4jnsgd1na2vs0mg"},{"bike_id":"68db1e13-3b7e-40af-83a2-a4203eac9c02","system_id":"levelo_inurba_marseille","lat":43.28119,"lon":5.37818,"is_reserved":false,"is_disabled":false,"rental_uris":{"android":"levelo://app?vid=68db1e13-3b7e-40af-83a2-a4203eac9c02","ios":"levelo://app?vid=68db1e13-3b7e-40af-83a2-a4203eac9c02"},"vehicle_type_id":"4","last_reported":1746498401,"current_range_meters":16000,"station_id":"ce4bha12rcd13ifvqee0","pricing_plan_id":"cebpf4jnsgd1na2vs0mg"},{"bike_id":"d80a186c-6cde-48d1-a6c4-cc1ccc278891","system_id":"levelo_inurba_marseille","lat":43.31693,"lon":5.43725,"is_reserved":false,"is_disabled":false,"rental_uris":{"android":"levelo://app?vid=d80a186c-6cde-48d1-a6c4-cc1ccc278891","ios":"levelo://app?vid=d80a186c-6cde-48d1-a6c4-cc1ccc278891"},"vehicle_type_id":"4","last_reported":1746498401,"current_range_meters":16400,"station_id":"ce4bhp92rcd13ifvqhcg","pricing_plan_id":"cebpf4jnsgd1na2vs0mg"},{"bike_id":"63a15020-6909-43f9-8614-e2fa8f24fa11","system_id":"levelo_inurba_marseille","lat":43.31366,"lon":5.38513,"is_reserved":false,"is_disabled":false,"rental_uris":{"android":"levelo://app?vid=63a15020-6909-43f9-8614-e2fa8f24fa11","ios":"levelo://app?vid=63a15020-6909-43f9-8614-e2fa8f24fa11"},"vehicle_type_id":"4","last_reported":1746498401,"current_range_meters":16400,"station_id":"ce4bgt92rcd13ifvqcf0","pricing_plan_id":"cebpf4jnsgd1na2vs0mg"},{"bike_id":"89d3f377-5a64-405e-ad75-45e8469ae3f6","system_id":"levelo_inurba_marseille","lat":43.26962,"lon":5.40346,"is_reserved":false,"is_disabled":true,"rental_uris":{"android":"levelo://app?vid=89d3f377-5a64-405e-ad75-45e8469ae3f6","ios":"levelo://app?vid=89d3f377-5a64-405e-ad75-45e8469ae3f6"},"vehicle_type_id":"4","last_reported":1746498401,"current_range_meters":16400,"station_id":"cjm6bp8fraef2m0cb0m0","pricing_plan_id":"cebpf4jnsgd1na2vs0mg"},{"bike_id":"e96aed38-4a0d-4978-b6c9-65d6ecdea43d","system_id":"levelo_inurba_marseille","lat":43.2937,"lon":5.37874,"is_reserved":false,"is_disabled":true,"rental_uris":{"android":"levelo://app?vid=e96aed38-4a0d-4978-b6c9-65d6ecdea43d","ios":"levelo://app?vid=e96aed38-4a0d-4978-b6c9-65d6ecdea43d"},"vehicle_type_id":"4","last_reported":1746498401,"current_range_meters":16400,"station_id":"ce4bgjh2rcd13ifvqbf0","pricing_plan_id":"cebpf4jnsgd1na2vs0mg"},{"bike_id":"d1aa6e5d-6beb-440c-afb6-1d488c12e5a1","system_id":"levelo_inurba_marseille","lat":43.34695,"lon":5.36193,"is_reserved":false,"is_disabled":false,"rental_uris":{"android":"levelo://app?vid=d1aa6e5d-6beb-440c-afb6-1d488c12e5a1","ios":"levelo://app?vid=d1aa6e5d-6beb-440c-afb6-1d488c12e5a1"},"vehicle_type_id":"4","last_reported":1746498401,"current_range_meters":16400,"station_id":"","pricing_plan_id":"cebpf4jnsgd1na2vs0mg"},{"bike_id":"a8a1b1f9-4837-4bd3-b489-a1183a034be7","system_id":"levelo_inurba_marseille","lat":43.286586,"lon":5.363473,"is_reserved":false,"is_disabled":false,"rental_uris":{"android":"levelo://app?vid=a8a1b1f9-4837-4bd3-b489-a1183a034be7","ios":"levelo://app?vid=a8a1b1f9-4837-4bd3-b489-a1183a034be7"},"vehicle_type_id":"4","last_reported":1746498401,"current_range_meters":16400,"station_id":"ce4bhah2rcd13ifvqej0","pricing_plan_id":"cebpf4jnsgd1na2vs0mg"},{"bike_id":"62abd1a7-7a0b-4601-b7d9-44b92d8d2d1e","system_id":"levelo_inurba_marseille","lat":43.281063,"lon":5.378361,"is_reserved":false,"is_disabled":false,"rental_uris":{"android":"levelo://app?vid=62abd1a7-7a0b-4601-b7d9-44b92d8d2d1e","ios":"levelo://app?vid=62abd1a7-7a0b-4601-b7d9-44b92d8d2d1e"},"vehicle_type_id":"4","last_reported":1746498401,"current_range_meters":16800,"station_id":"ce4bha12rcd13ifvqee0","pricing_plan_id":"cebpf4jnsgd1na2vs0mg"},{"bike_id":"e0a20f8e-cd02-4cca-899c-a69a974915d9","system_id":"levelo_inurba_marseille","lat":43.30879,"lon":5.39678,"is_reserved":false,"is_disabled":false,"rental_uris":{"android":"levelo://app?vid=e0a20f8e-cd02-4cca-899c-a69a974915d9","ios":"levelo://app?vid=e0a20f8e-cd02-4cca-899c-a69a974915d9"},"vehicle_type_id":"4","last_reported":1746498401,"current_range_meters":16800,"station_id":"ce4bh012rcd13ifvqcv0","pricing_plan_id":"cebpf4jnsgd1na2vs0mg"},{"bike_id":"d513f5ec-f86d-479a-93e5-097919a76000","system_id":"levelo_inurba_marseille","lat":43.287036,"lon":5.399975,"is_reserved":false,"is_disabled":false,"rental_uris":{"android":"levelo://app?vid=d513f5ec-f86d-479a-93e5-097919a76000","ios":"levelo://app?vid=d513f5ec-f86d-479a-93e5-097919a76000"},"vehicle_type_id":"4","last_reported":1746498401,"current_range_meters":16800,"station_id":"ce4bho92rcd13ifvqh3g","pricing_plan_id":"cebpf4jnsgd1na2vs0mg"},{"bike_id":"9175d517-3c9f-4a9d-9359-bc5552cd94b8","system_id":"levelo_inurba_marseille","lat":43.28604,"lon":5.35128,"is_reserved":false,"is_disabled":false,"rental_uris":{"android":"levelo://app?vid=9175d517-3c9f-4a9d-9359-bc5552cd94b8","ios":"levelo://app?vid=9175d517-3c9f-4a9d-9359-bc5552cd94b8"},"vehicle_type_id":"4","last_reported":1746498401,"current_range_meters":16800,"station_id":"ce4bhch2rcd13ifvqeug","pricing_plan_id":"cebpf4jnsgd1na2vs0mg"},{"bike_id":"6ce81efa-e8f3-477a-b7a1-a1c58c727c56","system_id":"levelo_inurba_marseille","lat":43.21179,"lon":5.3509,"is_reserved":false,"is_disabled":false,"rental_uris":{"android":"levelo://app?vid=6ce81efa-e8f3-477a-b7a1-a1c58c727c56","ios":"levelo://app?vid=6ce81efa-e8f3-477a-b7a1-a1c58c727c56"},"vehicle_type_id":"4","last_reported":1746498401,"current_range_meters":16800,"station_id":"","pricing_plan_id":"cebpf4jnsgd1na2vs0mg"},{"bike_id":"f8951e71-e6d6-4079-85a7-64eca3dfb50c","system_id":"levelo_inurba_marseille","lat":43.24159,"lon":5.3974,"is_reserved":false,"is_disabled":false,"rental_uris":{"android":"levelo://app?vid=f8951e71-e6d6-4079-85a7-64eca3dfb50c","ios":"levelo://app?vid=f8951e71-e6d6-4079-85a7-64eca3dfb50c"},"vehicle_type_id":"4","last_reported":1746498401,"current_range_meters":16800,"station_id":"ce4bhn12rcd13ifvqgpg","pricing_plan_id":"cebpf4jnsgd1na2vs0mg"},{"bike_id":"24616366-4787-4f02-a31b-2241651566f8","system_id":"levelo_inurba_marseille","lat":43.28723,"lon":5.36111,"is_reserved":false,"is_disabled":false,"rental_uris":{"android":"levelo://app?vid=24616366-4787-4f02-a31b-2241651566f8","ios":"levelo://app?vid=24616366-4787-4f02-a31b-2241651566f8"},"vehicle_type_id":"4","last_reported":1746498401,"current_range_meters":17200,"station_id":"cki0cbj6b192h4jlfktg","pricing_plan_id":"cebpf4jnsgd1na2vs0mg"},{"bike_id":"03bb5049-51e5-461e-8353-3cc13edfbfb8","system_id":"levelo_inurba_marseille","lat":43.23956,"lon":5.36626,"is_reserved":false,"is_disabled":false,"rental_uris":{"android":"levelo://app?vid=03bb5049-51e5-461e-8353-3cc13edfbfb8","ios":"levelo://app?vid=03bb5049-51e5-461e-8353-3cc13edfbfb8"},"vehicle_type_id":"4","last_reported":1746498401,"current_range_meters":17200,"station_id":"ce4bhi12rcd13ifvqfp0","pricing_plan_id":"cebpf4jnsgd1na2vs0mg"},{"bike_id":"e0a0fb85-9539-4fb6-b21f-392540fb8a26","system_id":"levelo_inurba_marseille","lat":43.32356,"lon":5.3674,"is_reserved":false,"is_disabled":false,"rental_uris":{"android":"levelo://app?vid=e0a0fb85-9539-4fb6-b21f-392540fb8a26","ios":"levelo://app?vid=e0a0fb85-9539-4fb6-b21f-392540fb8a26"},"vehicle_type_id":"4","last_reported":1746498401,"current_range_meters":17200,"station_id":"ce4bhsh2rcd13ifvqi2g","pricing_plan_id":"cebpf4jnsgd1na2vs0mg"},{"bike_id":"6ddb90f6-4587-4feb-9901-3dcd0e047bc2","system_id":"levelo_inurba_marseille","lat":43.28941,"lon":5.36644,"is_reserved":false,"is_disabled":false,"rental_uris":{"android":"levelo://app?vid=6ddb90f6-4587-4feb-9901-3dcd0e047bc2","ios":"levelo://app?vid=6ddb90f6-4587-4feb-9901-3dcd0e047bc2"},"vehicle_type_id":"4","last_reported":1746498401,"current_range_meters":17200,"station_id":"ce4bhap2rcd13ifvqek0","pricing_plan_id":"cebpf4jnsgd1na2vs0mg"},{"bike_id":"c8e652cd-1868-43cf-983b-6b08eb08d2f1","system_id":"levelo_inurba_marseille","lat":43.286994,"lon":5.399888,"is_reserved":false,"is_disabled":false,"rental_uris":{"android":"levelo://app?vid=c8e652cd-1868-43cf-983b-6b08eb08d2f1","ios":"levelo://app?vid=c8e652cd-1868-43cf-983b-6b08eb08d2f1"},"vehicle_type_id":"4","last_reported":1746498401,"current_range_meters":17200,"station_id":"ce4bho92rcd13ifvqh3g","pricing_plan_id":"cebpf4jnsgd1na2vs0mg"},{"bike_id":"a327ed7c-cb3d-44b1-bb3d-7951cd226f01","system_id":"levelo_inurba_marseille","lat":43.293396,"lon":5.371296,"is_reserved":false,"is_disabled":false,"rental_uris":{"android":"levelo://app?vid=a327ed7c-cb3d-44b1-bb3d-7951cd226f01","ios":"levelo://app?vid=a327ed7c-cb3d-44b1-bb3d-7951cd226f01"},"vehicle_type_id":"4","last_reported":1746498401,"current_range_meters":17200,"station_id":"","pricing_plan_id":"cebpf4jnsgd1na2vs0mg"},{"bike_id":"1900e395-19ba-404e-aa6a-262b7656599d","system_id":"levelo_inurba_marseille","lat":43.2888,"lon":5.43707,"is_reserved":false,"is_disabled":false,"rental_uris":{"android":"levelo://app?vid=1900e395-19ba-404e-aa6a-262b7656599d","ios":"levelo://app?vid=1900e395-19ba-404e-aa6a-262b7656599d"},"vehicle_type_id":"4","last_reported":1746498401,"current_range_meters":17200,"station_id":"","pricing_plan_id":"cebpf4jnsgd1na2vs0mg"},{"bike_id":"82f4dc22-101f-465e-a26a-59bc1ffb8cd4","system_id":"levelo_inurba_marseille","lat":43.28408,"lon":5.37522,"is_reserved":false,"is_disabled":false,"rental_uris":{"android":"levelo://app?vid=82f4dc22-101f-465e-a26a-59bc1ffb8cd4","ios":"levelo://app?vid=82f4dc22-101f-465e-a26a-59bc1ffb8cd4"},"vehicle_type_id":"4","last_reported":1746498401,"current_range_meters":17600,"station_id":"ce4bh412rcd13ifvqds0","pricing_plan_id":"cebpf4jnsgd1na2vs0mg"},{"bike_id":"e5d31766-6aa5-44d9-9ddb-73dc8245cc4e","system_id":"levelo_inurba_marseille","lat":43.28718,"lon":5.39968,"is_reserved":false,"is_disabled":false,"rental_uris":{"android":"levelo://app?vid=e5d31766-6aa5-44d9-9ddb-73dc8245cc4e","ios":"levelo://app?vid=e5d31766-6aa5-44d9-9ddb-73dc8245cc4e"},"vehicle_type_id":"4","last_reported":1746498401,"current_range_meters":17600,"station_id":"ce4bho92rcd13ifvqh3g","pricing_plan_id":"cebpf4jnsgd1na2vs0mg"},{"bike_id":"ad3e95d1-33fd-4c52-8138-33e1a87f9b95","system_id":"levelo_inurba_marseille","lat":43.231948,"lon":5.355558,"is_reserved":false,"is_disabled":false,"rental_uris":{"android":"levelo://app?vid=ad3e95d1-33fd-4c52-8138-33e1a87f9b95","ios":"levelo://app?vid=ad3e95d1-33fd-4c52-8138-33e1a87f9b95"},"vehicle_type_id":"4","last_reported":1746498401,"current_range_meters":17600,"station_id":"ce4bhu92rcd13ifvqi70","pricing_plan_id":"cebpf4jnsgd1na2vs0mg"},{"bike_id":"27563f88-1268-4b98-bc06-44e98c7ca400","system_id":"levelo_inurba_marseille","lat":43.32089,"lon":5.44087,"is_reserved":false,"is_disabled":false,"rental_uris":{"android":"levelo://app?vid=27563f88-1268-4b98-bc06-44e98c7ca400","ios":"levelo://app?vid=27563f88-1268-4b98-bc06-44e98c7ca400"},"vehicle_type_id":"4","last_reported":1746498401,"current_range_meters":17600,"station_id":"","pricing_plan_id":"cebpf4jnsgd1na2vs0mg"},{"bike_id":"e913cf30-eb5e-4abe-8900-12e0ae6d43b8","system_id":"levelo_inurba_marseille","lat":43.286971,"lon":5.373964,"is_reserved":false,"is_disabled":false,"rental_uris":{"android":"levelo://app?vid=e913cf30-eb5e-4abe-8900-12e0ae6d43b8","ios":"levelo://app?vid=e913cf30-eb5e-4abe-8900-12e0ae6d43b8"},"vehicle_type_id":"4","last_reported":1746498401,"current_range_meters":17600,"station_id":"ce4bh3p2rcd13ifvqdq0","pricing_plan_id":"cebpf4jnsgd1na2vs0mg"},{"bike_id":"ceabe490-1f11-4366-85ad-8996dd4944f3","system_id":"levelo_inurba_marseille","lat":43.293044,"lon":5.371681,"is_reserved":false,"is_disabled":true,"rental_uris":{"android":"levelo://app?vid=ceabe490-1f11-4366-85ad-8996dd4944f3","ios":"levelo://app?vid=ceabe490-1f11-4366-85ad-8996dd4944f3"},"vehicle_type_id":"4","last_reported":1746498401,"current_range_meters":17600,"station_id":"ce4bgh92rcd13ifvqb40","pricing_plan_id":"cebpf4jnsgd1na2vs0mg"},{"bike_id":"46a428a1-3a45-4310-8fc1-8ac5239110b0","system_id":"levelo_inurba_marseille","lat":43.258221,"lon":5.394357,"is_reserved":false,"is_disabled":false,"rental_uris":{"android":"levelo://app?vid=46a428a1-3a45-4310-8fc1-8ac5239110b0","ios":"levelo://app?vid=46a428a1-3a45-4310-8fc1-8ac5239110b0"},"vehicle_type_id":"4","last_reported":1746498401,"current_range_meters":17600,"station_id":"ce4bhip2rcd13ifvqft0","pricing_plan_id":"cebpf4jnsgd1na2vs0mg"},{"bike_id":"13d72c90-097d-44e3-a161-c92142027aeb","system_id":"levelo_inurba_marseille","lat":43.32103,"lon":5.368,"is_reserved":false,"is_disabled":false,"rental_uris":{"android":"levelo://app?vid=13d72c90-097d-44e3-a161-c92142027aeb","ios":"levelo://app?vid=13d72c90-097d-44e3-a161-c92142027aeb"},"vehicle_type_id":"4","last_reported":1746498401,"current_range_meters":17600,"station_id":"ce4bhrh2rcd13ifvqhug","pricing_plan_id":"cebpf4jnsgd1na2vs0mg"},{"bike_id":"4bdbfa2a-ffc0-4860-819c-6326869a5a0f","system_id":"levelo_inurba_marseille","lat":43.287278,"lon":5.360895,"is_reserved":false,"is_disabled":false,"rental_uris":{"android":"levelo://app?vid=4bdbfa2a-ffc0-4860-819c-6326869a5a0f","ios":"levelo://app?vid=4bdbfa2a-ffc0-4860-819c-6326869a5a0f"},"vehicle_type_id":"4","last_reported":1746498401,"current_range_meters":18000,"station_id":"cki0cbj6b192h4jlfktg","pricing_plan_id":"cebpf4jnsgd1na2vs0mg"},{"bike_id":"bb57f667-396d-4003-ae12-13bf8f696902","system_id":"levelo_inurba_marseille","lat":43.27941,"lon":5.41071,"is_reserved":false,"is_disabled":false,"rental_uris":{"android":"levelo://app?vid=bb57f667-396d-4003-ae12-13bf8f696902","ios":"levelo://app?vid=bb57f667-396d-4003-ae12-13bf8f696902"},"vehicle_type_id":"4","last_reported":1746498401,"current_range_meters":18000,"station_id":"ce4bhnp2rcd13ifvqh0g","pricing_plan_id":"cebpf4jnsgd1na2vs0mg"},{"bike_id":"144c51af-426b-42d7-b56e-922177862b14","system_id":"levelo_inurba_marseille","lat":43.310673,"lon":5.383518,"is_reserved":false,"is_disabled":false,"rental_uris":{"android":"levelo://app?vid=144c51af-426b-42d7-b56e-922177862b14","ios":"levelo://app?vid=144c51af-426b-42d7-b56e-922177862b14"},"vehicle_type_id":"4","last_reported":1746498401,"current_range_meters":18000,"station_id":"ce4bgv92rcd13ifvqcr0","pricing_plan_id":"cebpf4jnsgd1na2vs0mg"},{"bike_id":"5188d40d-26c6-4eed-930a-0fff493932e7","system_id":"levelo_inurba_marseille","lat":43.298076,"lon":5.403943,"is_reserved":false,"is_disabled":false,"rental_uris":{"android":"levelo://app?vid=5188d40d-26c6-4eed-930a-0fff493932e7","ios":"levelo://app?vid=5188d40d-26c6-4eed-930a-0fff493932e7"},"vehicle_type_id":"4","last_reported":1746498401,"current_range_meters":18000,"station_id":"ce4bh112rcd13ifvqd90","pricing_plan_id":"cebpf4jnsgd1na2vs0mg"},{"bike_id":"25ff4de7-598e-4258-b035-b19e39066987","system_id":"levelo_inurba_marseille","lat":43.24686,"lon":5.38183,"is_reserved":false,"is_disabled":false,"rental_uris":{"android":"levelo://app?vid=25ff4de7-598e-4258-b035-b19e39066987","ios":"levelo://app?vid=25ff4de7-598e-4258-b035-b19e39066987"},"vehicle_type_id":"4","last_reported":1746498401,"current_range_meters":18000,"station_id":"ce4bhih2rcd13ifvqfr0","pricing_plan_id":"cebpf4jnsgd1na2vs0mg"},{"bike_id":"f7f685cd-3f69-4e28-b1ba-dd267fb3831d","system_id":"levelo_inurba_marseille","lat":43.28721,"lon":5.36091,"is_reserved":false,"is_disabled":false,"rental_uris":{"android":"levelo://app?vid=f7f685cd-3f69-4e28-b1ba-dd267fb3831d","ios":"levelo://app?vid=f7f685cd-3f69-4e28-b1ba-dd267fb3831d"},"vehicle_type_id":"4","last_reported":1746498401,"current_range_meters":18800,"station_id":"cki0cbj6b192h4jlfktg","pricing_plan_id":"cebpf4jnsgd1na2vs0mg"},{"bike_id":"8089a7f7-6677-45a4-9140-6ad780ae044e","system_id":"levelo_inurba_marseille","lat":43.31378,"lon":5.38531,"is_reserved":false,"is_disabled":false,"rental_uris":{"android":"levelo://app?vid=8089a7f7-6677-45a4-9140-6ad780ae044e","ios":"levelo://app?vid=8089a7f7-6677-45a4-9140-6ad780ae044e"},"vehicle_type_id":"4","last_reported":1746498401,"current_range_meters":18800,"station_id":"ce4bgt92rcd13ifvqcf0","pricing_plan_id":"cebpf4jnsgd1na2vs0mg"},{"bike_id":"d0e17230-ce14-4bbf-8173-34c1444b9704","system_id":"levelo_inurba_marseille","lat":43.30141,"lon":5.3988,"is_reserved":false,"is_disabled":true,"rental_uris":{"android":"levelo://app?vid=d0e17230-ce14-4bbf-8173-34c1444b9704","ios":"levelo://app?vid=d0e17230-ce14-4bbf-8173-34c1444b9704"},"vehicle_type_id":"4","last_reported":1746498401,"current_range_meters":18800,"station_id":"ce4bh0h2rcd13ifvqd40","pricing_plan_id":"cebpf4jnsgd1na2vs0mg"},{"bike_id":"c68c6456-dba5-40f7-8477-0cd5b17abb93","system_id":"levelo_inurba_marseille","lat":43.28684,"lon":5.37395,"is_reserved":false,"is_disabled":false,"rental_uris":{"android":"levelo://app?vid=c68c6456-dba5-40f7-8477-0cd5b17abb93","ios":"levelo://app?vid=c68c6456-dba5-40f7-8477-0cd5b17abb93"},"vehicle_type_id":"4","last_reported":1746498401,"current_range_meters":18800,"station_id":"ce4bh3p2rcd13ifvqdq0","pricing_plan_id":"cebpf4jnsgd1na2vs0mg"},{"bike_id":"88f21949-0465-4a26-9bc0-784a638d1e7a","system_id":"levelo_inurba_marseille","lat":43.29717,"lon":5.36635,"is_reserved":false,"is_disabled":false,"rental_uris":{"android":"levelo://app?vid=88f21949-0465-4a26-9bc0-784a638d1e7a","ios":"levelo://app?vid=88f21949-0465-4a26-9bc0-784a638d1e7a"},"vehicle_type_id":"4","last_reported":1746498401,"current_range_meters":18000,"station_id":"ce4bgn12rcd13ifvqbt0","pricing_plan_id":"cebpf4jnsgd1na2vs0mg"},{"bike_id":"c871eee8-0da6-4377-a846-0bf7400cb3c3","system_id":"levelo_inurba_marseille","lat":43.27818,"lon":5.40713,"is_reserved":false,"is_disabled":true,"rental_uris":{"android":"levelo://app?vid=c871eee8-0da6-4377-a846-0bf7400cb3c3","ios":"levelo://app?vid=c871eee8-0da6-4377-a846-0bf7400cb3c3"},"vehicle_type_id":"4","last_reported":1746498401,"current_range_meters":18800,"station_id":"ce4bhnh2rcd13ifvqgtg","pricing_plan_id":"cebpf4jnsgd1na2vs0mg"},{"bike_id":"6754dd71-95b8-439b-aa68-2ee1fd4c8732","system_id":"levelo_inurba_marseille","lat":43.28731,"lon":5.36115,"is_reserved":false,"is_disabled":false,"rental_uris":{"android":"levelo://app?vid=6754dd71-95b8-439b-aa68-2ee1fd4c8732","ios":"levelo://app?vid=6754dd71-95b8-439b-aa68-2ee1fd4c8732"},"vehicle_type_id":"4","last_reported":1746498401,"current_range_meters":19200,"station_id":"cki0cbj6b192h4jlfktg","pricing_plan_id":"cebpf4jnsgd1na2vs0mg"},{"bike_id":"b4bac287-3615-423a-bca2-a11fb80cb066","system_id":"levelo_inurba_marseille","lat":43.23045,"lon":5.35485,"is_reserved":false,"is_disabled":false,"rental_uris":{"android":"levelo://app?vid=b4bac287-3615-423a-bca2-a11fb80cb066","ios":"levelo://app?vid=b4bac287-3615-423a-bca2-a11fb80cb066"},"vehicle_type_id":"4","last_reported":1746498401,"current_range_meters":19200,"station_id":"cpo3342slgdg3j2ifvpg","pricing_plan_id":"cebpf4jnsgd1na2vs0mg"},{"bike_id":"2714f713-c769-4f6a-ac44-441a635e9cba","system_id":"levelo_inurba_marseille","lat":43.21614,"lon":5.34217,"is_reserved":false,"is_disabled":false,"rental_uris":{"android":"levelo://app?vid=2714f713-c769-4f6a-ac44-441a635e9cba","ios":"levelo://app?vid=2714f713-c769-4f6a-ac44-441a635e9cba"},"vehicle_type_id":"4","last_reported":1746498401,"current_range_meters":19200,"station_id":"","pricing_plan_id":"cebpf4jnsgd1na2vs0mg"},{"bike_id":"0a0d9773-2c8e-4202-915e-befc3928ea8c","system_id":"levelo_inurba_marseille","lat":43.28848,"lon":5.39326,"is_reserved":false,"is_disabled":true,"rental_uris":{"android":"levelo://app?vid=0a0d9773-2c8e-4202-915e-befc3928ea8c","ios":"levelo://app?vid=0a0d9773-2c8e-4202-915e-befc3928ea8c"},"vehicle_type_id":"4","last_reported":1746498401,"current_range_meters":19600,"station_id":"ce4bh2p2rcd13ifvqdi0","pricing_plan_id":"cebpf4jnsgd1na2vs0mg"},{"bike_id":"37cb95bf-ed56-4ab4-a156-dbc654da35df","system_id":"levelo_inurba_marseille","lat":43.259249,"lon":5.408901,"is_reserved":false,"is_disabled":true,"rental_uris":{"android":"levelo://app?vid=37cb95bf-ed56-4ab4-a156-dbc654da35df","ios":"levelo://app?vid=37cb95bf-ed56-4ab4-a156-dbc654da35df"},"vehicle_type_id":"4","last_reported":1746498401,"current_range_meters":19600,"station_id":"ce4bhm92rcd13ifvqglg","pricing_plan_id":"cebpf4jnsgd1na2vs0mg"},{"bike_id":"4fd6bfff-2fba-4479-9355-04d32eaca128","system_id":"levelo_inurba_marseille","lat":43.231914,"lon":5.355551,"is_reserved":false,"is_disabled":false,"rental_uris":{"android":"levelo://app?vid=4fd6bfff-2fba-4479-9355-04d32eaca128","ios":"levelo://app?vid=4fd6bfff-2fba-4479-9355-04d32eaca128"},"vehicle_type_id":"4","last_reported":1746498401,"current_range_meters":19600,"station_id":"ce4bhu92rcd13ifvqi70","pricing_plan_id":"cebpf4jnsgd1na2vs0mg"},{"bike_id":"881ffd31-6516-4250-b69a-6fcacc9a3445","system_id":"levelo_inurba_marseille","lat":43.30594,"lon":5.37216,"is_reserved":false,"is_disabled":false,"rental_uris":{"android":"levelo://app?vid=881ffd31-6516-4250-b69a-6fcacc9a3445","ios":"levelo://app?vid=881ffd31-6516-4250-b69a-6fcacc9a3445"},"vehicle_type_id":"4","last_reported":1746498401,"current_range_meters":19600,"station_id":"ce4bgqh2rcd13ifvqc4g","pricing_plan_id":"cebpf4jnsgd1na2vs0mg"},{"bike_id":"f23d3295-21f5-49d0-a5ec-3ef3003e866d","system_id":"levelo_inurba_marseille","lat":43.229246,"lon":5.353818,"is_reserved":false,"is_disabled":false,"rental_uris":{"android":"levelo://app?vid=f23d3295-21f5-49d0-a5ec-3ef3003e866d","ios":"levelo://app?vid=f23d3295-21f5-49d0-a5ec-3ef3003e866d"},"vehicle_type_id":"4","last_reported":1746498401,"current_range_meters":19600,"station_id":"cpo3532slgdg3j2ikp40","pricing_plan_id":"cebpf4jnsgd1na2vs0mg"},{"bike_id":"1f4687d8-3597-470c-abe1-fb528c3f01aa","system_id":"levelo_inurba_marseille","lat":43.30126,"lon":5.39876,"is_reserved":false,"is_disabled":false,"rental_uris":{"android":"levelo://app?vid=1f4687d8-3597-470c-abe1-fb528c3f01aa","ios":"levelo://app?vid=1f4687d8-3597-470c-abe1-fb528c3f01aa"},"vehicle_type_id":"4","last_reported":1746498401,"current_range_meters":20000,"station_id":"ce4bh0h2rcd13ifvqd40","pricing_plan_id":"cebpf4jnsgd1na2vs0mg"},{"bike_id":"39aa275e-d157-4bd3-b8c5-b8344765c5be","system_id":"levelo_inurba_marseille","lat":43.28729,"lon":5.36071,"is_reserved":false,"is_disabled":false,"rental_uris":{"android":"levelo://app?vid=39aa275e-d157-4bd3-b8c5-b8344765c5be","ios":"levelo://app?vid=39aa275e-d157-4bd3-b8c5-b8344765c5be"},"vehicle_type_id":"4","last_reported":1746498401,"current_range_meters":20000,"station_id":"cki0cbj6b192h4jlfktg","pricing_plan_id":"cebpf4jnsgd1na2vs0mg"},{"bike_id":"ac700e2e-c129-4f82-a3c3-f628077933a6","system_id":"levelo_inurba_marseille","lat":43.21165,"lon":5.3512,"is_reserved":false,"is_disabled":false,"rental_uris":{"android":"levelo://app?vid=ac700e2e-c129-4f82-a3c3-f628077933a6","ios":"levelo://app?vid=ac700e2e-c129-4f82-a3c3-f628077933a6"},"vehicle_type_id":"4","last_reported":1746498401,"current_range_meters":20000,"station_id":"st_cvj6sg6p6f1abm77japg","pricing_plan_id":"cebpf4jnsgd1na2vs0mg"},{"bike_id":"b4216838-733b-46cd-aae7-8693e0287a61","system_id":"levelo_inurba_marseille","lat":43.22918,"lon":5.35387,"is_reserved":false,"is_disabled":false,"rental_uris":{"android":"levelo://app?vid=b4216838-733b-46cd-aae7-8693e0287a61","ios":"levelo://app?vid=b4216838-733b-46cd-aae7-8693e0287a61"},"vehicle_type_id":"4","last_reported":1746498401,"current_range_meters":20000,"station_id":"cpo3532slgdg3j2ikp40","pricing_plan_id":"cebpf4jnsgd1na2vs0mg"},{"bike_id":"2c41ce9b-2318-4ef8-a4c8-cb5551a16620","system_id":"levelo_inurba_marseille","lat":43.32353,"lon":5.38892,"is_reserved":false,"is_disabled":false,"rental_uris":{"android":"levelo://app?vid=2c41ce9b-2318-4ef8-a4c8-cb5551a16620","ios":"levelo://app?vid=2c41ce9b-2318-4ef8-a4c8-cb5551a16620"},"vehicle_type_id":"4","last_reported":1746498401,"current_range_meters":20400,"station_id":"ce4bhqp2rcd13ifvqhog","pricing_plan_id":"cebpf4jnsgd1na2vs0mg"},{"bike_id":"8fa70930-3d89-410a-8a0d-ae58e85113d9","system_id":"levelo_inurba_marseille","lat":43.33765,"lon":5.37471,"is_reserved":false,"is_disabled":false,"rental_uris":{"android":"levelo://app?vid=8fa70930-3d89-410a-8a0d-ae58e85113d9","ios":"levelo://app?vid=8fa70930-3d89-410a-8a0d-ae58e85113d9"},"vehicle_type_id":"4","last_reported":1746498401,"current_range_meters":20800,"station_id":"","pricing_plan_id":"cebpf4jnsgd1na2vs0mg"},{"bike_id":"9898ff4b-e01f-4144-93c1-f63d10376eb9","system_id":"levelo_inurba_marseille","lat":43.279956,"lon":5.400108,"is_reserved":false,"is_disabled":false,"rental_uris":{"android":"levelo://app?vid=9898ff4b-e01f-4144-93c1-f63d10376eb9","ios":"levelo://app?vid=9898ff4b-e01f-4144-93c1-f63d10376eb9"},"vehicle_type_id":"4","last_reported":1746498401,"current_range_meters":20800,"station_id":"ce4bho92rcd13ifvqh4g","pricing_plan_id":"cebpf4jnsgd1na2vs0mg"},{"bike_id":"a3dc441c-3dd7-42dc-913a-7db783432e14","system_id":"levelo_inurba_marseille","lat":43.28618,"lon":5.37112,"is_reserved":false,"is_disabled":false,"rental_uris":{"android":"levelo://app?vid=a3dc441c-3dd7-42dc-913a-7db783432e14","ios":"levelo://app?vid=a3dc441c-3dd7-42dc-913a-7db783432e14"},"vehicle_type_id":"4","last_reported":1746498401,"current_range_meters":20800,"station_id":"ce4bht12rcd13ifvqi60","pricing_plan_id":"cebpf4jnsgd1na2vs0mg"},{"bike_id":"8e922058-240f-4ed2-b9c3-806a6a489506","system_id":"levelo_inurba_marseille","lat":43.29867,"lon":5.38918,"is_reserved":false,"is_disabled":false,"rental_uris":{"android":"levelo://app?vid=8e922058-240f-4ed2-b9c3-806a6a489506","ios":"levelo://app?vid=8e922058-240f-4ed2-b9c3-806a6a489506"},"vehicle_type_id":"4","last_reported":1746498401,"current_range_meters":20800,"station_id":"ce4bh392rcd13ifvqdl0","pricing_plan_id":"cebpf4jnsgd1na2vs0mg"},{"bike_id":"ea4762e8-256b-4c73-a917-b8c3e12612ed","system_id":"levelo_inurba_marseille","lat":43.26114,"lon":5.41473,"is_reserved":false,"is_disabled":false,"rental_uris":{"android":"levelo://app?vid=ea4762e8-256b-4c73-a917-b8c3e12612ed","ios":"levelo://app?vid=ea4762e8-256b-4c73-a917-b8c3e12612ed"},"vehicle_type_id":"4","last_reported":1746498401,"current_range_meters":20800,"station_id":"","pricing_plan_id":"cebpf4jnsgd1na2vs0mg"},{"bike_id":"2f25eff5-6c19-4e87-a4b7-84914327c4b4","system_id":"levelo_inurba_marseille","lat":43.307968,"lon":5.381672,"is_reserved":false,"is_disabled":false,"rental_uris":{"android":"levelo://app?vid=2f25eff5-6c19-4e87-a4b7-84914327c4b4","ios":"levelo://app?vid=2f25eff5-6c19-4e87-a4b7-84914327c4b4"},"vehicle_type_id":"4","last_reported":1746498401,"current_range_meters":21600,"station_id":"ce4bgt12rcd13ifvqce0","pricing_plan_id":"cebpf4jnsgd1na2vs0mg"},{"bike_id":"2fa0b816-7ec6-4882-9376-089f3a9e406c","system_id":"levelo_inurba_marseille","lat":43.33768,"lon":5.3751,"is_reserved":false,"is_disabled":false,"rental_uris":{"android":"levelo://app?vid=2fa0b816-7ec6-4882-9376-089f3a9e406c","ios":"levelo://app?vid=2fa0b816-7ec6-4882-9376-089f3a9e406c"},"vehicle_type_id":"4","last_reported":1746498401,"current_range_meters":21600,"station_id":"","pricing_plan_id":"cebpf4jnsgd1na2vs0mg"},{"bike_id":"a89ac013-20cb-4cda-84e9-144c27c22aad","system_id":"levelo_inurba_marseille","lat":43.33597,"lon":5.41031,"is_reserved":false,"is_disabled":false,"rental_uris":{"android":"levelo://app?vid=a89ac013-20cb-4cda-84e9-144c27c22aad","ios":"levelo://app?vid=a89ac013-20cb-4cda-84e9-144c27c22aad"},"vehicle_type_id":"4","last_reported":1746498401,"current_range_meters":21600,"station_id":"ce4bhqh2rcd13ifvqhmg","pricing_plan_id":"cebpf4jnsgd1na2vs0mg"},{"bike_id":"197b6bfa-4958-45f1-827f-50f81cbef7b8","system_id":"levelo_inurba_marseille","lat":43.24671,"lon":5.38162,"is_reserved":false,"is_disabled":false,"rental_uris":{"android":"levelo://app?vid=197b6bfa-4958-45f1-827f-50f81cbef7b8","ios":"levelo://app?vid=197b6bfa-4958-45f1-827f-50f81cbef7b8"},"vehicle_type_id":"4","last_reported":1746498401,"current_range_meters":22000,"station_id":"ce4bhih2rcd13ifvqfr0","pricing_plan_id":"cebpf4jnsgd1na2vs0mg"},{"bike_id":"7ea9b8bc-827d-4aed-92c9-7aeee53fcbcd","system_id":"levelo_inurba_marseille","lat":43.26206,"lon":5.40448,"is_reserved":false,"is_disabled":false,"rental_uris":{"android":"levelo://app?vid=7ea9b8bc-827d-4aed-92c9-7aeee53fcbcd","ios":"levelo://app?vid=7ea9b8bc-827d-4aed-92c9-7aeee53fcbcd"},"vehicle_type_id":"4","last_reported":1746498401,"current_range_meters":22000,"station_id":"ce4bhmh2rcd13ifvqgmg","pricing_plan_id":"cebpf4jnsgd1na2vs0mg"},{"bike_id":"08729567-1803-4a3a-b335-fdd95b127ecd","system_id":"levelo_inurba_marseille","lat":43.31179,"lon":5.38723,"is_reserved":false,"is_disabled":false,"rental_uris":{"android":"levelo://app?vid=08729567-1803-4a3a-b335-fdd95b127ecd","ios":"levelo://app?vid=08729567-1803-4a3a-b335-fdd95b127ecd"},"vehicle_type_id":"4","last_reported":1746498401,"current_range_meters":22000,"station_id":"ce4bgv12rcd13ifvqcp0","pricing_plan_id":"cebpf4jnsgd1na2vs0mg"},{"bike_id":"d912aaf0-9efd-4ef0-b1ab-763b2afabfe0","system_id":"levelo_inurba_marseille","lat":43.290601,"lon":5.371614,"is_reserved":false,"is_disabled":false,"rental_uris":{"android":"levelo://app?vid=d912aaf0-9efd-4ef0-b1ab-763b2afabfe0","ios":"levelo://app?vid=d912aaf0-9efd-4ef0-b1ab-763b2afabfe0"},"vehicle_type_id":"4","last_reported":1746498401,"current_range_meters":22000,"station_id":"ce4bh5p2rcd13ifvqe4g","pricing_plan_id":"cebpf4jnsgd1na2vs0mg"},{"bike_id":"4fd0a572-09cc-480d-b88e-e1d7dc554ab9","system_id":"levelo_inurba_marseille","lat":43.239624,"lon":5.366348,"is_reserved":false,"is_disabled":false,"rental_uris":{"android":"levelo://app?vid=4fd0a572-09cc-480d-b88e-e1d7dc554ab9","ios":"levelo://app?vid=4fd0a572-09cc-480d-b88e-e1d7dc554ab9"},"vehicle_type_id":"4","last_reported":1746498401,"current_range_meters":22000,"station_id":"ce4bhi12rcd13ifvqfp0","pricing_plan_id":"cebpf4jnsgd1na2vs0mg"},{"bike_id":"afac6972-47be-44a9-9b16-e544ef1aba9d","system_id":"levelo_inurba_marseille","lat":43.23187,"lon":5.4,"is_reserved":false,"is_disabled":false,"rental_uris":{"android":"levelo://app?vid=afac6972-47be-44a9-9b16-e544ef1aba9d","ios":"levelo://app?vid=afac6972-47be-44a9-9b16-e544ef1aba9d"},"vehicle_type_id":"4","last_reported":1746498401,"current_range_meters":22000,"station_id":"ce4bhn12rcd13ifvqgqg","pricing_plan_id":"cebpf4jnsgd1na2vs0mg"},{"bike_id":"4fa44a4d-c738-41bc-9022-213fbeae4065","system_id":"levelo_inurba_marseille","lat":43.23183,"lon":5.39993,"is_reserved":false,"is_disabled":false,"rental_uris":{"android":"levelo://app?vid=4fa44a4d-c738-41bc-9022-213fbeae4065","ios":"levelo://app?vid=4fa44a4d-c738-41bc-9022-213fbeae4065"},"vehicle_type_id":"4","last_reported":1746498401,"current_range_meters":22000,"station_id":"ce4bhn12rcd13ifvqgqg","pricing_plan_id":"cebpf4jnsgd1na2vs0mg"},{"bike_id":"3b1a86b6-0608-4c2a-8a0c-81b34e73a5c5","system_id":"levelo_inurba_marseille","lat":43.30312,"lon":5.36898,"is_reserved":false,"is_disabled":false,"rental_uris":{"android":"levelo://app?vid=3b1a86b6-0608-4c2a-8a0c-81b34e73a5c5","ios":"levelo://app?vid=3b1a86b6-0608-4c2a-8a0c-81b34e73a5c5"},"vehicle_type_id":"4","last_reported":1746498401,"current_range_meters":22000,"station_id":"ce4bgqh2rcd13ifvqc5g","pricing_plan_id":"cebpf4jnsgd1na2vs0mg"},{"bike_id":"fb1c0e5c-3aff-4a48-bb4e-0e94904bafc4","system_id":"levelo_inurba_marseille","lat":43.298564,"lon":5.362824,"is_reserved":false,"is_disabled":true,"rental_uris":{"android":"levelo://app?vid=fb1c0e5c-3aff-4a48-bb4e-0e94904bafc4","ios":"levelo://app?vid=fb1c0e5c-3aff-4a48-bb4e-0e94904bafc4"},"vehicle_type_id":"4","last_reported":1746498401,"current_range_meters":22400,"station_id":"ce4bgpp2rcd13ifvqc3g","pricing_plan_id":"cebpf4jnsgd1na2vs0mg"},{"bike_id":"8a4b30e0-b491-4f8b-b56b-65294a62c555","system_id":"levelo_inurba_marseille","lat":43.25467,"lon":5.41904,"is_reserved":false,"is_disabled":false,"rental_uris":{"android":"levelo://app?vid=8a4b30e0-b491-4f8b-b56b-65294a62c555","ios":"levelo://app?vid=8a4b30e0-b491-4f8b-b56b-65294a62c555"},"vehicle_type_id":"4","last_reported":1746498401,"current_range_meters":22400,"station_id":"","pricing_plan_id":"cebpf4jnsgd1na2vs0mg"},{"bike_id":"a0fcebb9-adb3-4214-a4cd-919fcb7c5c33","system_id":"levelo_inurba_marseille","lat":43.286193,"lon":5.351022,"is_reserved":false,"is_disabled":false,"rental_uris":{"android":"levelo://app?vid=a0fcebb9-adb3-4214-a4cd-919fcb7c5c33","ios":"levelo://app?vid=a0fcebb9-adb3-4214-a4cd-919fcb7c5c33"},"vehicle_type_id":"4","last_reported":1746498401,"current_range_meters":22400,"station_id":"ce4bhch2rcd13ifvqeug","pricing_plan_id":"cebpf4jnsgd1na2vs0mg"},{"bike_id":"1b5c9130-7e5c-4d9e-b45d-e358c3f71ba5","system_id":"levelo_inurba_marseille","lat":43.288509,"lon":5.358475,"is_reserved":false,"is_disabled":false,"rental_uris":{"android":"levelo://app?vid=1b5c9130-7e5c-4d9e-b45d-e358c3f71ba5","ios":"levelo://app?vid=1b5c9130-7e5c-4d9e-b45d-e358c3f71ba5"},"vehicle_type_id":"4","last_reported":1746498401,"current_range_meters":22400,"station_id":"ce4bhb12rcd13ifvqem0","pricing_plan_id":"cebpf4jnsgd1na2vs0mg"},{"bike_id":"4cb897d4-7593-4a4f-9952-02dc8b791be9","system_id":"levelo_inurba_marseille","lat":43.290899,"lon":5.38162,"is_reserved":false,"is_disabled":true,"rental_uris":{"android":"levelo://app?vid=4cb897d4-7593-4a4f-9952-02dc8b791be9","ios":"levelo://app?vid=4cb897d4-7593-4a4f-9952-02dc8b791be9"},"vehicle_type_id":"4","last_reported":1746498401,"current_range_meters":22800,"station_id":"ce4bh512rcd13ifvqe2g","pricing_plan_id":"cebpf4jnsgd1na2vs0mg"},{"bike_id":"d5ef6ad8-1242-44b6-9125-49309ae65236","system_id":"levelo_inurba_marseille","lat":43.30943,"lon":5.40155,"is_reserved":false,"is_disabled":false,"rental_uris":{"android":"levelo://app?vid=d5ef6ad8-1242-44b6-9125-49309ae65236","ios":"levelo://app?vid=d5ef6ad8-1242-44b6-9125-49309ae65236"},"vehicle_type_id":"4","last_reported":1746498401,"current_range_meters":22800,"station_id":"ce4bgvp2rcd13ifvqct0","pricing_plan_id":"cebpf4jnsgd1na2vs0mg"},{"bike_id":"23b77e56-02cd-4338-917c-a93e4464a727","system_id":"levelo_inurba_marseille","lat":43.286931,"lon":5.386937,"is_reserved":false,"is_disabled":true,"rental_uris":{"android":"levelo://app?vid=23b77e56-02cd-4338-917c-a93e4464a727","ios":"levelo://app?vid=23b77e56-02cd-4338-917c-a93e4464a727"},"vehicle_type_id":"4","last_reported":1746498401,"current_range_meters":22800,"station_id":"ce4bh492rcd13ifvqdug","pricing_plan_id":"cebpf4jnsgd1na2vs0mg"},{"bike_id":"a3d2e97d-6f54-441d-8409-9a610d1a0c5b","system_id":"levelo_inurba_marseille","lat":43.29866,"lon":5.36318,"is_reserved":false,"is_disabled":false,"rental_uris":{"android":"levelo://app?vid=a3d2e97d-6f54-441d-8409-9a610d1a0c5b","ios":"levelo://app?vid=a3d2e97d-6f54-441d-8409-9a610d1a0c5b"},"vehicle_type_id":"4","last_reported":1746498401,"current_range_meters":22800,"station_id":"ce4bgpp2rcd13ifvqc3g","pricing_plan_id":"cebpf4jnsgd1na2vs0mg"},{"bike_id":"249a255a-a762-4d7c-91d1-e38b413ba4f5","system_id":"levelo_inurba_marseille","lat":43.28455,"lon":5.3591,"is_reserved":false,"is_disabled":false,"rental_uris":{"android":"levelo://app?vid=249a255a-a762-4d7c-91d1-e38b413ba4f5","ios":"levelo://app?vid=249a255a-a762-4d7c-91d1-e38b413ba4f5"},"vehicle_type_id":"4","last_reported":1746498401,"current_range_meters":22800,"station_id":"ce4bhah2rcd13ifvqei0","pricing_plan_id":"cebpf4jnsgd1na2vs0mg"},{"bike_id":"722c1cb3-31f6-49fd-8369-b5e0a7a256b2","system_id":"levelo_inurba_marseille","lat":43.281039,"lon":5.378381,"is_reserved":false,"is_disabled":false,"rental_uris":{"android":"levelo://app?vid=722c1cb3-31f6-49fd-8369-b5e0a7a256b2","ios":"levelo://app?vid=722c1cb3-31f6-49fd-8369-b5e0a7a256b2"},"vehicle_type_id":"4","last_reported":1746498401,"current_range_meters":22800,"station_id":"ce4bha12rcd13ifvqee0","pricing_plan_id":"cebpf4jnsgd1na2vs0mg"},{"bike_id":"2e656d16-02e6-4eba-9b70-3abb7c377d6f","system_id":"levelo_inurba_marseille","lat":43.28471,"lon":5.35769,"is_reserved":false,"is_disabled":false,"rental_uris":{"android":"levelo://app?vid=2e656d16-02e6-4eba-9b70-3abb7c377d6f","ios":"levelo://app?vid=2e656d16-02e6-4eba-9b70-3abb7c377d6f"},"vehicle_type_id":"4","last_reported":1746498401,"current_range_meters":23200,"station_id":"","pricing_plan_id":"cebpf4jnsgd1na2vs0mg"},{"bike_id":"82c351f2-0a87-4ed5-8186-0739698298e9","system_id":"levelo_inurba_marseille","lat":43.27192,"lon":5.3649,"is_reserved":false,"is_disabled":false,"rental_uris":{"android":"levelo://app?vid=82c351f2-0a87-4ed5-8186-0739698298e9","ios":"levelo://app?vid=82c351f2-0a87-4ed5-8186-0739698298e9"},"vehicle_type_id":"4","last_reported":1746498401,"current_range_meters":23200,"station_id":"","pricing_plan_id":"cebpf4jnsgd1na2vs0mg"},{"bike_id":"620356b3-df98-4c51-b6b9-abb03536f4b2","system_id":"levelo_inurba_marseille","lat":43.27994,"lon":5.40029,"is_reserved":false,"is_disabled":false,"rental_uris":{"android":"levelo://app?vid=620356b3-df98-4c51-b6b9-abb03536f4b2","ios":"levelo://app?vid=620356b3-df98-4c51-b6b9-abb03536f4b2"},"vehicle_type_id":"4","last_reported":1746498401,"current_range_meters":23200,"station_id":"ce4bho92rcd13ifvqh4g","pricing_plan_id":"cebpf4jnsgd1na2vs0mg"},{"bike_id":"f5774a0b-ba08-4a39-beee-b3ec8dcb2483","system_id":"levelo_inurba_marseille","lat":43.23958,"lon":5.36632,"is_reserved":false,"is_disabled":false,"rental_uris":{"android":"levelo://app?vid=f5774a0b-ba08-4a39-beee-b3ec8dcb2483","ios":"levelo://app?vid=f5774a0b-ba08-4a39-beee-b3ec8dcb2483"},"vehicle_type_id":"4","last_reported":1746498401,"current_range_meters":23200,"station_id":"ce4bhi12rcd13ifvqfp0","pricing_plan_id":"cebpf4jnsgd1na2vs0mg"},{"bike_id":"1d4ad047-6a0f-405c-ba0b-262195f4889b","system_id":"levelo_inurba_marseille","lat":43.304264,"lon":5.397562,"is_reserved":false,"is_disabled":false,"rental_uris":{"android":"levelo://app?vid=1d4ad047-6a0f-405c-ba0b-262195f4889b","ios":"levelo://app?vid=1d4ad047-6a0f-405c-ba0b-262195f4889b"},"vehicle_type_id":"4","last_reported":1746498401,"current_range_meters":24000,"station_id":"ce4bh092rcd13ifvqd20","pricing_plan_id":"cebpf4jnsgd1na2vs0mg"},{"bike_id":"72be7735-ecd2-4396-bbf3-e0b752b65580","system_id":"levelo_inurba_marseille","lat":43.268084,"lon":5.40259,"is_reserved":false,"is_disabled":false,"rental_uris":{"android":"levelo://app?vid=72be7735-ecd2-4396-bbf3-e0b752b65580","ios":"levelo://app?vid=72be7735-ecd2-4396-bbf3-e0b752b65580"},"vehicle_type_id":"4","last_reported":1746498401,"current_range_meters":24000,"station_id":"ce501612rcd8frsf0b60","pricing_plan_id":"cebpf4jnsgd1na2vs0mg"},{"bike_id":"85fe12a7-92f0-41fa-ae12-56154e1eae9f","system_id":"levelo_inurba_marseille","lat":43.2816,"lon":5.42675,"is_reserved":false,"is_disabled":false,"rental_uris":{"android":"levelo://app?vid=85fe12a7-92f0-41fa-ae12-56154e1eae9f","ios":"levelo://app?vid=85fe12a7-92f0-41fa-ae12-56154e1eae9f"},"vehicle_type_id":"4","last_reported":1746498401,"current_range_meters":24000,"station_id":"ce4bhnh2rcd13ifvqgug","pricing_plan_id":"cebpf4jnsgd1na2vs0mg"},{"bike_id":"72c51981-9a26-4763-8f01-8b65c8314524","system_id":"levelo_inurba_marseille","lat":43.29631,"lon":5.40605,"is_reserved":false,"is_disabled":false,"rental_uris":{"android":"levelo://app?vid=72c51981-9a26-4763-8f01-8b65c8314524","ios":"levelo://app?vid=72c51981-9a26-4763-8f01-8b65c8314524"},"vehicle_type_id":"4","last_reported":1746498401,"current_range_meters":24400,"station_id":"ce4bh0h2rcd13ifvqd60","pricing_plan_id":"cebpf4jnsgd1na2vs0mg"},{"bike_id":"e2b2fa55-386f-4fbb-991b-cc2b8bf7afac","system_id":"levelo_inurba_marseille","lat":43.2794,"lon":5.41025,"is_reserved":false,"is_disabled":false,"rental_uris":{"android":"levelo://app?vid=e2b2fa55-386f-4fbb-991b-cc2b8bf7afac","ios":"levelo://app?vid=e2b2fa55-386f-4fbb-991b-cc2b8bf7afac"},"vehicle_type_id":"4","last_reported":1746498401,"current_range_meters":24400,"station_id":"ce4bhnp2rcd13ifvqh0g","pricing_plan_id":"cebpf4jnsgd1na2vs0mg"},{"bike_id":"ebad895e-16ab-4861-af58-e61a781cbe8d","system_id":"levelo_inurba_marseille","lat":43.2607,"lon":5.39426,"is_reserved":false,"is_disabled":false,"rental_uris":{"android":"levelo://app?vid=ebad895e-16ab-4861-af58-e61a781cbe8d","ios":"levelo://app?vid=ebad895e-16ab-4861-af58-e61a781cbe8d"},"vehicle_type_id":"4","last_reported":1746498401,"current_range_meters":24400,"station_id":"ce4bhh92rcd13ifvqfj0","pricing_plan_id":"cebpf4jnsgd1na2vs0mg"},{"bike_id":"0b3d0fc5-86da-4eb8-9b5c-e46cb3efb992","system_id":"levelo_inurba_marseille","lat":43.253911,"lon":5.418513,"is_reserved":false,"is_disabled":false,"rental_uris":{"android":"levelo://app?vid=0b3d0fc5-86da-4eb8-9b5c-e46cb3efb992","ios":"levelo://app?vid=0b3d0fc5-86da-4eb8-9b5c-e46cb3efb992"},"vehicle_type_id":"4","last_reported":1746498401,"current_range_meters":24400,"station_id":"","pricing_plan_id":"cebpf4jnsgd1na2vs0mg"},{"bike_id":"1057df73-4c4a-470d-8739-95739c87ed08","system_id":"levelo_inurba_marseille","lat":43.28836,"lon":5.39309,"is_reserved":false,"is_disabled":true,"rental_uris":{"android":"levelo://app?vid=1057df73-4c4a-470d-8739-95739c87ed08","ios":"levelo://app?vid=1057df73-4c4a-470d-8739-95739c87ed08"},"vehicle_type_id":"4","last_reported":1746498401,"current_range_meters":24400,"station_id":"ce4bh2p2rcd13ifvqdi0","pricing_plan_id":"cebpf4jnsgd1na2vs0mg"},{"bike_id":"0df3111c-fd99-4e63-915e-e7763d46bb1b","system_id":"levelo_inurba_marseille","lat":43.28501,"lon":5.37086,"is_reserved":false,"is_disabled":false,"rental_uris":{"android":"levelo://app?vid=0df3111c-fd99-4e63-915e-e7763d46bb1b","ios":"levelo://app?vid=0df3111c-fd99-4e63-915e-e7763d46bb1b"},"vehicle_type_id":"4","last_reported":1746498401,"current_range_meters":24800,"station_id":"","pricing_plan_id":"cebpf4jnsgd1na2vs0mg"},{"bike_id":"a499126d-8bc5-46d1-aede-7b24c6e9618d","system_id":"levelo_inurba_marseille","lat":43.28935,"lon":5.36637,"is_reserved":false,"is_disabled":false,"rental_uris":{"android":"levelo://app?vid=a499126d-8bc5-46d1-aede-7b24c6e9618d","ios":"levelo://app?vid=a499126d-8bc5-46d1-aede-7b24c6e9618d"},"vehicle_type_id":"4","last_reported":1746498401,"current_range_meters":24800,"station_id":"ce4bhap2rcd13ifvqek0","pricing_plan_id":"cebpf4jnsgd1na2vs0mg"},{"bike_id":"d60b5ff3-d886-4755-9de3-7142bffaad36","system_id":"levelo_inurba_marseille","lat":43.29518,"lon":5.39406,"is_reserved":false,"is_disabled":false,"rental_uris":{"android":"levelo://app?vid=d60b5ff3-d886-4755-9de3-7142bffaad36","ios":"levelo://app?vid=d60b5ff3-d886-4755-9de3-7142bffaad36"},"vehicle_type_id":"4","last_reported":1746498401,"current_range_meters":24800,"station_id":"","pricing_plan_id":"cebpf4jnsgd1na2vs0mg"},{"bike_id":"15a586ab-3bc5-4b7b-93e5-8254fdeef81c","system_id":"levelo_inurba_marseille","lat":43.32105,"lon":5.36768,"is_reserved":false,"is_disabled":false,"rental_uris":{"android":"levelo://app?vid=15a586ab-3bc5-4b7b-93e5-8254fdeef81c","ios":"levelo://app?vid=15a586ab-3bc5-4b7b-93e5-8254fdeef81c"},"vehicle_type_id":"4","last_reported":1746498401,"current_range_meters":24800,"station_id":"ce4bhrh2rcd13ifvqhug","pricing_plan_id":"cebpf4jnsgd1na2vs0mg"},{"bike_id":"988678a7-a74d-49ed-8da4-7dc8aa077ea8","system_id":"levelo_inurba_marseille","lat":43.25109,"lon":5.40336,"is_reserved":false,"is_disabled":false,"rental_uris":{"android":"levelo://app?vid=988678a7-a74d-49ed-8da4-7dc8aa077ea8","ios":"levelo://app?vid=988678a7-a74d-49ed-8da4-7dc8aa077ea8"},"vehicle_type_id":"4","last_reported":1746498401,"current_range_meters":24800,"station_id":"ce4bhlh2rcd13ifvqgig","pricing_plan_id":"cebpf4jnsgd1na2vs0mg"},{"bike_id":"fc90c17e-b47e-493f-9405-9fa6f78544be","system_id":"levelo_inurba_marseille","lat":43.31713,"lon":5.437083,"is_reserved":false,"is_disabled":false,"rental_uris":{"android":"levelo://app?vid=fc90c17e-b47e-493f-9405-9fa6f78544be","ios":"levelo://app?vid=fc90c17e-b47e-493f-9405-9fa6f78544be"},"vehicle_type_id":"4","last_reported":1746498401,"current_range_meters":24800,"station_id":"ce4bhp92rcd13ifvqhcg","pricing_plan_id":"cebpf4jnsgd1na2vs0mg"},{"bike_id":"f337ae3b-9238-4523-b038-ffc2307dcf95","system_id":"levelo_inurba_marseille","lat":43.31479,"lon":5.37308,"is_reserved":false,"is_disabled":false,"rental_uris":{"android":"levelo://app?vid=f337ae3b-9238-4523-b038-ffc2307dcf95","ios":"levelo://app?vid=f337ae3b-9238-4523-b038-ffc2307dcf95"},"vehicle_type_id":"4","last_reported":1746498401,"current_range_meters":24800,"station_id":"ce4bgt12rcd13ifvqcd0","pricing_plan_id":"cebpf4jnsgd1na2vs0mg"},{"bike_id":"438628cd-4f8c-4662-860a-ea0022681b58","system_id":"levelo_inurba_marseille","lat":43.30316,"lon":5.36856,"is_reserved":false,"is_disabled":false,"rental_uris":{"android":"levelo://app?vid=438628cd-4f8c-4662-860a-ea0022681b58","ios":"levelo://app?vid=438628cd-4f8c-4662-860a-ea0022681b58"},"vehicle_type_id":"4","last_reported":1746498401,"current_range_meters":25200,"station_id":"ce4bgqh2rcd13ifvqc5g","pricing_plan_id":"cebpf4jnsgd1na2vs0mg"},{"bike_id":"6ef711c2-d591-42d8-8a8f-fc1efabac3c1","system_id":"levelo_inurba_marseille","lat":43.29935,"lon":5.365332,"is_reserved":false,"is_disabled":false,"rental_uris":{"android":"levelo://app?vid=6ef711c2-d591-42d8-8a8f-fc1efabac3c1","ios":"levelo://app?vid=6ef711c2-d591-42d8-8a8f-fc1efabac3c1"},"vehicle_type_id":"4","last_reported":1746498401,"current_range_meters":25200,"station_id":"ce4bgm92rcd13ifvqbr0","pricing_plan_id":"cebpf4jnsgd1na2vs0mg"},{"bike_id":"56c6bb1a-8138-4c32-b394-880c4e8e1582","system_id":"levelo_inurba_marseille","lat":43.28854,"lon":5.39314,"is_reserved":false,"is_disabled":true,"rental_uris":{"android":"levelo://app?vid=56c6bb1a-8138-4c32-b394-880c4e8e1582","ios":"levelo://app?vid=56c6bb1a-8138-4c32-b394-880c4e8e1582"},"vehicle_type_id":"4","last_reported":1746498401,"current_range_meters":25200,"station_id":"ce4bh2p2rcd13ifvqdi0","pricing_plan_id":"cebpf4jnsgd1na2vs0mg"},{"bike_id":"6154d3c5-b15d-4961-a115-76188bc8d842","system_id":"levelo_inurba_marseille","lat":43.27961,"lon":5.38746,"is_reserved":false,"is_disabled":false,"rental_uris":{"android":"levelo://app?vid=6154d3c5-b15d-4961-a115-76188bc8d842","ios":"levelo://app?vid=6154d3c5-b15d-4961-a115-76188bc8d842"},"vehicle_type_id":"4","last_reported":1746498401,"current_range_meters":25200,"station_id":"ce4bhg12rcd13ifvqf80","pricing_plan_id":"cebpf4jnsgd1na2vs0mg"},{"bike_id":"062c704a-40d5-43ce-87e6-dc407d9a622e","system_id":"levelo_inurba_marseille","lat":43.28461,"lon":5.35932,"is_reserved":false,"is_disabled":false,"rental_uris":{"android":"levelo://app?vid=062c704a-40d5-43ce-87e6-dc407d9a622e","ios":"levelo://app?vid=062c704a-40d5-43ce-87e6-dc407d9a622e"},"vehicle_type_id":"4","last_reported":1746498401,"current_range_meters":25200,"station_id":"","pricing_plan_id":"cebpf4jnsgd1na2vs0mg"},{"bike_id":"60eb618b-d287-4963-8139-c94a7d23a966","system_id":"levelo_inurba_marseille","lat":43.28419,"lon":5.37522,"is_reserved":false,"is_disabled":false,"rental_uris":{"android":"levelo://app?vid=60eb618b-d287-4963-8139-c94a7d23a966","ios":"levelo://app?vid=60eb618b-d287-4963-8139-c94a7d23a966"},"vehicle_type_id":"4","last_reported":1746498401,"current_range_meters":25200,"station_id":"ce4bh412rcd13ifvqds0","pricing_plan_id":"cebpf4jnsgd1na2vs0mg"},{"bike_id":"f25529d9-01c7-416d-8936-45ebd4ac5ea3","system_id":"levelo_inurba_marseille","lat":43.29102,"lon":5.381428,"is_reserved":false,"is_disabled":true,"rental_uris":{"android":"levelo://app?vid=f25529d9-01c7-416d-8936-45ebd4ac5ea3","ios":"levelo://app?vid=f25529d9-01c7-416d-8936-45ebd4ac5ea3"},"vehicle_type_id":"4","last_reported":1746498401,"current_range_meters":25200,"station_id":"ce4bh512rcd13ifvqe2g","pricing_plan_id":"cebpf4jnsgd1na2vs0mg"},{"bike_id":"91cb3c59-479e-437f-97db-87bca3df8149","system_id":"levelo_inurba_marseille","lat":43.23178,"lon":5.3997,"is_reserved":false,"is_disabled":false,"rental_uris":{"android":"levelo://app?vid=91cb3c59-479e-437f-97db-87bca3df8149","ios":"levelo://app?vid=91cb3c59-479e-437f-97db-87bca3df8149"},"vehicle_type_id":"4","last_reported":1746498401,"current_range_meters":25200,"station_id":"ce4bhn12rcd13ifvqgqg","pricing_plan_id":"cebpf4jnsgd1na2vs0mg"},{"bike_id":"ef525ffa-5389-4ee1-815a-08ed4a2f18ed","system_id":"levelo_inurba_marseille","lat":43.28696,"lon":5.37395,"is_reserved":false,"is_disabled":false,"rental_uris":{"android":"levelo://app?vid=ef525ffa-5389-4ee1-815a-08ed4a2f18ed","ios":"levelo://app?vid=ef525ffa-5389-4ee1-815a-08ed4a2f18ed"},"vehicle_type_id":"4","last_reported":1746498401,"current_range_meters":25600,"station_id":"ce4bh3p2rcd13ifvqdq0","pricing_plan_id":"cebpf4jnsgd1na2vs0mg"},{"bike_id":"86efce73-d764-463e-8080-c05d126201bb","system_id":"levelo_inurba_marseille","lat":43.23177,"lon":5.39986,"is_reserved":false,"is_disabled":false,"rental_uris":{"android":"levelo://app?vid=86efce73-d764-463e-8080-c05d126201bb","ios":"levelo://app?vid=86efce73-d764-463e-8080-c05d126201bb"},"vehicle_type_id":"4","last_reported":1746498401,"current_range_meters":25600,"station_id":"ce4bhn12rcd13ifvqgqg","pricing_plan_id":"cebpf4jnsgd1na2vs0mg"},{"bike_id":"c5e9035a-f042-4568-8ad6-60cf2efeded6","system_id":"levelo_inurba_marseille","lat":43.292608,"lon":5.38439,"is_reserved":false,"is_disabled":false,"rental_uris":{"android":"levelo://app?vid=c5e9035a-f042-4568-8ad6-60cf2efeded6","ios":"levelo://app?vid=c5e9035a-f042-4568-8ad6-60cf2efeded6"},"vehicle_type_id":"4","last_reported":1746498401,"current_range_meters":25600,"station_id":"ce4bghh2rcd13ifvqb60","pricing_plan_id":"cebpf4jnsgd1na2vs0mg"},{"bike_id":"47ea6c46-5c8b-4d49-ba1b-c36ddb77ac5c","system_id":"levelo_inurba_marseille","lat":43.33067,"lon":5.40817,"is_reserved":false,"is_disabled":false,"rental_uris":{"android":"levelo://app?vid=47ea6c46-5c8b-4d49-ba1b-c36ddb77ac5c","ios":"levelo://app?vid=47ea6c46-5c8b-4d49-ba1b-c36ddb77ac5c"},"vehicle_type_id":"4","last_reported":1746498401,"current_range_meters":26000,"station_id":"","pricing_plan_id":"cebpf4jnsgd1na2vs0mg"},{"bike_id":"f8e38fe4-ff30-44cf-805b-b403e5d456af","system_id":"levelo_inurba_marseille","lat":43.31755,"lon":5.39028,"is_reserved":false,"is_disabled":false,"rental_uris":{"android":"levelo://app?vid=f8e38fe4-ff30-44cf-805b-b403e5d456af","ios":"levelo://app?vid=f8e38fe4-ff30-44cf-805b-b403e5d456af"},"vehicle_type_id":"4","last_reported":1746498401,"current_range_meters":26000,"station_id":"ce4bhqp2rcd13ifvqhng","pricing_plan_id":"cebpf4jnsgd1na2vs0mg"},{"bike_id":"b4582cde-29f4-4629-939a-3bbd0de18611","system_id":"levelo_inurba_marseille","lat":43.28439,"lon":5.35887,"is_reserved":false,"is_disabled":false,"rental_uris":{"android":"levelo://app?vid=b4582cde-29f4-4629-939a-3bbd0de18611","ios":"levelo://app?vid=b4582cde-29f4-4629-939a-3bbd0de18611"},"vehicle_type_id":"4","last_reported":1746498401,"current_range_meters":26000,"station_id":"ce4bhah2rcd13ifvqei0","pricing_plan_id":"cebpf4jnsgd1na2vs0mg"},{"bike_id":"f0d6e860-bae2-41d7-8598-c2308788a440","system_id":"levelo_inurba_marseille","lat":43.30928,"lon":5.40152,"is_reserved":false,"is_disabled":false,"rental_uris":{"android":"levelo://app?vid=f0d6e860-bae2-41d7-8598-c2308788a440","ios":"levelo://app?vid=f0d6e860-bae2-41d7-8598-c2308788a440"},"vehicle_type_id":"4","last_reported":1746498401,"current_range_meters":26000,"station_id":"ce4bgvp2rcd13ifvqct0","pricing_plan_id":"cebpf4jnsgd1na2vs0mg"},{"bike_id":"f7b504c4-422a-4703-a869-c236eae5080f","system_id":"levelo_inurba_marseille","lat":43.28143,"lon":5.42639,"is_reserved":false,"is_disabled":false,"rental_uris":{"android":"levelo://app?vid=f7b504c4-422a-4703-a869-c236eae5080f","ios":"levelo://app?vid=f7b504c4-422a-4703-a869-c236eae5080f"},"vehicle_type_id":"4","last_reported":1746498401,"current_range_meters":26000,"station_id":"ce4bhnh2rcd13ifvqgug","pricing_plan_id":"cebpf4jnsgd1na2vs0mg"},{"bike_id":"e1af84df-3d5c-4099-beab-8242473e39ed","system_id":"levelo_inurba_marseille","lat":43.265629,"lon":5.390052,"is_reserved":false,"is_disabled":false,"rental_uris":{"android":"levelo://app?vid=e1af84df-3d5c-4099-beab-8242473e39ed","ios":"levelo://app?vid=e1af84df-3d5c-4099-beab-8242473e39ed"},"vehicle_type_id":"4","last_reported":1746498401,"current_range_meters":26000,"station_id":"ce4bhe12rcd13ifvqf30","pricing_plan_id":"cebpf4jnsgd1na2vs0mg"},