{"last_updated":1684278390,"ttl":30,"version":"2.2","data":{"bikes":[{"bike_id":"1dc5cc95-0d6a-4301-b28f-3382667f47c4","system_id":"levelo_inurba_marseille","lat":43.313391,"lon":5.36706,"is_reserved":false,"is_disabled":false,"rental_uris":{"android":"levelo://app?vid=1dc5cc95-0d6a-4301-b28f-3382667f47c4","ios":"levelo://app?vid=1dc5cc95-0d6a-4301-b28f-3382667f47c4"},"vehicle_type_id":"4","last_reported":1684278390,"current_range_meters":28000,"station_id":"ce4bgr92rcd13ifvqc6g","pricing_plan_id":"free"},{"bike_id":"ed6929b8-c281-442f-b87b-d7b76d2dab17","system_id":"levelo_inurba_marseille","lat":43.312239,"lon":5.368562,"is_reserved":false,"is_disabled":false,"rental_uris":{"android":"levelo://app?vid=ed6929b8-c281-442f-b87b-d7b76d2dab17","ios":"levelo://app?vid=ed6929b8-c281-442f-b87b-d7b76d2dab17"},"vehicle_type_id":"4","last_reported":1684278390,"current_range_meters":20400,"station_id":"ce4bgl92rcd13ifvqbq0","pricing_plan_id":"free"},{"bike_id":"e8a55949-c755-4e11-9e90-9bf28ee947d5","system_id":"levelo_inurba_marseille","lat":43.314811,"lon":5.373103,"is_reserved":false,"is_disabled":false,"rental_uris":{"android":"levelo://app?vid=e8a55949-c755-4e11-9e90-9bf28ee947d5","ios":"levelo://app?vid=e8a55949-c755-4e11-9e90-9bf28ee947d5"},"vehicle_type_id":"4","last_reported":1684278390,"current_range_meters":29600,"station_id":"ce4bgt12rcd13ifvqcd0","pricing_plan_id":"free"},{"bike_id":"7865a5a6-1aae-4212-b70a-0110804cf589","system_id":"levelo_inurba_marseille","lat":43.314811,"lon":5.373103,"is_reserved":false,"is_disabled":false,"rental_uris":{"android":"levelo://app?vid=7865a5a6-1aae-4212-b70a-0110804cf589","ios":"levelo://app?vid=7865a5a6-1aae-4212-b70a-0110804cf589"},"vehicle_type_id":"4","last_reported":1684278390,"current_range_meters":16400,"station_id":"ce4bgt12rcd13ifvqcd0","pricing_plan_id":"free"},{"bike_id":"e2def3ce-5c7a-4166-a298-70c8ecf165ea","system_id":"levelo_inurba_marseille","lat":43.314811,"lon":5.373104,"is_reserved":false,"is_disabled":false,"rental_uris":{"android":"levelo://app?vid=e2def3ce-5c7a-4166-a298-70c8ecf165ea","ios":"levelo://app?vid=e2def3ce-5c7a-4166-a298-70c8ecf165ea"},"vehicle_type_id":"4","last_reported":1684278390,"current_range_meters":22400,"station_id":"ce4bgt12rcd13ifvqcd0","pricing_plan_id":"free"},{"bike_id":"7d15ef3d-0a20-4a06-89cd-788dcf7ed27a","system_id":"levelo_inurba_marseille","lat":43.308614,"lon":5.372098,"is_reserved":false,"is_disabled":false,"rental_uris":{"android":"levelo://app?vid=7d15ef3d-0a20-4a06-89cd-788dcf7ed27a","ios":"levelo://app?vid=7d15ef3d-0a20-4a06-89cd-788dcf7ed27a"},"vehicle_type_id":"4","last_reported":1684278390,"current_range_meters":11600,"station_id":"ce4bguh2rcd13ifvqckg","pricing_plan_id":"free"},{"bike_id":"f3d83548-0e82-4016-8525-1bddc63c4f36","system_id":"levelo_inurba_marseille","lat":43.308614,"lon":5.372098,"is_reserved":false,"is_disabled":false,"rental_uris":{"android":"levelo://app?vid=f3d83548-0e82-4016-8525-1bddc63c4f36","ios":"levelo://app?vid=f3d83548-0e82-4016-8525-1bddc63c4f36"},"vehicle_type_id":"4","last_reported":1684278390,"current_range_meters":5200,"station_id":"ce4bguh2rcd13ifvqckg","pricing_plan_id":"free"},{"bike_id":"67a93710-4ae3-45c1-8f3f-4dbe2d9a3c5b","system_id":"levelo_inurba_marseille","lat":43.308614,"lon":5.372098,"is_reserved":false,"is_disabled":false,"rental_uris":{"android":"levelo://app?vid=67a93710-4ae3-45c1-8f3f-4dbe2d9a3c5b","ios":"levelo://app?vid=67a93710-4ae3-45c1-8f3f-4dbe2d9a3c5b"},"vehicle_type_id":"4","last_reported":1684278390,"current_range_meters":800,"station_id":"ce4bguh2rcd13ifvqckg","pricing_plan_id":"free"},{"bike_id":"8f9de1f2-558b-4caf-905c-392efbd830b3","system_id":"levelo_inurba_marseille","lat":43.308614,"lon":5.372098,"is_reserved":false,"is_disabled":false,"rental_uris":{"android":"levelo://app?vid=8f9de1f2-558b-4caf-905c-392efbd830b3","ios":"levelo://app?vid=8f9de1f2-558b-4caf-905c-392efbd830b3"},"vehicle_type_id":"4","last_reported":1684278390,"current_range_meters":10000,"station_id":"ce4bguh2rcd13ifvqckg","pricing_plan_id":"free"},{"bike_id":"a9313a8c-0def-4ef8-96d3-1c18bdc85563","system_id":"levelo_inurba_marseille","lat":43.30588,"lon":5.36563,"is_reserved":false,"is_disabled":false,"rental_uris":{"android":"levelo://app?vid=a9313a8c-0def-4ef8-96d3-1c18bdc85563","ios":"levelo://app?vid=a9313a8c-0def-4ef8-96d3-1c18bdc85563"},"vehicle_type_id":"4","last_reported":1684278390,"current_range_meters":800,"station_id":"","pricing_plan_id":"free"},{"bike_id":"5107fb73-59b6-4fc2-99ed-5f6f4bd5ca3d","system_id":"levelo_inurba_marseille","lat":43.306,"lon":5.37211,"is_reserved":false,"is_disabled":false,"rental_uris":{"android":"levelo://app?vid=5107fb73-59b6-4fc2-99ed-5f6f4bd5ca3d","ios":"levelo://app?vid=5107fb73-59b6-4fc2-99ed-5f6f4bd5ca3d"},"vehicle_type_id":"4","last_reported":1684278390,"current_range_meters":0,"station_id":"ce4bgqh2rcd13ifvqc4g","pricing_plan_id":"free"},{"bike_id":"851e98ce-30ab-42c1-a57e-03a1ba0aacdd","system_id":"levelo_inurba_marseille","lat":43.30598,"lon":5.37209,"is_reserved":false,"is_disabled":false,"rental_uris":{"android":"levelo://app?vid=851e98ce-30ab-42c1-a57e-03a1ba0aacdd","ios":"levelo://app?vid=851e98ce-30ab-42c1-a57e-03a1ba0aacdd"},"vehicle_type_id":"4","last_reported":1684278390,"current_range_meters":16000,"station_id":"ce4bgqh2rcd13ifvqc4g","pricing_plan_id":"free"},{"bike_id":"8193d127-5a0a-4be4-b317-7fdf50603647","system_id":"levelo_inurba_marseille","lat":43.30594,"lon":5.37202,"is_reserved":false,"is_disabled":false,"rental_uris":{"android":"levelo://app?vid=8193d127-5a0a-4be4-b317-7fdf50603647","ios":"levelo://app?vid=8193d127-5a0a-4be4-b317-7fdf50603647"},"vehicle_type_id":"4","last_reported":1684278390,"current_range_meters":2800,"station_id":"ce4bgqh2rcd13ifvqc4g","pricing_plan_id":"free"},{"bike_id":"93c26c29-5f11-49b4-9111-17fabc56507c","system_id":"levelo_inurba_marseille","lat":43.305989,"lon":5.37225,"is_reserved":false,"is_disabled":false,"rental_uris":{"android":"levelo://app?vid=93c26c29-5f11-49b4-9111-17fabc56507c","ios":"levelo://app?vid=93c26c29-5f11-49b4-9111-17fabc56507c"},"vehicle_type_id":"4","last_reported":1684278390,"current_range_meters":29200,"station_id":"ce4bgqh2rcd13ifvqc4g","pricing_plan_id":"free"},{"bike_id":"175079fc-41e5-4c66-be25-2cfbd230e81e","system_id":"levelo_inurba_marseille","lat":43.3059,"lon":5.37209,"is_reserved":false,"is_disabled":false,"rental_uris":{"android":"levelo://app?vid=175079fc-41e5-4c66-be25-2cfbd230e81e","ios":"levelo://app?vid=175079fc-41e5-4c66-be25-2cfbd230e81e"},"vehicle_type_id":"4","last_reported":1684278390,"current_range_meters":9200,"station_id":"ce4bgqh2rcd13ifvqc4g","pricing_plan_id":"free"},{"bike_id":"c4738781-bc88-4f48-8582-cf5378cbc984","system_id":"levelo_inurba_marseille","lat":43.311125,"lon":5.377624,"is_reserved":false,"is_disabled":false,"rental_uris":{"android":"levelo://app?vid=c4738781-bc88-4f48-8582-cf5378cbc984","ios":"levelo://app?vid=c4738781-bc88-4f48-8582-cf5378cbc984"},"vehicle_type_id":"4","last_reported":1684278390,"current_range_meters":0,"station_id":"ce4bgt92rcd13ifvqcg0","pricing_plan_id":"free"},{"bike_id":"242d290c-dd32-4d21-b6a0-cbc8c4e0f561","system_id":"levelo_inurba_marseille","lat":43.317075,"lon":5.377367,"is_reserved":false,"is_disabled":false,"rental_uris":{"android":"levelo://app?vid=242d290c-dd32-4d21-b6a0-cbc8c4e0f561","ios":"levelo://app?vid=242d290c-dd32-4d21-b6a0-cbc8c4e0f561"},"vehicle_type_id":"4","last_reported":1684278390,"current_range_meters":31600,"station_id":"ce4bgth2rcd13ifvqch0","pricing_plan_id":"free"},{"bike_id":"e50451f9-1018-47e4-8998-c1834a92e137","system_id":"levelo_inurba_marseille","lat":43.317075,"lon":5.377367,"is_reserved":false,"is_disabled":false,"rental_uris":{"android":"levelo://app?vid=e50451f9-1018-47e4-8998-c1834a92e137","ios":"levelo://app?vid=e50451f9-1018-47e4-8998-c1834a92e137"},"vehicle_type_id":"4","last_reported":1684278390,"current_range_meters":29600,"station_id":"ce4bgth2rcd13ifvqch0","pricing_plan_id":"free"},{"bike_id":"638860ab-d0a8-435b-9279-db968df5f07e","system_id":"levelo_inurba_marseille","lat":43.317075,"lon":5.377367,"is_reserved":false,"is_disabled":false,"rental_uris":{"android":"levelo://app?vid=638860ab-d0a8-435b-9279-db968df5f07e","ios":"levelo://app?vid=638860ab-d0a8-435b-9279-db968df5f07e"},"vehicle_type_id":"4","last_reported":1684278390,"current_range_meters":14400,"station_id":"ce4bgth2rcd13ifvqch0","pricing_plan_id":"free"},{"bike_id":"88ad9a11-ecdd-4e22-88d2-33ec3cd11838","system_id":"levelo_inurba_marseille","lat":43.303046,"lon":5.368981,"is_reserved":false,"is_disabled":false,"rental_uris":{"android":"levelo://app?vid=88ad9a11-ecdd-4e22-88d2-33ec3cd11838","ios":"levelo://app?vid=88ad9a11-ecdd-4e22-88d2-33ec3cd11838"},"vehicle_type_id":"4","last_reported":1684278390,"current_range_meters":26400,"station_id":"ce4bgqh2rcd13ifvqc5g","pricing_plan_id":"free"},{"bike_id":"78af6f2a-0d2b-48f4-9bfe-e92715a84b5e","system_id":"levelo_inurba_marseille","lat":43.303046,"lon":5.368981,"is_reserved":false,"is_disabled":false,"rental_uris":{"android":"levelo://app?vid=78af6f2a-0d2b-48f4-9bfe-e92715a84b5e","ios":"levelo://app?vid=78af6f2a-0d2b-48f4-9bfe-e92715a84b5e"},"vehicle_type_id":"4","last_reported":1684278390,"current_range_meters":10400,"station_id":"ce4bgqh2rcd13ifvqc5g","pricing_plan_id":"free"},{"bike_id":"3d69390e-fa88-4efa-957d-ff9f72fa7556","system_id":"levelo_inurba_marseille","lat":43.303046,"lon":5.368981,"is_reserved":false,"is_disabled":false,"rental_uris":{"android":"levelo://app?vid=3d69390e-fa88-4efa-957d-ff9f72fa7556","ios":"levelo://app?vid=3d69390e-fa88-4efa-957d-ff9f72fa7556"},"vehicle_type_id":"4","last_reported":1684278390,"current_range_meters":22800,"station_id":"ce4bgqh2rcd13ifvqc5g","pricing_plan_id":"free"},{"bike_id":"506c29cb-d65f-49af-b01e-c2536ccc8070","system_id":"levelo_inurba_marseille","lat":43.315293,"lon":5.380349,"is_reserved":false,"is_disabled":false,"rental_uris":{"android":"levelo://app?vid=506c29cb-d65f-49af-b01e-c2536ccc8070","ios":"levelo://app?vid=506c29cb-d65f-49af-b01e-c2536ccc8070"},"vehicle_type_id":"4","last_reported":1684278390,"current_range_meters":21600,"station_id":"ce4bhsp2rcd13ifvqi50","pricing_plan_id":"free"},{"bike_id":"bfad8e68-bf68-4ac1-90b5-67af31950bdb","system_id":"levelo_inurba_marseille","lat":43.315289,"lon":5.380349,"is_reserved":false,"is_disabled":false,"rental_uris":{"android":"levelo://app?vid=bfad8e68-bf68-4ac1-90b5-67af31950bdb","ios":"levelo://app?vid=bfad8e68-bf68-4ac1-90b5-67af31950bdb"},"vehicle_type_id":"4","last_reported":1684278390,"current_range_meters":31200,"station_id":"ce4bhsp2rcd13ifvqi50","pricing_plan_id":"free"},{"bike_id":"60962ffd-73dd-4171-bd4f-f3eaca039878","system_id":"levelo_inurba_marseille","lat":43.301939,"lon":5.366286,"is_reserved":false,"is_disabled":false,"rental_uris":{"android":"levelo://app?vid=60962ffd-73dd-4171-bd4f-f3eaca039878","ios":"levelo://app?vid=60962ffd-73dd-4171-bd4f-f3eaca039878"},"vehicle_type_id":"4","last_reported":1684278390,"current_range_meters":15600,"station_id":"ce4bgrh2rcd13ifvqc8g","pricing_plan_id":"free"},{"bike_id":"a66c598b-40ab-4535-90fd-b14bbe643cb4","system_id":"levelo_inurba_marseille","lat":43.308012,"lon":5.381511,"is_reserved":false,"is_disabled":false,"rental_uris":{"android":"levelo://app?vid=a66c598b-40ab-4535-90fd-b14bbe643cb4","ios":"levelo://app?vid=a66c598b-40ab-4535-90fd-b14bbe643cb4"},"vehicle_type_id":"4","last_reported":1684278390,"current_range_meters":31200,"station_id":"ce4bgt12rcd13ifvqce0","pricing_plan_id":"free"},{"bike_id":"13d0c936-8236-4dc1-a20f-91fba509097b","system_id":"levelo_inurba_marseille","lat":43.308012,"lon":5.381511,"is_reserved":false,"is_disabled":false,"rental_uris":{"android":"levelo://app?vid=13d0c936-8236-4dc1-a20f-91fba509097b","ios":"levelo://app?vid=13d0c936-8236-4dc1-a20f-91fba509097b"},"vehicle_type_id":"4","last_reported":1684278390,"current_range_meters":31200,"station_id":"ce4bgt12rcd13ifvqce0","pricing_plan_id":"free"},{"bike_id":"879707f0-8b95-4955-8269-a5cb517736cc","system_id":"levelo_inurba_marseille","lat":43.308012,"lon":5.381511,"is_reserved":false,"is_disabled":false,"rental_uris":{"android":"levelo://app?vid=879707f0-8b95-4955-8269-a5cb517736cc","ios":"levelo://app?vid=879707f0-8b95-4955-8269-a5cb517736cc"},"vehicle_type_id":"4","last_reported":1684278390,"current_range_meters":31200,"station_id":"ce4bgt12rcd13ifvqce0","pricing_plan_id":"free"},{"bike_id":"ead5b0ac-2a04-4c1a-9b0d-47162d037ac0","system_id":"levelo_inurba_marseille","lat":43.308012,"lon":5.381511,"is_reserved":false,"is_disabled":false,"rental_uris":{"android":"levelo://app?vid=ead5b0ac-2a04-4c1a-9b0d-47162d037ac0","ios":"levelo://app?vid=ead5b0ac-2a04-4c1a-9b0d-47162d037ac0"},"vehicle_type_id":"4","last_reported":1684278390,"current_range_meters":28800,"station_id":"ce4bgt12rcd13ifvqce0","pricing_plan_id":"free"},{"bike_id":"ef04dfbc-7bab-45f2-9c62-d1e01d155156","system_id":"levelo_inurba_marseille","lat":43.308012,"lon":5.381511,"is_reserved":false,"is_disabled":false,"rental_uris":{"android":"levelo://app?vid=ef04dfbc-7bab-45f2-9c62-d1e01d155156","ios":"levelo://app?vid=ef04dfbc-7bab-45f2-9c62-d1e01d155156"},"vehicle_type_id":"4","last_reported":1684278390,"current_range_meters":24000,"station_id":"ce4bgt12rcd13ifvqce0","pricing_plan_id":"free"},{"bike_id":"b636dc3d-b204-4dd5-b974-a279a6a62692","system_id":"levelo_inurba_marseille","lat":43.3046,"lon":5.37906,"is_reserved":false,"is_disabled":false,"rental_uris":{"android":"levelo://app?vid=b636dc3d-b204-4dd5-b974-a279a6a62692","ios":"levelo://app?vid=b636dc3d-b204-4dd5-b974-a279a6a62692"},"vehicle_type_id":"4","last_reported":1684278390,"current_range_meters":30800,"station_id":"ce4bgup2rcd13ifvqcn0","pricing_plan_id":"free"},{"bike_id":"76eb56fe-7bc6-4f80-bd62-a484717e166f","system_id":"levelo_inurba_marseille","lat":43.319935,"lon":5.381699,"is_reserved":false,"is_disabled":false,"rental_uris":{"android":"levelo://app?vid=76eb56fe-7bc6-4f80-bd62-a484717e166f","ios":"levelo://app?vid=76eb56fe-7bc6-4f80-bd62-a484717e166f"},"vehicle_type_id":"4","last_reported":1684278390,"current_range_meters":6800,"station_id":"ce4bhr12rcd13ifvqhpg","pricing_plan_id":"free"},{"bike_id":"f25d92dc-88c1-4510-a912-e322420a5630","system_id":"levelo_inurba_marseille","lat":43.319935,"lon":5.381699,"is_reserved":false,"is_disabled":false,"rental_uris":{"android":"levelo://app?vid=f25d92dc-88c1-4510-a912-e322420a5630","ios":"levelo://app?vid=f25d92dc-88c1-4510-a912-e322420a5630"},"vehicle_type_id":"4","last_reported":1684278390,"current_range_meters":20000,"station_id":"ce4bhr12rcd13ifvqhpg","pricing_plan_id":"free"},{"bike_id":"e6f56f6f-73c6-47c2-a277-4519c9b94ed7","system_id":"levelo_inurba_marseille","lat":43.313571,"lon":5.384829,"is_reserved":false,"is_disabled":false,"rental_uris":{"android":"levelo://app?vid=e6f56f6f-73c6-47c2-a277-4519c9b94ed7","ios":"levelo://app?vid=e6f56f6f-73c6-47c2-a277-4519c9b94ed7"},"vehicle_type_id":"4","last_reported":1684278390,"current_range_meters":19200,"station_id":"ce4bgt92rcd13ifvqcf0","pricing_plan_id":"free"},{"bike_id":"34161681-d118-407a-8bcf-379167cd9ffa","system_id":"levelo_inurba_marseille","lat":43.313571,"lon":5.384829,"is_reserved":false,"is_disabled":false,"rental_uris":{"android":"levelo://app?vid=34161681-d118-407a-8bcf-379167cd9ffa","ios":"levelo://app?vid=34161681-d118-407a-8bcf-379167cd9ffa"},"vehicle_type_id":"4","last_reported":1684278390,"current_range_meters":31200,"station_id":"ce4bgt92rcd13ifvqcf0","pricing_plan_id":"free"},{"bike_id":"4a00badf-9e46-439d-8479-aecff47b0a91","system_id":"levelo_inurba_marseille","lat":43.313571,"lon":5.384829,"is_reserved":false,"is_disabled":false,"rental_uris":{"android":"levelo://app?vid=4a00badf-9e46-439d-8479-aecff47b0a91","ios":"levelo://app?vid=4a00badf-9e46-439d-8479-aecff47b0a91"},"vehicle_type_id":"4","last_reported":1684278390,"current_range_meters":29200,"station_id":"ce4bgt92rcd13ifvqcf0","pricing_plan_id":"free"},{"bike_id":"2db054cc-e01d-463b-b6ad-d948a6851911","system_id":"levelo_inurba_marseille","lat":43.313571,"lon":5.384829,"is_reserved":false,"is_disabled":false,"rental_uris":{"android":"levelo://app?vid=2db054cc-e01d-463b-b6ad-d948a6851911","ios":"levelo://app?vid=2db054cc-e01d-463b-b6ad-d948a6851911"},"vehicle_type_id":"4","last_reported":1684278390,"current_range_meters":18400,"station_id":"ce4bgt92rcd13ifvqcf0","pricing_plan_id":"free"},{"bike_id":"0c4643e9-f5f4-44aa-9247-304a47eac299","system_id":"levelo_inurba_marseille","lat":43.299222,"lon":5.365554,"is_reserved":false,"is_disabled":false,"rental_uris":{"android":"levelo://app?vid=0c4643e9-f5f4-44aa-9247-304a47eac299","ios":"levelo://app?vid=0c4643e9-f5f4-44aa-9247-304a47eac299"},"vehicle_type_id":"4","last_reported":1684278390,"current_range_meters":7200,"station_id":"ce4bgm92rcd13ifvqbr0","pricing_plan_id":"free"},{"bike_id":"3dc6c85c-b167-4108-b01d-2b253e89c278","system_id":"levelo_inurba_marseille","lat":43.305364,"lon":5.384119,"is_reserved":false,"is_disabled":false,"rental_uris":{"android":"levelo://app?vid=3dc6c85c-b167-4108-b01d-2b253e89c278","ios":"levelo://app?vid=3dc6c85c-b167-4108-b01d-2b253e89c278"},"vehicle_type_id":"4","last_reported":1684278390,"current_range_meters":1200,"station_id":"ce4bgg92rcd13ifvqb30","pricing_plan_id":"free"},{"bike_id":"3762085f-29de-483d-9ee0-54f89e7d5104","system_id":"levelo_inurba_marseille","lat":43.295194,"lon":5.39397,"is_reserved":false,"is_disabled":false,"rental_uris":{"android":"levelo://app?vid=3762085f-29de-483d-9ee0-54f89e7d5104","ios":"levelo://app?vid=3762085f-29de-483d-9ee0-54f89e7d5104"},"vehicle_type_id":"4","last_reported":1684278390,"current_range_meters":12000,"station_id":"ce4bh292rcd13ifvqdf0","pricing_plan_id":"free"},{"bike_id":"92b56205-d7e6-492e-9477-5a3a1327bd57","system_id":"levelo_inurba_marseille","lat":43.299243,"lon":5.374807,"is_reserved":false,"is_disabled":false,"rental_uris":{"android":"levelo://app?vid=92b56205-d7e6-492e-9477-5a3a1327bd57","ios":"levelo://app?vid=92b56205-d7e6-492e-9477-5a3a1327bd57"},"vehicle_type_id":"4","last_reported":1684278390,"current_range_meters":26800,"station_id":"ce4bgjh2rcd13ifvqbg0","pricing_plan_id":"free"},{"bike_id":"9187b789-b017-4f65-a9d5-ed804e94cd42","system_id":"levelo_inurba_marseille","lat":43.311722,"lon":5.387247,"is_reserved":false,"is_disabled":false,"rental_uris":{"android":"levelo://app?vid=9187b789-b017-4f65-a9d5-ed804e94cd42","ios":"levelo://app?vid=9187b789-b017-4f65-a9d5-ed804e94cd42"},"vehicle_type_id":"4","last_reported":1684278390,"current_range_meters":6400,"station_id":"ce4bgv12rcd13ifvqcp0","pricing_plan_id":"free"},{"bike_id":"4532f51d-cb1e-42b6-b052-68c4d6741ff4","system_id":"levelo_inurba_marseille","lat":43.299243,"lon":5.37481,"is_reserved":false,"is_disabled":false,"rental_uris":{"android":"levelo://app?vid=4532f51d-cb1e-42b6-b052-68c4d6741ff4","ios":"levelo://app?vid=4532f51d-cb1e-42b6-b052-68c4d6741ff4"},"vehicle_type_id":"4","last_reported":1684278390,"current_range_meters":22400,"station_id":"ce4bgjh2rcd13ifvqbg0","pricing_plan_id":"free"},{"bike_id":"6b70e7f1-b245-478f-9390-bd88ef2a00e9","system_id":"levelo_inurba_marseille","lat":43.299243,"lon":5.37481,"is_reserved":false,"is_disabled":false,"rental_uris":{"android":"levelo://app?vid=6b70e7f1-b245-478f-9390-bd88ef2a00e9","ios":"levelo://app?vid=6b70e7f1-b245-478f-9390-bd88ef2a00e9"},"vehicle_type_id":"4","last_reported":1684278390,"current_range_meters":22800,"station_id":"ce4bgjh2rcd13ifvqbg0","pricing_plan_id":"free"},{"bike_id":"adabaa8a-b8e0-472f-b288-166e8f695f39","system_id":"levelo_inurba_marseille","lat":43.311722,"lon":5.387247,"is_reserved":false,"is_disabled":false,"rental_uris":{"android":"levelo://app?vid=adabaa8a-b8e0-472f-b288-166e8f695f39","ios":"levelo://app?vid=adabaa8a-b8e0-472f-b288-166e8f695f39"},"vehicle_type_id":"4","last_reported":1684278390,"current_range_meters":0,"station_id":"ce4bgv12rcd13ifvqcp0","pricing_plan_id":"free"},{"bike_id":"1dcf4a68-cedd-4a42-8a2a-54fc20efc9a4","system_id":"levelo_inurba_marseille","lat":43.311722,"lon":5.387247,"is_reserved":false,"is_disabled":false,"rental_uris":{"android":"levelo://app?vid=1dcf4a68-cedd-4a42-8a2a-54fc20efc9a4","ios":"levelo://app?vid=1dcf4a68-cedd-4a42-8a2a-54fc20efc9a4"},"vehicle_type_id":"4","last_reported":1684278390,"current_range_meters":26000,"station_id":"ce4bgv12rcd13ifvqcp0","pricing_plan_id":"free"},{"bike_id":"7709a2f1-11c8-49fb-9521-52b142499f02","system_id":"levelo_inurba_marseille","lat":43.311722,"lon":5.387247,"is_reserved":false,"is_disabled":false,"rental_uris":{"android":"levelo://app?vid=7709a2f1-11c8-49fb-9521-52b142499f02","ios":"levelo://app?vid=7709a2f1-11c8-49fb-9521-52b142499f02"},"vehicle_type_id":"4","last_reported":1684278390,"current_range_meters":2800,"station_id":"ce4bgv12rcd13ifvqcp0","pricing_plan_id":"free"},{"bike_id":"1c22effb-f832-4d52-9f4a-f9f9c494821b","system_id":"levelo_inurba_marseille","lat":43.32825,"lon":5.36685,"is_reserved":false,"is_disabled":false,"rental_uris":{"android":"levelo://app?vid=1c22effb-f832-4d52-9f4a-f9f9c494821b","ios":"levelo://app?vid=1c22effb-f832-4d52-9f4a-f9f9c494821b"},"vehicle_type_id":"4","last_reported":1684278390,"current_range_meters":14400,"station_id":"ce4bhs92rcd13ifvqi0g","pricing_plan_id":"free"},{"bike_id":"a7fb6a73-9ebf-4b56-938e-67995ffda768","system_id":"levelo_inurba_marseille","lat":43.32826,"lon":5.36679,"is_reserved":false,"is_disabled":false,"rental_uris":{"android":"levelo://app?vid=a7fb6a73-9ebf-4b56-938e-67995ffda768","ios":"levelo://app?vid=a7fb6a73-9ebf-4b56-938e-67995ffda768"},"vehicle_type_id":"4","last_reported":1684278390,"current_range_meters":22400,"station_id":"ce4bhs92rcd13ifvqi0g","pricing_plan_id":"free"},{"bike_id":"fccfd339-db22-4277-bdd0-196f87e474ac","system_id":"levelo_inurba_marseille","lat":43.32827,"lon":5.36684,"is_reserved":false,"is_disabled":false,"rental_uris":{"android":"levelo://app?vid=fccfd339-db22-4277-bdd0-196f87e474ac","ios":"levelo://app?vid=fccfd339-db22-4277-bdd0-196f87e474ac"},"vehicle_type_id":"4","last_reported":1684278390,"current_range_meters":19200,"station_id":"ce4bhs92rcd13ifvqi0g","pricing_plan_id":"free"},{"bike_id":"63548345-b180-4d94-b6e0-92587dfa0490","system_id":"levelo_inurba_marseille","lat":43.32828,"lon":5.36688,"is_reserved":false,"is_disabled":false,"rental_uris":{"android":"levelo://app?vid=63548345-b180-4d94-b6e0-92587dfa0490","ios":"levelo://app?vid=63548345-b180-4d94-b6e0-92587dfa0490"},"vehicle_type_id":"4","last_reported":1684278390,"current_range_meters":15200,"station_id":"ce4bhs92rcd13ifvqi0g","pricing_plan_id":"free"},{"bike_id":"af236023-592e-4864-9c24-bbb73a28b972","system_id":"levelo_inurba_marseille","lat":43.32828,"lon":5.36683,"is_reserved":false,"is_disabled":false,"rental_uris":{"android":"levelo://app?vid=af236023-592e-4864-9c24-bbb73a28b972","ios":"levelo://app?vid=af236023-592e-4864-9c24-bbb73a28b972"},"vehicle_type_id":"4","last_reported":1684278390,"current_range_meters":17600,"station_id":"ce4bhs92rcd13ifvqi0g","pricing_plan_id":"free"},{"bike_id":"007905e1-2dbf-4a05-81e8-d677239bfaa7","system_id":"levelo_inurba_marseille","lat":43.3283,"lon":5.36685,"is_reserved":false,"is_disabled":false,"rental_uris":{"android":"levelo://app?vid=007905e1-2dbf-4a05-81e8-d677239bfaa7","ios":"levelo://app?vid=007905e1-2dbf-4a05-81e8-d677239bfaa7"},"vehicle_type_id":"4","last_reported":1684278390,"current_range_meters":11200,"station_id":"ce4bhs92rcd13ifvqi0g","pricing_plan_id":"free"},{"bike_id":"b05677d6-023b-4a12-a9b5-b4f94ca59a63","system_id":"levelo_inurba_marseille","lat":43.3283,"lon":5.36685,"is_reserved":false,"is_disabled":false,"rental_uris":{"android":"levelo://app?vid=b05677d6-023b-4a12-a9b5-b4f94ca59a63","ios":"levelo://app?vid=b05677d6-023b-4a12-a9b5-b4f94ca59a63"},"vehicle_type_id":"4","last_reported":1684278390,"current_range_meters":27600,"station_id":"ce4bhs92rcd13ifvqi0g","pricing_plan_id":"free"},{"bike_id":"8719dbbe-15a6-4ba2-b191-7abeb89dd924","system_id":"levelo_inurba_marseille","lat":43.328371,"lon":5.366909,"is_reserved":false,"is_disabled":false,"rental_uris":{"android":"levelo://app?vid=8719dbbe-15a6-4ba2-b191-7abeb89dd924","ios":"levelo://app?vid=8719dbbe-15a6-4ba2-b191-7abeb89dd924"},"vehicle_type_id":"4","last_reported":1684278390,"current_range_meters":18000,"station_id":"ce4bhs92rcd13ifvqi0g","pricing_plan_id":"free"},{"bike_id":"47fe55c6-fb06-44d0-b8f0-f1689ae65490","system_id":"levelo_inurba_marseille","lat":43.32831,"lon":5.36687,"is_reserved":false,"is_disabled":false,"rental_uris":{"android":"levelo://app?vid=47fe55c6-fb06-44d0-b8f0-f1689ae65490","ios":"levelo://app?vid=47fe55c6-fb06-44d0-b8f0-f1689ae65490"},"vehicle_type_id":"4","last_reported":1684278390,"current_range_meters":0,"station_id":"ce4bhs92rcd13ifvqi0g","pricing_plan_id":"free"},{"bike_id":"b7a4e082-92e4-4de1-841b-169813c8b8b1","system_id":"levelo_inurba_marseille","lat":43.32832,"lon":5.36687,"is_reserved":false,"is_disabled":false,"rental_uris":{"android":"levelo://app?vid=b7a4e082-92e4-4de1-841b-169813c8b8b1","ios":"levelo://app?vid=b7a4e082-92e4-4de1-841b-169813c8b8b1"},"vehicle_type_id":"4","last_reported":1684278390,"current_range_meters":19200,"station_id":"ce4bhs92rcd13ifvqi0g","pricing_plan_id":"free"},{"bike_id":"9bd21d6c-9aaf-4193-bb38-eb8af272920e","system_id":"levelo_inurba_marseille","lat":43.32834,"lon":5.36695,"is_reserved":false,"is_disabled":false,"rental_uris":{"android":"levelo://app?vid=9bd21d6c-9aaf-4193-bb38-eb8af272920e","ios":"levelo://app?vid=9bd21d6c-9aaf-4193-bb38-eb8af272920e"},"vehicle_type_id":"4","last_reported":1684278390,"current_range_meters":20000,"station_id":"ce4bhs92rcd13ifvqi0g","pricing_plan_id":"free"},{"bike_id":"71a7cd51-c98e-4b63-902f-c2f5a808a065","system_id":"levelo_inurba_marseille","lat":43.32835,"lon":5.36688,"is_reserved":false,"is_disabled":false,"rental_uris":{"android":"levelo://app?vid=71a7cd51-c98e-4b63-902f-c2f5a808a065","ios":"levelo://app?vid=71a7cd51-c98e-4b63-902f-c2f5a808a065"},"vehicle_type_id":"4","last_reported":1684278390,"current_range_meters":14400,"station_id":"ce4bhs92rcd13ifvqi0g","pricing_plan_id":"free"},{"bike_id":"4b2b17fa-2df8-4b46-a001-fd813fa5706e","system_id":"levelo_inurba_marseille","lat":43.29704,"lon":5.36604,"is_reserved":false,"is_disabled":false,"rental_uris":{"android":"levelo://app?vid=4b2b17fa-2df8-4b46-a001-fd813fa5706e","ios":"levelo://app?vid=4b2b17fa-2df8-4b46-a001-fd813fa5706e"},"vehicle_type_id":"4","last_reported":1684278390,"current_range_meters":5200,"station_id":"","pricing_plan_id":"free"},{"bike_id":"d5812067-5c46-4f21-abd9-3bf16ec86ad8","system_id":"levelo_inurba_marseille","lat":43.2968,"lon":5.37291,"is_reserved":false,"is_disabled":false,"rental_uris":{"android":"levelo://app?vid=d5812067-5c46-4f21-abd9-3bf16ec86ad8","ios":"levelo://app?vid=d5812067-5c46-4f21-abd9-3bf16ec86ad8"},"vehicle_type_id":"4","last_reported":1684278390,"current_range_meters":29600,"station_id":"ce4bgk12rcd13ifvqbj0","pricing_plan_id":"free"},{"bike_id":"930d23b9-d9c9-4e25-b207-9d10bc106721","system_id":"levelo_inurba_marseille","lat":43.296131,"lon":5.370791,"is_reserved":false,"is_disabled":false,"rental_uris":{"android":"levelo://app?vid=930d23b9-d9c9-4e25-b207-9d10bc106721","ios":"levelo://app?vid=930d23b9-d9c9-4e25-b207-9d10bc106721"},"vehicle_type_id":"4","last_reported":1684278390,"current_range_meters":20000,"station_id":"ce4bgnh2rcd13ifvqc0g","pricing_plan_id":"free"},{"bike_id":"7f413739-570d-4616-a6d7-2a53f2410459","system_id":"levelo_inurba_marseille","lat":43.29905,"lon":5.38133,"is_reserved":false,"is_disabled":false,"rental_uris":{"android":"levelo://app?vid=7f413739-570d-4616-a6d7-2a53f2410459","ios":"levelo://app?vid=7f413739-570d-4616-a6d7-2a53f2410459"},"vehicle_type_id":"4","last_reported":1684278390,"current_range_meters":31200,"station_id":"ce4bgj12rcd13ifvqbc0","pricing_plan_id":"free"},{"bike_id":"d2a7fcc4-156a-4f71-83a3-01d74db66f9a","system_id":"levelo_inurba_marseille","lat":43.299028,"lon":5.381509,"is_reserved":false,"is_disabled":false,"rental_uris":{"android":"levelo://app?vid=d2a7fcc4-156a-4f71-83a3-01d74db66f9a","ios":"levelo://app?vid=d2a7fcc4-156a-4f71-83a3-01d74db66f9a"},"vehicle_type_id":"4","last_reported":1684278390,"current_range_meters":26800,"station_id":"ce4bgj12rcd13ifvqbc0","pricing_plan_id":"free"},{"bike_id":"de25e855-6341-4cb0-93b7-0e7bbf919f8b","system_id":"levelo_inurba_marseille","lat":43.299028,"lon":5.381509,"is_reserved":false,"is_disabled":false,"rental_uris":{"android":"levelo://app?vid=de25e855-6341-4cb0-93b7-0e7bbf919f8b","ios":"levelo://app?vid=de25e855-6341-4cb0-93b7-0e7bbf919f8b"},"vehicle_type_id":"4","last_reported":1684278390,"current_range_meters":27600,"station_id":"ce4bgj12rcd13ifvqbc0","pricing_plan_id":"free"},{"bike_id":"e44103c0-2ceb-4f8a-97db-3e5fe53a7808","system_id":"levelo_inurba_marseille","lat":43.29899,"lon":5.38141,"is_reserved":false,"is_disabled":false,"rental_uris":{"android":"levelo://app?vid=e44103c0-2ceb-4f8a-97db-3e5fe53a7808","ios":"levelo://app?vid=e44103c0-2ceb-4f8a-97db-3e5fe53a7808"},"vehicle_type_id":"4","last_reported":1684278390,"current_range_meters":25600,"station_id":"ce4bgj12rcd13ifvqbc0","pricing_plan_id":"free"},{"bike_id":"1aa397d4-629d-4330-846b-5bb9dd6f6906","system_id":"levelo_inurba_marseille","lat":43.296935,"lon":5.376544,"is_reserved":false,"is_disabled":false,"rental_uris":{"android":"levelo://app?vid=1aa397d4-629d-4330-846b-5bb9dd6f6906","ios":"levelo://app?vid=1aa397d4-629d-4330-846b-5bb9dd6f6906"},"vehicle_type_id":"4","last_reported":1684278390,"current_range_meters":24000,"station_id":"ce4bgkh2rcd13ifvqbl0","pricing_plan_id":"free"},{"bike_id":"33f89043-a631-41ed-bb1f-6290fc75fc06","system_id":"levelo_inurba_marseille","lat":43.309589,"lon":5.390258,"is_reserved":false,"is_disabled":false,"rental_uris":{"android":"levelo://app?vid=33f89043-a631-41ed-bb1f-6290fc75fc06","ios":"levelo://app?vid=33f89043-a631-41ed-bb1f-6290fc75fc06"},"vehicle_type_id":"4","last_reported":1684278390,"current_range_meters":10400,"station_id":"ce4bgup2rcd13ifvqco0","pricing_plan_id":"free"},{"bike_id":"a7d7a33c-6c3d-4676-a3eb-46e884e1b48e","system_id":"levelo_inurba_marseille","lat":43.309589,"lon":5.390258,"is_reserved":false,"is_disabled":false,"rental_uris":{"android":"levelo://app?vid=a7d7a33c-6c3d-4676-a3eb-46e884e1b48e","ios":"levelo://app?vid=a7d7a33c-6c3d-4676-a3eb-46e884e1b48e"},"vehicle_type_id":"4","last_reported":1684278390,"current_range_meters":14000,"station_id":"ce4bgup2rcd13ifvqco0","pricing_plan_id":"free"},{"bike_id":"4d964d81-9163-484f-b324-17194ad50d14","system_id":"levelo_inurba_marseille","lat":43.317557,"lon":5.390173,"is_reserved":false,"is_disabled":false,"rental_uris":{"android":"levelo://app?vid=4d964d81-9163-484f-b324-17194ad50d14","ios":"levelo://app?vid=4d964d81-9163-484f-b324-17194ad50d14"},"vehicle_type_id":"4","last_reported":1684278390,"current_range_meters":12400,"station_id":"ce4bhqp2rcd13ifvqhng","pricing_plan_id":"free"},{"bike_id":"be1d4fb5-27a9-440a-a478-4467bb1321e9","system_id":"levelo_inurba_marseille","lat":43.31753,"lon":5.39023,"is_reserved":false,"is_disabled":false,"rental_uris":{"android":"levelo://app?vid=be1d4fb5-27a9-440a-a478-4467bb1321e9","ios":"levelo://app?vid=be1d4fb5-27a9-440a-a478-4467bb1321e9"},"vehicle_type_id":"4","last_reported":1684278390,"current_range_meters":22400,"station_id":"ce4bhqp2rcd13ifvqhng","pricing_plan_id":"free"},{"bike_id":"4667a10f-2b36-47be-a6fe-8c6febeec11a","system_id":"levelo_inurba_marseille","lat":43.298063,"lon":5.380884,"is_reserved":false,"is_disabled":false,"rental_uris":{"android":"levelo://app?vid=4667a10f-2b36-47be-a6fe-8c6febeec11a","ios":"levelo://app?vid=4667a10f-2b36-47be-a6fe-8c6febeec11a"},"vehicle_type_id":"4","last_reported":1684278390,"current_range_meters":20400,"station_id":"","pricing_plan_id":"free"},{"bike_id":"d1678f15-f362-443d-a6ad-a4a59fd4267e","system_id":"levelo_inurba_marseille","lat":43.298037,"lon":5.381066,"is_reserved":false,"is_disabled":false,"rental_uris":{"android":"levelo://app?vid=d1678f15-f362-443d-a6ad-a4a59fd4267e","ios":"levelo://app?vid=d1678f15-f362-443d-a6ad-a4a59fd4267e"},"vehicle_type_id":"4","last_reported":1684278390,"current_range_meters":0,"station_id":"ce4bgip2rcd13ifvqbb0","pricing_plan_id":"free"},{"bike_id":"08a215a7-4b64-4c77-9c58-4f6c5f8e1a23","system_id":"levelo_inurba_marseille","lat":43.304274,"lon":5.388873,"is_reserved":false,"is_disabled":false,"rental_uris":{"android":"levelo://app?vid=08a215a7-4b64-4c77-9c58-4f6c5f8e1a23","ios":"levelo://app?vid=08a215a7-4b64-4c77-9c58-4f6c5f8e1a23"},"vehicle_type_id":"4","last_reported":1684278390,"current_range_meters":30800,"station_id":"ce4bgk12rcd13ifvqbi0","pricing_plan_id":"free"},{"bike_id":"1524275a-2d8d-484b-8a99-308fa9cdeaf5","system_id":"levelo_inurba_marseille","lat":43.304274,"lon":5.388873,"is_reserved":false,"is_disabled":false,"rental_uris":{"android":"levelo://app?vid=1524275a-2d8d-484b-8a99-308fa9cdeaf5","ios":"levelo://app?vid=1524275a-2d8d-484b-8a99-308fa9cdeaf5"},"vehicle_type_id":"4","last_reported":1684278390,"current_range_meters":24400,"station_id":"ce4bgk12rcd13ifvqbi0","pricing_plan_id":"free"},{"bike_id":"04f3dcd0-dcfa-4315-9b12-c157d67c4b4a","system_id":"levelo_inurba_marseille","lat":43.304274,"lon":5.388873,"is_reserved":false,"is_disabled":false,"rental_uris":{"android":"levelo://app?vid=04f3dcd0-dcfa-4315-9b12-c157d67c4b4a","ios":"levelo://app?vid=04f3dcd0-dcfa-4315-9b12-c157d67c4b4a"},"vehicle_type_id":"4","last_reported":1684278390,"current_range_meters":31200,"station_id":"ce4bgk12rcd13ifvqbi0","pricing_plan_id":"free"},{"bike_id":"3014c0dd-4c72-4927-99f0-70ea8f9c9c7d","system_id":"levelo_inurba_marseille","lat":43.304274,"lon":5.388873,"is_reserved":false,"is_disabled":false,"rental_uris":{"android":"levelo://app?vid=3014c0dd-4c72-4927-99f0-70ea8f9c9c7d","ios":"levelo://app?vid=3014c0dd-4c72-4927-99f0-70ea8f9c9c7d"},"vehicle_type_id":"4","last_reported":1684278390,"current_range_meters":30400,"station_id":"ce4bgk12rcd13ifvqbi0","pricing_plan_id":"free"},{"bike_id":"89092b0c-cb29-445f-a422-721dbee5f072","system_id":"levelo_inurba_marseille","lat":43.299707,"lon":5.384859,"is_reserved":false,"is_disabled":false,"rental_uris":{"android":"levelo://app?vid=89092b0c-cb29-445f-a422-721dbee5f072","ios":"levelo://app?vid=89092b0c-cb29-445f-a422-721dbee5f072"},"vehicle_type_id":"4","last_reported":1684278390,"current_range_meters":24000,"station_id":"ce4bgj92rcd13ifvqbd0","pricing_plan_id":"free"},{"bike_id":"b479a370-b874-457c-b6c1-157697c27e3b","system_id":"levelo_inurba_marseille","lat":43.32363,"lon":5.38881,"is_reserved":false,"is_disabled":false,"rental_uris":{"android":"levelo://app?vid=b479a370-b874-457c-b6c1-157697c27e3b","ios":"levelo://app?vid=b479a370-b874-457c-b6c1-157697c27e3b"},"vehicle_type_id":"4","last_reported":1684278390,"current_range_meters":18800,"station_id":"","pricing_plan_id":"free"},{"bike_id":"1e6932a1-e66d-487b-9cd7-03bebc555f1a","system_id":"levelo_inurba_marseille","lat":43.32368,"lon":5.38878,"is_reserved":false,"is_disabled":false,"rental_uris":{"android":"levelo://app?vid=1e6932a1-e66d-487b-9cd7-03bebc555f1a","ios":"levelo://app?vid=1e6932a1-e66d-487b-9cd7-03bebc555f1a"},"vehicle_type_id":"4","last_reported":1684278390,"current_range_meters":26400,"station_id":"","pricing_plan_id":"free"},{"bike_id":"b216b1cb-9e0f-4962-9ab4-392a32ee28b7","system_id":"levelo_inurba_marseille","lat":43.32361,"lon":5.38885,"is_reserved":false,"is_disabled":false,"rental_uris":{"android":"levelo://app?vid=b216b1cb-9e0f-4962-9ab4-392a32ee28b7","ios":"levelo://app?vid=b216b1cb-9e0f-4962-9ab4-392a32ee28b7"},"vehicle_type_id":"4","last_reported":1684278390,"current_range_meters":13600,"station_id":"","pricing_plan_id":"free"},{"bike_id":"92247963-69d3-47d4-a7ed-1573307992da","system_id":"levelo_inurba_marseille","lat":43.32364,"lon":5.38883,"is_reserved":false,"is_disabled":false,"rental_uris":{"android":"levelo://app?vid=92247963-69d3-47d4-a7ed-1573307992da","ios":"levelo://app?vid=92247963-69d3-47d4-a7ed-1573307992da"},"vehicle_type_id":"4","last_reported":1684278390,"current_range_meters":27200,"station_id":"","pricing_plan_id":"free"},{"bike_id":"f61f3dc2-7c2d-472b-aabd-5e2caf08ffa6","system_id":"levelo_inurba_marseille","lat":43.32365,"lon":5.38883,"is_reserved":false,"is_disabled":false,"rental_uris":{"android":"levelo://app?vid=f61f3dc2-7c2d-472b-aabd-5e2caf08ffa6","ios":"levelo://app?vid=f61f3dc2-7c2d-472b-aabd-5e2caf08ffa6"},"vehicle_type_id":"4","last_reported":1684278390,"current_range_meters":28400,"station_id":"","pricing_plan_id":"free"},{"bike_id":"9f93f2ed-0a03-4299-8e4a-af4fb439f8e3","system_id":"levelo_inurba_marseille","lat":43.32359,"lon":5.38889,"is_reserved":false,"is_disabled":false,"rental_uris":{"android":"levelo://app?vid=9f93f2ed-0a03-4299-8e4a-af4fb439f8e3","ios":"levelo://app?vid=9f93f2ed-0a03-4299-8e4a-af4fb439f8e3"},"vehicle_type_id":"4","last_reported":1684278390,"current_range_meters":12400,"station_id":"","pricing_plan_id":"free"},{"bike_id":"428fa209-34f8-4e13-b52b-581371ee1ce2","system_id":"levelo_inurba_marseille","lat":43.32367,"lon":5.38882,"is_reserved":false,"is_disabled":false,"rental_uris":{"android":"levelo://app?vid=428fa209-34f8-4e13-b52b-581371ee1ce2","ios":"levelo://app?vid=428fa209-34f8-4e13-b52b-581371ee1ce2"},"vehicle_type_id":"4","last_reported":1684278390,"current_range_meters":30800,"station_id":"","pricing_plan_id":"free"},{"bike_id":"72bc1f58-74ea-4c5a-9e9b-71dca2c4e33d","system_id":"levelo_inurba_marseille","lat":43.32363,"lon":5.38886,"is_reserved":false,"is_disabled":false,"rental_uris":{"android":"levelo://app?vid=72bc1f58-74ea-4c5a-9e9b-71dca2c4e33d","ios":"levelo://app?vid=72bc1f58-74ea-4c5a-9e9b-71dca2c4e33d"},"vehicle_type_id":"4","last_reported":1684278390,"current_range_meters":10400,"station_id":"","pricing_plan_id":"free"},{"bike_id":"a8ffe53b-e215-41d0-bc77-cb85f09f6350","system_id":"levelo_inurba_marseille","lat":43.32362,"lon":5.38887,"is_reserved":false,"is_disabled":false,"rental_uris":{"android":"levelo://app?vid=a8ffe53b-e215-41d0-bc77-cb85f09f6350","ios":"levelo://app?vid=a8ffe53b-e215-41d0-bc77-cb85f09f6350"},"vehicle_type_id":"4","last_reported":1684278390,"current_range_meters":2000,"station_id":"","pricing_plan_id":"free"},{"bike_id":"89ac19bd-324e-4fec-aaec-38f56a92ebd4","system_id":"levelo_inurba_marseille","lat":43.32367,"lon":5.38883,"is_reserved":false,"is_disabled":false,"rental_uris":{"android":"levelo://app?vid=89ac19bd-324e-4fec-aaec-38f56a92ebd4","ios":"levelo://app?vid=89ac19bd-324e-4fec-aaec-38f56a92ebd4"},"vehicle_type_id":"4","last_reported":1684278390,"current_range_meters":18000,"station_id":"","pricing_plan_id":"free"},{"bike_id":"e028e3e0-97f1-42df-b9b7-9d103a2b183d","system_id":"levelo_inurba_marseille","lat":43.32369,"lon":5.38886,"is_reserved":false,"is_disabled":false,"rental_uris":{"android":"levelo://app?vid=e028e3e0-97f1-42df-b9b7-9d103a2b183d","ios":"levelo://app?vid=e028e3e0-97f1-42df-b9b7-9d103a2b183d"},"vehicle_type_id":"4","last_reported":1684278390,"current_range_meters":22400,"station_id":"","pricing_plan_id":"free"},{"bike_id":"c167c45c-b2bf-49ae-9617-e2918fba1ee4","system_id":"levelo_inurba_marseille","lat":43.305994,"lon":5.393687,"is_reserved":false,"is_disabled":false,"rental_uris":{"android":"levelo://app?vid=c167c45c-b2bf-49ae-9617-e2918fba1ee4","ios":"levelo://app?vid=c167c45c-b2bf-49ae-9617-e2918fba1ee4"},"vehicle_type_id":"4","last_reported":1684278390,"current_range_meters":31200,"station_id":"ce4bh0p2rcd13ifvqd80","pricing_plan_id":"free"},{"bike_id":"24f2436a-82c8-43f6-b45d-af7fdda7a79e","system_id":"levelo_inurba_marseille","lat":43.305994,"lon":5.393687,"is_reserved":false,"is_disabled":false,"rental_uris":{"android":"levelo://app?vid=24f2436a-82c8-43f6-b45d-af7fdda7a79e","ios":"levelo://app?vid=24f2436a-82c8-43f6-b45d-af7fdda7a79e"},"vehicle_type_id":"4","last_reported":1684278390,"current_range_meters":16000,"station_id":"ce4bh0p2rcd13ifvqd80","pricing_plan_id":"free"},{"bike_id":"3f94be6d-692c-4f8f-9866-ee5b06bcdd1b","system_id":"levelo_inurba_marseille","lat":43.305994,"lon":5.393687,"is_reserved":false,"is_disabled":false,"rental_uris":{"android":"levelo://app?vid=3f94be6d-692c-4f8f-9866-ee5b06bcdd1b","ios":"levelo://app?vid=3f94be6d-692c-4f8f-9866-ee5b06bcdd1b"},"vehicle_type_id":"4","last_reported":1684278390,"current_range_meters":10000,"station_id":"ce4bh0p2rcd13ifvqd80","pricing_plan_id":"free"},{"bike_id":"165c784b-c4e5-42f2-8be8-2b9ccb1bfc33","system_id":"levelo_inurba_marseille","lat":43.305994,"lon":5.393687,"is_reserved":false,"is_disabled":false,"rental_uris":{"android":"levelo://app?vid=165c784b-c4e5-42f2-8be8-2b9ccb1bfc33","ios":"levelo://app?vid=165c784b-c4e5-42f2-8be8-2b9ccb1bfc33"},"vehicle_type_id":"4","last_reported":1684278390,"current_range_meters":0,"station_id":"ce4bh0p2rcd13ifvqd80","pricing_plan_id":"free"},{"bike_id":"79a3914a-cac7-49c0-a872-73ec9ab052a4","system_id":"levelo_inurba_marseille","lat":43.305994,"lon":5.393687,"is_reserved":false,"is_disabled":false,"rental_uris":{"android":"levelo://app?vid=79a3914a-cac7-49c0-a872-73ec9ab052a4","ios":"levelo://app?vid=79a3914a-cac7-49c0-a872-73ec9ab052a4"},"vehicle_type_id":"4","last_reported":1684278390,"current_range_meters":17200,"station_id":"ce4bh0p2rcd13ifvqd80","pricing_plan_id":"free"},{"bike_id":"f792a7a1-0712-47ac-b391-cf6cfcd9d5ed","system_id":"levelo_inurba_marseille","lat":43.305994,"lon":5.393687,"is_reserved":false,"is_disabled":false,"rental_uris":{"android":"levelo://app?vid=f792a7a1-0712-47ac-b391-cf6cfcd9d5ed","ios":"levelo://app?vid=f792a7a1-0712-47ac-b391-cf6cfcd9d5ed"},"vehicle_type_id":"4","last_reported":1684278390,"current_range_meters":15600,"station_id":"ce4bh0p2rcd13ifvqd80","pricing_plan_id":"free"},{"bike_id":"dfea117e-3df6-4d43-9866-5c1a3d5fd090","system_id":"levelo_inurba_marseille","lat":43.302992,"lon":5.392136,"is_reserved":false,"is_disabled":false,"rental_uris":{"android":"levelo://app?vid=dfea117e-3df6-4d43-9866-5c1a3d5fd090","ios":"levelo://app?vid=dfea117e-3df6-4d43-9866-5c1a3d5fd090"},"vehicle_type_id":"4","last_reported":1684278390,"current_range_meters":31200,"station_id":"ce4bgkh2rcd13ifvqbk0","pricing_plan_id":"free"},{"bike_id":"5e108920-e9ae-46cd-8684-8d5e741bcb0c","system_id":"levelo_inurba_marseille","lat":43.302992,"lon":5.392136,"is_reserved":false,"is_disabled":false,"rental_uris":{"android":"levelo://app?vid=5e108920-e9ae-46cd-8684-8d5e741bcb0c","ios":"levelo://app?vid=5e108920-e9ae-46cd-8684-8d5e741bcb0c"},"vehicle_type_id":"4","last_reported":1684278390,"current_range_meters":27200,"station_id":"ce4bgkh2rcd13ifvqbk0","pricing_plan_id":"free"},{"bike_id":"4ef945b6-b0a8-4ade-89ac-0226f9d960ae","system_id":"levelo_inurba_marseille","lat":43.30296,"lon":5.39214,"is_reserved":false,"is_disabled":false,"rental_uris":{"android":"levelo://app?vid=4ef945b6-b0a8-4ade-89ac-0226f9d960ae","ios":"levelo://app?vid=4ef945b6-b0a8-4ade-89ac-0226f9d960ae"},"vehicle_type_id":"4","last_reported":1684278390,"current_range_meters":27600,"station_id":"ce4bgkh2rcd13ifvqbk0","pricing_plan_id":"free"},{"bike_id":"6ac29fd5-38d7-4e17-8277-8898bd1168b5","system_id":"levelo_inurba_marseille","lat":43.2936,"lon":5.37835,"is_reserved":false,"is_disabled":false,"rental_uris":{"android":"levelo://app?vid=6ac29fd5-38d7-4e17-8277-8898bd1168b5","ios":"levelo://app?vid=6ac29fd5-38d7-4e17-8277-8898bd1168b5"},"vehicle_type_id":"4","last_reported":1684278390,"current_range_meters":26000,"station_id":"ce4bgjh2rcd13ifvqbf0","pricing_plan_id":"free"},{"bike_id":"9c83d480-b8e1-4430-bd3a-4bd8b477444e","system_id":"levelo_inurba_marseille","lat":43.30294,"lon":5.39215,"is_reserved":false,"is_disabled":false,"rental_uris":{"android":"levelo://app?vid=9c83d480-b8e1-4430-bd3a-4bd8b477444e","ios":"levelo://app?vid=9c83d480-b8e1-4430-bd3a-4bd8b477444e"},"vehicle_type_id":"4","last_reported":1684278390,"current_range_meters":25200,"station_id":"","pricing_plan_id":"free"},{"bike_id":"9e09ca58-4c76-448e-bcdd-801fbbdfbc02","system_id":"levelo_inurba_marseille","lat":43.300852,"lon":5.390859,"is_reserved":false,"is_disabled":false,"rental_uris":{"android":"levelo://app?vid=9e09ca58-4c76-448e-bcdd-801fbbdfbc02","ios":"levelo://app?vid=9e09ca58-4c76-448e-bcdd-801fbbdfbc02"},"vehicle_type_id":"4","last_reported":1684278390,"current_range_meters":12800,"station_id":"ce4bh192rcd13ifvqdb0","pricing_plan_id":"free"},{"bike_id":"bc43f24d-e2cf-425e-985a-c794f2e4f358","system_id":"levelo_inurba_marseille","lat":43.29213,"lon":5.36059,"is_reserved":false,"is_disabled":false,"rental_uris":{"android":"levelo://app?vid=bc43f24d-e2cf-425e-985a-c794f2e4f358","ios":"levelo://app?vid=bc43f24d-e2cf-425e-985a-c794f2e4f358"},"vehicle_type_id":"4","last_reported":1684278390,"current_range_meters":18000,"station_id":"","pricing_plan_id":"free"},{"bike_id":"360cd899-704d-4f5e-a983-d2ceed61f3d5","system_id":"levelo_inurba_marseille","lat":43.29212,"lon":5.36064,"is_reserved":false,"is_disabled":false,"rental_uris":{"android":"levelo://app?vid=360cd899-704d-4f5e-a983-d2ceed61f3d5","ios":"levelo://app?vid=360cd899-704d-4f5e-a983-d2ceed61f3d5"},"vehicle_type_id":"4","last_reported":1684278390,"current_range_meters":6400,"station_id":"","pricing_plan_id":"free"},{"bike_id":"007e2fb4-59d7-4fc2-8a68-8d3fe84402d8","system_id":"levelo_inurba_marseille","lat":43.298764,"lon":5.388973,"is_reserved":false,"is_disabled":false,"rental_uris":{"android":"levelo://app?vid=007e2fb4-59d7-4fc2-8a68-8d3fe84402d8","ios":"levelo://app?vid=007e2fb4-59d7-4fc2-8a68-8d3fe84402d8"},"vehicle_type_id":"4","last_reported":1684278390,"current_range_meters":3600,"station_id":"ce4bh392rcd13ifvqdl0","pricing_plan_id":"free"},{"bike_id":"6906b89f-36e4-4e78-a16c-9d86e72cf665","system_id":"levelo_inurba_marseille","lat":43.298764,"lon":5.388973,"is_reserved":false,"is_disabled":false,"rental_uris":{"android":"levelo://app?vid=6906b89f-36e4-4e78-a16c-9d86e72cf665","ios":"levelo://app?vid=6906b89f-36e4-4e78-a16c-9d86e72cf665"},"vehicle_type_id":"4","last_reported":1684278390,"current_range_meters":16000,"station_id":"ce4bh392rcd13ifvqdl0","pricing_plan_id":"free"},{"bike_id":"b64be0f6-8a2c-4bd6-ac64-29a47338d27a","system_id":"levelo_inurba_marseille","lat":43.298764,"lon":5.388973,"is_reserved":false,"is_disabled":false,"rental_uris":{"android":"levelo://app?vid=b64be0f6-8a2c-4bd6-ac64-29a47338d27a","ios":"levelo://app?vid=b64be0f6-8a2c-4bd6-ac64-29a47338d27a"},"vehicle_type_id":"4","last_reported":1684278390,"current_range_meters":1600,"station_id":"ce4bh392rcd13ifvqdl0","pricing_plan_id":"free"},{"bike_id":"46830308-eb37-4fd2-9f64-78865e8238c9","system_id":"levelo_inurba_marseille","lat":43.298764,"lon":5.388973,"is_reserved":false,"is_disabled":false,"rental_uris":{"android":"levelo://app?vid=46830308-eb37-4fd2-9f64-78865e8238c9","ios":"levelo://app?vid=46830308-eb37-4fd2-9f64-78865e8238c9"},"vehicle_type_id":"4","last_reported":1684278390,"current_range_meters":400,"station_id":"ce4bh392rcd13ifvqdl0","pricing_plan_id":"free"},{"bike_id":"2bbe2190-aac4-47d6-89eb-40f28da061ea","system_id":"levelo_inurba_marseille","lat":43.30884,"lon":5.39633,"is_reserved":false,"is_disabled":false,"rental_uris":{"android":"levelo://app?vid=2bbe2190-aac4-47d6-89eb-40f28da061ea","ios":"levelo://app?vid=2bbe2190-aac4-47d6-89eb-40f28da061ea"},"vehicle_type_id":"4","last_reported":1684278390,"current_range_meters":30000,"station_id":"ce4bh012rcd13ifvqcv0","pricing_plan_id":"free"},{"bike_id":"54c8719c-dd77-4629-9b29-68e376debb84","system_id":"levelo_inurba_marseille","lat":43.309038,"lon":5.396546,"is_reserved":false,"is_disabled":false,"rental_uris":{"android":"levelo://app?vid=54c8719c-dd77-4629-9b29-68e376debb84","ios":"levelo://app?vid=54c8719c-dd77-4629-9b29-68e376debb84"},"vehicle_type_id":"4","last_reported":1684278390,"current_range_meters":27200,"station_id":"ce4bh012rcd13ifvqcv0","pricing_plan_id":"free"},{"bike_id":"4baa5d37-4b70-4215-8216-446c01957746","system_id":"levelo_inurba_marseille","lat":43.309038,"lon":5.396546,"is_reserved":false,"is_disabled":false,"rental_uris":{"android":"levelo://app?vid=4baa5d37-4b70-4215-8216-446c01957746","ios":"levelo://app?vid=4baa5d37-4b70-4215-8216-446c01957746"},"vehicle_type_id":"4","last_reported":1684278390,"current_range_meters":23200,"station_id":"ce4bh012rcd13ifvqcv0","pricing_plan_id":"free"},{"bike_id":"70b1057e-6d35-4728-9226-5fe6a2d0e25a","system_id":"levelo_inurba_marseille","lat":43.30883,"lon":5.39635,"is_reserved":false,"is_disabled":false,"rental_uris":{"android":"levelo://app?vid=70b1057e-6d35-4728-9226-5fe6a2d0e25a","ios":"levelo://app?vid=70b1057e-6d35-4728-9226-5fe6a2d0e25a"},"vehicle_type_id":"4","last_reported":1684278390,"current_range_meters":29200,"station_id":"","pricing_plan_id":"free"},{"bike_id":"e4d39a56-9242-4ff4-b0b4-dfa213879ed6","system_id":"levelo_inurba_marseille","lat":43.30882,"lon":5.39638,"is_reserved":false,"is_disabled":false,"rental_uris":{"android":"levelo://app?vid=e4d39a56-9242-4ff4-b0b4-dfa213879ed6","ios":"levelo://app?vid=e4d39a56-9242-4ff4-b0b4-dfa213879ed6"},"vehicle_type_id":"4","last_reported":1684278390,"current_range_meters":24000,"station_id":"","pricing_plan_id":"free"},{"bike_id":"567fda29-5830-4692-96e3-3620ec22c6cb","system_id":"levelo_inurba_marseille","lat":43.30877,"lon":5.39639,"is_reserved":false,"is_disabled":false,"rental_uris":{"android":"levelo://app?vid=567fda29-5830-4692-96e3-3620ec22c6cb","ios":"levelo://app?vid=567fda29-5830-4692-96e3-3620ec22c6cb"},"vehicle_type_id":"4","last_reported":1684278390,"current_range_meters":0,"station_id":"ce4bh012rcd13ifvqcv0","pricing_plan_id":"free"},{"bike_id":"44108575-fe42-44dd-98dc-409a63cd5eb8","system_id":"levelo_inurba_marseille","lat":43.31319,"lon":5.39689,"is_reserved":false,"is_disabled":false,"rental_uris":{"android":"levelo://app?vid=44108575-fe42-44dd-98dc-409a63cd5eb8","ios":"levelo://app?vid=44108575-fe42-44dd-98dc-409a63cd5eb8"},"vehicle_type_id":"4","last_reported":1684278390,"current_range_meters":22000,"station_id":"ce4bgvp2rcd13ifvqcu0","pricing_plan_id":"free"},{"bike_id":"4af1895b-2d2e-4c7b-a8d3-e3c71d69487f","system_id":"levelo_inurba_marseille","lat":43.291994,"lon":5.357886,"is_reserved":false,"is_disabled":false,"rental_uris":{"android":"levelo://app?vid=4af1895b-2d2e-4c7b-a8d3-e3c71d69487f","ios":"levelo://app?vid=4af1895b-2d2e-4c7b-a8d3-e3c71d69487f"},"vehicle_type_id":"4","last_reported":1684278390,"current_range_meters":10800,"station_id":"ce4bhb12rcd13ifvqel0","pricing_plan_id":"free"},{"bike_id":"da41eb90-3202-4e6b-8744-1e805cb29626","system_id":"levelo_inurba_marseille","lat":43.30885,"lon":5.39642,"is_reserved":false,"is_disabled":false,"rental_uris":{"android":"levelo://app?vid=da41eb90-3202-4e6b-8744-1e805cb29626","ios":"levelo://app?vid=da41eb90-3202-4e6b-8744-1e805cb29626"},"vehicle_type_id":"4","last_reported":1684278390,"current_range_meters":14800,"station_id":"ce4bh012rcd13ifvqcv0","pricing_plan_id":"free"},{"bike_id":"6f5eb661-f4ba-42bb-9998-6d2d9b3ec0bf","system_id":"levelo_inurba_marseille","lat":43.31329,"lon":5.3969,"is_reserved":false,"is_disabled":false,"rental_uris":{"android":"levelo://app?vid=6f5eb661-f4ba-42bb-9998-6d2d9b3ec0bf","ios":"levelo://app?vid=6f5eb661-f4ba-42bb-9998-6d2d9b3ec0bf"},"vehicle_type_id":"4","last_reported":1684278390,"current_range_meters":28000,"station_id":"ce4bgvp2rcd13ifvqcu0","pricing_plan_id":"free"},{"bike_id":"9f6a4f06-3487-49cb-92ed-c683feef2edc","system_id":"levelo_inurba_marseille","lat":43.30884,"lon":5.39643,"is_reserved":false,"is_disabled":false,"rental_uris":{"android":"levelo://app?vid=9f6a4f06-3487-49cb-92ed-c683feef2edc","ios":"levelo://app?vid=9f6a4f06-3487-49cb-92ed-c683feef2edc"},"vehicle_type_id":"4","last_reported":1684278390,"current_range_meters":12400,"station_id":"ce4bh012rcd13ifvqcv0","pricing_plan_id":"free"},{"bike_id":"e4482402-3d5d-4f0e-9933-3152c441d553","system_id":"levelo_inurba_marseille","lat":43.309038,"lon":5.396546,"is_reserved":false,"is_disabled":false,"rental_uris":{"android":"levelo://app?vid=e4482402-3d5d-4f0e-9933-3152c441d553","ios":"levelo://app?vid=e4482402-3d5d-4f0e-9933-3152c441d553"},"vehicle_type_id":"4","last_reported":1684278390,"current_range_meters":800,"station_id":"ce4bh012rcd13ifvqcv0","pricing_plan_id":"free"},{"bike_id":"19726583-8fa5-453a-b1dc-aead3cf5088c","system_id":"levelo_inurba_marseille","lat":43.31326,"lon":5.39692,"is_reserved":false,"is_disabled":false,"rental_uris":{"android":"levelo://app?vid=19726583-8fa5-453a-b1dc-aead3cf5088c","ios":"levelo://app?vid=19726583-8fa5-453a-b1dc-aead3cf5088c"},"vehicle_type_id":"4","last_reported":1684278390,"current_range_meters":13600,"station_id":"ce4bgvp2rcd13ifvqcu0","pricing_plan_id":"free"},{"bike_id":"be548e39-4b91-412b-b675-849bf6394ee8","system_id":"levelo_inurba_marseille","lat":43.30884,"lon":5.39645,"is_reserved":false,"is_disabled":false,"rental_uris":{"android":"levelo://app?vid=be548e39-4b91-412b-b675-849bf6394ee8","ios":"levelo://app?vid=be548e39-4b91-412b-b675-849bf6394ee8"},"vehicle_type_id":"4","last_reported":1684278390,"current_range_meters":30000,"station_id":"ce4bh012rcd13ifvqcv0","pricing_plan_id":"free"},{"bike_id":"776c1f2d-b89e-4286-9be3-1bbf785a967b","system_id":"levelo_inurba_marseille","lat":43.30885,"lon":5.39646,"is_reserved":false,"is_disabled":false,"rental_uris":{"android":"levelo://app?vid=776c1f2d-b89e-4286-9be3-1bbf785a967b","ios":"levelo://app?vid=776c1f2d-b89e-4286-9be3-1bbf785a967b"},"vehicle_type_id":"4","last_reported":1684278390,"current_range_meters":18000,"station_id":"ce4bh012rcd13ifvqcv0","pricing_plan_id":"free"},{"bike_id":"72ef4750-5105-4fdf-b44d-4500ed12ed7c","system_id":"levelo_inurba_marseille","lat":43.31326,"lon":5.39694,"is_reserved":false,"is_disabled":false,"rental_uris":{"android":"levelo://app?vid=72ef4750-5105-4fdf-b44d-4500ed12ed7c","ios":"levelo://app?vid=72ef4750-5105-4fdf-b44d-4500ed12ed7c"},"vehicle_type_id":"4","last_reported":1684278390,"current_range_meters":31600,"station_id":"ce4bgvp2rcd13ifvqcu0","pricing_plan_id":"free"},{"bike_id":"10e1707a-40f5-43bf-b004-80894108fdf1","system_id":"levelo_inurba_marseille","lat":43.309038,"lon":5.396546,"is_reserved":false,"is_disabled":false,"rental_uris":{"android":"levelo://app?vid=10e1707a-40f5-43bf-b004-80894108fdf1","ios":"levelo://app?vid=10e1707a-40f5-43bf-b004-80894108fdf1"},"vehicle_type_id":"4","last_reported":1684278390,"current_range_meters":16000,"station_id":"ce4bh012rcd13ifvqcv0","pricing_plan_id":"free"},{"bike_id":"99c1093e-6531-4e77-8c8b-8587eff45c91","system_id":"levelo_inurba_marseille","lat":43.291994,"lon":5.357886,"is_reserved":false,"is_disabled":false,"rental_uris":{"android":"levelo://app?vid=99c1093e-6531-4e77-8c8b-8587eff45c91","ios":"levelo://app?vid=99c1093e-6531-4e77-8c8b-8587eff45c91"},"vehicle_type_id":"4","last_reported":1684278390,"current_range_meters":4800,"station_id":"ce4bhb12rcd13ifvqel0","pricing_plan_id":"free"},{"bike_id":"d6059853-a340-4d1a-b9ca-f09c71d716c9","system_id":"levelo_inurba_marseille","lat":43.31326,"lon":5.39697,"is_reserved":false,"is_disabled":false,"rental_uris":{"android":"levelo://app?vid=d6059853-a340-4d1a-b9ca-f09c71d716c9","ios":"levelo://app?vid=d6059853-a340-4d1a-b9ca-f09c71d716c9"},"vehicle_type_id":"4","last_reported":1684278390,"current_range_meters":24800,"station_id":"ce4bgvp2rcd13ifvqcu0","pricing_plan_id":"free"},{"bike_id":"9d416044-a686-4cb9-a8d0-2829e8272d8f","system_id":"levelo_inurba_marseille","lat":43.30887,"lon":5.39653,"is_reserved":false,"is_disabled":false,"rental_uris":{"android":"levelo://app?vid=9d416044-a686-4cb9-a8d0-2829e8272d8f","ios":"levelo://app?vid=9d416044-a686-4cb9-a8d0-2829e8272d8f"},"vehicle_type_id":"4","last_reported":1684278390,"current_range_meters":30800,"station_id":"ce4bh012rcd13ifvqcv0","pricing_plan_id":"free"},{"bike_id":"c626ad5f-1dae-4cc4-89cd-6045de38dbb0","system_id":"levelo_inurba_marseille","lat":43.313291,"lon":5.396838,"is_reserved":false,"is_disabled":false,"rental_uris":{"android":"levelo://app?vid=c626ad5f-1dae-4cc4-89cd-6045de38dbb0","ios":"levelo://app?vid=c626ad5f-1dae-4cc4-89cd-6045de38dbb0"},"vehicle_type_id":"4","last_reported":1684278390,"current_range_meters":30400,"station_id":"ce4bgvp2rcd13ifvqcu0","pricing_plan_id":"free"},{"bike_id":"e21a4a79-98e4-4d66-9372-9997aac86cc6","system_id":"levelo_inurba_marseille","lat":43.309038,"lon":5.396546,"is_reserved":false,"is_disabled":false,"rental_uris":{"android":"levelo://app?vid=e21a4a79-98e4-4d66-9372-9997aac86cc6","ios":"levelo://app?vid=e21a4a79-98e4-4d66-9372-9997aac86cc6"},"vehicle_type_id":"4","last_reported":1684278390,"current_range_meters":27600,"station_id":"ce4bh012rcd13ifvqcv0","pricing_plan_id":"free"},{"bike_id":"3682953e-ebe2-4625-887b-57f217c7ab96","system_id":"levelo_inurba_marseille","lat":43.302008,"lon":5.394694,"is_reserved":false,"is_disabled":false,"rental_uris":{"android":"levelo://app?vid=3682953e-ebe2-4625-887b-57f217c7ab96","ios":"levelo://app?vid=3682953e-ebe2-4625-887b-57f217c7ab96"},"vehicle_type_id":"4","last_reported":1684278390,"current_range_meters":8800,"station_id":"ce4bh0p2rcd13ifvqd70","pricing_plan_id":"free"},{"bike_id":"365e40c2-201a-4468-8fc3-788302cb3cd9","system_id":"levelo_inurba_marseille","lat":43.302008,"lon":5.394694,"is_reserved":false,"is_disabled":false,"rental_uris":{"android":"levelo://app?vid=365e40c2-201a-4468-8fc3-788302cb3cd9","ios":"levelo://app?vid=365e40c2-201a-4468-8fc3-788302cb3cd9"},"vehicle_type_id":"4","last_reported":1684278390,"current_range_meters":15200,"station_id":"ce4bh0p2rcd13ifvqd70","pricing_plan_id":"free"},{"bike_id":"2a5337b6-4ddb-4147-8445-db4f1a34f5ff","system_id":"levelo_inurba_marseille","lat":43.302008,"lon":5.394694,"is_reserved":false,"is_disabled":false,"rental_uris":{"android":"levelo://app?vid=2a5337b6-4ddb-4147-8445-db4f1a34f5ff","ios":"levelo://app?vid=2a5337b6-4ddb-4147-8445-db4f1a34f5ff"},"vehicle_type_id":"4","last_reported":1684278390,"current_range_meters":24400,"station_id":"ce4bh0p2rcd13ifvqd70","pricing_plan_id":"free"},{"bike_id":"17b209e0-52cb-4e73-9491-967679d3dfcc","system_id":"levelo_inurba_marseille","lat":43.29056,"lon":5.35903,"is_reserved":false,"is_disabled":false,"rental_uris":{"android":"levelo://app?vid=17b209e0-52cb-4e73-9491-967679d3dfcc","ios":"levelo://app?vid=17b209e0-52cb-4e73-9491-967679d3dfcc"},"vehicle_type_id":"4","last_reported":1684278390,"current_range_meters":27200,"station_id":"ce4bha92rcd13ifvqeg0","pricing_plan_id":"free"},{"bike_id":"41c2e612-ff44-433a-964f-7ee1f3de2920","system_id":"levelo_inurba_marseille","lat":43.29048,"lon":5.35909,"is_reserved":false,"is_disabled":false,"rental_uris":{"android":"levelo://app?vid=41c2e612-ff44-433a-964f-7ee1f3de2920","ios":"levelo://app?vid=41c2e612-ff44-433a-964f-7ee1f3de2920"},"vehicle_type_id":"4","last_reported":1684278390,"current_range_meters":12400,"station_id":"ce4bha92rcd13ifvqeg0","pricing_plan_id":"free"},{"bike_id":"f304b638-1ba9-4492-b990-8c90d61fd16d","system_id":"levelo_inurba_marseille","lat":43.302008,"lon":5.394694,"is_reserved":false,"is_disabled":false,"rental_uris":{"android":"levelo://app?vid=f304b638-1ba9-4492-b990-8c90d61fd16d","ios":"levelo://app?vid=f304b638-1ba9-4492-b990-8c90d61fd16d"},"vehicle_type_id":"4","last_reported":1684278390,"current_range_meters":21600,"station_id":"ce4bh0p2rcd13ifvqd70","pricing_plan_id":"free"},{"bike_id":"d45fa62b-391e-4bcb-ba0a-6b669188f15b","system_id":"levelo_inurba_marseille","lat":43.29043,"lon":5.35907,"is_reserved":false,"is_disabled":false,"rental_uris":{"android":"levelo://app?vid=d45fa62b-391e-4bcb-ba0a-6b669188f15b","ios":"levelo://app?vid=d45fa62b-391e-4bcb-ba0a-6b669188f15b"},"vehicle_type_id":"4","last_reported":1684278390,"current_range_meters":5600,"station_id":"","pricing_plan_id":"free"},{"bike_id":"2f72f8c1-6bca-49f1-baca-54020b651ea8","system_id":"levelo_inurba_marseille","lat":43.29039,"lon":5.35917,"is_reserved":false,"is_disabled":false,"rental_uris":{"android":"levelo://app?vid=2f72f8c1-6bca-49f1-baca-54020b651ea8","ios":"levelo://app?vid=2f72f8c1-6bca-49f1-baca-54020b651ea8"},"vehicle_type_id":"4","last_reported":1684278390,"current_range_meters":24800,"station_id":"","pricing_plan_id":"free"},{"bike_id":"63b25feb-93dc-4e4e-95c8-14cb67de49d9","system_id":"levelo_inurba_marseille","lat":43.290631,"lon":5.359244,"is_reserved":false,"is_disabled":false,"rental_uris":{"android":"levelo://app?vid=63b25feb-93dc-4e4e-95c8-14cb67de49d9","ios":"levelo://app?vid=63b25feb-93dc-4e4e-95c8-14cb67de49d9"},"vehicle_type_id":"4","last_reported":1684278390,"current_range_meters":31200,"station_id":"ce4bha92rcd13ifvqeg0","pricing_plan_id":"free"},{"bike_id":"1eb8114b-e14f-4510-8186-45d534d8c1c3","system_id":"levelo_inurba_marseille","lat":43.290631,"lon":5.359244,"is_reserved":false,"is_disabled":false,"rental_uris":{"android":"levelo://app?vid=1eb8114b-e14f-4510-8186-45d534d8c1c3","ios":"levelo://app?vid=1eb8114b-e14f-4510-8186-45d534d8c1c3"},"vehicle_type_id":"4","last_reported":1684278390,"current_range_meters":31200,"station_id":"ce4bha92rcd13ifvqeg0","pricing_plan_id":"free"},{"bike_id":"01c32ff4-3970-48f0-9be5-320e6e10b351","system_id":"levelo_inurba_marseille","lat":43.290631,"lon":5.359244,"is_reserved":false,"is_disabled":false,"rental_uris":{"android":"levelo://app?vid=01c32ff4-3970-48f0-9be5-320e6e10b351","ios":"levelo://app?vid=01c32ff4-3970-48f0-9be5-320e6e10b351"},"vehicle_type_id":"4","last_reported":1684278390,"current_range_meters":31200,"station_id":"ce4bha92rcd13ifvqeg0","pricing_plan_id":"free"},{"bike_id":"b8e2de4f-68a7-4651-99a8-46318678fd79","system_id":"levelo_inurba_marseille","lat":43.290631,"lon":5.359244,"is_reserved":false,"is_disabled":false,"rental_uris":{"android":"levelo://app?vid=b8e2de4f-68a7-4651-99a8-46318678fd79","ios":"levelo://app?vid=b8e2de4f-68a7-4651-99a8-46318678fd79"},"vehicle_type_id":"4","last_reported":1684278390,"current_range_meters":28800,"station_id":"ce4bha92rcd13ifvqeg0","pricing_plan_id":"free"},{"bike_id":"1c2c28f0-6296-4aba-b385-25880e22790f","system_id":"levelo_inurba_marseille","lat":43.290631,"lon":5.359244,"is_reserved":false,"is_disabled":false,"rental_uris":{"android":"levelo://app?vid=1c2c28f0-6296-4aba-b385-25880e22790f","ios":"levelo://app?vid=1c2c28f0-6296-4aba-b385-25880e22790f"},"vehicle_type_id":"4","last_reported":1684278390,"current_range_meters":27200,"station_id":"ce4bha92rcd13ifvqeg0","pricing_plan_id":"free"},{"bike_id":"8b675efb-8110-4722-9474-693b84806bf4","system_id":"levelo_inurba_marseille","lat":43.29034,"lon":5.3756,"is_reserved":false,"is_disabled":false,"rental_uris":{"android":"levelo://app?vid=8b675efb-8110-4722-9474-693b84806bf4","ios":"levelo://app?vid=8b675efb-8110-4722-9474-693b84806bf4"},"vehicle_type_id":"4","last_reported":1684278390,"current_range_meters":31200,"station_id":"ce4bh692rcd13ifvqe90","pricing_plan_id":"free"},{"bike_id":"ead5c6e2-9df3-4bf0-91da-dd6c372ed863","system_id":"levelo_inurba_marseille","lat":43.289184,"lon":5.366408,"is_reserved":false,"is_disabled":false,"rental_uris":{"android":"levelo://app?vid=ead5c6e2-9df3-4bf0-91da-dd6c372ed863","ios":"levelo://app?vid=ead5c6e2-9df3-4bf0-91da-dd6c372ed863"},"vehicle_type_id":"4","last_reported":1684278390,"current_range_meters":24800,"station_id":"ce4bhap2rcd13ifvqek0","pricing_plan_id":"free"},{"bike_id":"1a7fbf06-a61a-44a6-8015-fc67b4f0f6e0","system_id":"levelo_inurba_marseille","lat":43.289184,"lon":5.366408,"is_reserved":false,"is_disabled":false,"rental_uris":{"android":"levelo://app?vid=1a7fbf06-a61a-44a6-8015-fc67b4f0f6e0","ios":"levelo://app?vid=1a7fbf06-a61a-44a6-8015-fc67b4f0f6e0"},"vehicle_type_id":"4","last_reported":1684278390,"current_range_meters":29600,"station_id":"ce4bhap2rcd13ifvqek0","pricing_plan_id":"free"},{"bike_id":"939d500a-3972-47c7-a6ba-6bdfab7fdec0","system_id":"levelo_inurba_marseille","lat":43.289184,"lon":5.366408,"is_reserved":false,"is_disabled":false,"rental_uris":{"android":"levelo://app?vid=939d500a-3972-47c7-a6ba-6bdfab7fdec0","ios":"levelo://app?vid=939d500a-3972-47c7-a6ba-6bdfab7fdec0"},"vehicle_type_id":"4","last_reported":1684278390,"current_range_meters":11600,"station_id":"ce4bhap2rcd13ifvqek0","pricing_plan_id":"free"},{"bike_id":"cc017c3c-0a03-4047-bf46-4a1d2e6ee207","system_id":"levelo_inurba_marseille","lat":43.28935,"lon":5.36395,"is_reserved":false,"is_disabled":false,"rental_uris":{"android":"levelo://app?vid=cc017c3c-0a03-4047-bf46-4a1d2e6ee207","ios":"levelo://app?vid=cc017c3c-0a03-4047-bf46-4a1d2e6ee207"},"vehicle_type_id":"4","last_reported":1684278390,"current_range_meters":30000,"station_id":"ce4bhc92rcd13ifvqetg","pricing_plan_id":"free"},{"bike_id":"35a83053-8d06-4274-96a2-ba86a66451d7","system_id":"levelo_inurba_marseille","lat":43.289328,"lon":5.364028,"is_reserved":false,"is_disabled":false,"rental_uris":{"android":"levelo://app?vid=35a83053-8d06-4274-96a2-ba86a66451d7","ios":"levelo://app?vid=35a83053-8d06-4274-96a2-ba86a66451d7"},"vehicle_type_id":"4","last_reported":1684278390,"current_range_meters":31200,"station_id":"","pricing_plan_id":"free"},{"bike_id":"d01bf714-ddfa-4f0b-99a5-dee273f3de74","system_id":"levelo_inurba_marseille","lat":43.289288,"lon":5.364039,"is_reserved":false,"is_disabled":false,"rental_uris":{"android":"levelo://app?vid=d01bf714-ddfa-4f0b-99a5-dee273f3de74","ios":"levelo://app?vid=d01bf714-ddfa-4f0b-99a5-dee273f3de74"},"vehicle_type_id":"4","last_reported":1684278390,"current_range_meters":29200,"station_id":"","pricing_plan_id":"free"},{"bike_id":"82123dcf-b1b9-42ca-ac09-752a84635b17","system_id":"levelo_inurba_marseille","lat":43.289297,"lon":5.363895,"is_reserved":false,"is_disabled":false,"rental_uris":{"android":"levelo://app?vid=82123dcf-b1b9-42ca-ac09-752a84635b17","ios":"levelo://app?vid=82123dcf-b1b9-42ca-ac09-752a84635b17"},"vehicle_type_id":"4","last_reported":1684278390,"current_range_meters":27600,"station_id":"","pricing_plan_id":"free"},{"bike_id":"db0c5c40-c4b7-4238-9bbc-aad1de67a362","system_id":"levelo_inurba_marseille","lat":43.28929,"lon":5.36381,"is_reserved":false,"is_disabled":false,"rental_uris":{"android":"levelo://app?vid=db0c5c40-c4b7-4238-9bbc-aad1de67a362","ios":"levelo://app?vid=db0c5c40-c4b7-4238-9bbc-aad1de67a362"},"vehicle_type_id":"4","last_reported":1684278390,"current_range_meters":20800,"station_id":"ce4bhc92rcd13ifvqetg","pricing_plan_id":"free"},{"bike_id":"48bf5941-e28c-4e38-ac1b-b83c0b3166e1","system_id":"levelo_inurba_marseille","lat":43.289277,"lon":5.363979,"is_reserved":false,"is_disabled":false,"rental_uris":{"android":"levelo://app?vid=48bf5941-e28c-4e38-ac1b-b83c0b3166e1","ios":"levelo://app?vid=48bf5941-e28c-4e38-ac1b-b83c0b3166e1"},"vehicle_type_id":"4","last_reported":1684278390,"current_range_meters":20400,"station_id":"ce4bhc92rcd13ifvqetg","pricing_plan_id":"free"},{"bike_id":"5f184575-15af-446f-9a4e-ba7dd17706b4","system_id":"levelo_inurba_marseille","lat":43.289272,"lon":5.364013,"is_reserved":false,"is_disabled":false,"rental_uris":{"android":"levelo://app?vid=5f184575-15af-446f-9a4e-ba7dd17706b4","ios":"levelo://app?vid=5f184575-15af-446f-9a4e-ba7dd17706b4"},"vehicle_type_id":"4","last_reported":1684278390,"current_range_meters":25600,"station_id":"","pricing_plan_id":"free"},{"bike_id":"b216b845-2c9b-4220-8b82-7be05f9c8963","system_id":"levelo_inurba_marseille","lat":43.28928,"lon":5.36388,"is_reserved":false,"is_disabled":false,"rental_uris":{"android":"levelo://app?vid=b216b845-2c9b-4220-8b82-7be05f9c8963","ios":"levelo://app?vid=b216b845-2c9b-4220-8b82-7be05f9c8963"},"vehicle_type_id":"4","last_reported":1684278390,"current_range_meters":31200,"station_id":"ce4bhc92rcd13ifvqetg","pricing_plan_id":"free"},{"bike_id":"5e7261ad-b331-4b6e-8e1e-2af51e689b86","system_id":"levelo_inurba_marseille","lat":43.28926,"lon":5.36403,"is_reserved":false,"is_disabled":false,"rental_uris":{"android":"levelo://app?vid=5e7261ad-b331-4b6e-8e1e-2af51e689b86","ios":"levelo://app?vid=5e7261ad-b331-4b6e-8e1e-2af51e689b86"},"vehicle_type_id":"4","last_reported":1684278390,"current_range_meters":18800,"station_id":"ce4bhc92rcd13ifvqetg","pricing_plan_id":"free"},{"bike_id":"daa60bd0-ba83-4647-884d-1b743c13e167","system_id":"levelo_inurba_marseille","lat":43.289468,"lon":5.363719,"is_reserved":false,"is_disabled":false,"rental_uris":{"android":"levelo://app?vid=daa60bd0-ba83-4647-884d-1b743c13e167","ios":"levelo://app?vid=daa60bd0-ba83-4647-884d-1b743c13e167"},"vehicle_type_id":"4","last_reported":1684278390,"current_range_meters":29200,"station_id":"ce4bhc92rcd13ifvqetg","pricing_plan_id":"free"},{"bike_id":"308e147f-9df8-4b7b-a43b-a4c3322c2705","system_id":"levelo_inurba_marseille","lat":43.304296,"lon":5.397513,"is_reserved":false,"is_disabled":false,"rental_uris":{"android":"levelo://app?vid=308e147f-9df8-4b7b-a43b-a4c3322c2705","ios":"levelo://app?vid=308e147f-9df8-4b7b-a43b-a4c3322c2705"},"vehicle_type_id":"4","last_reported":1684278390,"current_range_meters":30400,"station_id":"ce4bh092rcd13ifvqd20","pricing_plan_id":"free"},{"bike_id":"ee04b75a-6096-4f84-9dec-1ddf02c4a48f","system_id":"levelo_inurba_marseille","lat":43.330442,"lon":5.389148,"is_reserved":false,"is_disabled":false,"rental_uris":{"android":"levelo://app?vid=ee04b75a-6096-4f84-9dec-1ddf02c4a48f","ios":"levelo://app?vid=ee04b75a-6096-4f84-9dec-1ddf02c4a48f"},"vehicle_type_id":"4","last_reported":1684278390,"current_range_meters":6400,"station_id":"ce4bhr92rcd13ifvqhrg","pricing_plan_id":"free"},{"bike_id":"5ee77a0d-57db-4050-bce1-323f88747e72","system_id":"levelo_inurba_marseille","lat":43.330442,"lon":5.389148,"is_reserved":false,"is_disabled":false,"rental_uris":{"android":"levelo://app?vid=5ee77a0d-57db-4050-bce1-323f88747e72","ios":"levelo://app?vid=5ee77a0d-57db-4050-bce1-323f88747e72"},"vehicle_type_id":"4","last_reported":1684278390,"current_range_meters":25200,"station_id":"ce4bhr92rcd13ifvqhrg","pricing_plan_id":"free"},{"bike_id":"2aaa3830-c933-42d6-8111-151d3070710a","system_id":"levelo_inurba_marseille","lat":43.290104,"lon":5.356111,"is_reserved":false,"is_disabled":false,"rental_uris":{"android":"levelo://app?vid=2aaa3830-c933-42d6-8111-151d3070710a","ios":"levelo://app?vid=2aaa3830-c933-42d6-8111-151d3070710a"},"vehicle_type_id":"4","last_reported":1684278390,"current_range_meters":29600,"station_id":"ce4bhb92rcd13ifvqen0","pricing_plan_id":"free"},{"bike_id":"6e57a66d-92b5-4aa7-9a75-d08d47093e56","system_id":"levelo_inurba_marseille","lat":43.290104,"lon":5.356111,"is_reserved":false,"is_disabled":false,"rental_uris":{"android":"levelo://app?vid=6e57a66d-92b5-4aa7-9a75-d08d47093e56","ios":"levelo://app?vid=6e57a66d-92b5-4aa7-9a75-d08d47093e56"},"vehicle_type_id":"4","last_reported":1684278390,"current_range_meters":28800,"station_id":"ce4bhb92rcd13ifvqen0","pricing_plan_id":"free"},{"bike_id":"158688a5-84ef-425e-8b3a-949dc5deaa75","system_id":"levelo_inurba_marseille","lat":43.290104,"lon":5.356111,"is_reserved":false,"is_disabled":false,"rental_uris":{"android":"levelo://app?vid=158688a5-84ef-425e-8b3a-949dc5deaa75","ios":"levelo://app?vid=158688a5-84ef-425e-8b3a-949dc5deaa75"},"vehicle_type_id":"4","last_reported":1684278390,"current_range_meters":31200,"station_id":"ce4bhb92rcd13ifvqen0","pricing_plan_id":"free"},{"bike_id":"f5eaae5f-3ace-4394-9e4c-3da1291bc600","system_id":"levelo_inurba_marseille","lat":43.290103,"lon":5.356114,"is_reserved":false,"is_disabled":false,"rental_uris":{"android":"levelo://app?vid=f5eaae5f-3ace-4394-9e4c-3da1291bc600","ios":"levelo://app?vid=f5eaae5f-3ace-4394-9e4c-3da1291bc600"},"vehicle_type_id":"4","last_reported":1684278390,"current_range_meters":24400,"station_id":"ce4bhb92rcd13ifvqen0","pricing_plan_id":"free"},{"bike_id":"a05fb4db-a6fa-4770-a935-aee827c1bc2c","system_id":"levelo_inurba_marseille","lat":43.29091,"lon":5.38095,"is_reserved":false,"is_disabled":false,"rental_uris":{"android":"levelo://app?vid=a05fb4db-a6fa-4770-a935-aee827c1bc2c","ios":"levelo://app?vid=a05fb4db-a6fa-4770-a935-aee827c1bc2c"},"vehicle_type_id":"4","last_reported":1684278390,"current_range_meters":8800,"station_id":"","pricing_plan_id":"free"},{"bike_id":"d0bd0196-3a70-4f65-b119-c5f1d84d1eb6","system_id":"levelo_inurba_marseille","lat":43.289743,"lon":5.378304,"is_reserved":false,"is_disabled":false,"rental_uris":{"android":"levelo://app?vid=d0bd0196-3a70-4f65-b119-c5f1d84d1eb6","ios":"levelo://app?vid=d0bd0196-3a70-4f65-b119-c5f1d84d1eb6"},"vehicle_type_id":"4","last_reported":1684278390,"current_range_meters":31200,"station_id":"ce4bh9p2rcd13ifvqed0","pricing_plan_id":"free"},{"bike_id":"49d0d030-7861-4a0f-b23c-caa37c76707f","system_id":"levelo_inurba_marseille","lat":43.295169,"lon":5.390426,"is_reserved":false,"is_disabled":false,"rental_uris":{"android":"levelo://app?vid=49d0d030-7861-4a0f-b23c-caa37c76707f","ios":"levelo://app?vid=49d0d030-7861-4a0f-b23c-caa37c76707f"},"vehicle_type_id":"4","last_reported":1684278390,"current_range_meters":28800,"station_id":"ce4bh3p2rcd13ifvqdp0","pricing_plan_id":"free"},{"bike_id":"9c26325e-8293-441c-a059-5b92096347c4","system_id":"levelo_inurba_marseille","lat":43.28861,"lon":5.35968,"is_reserved":false,"is_disabled":false,"rental_uris":{"android":"levelo://app?vid=9c26325e-8293-441c-a059-5b92096347c4","ios":"levelo://app?vid=9c26325e-8293-441c-a059-5b92096347c4"},"vehicle_type_id":"4","last_reported":1684278390,"current_range_meters":8400,"station_id":"","pricing_plan_id":"free"},{"bike_id":"74ec8a61-237d-45fe-aa75-781eb2a79d77","system_id":"levelo_inurba_marseille","lat":43.28856,"lon":5.358371,"is_reserved":false,"is_disabled":false,"rental_uris":{"android":"levelo://app?vid=74ec8a61-237d-45fe-aa75-781eb2a79d77","ios":"levelo://app?vid=74ec8a61-237d-45fe-aa75-781eb2a79d77"},"vehicle_type_id":"4","last_reported":1684278390,"current_range_meters":25200,"station_id":"ce4bhb12rcd13ifvqem0","pricing_plan_id":"free"},{"bike_id":"74cfff1f-841a-4b85-8e7b-bde78f34efb5","system_id":"levelo_inurba_marseille","lat":43.28856,"lon":5.358371,"is_reserved":false,"is_disabled":false,"rental_uris":{"android":"levelo://app?vid=74cfff1f-841a-4b85-8e7b-bde78f34efb5","ios":"levelo://app?vid=74cfff1f-841a-4b85-8e7b-bde78f34efb5"},"vehicle_type_id":"4","last_reported":1684278390,"current_range_meters":28400,"station_id":"ce4bhb12rcd13ifvqem0","pricing_plan_id":"free"},{"bike_id":"7fa2f224-e389-4a95-b96b-4e37606aa071","system_id":"levelo_inurba_marseille","lat":43.28856,"lon":5.358371,"is_reserved":false,"is_disabled":false,"rental_uris":{"android":"levelo://app?vid=7fa2f224-e389-4a95-b96b-4e37606aa071","ios":"levelo://app?vid=7fa2f224-e389-4a95-b96b-4e37606aa071"},"vehicle_type_id":"4","last_reported":1684278390,"current_range_meters":11600,"station_id":"ce4bhb12rcd13ifvqem0","pricing_plan_id":"free"},{"bike_id":"f6529b46-d325-4908-8f4e-5dcfa9b4a7e9","system_id":"levelo_inurba_marseille","lat":43.28856,"lon":5.358371,"is_reserved":false,"is_disabled":false,"rental_uris":{"android":"levelo://app?vid=f6529b46-d325-4908-8f4e-5dcfa9b4a7e9","ios":"levelo://app?vid=f6529b46-d325-4908-8f4e-5dcfa9b4a7e9"},"vehicle_type_id":"4","last_reported":1684278390,"current_range_meters":31200,"station_id":"ce4bhb12rcd13ifvqem0","pricing_plan_id":"free"},{"bike_id":"f2e77f4f-07e2-4866-aa79-c2b957d4b17a","system_id":"levelo_inurba_marseille","lat":43.28856,"lon":5.358371,"is_reserved":false,"is_disabled":false,"rental_uris":{"android":"levelo://app?vid=f2e77f4f-07e2-4866-aa79-c2b957d4b17a","ios":"levelo://app?vid=f2e77f4f-07e2-4866-aa79-c2b957d4b17a"},"vehicle_type_id":"4","last_reported":1684278390,"current_range_meters":20800,"station_id":"ce4bhb12rcd13ifvqem0","pricing_plan_id":"free"},{"bike_id":"06918acf-39ff-46a8-8e4a-3e29166672e1","system_id":"levelo_inurba_marseille","lat":43.28856,"lon":5.358371,"is_reserved":false,"is_disabled":false,"rental_uris":{"android":"levelo://app?vid=06918acf-39ff-46a8-8e4a-3e29166672e1","ios":"levelo://app?vid=06918acf-39ff-46a8-8e4a-3e29166672e1"},"vehicle_type_id":"4","last_reported":1684278390,"current_range_meters":13200,"station_id":"ce4bhb12rcd13ifvqem0","pricing_plan_id":"free"},{"bike_id":"b134fc8b-47bf-4cbd-83ca-2f8e3a1dd862","system_id":"levelo_inurba_marseille","lat":43.28856,"lon":5.358371,"is_reserved":false,"is_disabled":false,"rental_uris":{"android":"levelo://app?vid=b134fc8b-47bf-4cbd-83ca-2f8e3a1dd862","ios":"levelo://app?vid=b134fc8b-47bf-4cbd-83ca-2f8e3a1dd862"},"vehicle_type_id":"4","last_reported":1684278390,"current_range_meters":21600,"station_id":"ce4bhb12rcd13ifvqem0","pricing_plan_id":"free"},{"bike_id":"134fbf9a-2f99-47c1-9875-45b185a0a3ce","system_id":"levelo_inurba_marseille","lat":43.337436,"lon":5.374627,"is_reserved":false,"is_disabled":false,"rental_uris":{"android":"levelo://app?vid=134fbf9a-2f99-47c1-9875-45b185a0a3ce","ios":"levelo://app?vid=134fbf9a-2f99-47c1-9875-45b185a0a3ce"},"vehicle_type_id":"4","last_reported":1684278390,"current_range_meters":18800,"station_id":"ce4bhnp2rcd13ifvqgvg","pricing_plan_id":"free"},{"bike_id":"135768f1-b228-4477-97b3-f7674742c92b","system_id":"levelo_inurba_marseille","lat":43.30642,"lon":5.401031,"is_reserved":false,"is_disabled":false,"rental_uris":{"android":"levelo://app?vid=135768f1-b228-4477-97b3-f7674742c92b","ios":"levelo://app?vid=135768f1-b228-4477-97b3-f7674742c92b"},"vehicle_type_id":"4","last_reported":1684278390,"current_range_meters":2000,"station_id":"ce4bh112rcd13ifvqda0","pricing_plan_id":"free"},{"bike_id":"58a4d525-e140-4be5-a1a5-8a06bce8f822","system_id":"levelo_inurba_marseille","lat":43.33759,"lon":5.37425,"is_reserved":false,"is_disabled":false,"rental_uris":{"android":"levelo://app?vid=58a4d525-e140-4be5-a1a5-8a06bce8f822","ios":"levelo://app?vid=58a4d525-e140-4be5-a1a5-8a06bce8f822"},"vehicle_type_id":"4","last_reported":1684278390,"current_range_meters":31600,"station_id":"","pricing_plan_id":"free"},{"bike_id":"de22916d-a5b7-43ef-a249-c81871f8a5af","system_id":"levelo_inurba_marseille","lat":43.30642,"lon":5.401031,"is_reserved":false,"is_disabled":false,"rental_uris":{"android":"levelo://app?vid=de22916d-a5b7-43ef-a249-c81871f8a5af","ios":"levelo://app?vid=de22916d-a5b7-43ef-a249-c81871f8a5af"},"vehicle_type_id":"4","last_reported":1684278390,"current_range_meters":4000,"station_id":"ce4bh112rcd13ifvqda0","pricing_plan_id":"free"},{"bike_id":"9ae41f3f-b27a-427b-8b95-b0c5102ea7f3","system_id":"levelo_inurba_marseille","lat":43.33757,"lon":5.37442,"is_reserved":false,"is_disabled":false,"rental_uris":{"android":"levelo://app?vid=9ae41f3f-b27a-427b-8b95-b0c5102ea7f3","ios":"levelo://app?vid=9ae41f3f-b27a-427b-8b95-b0c5102ea7f3"},"vehicle_type_id":"4","last_reported":1684278390,"current_range_meters":400,"station_id":"","pricing_plan_id":"free"},{"bike_id":"503e199e-88c2-41a4-a0ba-3b267cb079b1","system_id":"levelo_inurba_marseille","lat":43.30642,"lon":5.401031,"is_reserved":false,"is_disabled":false,"rental_uris":{"android":"levelo://app?vid=503e199e-88c2-41a4-a0ba-3b267cb079b1","ios":"levelo://app?vid=503e199e-88c2-41a4-a0ba-3b267cb079b1"},"vehicle_type_id":"4","last_reported":1684278390,"current_range_meters":24800,"station_id":"ce4bh112rcd13ifvqda0","pricing_plan_id":"free"},{"bike_id":"bc392606-757a-4b22-a15a-d34029c78b2e","system_id":"levelo_inurba_marseille","lat":43.33762,"lon":5.37436,"is_reserved":false,"is_disabled":false,"rental_uris":{"android":"levelo://app?vid=bc392606-757a-4b22-a15a-d34029c78b2e","ios":"levelo://app?vid=bc392606-757a-4b22-a15a-d34029c78b2e"},"vehicle_type_id":"4","last_reported":1684278390,"current_range_meters":30800,"station_id":"","pricing_plan_id":"free"},{"bike_id":"ac637588-5861-48bb-abc4-426b0109b0ce","system_id":"levelo_inurba_marseille","lat":43.30642,"lon":5.401031,"is_reserved":false,"is_disabled":false,"rental_uris":{"android":"levelo://app?vid=ac637588-5861-48bb-abc4-426b0109b0ce","ios":"levelo://app?vid=ac637588-5861-48bb-abc4-426b0109b0ce"},"vehicle_type_id":"4","last_reported":1684278390,"current_range_meters":12000,"station_id":"ce4bh112rcd13ifvqda0","pricing_plan_id":"free"},{"bike_id":"ba3c102e-1acc-4476-b5b0-78bd0c52576d","system_id":"levelo_inurba_marseille","lat":43.301117,"lon":5.398795,"is_reserved":false,"is_disabled":false,"rental_uris":{"android":"levelo://app?vid=ba3c102e-1acc-4476-b5b0-78bd0c52576d","ios":"levelo://app?vid=ba3c102e-1acc-4476-b5b0-78bd0c52576d"},"vehicle_type_id":"4","last_reported":1684278390,"current_range_meters":22000,"station_id":"ce4bh0h2rcd13ifvqd40","pricing_plan_id":"free"},{"bike_id":"426b2e9b-42cc-4316-97ad-94e21c6ebfc5","system_id":"levelo_inurba_marseille","lat":43.30137,"lon":5.39858,"is_reserved":false,"is_disabled":false,"rental_uris":{"android":"levelo://app?vid=426b2e9b-42cc-4316-97ad-94e21c6ebfc5","ios":"levelo://app?vid=426b2e9b-42cc-4316-97ad-94e21c6ebfc5"},"vehicle_type_id":"4","last_reported":1684278390,"current_range_meters":26800,"station_id":"","pricing_plan_id":"free"},{"bike_id":"5e1cf41d-c8a7-4c1d-b235-13ea01033b35","system_id":"levelo_inurba_marseille","lat":43.33787,"lon":5.37438,"is_reserved":false,"is_disabled":false,"rental_uris":{"android":"levelo://app?vid=5e1cf41d-c8a7-4c1d-b235-13ea01033b35","ios":"levelo://app?vid=5e1cf41d-c8a7-4c1d-b235-13ea01033b35"},"vehicle_type_id":"4","last_reported":1684278390,"current_range_meters":12800,"station_id":"","pricing_plan_id":"free"},{"bike_id":"ce48d1ee-e39a-44d2-9f05-3a401c727c46","system_id":"levelo_inurba_marseille","lat":43.301117,"lon":5.398795,"is_reserved":false,"is_disabled":false,"rental_uris":{"android":"levelo://app?vid=ce48d1ee-e39a-44d2-9f05-3a401c727c46","ios":"levelo://app?vid=ce48d1ee-e39a-44d2-9f05-3a401c727c46"},"vehicle_type_id":"4","last_reported":1684278390,"current_range_meters":31600,"station_id":"ce4bh0h2rcd13ifvqd40","pricing_plan_id":"free"},{"bike_id":"de31c07b-e2c2-461e-9728-05e1a46c0fa1","system_id":"levelo_inurba_marseille","lat":43.301117,"lon":5.398795,"is_reserved":false,"is_disabled":false,"rental_uris":{"android":"levelo://app?vid=de31c07b-e2c2-461e-9728-05e1a46c0fa1","ios":"levelo://app?vid=de31c07b-e2c2-461e-9728-05e1a46c0fa1"},"vehicle_type_id":"4","last_reported":1684278390,"current_range_meters":27600,"station_id":"ce4bh0h2rcd13ifvqd40","pricing_plan_id":"free"},{"bike_id":"ee024ca2-846c-45ac-b432-06a93b6c75b9","system_id":"levelo_inurba_marseille","lat":43.301117,"lon":5.398795,"is_reserved":false,"is_disabled":false,"rental_uris":{"android":"levelo://app?vid=ee024ca2-846c-45ac-b432-06a93b6c75b9","ios":"levelo://app?vid=ee024ca2-846c-45ac-b432-06a93b6c75b9"},"vehicle_type_id":"4","last_reported":1684278390,"current_range_meters":26800,"station_id":"ce4bh0h2rcd13ifvqd40","pricing_plan_id":"free"},{"bike_id":"1fd1ec6d-da46-47fb-97c3-6b56876a6d5f","system_id":"levelo_inurba_marseille","lat":43.301117,"lon":5.398795,"is_reserved":false,"is_disabled":false,"rental_uris":{"android":"levelo://app?vid=1fd1ec6d-da46-47fb-97c3-6b56876a6d5f","ios":"levelo://app?vid=1fd1ec6d-da46-47fb-97c3-6b56876a6d5f"},"vehicle_type_id":"4","last_reported":1684278390,"current_range_meters":25200,"station_id":"ce4bh0h2rcd13ifvqd40","pricing_plan_id":"free"},{"bike_id":"4f82b2f8-7550-4f44-9dd5-990790ad7d30","system_id":"levelo_inurba_marseille","lat":43.301117,"lon":5.398795,"is_reserved":false,"is_disabled":false,"rental_uris":{"android":"levelo://app?vid=4f82b2f8-7550-4f44-9dd5-990790ad7d30","ios":"levelo://app?vid=4f82b2f8-7550-4f44-9dd5-990790ad7d30"},"vehicle_type_id":"4","last_reported":1684278390,"current_range_meters":31200,"station_id":"ce4bh0h2rcd13ifvqd40","pricing_plan_id":"free"},{"bike_id":"cb45acb1-4b90-4d95-a6c8-033ff364929c","system_id":"levelo_inurba_marseille","lat":43.301117,"lon":5.398795,"is_reserved":false,"is_disabled":false,"rental_uris":{"android":"levelo://app?vid=cb45acb1-4b90-4d95-a6c8-033ff364929c","ios":"levelo://app?vid=cb45acb1-4b90-4d95-a6c8-033ff364929c"},"vehicle_type_id":"4","last_reported":1684278390,"current_range_meters":26000,"station_id":"ce4bh0h2rcd13ifvqd40","pricing_plan_id":"free"},{"bike_id":"9a698306-ec9c-4956-9a06-b71e5cd45ad5","system_id":"levelo_inurba_marseille","lat":43.298681,"lon":5.397225,"is_reserved":false,"is_disabled":false,"rental_uris":{"android":"levelo://app?vid=9a698306-ec9c-4956-9a06-b71e5cd45ad5","ios":"levelo://app?vid=9a698306-ec9c-4956-9a06-b71e5cd45ad5"},"vehicle_type_id":"4","last_reported":1684278390,"current_range_meters":14000,"station_id":"ce4bh0h2rcd13ifvqd50","pricing_plan_id":"free"},{"bike_id":"c6677a78-e58f-4559-b57b-7f9f7fe8a938","system_id":"levelo_inurba_marseille","lat":43.298681,"lon":5.397225,"is_reserved":false,"is_disabled":false,"rental_uris":{"android":"levelo://app?vid=c6677a78-e58f-4559-b57b-7f9f7fe8a938","ios":"levelo://app?vid=c6677a78-e58f-4559-b57b-7f9f7fe8a938"},"vehicle_type_id":"4","last_reported":1684278390,"current_range_meters":30400,"station_id":"ce4bh0h2rcd13ifvqd50","pricing_plan_id":"free"},{"bike_id":"dfb6feba-b10f-4f76-b102-c3f8ad2f016a","system_id":"levelo_inurba_marseille","lat":43.298681,"lon":5.397225,"is_reserved":false,"is_disabled":false,"rental_uris":{"android":"levelo://app?vid=dfb6feba-b10f-4f76-b102-c3f8ad2f016a","ios":"levelo://app?vid=dfb6feba-b10f-4f76-b102-c3f8ad2f016a"},"vehicle_type_id":"4","last_reported":1684278390,"current_range_meters":30800,"station_id":"ce4bh0h2rcd13ifvqd50","pricing_plan_id":"free"},{"bike_id":"214ded7b-544c-4834-8a16-2977c387df74","system_id":"levelo_inurba_marseille","lat":43.286591,"lon":5.363346,"is_reserved":false,"is_disabled":false,"rental_uris":{"android":"levelo://app?vid=214ded7b-544c-4834-8a16-2977c387df74","ios":"levelo://app?vid=214ded7b-544c-4834-8a16-2977c387df74"},"vehicle_type_id":"4","last_reported":1684278390,"current_range_meters":29200,"station_id":"ce4bhah2rcd13ifvqej0","pricing_plan_id":"free"},{"bike_id":"344f5548-3d66-4bd8-96cb-eb63915dea09","system_id":"levelo_inurba_marseille","lat":43.298681,"lon":5.397225,"is_reserved":false,"is_disabled":false,"rental_uris":{"android":"levelo://app?vid=344f5548-3d66-4bd8-96cb-eb63915dea09","ios":"levelo://app?vid=344f5548-3d66-4bd8-96cb-eb63915dea09"},"vehicle_type_id":"4","last_reported":1684278390,"current_range_meters":26800,"station_id":"ce4bh0h2rcd13ifvqd50","pricing_plan_id":"free"},{"bike_id":"c92983b1-917b-43ea-a371-8fff85c7416d","system_id":"levelo_inurba_marseille","lat":43.298681,"lon":5.397225,"is_reserved":false,"is_disabled":false,"rental_uris":{"android":"levelo://app?vid=c92983b1-917b-43ea-a371-8fff85c7416d","ios":"levelo://app?vid=c92983b1-917b-43ea-a371-8fff85c7416d"},"vehicle_type_id":"4","last_reported":1684278390,"current_range_meters":29200,"station_id":"ce4bh0h2rcd13ifvqd50","pricing_plan_id":"free"},{"bike_id":"548b0136-d1ac-46de-b4b8-3cfb154be6b9","system_id":"levelo_inurba_marseille","lat":43.298681,"lon":5.397225,"is_reserved":false,"is_disabled":false,"rental_uris":{"android":"levelo://app?vid=548b0136-d1ac-46de-b4b8-3cfb154be6b9","ios":"levelo://app?vid=548b0136-d1ac-46de-b4b8-3cfb154be6b9"},"vehicle_type_id":"4","last_reported":1684278390,"current_range_meters":31200,"station_id":"ce4bh0h2rcd13ifvqd50","pricing_plan_id":"free"},{"bike_id":"e3b11c54-8e53-4d08-8829-2d1d3973ab5c","system_id":"levelo_inurba_marseille","lat":43.286591,"lon":5.363346,"is_reserved":false,"is_disabled":false,"rental_uris":{"android":"levelo://app?vid=e3b11c54-8e53-4d08-8829-2d1d3973ab5c","ios":"levelo://app?vid=e3b11c54-8e53-4d08-8829-2d1d3973ab5c"},"vehicle_type_id":"4","last_reported":1684278390,"current_range_meters":31200,"station_id":"ce4bhah2rcd13ifvqej0","pricing_plan_id":"free"},{"bike_id":"59454c8e-bbba-43fe-b529-5f0eb1ac1a67","system_id":"levelo_inurba_marseille","lat":43.298681,"lon":5.397225,"is_reserved":false,"is_disabled":false,"rental_uris":{"android":"levelo://app?vid=59454c8e-bbba-43fe-b529-5f0eb1ac1a67","ios":"levelo://app?vid=59454c8e-bbba-43fe-b529-5f0eb1ac1a67"},"vehicle_type_id":"4","last_reported":1684278390,"current_range_meters":31200,"station_id":"ce4bh0h2rcd13ifvqd50","pricing_plan_id":"free"},{"bike_id":"cadc7129-a281-44b0-9972-137a80ce05d6","system_id":"levelo_inurba_marseille","lat":43.286593,"lon":5.363346,"is_reserved":false,"is_disabled":false,"rental_uris":{"android":"levelo://app?vid=cadc7129-a281-44b0-9972-137a80ce05d6","ios":"levelo://app?vid=cadc7129-a281-44b0-9972-137a80ce05d6"},"vehicle_type_id":"4","last_reported":1684278390,"current_range_meters":31200,"station_id":"ce4bhah2rcd13ifvqej0","pricing_plan_id":"free"},{"bike_id":"31a7c452-6532-4d44-8c29-1493bcd8737e","system_id":"levelo_inurba_marseille","lat":43.298681,"lon":5.397225,"is_reserved":false,"is_disabled":false,"rental_uris":{"android":"levelo://app?vid=31a7c452-6532-4d44-8c29-1493bcd8737e","ios":"levelo://app?vid=31a7c452-6532-4d44-8c29-1493bcd8737e"},"vehicle_type_id":"4","last_reported":1684278390,"current_range_meters":31200,"station_id":"ce4bh0h2rcd13ifvqd50","pricing_plan_id":"free"},{"bike_id":"9ef0e3d0-cb03-4dc2-ae07-641c1a9fa26c","system_id":"levelo_inurba_marseille","lat":43.298681,"lon":5.397225,"is_reserved":false,"is_disabled":false,"rental_uris":{"android":"levelo://app?vid=9ef0e3d0-cb03-4dc2-ae07-641c1a9fa26c","ios":"levelo://app?vid=9ef0e3d0-cb03-4dc2-ae07-641c1a9fa26c"},"vehicle_type_id":"4","last_reported":1684278390,"current_range_meters":26400,"station_id":"ce4bh0h2rcd13ifvqd50","pricing_plan_id":"free"},{"bike_id":"69bd4bdc-fad9-44a7-acb9-7e07bce5e313","system_id":"levelo_inurba_marseille","lat":43.286593,"lon":5.363346,"is_reserved":false,"is_disabled":false,"rental_uris":{"android":"levelo://app?vid=69bd4bdc-fad9-44a7-acb9-7e07bce5e313","ios":"levelo://app?vid=69bd4bdc-fad9-44a7-acb9-7e07bce5e313"},"vehicle_type_id":"4","last_reported":1684278390,"current_range_meters":24000,"station_id":"ce4bhah2rcd13ifvqej0","pricing_plan_id":"free"},{"bike_id":"6db2e992-0253-4a7d-9076-52fb7b0d1f16","system_id":"levelo_inurba_marseille","lat":43.298681,"lon":5.397225,"is_reserved":false,"is_disabled":false,"rental_uris":{"android":"levelo://app?vid=6db2e992-0253-4a7d-9076-52fb7b0d1f16","ios":"levelo://app?vid=6db2e992-0253-4a7d-9076-52fb7b0d1f16"},"vehicle_type_id":"4","last_reported":1684278390,"current_range_meters":27200,"station_id":"ce4bh0h2rcd13ifvqd50","pricing_plan_id":"free"},{"bike_id":"84b81e70-9d97-459d-b0cd-cef15032dceb","system_id":"levelo_inurba_marseille","lat":43.298681,"lon":5.397225,"is_reserved":false,"is_disabled":false,"rental_uris":{"android":"levelo://app?vid=84b81e70-9d97-459d-b0cd-cef15032dceb","ios":"levelo://app?vid=84b81e70-9d97-459d-b0cd-cef15032dceb"},"vehicle_type_id":"4","last_reported":1684278390,"current_range_meters":31200,"station_id":"ce4bh0h2rcd13ifvqd50","pricing_plan_id":"free"},{"bike_id":"f6df13fd-b8f0-4640-9a14-13a1161f1294","system_id":"levelo_inurba_marseille","lat":43.286591,"lon":5.363346,"is_reserved":false,"is_disabled":false,"rental_uris":{"android":"levelo://app?vid=f6df13fd-b8f0-4640-9a14-13a1161f1294","ios":"levelo://app?vid=f6df13fd-b8f0-4640-9a14-13a1161f1294"},"vehicle_type_id":"4","last_reported":1684278390,"current_range_meters":31200,"station_id":"ce4bhah2rcd13ifvqej0","pricing_plan_id":"free"},{"bike_id":"af8dfca9-c25b-4199-95f3-f71daba738e4","system_id":"levelo_inurba_marseille","lat":43.286591,"lon":5.363346,"is_reserved":false,"is_disabled":false,"rental_uris":{"android":"levelo://app?vid=af8dfca9-c25b-4199-95f3-f71daba738e4","ios":"levelo://app?vid=af8dfca9-c25b-4199-95f3-f71daba738e4"},"vehicle_type_id":"4","last_reported":1684278390,"current_range_meters":30000,"station_id":"ce4bhah2rcd13ifvqej0","pricing_plan_id":"free"},{"bike_id":"490de95c-c869-4ed2-8ace-120de950abed","system_id":"levelo_inurba_marseille","lat":43.286591,"lon":5.363346,"is_reserved":false,"is_disabled":false,"rental_uris":{"android":"levelo://app?vid=490de95c-c869-4ed2-8ace-120de950abed","ios":"levelo://app?vid=490de95c-c869-4ed2-8ace-120de950abed"},"vehicle_type_id":"4","last_reported":1684278390,"current_range_meters":27200,"station_id":"ce4bhah2rcd13ifvqej0","pricing_plan_id":"free"},{"bike_id":"82528752-1c93-4501-ba10-532fc8928d28","system_id":"levelo_inurba_marseille","lat":43.286593,"lon":5.363346,"is_reserved":false,"is_disabled":false,"rental_uris":{"android":"levelo://app?vid=82528752-1c93-4501-ba10-532fc8928d28","ios":"levelo://app?vid=82528752-1c93-4501-ba10-532fc8928d28"},"vehicle_type_id":"4","last_reported":1684278390,"current_range_meters":24400,"station_id":"ce4bhah2rcd13ifvqej0","pricing_plan_id":"free"},{"bike_id":"298ea436-f48e-48c3-b877-ca7acc4e71d5","system_id":"levelo_inurba_marseille","lat":43.286591,"lon":5.363346,"is_reserved":false,"is_disabled":false,"rental_uris":{"android":"levelo://app?vid=298ea436-f48e-48c3-b877-ca7acc4e71d5","ios":"levelo://app?vid=298ea436-f48e-48c3-b877-ca7acc4e71d5"},"vehicle_type_id":"4","last_reported":1684278390,"current_range_meters":31200,"station_id":"ce4bhah2rcd13ifvqej0","pricing_plan_id":"free"},{"bike_id":"3555d1ef-22dd-4021-bce2-5e35139ea0dd","system_id":"levelo_inurba_marseille","lat":43.286593,"lon":5.363346,"is_reserved":false,"is_disabled":false,"rental_uris":{"android":"levelo://app?vid=3555d1ef-22dd-4021-bce2-5e35139ea0dd","ios":"levelo://app?vid=3555d1ef-22dd-4021-bce2-5e35139ea0dd"},"vehicle_type_id":"4","last_reported":1684278390,"current_range_meters":28000,"station_id":"ce4bhah2rcd13ifvqej0","pricing_plan_id":"free"},{"bike_id":"2c069181-4e33-4a16-be76-2ac80467dcac","system_id":"levelo_inurba_marseille","lat":43.298681,"lon":5.397225,"is_reserved":false,"is_disabled":false,"rental_uris":{"android":"levelo://app?vid=2c069181-4e33-4a16-be76-2ac80467dcac","ios":"levelo://app?vid=2c069181-4e33-4a16-be76-2ac80467dcac"},"vehicle_type_id":"4","last_reported":1684278390,"current_range_meters":26400,"station_id":"ce4bh0h2rcd13ifvqd50","pricing_plan_id":"free"},{"bike_id":"5469316f-a47e-4aca-8022-fd65f1ac5613","system_id":"levelo_inurba_marseille","lat":43.286593,"lon":5.363346,"is_reserved":false,"is_disabled":false,"rental_uris":{"android":"levelo://app?vid=5469316f-a47e-4aca-8022-fd65f1ac5613","ios":"levelo://app?vid=5469316f-a47e-4aca-8022-fd65f1ac5613"},"vehicle_type_id":"4","last_reported":1684278390,"current_range_meters":21600,"station_id":"ce4bhah2rcd13ifvqej0","pricing_plan_id":"free"},{"bike_id":"35d46b1e-f607-413d-bb32-5942e1f6d5ab","system_id":"levelo_inurba_marseille","lat":43.295196,"lon":5.39397,"is_reserved":false,"is_disabled":false,"rental_uris":{"android":"levelo://app?vid=35d46b1e-f607-413d-bb32-5942e1f6d5ab","ios":"levelo://app?vid=35d46b1e-f607-413d-bb32-5942e1f6d5ab"},"vehicle_type_id":"4","last_reported":1684278390,"current_range_meters":28400,"station_id":"ce4bh292rcd13ifvqdf0","pricing_plan_id":"free"},{"bike_id":"27a918fb-bf3e-4c96-a4a8-e8f6ab02b5f4","system_id":"levelo_inurba_marseille","lat":43.2952,"lon":5.39403,"is_reserved":false,"is_disabled":false,"rental_uris":{"android":"levelo://app?vid=27a918fb-bf3e-4c96-a4a8-e8f6ab02b5f4","ios":"levelo://app?vid=27a918fb-bf3e-4c96-a4a8-e8f6ab02b5f4"},"vehicle_type_id":"4","last_reported":1684278390,"current_range_meters":0,"station_id":"ce4bh292rcd13ifvqdf0","pricing_plan_id":"free"},{"bike_id":"6f2a4fc9-11cc-436a-92d4-b1f62e22b022","system_id":"levelo_inurba_marseille","lat":43.29521,"lon":5.39405,"is_reserved":false,"is_disabled":false,"rental_uris":{"android":"levelo://app?vid=6f2a4fc9-11cc-436a-92d4-b1f62e22b022","ios":"levelo://app?vid=6f2a4fc9-11cc-436a-92d4-b1f62e22b022"},"vehicle_type_id":"4","last_reported":1684278390,"current_range_meters":3600,"station_id":"ce4bh292rcd13ifvqdf0","pricing_plan_id":"free"},{"bike_id":"f0d96bd6-9db2-46eb-b08f-a6e7fc91cba3","system_id":"levelo_inurba_marseille","lat":43.302759,"lon":5.400793,"is_reserved":false,"is_disabled":false,"rental_uris":{"android":"levelo://app?vid=f0d96bd6-9db2-46eb-b08f-a6e7fc91cba3","ios":"levelo://app?vid=f0d96bd6-9db2-46eb-b08f-a6e7fc91cba3"},"vehicle_type_id":"4","last_reported":1684278390,"current_range_meters":31200,"station_id":"ce4bgvh2rcd13ifvqcs0","pricing_plan_id":"free"},{"bike_id":"ade7bc36-0357-4934-8d5b-7477b2fb7c33","system_id":"levelo_inurba_marseille","lat":43.302759,"lon":5.400793,"is_reserved":false,"is_disabled":false,"rental_uris":{"android":"levelo://app?vid=ade7bc36-0357-4934-8d5b-7477b2fb7c33","ios":"levelo://app?vid=ade7bc36-0357-4934-8d5b-7477b2fb7c33"},"vehicle_type_id":"4","last_reported":1684278390,"current_range_meters":31600,"station_id":"ce4bgvh2rcd13ifvqcs0","pricing_plan_id":"free"},{"bike_id":"8d0e152f-2cd3-4b8e-ad55-4322edb90383","system_id":"levelo_inurba_marseille","lat":43.295196,"lon":5.39397,"is_reserved":false,"is_disabled":false,"rental_uris":{"android":"levelo://app?vid=8d0e152f-2cd3-4b8e-ad55-4322edb90383","ios":"levelo://app?vid=8d0e152f-2cd3-4b8e-ad55-4322edb90383"},"vehicle_type_id":"4","last_reported":1684278390,"current_range_meters":27200,"station_id":"ce4bh292rcd13ifvqdf0","pricing_plan_id":"free"},{"bike_id":"f9b1d8a0-7f24-43e0-9c33-c0676b39ed13","system_id":"levelo_inurba_marseille","lat":43.29512,"lon":5.39402,"is_reserved":false,"is_disabled":false,"rental_uris":{"android":"levelo://app?vid=f9b1d8a0-7f24-43e0-9c33-c0676b39ed13","ios":"levelo://app?vid=f9b1d8a0-7f24-43e0-9c33-c0676b39ed13"},"vehicle_type_id":"4","last_reported":1684278390,"current_range_meters":2800,"station_id":"ce4bh292rcd13ifvqdf0","pricing_plan_id":"free"},{"bike_id":"7551e5c4-2b50-4572-860a-3ee9a7d78583","system_id":"levelo_inurba_marseille","lat":43.29505,"lon":5.39403,"is_reserved":false,"is_disabled":false,"rental_uris":{"android":"levelo://app?vid=7551e5c4-2b50-4572-860a-3ee9a7d78583","ios":"levelo://app?vid=7551e5c4-2b50-4572-860a-3ee9a7d78583"},"vehicle_type_id":"4","last_reported":1684278390,"current_range_meters":0,"station_id":"ce4bh292rcd13ifvqdf0","pricing_plan_id":"free"},{"bike_id":"3b4c418b-42d3-4bc1-a00a-95fc17ad6f94","system_id":"levelo_inurba_marseille","lat":43.302759,"lon":5.400793,"is_reserved":false,"is_disabled":false,"rental_uris":{"android":"levelo://app?vid=3b4c418b-42d3-4bc1-a00a-95fc17ad6f94","ios":"levelo://app?vid=3b4c418b-42d3-4bc1-a00a-95fc17ad6f94"},"vehicle_type_id":"4","last_reported":1684278390,"current_range_meters":26400,"station_id":"ce4bgvh2rcd13ifvqcs0","pricing_plan_id":"free"},{"bike_id":"a24657d9-729b-408a-8244-041df6c197af","system_id":"levelo_inurba_marseille","lat":43.302759,"lon":5.400793,"is_reserved":false,"is_disabled":false,"rental_uris":{"android":"levelo://app?vid=a24657d9-729b-408a-8244-041df6c197af","ios":"levelo://app?vid=a24657d9-729b-408a-8244-041df6c197af"},"vehicle_type_id":"4","last_reported":1684278390,"current_range_meters":14000,"station_id":"ce4bgvh2rcd13ifvqcs0","pricing_plan_id":"free"},{"bike_id":"a12d307a-1820-4458-ad77-5e781ad3686f","system_id":"levelo_inurba_marseille","lat":43.30244,"lon":5.40056,"is_reserved":false,"is_disabled":false,"rental_uris":{"android":"levelo://app?vid=a12d307a-1820-4458-ad77-5e781ad3686f","ios":"levelo://app?vid=a12d307a-1820-4458-ad77-5e781ad3686f"},"vehicle_type_id":"4","last_reported":1684278390,"current_range_meters":29600,"station_id":"","pricing_plan_id":"free"},{"bike_id":"5e1c7b28-5109-4736-b813-78f032ff77ef","system_id":"levelo_inurba_marseille","lat":43.302759,"lon":5.400793,"is_reserved":false,"is_disabled":false,"rental_uris":{"android":"levelo://app?vid=5e1c7b28-5109-4736-b813-78f032ff77ef","ios":"levelo://app?vid=5e1c7b28-5109-4736-b813-78f032ff77ef"},"vehicle_type_id":"4","last_reported":1684278390,"current_range_meters":31600,"station_id":"ce4bgvh2rcd13ifvqcs0","pricing_plan_id":"free"},{"bike_id":"7c902d23-95cc-43ec-87c8-d6a2a864bdaa","system_id":"levelo_inurba_marseille","lat":43.30248,"lon":5.40059,"is_reserved":false,"is_disabled":false,"rental_uris":{"android":"levelo://app?vid=7c902d23-95cc-43ec-87c8-d6a2a864bdaa","ios":"levelo://app?vid=7c902d23-95cc-43ec-87c8-d6a2a864bdaa"},"vehicle_type_id":"4","last_reported":1684278390,"current_range_meters":1200,"station_id":"","pricing_plan_id":"free"},