{"last_updated":1745669812,"ttl":60,"version":"2.2","data":{"bikes":[{"bike_id":"6d0a61fc-518d-48e6-b383-0cc8c0395f0a","system_id":"levelo_inurba_marseille","lat":43.241669,"lon":5.363905,"is_reserved":false,"is_disabled":false,"rental_uris":{"android":"levelo://app?vid=6d0a61fc-518d-48e6-b383-0cc8c0395f0a","ios":"levelo://app?vid=6d0a61fc-518d-48e6-b383-0cc8c0395f0a"},"vehicle_type_id":"4","last_reported":1745669813,"current_range_meters":2800,"station_id":"","pricing_plan_id":"cebpf4jnsgd1na2vs0mg"},{"bike_id":"46374c49-3adc-4c5a-8966-e00f056c0d57","system_id":"levelo_inurba_marseille","lat":43.27846,"lon":5.35442,"is_reserved":false,"is_disabled":false,"rental_uris":{"android":"levelo://app?vid=46374c49-3adc-4c5a-8966-e00f056c0d57","ios":"levelo://app?vid=46374c49-3adc-4c5a-8966-e00f056c0d57"},"vehicle_type_id":"4","last_reported":1745669813,"current_range_meters":2800,"station_id":"","pricing_plan_id":"cebpf4jnsgd1na2vs0mg"},{"bike_id":"e8e23941-7d15-4c95-9e97-7d7dba3307b7","system_id":"levelo_inurba_marseille","lat":43.25111,"lon":5.40321,"is_reserved":false,"is_disabled":false,"rental_uris":{"android":"levelo://app?vid=e8e23941-7d15-4c95-9e97-7d7dba3307b7","ios":"levelo://app?vid=e8e23941-7d15-4c95-9e97-7d7dba3307b7"},"vehicle_type_id":"4","last_reported":1745669813,"current_range_meters":2800,"station_id":"ce4bhlh2rcd13ifvqgig","pricing_plan_id":"cebpf4jnsgd1na2vs0mg"},{"bike_id":"0a43695a-a170-49b6-9403-77c2ee7f86e7","system_id":"levelo_inurba_marseille","lat":43.28853,"lon":5.35862,"is_reserved":false,"is_disabled":false,"rental_uris":{"android":"levelo://app?vid=0a43695a-a170-49b6-9403-77c2ee7f86e7","ios":"levelo://app?vid=0a43695a-a170-49b6-9403-77c2ee7f86e7"},"vehicle_type_id":"4","last_reported":1745669813,"current_range_meters":2800,"station_id":"ce4bhb12rcd13ifvqem0","pricing_plan_id":"cebpf4jnsgd1na2vs0mg"},{"bike_id":"3dad060e-dd45-445e-a784-33902149443d","system_id":"levelo_inurba_marseille","lat":43.286652,"lon":5.386595,"is_reserved":false,"is_disabled":false,"rental_uris":{"android":"levelo://app?vid=3dad060e-dd45-445e-a784-33902149443d","ios":"levelo://app?vid=3dad060e-dd45-445e-a784-33902149443d"},"vehicle_type_id":"4","last_reported":1745669813,"current_range_meters":1200,"station_id":"ce4bh492rcd13ifvqdug","pricing_plan_id":"cebpf4jnsgd1na2vs0mg"},{"bike_id":"ecdd0875-7d56-4cd2-a14a-671f78e26c97","system_id":"levelo_inurba_marseille","lat":43.230604,"lon":5.354976,"is_reserved":false,"is_disabled":true,"rental_uris":{"android":"levelo://app?vid=ecdd0875-7d56-4cd2-a14a-671f78e26c97","ios":"levelo://app?vid=ecdd0875-7d56-4cd2-a14a-671f78e26c97"},"vehicle_type_id":"4","last_reported":1745669813,"current_range_meters":3200,"station_id":"cpo3342slgdg3j2ifvpg","pricing_plan_id":"cebpf4jnsgd1na2vs0mg"},{"bike_id":"1e33a176-76f2-4ccf-afa9-9ba032c726ae","system_id":"levelo_inurba_marseille","lat":43.217499,"lon":5.345992,"is_reserved":false,"is_disabled":false,"rental_uris":{"android":"levelo://app?vid=1e33a176-76f2-4ccf-afa9-9ba032c726ae","ios":"levelo://app?vid=1e33a176-76f2-4ccf-afa9-9ba032c726ae"},"vehicle_type_id":"4","last_reported":1745669813,"current_range_meters":3200,"station_id":"","pricing_plan_id":"cebpf4jnsgd1na2vs0mg"},{"bike_id":"7a78217b-7558-475d-afab-ecd4b02be08d","system_id":"levelo_inurba_marseille","lat":43.27061,"lon":5.40255,"is_reserved":false,"is_disabled":false,"rental_uris":{"android":"levelo://app?vid=7a78217b-7558-475d-afab-ecd4b02be08d","ios":"levelo://app?vid=7a78217b-7558-475d-afab-ecd4b02be08d"},"vehicle_type_id":"4","last_reported":1745669813,"current_range_meters":3200,"station_id":"ce4bhk92rcd13ifvqgc0","pricing_plan_id":"cebpf4jnsgd1na2vs0mg"},{"bike_id":"702f3c39-9a00-4d13-a3bf-e60f99611fbe","system_id":"levelo_inurba_marseille","lat":43.23178,"lon":5.35563,"is_reserved":false,"is_disabled":true,"rental_uris":{"android":"levelo://app?vid=702f3c39-9a00-4d13-a3bf-e60f99611fbe","ios":"levelo://app?vid=702f3c39-9a00-4d13-a3bf-e60f99611fbe"},"vehicle_type_id":"4","last_reported":1745669813,"current_range_meters":3200,"station_id":"ce4bhu92rcd13ifvqi70","pricing_plan_id":"cebpf4jnsgd1na2vs0mg"},{"bike_id":"f8546583-4b1f-461d-8f16-996c31dd0471","system_id":"levelo_inurba_marseille","lat":43.21187,"lon":5.35083,"is_reserved":false,"is_disabled":false,"rental_uris":{"android":"levelo://app?vid=f8546583-4b1f-461d-8f16-996c31dd0471","ios":"levelo://app?vid=f8546583-4b1f-461d-8f16-996c31dd0471"},"vehicle_type_id":"4","last_reported":1745669813,"current_range_meters":3600,"station_id":"st_cvj6sg6p6f1abm77japg","pricing_plan_id":"cebpf4jnsgd1na2vs0mg"},{"bike_id":"19ec006a-ccb4-43aa-9767-9027105ab2d7","system_id":"levelo_inurba_marseille","lat":43.262054,"lon":5.379297,"is_reserved":false,"is_disabled":false,"rental_uris":{"android":"levelo://app?vid=19ec006a-ccb4-43aa-9767-9027105ab2d7","ios":"levelo://app?vid=19ec006a-ccb4-43aa-9767-9027105ab2d7"},"vehicle_type_id":"4","last_reported":1745669813,"current_range_meters":3600,"station_id":"ce4bhjp2rcd13ifvqg90","pricing_plan_id":"cebpf4jnsgd1na2vs0mg"},{"bike_id":"809e59ac-ee8e-4f79-a65e-a2fad53fd2cc","system_id":"levelo_inurba_marseille","lat":43.29757,"lon":5.40958,"is_reserved":false,"is_disabled":false,"rental_uris":{"android":"levelo://app?vid=809e59ac-ee8e-4f79-a65e-a2fad53fd2cc","ios":"levelo://app?vid=809e59ac-ee8e-4f79-a65e-a2fad53fd2cc"},"vehicle_type_id":"4","last_reported":1745669813,"current_range_meters":3600,"station_id":"","pricing_plan_id":"cebpf4jnsgd1na2vs0mg"},{"bike_id":"2bd4aab7-8b3a-47c6-9815-64eeba68f150","system_id":"levelo_inurba_marseille","lat":43.21742,"lon":5.34609,"is_reserved":false,"is_disabled":false,"rental_uris":{"android":"levelo://app?vid=2bd4aab7-8b3a-47c6-9815-64eeba68f150","ios":"levelo://app?vid=2bd4aab7-8b3a-47c6-9815-64eeba68f150"},"vehicle_type_id":"4","last_reported":1745669813,"current_range_meters":4000,"station_id":"","pricing_plan_id":"cebpf4jnsgd1na2vs0mg"},{"bike_id":"8390b55b-0e3c-4ae7-b606-238757f0f3d5","system_id":"levelo_inurba_marseille","lat":43.3088,"lon":5.39646,"is_reserved":false,"is_disabled":false,"rental_uris":{"android":"levelo://app?vid=8390b55b-0e3c-4ae7-b606-238757f0f3d5","ios":"levelo://app?vid=8390b55b-0e3c-4ae7-b606-238757f0f3d5"},"vehicle_type_id":"4","last_reported":1745669813,"current_range_meters":3600,"station_id":"ce4bh012rcd13ifvqcv0","pricing_plan_id":"cebpf4jnsgd1na2vs0mg"},{"bike_id":"f1a9f5db-d774-4f36-a0be-69b289d14fd1","system_id":"levelo_inurba_marseille","lat":43.21193,"lon":5.35074,"is_reserved":false,"is_disabled":false,"rental_uris":{"android":"levelo://app?vid=f1a9f5db-d774-4f36-a0be-69b289d14fd1","ios":"levelo://app?vid=f1a9f5db-d774-4f36-a0be-69b289d14fd1"},"vehicle_type_id":"4","last_reported":1745669813,"current_range_meters":4000,"station_id":"st_cvj6sg6p6f1abm77japg","pricing_plan_id":"cebpf4jnsgd1na2vs0mg"},{"bike_id":"301c999e-0cee-46a8-a7da-c18cd9ade635","system_id":"levelo_inurba_marseille","lat":43.313589,"lon":5.384842,"is_reserved":false,"is_disabled":false,"rental_uris":{"android":"levelo://app?vid=301c999e-0cee-46a8-a7da-c18cd9ade635","ios":"levelo://app?vid=301c999e-0cee-46a8-a7da-c18cd9ade635"},"vehicle_type_id":"4","last_reported":1745669813,"current_range_meters":4000,"station_id":"ce4bgk12rcd13ifvqbi0","pricing_plan_id":"cebpf4jnsgd1na2vs0mg"},{"bike_id":"f63ac53e-0361-42dd-96f0-e7323c823f7f","system_id":"levelo_inurba_marseille","lat":43.28861,"lon":5.35846,"is_reserved":false,"is_disabled":false,"rental_uris":{"android":"levelo://app?vid=f63ac53e-0361-42dd-96f0-e7323c823f7f","ios":"levelo://app?vid=f63ac53e-0361-42dd-96f0-e7323c823f7f"},"vehicle_type_id":"4","last_reported":1745669813,"current_range_meters":4400,"station_id":"ce4bhb12rcd13ifvqem0","pricing_plan_id":"cebpf4jnsgd1na2vs0mg"},{"bike_id":"49362cd8-0cc1-428e-bd69-89f1745293ce","system_id":"levelo_inurba_marseille","lat":43.25135,"lon":5.40325,"is_reserved":false,"is_disabled":false,"rental_uris":{"android":"levelo://app?vid=49362cd8-0cc1-428e-bd69-89f1745293ce","ios":"levelo://app?vid=49362cd8-0cc1-428e-bd69-89f1745293ce"},"vehicle_type_id":"4","last_reported":1745669813,"current_range_meters":4400,"station_id":"ce4bhlh2rcd13ifvqgig","pricing_plan_id":"cebpf4jnsgd1na2vs0mg"},{"bike_id":"2712c79d-9981-4539-986b-85033eb2dae5","system_id":"levelo_inurba_marseille","lat":43.29708,"lon":5.3662,"is_reserved":false,"is_disabled":false,"rental_uris":{"android":"levelo://app?vid=2712c79d-9981-4539-986b-85033eb2dae5","ios":"levelo://app?vid=2712c79d-9981-4539-986b-85033eb2dae5"},"vehicle_type_id":"4","last_reported":1745669813,"current_range_meters":4400,"station_id":"ce4bgn12rcd13ifvqbt0","pricing_plan_id":"cebpf4jnsgd1na2vs0mg"},{"bike_id":"275008ce-6953-4694-b06a-167a20b1f956","system_id":"levelo_inurba_marseille","lat":43.29618,"lon":5.3772,"is_reserved":false,"is_disabled":false,"rental_uris":{"android":"levelo://app?vid=275008ce-6953-4694-b06a-167a20b1f956","ios":"levelo://app?vid=275008ce-6953-4694-b06a-167a20b1f956"},"vehicle_type_id":"4","last_reported":1745669813,"current_range_meters":4800,"station_id":"ce4bgi92rcd13ifvqb90","pricing_plan_id":"cebpf4jnsgd1na2vs0mg"},{"bike_id":"3b3774a3-111f-442c-bf5c-0a16c8cf7b0a","system_id":"levelo_inurba_marseille","lat":43.271851,"lon":5.410032,"is_reserved":false,"is_disabled":false,"rental_uris":{"android":"levelo://app?vid=3b3774a3-111f-442c-bf5c-0a16c8cf7b0a","ios":"levelo://app?vid=3b3774a3-111f-442c-bf5c-0a16c8cf7b0a"},"vehicle_type_id":"4","last_reported":1745669813,"current_range_meters":5600,"station_id":"ce4bhl12rcd13ifvqgf0","pricing_plan_id":"cebpf4jnsgd1na2vs0mg"},{"bike_id":"56a2abec-716d-419d-8d0c-9fe7fdd60ce2","system_id":"levelo_inurba_marseille","lat":43.296311,"lon":5.405958,"is_reserved":false,"is_disabled":false,"rental_uris":{"android":"levelo://app?vid=56a2abec-716d-419d-8d0c-9fe7fdd60ce2","ios":"levelo://app?vid=56a2abec-716d-419d-8d0c-9fe7fdd60ce2"},"vehicle_type_id":"4","last_reported":1745669813,"current_range_meters":5600,"station_id":"ce4bh0h2rcd13ifvqd60","pricing_plan_id":"cebpf4jnsgd1na2vs0mg"},{"bike_id":"b2b19781-7e75-4513-9959-1389b05e54b5","system_id":"levelo_inurba_marseille","lat":43.28491,"lon":5.38553,"is_reserved":false,"is_disabled":false,"rental_uris":{"android":"levelo://app?vid=b2b19781-7e75-4513-9959-1389b05e54b5","ios":"levelo://app?vid=b2b19781-7e75-4513-9959-1389b05e54b5"},"vehicle_type_id":"4","last_reported":1745669813,"current_range_meters":5600,"station_id":"ce4bh8p2rcd13ifvqeb0","pricing_plan_id":"cebpf4jnsgd1na2vs0mg"},{"bike_id":"1746265e-27ad-4913-8a06-b6dc5372d844","system_id":"levelo_inurba_marseille","lat":43.26001,"lon":5.37485,"is_reserved":false,"is_disabled":false,"rental_uris":{"android":"levelo://app?vid=1746265e-27ad-4913-8a06-b6dc5372d844","ios":"levelo://app?vid=1746265e-27ad-4913-8a06-b6dc5372d844"},"vehicle_type_id":"4","last_reported":1745669813,"current_range_meters":6000,"station_id":"","pricing_plan_id":"cebpf4jnsgd1na2vs0mg"},{"bike_id":"424e658b-d30b-47de-bed7-47a54ab96769","system_id":"levelo_inurba_marseille","lat":43.26203,"lon":5.37928,"is_reserved":false,"is_disabled":false,"rental_uris":{"android":"levelo://app?vid=424e658b-d30b-47de-bed7-47a54ab96769","ios":"levelo://app?vid=424e658b-d30b-47de-bed7-47a54ab96769"},"vehicle_type_id":"4","last_reported":1745669813,"current_range_meters":5600,"station_id":"ce4bhjp2rcd13ifvqg90","pricing_plan_id":"cebpf4jnsgd1na2vs0mg"},{"bike_id":"0f7697fd-f00f-4506-b484-ba579172cd56","system_id":"levelo_inurba_marseille","lat":43.21192,"lon":5.35068,"is_reserved":false,"is_disabled":false,"rental_uris":{"android":"levelo://app?vid=0f7697fd-f00f-4506-b484-ba579172cd56","ios":"levelo://app?vid=0f7697fd-f00f-4506-b484-ba579172cd56"},"vehicle_type_id":"4","last_reported":1745669813,"current_range_meters":6000,"station_id":"st_cvj6sg6p6f1abm77japg","pricing_plan_id":"cebpf4jnsgd1na2vs0mg"},{"bike_id":"a84dda67-2771-448f-9f2c-69a47019d774","system_id":"levelo_inurba_marseille","lat":43.3362,"lon":5.41007,"is_reserved":false,"is_disabled":true,"rental_uris":{"android":"levelo://app?vid=a84dda67-2771-448f-9f2c-69a47019d774","ios":"levelo://app?vid=a84dda67-2771-448f-9f2c-69a47019d774"},"vehicle_type_id":"4","last_reported":1745669813,"current_range_meters":6000,"station_id":"ce4bhqh2rcd13ifvqhmg","pricing_plan_id":"cebpf4jnsgd1na2vs0mg"},{"bike_id":"66f119d3-a0da-4e13-8a91-f2467f53bbd7","system_id":"levelo_inurba_marseille","lat":43.30307,"lon":5.36879,"is_reserved":false,"is_disabled":false,"rental_uris":{"android":"levelo://app?vid=66f119d3-a0da-4e13-8a91-f2467f53bbd7","ios":"levelo://app?vid=66f119d3-a0da-4e13-8a91-f2467f53bbd7"},"vehicle_type_id":"4","last_reported":1745669813,"current_range_meters":6000,"station_id":"ce4bgqh2rcd13ifvqc5g","pricing_plan_id":"cebpf4jnsgd1na2vs0mg"},{"bike_id":"c46c1b23-b12b-48ad-ab49-f69c7d2b5cdd","system_id":"levelo_inurba_marseille","lat":43.27982,"lon":5.41644,"is_reserved":false,"is_disabled":false,"rental_uris":{"android":"levelo://app?vid=c46c1b23-b12b-48ad-ab49-f69c7d2b5cdd","ios":"levelo://app?vid=c46c1b23-b12b-48ad-ab49-f69c7d2b5cdd"},"vehicle_type_id":"4","last_reported":1745669813,"current_range_meters":6000,"station_id":"ce4bho12rcd13ifvqh1g","pricing_plan_id":"cebpf4jnsgd1na2vs0mg"},{"bike_id":"96d842ca-c26a-434c-96e5-8435ff4e7570","system_id":"levelo_inurba_marseille","lat":43.28004,"lon":5.40015,"is_reserved":false,"is_disabled":false,"rental_uris":{"android":"levelo://app?vid=96d842ca-c26a-434c-96e5-8435ff4e7570","ios":"levelo://app?vid=96d842ca-c26a-434c-96e5-8435ff4e7570"},"vehicle_type_id":"4","last_reported":1745669813,"current_range_meters":6400,"station_id":"ce4bho92rcd13ifvqh4g","pricing_plan_id":"cebpf4jnsgd1na2vs0mg"},{"bike_id":"02fd4c5a-6a67-4fd2-9569-6a85a928d175","system_id":"levelo_inurba_marseille","lat":43.21753,"lon":5.34601,"is_reserved":false,"is_disabled":false,"rental_uris":{"android":"levelo://app?vid=02fd4c5a-6a67-4fd2-9569-6a85a928d175","ios":"levelo://app?vid=02fd4c5a-6a67-4fd2-9569-6a85a928d175"},"vehicle_type_id":"4","last_reported":1745669813,"current_range_meters":6400,"station_id":"st_cvj6r9ubvosntc0bgbag","pricing_plan_id":"cebpf4jnsgd1na2vs0mg"},{"bike_id":"388efdd8-46ef-4c3f-aa31-9ec3108a9f0b","system_id":"levelo_inurba_marseille","lat":43.231918,"lon":5.355508,"is_reserved":false,"is_disabled":false,"rental_uris":{"android":"levelo://app?vid=388efdd8-46ef-4c3f-aa31-9ec3108a9f0b","ios":"levelo://app?vid=388efdd8-46ef-4c3f-aa31-9ec3108a9f0b"},"vehicle_type_id":"4","last_reported":1745669813,"current_range_meters":6400,"station_id":"ce4bhu92rcd13ifvqi70","pricing_plan_id":"cebpf4jnsgd1na2vs0mg"},{"bike_id":"92ffa40c-bdfb-4a29-b82c-a7fbf6b27078","system_id":"levelo_inurba_marseille","lat":43.290061,"lon":5.356128,"is_reserved":false,"is_disabled":false,"rental_uris":{"android":"levelo://app?vid=92ffa40c-bdfb-4a29-b82c-a7fbf6b27078","ios":"levelo://app?vid=92ffa40c-bdfb-4a29-b82c-a7fbf6b27078"},"vehicle_type_id":"4","last_reported":1745669813,"current_range_meters":6400,"station_id":"ce4bhb92rcd13ifvqen0","pricing_plan_id":"cebpf4jnsgd1na2vs0mg"},{"bike_id":"bd3bdff3-73b2-4955-9f8c-bc4fa93a69bc","system_id":"levelo_inurba_marseille","lat":43.302,"lon":5.366074,"is_reserved":false,"is_disabled":false,"rental_uris":{"android":"levelo://app?vid=bd3bdff3-73b2-4955-9f8c-bc4fa93a69bc","ios":"levelo://app?vid=bd3bdff3-73b2-4955-9f8c-bc4fa93a69bc"},"vehicle_type_id":"4","last_reported":1745669813,"current_range_meters":6400,"station_id":"ce4bgkh2rcd13ifvqbk0","pricing_plan_id":"cebpf4jnsgd1na2vs0mg"},{"bike_id":"af22e109-08fb-48e4-8221-27cd4aef96ee","system_id":"levelo_inurba_marseille","lat":43.21191,"lon":5.35074,"is_reserved":false,"is_disabled":false,"rental_uris":{"android":"levelo://app?vid=af22e109-08fb-48e4-8221-27cd4aef96ee","ios":"levelo://app?vid=af22e109-08fb-48e4-8221-27cd4aef96ee"},"vehicle_type_id":"4","last_reported":1745669813,"current_range_meters":6400,"station_id":"st_cvj6sg6p6f1abm77japg","pricing_plan_id":"cebpf4jnsgd1na2vs0mg"},{"bike_id":"a1f432ce-6f29-4579-989d-d48a1014f8bb","system_id":"levelo_inurba_marseille","lat":43.28714,"lon":5.380313,"is_reserved":false,"is_disabled":false,"rental_uris":{"android":"levelo://app?vid=a1f432ce-6f29-4579-989d-d48a1014f8bb","ios":"levelo://app?vid=a1f432ce-6f29-4579-989d-d48a1014f8bb"},"vehicle_type_id":"4","last_reported":1745669813,"current_range_meters":6400,"station_id":"ce4bh9p2rcd13ifvqec0","pricing_plan_id":"cebpf4jnsgd1na2vs0mg"},{"bike_id":"d5afa86c-5521-4399-bb8d-753e7ab2ffa5","system_id":"levelo_inurba_marseille","lat":43.23189,"lon":5.39964,"is_reserved":false,"is_disabled":false,"rental_uris":{"android":"levelo://app?vid=d5afa86c-5521-4399-bb8d-753e7ab2ffa5","ios":"levelo://app?vid=d5afa86c-5521-4399-bb8d-753e7ab2ffa5"},"vehicle_type_id":"4","last_reported":1745669813,"current_range_meters":6800,"station_id":"ce4bhn12rcd13ifvqgqg","pricing_plan_id":"cebpf4jnsgd1na2vs0mg"},{"bike_id":"4751c42c-df70-44f1-921f-311585e43c28","system_id":"levelo_inurba_marseille","lat":43.28022,"lon":5.35647,"is_reserved":false,"is_disabled":false,"rental_uris":{"android":"levelo://app?vid=4751c42c-df70-44f1-921f-311585e43c28","ios":"levelo://app?vid=4751c42c-df70-44f1-921f-311585e43c28"},"vehicle_type_id":"4","last_reported":1745669813,"current_range_meters":6800,"station_id":"ce4bhp92rcd13ifvqhbg","pricing_plan_id":"cebpf4jnsgd1na2vs0mg"},{"bike_id":"40ffc9ae-ed29-4497-89dd-95129c77898d","system_id":"levelo_inurba_marseille","lat":43.27811,"lon":5.40706,"is_reserved":false,"is_disabled":false,"rental_uris":{"android":"levelo://app?vid=40ffc9ae-ed29-4497-89dd-95129c77898d","ios":"levelo://app?vid=40ffc9ae-ed29-4497-89dd-95129c77898d"},"vehicle_type_id":"4","last_reported":1745669813,"current_range_meters":6800,"station_id":"ce4bhnh2rcd13ifvqgtg","pricing_plan_id":"cebpf4jnsgd1na2vs0mg"},{"bike_id":"f5758ed2-1d0d-4955-902e-71d997525050","system_id":"levelo_inurba_marseille","lat":43.28705,"lon":5.37416,"is_reserved":false,"is_disabled":false,"rental_uris":{"android":"levelo://app?vid=f5758ed2-1d0d-4955-902e-71d997525050","ios":"levelo://app?vid=f5758ed2-1d0d-4955-902e-71d997525050"},"vehicle_type_id":"4","last_reported":1745669813,"current_range_meters":6800,"station_id":"ce4bh3p2rcd13ifvqdq0","pricing_plan_id":"cebpf4jnsgd1na2vs0mg"},{"bike_id":"e61abe7b-e6ae-4e72-ad6d-fc4a72d74f14","system_id":"levelo_inurba_marseille","lat":43.27619,"lon":5.36113,"is_reserved":false,"is_disabled":false,"rental_uris":{"android":"levelo://app?vid=e61abe7b-e6ae-4e72-ad6d-fc4a72d74f14","ios":"levelo://app?vid=e61abe7b-e6ae-4e72-ad6d-fc4a72d74f14"},"vehicle_type_id":"4","last_reported":1745669813,"current_range_meters":6800,"station_id":"ce4bgj92rcd13ifvqbe0","pricing_plan_id":"cebpf4jnsgd1na2vs0mg"},{"bike_id":"3f149be8-3fc0-4e3f-9f05-51add445dfa2","system_id":"levelo_inurba_marseille","lat":43.26568,"lon":5.3901,"is_reserved":false,"is_disabled":false,"rental_uris":{"android":"levelo://app?vid=3f149be8-3fc0-4e3f-9f05-51add445dfa2","ios":"levelo://app?vid=3f149be8-3fc0-4e3f-9f05-51add445dfa2"},"vehicle_type_id":"4","last_reported":1745669813,"current_range_meters":6800,"station_id":"ce4bhe12rcd13ifvqf30","pricing_plan_id":"cebpf4jnsgd1na2vs0mg"},{"bike_id":"04f375e0-44b6-432d-ad4a-e9abf06d41cb","system_id":"levelo_inurba_marseille","lat":43.2621,"lon":5.37437,"is_reserved":false,"is_disabled":false,"rental_uris":{"android":"levelo://app?vid=04f375e0-44b6-432d-ad4a-e9abf06d41cb","ios":"levelo://app?vid=04f375e0-44b6-432d-ad4a-e9abf06d41cb"},"vehicle_type_id":"4","last_reported":1745669813,"current_range_meters":6800,"station_id":"ce4bhgp2rcd13ifvqfc0","pricing_plan_id":"cebpf4jnsgd1na2vs0mg"},{"bike_id":"d1ff7e34-d25d-4063-9648-2bd4db47424f","system_id":"levelo_inurba_marseille","lat":43.32369,"lon":5.38887,"is_reserved":false,"is_disabled":false,"rental_uris":{"android":"levelo://app?vid=d1ff7e34-d25d-4063-9648-2bd4db47424f","ios":"levelo://app?vid=d1ff7e34-d25d-4063-9648-2bd4db47424f"},"vehicle_type_id":"4","last_reported":1745669813,"current_range_meters":6800,"station_id":"ce4bhqp2rcd13ifvqhog","pricing_plan_id":"cebpf4jnsgd1na2vs0mg"},{"bike_id":"b0ad3f13-850d-40d0-875a-e1732ab48245","system_id":"levelo_inurba_marseille","lat":43.23181,"lon":5.35559,"is_reserved":false,"is_disabled":true,"rental_uris":{"android":"levelo://app?vid=b0ad3f13-850d-40d0-875a-e1732ab48245","ios":"levelo://app?vid=b0ad3f13-850d-40d0-875a-e1732ab48245"},"vehicle_type_id":"4","last_reported":1745669813,"current_range_meters":6800,"station_id":"ce4bhu92rcd13ifvqi70","pricing_plan_id":"cebpf4jnsgd1na2vs0mg"},{"bike_id":"5e6aa80e-4ae4-4a58-83f0-1aef09e7e70e","system_id":"levelo_inurba_marseille","lat":43.311758,"lon":5.387171,"is_reserved":false,"is_disabled":true,"rental_uris":{"android":"levelo://app?vid=5e6aa80e-4ae4-4a58-83f0-1aef09e7e70e","ios":"levelo://app?vid=5e6aa80e-4ae4-4a58-83f0-1aef09e7e70e"},"vehicle_type_id":"4","last_reported":1745669813,"current_range_meters":6800,"station_id":"","pricing_plan_id":"cebpf4jnsgd1na2vs0mg"},{"bike_id":"dedb82ca-efd0-493c-9f2b-be29d07c6c9e","system_id":"levelo_inurba_marseille","lat":43.281281,"lon":5.3515,"is_reserved":false,"is_disabled":false,"rental_uris":{"android":"levelo://app?vid=dedb82ca-efd0-493c-9f2b-be29d07c6c9e","ios":"levelo://app?vid=dedb82ca-efd0-493c-9f2b-be29d07c6c9e"},"vehicle_type_id":"4","last_reported":1745669813,"current_range_meters":7200,"station_id":"st_cvj6sg6p6f1abm77japg","pricing_plan_id":"cebpf4jnsgd1na2vs0mg"},{"bike_id":"b4fde9a5-5f26-4490-b835-a01cd1ef34c7","system_id":"levelo_inurba_marseille","lat":43.28704,"lon":5.39991,"is_reserved":false,"is_disabled":false,"rental_uris":{"android":"levelo://app?vid=b4fde9a5-5f26-4490-b835-a01cd1ef34c7","ios":"levelo://app?vid=b4fde9a5-5f26-4490-b835-a01cd1ef34c7"},"vehicle_type_id":"4","last_reported":1745669813,"current_range_meters":7200,"station_id":"ce4bho92rcd13ifvqh3g","pricing_plan_id":"cebpf4jnsgd1na2vs0mg"},{"bike_id":"2c2e5bcc-b9ff-41a6-be9a-7733528f3bfa","system_id":"levelo_inurba_marseille","lat":43.27504,"lon":5.42446,"is_reserved":false,"is_disabled":false,"rental_uris":{"android":"levelo://app?vid=2c2e5bcc-b9ff-41a6-be9a-7733528f3bfa","ios":"levelo://app?vid=2c2e5bcc-b9ff-41a6-be9a-7733528f3bfa"},"vehicle_type_id":"4","last_reported":1745669813,"current_range_meters":7200,"station_id":"ce4bhn92rcd13ifvqgrg","pricing_plan_id":"cebpf4jnsgd1na2vs0mg"},{"bike_id":"a45396b4-6a30-4907-9c08-e415b6011144","system_id":"levelo_inurba_marseille","lat":43.24067,"lon":5.37754,"is_reserved":false,"is_disabled":false,"rental_uris":{"android":"levelo://app?vid=a45396b4-6a30-4907-9c08-e415b6011144","ios":"levelo://app?vid=a45396b4-6a30-4907-9c08-e415b6011144"},"vehicle_type_id":"4","last_reported":1745669813,"current_range_meters":7200,"station_id":"ce4bhnp2rcd13ifvqgvg","pricing_plan_id":"cebpf4jnsgd1na2vs0mg"},{"bike_id":"422b5989-c8b6-43aa-b2b9-3bfeb2e1ddc0","system_id":"levelo_inurba_marseille","lat":43.24747,"lon":5.41183,"is_reserved":false,"is_disabled":false,"rental_uris":{"android":"levelo://app?vid=422b5989-c8b6-43aa-b2b9-3bfeb2e1ddc0","ios":"levelo://app?vid=422b5989-c8b6-43aa-b2b9-3bfeb2e1ddc0"},"vehicle_type_id":"4","last_reported":1745669813,"current_range_meters":8000,"station_id":"","pricing_plan_id":"cebpf4jnsgd1na2vs0mg"},{"bike_id":"f62a4552-ec40-438e-82bf-49608a81162e","system_id":"levelo_inurba_marseille","lat":43.23961,"lon":5.3663,"is_reserved":false,"is_disabled":false,"rental_uris":{"android":"levelo://app?vid=f62a4552-ec40-438e-82bf-49608a81162e","ios":"levelo://app?vid=f62a4552-ec40-438e-82bf-49608a81162e"},"vehicle_type_id":"4","last_reported":1745669813,"current_range_meters":8000,"station_id":"ce4bhi12rcd13ifvqfp0","pricing_plan_id":"cebpf4jnsgd1na2vs0mg"},{"bike_id":"7f94544b-bba8-45a7-abba-f47bba3830bc","system_id":"levelo_inurba_marseille","lat":43.231884,"lon":5.355535,"is_reserved":false,"is_disabled":false,"rental_uris":{"android":"levelo://app?vid=7f94544b-bba8-45a7-abba-f47bba3830bc","ios":"levelo://app?vid=7f94544b-bba8-45a7-abba-f47bba3830bc"},"vehicle_type_id":"4","last_reported":1745669813,"current_range_meters":8000,"station_id":"ce4bhu92rcd13ifvqi70","pricing_plan_id":"cebpf4jnsgd1na2vs0mg"},{"bike_id":"39926d7b-8a7d-456d-bde6-a6f35183b808","system_id":"levelo_inurba_marseille","lat":43.30458,"lon":5.37915,"is_reserved":false,"is_disabled":false,"rental_uris":{"android":"levelo://app?vid=39926d7b-8a7d-456d-bde6-a6f35183b808","ios":"levelo://app?vid=39926d7b-8a7d-456d-bde6-a6f35183b808"},"vehicle_type_id":"4","last_reported":1745669813,"current_range_meters":8000,"station_id":"ce4bgup2rcd13ifvqcn0","pricing_plan_id":"cebpf4jnsgd1na2vs0mg"},{"bike_id":"fe81b107-2e23-4c2c-994c-3f4bb50f297c","system_id":"levelo_inurba_marseille","lat":43.24553,"lon":5.39529,"is_reserved":false,"is_disabled":false,"rental_uris":{"android":"levelo://app?vid=fe81b107-2e23-4c2c-994c-3f4bb50f297c","ios":"levelo://app?vid=fe81b107-2e23-4c2c-994c-3f4bb50f297c"},"vehicle_type_id":"4","last_reported":1745669813,"current_range_meters":7200,"station_id":"ce4bhlp2rcd13ifvqgjg","pricing_plan_id":"cebpf4jnsgd1na2vs0mg"},{"bike_id":"7e6ac185-a8ee-42b6-a1b4-f5abea424420","system_id":"levelo_inurba_marseille","lat":43.29229,"lon":5.36049,"is_reserved":false,"is_disabled":false,"rental_uris":{"android":"levelo://app?vid=7e6ac185-a8ee-42b6-a1b4-f5abea424420","ios":"levelo://app?vid=7e6ac185-a8ee-42b6-a1b4-f5abea424420"},"vehicle_type_id":"4","last_reported":1745669813,"current_range_meters":8000,"station_id":"ce4bhbh2rcd13ifvqeqg","pricing_plan_id":"cebpf4jnsgd1na2vs0mg"},{"bike_id":"7c8b0050-da75-490e-a8f7-4daf22ee9e0c","system_id":"levelo_inurba_marseille","lat":43.27901,"lon":5.39586,"is_reserved":false,"is_disabled":false,"rental_uris":{"android":"levelo://app?vid=7c8b0050-da75-490e-a8f7-4daf22ee9e0c","ios":"levelo://app?vid=7c8b0050-da75-490e-a8f7-4daf22ee9e0c"},"vehicle_type_id":"4","last_reported":1745669813,"current_range_meters":8000,"station_id":"ce4bhf92rcd13ifvqf40","pricing_plan_id":"cebpf4jnsgd1na2vs0mg"},{"bike_id":"4f944775-57ad-4dfe-887f-1080686cb12e","system_id":"levelo_inurba_marseille","lat":43.29387,"lon":5.37845,"is_reserved":false,"is_disabled":false,"rental_uris":{"android":"levelo://app?vid=4f944775-57ad-4dfe-887f-1080686cb12e","ios":"levelo://app?vid=4f944775-57ad-4dfe-887f-1080686cb12e"},"vehicle_type_id":"4","last_reported":1745669813,"current_range_meters":8000,"station_id":"ce4bgjh2rcd13ifvqbf0","pricing_plan_id":"cebpf4jnsgd1na2vs0mg"},{"bike_id":"8ed0772d-fa07-4356-8084-6f7f46a0b151","system_id":"levelo_inurba_marseille","lat":43.29897,"lon":5.43668,"is_reserved":false,"is_disabled":false,"rental_uris":{"android":"levelo://app?vid=8ed0772d-fa07-4356-8084-6f7f46a0b151","ios":"levelo://app?vid=8ed0772d-fa07-4356-8084-6f7f46a0b151"},"vehicle_type_id":"4","last_reported":1745669813,"current_range_meters":8000,"station_id":"","pricing_plan_id":"cebpf4jnsgd1na2vs0mg"},{"bike_id":"12140ae1-49aa-44ca-9360-46a0729827d9","system_id":"levelo_inurba_marseille","lat":43.2396,"lon":5.36634,"is_reserved":false,"is_disabled":false,"rental_uris":{"android":"levelo://app?vid=12140ae1-49aa-44ca-9360-46a0729827d9","ios":"levelo://app?vid=12140ae1-49aa-44ca-9360-46a0729827d9"},"vehicle_type_id":"4","last_reported":1745669813,"current_range_meters":8000,"station_id":"ce4bhi12rcd13ifvqfp0","pricing_plan_id":"cebpf4jnsgd1na2vs0mg"},{"bike_id":"18ae1d78-8d9e-4697-bc48-a39d36035c1d","system_id":"levelo_inurba_marseille","lat":43.23971,"lon":5.36615,"is_reserved":false,"is_disabled":false,"rental_uris":{"android":"levelo://app?vid=18ae1d78-8d9e-4697-bc48-a39d36035c1d","ios":"levelo://app?vid=18ae1d78-8d9e-4697-bc48-a39d36035c1d"},"vehicle_type_id":"4","last_reported":1745669813,"current_range_meters":8000,"station_id":"ce4bhi12rcd13ifvqfp0","pricing_plan_id":"cebpf4jnsgd1na2vs0mg"},{"bike_id":"0f247a31-3b2b-48b7-9799-1620d33d6bc6","system_id":"levelo_inurba_marseille","lat":43.23151,"lon":5.4371,"is_reserved":false,"is_disabled":false,"rental_uris":{"android":"levelo://app?vid=0f247a31-3b2b-48b7-9799-1620d33d6bc6","ios":"levelo://app?vid=0f247a31-3b2b-48b7-9799-1620d33d6bc6"},"vehicle_type_id":"4","last_reported":1745669813,"current_range_meters":8400,"station_id":"ce4bhmp2rcd13ifvqgog","pricing_plan_id":"cebpf4jnsgd1na2vs0mg"},{"bike_id":"df2c09f3-5a37-4e0f-86fc-2e6ae05c7370","system_id":"levelo_inurba_marseille","lat":43.23188,"lon":5.3556,"is_reserved":false,"is_disabled":false,"rental_uris":{"android":"levelo://app?vid=df2c09f3-5a37-4e0f-86fc-2e6ae05c7370","ios":"levelo://app?vid=df2c09f3-5a37-4e0f-86fc-2e6ae05c7370"},"vehicle_type_id":"4","last_reported":1745669813,"current_range_meters":8400,"station_id":"ce4bhu92rcd13ifvqi70","pricing_plan_id":"cebpf4jnsgd1na2vs0mg"},{"bike_id":"3e887c30-a158-4db6-8bfa-e1098608df07","system_id":"levelo_inurba_marseille","lat":43.28426,"lon":5.37517,"is_reserved":false,"is_disabled":false,"rental_uris":{"android":"levelo://app?vid=3e887c30-a158-4db6-8bfa-e1098608df07","ios":"levelo://app?vid=3e887c30-a158-4db6-8bfa-e1098608df07"},"vehicle_type_id":"4","last_reported":1745669813,"current_range_meters":8400,"station_id":"ce4bh412rcd13ifvqds0","pricing_plan_id":"cebpf4jnsgd1na2vs0mg"},{"bike_id":"e875bc9a-9784-40bf-b2c2-d4342d5d2b21","system_id":"levelo_inurba_marseille","lat":43.31691,"lon":5.40454,"is_reserved":false,"is_disabled":false,"rental_uris":{"android":"levelo://app?vid=e875bc9a-9784-40bf-b2c2-d4342d5d2b21","ios":"levelo://app?vid=e875bc9a-9784-40bf-b2c2-d4342d5d2b21"},"vehicle_type_id":"4","last_reported":1745669813,"current_range_meters":8400,"station_id":"ce4bh012rcd13ifvqd00","pricing_plan_id":"cebpf4jnsgd1na2vs0mg"},{"bike_id":"51587a7a-4431-438e-928f-ef27df76a80e","system_id":"levelo_inurba_marseille","lat":43.26209,"lon":5.37448,"is_reserved":false,"is_disabled":false,"rental_uris":{"android":"levelo://app?vid=51587a7a-4431-438e-928f-ef27df76a80e","ios":"levelo://app?vid=51587a7a-4431-438e-928f-ef27df76a80e"},"vehicle_type_id":"4","last_reported":1745669813,"current_range_meters":8400,"station_id":"ce4bhgp2rcd13ifvqfc0","pricing_plan_id":"cebpf4jnsgd1na2vs0mg"},{"bike_id":"78f86ce9-2162-45f6-b305-bcb23d0cd8a9","system_id":"levelo_inurba_marseille","lat":43.24394,"lon":5.37064,"is_reserved":false,"is_disabled":false,"rental_uris":{"android":"levelo://app?vid=78f86ce9-2162-45f6-b305-bcb23d0cd8a9","ios":"levelo://app?vid=78f86ce9-2162-45f6-b305-bcb23d0cd8a9"},"vehicle_type_id":"4","last_reported":1745669813,"current_range_meters":8400,"station_id":"ce4bhhh2rcd13ifvqfk0","pricing_plan_id":"cebpf4jnsgd1na2vs0mg"},{"bike_id":"51376682-930e-45ed-90e0-b53d931ddc33","system_id":"levelo_inurba_marseille","lat":43.27501,"lon":5.42451,"is_reserved":false,"is_disabled":false,"rental_uris":{"android":"levelo://app?vid=51376682-930e-45ed-90e0-b53d931ddc33","ios":"levelo://app?vid=51376682-930e-45ed-90e0-b53d931ddc33"},"vehicle_type_id":"4","last_reported":1745669813,"current_range_meters":8400,"station_id":"ce4bhn92rcd13ifvqgrg","pricing_plan_id":"cebpf4jnsgd1na2vs0mg"},{"bike_id":"a0fc0031-8ab1-4c7c-81fa-707a4781bf4c","system_id":"levelo_inurba_marseille","lat":43.2506,"lon":5.375478,"is_reserved":false,"is_disabled":false,"rental_uris":{"android":"levelo://app?vid=a0fc0031-8ab1-4c7c-81fa-707a4781bf4c","ios":"levelo://app?vid=a0fc0031-8ab1-4c7c-81fa-707a4781bf4c"},"vehicle_type_id":"4","last_reported":1745669813,"current_range_meters":8400,"station_id":"ce4bhh12rcd13ifvqff0","pricing_plan_id":"cebpf4jnsgd1na2vs0mg"},{"bike_id":"e13653e8-064f-4d2c-97df-956d074aa3cd","system_id":"levelo_inurba_marseille","lat":43.28266,"lon":5.35062,"is_reserved":false,"is_disabled":false,"rental_uris":{"android":"levelo://app?vid=e13653e8-064f-4d2c-97df-956d074aa3cd","ios":"levelo://app?vid=e13653e8-064f-4d2c-97df-956d074aa3cd"},"vehicle_type_id":"4","last_reported":1745669813,"current_range_meters":8400,"station_id":"ce4bhbp2rcd13ifvqerg","pricing_plan_id":"cebpf4jnsgd1na2vs0mg"},{"bike_id":"3d087bc1-affe-44fc-8199-35eadfcf6448","system_id":"levelo_inurba_marseille","lat":43.26193,"lon":5.37453,"is_reserved":false,"is_disabled":false,"rental_uris":{"android":"levelo://app?vid=3d087bc1-affe-44fc-8199-35eadfcf6448","ios":"levelo://app?vid=3d087bc1-affe-44fc-8199-35eadfcf6448"},"vehicle_type_id":"4","last_reported":1745669813,"current_range_meters":8800,"station_id":"ce4bhgp2rcd13ifvqfc0","pricing_plan_id":"cebpf4jnsgd1na2vs0mg"},{"bike_id":"49398eb2-81be-4d6e-bfd4-b9f6d23a0fcc","system_id":"levelo_inurba_marseille","lat":43.24393,"lon":5.37061,"is_reserved":false,"is_disabled":false,"rental_uris":{"android":"levelo://app?vid=49398eb2-81be-4d6e-bfd4-b9f6d23a0fcc","ios":"levelo://app?vid=49398eb2-81be-4d6e-bfd4-b9f6d23a0fcc"},"vehicle_type_id":"4","last_reported":1745669813,"current_range_meters":8800,"station_id":"ce4bhhh2rcd13ifvqfk0","pricing_plan_id":"cebpf4jnsgd1na2vs0mg"},{"bike_id":"f997f3a2-6ef7-4d7a-931e-8083cf2fa70c","system_id":"levelo_inurba_marseille","lat":43.26798,"lon":5.40328,"is_reserved":false,"is_disabled":false,"rental_uris":{"android":"levelo://app?vid=f997f3a2-6ef7-4d7a-931e-8083cf2fa70c","ios":"levelo://app?vid=f997f3a2-6ef7-4d7a-931e-8083cf2fa70c"},"vehicle_type_id":"4","last_reported":1745669813,"current_range_meters":8800,"station_id":"ce501612rcd8frsf0b60","pricing_plan_id":"cebpf4jnsgd1na2vs0mg"},{"bike_id":"86f39dff-75cf-472e-a860-2b7e8f8e39f4","system_id":"levelo_inurba_marseille","lat":43.29008,"lon":5.35607,"is_reserved":false,"is_disabled":false,"rental_uris":{"android":"levelo://app?vid=86f39dff-75cf-472e-a860-2b7e8f8e39f4","ios":"levelo://app?vid=86f39dff-75cf-472e-a860-2b7e8f8e39f4"},"vehicle_type_id":"4","last_reported":1745669813,"current_range_meters":9200,"station_id":"ce4bhb92rcd13ifvqen0","pricing_plan_id":"cebpf4jnsgd1na2vs0mg"},{"bike_id":"6104de1b-83a6-4912-bfa1-49d35364e6af","system_id":"levelo_inurba_marseille","lat":43.2397,"lon":5.36611,"is_reserved":false,"is_disabled":false,"rental_uris":{"android":"levelo://app?vid=6104de1b-83a6-4912-bfa1-49d35364e6af","ios":"levelo://app?vid=6104de1b-83a6-4912-bfa1-49d35364e6af"},"vehicle_type_id":"4","last_reported":1745669813,"current_range_meters":9200,"station_id":"ce4bhi12rcd13ifvqfp0","pricing_plan_id":"cebpf4jnsgd1na2vs0mg"},{"bike_id":"4c11ff0f-a579-4f78-9960-a443174b0bdd","system_id":"levelo_inurba_marseille","lat":43.21187,"lon":5.35072,"is_reserved":false,"is_disabled":false,"rental_uris":{"android":"levelo://app?vid=4c11ff0f-a579-4f78-9960-a443174b0bdd","ios":"levelo://app?vid=4c11ff0f-a579-4f78-9960-a443174b0bdd"},"vehicle_type_id":"4","last_reported":1745669813,"current_range_meters":9200,"station_id":"st_cvj6sg6p6f1abm77japg","pricing_plan_id":"cebpf4jnsgd1na2vs0mg"},{"bike_id":"1e0b5479-755f-4e48-9c29-12f82c1153d7","system_id":"levelo_inurba_marseille","lat":43.298521,"lon":5.362781,"is_reserved":false,"is_disabled":false,"rental_uris":{"android":"levelo://app?vid=1e0b5479-755f-4e48-9c29-12f82c1153d7","ios":"levelo://app?vid=1e0b5479-755f-4e48-9c29-12f82c1153d7"},"vehicle_type_id":"4","last_reported":1745669813,"current_range_meters":9200,"station_id":"ce4bgpp2rcd13ifvqc3g","pricing_plan_id":"cebpf4jnsgd1na2vs0mg"},{"bike_id":"127900f2-8e5c-4b23-89a9-4d15e4c66919","system_id":"levelo_inurba_marseille","lat":43.23149,"lon":5.43712,"is_reserved":false,"is_disabled":false,"rental_uris":{"android":"levelo://app?vid=127900f2-8e5c-4b23-89a9-4d15e4c66919","ios":"levelo://app?vid=127900f2-8e5c-4b23-89a9-4d15e4c66919"},"vehicle_type_id":"4","last_reported":1745669813,"current_range_meters":9600,"station_id":"ce4bhmp2rcd13ifvqgog","pricing_plan_id":"cebpf4jnsgd1na2vs0mg"},{"bike_id":"2a223a9b-d763-49eb-be7c-bf3bf53b84e0","system_id":"levelo_inurba_marseille","lat":43.25509,"lon":5.37645,"is_reserved":false,"is_disabled":false,"rental_uris":{"android":"levelo://app?vid=2a223a9b-d763-49eb-be7c-bf3bf53b84e0","ios":"levelo://app?vid=2a223a9b-d763-49eb-be7c-bf3bf53b84e0"},"vehicle_type_id":"4","last_reported":1745669813,"current_range_meters":9600,"station_id":"ce4bhh12rcd13ifvqff0","pricing_plan_id":"cebpf4jnsgd1na2vs0mg"},{"bike_id":"7643ce4e-9a94-4503-bf68-4fe422ce9a69","system_id":"levelo_inurba_marseille","lat":43.26553,"lon":5.37285,"is_reserved":false,"is_disabled":false,"rental_uris":{"android":"levelo://app?vid=7643ce4e-9a94-4503-bf68-4fe422ce9a69","ios":"levelo://app?vid=7643ce4e-9a94-4503-bf68-4fe422ce9a69"},"vehicle_type_id":"4","last_reported":1745669813,"current_range_meters":9600,"station_id":"ce4bhg12rcd13ifvqf70","pricing_plan_id":"cebpf4jnsgd1na2vs0mg"},{"bike_id":"0437c9d7-89cc-4cec-9baf-e45ee9648145","system_id":"levelo_inurba_marseille","lat":43.30462,"lon":5.37905,"is_reserved":false,"is_disabled":false,"rental_uris":{"android":"levelo://app?vid=0437c9d7-89cc-4cec-9baf-e45ee9648145","ios":"levelo://app?vid=0437c9d7-89cc-4cec-9baf-e45ee9648145"},"vehicle_type_id":"4","last_reported":1745669813,"current_range_meters":9600,"station_id":"ce4bgup2rcd13ifvqcn0","pricing_plan_id":"cebpf4jnsgd1na2vs0mg"},{"bike_id":"f4aac9b1-2d4e-4339-bebe-24a21ceb7ddc","system_id":"levelo_inurba_marseille","lat":43.2988,"lon":5.38916,"is_reserved":false,"is_disabled":false,"rental_uris":{"android":"levelo://app?vid=f4aac9b1-2d4e-4339-bebe-24a21ceb7ddc","ios":"levelo://app?vid=f4aac9b1-2d4e-4339-bebe-24a21ceb7ddc"},"vehicle_type_id":"4","last_reported":1745669813,"current_range_meters":9600,"station_id":"ce4bh392rcd13ifvqdl0","pricing_plan_id":"cebpf4jnsgd1na2vs0mg"},{"bike_id":"5dcb33e3-156b-44af-a39c-ceea751d9940","system_id":"levelo_inurba_marseille","lat":43.296582,"lon":5.386925,"is_reserved":false,"is_disabled":false,"rental_uris":{"android":"levelo://app?vid=5dcb33e3-156b-44af-a39c-ceea751d9940","ios":"levelo://app?vid=5dcb33e3-156b-44af-a39c-ceea751d9940"},"vehicle_type_id":"4","last_reported":1745669813,"current_range_meters":9600,"station_id":"ce4bh092rcd13ifvqd20","pricing_plan_id":"cebpf4jnsgd1na2vs0mg"},{"bike_id":"72a2ecab-78ba-4933-8f0e-a1e7d9156f2b","system_id":"levelo_inurba_marseille","lat":43.21193,"lon":5.35077,"is_reserved":false,"is_disabled":false,"rental_uris":{"android":"levelo://app?vid=72a2ecab-78ba-4933-8f0e-a1e7d9156f2b","ios":"levelo://app?vid=72a2ecab-78ba-4933-8f0e-a1e7d9156f2b"},"vehicle_type_id":"4","last_reported":1745669813,"current_range_meters":10000,"station_id":"st_cvj6sg6p6f1abm77japg","pricing_plan_id":"cebpf4jnsgd1na2vs0mg"},{"bike_id":"25397d86-3bc1-4402-a9c4-328cc1a53463","system_id":"levelo_inurba_marseille","lat":43.29028,"lon":5.38648,"is_reserved":false,"is_disabled":false,"rental_uris":{"android":"levelo://app?vid=25397d86-3bc1-4402-a9c4-328cc1a53463","ios":"levelo://app?vid=25397d86-3bc1-4402-a9c4-328cc1a53463"},"vehicle_type_id":"4","last_reported":1745669813,"current_range_meters":10000,"station_id":"ce4bh4p2rcd13ifvqe0g","pricing_plan_id":"cebpf4jnsgd1na2vs0mg"},{"bike_id":"ee4c36cb-c492-4552-ba80-5494b966c738","system_id":"levelo_inurba_marseille","lat":43.243983,"lon":5.370562,"is_reserved":false,"is_disabled":false,"rental_uris":{"android":"levelo://app?vid=ee4c36cb-c492-4552-ba80-5494b966c738","ios":"levelo://app?vid=ee4c36cb-c492-4552-ba80-5494b966c738"},"vehicle_type_id":"4","last_reported":1745669813,"current_range_meters":10000,"station_id":"ce4bhhh2rcd13ifvqfk0","pricing_plan_id":"cebpf4jnsgd1na2vs0mg"},{"bike_id":"b061fb23-ea55-459b-9c22-164ed38731b0","system_id":"levelo_inurba_marseille","lat":43.30457,"lon":5.37904,"is_reserved":false,"is_disabled":false,"rental_uris":{"android":"levelo://app?vid=b061fb23-ea55-459b-9c22-164ed38731b0","ios":"levelo://app?vid=b061fb23-ea55-459b-9c22-164ed38731b0"},"vehicle_type_id":"4","last_reported":1745669813,"current_range_meters":10000,"station_id":"ce4bgup2rcd13ifvqcn0","pricing_plan_id":"cebpf4jnsgd1na2vs0mg"},{"bike_id":"f13ad3da-d0c6-4c10-897b-3e9d79fb6262","system_id":"levelo_inurba_marseille","lat":43.2929,"lon":5.37473,"is_reserved":false,"is_disabled":false,"rental_uris":{"android":"levelo://app?vid=f13ad3da-d0c6-4c10-897b-3e9d79fb6262","ios":"levelo://app?vid=f13ad3da-d0c6-4c10-897b-3e9d79fb6262"},"vehicle_type_id":"4","last_reported":1745669813,"current_range_meters":10000,"station_id":"ce4bgi12rcd13ifvqb70","pricing_plan_id":"cebpf4jnsgd1na2vs0mg"},{"bike_id":"6af2264f-5624-47b7-9928-417f971d845f","system_id":"levelo_inurba_marseille","lat":43.21748,"lon":5.34605,"is_reserved":false,"is_disabled":false,"rental_uris":{"android":"levelo://app?vid=6af2264f-5624-47b7-9928-417f971d845f","ios":"levelo://app?vid=6af2264f-5624-47b7-9928-417f971d845f"},"vehicle_type_id":"4","last_reported":1745669813,"current_range_meters":10000,"station_id":"st_cvj6r9ubvosntc0bgbag","pricing_plan_id":"cebpf4jnsgd1na2vs0mg"},{"bike_id":"49a17149-3428-41b2-bcc2-7383b2d11a13","system_id":"levelo_inurba_marseille","lat":43.29851,"lon":5.36279,"is_reserved":false,"is_disabled":false,"rental_uris":{"android":"levelo://app?vid=49a17149-3428-41b2-bcc2-7383b2d11a13","ios":"levelo://app?vid=49a17149-3428-41b2-bcc2-7383b2d11a13"},"vehicle_type_id":"4","last_reported":1745669813,"current_range_meters":10000,"station_id":"ce4bgpp2rcd13ifvqc3g","pricing_plan_id":"cebpf4jnsgd1na2vs0mg"},{"bike_id":"63dbae1d-e118-425d-8e75-27cd2254f746","system_id":"levelo_inurba_marseille","lat":43.31364,"lon":5.3849,"is_reserved":false,"is_disabled":false,"rental_uris":{"android":"levelo://app?vid=63dbae1d-e118-425d-8e75-27cd2254f746","ios":"levelo://app?vid=63dbae1d-e118-425d-8e75-27cd2254f746"},"vehicle_type_id":"4","last_reported":1745669813,"current_range_meters":10000,"station_id":"ce4bgt92rcd13ifvqcf0","pricing_plan_id":"cebpf4jnsgd1na2vs0mg"},{"bike_id":"a8f69c33-d69b-48b6-9594-228d1d4c867b","system_id":"levelo_inurba_marseille","lat":43.29791,"lon":5.38105,"is_reserved":false,"is_disabled":false,"rental_uris":{"android":"levelo://app?vid=a8f69c33-d69b-48b6-9594-228d1d4c867b","ios":"levelo://app?vid=a8f69c33-d69b-48b6-9594-228d1d4c867b"},"vehicle_type_id":"4","last_reported":1745669813,"current_range_meters":10000,"station_id":"ce4bgip2rcd13ifvqbb0","pricing_plan_id":"cebpf4jnsgd1na2vs0mg"},{"bike_id":"e1dbfe75-48dd-410a-9f7f-bd5067899ef0","system_id":"levelo_inurba_marseille","lat":43.29632,"lon":5.37707,"is_reserved":false,"is_disabled":false,"rental_uris":{"android":"levelo://app?vid=e1dbfe75-48dd-410a-9f7f-bd5067899ef0","ios":"levelo://app?vid=e1dbfe75-48dd-410a-9f7f-bd5067899ef0"},"vehicle_type_id":"4","last_reported":1745669813,"current_range_meters":10800,"station_id":"ce4bgi92rcd13ifvqb90","pricing_plan_id":"cebpf4jnsgd1na2vs0mg"},{"bike_id":"e17b134d-7e7d-4aae-8cf2-86580465b00b","system_id":"levelo_inurba_marseille","lat":43.29849,"lon":5.36284,"is_reserved":false,"is_disabled":false,"rental_uris":{"android":"levelo://app?vid=e17b134d-7e7d-4aae-8cf2-86580465b00b","ios":"levelo://app?vid=e17b134d-7e7d-4aae-8cf2-86580465b00b"},"vehicle_type_id":"4","last_reported":1745669813,"current_range_meters":10800,"station_id":"ce4bgpp2rcd13ifvqc3g","pricing_plan_id":"cebpf4jnsgd1na2vs0mg"},{"bike_id":"b85cb979-63a3-4246-aee0-732a6680ea1f","system_id":"levelo_inurba_marseille","lat":43.26213,"lon":5.37436,"is_reserved":false,"is_disabled":false,"rental_uris":{"android":"levelo://app?vid=b85cb979-63a3-4246-aee0-732a6680ea1f","ios":"levelo://app?vid=b85cb979-63a3-4246-aee0-732a6680ea1f"},"vehicle_type_id":"4","last_reported":1745669813,"current_range_meters":10800,"station_id":"ce4bhgp2rcd13ifvqfc0","pricing_plan_id":"cebpf4jnsgd1na2vs0mg"},{"bike_id":"53e1230a-da6a-4b5b-99e2-d2e206d6c706","system_id":"levelo_inurba_marseille","lat":43.29982,"lon":5.38472,"is_reserved":false,"is_disabled":false,"rental_uris":{"android":"levelo://app?vid=53e1230a-da6a-4b5b-99e2-d2e206d6c706","ios":"levelo://app?vid=53e1230a-da6a-4b5b-99e2-d2e206d6c706"},"vehicle_type_id":"4","last_reported":1745669813,"current_range_meters":10800,"station_id":"ce4bgj92rcd13ifvqbd0","pricing_plan_id":"cebpf4jnsgd1na2vs0mg"},{"bike_id":"df63c525-ee18-4e9a-b2a8-a4c1c3fd001a","system_id":"levelo_inurba_marseille","lat":43.31086,"lon":5.42445,"is_reserved":false,"is_disabled":false,"rental_uris":{"android":"levelo://app?vid=df63c525-ee18-4e9a-b2a8-a4c1c3fd001a","ios":"levelo://app?vid=df63c525-ee18-4e9a-b2a8-a4c1c3fd001a"},"vehicle_type_id":"4","last_reported":1745669813,"current_range_meters":10800,"station_id":"ce4bhp92rcd13ifvqhag","pricing_plan_id":"cebpf4jnsgd1na2vs0mg"},{"bike_id":"995b3c75-842a-4f35-a681-74bd870769bb","system_id":"levelo_inurba_marseille","lat":43.3053,"lon":5.36546,"is_reserved":false,"is_disabled":false,"rental_uris":{"android":"levelo://app?vid=995b3c75-842a-4f35-a681-74bd870769bb","ios":"levelo://app?vid=995b3c75-842a-4f35-a681-74bd870769bb"},"vehicle_type_id":"4","last_reported":1745669813,"current_range_meters":11200,"station_id":"ce4bgs12rcd13ifvqcag","pricing_plan_id":"cebpf4jnsgd1na2vs0mg"},{"bike_id":"b337b47e-e0c0-40c3-878a-37e58bb44305","system_id":"levelo_inurba_marseille","lat":43.31174,"lon":5.40742,"is_reserved":false,"is_disabled":false,"rental_uris":{"android":"levelo://app?vid=b337b47e-e0c0-40c3-878a-37e58bb44305","ios":"levelo://app?vid=b337b47e-e0c0-40c3-878a-37e58bb44305"},"vehicle_type_id":"4","last_reported":1745669813,"current_range_meters":11200,"station_id":"","pricing_plan_id":"cebpf4jnsgd1na2vs0mg"},{"bike_id":"9df9f6ac-6519-42f4-a16d-1e9ef635e1cb","system_id":"levelo_inurba_marseille","lat":43.21192,"lon":5.35073,"is_reserved":false,"is_disabled":false,"rental_uris":{"android":"levelo://app?vid=9df9f6ac-6519-42f4-a16d-1e9ef635e1cb","ios":"levelo://app?vid=9df9f6ac-6519-42f4-a16d-1e9ef635e1cb"},"vehicle_type_id":"4","last_reported":1745669813,"current_range_meters":11600,"station_id":"st_cvj6sg6p6f1abm77japg","pricing_plan_id":"cebpf4jnsgd1na2vs0mg"},{"bike_id":"86d9bfc5-4aa4-45bc-add6-72d77f5feee0","system_id":"levelo_inurba_marseille","lat":43.25491,"lon":5.37649,"is_reserved":false,"is_disabled":false,"rental_uris":{"android":"levelo://app?vid=86d9bfc5-4aa4-45bc-add6-72d77f5feee0","ios":"levelo://app?vid=86d9bfc5-4aa4-45bc-add6-72d77f5feee0"},"vehicle_type_id":"4","last_reported":1745669813,"current_range_meters":11600,"station_id":"ce4bhh12rcd13ifvqff0","pricing_plan_id":"cebpf4jnsgd1na2vs0mg"},{"bike_id":"131b9b1b-1e53-43a4-910d-7e93b39b3112","system_id":"levelo_inurba_marseille","lat":43.29627,"lon":5.37719,"is_reserved":false,"is_disabled":false,"rental_uris":{"android":"levelo://app?vid=131b9b1b-1e53-43a4-910d-7e93b39b3112","ios":"levelo://app?vid=131b9b1b-1e53-43a4-910d-7e93b39b3112"},"vehicle_type_id":"4","last_reported":1745669813,"current_range_meters":11600,"station_id":"ce4bgi92rcd13ifvqb90","pricing_plan_id":"cebpf4jnsgd1na2vs0mg"},{"bike_id":"7d9669fc-32f8-4d0c-965b-3fa72110d608","system_id":"levelo_inurba_marseille","lat":43.23533,"lon":5.36026,"is_reserved":false,"is_disabled":false,"rental_uris":{"android":"levelo://app?vid=7d9669fc-32f8-4d0c-965b-3fa72110d608","ios":"levelo://app?vid=7d9669fc-32f8-4d0c-965b-3fa72110d608"},"vehicle_type_id":"4","last_reported":1745669813,"current_range_meters":11600,"station_id":"","pricing_plan_id":"cebpf4jnsgd1na2vs0mg"},{"bike_id":"d5bc341f-2483-4765-a298-7312fe94908c","system_id":"levelo_inurba_marseille","lat":43.31219,"lon":5.3686,"is_reserved":false,"is_disabled":false,"rental_uris":{"android":"levelo://app?vid=d5bc341f-2483-4765-a298-7312fe94908c","ios":"levelo://app?vid=d5bc341f-2483-4765-a298-7312fe94908c"},"vehicle_type_id":"4","last_reported":1745669813,"current_range_meters":11600,"station_id":"ce4bgl92rcd13ifvqbq0","pricing_plan_id":"cebpf4jnsgd1na2vs0mg"},{"bike_id":"0ab8fcf3-4ac6-4d55-81a1-c9f08847ff71","system_id":"levelo_inurba_marseille","lat":43.21752,"lon":5.34602,"is_reserved":false,"is_disabled":false,"rental_uris":{"android":"levelo://app?vid=0ab8fcf3-4ac6-4d55-81a1-c9f08847ff71","ios":"levelo://app?vid=0ab8fcf3-4ac6-4d55-81a1-c9f08847ff71"},"vehicle_type_id":"4","last_reported":1745669813,"current_range_meters":11600,"station_id":"st_cvj6r9ubvosntc0bgbag","pricing_plan_id":"cebpf4jnsgd1na2vs0mg"},{"bike_id":"b2511a21-a10e-4a23-a72f-37faa4d8515c","system_id":"levelo_inurba_marseille","lat":43.21753,"lon":5.34603,"is_reserved":false,"is_disabled":false,"rental_uris":{"android":"levelo://app?vid=b2511a21-a10e-4a23-a72f-37faa4d8515c","ios":"levelo://app?vid=b2511a21-a10e-4a23-a72f-37faa4d8515c"},"vehicle_type_id":"4","last_reported":1745669813,"current_range_meters":12000,"station_id":"st_cvj6r9ubvosntc0bgbag","pricing_plan_id":"cebpf4jnsgd1na2vs0mg"},{"bike_id":"aa7dd23a-c50c-4359-a4fa-3d29c4576751","system_id":"levelo_inurba_marseille","lat":43.24166,"lon":5.36394,"is_reserved":false,"is_disabled":false,"rental_uris":{"android":"levelo://app?vid=aa7dd23a-c50c-4359-a4fa-3d29c4576751","ios":"levelo://app?vid=aa7dd23a-c50c-4359-a4fa-3d29c4576751"},"vehicle_type_id":"4","last_reported":1745669813,"current_range_meters":12000,"station_id":"cpo36qri1sfpv3e86is0","pricing_plan_id":"cebpf4jnsgd1na2vs0mg"},{"bike_id":"d1097c57-a267-45ce-8dc7-6649948e0f08","system_id":"levelo_inurba_marseille","lat":43.28275,"lon":5.35066,"is_reserved":false,"is_disabled":false,"rental_uris":{"android":"levelo://app?vid=d1097c57-a267-45ce-8dc7-6649948e0f08","ios":"levelo://app?vid=d1097c57-a267-45ce-8dc7-6649948e0f08"},"vehicle_type_id":"4","last_reported":1745669813,"current_range_meters":12000,"station_id":"ce4bhbp2rcd13ifvqerg","pricing_plan_id":"cebpf4jnsgd1na2vs0mg"},{"bike_id":"bbc708d8-5d23-485b-9366-22e8cb3a03bb","system_id":"levelo_inurba_marseille","lat":43.30138,"lon":5.38791,"is_reserved":false,"is_disabled":false,"rental_uris":{"android":"levelo://app?vid=bbc708d8-5d23-485b-9366-22e8cb3a03bb","ios":"levelo://app?vid=bbc708d8-5d23-485b-9366-22e8cb3a03bb"},"vehicle_type_id":"4","last_reported":1745669813,"current_range_meters":12000,"station_id":"ce4bghh2rcd13ifvqb60","pricing_plan_id":"cebpf4jnsgd1na2vs0mg"},{"bike_id":"f8fe13e6-7371-4bb9-b1f3-922290d25153","system_id":"levelo_inurba_marseille","lat":43.2656,"lon":5.37299,"is_reserved":false,"is_disabled":false,"rental_uris":{"android":"levelo://app?vid=f8fe13e6-7371-4bb9-b1f3-922290d25153","ios":"levelo://app?vid=f8fe13e6-7371-4bb9-b1f3-922290d25153"},"vehicle_type_id":"4","last_reported":1745669813,"current_range_meters":12000,"station_id":"ce4bhg12rcd13ifvqf70","pricing_plan_id":"cebpf4jnsgd1na2vs0mg"},{"bike_id":"c43b068a-4751-4ccf-a595-18eb17d66066","system_id":"levelo_inurba_marseille","lat":43.29961,"lon":5.4132,"is_reserved":false,"is_disabled":false,"rental_uris":{"android":"levelo://app?vid=c43b068a-4751-4ccf-a595-18eb17d66066","ios":"levelo://app?vid=c43b068a-4751-4ccf-a595-18eb17d66066"},"vehicle_type_id":"4","last_reported":1745669813,"current_range_meters":12000,"station_id":"ce4bhp12rcd13ifvqh9g","pricing_plan_id":"cebpf4jnsgd1na2vs0mg"},{"bike_id":"987d7900-bb2a-45cb-bed7-6d69f6fd4fa3","system_id":"levelo_inurba_marseille","lat":43.28496,"lon":5.38462,"is_reserved":false,"is_disabled":false,"rental_uris":{"android":"levelo://app?vid=987d7900-bb2a-45cb-bed7-6d69f6fd4fa3","ios":"levelo://app?vid=987d7900-bb2a-45cb-bed7-6d69f6fd4fa3"},"vehicle_type_id":"4","last_reported":1745669813,"current_range_meters":12000,"station_id":"ce4bh512rcd13ifvqe3g","pricing_plan_id":"cebpf4jnsgd1na2vs0mg"},{"bike_id":"0c467d0b-1ed5-4184-8565-e4818bfe83a0","system_id":"levelo_inurba_marseille","lat":43.26573,"lon":5.39005,"is_reserved":false,"is_disabled":false,"rental_uris":{"android":"levelo://app?vid=0c467d0b-1ed5-4184-8565-e4818bfe83a0","ios":"levelo://app?vid=0c467d0b-1ed5-4184-8565-e4818bfe83a0"},"vehicle_type_id":"4","last_reported":1745669813,"current_range_meters":12000,"station_id":"ce4bhe12rcd13ifvqf30","pricing_plan_id":"cebpf4jnsgd1na2vs0mg"},{"bike_id":"98c2aa27-bf8c-40d6-b00e-1df7c291b6b7","system_id":"levelo_inurba_marseille","lat":43.29001,"lon":5.35611,"is_reserved":false,"is_disabled":false,"rental_uris":{"android":"levelo://app?vid=98c2aa27-bf8c-40d6-b00e-1df7c291b6b7","ios":"levelo://app?vid=98c2aa27-bf8c-40d6-b00e-1df7c291b6b7"},"vehicle_type_id":"4","last_reported":1745669813,"current_range_meters":12000,"station_id":"ce4bhb92rcd13ifvqen0","pricing_plan_id":"cebpf4jnsgd1na2vs0mg"},{"bike_id":"acb6a89b-1630-4271-8eef-dbbfc9d9f699","system_id":"levelo_inurba_marseille","lat":43.31758,"lon":5.39012,"is_reserved":false,"is_disabled":false,"rental_uris":{"android":"levelo://app?vid=acb6a89b-1630-4271-8eef-dbbfc9d9f699","ios":"levelo://app?vid=acb6a89b-1630-4271-8eef-dbbfc9d9f699"},"vehicle_type_id":"4","last_reported":1745669813,"current_range_meters":12000,"station_id":"ce4bhqp2rcd13ifvqhng","pricing_plan_id":"cebpf4jnsgd1na2vs0mg"},{"bike_id":"f2ac7098-9dbe-4684-a3e7-cf90caaf304f","system_id":"levelo_inurba_marseille","lat":43.24179,"lon":5.39736,"is_reserved":false,"is_disabled":false,"rental_uris":{"android":"levelo://app?vid=f2ac7098-9dbe-4684-a3e7-cf90caaf304f","ios":"levelo://app?vid=f2ac7098-9dbe-4684-a3e7-cf90caaf304f"},"vehicle_type_id":"4","last_reported":1745669813,"current_range_meters":12400,"station_id":"ce4bhn12rcd13ifvqgpg","pricing_plan_id":"cebpf4jnsgd1na2vs0mg"},{"bike_id":"48b6ddac-2055-4a34-b692-73b4b6a6490c","system_id":"levelo_inurba_marseille","lat":43.29684,"lon":5.37297,"is_reserved":false,"is_disabled":false,"rental_uris":{"android":"levelo://app?vid=48b6ddac-2055-4a34-b692-73b4b6a6490c","ios":"levelo://app?vid=48b6ddac-2055-4a34-b692-73b4b6a6490c"},"vehicle_type_id":"4","last_reported":1745669813,"current_range_meters":12400,"station_id":"ce4bgk12rcd13ifvqbj0","pricing_plan_id":"cebpf4jnsgd1na2vs0mg"},{"bike_id":"7c799cf1-9919-4f59-bde2-ea860bf8d95f","system_id":"levelo_inurba_marseille","lat":43.2319,"lon":5.35568,"is_reserved":false,"is_disabled":true,"rental_uris":{"android":"levelo://app?vid=7c799cf1-9919-4f59-bde2-ea860bf8d95f","ios":"levelo://app?vid=7c799cf1-9919-4f59-bde2-ea860bf8d95f"},"vehicle_type_id":"4","last_reported":1745669813,"current_range_meters":12400,"station_id":"ce4bhu92rcd13ifvqi70","pricing_plan_id":"cebpf4jnsgd1na2vs0mg"},{"bike_id":"2237c9d3-a45c-4666-8468-c85f1dd0d9c3","system_id":"levelo_inurba_marseille","lat":43.29028,"lon":5.38644,"is_reserved":false,"is_disabled":false,"rental_uris":{"android":"levelo://app?vid=2237c9d3-a45c-4666-8468-c85f1dd0d9c3","ios":"levelo://app?vid=2237c9d3-a45c-4666-8468-c85f1dd0d9c3"},"vehicle_type_id":"4","last_reported":1745669813,"current_range_meters":12400,"station_id":"ce4bh4p2rcd13ifvqe0g","pricing_plan_id":"cebpf4jnsgd1na2vs0mg"},{"bike_id":"adc52c6e-749d-45f6-b1a8-531f44bbf424","system_id":"levelo_inurba_marseille","lat":43.337444,"lon":5.374475,"is_reserved":false,"is_disabled":false,"rental_uris":{"android":"levelo://app?vid=adc52c6e-749d-45f6-b1a8-531f44bbf424","ios":"levelo://app?vid=adc52c6e-749d-45f6-b1a8-531f44bbf424"},"vehicle_type_id":"4","last_reported":1745669813,"current_range_meters":12400,"station_id":"","pricing_plan_id":"cebpf4jnsgd1na2vs0mg"},{"bike_id":"5a0dbad3-5456-489b-9d53-a4f153f17a43","system_id":"levelo_inurba_marseille","lat":43.23066,"lon":5.35494,"is_reserved":false,"is_disabled":false,"rental_uris":{"android":"levelo://app?vid=5a0dbad3-5456-489b-9d53-a4f153f17a43","ios":"levelo://app?vid=5a0dbad3-5456-489b-9d53-a4f153f17a43"},"vehicle_type_id":"4","last_reported":1745669813,"current_range_meters":12800,"station_id":"cpo3342slgdg3j2ifvpg","pricing_plan_id":"cebpf4jnsgd1na2vs0mg"},{"bike_id":"41506375-0abe-4fe6-b564-e3082512bc7c","system_id":"levelo_inurba_marseille","lat":43.21753,"lon":5.34603,"is_reserved":false,"is_disabled":false,"rental_uris":{"android":"levelo://app?vid=41506375-0abe-4fe6-b564-e3082512bc7c","ios":"levelo://app?vid=41506375-0abe-4fe6-b564-e3082512bc7c"},"vehicle_type_id":"4","last_reported":1745669813,"current_range_meters":12800,"station_id":"st_cvj6r9ubvosntc0bgbag","pricing_plan_id":"cebpf4jnsgd1na2vs0mg"},{"bike_id":"e7f0edfb-1784-4296-b436-45f081824e97","system_id":"levelo_inurba_marseille","lat":43.23201,"lon":5.35545,"is_reserved":false,"is_disabled":false,"rental_uris":{"android":"levelo://app?vid=e7f0edfb-1784-4296-b436-45f081824e97","ios":"levelo://app?vid=e7f0edfb-1784-4296-b436-45f081824e97"},"vehicle_type_id":"4","last_reported":1745669813,"current_range_meters":12800,"station_id":"ce4bhu92rcd13ifvqi70","pricing_plan_id":"cebpf4jnsgd1na2vs0mg"},{"bike_id":"47fa3c9c-c96e-4f3d-b2bb-c32a3d729de1","system_id":"levelo_inurba_marseille","lat":43.23962,"lon":5.36616,"is_reserved":false,"is_disabled":false,"rental_uris":{"android":"levelo://app?vid=47fa3c9c-c96e-4f3d-b2bb-c32a3d729de1","ios":"levelo://app?vid=47fa3c9c-c96e-4f3d-b2bb-c32a3d729de1"},"vehicle_type_id":"4","last_reported":1745669813,"current_range_meters":12800,"station_id":"ce4bhi12rcd13ifvqfp0","pricing_plan_id":"cebpf4jnsgd1na2vs0mg"},{"bike_id":"0e18cd15-de4a-4606-8d6f-7e2903882f46","system_id":"levelo_inurba_marseille","lat":43.29625,"lon":5.37152,"is_reserved":false,"is_disabled":false,"rental_uris":{"android":"levelo://app?vid=0e18cd15-de4a-4606-8d6f-7e2903882f46","ios":"levelo://app?vid=0e18cd15-de4a-4606-8d6f-7e2903882f46"},"vehicle_type_id":"4","last_reported":1745669813,"current_range_meters":13600,"station_id":"ce4bgnh2rcd13ifvqc0g","pricing_plan_id":"cebpf4jnsgd1na2vs0mg"},{"bike_id":"3f8e74df-4b8a-4fe8-9f20-4fbe47605119","system_id":"levelo_inurba_marseille","lat":43.29022,"lon":5.37545,"is_reserved":false,"is_disabled":true,"rental_uris":{"android":"levelo://app?vid=3f8e74df-4b8a-4fe8-9f20-4fbe47605119","ios":"levelo://app?vid=3f8e74df-4b8a-4fe8-9f20-4fbe47605119"},"vehicle_type_id":"4","last_reported":1745669813,"current_range_meters":13600,"station_id":"ce4bh692rcd13ifvqe90","pricing_plan_id":"cebpf4jnsgd1na2vs0mg"},{"bike_id":"e6dd51ac-2075-47cd-ad99-bcf7ffe96cb9","system_id":"levelo_inurba_marseille","lat":43.22506,"lon":5.34785,"is_reserved":false,"is_disabled":false,"rental_uris":{"android":"levelo://app?vid=e6dd51ac-2075-47cd-ad99-bcf7ffe96cb9","ios":"levelo://app?vid=e6dd51ac-2075-47cd-ad99-bcf7ffe96cb9"},"vehicle_type_id":"4","last_reported":1745669813,"current_range_meters":13600,"station_id":"st_cvj5dfep6f1abm77gieg","pricing_plan_id":"cebpf4jnsgd1na2vs0mg"},{"bike_id":"ba300414-c744-438e-bb28-54ea87a5806a","system_id":"levelo_inurba_marseille","lat":43.29958,"lon":5.41316,"is_reserved":false,"is_disabled":false,"rental_uris":{"android":"levelo://app?vid=ba300414-c744-438e-bb28-54ea87a5806a","ios":"levelo://app?vid=ba300414-c744-438e-bb28-54ea87a5806a"},"vehicle_type_id":"4","last_reported":1745669813,"current_range_meters":13600,"station_id":"ce4bhp12rcd13ifvqh9g","pricing_plan_id":"cebpf4jnsgd1na2vs0mg"},{"bike_id":"89778eca-f048-4f36-914b-33467f62662a","system_id":"levelo_inurba_marseille","lat":43.27814,"lon":5.40707,"is_reserved":false,"is_disabled":false,"rental_uris":{"android":"levelo://app?vid=89778eca-f048-4f36-914b-33467f62662a","ios":"levelo://app?vid=89778eca-f048-4f36-914b-33467f62662a"},"vehicle_type_id":"4","last_reported":1745669813,"current_range_meters":13600,"station_id":"ce4bhnh2rcd13ifvqgtg","pricing_plan_id":"cebpf4jnsgd1na2vs0mg"},{"bike_id":"2e02a452-8658-4d94-876d-cc35ee59c2b7","system_id":"levelo_inurba_marseille","lat":43.21192,"lon":5.3507,"is_reserved":false,"is_disabled":false,"rental_uris":{"android":"levelo://app?vid=2e02a452-8658-4d94-876d-cc35ee59c2b7","ios":"levelo://app?vid=2e02a452-8658-4d94-876d-cc35ee59c2b7"},"vehicle_type_id":"4","last_reported":1745669813,"current_range_meters":14000,"station_id":"st_cvj6sg6p6f1abm77japg","pricing_plan_id":"cebpf4jnsgd1na2vs0mg"},{"bike_id":"978f5806-990c-4d36-bda7-1f8359e8c4de","system_id":"levelo_inurba_marseille","lat":43.27064,"lon":5.40255,"is_reserved":false,"is_disabled":false,"rental_uris":{"android":"levelo://app?vid=978f5806-990c-4d36-bda7-1f8359e8c4de","ios":"levelo://app?vid=978f5806-990c-4d36-bda7-1f8359e8c4de"},"vehicle_type_id":"4","last_reported":1745669813,"current_range_meters":14000,"station_id":"ce4bhk92rcd13ifvqgc0","pricing_plan_id":"cebpf4jnsgd1na2vs0mg"},{"bike_id":"e8cd99d0-661d-463c-ac08-3b99d2d0fecf","system_id":"levelo_inurba_marseille","lat":43.28861,"lon":5.35845,"is_reserved":false,"is_disabled":false,"rental_uris":{"android":"levelo://app?vid=e8cd99d0-661d-463c-ac08-3b99d2d0fecf","ios":"levelo://app?vid=e8cd99d0-661d-463c-ac08-3b99d2d0fecf"},"vehicle_type_id":"4","last_reported":1745669813,"current_range_meters":14000,"station_id":"ce4bhb12rcd13ifvqem0","pricing_plan_id":"cebpf4jnsgd1na2vs0mg"},{"bike_id":"ac277358-d119-40ef-a615-a6dd2a77513f","system_id":"levelo_inurba_marseille","lat":43.21749,"lon":5.34604,"is_reserved":false,"is_disabled":false,"rental_uris":{"android":"levelo://app?vid=ac277358-d119-40ef-a615-a6dd2a77513f","ios":"levelo://app?vid=ac277358-d119-40ef-a615-a6dd2a77513f"},"vehicle_type_id":"4","last_reported":1745669813,"current_range_meters":14000,"station_id":"st_cvj6r9ubvosntc0bgbag","pricing_plan_id":"cebpf4jnsgd1na2vs0mg"},{"bike_id":"ca376395-5bab-49ac-a88b-03ed7986b1fc","system_id":"levelo_inurba_marseille","lat":43.25927,"lon":5.40902,"is_reserved":false,"is_disabled":false,"rental_uris":{"android":"levelo://app?vid=ca376395-5bab-49ac-a88b-03ed7986b1fc","ios":"levelo://app?vid=ca376395-5bab-49ac-a88b-03ed7986b1fc"},"vehicle_type_id":"4","last_reported":1745669813,"current_range_meters":14000,"station_id":"ce4bhm92rcd13ifvqglg","pricing_plan_id":"cebpf4jnsgd1na2vs0mg"},{"bike_id":"efb16952-4d99-42d6-af6a-8aa061ab9c60","system_id":"levelo_inurba_marseille","lat":43.29276,"lon":5.3748,"is_reserved":false,"is_disabled":false,"rental_uris":{"android":"levelo://app?vid=efb16952-4d99-42d6-af6a-8aa061ab9c60","ios":"levelo://app?vid=efb16952-4d99-42d6-af6a-8aa061ab9c60"},"vehicle_type_id":"4","last_reported":1745669813,"current_range_meters":14000,"station_id":"ce4bgi12rcd13ifvqb70","pricing_plan_id":"cebpf4jnsgd1na2vs0mg"},{"bike_id":"86082c5a-74ec-45ee-9bbd-681fdfc8da73","system_id":"levelo_inurba_marseille","lat":43.23962,"lon":5.36626,"is_reserved":false,"is_disabled":false,"rental_uris":{"android":"levelo://app?vid=86082c5a-74ec-45ee-9bbd-681fdfc8da73","ios":"levelo://app?vid=86082c5a-74ec-45ee-9bbd-681fdfc8da73"},"vehicle_type_id":"4","last_reported":1745669813,"current_range_meters":14400,"station_id":"ce4bhi12rcd13ifvqfp0","pricing_plan_id":"cebpf4jnsgd1na2vs0mg"},{"bike_id":"ae376b6f-f74b-4712-b546-f4ec2e411a84","system_id":"levelo_inurba_marseille","lat":43.30086,"lon":5.39063,"is_reserved":false,"is_disabled":false,"rental_uris":{"android":"levelo://app?vid=ae376b6f-f74b-4712-b546-f4ec2e411a84","ios":"levelo://app?vid=ae376b6f-f74b-4712-b546-f4ec2e411a84"},"vehicle_type_id":"4","last_reported":1745669813,"current_range_meters":14400,"station_id":"ce4bh192rcd13ifvqdb0","pricing_plan_id":"cebpf4jnsgd1na2vs0mg"},{"bike_id":"b9645152-7bb3-4564-9526-2c8c8765d5f9","system_id":"levelo_inurba_marseille","lat":43.26033,"lon":5.37547,"is_reserved":false,"is_disabled":false,"rental_uris":{"android":"levelo://app?vid=b9645152-7bb3-4564-9526-2c8c8765d5f9","ios":"levelo://app?vid=b9645152-7bb3-4564-9526-2c8c8765d5f9"},"vehicle_type_id":"4","last_reported":1745669813,"current_range_meters":14400,"station_id":"ce4bhgh2rcd13ifvqfa0","pricing_plan_id":"cebpf4jnsgd1na2vs0mg"},{"bike_id":"a8550640-02d1-4490-89db-a13f06f63abc","system_id":"levelo_inurba_marseille","lat":43.32105,"lon":5.36766,"is_reserved":false,"is_disabled":false,"rental_uris":{"android":"levelo://app?vid=a8550640-02d1-4490-89db-a13f06f63abc","ios":"levelo://app?vid=a8550640-02d1-4490-89db-a13f06f63abc"},"vehicle_type_id":"4","last_reported":1745669813,"current_range_meters":14400,"station_id":"ce4bhrh2rcd13ifvqhug","pricing_plan_id":"cebpf4jnsgd1na2vs0mg"},{"bike_id":"5f9a7c1c-ddc3-405e-ad65-e4e8129d844f","system_id":"levelo_inurba_marseille","lat":43.31119,"lon":5.37782,"is_reserved":false,"is_disabled":false,"rental_uris":{"android":"levelo://app?vid=5f9a7c1c-ddc3-405e-ad65-e4e8129d844f","ios":"levelo://app?vid=5f9a7c1c-ddc3-405e-ad65-e4e8129d844f"},"vehicle_type_id":"4","last_reported":1745669813,"current_range_meters":14400,"station_id":"ce4bgt92rcd13ifvqcg0","pricing_plan_id":"cebpf4jnsgd1na2vs0mg"},{"bike_id":"4046a82f-66e8-4b55-bd0a-356edea772d8","system_id":"levelo_inurba_marseille","lat":43.31018,"lon":5.3702,"is_reserved":false,"is_disabled":false,"rental_uris":{"android":"levelo://app?vid=4046a82f-66e8-4b55-bd0a-356edea772d8","ios":"levelo://app?vid=4046a82f-66e8-4b55-bd0a-356edea772d8"},"vehicle_type_id":"4","last_reported":1745669813,"current_range_meters":14800,"station_id":"","pricing_plan_id":"cebpf4jnsgd1na2vs0mg"},{"bike_id":"6c5dbaa5-239a-499b-bb6c-63f507c339d5","system_id":"levelo_inurba_marseille","lat":43.3009,"lon":5.3907,"is_reserved":false,"is_disabled":false,"rental_uris":{"android":"levelo://app?vid=6c5dbaa5-239a-499b-bb6c-63f507c339d5","ios":"levelo://app?vid=6c5dbaa5-239a-499b-bb6c-63f507c339d5"},"vehicle_type_id":"4","last_reported":1745669813,"current_range_meters":14800,"station_id":"ce4bh192rcd13ifvqdb0","pricing_plan_id":"cebpf4jnsgd1na2vs0mg"},{"bike_id":"e9ab448f-ff65-4aac-a5a6-febcb20f7369","system_id":"levelo_inurba_marseille","lat":43.270752,"lon":5.422823,"is_reserved":false,"is_disabled":false,"rental_uris":{"android":"levelo://app?vid=e9ab448f-ff65-4aac-a5a6-febcb20f7369","ios":"levelo://app?vid=e9ab448f-ff65-4aac-a5a6-febcb20f7369"},"vehicle_type_id":"4","last_reported":1745669813,"current_range_meters":14800,"station_id":"ce4bhk92rcd13ifvqgb0","pricing_plan_id":"cebpf4jnsgd1na2vs0mg"},{"bike_id":"3aa7bd77-0193-4c97-ad87-6c934a51b7c4","system_id":"levelo_inurba_marseille","lat":43.30412,"lon":5.41284,"is_reserved":false,"is_disabled":false,"rental_uris":{"android":"levelo://app?vid=3aa7bd77-0193-4c97-ad87-6c934a51b7c4","ios":"levelo://app?vid=3aa7bd77-0193-4c97-ad87-6c934a51b7c4"},"vehicle_type_id":"4","last_reported":1745669813,"current_range_meters":15200,"station_id":"ce4bhop2rcd13ifvqh8g","pricing_plan_id":"cebpf4jnsgd1na2vs0mg"},{"bike_id":"775b2b9f-9fa8-43bd-932e-4e9ce216d2b8","system_id":"levelo_inurba_marseille","lat":43.231602,"lon":5.43714,"is_reserved":false,"is_disabled":false,"rental_uris":{"android":"levelo://app?vid=775b2b9f-9fa8-43bd-932e-4e9ce216d2b8","ios":"levelo://app?vid=775b2b9f-9fa8-43bd-932e-4e9ce216d2b8"},"vehicle_type_id":"4","last_reported":1745669813,"current_range_meters":15200,"station_id":"ce4bhmp2rcd13ifvqgog","pricing_plan_id":"cebpf4jnsgd1na2vs0mg"},{"bike_id":"ea153f09-645c-4d5a-a4a9-8a1ec2f9a277","system_id":"levelo_inurba_marseille","lat":43.29714,"lon":5.36605,"is_reserved":false,"is_disabled":false,"rental_uris":{"android":"levelo://app?vid=ea153f09-645c-4d5a-a4a9-8a1ec2f9a277","ios":"levelo://app?vid=ea153f09-645c-4d5a-a4a9-8a1ec2f9a277"},"vehicle_type_id":"4","last_reported":1745669813,"current_range_meters":15200,"station_id":"ce4bgn12rcd13ifvqbt0","pricing_plan_id":"cebpf4jnsgd1na2vs0mg"},{"bike_id":"7141b66c-3027-4ee4-9b5b-b85dc0bd6d0a","system_id":"levelo_inurba_marseille","lat":43.3127,"lon":5.40159,"is_reserved":false,"is_disabled":false,"rental_uris":{"android":"levelo://app?vid=7141b66c-3027-4ee4-9b5b-b85dc0bd6d0a","ios":"levelo://app?vid=7141b66c-3027-4ee4-9b5b-b85dc0bd6d0a"},"vehicle_type_id":"4","last_reported":1745669813,"current_range_meters":15200,"station_id":"ce4bh092rcd13ifvqd30","pricing_plan_id":"cebpf4jnsgd1na2vs0mg"},{"bike_id":"0041740c-fb2c-4048-853f-1937a42546e8","system_id":"levelo_inurba_marseille","lat":43.248942,"lon":5.374885,"is_reserved":false,"is_disabled":false,"rental_uris":{"android":"levelo://app?vid=0041740c-fb2c-4048-853f-1937a42546e8","ios":"levelo://app?vid=0041740c-fb2c-4048-853f-1937a42546e8"},"vehicle_type_id":"4","last_reported":1745669813,"current_range_meters":15200,"station_id":"ce4bhlp2rcd13ifvqgjg","pricing_plan_id":"cebpf4jnsgd1na2vs0mg"},{"bike_id":"51eccf66-fea2-4036-9b1b-a2fc32897308","system_id":"levelo_inurba_marseille","lat":43.27172,"lon":5.40966,"is_reserved":false,"is_disabled":false,"rental_uris":{"android":"levelo://app?vid=51eccf66-fea2-4036-9b1b-a2fc32897308","ios":"levelo://app?vid=51eccf66-fea2-4036-9b1b-a2fc32897308"},"vehicle_type_id":"4","last_reported":1745669813,"current_range_meters":16000,"station_id":"ce4bhl12rcd13ifvqgf0","pricing_plan_id":"cebpf4jnsgd1na2vs0mg"},{"bike_id":"e8b62835-a84e-47ec-ae17-92ed9baa736d","system_id":"levelo_inurba_marseille","lat":43.2174,"lon":5.34616,"is_reserved":false,"is_disabled":false,"rental_uris":{"android":"levelo://app?vid=e8b62835-a84e-47ec-ae17-92ed9baa736d","ios":"levelo://app?vid=e8b62835-a84e-47ec-ae17-92ed9baa736d"},"vehicle_type_id":"4","last_reported":1745669813,"current_range_meters":16000,"station_id":"st_cvj6r9ubvosntc0bgbag","pricing_plan_id":"cebpf4jnsgd1na2vs0mg"},{"bike_id":"0abb145a-12ac-4105-b164-8feb4fb022b8","system_id":"levelo_inurba_marseille","lat":43.21188,"lon":5.35074,"is_reserved":false,"is_disabled":false,"rental_uris":{"android":"levelo://app?vid=0abb145a-12ac-4105-b164-8feb4fb022b8","ios":"levelo://app?vid=0abb145a-12ac-4105-b164-8feb4fb022b8"},"vehicle_type_id":"4","last_reported":1745669813,"current_range_meters":16000,"station_id":"st_cvj6sg6p6f1abm77japg","pricing_plan_id":"cebpf4jnsgd1na2vs0mg"},{"bike_id":"d847a66e-18a0-470c-af8f-4b2a4fb9f142","system_id":"levelo_inurba_marseille","lat":43.26195,"lon":5.37449,"is_reserved":false,"is_disabled":false,"rental_uris":{"android":"levelo://app?vid=d847a66e-18a0-470c-af8f-4b2a4fb9f142","ios":"levelo://app?vid=d847a66e-18a0-470c-af8f-4b2a4fb9f142"},"vehicle_type_id":"4","last_reported":1745669813,"current_range_meters":16000,"station_id":"ce4bhgp2rcd13ifvqfc0","pricing_plan_id":"cebpf4jnsgd1na2vs0mg"},{"bike_id":"e2982129-0a81-4346-98bc-974c80e409ff","system_id":"levelo_inurba_marseille","lat":43.21185,"lon":5.35069,"is_reserved":false,"is_disabled":false,"rental_uris":{"android":"levelo://app?vid=e2982129-0a81-4346-98bc-974c80e409ff","ios":"levelo://app?vid=e2982129-0a81-4346-98bc-974c80e409ff"},"vehicle_type_id":"4","last_reported":1745669813,"current_range_meters":16000,"station_id":"st_cvj6sg6p6f1abm77japg","pricing_plan_id":"cebpf4jnsgd1na2vs0mg"},{"bike_id":"31094790-de6b-4aab-a356-754e014fb877","system_id":"levelo_inurba_marseille","lat":43.26211,"lon":5.37437,"is_reserved":false,"is_disabled":false,"rental_uris":{"android":"levelo://app?vid=31094790-de6b-4aab-a356-754e014fb877","ios":"levelo://app?vid=31094790-de6b-4aab-a356-754e014fb877"},"vehicle_type_id":"4","last_reported":1745669813,"current_range_meters":16000,"station_id":"ce4bhgp2rcd13ifvqfc0","pricing_plan_id":"cebpf4jnsgd1na2vs0mg"},{"bike_id":"bc2652db-32ee-450e-8cc0-005a02c1f054","system_id":"levelo_inurba_marseille","lat":43.21203,"lon":5.35067,"is_reserved":false,"is_disabled":false,"rental_uris":{"android":"levelo://app?vid=bc2652db-32ee-450e-8cc0-005a02c1f054","ios":"levelo://app?vid=bc2652db-32ee-450e-8cc0-005a02c1f054"},"vehicle_type_id":"4","last_reported":1745669813,"current_range_meters":16000,"station_id":"st_cvj6sg6p6f1abm77japg","pricing_plan_id":"cebpf4jnsgd1na2vs0mg"},{"bike_id":"9de9d996-1620-4858-b125-d2c76650648e","system_id":"levelo_inurba_marseille","lat":43.26034,"lon":5.37536,"is_reserved":false,"is_disabled":false,"rental_uris":{"android":"levelo://app?vid=9de9d996-1620-4858-b125-d2c76650648e","ios":"levelo://app?vid=9de9d996-1620-4858-b125-d2c76650648e"},"vehicle_type_id":"4","last_reported":1745669813,"current_range_meters":16000,"station_id":"ce4bhgh2rcd13ifvqfa0","pricing_plan_id":"cebpf4jnsgd1na2vs0mg"},{"bike_id":"4741e6af-20c0-42f4-b950-4d85a1b8cba0","system_id":"levelo_inurba_marseille","lat":43.30838,"lon":5.37919,"is_reserved":false,"is_disabled":false,"rental_uris":{"android":"levelo://app?vid=4741e6af-20c0-42f4-b950-4d85a1b8cba0","ios":"levelo://app?vid=4741e6af-20c0-42f4-b950-4d85a1b8cba0"},"vehicle_type_id":"4","last_reported":1745669813,"current_range_meters":16000,"station_id":"","pricing_plan_id":"cebpf4jnsgd1na2vs0mg"},{"bike_id":"ce2f36b7-5868-46b4-8622-1f983a535816","system_id":"levelo_inurba_marseille","lat":43.30463,"lon":5.37908,"is_reserved":false,"is_disabled":false,"rental_uris":{"android":"levelo://app?vid=ce2f36b7-5868-46b4-8622-1f983a535816","ios":"levelo://app?vid=ce2f36b7-5868-46b4-8622-1f983a535816"},"vehicle_type_id":"4","last_reported":1745669813,"current_range_meters":16000,"station_id":"ce4bgup2rcd13ifvqcn0","pricing_plan_id":"cebpf4jnsgd1na2vs0mg"},{"bike_id":"08d90611-3174-4d32-af56-2202a9307433","system_id":"levelo_inurba_marseille","lat":43.28927,"lon":5.38398,"is_reserved":false,"is_disabled":false,"rental_uris":{"android":"levelo://app?vid=08d90611-3174-4d32-af56-2202a9307433","ios":"levelo://app?vid=08d90611-3174-4d32-af56-2202a9307433"},"vehicle_type_id":"4","last_reported":1745669813,"current_range_meters":16000,"station_id":"ce4bh612rcd13ifvqe6g","pricing_plan_id":"cebpf4jnsgd1na2vs0mg"},{"bike_id":"25013bb2-80c2-4fab-8300-f567f4995705","system_id":"levelo_inurba_marseille","lat":43.24072,"lon":5.37766,"is_reserved":false,"is_disabled":false,"rental_uris":{"android":"levelo://app?vid=25013bb2-80c2-4fab-8300-f567f4995705","ios":"levelo://app?vid=25013bb2-80c2-4fab-8300-f567f4995705"},"vehicle_type_id":"4","last_reported":1745669813,"current_range_meters":16400,"station_id":"ce4bhnp2rcd13ifvqgvg","pricing_plan_id":"cebpf4jnsgd1na2vs0mg"},{"bike_id":"bb8abbd4-6ec2-439a-a069-11d72b88e960","system_id":"levelo_inurba_marseille","lat":43.290246,"lon":5.381293,"is_reserved":false,"is_disabled":false,"rental_uris":{"android":"levelo://app?vid=bb8abbd4-6ec2-439a-a069-11d72b88e960","ios":"levelo://app?vid=bb8abbd4-6ec2-439a-a069-11d72b88e960"},"vehicle_type_id":"4","last_reported":1745669813,"current_range_meters":16400,"station_id":"ce4bh4p2rcd13ifvqe1g","pricing_plan_id":"cebpf4jnsgd1na2vs0mg"},{"bike_id":"5f2051ff-3d19-41f0-8faf-3ecd2dad2f66","system_id":"levelo_inurba_marseille","lat":43.30214,"lon":5.39476,"is_reserved":false,"is_disabled":false,"rental_uris":{"android":"levelo://app?vid=5f2051ff-3d19-41f0-8faf-3ecd2dad2f66","ios":"levelo://app?vid=5f2051ff-3d19-41f0-8faf-3ecd2dad2f66"},"vehicle_type_id":"4","last_reported":1745669813,"current_range_meters":16400,"station_id":"ce4bh0p2rcd13ifvqd70","pricing_plan_id":"cebpf4jnsgd1na2vs0mg"},{"bike_id":"314a7709-793a-4cd8-a4f0-aa8320fcf0cb","system_id":"levelo_inurba_marseille","lat":43.282748,"lon":5.381381,"is_reserved":false,"is_disabled":false,"rental_uris":{"android":"levelo://app?vid=314a7709-793a-4cd8-a4f0-aa8320fcf0cb","ios":"levelo://app?vid=314a7709-793a-4cd8-a4f0-aa8320fcf0cb"},"vehicle_type_id":"4","last_reported":1745669813,"current_range_meters":16400,"station_id":"ce4bhn92rcd13ifvqgrg","pricing_plan_id":"cebpf4jnsgd1na2vs0mg"},{"bike_id":"4414587f-8c1c-461b-8a25-417a49b86327","system_id":"levelo_inurba_marseille","lat":43.26345,"lon":5.37739,"is_reserved":false,"is_disabled":false,"rental_uris":{"android":"levelo://app?vid=4414587f-8c1c-461b-8a25-417a49b86327","ios":"levelo://app?vid=4414587f-8c1c-461b-8a25-417a49b86327"},"vehicle_type_id":"4","last_reported":1745669813,"current_range_meters":16400,"station_id":"","pricing_plan_id":"cebpf4jnsgd1na2vs0mg"},{"bike_id":"2825fb07-7560-46e8-ac7f-5c346746f9be","system_id":"levelo_inurba_marseille","lat":43.25499,"lon":5.37646,"is_reserved":false,"is_disabled":false,"rental_uris":{"android":"levelo://app?vid=2825fb07-7560-46e8-ac7f-5c346746f9be","ios":"levelo://app?vid=2825fb07-7560-46e8-ac7f-5c346746f9be"},"vehicle_type_id":"4","last_reported":1745669813,"current_range_meters":5600,"station_id":"ce4bhh12rcd13ifvqff0","pricing_plan_id":"cebpf4jnsgd1na2vs0mg"},{"bike_id":"0053b840-de47-4900-98aa-cc8575176b05","system_id":"levelo_inurba_marseille","lat":43.24164,"lon":5.36421,"is_reserved":false,"is_disabled":true,"rental_uris":{"android":"levelo://app?vid=0053b840-de47-4900-98aa-cc8575176b05","ios":"levelo://app?vid=0053b840-de47-4900-98aa-cc8575176b05"},"vehicle_type_id":"4","last_reported":1745669813,"current_range_meters":16800,"station_id":"cpo36qri1sfpv3e86is0","pricing_plan_id":"cebpf4jnsgd1na2vs0mg"},{"bike_id":"b915b0da-b76f-4ce8-876f-e45c5906ef0b","system_id":"levelo_inurba_marseille","lat":43.27187,"lon":5.41004,"is_reserved":false,"is_disabled":false,"rental_uris":{"android":"levelo://app?vid=b915b0da-b76f-4ce8-876f-e45c5906ef0b","ios":"levelo://app?vid=b915b0da-b76f-4ce8-876f-e45c5906ef0b"},"vehicle_type_id":"4","last_reported":1745669813,"current_range_meters":16800,"station_id":"ce4bhl12rcd13ifvqgf0","pricing_plan_id":"cebpf4jnsgd1na2vs0mg"},{"bike_id":"50c147db-60be-4c88-a5f9-d3b77a033a6f","system_id":"levelo_inurba_marseille","lat":43.24073,"lon":5.37768,"is_reserved":false,"is_disabled":false,"rental_uris":{"android":"levelo://app?vid=50c147db-60be-4c88-a5f9-d3b77a033a6f","ios":"levelo://app?vid=50c147db-60be-4c88-a5f9-d3b77a033a6f"},"vehicle_type_id":"4","last_reported":1745669813,"current_range_meters":16800,"station_id":"ce4bhnp2rcd13ifvqgvg","pricing_plan_id":"cebpf4jnsgd1na2vs0mg"},{"bike_id":"814c23e6-3e57-453e-a53a-3e4b0e628ef3","system_id":"levelo_inurba_marseille","lat":43.29369,"lon":5.37828,"is_reserved":false,"is_disabled":false,"rental_uris":{"android":"levelo://app?vid=814c23e6-3e57-453e-a53a-3e4b0e628ef3","ios":"levelo://app?vid=814c23e6-3e57-453e-a53a-3e4b0e628ef3"},"vehicle_type_id":"4","last_reported":1745669813,"current_range_meters":16800,"station_id":"ce4bgjh2rcd13ifvqbf0","pricing_plan_id":"cebpf4jnsgd1na2vs0mg"},{"bike_id":"1545c628-78da-40c3-8c9e-23e80abea750","system_id":"levelo_inurba_marseille","lat":43.23152,"lon":5.43719,"is_reserved":false,"is_disabled":false,"rental_uris":{"android":"levelo://app?vid=1545c628-78da-40c3-8c9e-23e80abea750","ios":"levelo://app?vid=1545c628-78da-40c3-8c9e-23e80abea750"},"vehicle_type_id":"4","last_reported":1745669813,"current_range_meters":17200,"station_id":"ce4bhmp2rcd13ifvqgog","pricing_plan_id":"cebpf4jnsgd1na2vs0mg"},{"bike_id":"711fa5a6-07c4-4042-870b-e26b13b8f62c","system_id":"levelo_inurba_marseille","lat":43.270529,"lon":5.422485,"is_reserved":false,"is_disabled":false,"rental_uris":{"android":"levelo://app?vid=711fa5a6-07c4-4042-870b-e26b13b8f62c","ios":"levelo://app?vid=711fa5a6-07c4-4042-870b-e26b13b8f62c"},"vehicle_type_id":"4","last_reported":1745669813,"current_range_meters":17200,"station_id":"ce4bhk92rcd13ifvqgb0","pricing_plan_id":"cebpf4jnsgd1na2vs0mg"},{"bike_id":"d6e41e93-1359-46e8-bfef-ed1fee730adb","system_id":"levelo_inurba_marseille","lat":43.28678,"lon":5.36314,"is_reserved":false,"is_disabled":false,"rental_uris":{"android":"levelo://app?vid=d6e41e93-1359-46e8-bfef-ed1fee730adb","ios":"levelo://app?vid=d6e41e93-1359-46e8-bfef-ed1fee730adb"},"vehicle_type_id":"4","last_reported":1745669813,"current_range_meters":17200,"station_id":"ce4bhah2rcd13ifvqej0","pricing_plan_id":"cebpf4jnsgd1na2vs0mg"},{"bike_id":"f338b586-c95c-4003-961b-4ab2c50263be","system_id":"levelo_inurba_marseille","lat":43.3148,"lon":5.37307,"is_reserved":false,"is_disabled":false,"rental_uris":{"android":"levelo://app?vid=f338b586-c95c-4003-961b-4ab2c50263be","ios":"levelo://app?vid=f338b586-c95c-4003-961b-4ab2c50263be"},"vehicle_type_id":"4","last_reported":1745669813,"current_range_meters":17200,"station_id":"ce4bgt12rcd13ifvqcd0","pricing_plan_id":"cebpf4jnsgd1na2vs0mg"},{"bike_id":"0390a7f6-5047-40d7-9591-67284edda013","system_id":"levelo_inurba_marseille","lat":43.29851,"lon":5.36257,"is_reserved":false,"is_disabled":false,"rental_uris":{"android":"levelo://app?vid=0390a7f6-5047-40d7-9591-67284edda013","ios":"levelo://app?vid=0390a7f6-5047-40d7-9591-67284edda013"},"vehicle_type_id":"4","last_reported":1745669813,"current_range_meters":17200,"station_id":"ce4bgpp2rcd13ifvqc3g","pricing_plan_id":"cebpf4jnsgd1na2vs0mg"},{"bike_id":"d0d7e6e2-cfae-4f63-b676-9b779f78a3a8","system_id":"levelo_inurba_marseille","lat":43.22928,"lon":5.35376,"is_reserved":false,"is_disabled":false,"rental_uris":{"android":"levelo://app?vid=d0d7e6e2-cfae-4f63-b676-9b779f78a3a8","ios":"levelo://app?vid=d0d7e6e2-cfae-4f63-b676-9b779f78a3a8"},"vehicle_type_id":"4","last_reported":1745669813,"current_range_meters":17200,"station_id":"cpo3532slgdg3j2ikp40","pricing_plan_id":"cebpf4jnsgd1na2vs0mg"},{"bike_id":"4567ca7a-7116-4f2a-82cd-a7869059c4dc","system_id":"levelo_inurba_marseille","lat":43.26788,"lon":5.39413,"is_reserved":false,"is_disabled":false,"rental_uris":{"android":"levelo://app?vid=4567ca7a-7116-4f2a-82cd-a7869059c4dc","ios":"levelo://app?vid=4567ca7a-7116-4f2a-82cd-a7869059c4dc"},"vehicle_type_id":"4","last_reported":1745669813,"current_range_meters":17600,"station_id":"ce4bhh12rcd13ifvqfg0","pricing_plan_id":"cebpf4jnsgd1na2vs0mg"},{"bike_id":"d82d573c-5f64-4664-b714-12e30f87ce49","system_id":"levelo_inurba_marseille","lat":43.32107,"lon":5.36766,"is_reserved":false,"is_disabled":false,"rental_uris":{"android":"levelo://app?vid=d82d573c-5f64-4664-b714-12e30f87ce49","ios":"levelo://app?vid=d82d573c-5f64-4664-b714-12e30f87ce49"},"vehicle_type_id":"4","last_reported":1745669813,"current_range_meters":17600,"station_id":"ce4bhrh2rcd13ifvqhug","pricing_plan_id":"cebpf4jnsgd1na2vs0mg"},{"bike_id":"ca8753d3-dffa-4a2e-8300-a83a1208df49","system_id":"levelo_inurba_marseille","lat":43.31988,"lon":5.3817,"is_reserved":false,"is_disabled":false,"rental_uris":{"android":"levelo://app?vid=ca8753d3-dffa-4a2e-8300-a83a1208df49","ios":"levelo://app?vid=ca8753d3-dffa-4a2e-8300-a83a1208df49"},"vehicle_type_id":"4","last_reported":1745669813,"current_range_meters":17600,"station_id":"ce4bhr12rcd13ifvqhpg","pricing_plan_id":"cebpf4jnsgd1na2vs0mg"},{"bike_id":"1e0ac60b-e244-4f1a-948d-7791c5fa98da","system_id":"levelo_inurba_marseille","lat":43.211911,"lon":5.350746,"is_reserved":false,"is_disabled":true,"rental_uris":{"android":"levelo://app?vid=1e0ac60b-e244-4f1a-948d-7791c5fa98da","ios":"levelo://app?vid=1e0ac60b-e244-4f1a-948d-7791c5fa98da"},"vehicle_type_id":"4","last_reported":1745669813,"current_range_meters":18000,"station_id":"st_cvj6sg6p6f1abm77japg","pricing_plan_id":"cebpf4jnsgd1na2vs0mg"},{"bike_id":"ee696d87-e7d6-4c39-91b8-dd13e5f590f1","system_id":"levelo_inurba_marseille","lat":43.29911,"lon":5.38291,"is_reserved":false,"is_disabled":false,"rental_uris":{"android":"levelo://app?vid=ee696d87-e7d6-4c39-91b8-dd13e5f590f1","ios":"levelo://app?vid=ee696d87-e7d6-4c39-91b8-dd13e5f590f1"},"vehicle_type_id":"4","last_reported":1745669813,"current_range_meters":18000,"station_id":"","pricing_plan_id":"cebpf4jnsgd1na2vs0mg"},{"bike_id":"20f1e27c-2a70-4191-bbb4-a137ed3198f2","system_id":"levelo_inurba_marseille","lat":43.284744,"lon":5.384243,"is_reserved":false,"is_disabled":false,"rental_uris":{"android":"levelo://app?vid=20f1e27c-2a70-4191-bbb4-a137ed3198f2","ios":"levelo://app?vid=20f1e27c-2a70-4191-bbb4-a137ed3198f2"},"vehicle_type_id":"4","last_reported":1745669813,"current_range_meters":18000,"station_id":"ce4bhlh2rcd13ifvqgig","pricing_plan_id":"cebpf4jnsgd1na2vs0mg"},{"bike_id":"dc6a6c97-9525-413d-9de5-13313fcc93c6","system_id":"levelo_inurba_marseille","lat":43.21182,"lon":5.35068,"is_reserved":false,"is_disabled":false,"rental_uris":{"android":"levelo://app?vid=dc6a6c97-9525-413d-9de5-13313fcc93c6","ios":"levelo://app?vid=dc6a6c97-9525-413d-9de5-13313fcc93c6"},"vehicle_type_id":"4","last_reported":1745669813,"current_range_meters":18000,"station_id":"st_cvj6sg6p6f1abm77japg","pricing_plan_id":"cebpf4jnsgd1na2vs0mg"},{"bike_id":"8722025a-c2f9-4f94-b0ab-3b1fd979be90","system_id":"levelo_inurba_marseille","lat":43.26038,"lon":5.37543,"is_reserved":false,"is_disabled":false,"rental_uris":{"android":"levelo://app?vid=8722025a-c2f9-4f94-b0ab-3b1fd979be90","ios":"levelo://app?vid=8722025a-c2f9-4f94-b0ab-3b1fd979be90"},"vehicle_type_id":"4","last_reported":1745669813,"current_range_meters":18000,"station_id":"ce4bhgh2rcd13ifvqfa0","pricing_plan_id":"cebpf4jnsgd1na2vs0mg"},{"bike_id":"9b453bce-fb6f-4a07-8252-dffeeaa90381","system_id":"levelo_inurba_marseille","lat":43.2396,"lon":5.36623,"is_reserved":false,"is_disabled":false,"rental_uris":{"android":"levelo://app?vid=9b453bce-fb6f-4a07-8252-dffeeaa90381","ios":"levelo://app?vid=9b453bce-fb6f-4a07-8252-dffeeaa90381"},"vehicle_type_id":"4","last_reported":1745669813,"current_range_meters":18000,"station_id":"ce4bhi12rcd13ifvqfp0","pricing_plan_id":"cebpf4jnsgd1na2vs0mg"},{"bike_id":"560f12bb-1614-4d7c-b78e-ccf5bdec9ea6","system_id":"levelo_inurba_marseille","lat":43.28466,"lon":5.35881,"is_reserved":false,"is_disabled":true,"rental_uris":{"android":"levelo://app?vid=560f12bb-1614-4d7c-b78e-ccf5bdec9ea6","ios":"levelo://app?vid=560f12bb-1614-4d7c-b78e-ccf5bdec9ea6"},"vehicle_type_id":"4","last_reported":1745669813,"current_range_meters":18000,"station_id":"ce4bhah2rcd13ifvqei0","pricing_plan_id":"cebpf4jnsgd1na2vs0mg"},{"bike_id":"aa0a0acb-a19a-4569-9f7e-6c492cc43a49","system_id":"levelo_inurba_marseille","lat":43.28486,"lon":5.38416,"is_reserved":false,"is_disabled":true,"rental_uris":{"android":"levelo://app?vid=aa0a0acb-a19a-4569-9f7e-6c492cc43a49","ios":"levelo://app?vid=aa0a0acb-a19a-4569-9f7e-6c492cc43a49"},"vehicle_type_id":"4","last_reported":1745669813,"current_range_meters":18000,"station_id":"ce4bh512rcd13ifvqe3g","pricing_plan_id":"cebpf4jnsgd1na2vs0mg"},{"bike_id":"214cc3a4-50ec-4f1d-b937-ee007c6a0ca5","system_id":"levelo_inurba_marseille","lat":43.29624,"lon":5.37722,"is_reserved":false,"is_disabled":false,"rental_uris":{"android":"levelo://app?vid=214cc3a4-50ec-4f1d-b937-ee007c6a0ca5","ios":"levelo://app?vid=214cc3a4-50ec-4f1d-b937-ee007c6a0ca5"},"vehicle_type_id":"4","last_reported":1745669813,"current_range_meters":18800,"station_id":"ce4bgi92rcd13ifvqb90","pricing_plan_id":"cebpf4jnsgd1na2vs0mg"},{"bike_id":"7f630bc2-59bc-4122-a7be-00bfe605385f","system_id":"levelo_inurba_marseille","lat":43.235177,"lon":5.360651,"is_reserved":false,"is_disabled":false,"rental_uris":{"android":"levelo://app?vid=7f630bc2-59bc-4122-a7be-00bfe605385f","ios":"levelo://app?vid=7f630bc2-59bc-4122-a7be-00bfe605385f"},"vehicle_type_id":"4","last_reported":1745669813,"current_range_meters":18800,"station_id":"ce4bhu92rcd13ifvqi70","pricing_plan_id":"cebpf4jnsgd1na2vs0mg"},{"bike_id":"0e96c8db-53ec-48cc-9089-e715927f4e1f","system_id":"levelo_inurba_marseille","lat":43.23962,"lon":5.36638,"is_reserved":false,"is_disabled":false,"rental_uris":{"android":"levelo://app?vid=0e96c8db-53ec-48cc-9089-e715927f4e1f","ios":"levelo://app?vid=0e96c8db-53ec-48cc-9089-e715927f4e1f"},"vehicle_type_id":"4","last_reported":1745669813,"current_range_meters":18800,"station_id":"ce4bhi12rcd13ifvqfp0","pricing_plan_id":"cebpf4jnsgd1na2vs0mg"},{"bike_id":"c87a0fdb-eb59-4642-88b9-9e251bfbacc9","system_id":"levelo_inurba_marseille","lat":43.29003,"lon":5.35605,"is_reserved":false,"is_disabled":false,"rental_uris":{"android":"levelo://app?vid=c87a0fdb-eb59-4642-88b9-9e251bfbacc9","ios":"levelo://app?vid=c87a0fdb-eb59-4642-88b9-9e251bfbacc9"},"vehicle_type_id":"4","last_reported":1745669813,"current_range_meters":18800,"station_id":"ce4bhb92rcd13ifvqen0","pricing_plan_id":"cebpf4jnsgd1na2vs0mg"},{"bike_id":"ca83d9fb-1098-4114-9206-da35b8c78c1c","system_id":"levelo_inurba_marseille","lat":43.2718,"lon":5.40996,"is_reserved":false,"is_disabled":false,"rental_uris":{"android":"levelo://app?vid=ca83d9fb-1098-4114-9206-da35b8c78c1c","ios":"levelo://app?vid=ca83d9fb-1098-4114-9206-da35b8c78c1c"},"vehicle_type_id":"4","last_reported":1745669813,"current_range_meters":18800,"station_id":"ce4bhl12rcd13ifvqgf0","pricing_plan_id":"cebpf4jnsgd1na2vs0mg"},{"bike_id":"c8c2214a-a75d-42db-be03-8e2b05638958","system_id":"levelo_inurba_marseille","lat":43.26211,"lon":5.37444,"is_reserved":false,"is_disabled":false,"rental_uris":{"android":"levelo://app?vid=c8c2214a-a75d-42db-be03-8e2b05638958","ios":"levelo://app?vid=c8c2214a-a75d-42db-be03-8e2b05638958"},"vehicle_type_id":"4","last_reported":1745669813,"current_range_meters":18800,"station_id":"ce4bhgp2rcd13ifvqfc0","pricing_plan_id":"cebpf4jnsgd1na2vs0mg"},{"bike_id":"b09f6398-d65e-4efb-97c1-07c7b745be0f","system_id":"levelo_inurba_marseille","lat":43.264891,"lon":5.395363,"is_reserved":false,"is_disabled":false,"rental_uris":{"android":"levelo://app?vid=b09f6398-d65e-4efb-97c1-07c7b745be0f","ios":"levelo://app?vid=b09f6398-d65e-4efb-97c1-07c7b745be0f"},"vehicle_type_id":"4","last_reported":1745669813,"current_range_meters":18800,"station_id":"ce4bhi12rcd13ifvqfq0","pricing_plan_id":"cebpf4jnsgd1na2vs0mg"},{"bike_id":"e7caf4cd-945d-418c-8941-fe804ba57b84","system_id":"levelo_inurba_marseille","lat":43.27901,"lon":5.40517,"is_reserved":false,"is_disabled":true,"rental_uris":{"android":"levelo://app?vid=e7caf4cd-945d-418c-8941-fe804ba57b84","ios":"levelo://app?vid=e7caf4cd-945d-418c-8941-fe804ba57b84"},"vehicle_type_id":"4","last_reported":1745669813,"current_range_meters":19200,"station_id":"","pricing_plan_id":"cebpf4jnsgd1na2vs0mg"},{"bike_id":"9b7cd2db-62b1-4dd2-9912-1b5e0a7a3fca","system_id":"levelo_inurba_marseille","lat":43.337444,"lon":5.374475,"is_reserved":false,"is_disabled":false,"rental_uris":{"android":"levelo://app?vid=9b7cd2db-62b1-4dd2-9912-1b5e0a7a3fca","ios":"levelo://app?vid=9b7cd2db-62b1-4dd2-9912-1b5e0a7a3fca"},"vehicle_type_id":"4","last_reported":1745669813,"current_range_meters":19200,"station_id":"","pricing_plan_id":"cebpf4jnsgd1na2vs0mg"},{"bike_id":"eb415590-18a8-43d7-83c0-df6b3948639e","system_id":"levelo_inurba_marseille","lat":43.23958,"lon":5.3664,"is_reserved":false,"is_disabled":false,"rental_uris":{"android":"levelo://app?vid=eb415590-18a8-43d7-83c0-df6b3948639e","ios":"levelo://app?vid=eb415590-18a8-43d7-83c0-df6b3948639e"},"vehicle_type_id":"4","last_reported":1745669813,"current_range_meters":19200,"station_id":"ce4bhi12rcd13ifvqfp0","pricing_plan_id":"cebpf4jnsgd1na2vs0mg"},{"bike_id":"0f2204ff-cd77-4ee8-8384-343d95025424","system_id":"levelo_inurba_marseille","lat":43.21744,"lon":5.34602,"is_reserved":false,"is_disabled":false,"rental_uris":{"android":"levelo://app?vid=0f2204ff-cd77-4ee8-8384-343d95025424","ios":"levelo://app?vid=0f2204ff-cd77-4ee8-8384-343d95025424"},"vehicle_type_id":"4","last_reported":1745669813,"current_range_meters":19200,"station_id":"st_cvj6r9ubvosntc0bgbag","pricing_plan_id":"cebpf4jnsgd1na2vs0mg"},{"bike_id":"4ca5d3cf-452a-4fd1-8e8e-b3139e04f443","system_id":"levelo_inurba_marseille","lat":43.24812,"lon":5.37456,"is_reserved":false,"is_disabled":false,"rental_uris":{"android":"levelo://app?vid=4ca5d3cf-452a-4fd1-8e8e-b3139e04f443","ios":"levelo://app?vid=4ca5d3cf-452a-4fd1-8e8e-b3139e04f443"},"vehicle_type_id":"4","last_reported":1745669813,"current_range_meters":19200,"station_id":"ce4bhgh2rcd13ifvqfb0","pricing_plan_id":"cebpf4jnsgd1na2vs0mg"},{"bike_id":"c802d912-db92-44e5-8fe7-1667a6bf6676","system_id":"levelo_inurba_marseille","lat":43.21749,"lon":5.34602,"is_reserved":false,"is_disabled":false,"rental_uris":{"android":"levelo://app?vid=c802d912-db92-44e5-8fe7-1667a6bf6676","ios":"levelo://app?vid=c802d912-db92-44e5-8fe7-1667a6bf6676"},"vehicle_type_id":"4","last_reported":1745669813,"current_range_meters":19200,"station_id":"st_cvj6r9ubvosntc0bgbag","pricing_plan_id":"cebpf4jnsgd1na2vs0mg"},{"bike_id":"fab6f7aa-4c0c-4f16-b756-6fc6a569b042","system_id":"levelo_inurba_marseille","lat":43.27173,"lon":5.40999,"is_reserved":false,"is_disabled":false,"rental_uris":{"android":"levelo://app?vid=fab6f7aa-4c0c-4f16-b756-6fc6a569b042","ios":"levelo://app?vid=fab6f7aa-4c0c-4f16-b756-6fc6a569b042"},"vehicle_type_id":"4","last_reported":1745669813,"current_range_meters":19200,"station_id":"ce4bhl12rcd13ifvqgf0","pricing_plan_id":"cebpf4jnsgd1na2vs0mg"},{"bike_id":"0f051921-96f8-4b47-93a7-4047c32c13c5","system_id":"levelo_inurba_marseille","lat":43.30469,"lon":5.37904,"is_reserved":false,"is_disabled":false,"rental_uris":{"android":"levelo://app?vid=0f051921-96f8-4b47-93a7-4047c32c13c5","ios":"levelo://app?vid=0f051921-96f8-4b47-93a7-4047c32c13c5"},"vehicle_type_id":"4","last_reported":1745669813,"current_range_meters":19600,"station_id":"ce4bgup2rcd13ifvqcn0","pricing_plan_id":"cebpf4jnsgd1na2vs0mg"},{"bike_id":"d66b4a69-6281-4894-a153-1026d05bbe0a","system_id":"levelo_inurba_marseille","lat":43.30114,"lon":5.39846,"is_reserved":false,"is_disabled":false,"rental_uris":{"android":"levelo://app?vid=d66b4a69-6281-4894-a153-1026d05bbe0a","ios":"levelo://app?vid=d66b4a69-6281-4894-a153-1026d05bbe0a"},"vehicle_type_id":"4","last_reported":1745669813,"current_range_meters":19600,"station_id":"ce4bh0h2rcd13ifvqd40","pricing_plan_id":"cebpf4jnsgd1na2vs0mg"},{"bike_id":"9d326a30-45fb-4007-aa3d-acac8289c2c4","system_id":"levelo_inurba_marseille","lat":43.31487,"lon":5.37296,"is_reserved":false,"is_disabled":false,"rental_uris":{"android":"levelo://app?vid=9d326a30-45fb-4007-aa3d-acac8289c2c4","ios":"levelo://app?vid=9d326a30-45fb-4007-aa3d-acac8289c2c4"},"vehicle_type_id":"4","last_reported":1745669813,"current_range_meters":19600,"station_id":"ce4bgt12rcd13ifvqcd0","pricing_plan_id":"cebpf4jnsgd1na2vs0mg"},{"bike_id":"ac4c4173-35f2-480f-a156-1e96630b45e8","system_id":"levelo_inurba_marseille","lat":43.24072,"lon":5.37768,"is_reserved":false,"is_disabled":false,"rental_uris":{"android":"levelo://app?vid=ac4c4173-35f2-480f-a156-1e96630b45e8","ios":"levelo://app?vid=ac4c4173-35f2-480f-a156-1e96630b45e8"},"vehicle_type_id":"4","last_reported":1745669813,"current_range_meters":19600,"station_id":"ce4bhnp2rcd13ifvqgvg","pricing_plan_id":"cebpf4jnsgd1na2vs0mg"},{"bike_id":"e796bcbf-d9e0-48b6-abc0-a9d3b5292cfa","system_id":"levelo_inurba_marseille","lat":43.30461,"lon":5.37913,"is_reserved":false,"is_disabled":false,"rental_uris":{"android":"levelo://app?vid=e796bcbf-d9e0-48b6-abc0-a9d3b5292cfa","ios":"levelo://app?vid=e796bcbf-d9e0-48b6-abc0-a9d3b5292cfa"},"vehicle_type_id":"4","last_reported":1745669813,"current_range_meters":19600,"station_id":"ce4bgup2rcd13ifvqcn0","pricing_plan_id":"cebpf4jnsgd1na2vs0mg"},{"bike_id":"c2afd97f-df2b-4bbd-a07b-2b7b9d12cbfb","system_id":"levelo_inurba_marseille","lat":43.294878,"lon":5.395096,"is_reserved":false,"is_disabled":false,"rental_uris":{"android":"levelo://app?vid=c2afd97f-df2b-4bbd-a07b-2b7b9d12cbfb","ios":"levelo://app?vid=c2afd97f-df2b-4bbd-a07b-2b7b9d12cbfb"},"vehicle_type_id":"4","last_reported":1745669813,"current_range_meters":19600,"station_id":"","pricing_plan_id":"cebpf4jnsgd1na2vs0mg"},{"bike_id":"8980ce58-94c3-49b9-925a-c5952f8da45a","system_id":"levelo_inurba_marseille","lat":43.211922,"lon":5.350713,"is_reserved":false,"is_disabled":false,"rental_uris":{"android":"levelo://app?vid=8980ce58-94c3-49b9-925a-c5952f8da45a","ios":"levelo://app?vid=8980ce58-94c3-49b9-925a-c5952f8da45a"},"vehicle_type_id":"4","last_reported":1745669813,"current_range_meters":19600,"station_id":"st_cvj6sg6p6f1abm77japg","pricing_plan_id":"cebpf4jnsgd1na2vs0mg"},{"bike_id":"0811e54f-fa97-4234-b673-a623dcff941e","system_id":"levelo_inurba_marseille","lat":43.23967,"lon":5.36625,"is_reserved":false,"is_disabled":false,"rental_uris":{"android":"levelo://app?vid=0811e54f-fa97-4234-b673-a623dcff941e","ios":"levelo://app?vid=0811e54f-fa97-4234-b673-a623dcff941e"},"vehicle_type_id":"4","last_reported":1745669813,"current_range_meters":19600,"station_id":"ce4bhi12rcd13ifvqfp0","pricing_plan_id":"cebpf4jnsgd1na2vs0mg"},{"bike_id":"18528a0d-cbcf-4d64-8da8-f48595399f17","system_id":"levelo_inurba_marseille","lat":43.30791,"lon":5.37636,"is_reserved":false,"is_disabled":false,"rental_uris":{"android":"levelo://app?vid=18528a0d-cbcf-4d64-8da8-f48595399f17","ios":"levelo://app?vid=18528a0d-cbcf-4d64-8da8-f48595399f17"},"vehicle_type_id":"4","last_reported":1745669813,"current_range_meters":19200,"station_id":"ce4bgv92rcd13ifvqcq0","pricing_plan_id":"cebpf4jnsgd1na2vs0mg"},{"bike_id":"acee5ff1-4ad1-4868-b231-bcd3eff71683","system_id":"levelo_inurba_marseille","lat":43.29558,"lon":5.37524,"is_reserved":false,"is_disabled":false,"rental_uris":{"android":"levelo://app?vid=acee5ff1-4ad1-4868-b231-bcd3eff71683","ios":"levelo://app?vid=acee5ff1-4ad1-4868-b231-bcd3eff71683"},"vehicle_type_id":"4","last_reported":1745669813,"current_range_meters":20000,"station_id":"ce4bgh92rcd13ifvqb50","pricing_plan_id":"cebpf4jnsgd1na2vs0mg"},{"bike_id":"af031906-2f74-4abb-a96f-78ab9560e8ef","system_id":"levelo_inurba_marseille","lat":43.28156,"lon":5.42642,"is_reserved":false,"is_disabled":false,"rental_uris":{"android":"levelo://app?vid=af031906-2f74-4abb-a96f-78ab9560e8ef","ios":"levelo://app?vid=af031906-2f74-4abb-a96f-78ab9560e8ef"},"vehicle_type_id":"4","last_reported":1745669813,"current_range_meters":20000,"station_id":"ce4bhnh2rcd13ifvqgug","pricing_plan_id":"cebpf4jnsgd1na2vs0mg"},{"bike_id":"0d777af5-4166-475a-a6b9-6a0197032592","system_id":"levelo_inurba_marseille","lat":43.23257,"lon":5.35219,"is_reserved":false,"is_disabled":false,"rental_uris":{"android":"levelo://app?vid=0d777af5-4166-475a-a6b9-6a0197032592","ios":"levelo://app?vid=0d777af5-4166-475a-a6b9-6a0197032592"},"vehicle_type_id":"4","last_reported":1745669813,"current_range_meters":20000,"station_id":"","pricing_plan_id":"cebpf4jnsgd1na2vs0mg"},{"bike_id":"429a2824-25d3-4e87-8865-ec398d90ebca","system_id":"levelo_inurba_marseille","lat":43.212203,"lon":5.350494,"is_reserved":false,"is_disabled":false,"rental_uris":{"android":"levelo://app?vid=429a2824-25d3-4e87-8865-ec398d90ebca","ios":"levelo://app?vid=429a2824-25d3-4e87-8865-ec398d90ebca"},"vehicle_type_id":"4","last_reported":1745669813,"current_range_meters":20000,"station_id":"","pricing_plan_id":"cebpf4jnsgd1na2vs0mg"},{"bike_id":"3ad35c25-d89f-4ea6-848b-393a00786d79","system_id":"levelo_inurba_marseille","lat":43.298929,"lon":5.420727,"is_reserved":false,"is_disabled":false,"rental_uris":{"android":"levelo://app?vid=3ad35c25-d89f-4ea6-848b-393a00786d79","ios":"levelo://app?vid=3ad35c25-d89f-4ea6-848b-393a00786d79"},"vehicle_type_id":"4","last_reported":1745669813,"current_range_meters":20000,"station_id":"","pricing_plan_id":"cebpf4jnsgd1na2vs0mg"},{"bike_id":"89ddd574-b7d2-4253-85e4-d857a95a6536","system_id":"levelo_inurba_marseille","lat":43.26204,"lon":5.37468,"is_reserved":false,"is_disabled":false,"rental_uris":{"android":"levelo://app?vid=89ddd574-b7d2-4253-85e4-d857a95a6536","ios":"levelo://app?vid=89ddd574-b7d2-4253-85e4-d857a95a6536"},"vehicle_type_id":"4","last_reported":1745669813,"current_range_meters":20000,"station_id":"ce4bhgp2rcd13ifvqfc0","pricing_plan_id":"cebpf4jnsgd1na2vs0mg"},{"bike_id":"75ed342a-9a0d-46bc-8852-312166e3d922","system_id":"levelo_inurba_marseille","lat":43.21192,"lon":5.35067,"is_reserved":false,"is_disabled":false,"rental_uris":{"android":"levelo://app?vid=75ed342a-9a0d-46bc-8852-312166e3d922","ios":"levelo://app?vid=75ed342a-9a0d-46bc-8852-312166e3d922"},"vehicle_type_id":"4","last_reported":1745669813,"current_range_meters":20000,"station_id":"st_cvj6sg6p6f1abm77japg","pricing_plan_id":"cebpf4jnsgd1na2vs0mg"},{"bike_id":"4caaa821-0e40-44f6-8f8c-f73f5db245b1","system_id":"levelo_inurba_marseille","lat":43.30208,"lon":5.39473,"is_reserved":false,"is_disabled":false,"rental_uris":{"android":"levelo://app?vid=4caaa821-0e40-44f6-8f8c-f73f5db245b1","ios":"levelo://app?vid=4caaa821-0e40-44f6-8f8c-f73f5db245b1"},"vehicle_type_id":"4","last_reported":1745669813,"current_range_meters":20000,"station_id":"ce4bh0p2rcd13ifvqd70","pricing_plan_id":"cebpf4jnsgd1na2vs0mg"},{"bike_id":"f815ac98-ed77-424b-acb4-2f11680a91cc","system_id":"levelo_inurba_marseille","lat":43.211905,"lon":5.350736,"is_reserved":false,"is_disabled":false,"rental_uris":{"android":"levelo://app?vid=f815ac98-ed77-424b-acb4-2f11680a91cc","ios":"levelo://app?vid=f815ac98-ed77-424b-acb4-2f11680a91cc"},"vehicle_type_id":"4","last_reported":1745669813,"current_range_meters":20400,"station_id":"st_cvj6sg6p6f1abm77japg","pricing_plan_id":"cebpf4jnsgd1na2vs0mg"},{"bike_id":"8be34d50-00ec-44dd-b8c0-e65b12cb7dea","system_id":"levelo_inurba_marseille","lat":43.28726,"lon":5.37941,"is_reserved":false,"is_disabled":false,"rental_uris":{"android":"levelo://app?vid=8be34d50-00ec-44dd-b8c0-e65b12cb7dea","ios":"levelo://app?vid=8be34d50-00ec-44dd-b8c0-e65b12cb7dea"},"vehicle_type_id":"4","last_reported":1745669813,"current_range_meters":20400,"station_id":"ce4bh9p2rcd13ifvqec0","pricing_plan_id":"cebpf4jnsgd1na2vs0mg"},