{"last_updated":1742382507,"ttl":60,"version":"2.2","data":{"bikes":[{"bike_id":"a3f62fb8-3f56-4b7b-a6b2-a61a27530ead","system_id":"levelo_inurba_marseille","lat":43.26566,"lon":5.38993,"is_reserved":false,"is_disabled":false,"rental_uris":{"android":"levelo://app?vid=a3f62fb8-3f56-4b7b-a6b2-a61a27530ead","ios":"levelo://app?vid=a3f62fb8-3f56-4b7b-a6b2-a61a27530ead"},"vehicle_type_id":"4","last_reported":1742382507,"current_range_meters":2800,"station_id":"ce4bhe12rcd13ifvqf30","pricing_plan_id":"cebpf4jnsgd1na2vs0mg"},{"bike_id":"a47e864b-96ff-4125-b59c-95d433548b7b","system_id":"levelo_inurba_marseille","lat":43.25502,"lon":5.3765,"is_reserved":false,"is_disabled":false,"rental_uris":{"android":"levelo://app?vid=a47e864b-96ff-4125-b59c-95d433548b7b","ios":"levelo://app?vid=a47e864b-96ff-4125-b59c-95d433548b7b"},"vehicle_type_id":"4","last_reported":1742382507,"current_range_meters":2800,"station_id":"ce4bhh12rcd13ifvqff0","pricing_plan_id":"cebpf4jnsgd1na2vs0mg"},{"bike_id":"2665cc4b-07ed-4ae6-a66f-2b09983c709d","system_id":"levelo_inurba_marseille","lat":43.33761,"lon":5.37489,"is_reserved":false,"is_disabled":false,"rental_uris":{"android":"levelo://app?vid=2665cc4b-07ed-4ae6-a66f-2b09983c709d","ios":"levelo://app?vid=2665cc4b-07ed-4ae6-a66f-2b09983c709d"},"vehicle_type_id":"4","last_reported":1742382507,"current_range_meters":3200,"station_id":"","pricing_plan_id":"cebpf4jnsgd1na2vs0mg"},{"bike_id":"1974e9c5-46f4-4ef9-a4dd-d70784de0fa8","system_id":"levelo_inurba_marseille","lat":43.290985,"lon":5.399665,"is_reserved":false,"is_disabled":false,"rental_uris":{"android":"levelo://app?vid=1974e9c5-46f4-4ef9-a4dd-d70784de0fa8","ios":"levelo://app?vid=1974e9c5-46f4-4ef9-a4dd-d70784de0fa8"},"vehicle_type_id":"4","last_reported":1742382507,"current_range_meters":6000,"station_id":"ce4bh292rcd13ifvqdg0","pricing_plan_id":"cebpf4jnsgd1na2vs0mg"},{"bike_id":"67aca6ad-40d5-4752-bda5-5f57a70940aa","system_id":"levelo_inurba_marseille","lat":43.26496,"lon":5.39546,"is_reserved":false,"is_disabled":false,"rental_uris":{"android":"levelo://app?vid=67aca6ad-40d5-4752-bda5-5f57a70940aa","ios":"levelo://app?vid=67aca6ad-40d5-4752-bda5-5f57a70940aa"},"vehicle_type_id":"4","last_reported":1742382507,"current_range_meters":2800,"station_id":"ce4bhi12rcd13ifvqfq0","pricing_plan_id":"cebpf4jnsgd1na2vs0mg"},{"bike_id":"79d94a4d-6cad-45a2-af8f-58c62799d782","system_id":"levelo_inurba_marseille","lat":43.31253,"lon":5.36893,"is_reserved":false,"is_disabled":false,"rental_uris":{"android":"levelo://app?vid=79d94a4d-6cad-45a2-af8f-58c62799d782","ios":"levelo://app?vid=79d94a4d-6cad-45a2-af8f-58c62799d782"},"vehicle_type_id":"4","last_reported":1742382507,"current_range_meters":3200,"station_id":"ce4bgl92rcd13ifvqbq0","pricing_plan_id":"cebpf4jnsgd1na2vs0mg"},{"bike_id":"e2394a4e-e03b-45fa-a54b-983c13d18e35","system_id":"levelo_inurba_marseille","lat":43.30798,"lon":5.38157,"is_reserved":false,"is_disabled":false,"rental_uris":{"android":"levelo://app?vid=e2394a4e-e03b-45fa-a54b-983c13d18e35","ios":"levelo://app?vid=e2394a4e-e03b-45fa-a54b-983c13d18e35"},"vehicle_type_id":"4","last_reported":1742382507,"current_range_meters":3200,"station_id":"ce4bgt12rcd13ifvqce0","pricing_plan_id":"cebpf4jnsgd1na2vs0mg"},{"bike_id":"6368f354-6da7-4884-a394-062f1a963ed6","system_id":"levelo_inurba_marseille","lat":43.2929,"lon":5.42797,"is_reserved":false,"is_disabled":false,"rental_uris":{"android":"levelo://app?vid=6368f354-6da7-4884-a394-062f1a963ed6","ios":"levelo://app?vid=6368f354-6da7-4884-a394-062f1a963ed6"},"vehicle_type_id":"4","last_reported":1742382507,"current_range_meters":3200,"station_id":"","pricing_plan_id":"cebpf4jnsgd1na2vs0mg"},{"bike_id":"058c0de1-becc-4bde-81f9-df7764aa394a","system_id":"levelo_inurba_marseille","lat":43.31375,"lon":5.38497,"is_reserved":false,"is_disabled":false,"rental_uris":{"android":"levelo://app?vid=058c0de1-becc-4bde-81f9-df7764aa394a","ios":"levelo://app?vid=058c0de1-becc-4bde-81f9-df7764aa394a"},"vehicle_type_id":"4","last_reported":1742382507,"current_range_meters":3200,"station_id":"ce4bgt92rcd13ifvqcf0","pricing_plan_id":"cebpf4jnsgd1na2vs0mg"},{"bike_id":"f5c97f8a-2624-4b99-bdf9-59f10ff7cfce","system_id":"levelo_inurba_marseille","lat":43.27608,"lon":5.36115,"is_reserved":false,"is_disabled":false,"rental_uris":{"android":"levelo://app?vid=f5c97f8a-2624-4b99-bdf9-59f10ff7cfce","ios":"levelo://app?vid=f5c97f8a-2624-4b99-bdf9-59f10ff7cfce"},"vehicle_type_id":"4","last_reported":1742382507,"current_range_meters":3600,"station_id":"ce4bgj92rcd13ifvqbe0","pricing_plan_id":"cebpf4jnsgd1na2vs0mg"},{"bike_id":"bd9bc0c4-ba5c-4618-bd5d-5af1cece6f99","system_id":"levelo_inurba_marseille","lat":43.27056,"lon":5.40266,"is_reserved":false,"is_disabled":false,"rental_uris":{"android":"levelo://app?vid=bd9bc0c4-ba5c-4618-bd5d-5af1cece6f99","ios":"levelo://app?vid=bd9bc0c4-ba5c-4618-bd5d-5af1cece6f99"},"vehicle_type_id":"4","last_reported":1742382507,"current_range_meters":3600,"station_id":"ce4bhk92rcd13ifvqgc0","pricing_plan_id":"cebpf4jnsgd1na2vs0mg"},{"bike_id":"a14cb50b-9b44-40cd-8601-6968b549f2fd","system_id":"levelo_inurba_marseille","lat":43.30167,"lon":5.37409,"is_reserved":false,"is_disabled":false,"rental_uris":{"android":"levelo://app?vid=a14cb50b-9b44-40cd-8601-6968b549f2fd","ios":"levelo://app?vid=a14cb50b-9b44-40cd-8601-6968b549f2fd"},"vehicle_type_id":"4","last_reported":1742382507,"current_range_meters":3600,"station_id":"ce4bgs92rcd13ifvqcc0","pricing_plan_id":"cebpf4jnsgd1na2vs0mg"},{"bike_id":"dc990f26-67e8-493e-839c-35a4eac79bca","system_id":"levelo_inurba_marseille","lat":43.29268,"lon":5.4092,"is_reserved":false,"is_disabled":false,"rental_uris":{"android":"levelo://app?vid=dc990f26-67e8-493e-839c-35a4eac79bca","ios":"levelo://app?vid=dc990f26-67e8-493e-839c-35a4eac79bca"},"vehicle_type_id":"4","last_reported":1742382507,"current_range_meters":4000,"station_id":"ce4bh192rcd13ifvqdc0","pricing_plan_id":"cebpf4jnsgd1na2vs0mg"},{"bike_id":"ccfdb431-bb04-4363-b7af-1f627abac2a9","system_id":"levelo_inurba_marseille","lat":43.31118,"lon":5.37765,"is_reserved":false,"is_disabled":false,"rental_uris":{"android":"levelo://app?vid=ccfdb431-bb04-4363-b7af-1f627abac2a9","ios":"levelo://app?vid=ccfdb431-bb04-4363-b7af-1f627abac2a9"},"vehicle_type_id":"4","last_reported":1742382507,"current_range_meters":4000,"station_id":"ce4bgt92rcd13ifvqcg0","pricing_plan_id":"cebpf4jnsgd1na2vs0mg"},{"bike_id":"d1545a85-0a45-478f-b2e4-9f498e55e1ab","system_id":"levelo_inurba_marseille","lat":43.24183,"lon":5.36387,"is_reserved":false,"is_disabled":false,"rental_uris":{"android":"levelo://app?vid=d1545a85-0a45-478f-b2e4-9f498e55e1ab","ios":"levelo://app?vid=d1545a85-0a45-478f-b2e4-9f498e55e1ab"},"vehicle_type_id":"4","last_reported":1742382507,"current_range_meters":4400,"station_id":"cpo36qri1sfpv3e86is0","pricing_plan_id":"cebpf4jnsgd1na2vs0mg"},{"bike_id":"e7ac7a57-bc7a-451e-be23-ef2cbf01a9ae","system_id":"levelo_inurba_marseille","lat":43.28991,"lon":5.37128,"is_reserved":false,"is_disabled":false,"rental_uris":{"android":"levelo://app?vid=e7ac7a57-bc7a-451e-be23-ef2cbf01a9ae","ios":"levelo://app?vid=e7ac7a57-bc7a-451e-be23-ef2cbf01a9ae"},"vehicle_type_id":"4","last_reported":1742382507,"current_range_meters":4400,"station_id":"","pricing_plan_id":"cebpf4jnsgd1na2vs0mg"},{"bike_id":"3fba05c7-f185-480e-9368-7baaef9eb602","system_id":"levelo_inurba_marseille","lat":43.28983,"lon":5.38088,"is_reserved":false,"is_disabled":false,"rental_uris":{"android":"levelo://app?vid=3fba05c7-f185-480e-9368-7baaef9eb602","ios":"levelo://app?vid=3fba05c7-f185-480e-9368-7baaef9eb602"},"vehicle_type_id":"4","last_reported":1742382507,"current_range_meters":4400,"station_id":"ce4bh4p2rcd13ifvqe1g","pricing_plan_id":"cebpf4jnsgd1na2vs0mg"},{"bike_id":"665aca1d-b867-47e8-ad22-dab8ac9f40a5","system_id":"levelo_inurba_marseille","lat":43.25584,"lon":5.38217,"is_reserved":false,"is_disabled":false,"rental_uris":{"android":"levelo://app?vid=665aca1d-b867-47e8-ad22-dab8ac9f40a5","ios":"levelo://app?vid=665aca1d-b867-47e8-ad22-dab8ac9f40a5"},"vehicle_type_id":"4","last_reported":1742382507,"current_range_meters":4400,"station_id":"ce4bhih2rcd13ifvqfs0","pricing_plan_id":"cebpf4jnsgd1na2vs0mg"},{"bike_id":"bc1594f0-f23b-46fa-bccc-f3ff1c68a71d","system_id":"levelo_inurba_marseille","lat":43.25821,"lon":5.39429,"is_reserved":false,"is_disabled":false,"rental_uris":{"android":"levelo://app?vid=bc1594f0-f23b-46fa-bccc-f3ff1c68a71d","ios":"levelo://app?vid=bc1594f0-f23b-46fa-bccc-f3ff1c68a71d"},"vehicle_type_id":"4","last_reported":1742382507,"current_range_meters":4800,"station_id":"ce4bhip2rcd13ifvqft0","pricing_plan_id":"cebpf4jnsgd1na2vs0mg"},{"bike_id":"a4647986-2229-462e-9248-2a45a552d1fb","system_id":"levelo_inurba_marseille","lat":43.31383,"lon":5.3674,"is_reserved":false,"is_disabled":true,"rental_uris":{"android":"levelo://app?vid=a4647986-2229-462e-9248-2a45a552d1fb","ios":"levelo://app?vid=a4647986-2229-462e-9248-2a45a552d1fb"},"vehicle_type_id":"4","last_reported":1742382507,"current_range_meters":4800,"station_id":"ce4bgr92rcd13ifvqc6g","pricing_plan_id":"cebpf4jnsgd1na2vs0mg"},{"bike_id":"52bd4f14-775f-459f-9791-851d088e69cb","system_id":"levelo_inurba_marseille","lat":43.25008,"lon":5.38926,"is_reserved":false,"is_disabled":false,"rental_uris":{"android":"levelo://app?vid=52bd4f14-775f-459f-9791-851d088e69cb","ios":"levelo://app?vid=52bd4f14-775f-459f-9791-851d088e69cb"},"vehicle_type_id":"4","last_reported":1742382507,"current_range_meters":5600,"station_id":"ce4bhgp2rcd13ifvqfd0","pricing_plan_id":"cebpf4jnsgd1na2vs0mg"},{"bike_id":"a2b55b3e-6d2a-48ab-b87d-838913aa8d96","system_id":"levelo_inurba_marseille","lat":43.25942,"lon":5.40904,"is_reserved":false,"is_disabled":false,"rental_uris":{"android":"levelo://app?vid=a2b55b3e-6d2a-48ab-b87d-838913aa8d96","ios":"levelo://app?vid=a2b55b3e-6d2a-48ab-b87d-838913aa8d96"},"vehicle_type_id":"4","last_reported":1742382507,"current_range_meters":5600,"station_id":"ce4bhm92rcd13ifvqglg","pricing_plan_id":"cebpf4jnsgd1na2vs0mg"},{"bike_id":"4f6d11f4-8d23-4e35-8c59-e818e64ce7ab","system_id":"levelo_inurba_marseille","lat":43.29528,"lon":5.43899,"is_reserved":false,"is_disabled":false,"rental_uris":{"android":"levelo://app?vid=4f6d11f4-8d23-4e35-8c59-e818e64ce7ab","ios":"levelo://app?vid=4f6d11f4-8d23-4e35-8c59-e818e64ce7ab"},"vehicle_type_id":"4","last_reported":1742382507,"current_range_meters":5600,"station_id":"","pricing_plan_id":"cebpf4jnsgd1na2vs0mg"},{"bike_id":"bece6cfc-3f0c-4d8e-9e55-7d1e99e802ad","system_id":"levelo_inurba_marseille","lat":43.31078,"lon":5.38353,"is_reserved":false,"is_disabled":false,"rental_uris":{"android":"levelo://app?vid=bece6cfc-3f0c-4d8e-9e55-7d1e99e802ad","ios":"levelo://app?vid=bece6cfc-3f0c-4d8e-9e55-7d1e99e802ad"},"vehicle_type_id":"4","last_reported":1742382507,"current_range_meters":5600,"station_id":"ce4bgv92rcd13ifvqcr0","pricing_plan_id":"cebpf4jnsgd1na2vs0mg"},{"bike_id":"99dd7654-2075-4099-aec2-4e77510eab61","system_id":"levelo_inurba_marseille","lat":43.33614,"lon":5.41012,"is_reserved":false,"is_disabled":false,"rental_uris":{"android":"levelo://app?vid=99dd7654-2075-4099-aec2-4e77510eab61","ios":"levelo://app?vid=99dd7654-2075-4099-aec2-4e77510eab61"},"vehicle_type_id":"4","last_reported":1742382507,"current_range_meters":5600,"station_id":"ce4bhqh2rcd13ifvqhmg","pricing_plan_id":"cebpf4jnsgd1na2vs0mg"},{"bike_id":"8117bcbe-4d91-46db-b18a-61b291d08073","system_id":"levelo_inurba_marseille","lat":43.26194,"lon":5.41664,"is_reserved":false,"is_disabled":false,"rental_uris":{"android":"levelo://app?vid=8117bcbe-4d91-46db-b18a-61b291d08073","ios":"levelo://app?vid=8117bcbe-4d91-46db-b18a-61b291d08073"},"vehicle_type_id":"4","last_reported":1742382507,"current_range_meters":6000,"station_id":"","pricing_plan_id":"cebpf4jnsgd1na2vs0mg"},{"bike_id":"8c142d78-aa0c-4616-b647-f9325f470f4c","system_id":"levelo_inurba_marseille","lat":43.24807,"lon":5.37459,"is_reserved":false,"is_disabled":false,"rental_uris":{"android":"levelo://app?vid=8c142d78-aa0c-4616-b647-f9325f470f4c","ios":"levelo://app?vid=8c142d78-aa0c-4616-b647-f9325f470f4c"},"vehicle_type_id":"4","last_reported":1742382507,"current_range_meters":5600,"station_id":"ce4bhgh2rcd13ifvqfb0","pricing_plan_id":"cebpf4jnsgd1na2vs0mg"},{"bike_id":"57e22925-d9bf-44fe-83fb-784ecd7b1797","system_id":"levelo_inurba_marseille","lat":43.25585,"lon":5.38229,"is_reserved":false,"is_disabled":false,"rental_uris":{"android":"levelo://app?vid=57e22925-d9bf-44fe-83fb-784ecd7b1797","ios":"levelo://app?vid=57e22925-d9bf-44fe-83fb-784ecd7b1797"},"vehicle_type_id":"4","last_reported":1742382507,"current_range_meters":6000,"station_id":"ce4bhih2rcd13ifvqfs0","pricing_plan_id":"cebpf4jnsgd1na2vs0mg"},{"bike_id":"5cc7107b-4638-44b7-9016-fb56a8137a82","system_id":"levelo_inurba_marseille","lat":43.3301,"lon":5.3908,"is_reserved":false,"is_disabled":false,"rental_uris":{"android":"levelo://app?vid=5cc7107b-4638-44b7-9016-fb56a8137a82","ios":"levelo://app?vid=5cc7107b-4638-44b7-9016-fb56a8137a82"},"vehicle_type_id":"4","last_reported":1742382507,"current_range_meters":6000,"station_id":"ce4bhr92rcd13ifvqhrg","pricing_plan_id":"cebpf4jnsgd1na2vs0mg"},{"bike_id":"f3221df4-2e49-4fdd-b725-bd8774378770","system_id":"levelo_inurba_marseille","lat":43.24148,"lon":5.36384,"is_reserved":false,"is_disabled":false,"rental_uris":{"android":"levelo://app?vid=f3221df4-2e49-4fdd-b725-bd8774378770","ios":"levelo://app?vid=f3221df4-2e49-4fdd-b725-bd8774378770"},"vehicle_type_id":"4","last_reported":1742382507,"current_range_meters":6000,"station_id":"cpo36qri1sfpv3e86is0","pricing_plan_id":"cebpf4jnsgd1na2vs0mg"},{"bike_id":"3d0a6bdf-519a-43ec-89c5-a9713013cc73","system_id":"levelo_inurba_marseille","lat":43.24392,"lon":5.37065,"is_reserved":false,"is_disabled":false,"rental_uris":{"android":"levelo://app?vid=3d0a6bdf-519a-43ec-89c5-a9713013cc73","ios":"levelo://app?vid=3d0a6bdf-519a-43ec-89c5-a9713013cc73"},"vehicle_type_id":"4","last_reported":1742382507,"current_range_meters":6000,"station_id":"ce4bhhh2rcd13ifvqfk0","pricing_plan_id":"cebpf4jnsgd1na2vs0mg"},{"bike_id":"c8aebf71-8f92-4a15-a86e-14c7cfbd9a29","system_id":"levelo_inurba_marseille","lat":43.29626,"lon":5.38017,"is_reserved":false,"is_disabled":false,"rental_uris":{"android":"levelo://app?vid=c8aebf71-8f92-4a15-a86e-14c7cfbd9a29","ios":"levelo://app?vid=c8aebf71-8f92-4a15-a86e-14c7cfbd9a29"},"vehicle_type_id":"4","last_reported":1742382507,"current_range_meters":6000,"station_id":"","pricing_plan_id":"cebpf4jnsgd1na2vs0mg"},{"bike_id":"8f79f3b7-6513-4def-bb2d-05a7d82b97a5","system_id":"levelo_inurba_marseille","lat":43.24168,"lon":5.36407,"is_reserved":false,"is_disabled":false,"rental_uris":{"android":"levelo://app?vid=8f79f3b7-6513-4def-bb2d-05a7d82b97a5","ios":"levelo://app?vid=8f79f3b7-6513-4def-bb2d-05a7d82b97a5"},"vehicle_type_id":"4","last_reported":1742382507,"current_range_meters":6000,"station_id":"cpo36qri1sfpv3e86is0","pricing_plan_id":"cebpf4jnsgd1na2vs0mg"},{"bike_id":"d0ecd06f-b344-485c-8550-9fa5bf448f53","system_id":"levelo_inurba_marseille","lat":43.25842,"lon":5.3942,"is_reserved":false,"is_disabled":false,"rental_uris":{"android":"levelo://app?vid=d0ecd06f-b344-485c-8550-9fa5bf448f53","ios":"levelo://app?vid=d0ecd06f-b344-485c-8550-9fa5bf448f53"},"vehicle_type_id":"4","last_reported":1742382507,"current_range_meters":6400,"station_id":"ce4bhip2rcd13ifvqft0","pricing_plan_id":"cebpf4jnsgd1na2vs0mg"},{"bike_id":"8528cfd6-758c-4197-aaac-800294acfea6","system_id":"levelo_inurba_marseille","lat":43.25861,"lon":5.399,"is_reserved":false,"is_disabled":false,"rental_uris":{"android":"levelo://app?vid=8528cfd6-758c-4197-aaac-800294acfea6","ios":"levelo://app?vid=8528cfd6-758c-4197-aaac-800294acfea6"},"vehicle_type_id":"4","last_reported":1742382507,"current_range_meters":6400,"station_id":"ce4bhl92rcd13ifvqghg","pricing_plan_id":"cebpf4jnsgd1na2vs0mg"},{"bike_id":"24695756-5ec5-49d5-a8dd-252d655ff455","system_id":"levelo_inurba_marseille","lat":43.27205,"lon":5.39179,"is_reserved":false,"is_disabled":false,"rental_uris":{"android":"levelo://app?vid=24695756-5ec5-49d5-a8dd-252d655ff455","ios":"levelo://app?vid=24695756-5ec5-49d5-a8dd-252d655ff455"},"vehicle_type_id":"4","last_reported":1742382507,"current_range_meters":6400,"station_id":"ce4bhhp2rcd13ifvqfm0","pricing_plan_id":"cebpf4jnsgd1na2vs0mg"},{"bike_id":"ff716e70-ad2a-494d-876d-e3ca0064abc9","system_id":"levelo_inurba_marseille","lat":43.28484,"lon":5.3856,"is_reserved":false,"is_disabled":false,"rental_uris":{"android":"levelo://app?vid=ff716e70-ad2a-494d-876d-e3ca0064abc9","ios":"levelo://app?vid=ff716e70-ad2a-494d-876d-e3ca0064abc9"},"vehicle_type_id":"4","last_reported":1742382507,"current_range_meters":6800,"station_id":"ce4bh8p2rcd13ifvqeb0","pricing_plan_id":"cebpf4jnsgd1na2vs0mg"},{"bike_id":"0eba702d-43b6-4ebc-8fde-3186aa03f23f","system_id":"levelo_inurba_marseille","lat":43.255554,"lon":5.382272,"is_reserved":false,"is_disabled":false,"rental_uris":{"android":"levelo://app?vid=0eba702d-43b6-4ebc-8fde-3186aa03f23f","ios":"levelo://app?vid=0eba702d-43b6-4ebc-8fde-3186aa03f23f"},"vehicle_type_id":"4","last_reported":1742382507,"current_range_meters":6800,"station_id":"ce4bhgp2rcd13ifvqfe0","pricing_plan_id":"cebpf4jnsgd1na2vs0mg"},{"bike_id":"a3bdd7a0-082b-43aa-8c66-de9aa41563f2","system_id":"levelo_inurba_marseille","lat":43.31365,"lon":5.38492,"is_reserved":false,"is_disabled":false,"rental_uris":{"android":"levelo://app?vid=a3bdd7a0-082b-43aa-8c66-de9aa41563f2","ios":"levelo://app?vid=a3bdd7a0-082b-43aa-8c66-de9aa41563f2"},"vehicle_type_id":"4","last_reported":1742382507,"current_range_meters":6800,"station_id":"ce4bgt92rcd13ifvqcf0","pricing_plan_id":"cebpf4jnsgd1na2vs0mg"},{"bike_id":"2fc9495d-c829-4229-a4db-5c8674880d7a","system_id":"levelo_inurba_marseille","lat":43.23058,"lon":5.35497,"is_reserved":false,"is_disabled":false,"rental_uris":{"android":"levelo://app?vid=2fc9495d-c829-4229-a4db-5c8674880d7a","ios":"levelo://app?vid=2fc9495d-c829-4229-a4db-5c8674880d7a"},"vehicle_type_id":"4","last_reported":1742382507,"current_range_meters":6800,"station_id":"cpo3342slgdg3j2ifvpg","pricing_plan_id":"cebpf4jnsgd1na2vs0mg"},{"bike_id":"80ea7565-ef92-41ac-9a0c-ff0be9a8cc50","system_id":"levelo_inurba_marseille","lat":43.28726,"lon":5.3794,"is_reserved":false,"is_disabled":false,"rental_uris":{"android":"levelo://app?vid=80ea7565-ef92-41ac-9a0c-ff0be9a8cc50","ios":"levelo://app?vid=80ea7565-ef92-41ac-9a0c-ff0be9a8cc50"},"vehicle_type_id":"4","last_reported":1742382507,"current_range_meters":10000,"station_id":"ce4bh9p2rcd13ifvqec0","pricing_plan_id":"cebpf4jnsgd1na2vs0mg"},{"bike_id":"4af30189-94be-48ce-a528-0780bcce0809","system_id":"levelo_inurba_marseille","lat":43.23149,"lon":5.43719,"is_reserved":false,"is_disabled":false,"rental_uris":{"android":"levelo://app?vid=4af30189-94be-48ce-a528-0780bcce0809","ios":"levelo://app?vid=4af30189-94be-48ce-a528-0780bcce0809"},"vehicle_type_id":"4","last_reported":1742382507,"current_range_meters":6800,"station_id":"ce4bhmp2rcd13ifvqgog","pricing_plan_id":"cebpf4jnsgd1na2vs0mg"},{"bike_id":"150231e3-395c-46d6-bae8-eef1df0e2aac","system_id":"levelo_inurba_marseille","lat":43.29893,"lon":5.3974,"is_reserved":false,"is_disabled":false,"rental_uris":{"android":"levelo://app?vid=150231e3-395c-46d6-bae8-eef1df0e2aac","ios":"levelo://app?vid=150231e3-395c-46d6-bae8-eef1df0e2aac"},"vehicle_type_id":"4","last_reported":1742382507,"current_range_meters":6800,"station_id":"ce4bh0h2rcd13ifvqd50","pricing_plan_id":"cebpf4jnsgd1na2vs0mg"},{"bike_id":"0b60e72b-d8b1-4266-9b63-b94b87c1ad4b","system_id":"levelo_inurba_marseille","lat":43.23218,"lon":5.40008,"is_reserved":false,"is_disabled":false,"rental_uris":{"android":"levelo://app?vid=0b60e72b-d8b1-4266-9b63-b94b87c1ad4b","ios":"levelo://app?vid=0b60e72b-d8b1-4266-9b63-b94b87c1ad4b"},"vehicle_type_id":"4","last_reported":1742382507,"current_range_meters":7200,"station_id":"ce4bhn12rcd13ifvqgqg","pricing_plan_id":"cebpf4jnsgd1na2vs0mg"},{"bike_id":"236bbc86-b411-44c1-83ec-90d56972b527","system_id":"levelo_inurba_marseille","lat":43.298675,"lon":5.397387,"is_reserved":false,"is_disabled":false,"rental_uris":{"android":"levelo://app?vid=236bbc86-b411-44c1-83ec-90d56972b527","ios":"levelo://app?vid=236bbc86-b411-44c1-83ec-90d56972b527"},"vehicle_type_id":"4","last_reported":1742382507,"current_range_meters":7200,"station_id":"ce4bgvh2rcd13ifvqcs0","pricing_plan_id":"cebpf4jnsgd1na2vs0mg"},{"bike_id":"3c4f394c-0305-4c58-97e5-6826bd9d917e","system_id":"levelo_inurba_marseille","lat":43.32475,"lon":5.36588,"is_reserved":false,"is_disabled":false,"rental_uris":{"android":"levelo://app?vid=3c4f394c-0305-4c58-97e5-6826bd9d917e","ios":"levelo://app?vid=3c4f394c-0305-4c58-97e5-6826bd9d917e"},"vehicle_type_id":"4","last_reported":1742382507,"current_range_meters":7200,"station_id":"ce4bhs12rcd13ifvqhvg","pricing_plan_id":"cebpf4jnsgd1na2vs0mg"},{"bike_id":"c1ccf0a5-89fe-4d49-a5d7-808fb720c652","system_id":"levelo_inurba_marseille","lat":43.26025,"lon":5.41749,"is_reserved":false,"is_disabled":false,"rental_uris":{"android":"levelo://app?vid=c1ccf0a5-89fe-4d49-a5d7-808fb720c652","ios":"levelo://app?vid=c1ccf0a5-89fe-4d49-a5d7-808fb720c652"},"vehicle_type_id":"4","last_reported":1742382507,"current_range_meters":7200,"station_id":"","pricing_plan_id":"cebpf4jnsgd1na2vs0mg"},{"bike_id":"c095b8ad-f5fa-46e0-bc3d-b3a0b332f1ed","system_id":"levelo_inurba_marseille","lat":43.31216,"lon":5.36888,"is_reserved":false,"is_disabled":false,"rental_uris":{"android":"levelo://app?vid=c095b8ad-f5fa-46e0-bc3d-b3a0b332f1ed","ios":"levelo://app?vid=c095b8ad-f5fa-46e0-bc3d-b3a0b332f1ed"},"vehicle_type_id":"4","last_reported":1742382507,"current_range_meters":7200,"station_id":"ce4bgl92rcd13ifvqbq0","pricing_plan_id":"cebpf4jnsgd1na2vs0mg"},{"bike_id":"6ae6f76c-6a01-4d75-9d3f-dfa610803a78","system_id":"levelo_inurba_marseille","lat":43.23065,"lon":5.35493,"is_reserved":false,"is_disabled":false,"rental_uris":{"android":"levelo://app?vid=6ae6f76c-6a01-4d75-9d3f-dfa610803a78","ios":"levelo://app?vid=6ae6f76c-6a01-4d75-9d3f-dfa610803a78"},"vehicle_type_id":"4","last_reported":1742382507,"current_range_meters":7200,"station_id":"cpo3342slgdg3j2ifvpg","pricing_plan_id":"cebpf4jnsgd1na2vs0mg"},{"bike_id":"519efbbc-7577-4063-8eac-658ef30e98a3","system_id":"levelo_inurba_marseille","lat":43.25008,"lon":5.38941,"is_reserved":false,"is_disabled":false,"rental_uris":{"android":"levelo://app?vid=519efbbc-7577-4063-8eac-658ef30e98a3","ios":"levelo://app?vid=519efbbc-7577-4063-8eac-658ef30e98a3"},"vehicle_type_id":"4","last_reported":1742382507,"current_range_meters":7200,"station_id":"ce4bhgp2rcd13ifvqfd0","pricing_plan_id":"cebpf4jnsgd1na2vs0mg"},{"bike_id":"d873205f-2696-4517-b6d4-997f0d6f50b5","system_id":"levelo_inurba_marseille","lat":43.24998,"lon":5.38935,"is_reserved":false,"is_disabled":false,"rental_uris":{"android":"levelo://app?vid=d873205f-2696-4517-b6d4-997f0d6f50b5","ios":"levelo://app?vid=d873205f-2696-4517-b6d4-997f0d6f50b5"},"vehicle_type_id":"4","last_reported":1742382507,"current_range_meters":7200,"station_id":"ce4bhgp2rcd13ifvqfd0","pricing_plan_id":"cebpf4jnsgd1na2vs0mg"},{"bike_id":"cb7f8375-ad3a-44d5-9f3f-fe9b4a48c870","system_id":"levelo_inurba_marseille","lat":43.2319,"lon":5.39984,"is_reserved":false,"is_disabled":false,"rental_uris":{"android":"levelo://app?vid=cb7f8375-ad3a-44d5-9f3f-fe9b4a48c870","ios":"levelo://app?vid=cb7f8375-ad3a-44d5-9f3f-fe9b4a48c870"},"vehicle_type_id":"4","last_reported":1742382507,"current_range_meters":7200,"station_id":"ce4bhn12rcd13ifvqgqg","pricing_plan_id":"cebpf4jnsgd1na2vs0mg"},{"bike_id":"38d9b53a-26f8-47f9-862a-c4b3b635bf51","system_id":"levelo_inurba_marseille","lat":43.28358,"lon":5.38628,"is_reserved":false,"is_disabled":false,"rental_uris":{"android":"levelo://app?vid=38d9b53a-26f8-47f9-862a-c4b3b635bf51","ios":"levelo://app?vid=38d9b53a-26f8-47f9-862a-c4b3b635bf51"},"vehicle_type_id":"4","last_reported":1742382507,"current_range_meters":7200,"station_id":"ce4bh492rcd13ifvqdvg","pricing_plan_id":"cebpf4jnsgd1na2vs0mg"},{"bike_id":"77fcff7e-fafa-40aa-9d4f-9c03ba755129","system_id":"levelo_inurba_marseille","lat":43.2962,"lon":5.37178,"is_reserved":false,"is_disabled":false,"rental_uris":{"android":"levelo://app?vid=77fcff7e-fafa-40aa-9d4f-9c03ba755129","ios":"levelo://app?vid=77fcff7e-fafa-40aa-9d4f-9c03ba755129"},"vehicle_type_id":"4","last_reported":1742382507,"current_range_meters":7200,"station_id":"ce4bgnh2rcd13ifvqc0g","pricing_plan_id":"cebpf4jnsgd1na2vs0mg"},{"bike_id":"3bff80ec-e94e-42a9-988b-9e0817493bec","system_id":"levelo_inurba_marseille","lat":43.23192,"lon":5.35543,"is_reserved":false,"is_disabled":false,"rental_uris":{"android":"levelo://app?vid=3bff80ec-e94e-42a9-988b-9e0817493bec","ios":"levelo://app?vid=3bff80ec-e94e-42a9-988b-9e0817493bec"},"vehicle_type_id":"4","last_reported":1742382507,"current_range_meters":7200,"station_id":"ce4bhu92rcd13ifvqi70","pricing_plan_id":"cebpf4jnsgd1na2vs0mg"},{"bike_id":"2f376ac7-d47e-45f6-9813-1f8a34378301","system_id":"levelo_inurba_marseille","lat":43.27576,"lon":5.38414,"is_reserved":false,"is_disabled":false,"rental_uris":{"android":"levelo://app?vid=2f376ac7-d47e-45f6-9813-1f8a34378301","ios":"levelo://app?vid=2f376ac7-d47e-45f6-9813-1f8a34378301"},"vehicle_type_id":"4","last_reported":1742382507,"current_range_meters":7200,"station_id":"ce4bhh92rcd13ifvqfi0","pricing_plan_id":"cebpf4jnsgd1na2vs0mg"},{"bike_id":"fa9faab5-30a7-422f-873a-51e8ef033ccc","system_id":"levelo_inurba_marseille","lat":43.28149,"lon":5.44562,"is_reserved":false,"is_disabled":false,"rental_uris":{"android":"levelo://app?vid=fa9faab5-30a7-422f-873a-51e8ef033ccc","ios":"levelo://app?vid=fa9faab5-30a7-422f-873a-51e8ef033ccc"},"vehicle_type_id":"4","last_reported":1742382507,"current_range_meters":7200,"station_id":"","pricing_plan_id":"cebpf4jnsgd1na2vs0mg"},{"bike_id":"c9bc3a2d-6b2e-441d-a03c-58740999835f","system_id":"levelo_inurba_marseille","lat":43.29883,"lon":5.38912,"is_reserved":false,"is_disabled":false,"rental_uris":{"android":"levelo://app?vid=c9bc3a2d-6b2e-441d-a03c-58740999835f","ios":"levelo://app?vid=c9bc3a2d-6b2e-441d-a03c-58740999835f"},"vehicle_type_id":"4","last_reported":1742382507,"current_range_meters":6800,"station_id":"ce4bh392rcd13ifvqdl0","pricing_plan_id":"cebpf4jnsgd1na2vs0mg"},{"bike_id":"3fb64d7c-244e-49b0-b002-a08324ea6433","system_id":"levelo_inurba_marseille","lat":43.29511,"lon":5.394,"is_reserved":false,"is_disabled":false,"rental_uris":{"android":"levelo://app?vid=3fb64d7c-244e-49b0-b002-a08324ea6433","ios":"levelo://app?vid=3fb64d7c-244e-49b0-b002-a08324ea6433"},"vehicle_type_id":"4","last_reported":1742382507,"current_range_meters":7200,"station_id":"ce4bh292rcd13ifvqdf0","pricing_plan_id":"cebpf4jnsgd1na2vs0mg"},{"bike_id":"e4d45dd0-64e1-438b-960f-23bacc6e4e06","system_id":"levelo_inurba_marseille","lat":43.23143,"lon":5.43729,"is_reserved":false,"is_disabled":false,"rental_uris":{"android":"levelo://app?vid=e4d45dd0-64e1-438b-960f-23bacc6e4e06","ios":"levelo://app?vid=e4d45dd0-64e1-438b-960f-23bacc6e4e06"},"vehicle_type_id":"4","last_reported":1742382507,"current_range_meters":8000,"station_id":"ce4bhmp2rcd13ifvqgog","pricing_plan_id":"cebpf4jnsgd1na2vs0mg"},{"bike_id":"ca1c0a28-8faf-435f-9d8b-370c3a07ff34","system_id":"levelo_inurba_marseille","lat":43.2417,"lon":5.36411,"is_reserved":false,"is_disabled":false,"rental_uris":{"android":"levelo://app?vid=ca1c0a28-8faf-435f-9d8b-370c3a07ff34","ios":"levelo://app?vid=ca1c0a28-8faf-435f-9d8b-370c3a07ff34"},"vehicle_type_id":"4","last_reported":1742382507,"current_range_meters":8000,"station_id":"cpo36qri1sfpv3e86is0","pricing_plan_id":"cebpf4jnsgd1na2vs0mg"},{"bike_id":"a342afa1-fe1b-4de5-8f98-f3f81167fac6","system_id":"levelo_inurba_marseille","lat":43.22939,"lon":5.35386,"is_reserved":false,"is_disabled":false,"rental_uris":{"android":"levelo://app?vid=a342afa1-fe1b-4de5-8f98-f3f81167fac6","ios":"levelo://app?vid=a342afa1-fe1b-4de5-8f98-f3f81167fac6"},"vehicle_type_id":"4","last_reported":1742382507,"current_range_meters":8000,"station_id":"cpo3532slgdg3j2ikp40","pricing_plan_id":"cebpf4jnsgd1na2vs0mg"},{"bike_id":"8b32b85a-5da5-4fb7-9bce-2917bc92c51c","system_id":"levelo_inurba_marseille","lat":43.27812,"lon":5.40722,"is_reserved":false,"is_disabled":false,"rental_uris":{"android":"levelo://app?vid=8b32b85a-5da5-4fb7-9bce-2917bc92c51c","ios":"levelo://app?vid=8b32b85a-5da5-4fb7-9bce-2917bc92c51c"},"vehicle_type_id":"4","last_reported":1742382507,"current_range_meters":8000,"station_id":"ce4bhnh2rcd13ifvqgtg","pricing_plan_id":"cebpf4jnsgd1na2vs0mg"},{"bike_id":"34b74241-1e6e-458b-a83f-9bda30270e74","system_id":"levelo_inurba_marseille","lat":43.27827,"lon":5.40703,"is_reserved":false,"is_disabled":false,"rental_uris":{"android":"levelo://app?vid=34b74241-1e6e-458b-a83f-9bda30270e74","ios":"levelo://app?vid=34b74241-1e6e-458b-a83f-9bda30270e74"},"vehicle_type_id":"4","last_reported":1742382507,"current_range_meters":8000,"station_id":"ce4bhnh2rcd13ifvqgtg","pricing_plan_id":"cebpf4jnsgd1na2vs0mg"},{"bike_id":"2b13f4ac-f5a7-4be7-a38e-b248ce22b04d","system_id":"levelo_inurba_marseille","lat":43.31237,"lon":5.3684,"is_reserved":false,"is_disabled":false,"rental_uris":{"android":"levelo://app?vid=2b13f4ac-f5a7-4be7-a38e-b248ce22b04d","ios":"levelo://app?vid=2b13f4ac-f5a7-4be7-a38e-b248ce22b04d"},"vehicle_type_id":"4","last_reported":1742382507,"current_range_meters":8000,"station_id":"ce4bgl92rcd13ifvqbq0","pricing_plan_id":"cebpf4jnsgd1na2vs0mg"},{"bike_id":"dd039e60-65bb-4c3a-a12f-627ab036ab4c","system_id":"levelo_inurba_marseille","lat":43.30905,"lon":5.36835,"is_reserved":false,"is_disabled":true,"rental_uris":{"android":"levelo://app?vid=dd039e60-65bb-4c3a-a12f-627ab036ab4c","ios":"levelo://app?vid=dd039e60-65bb-4c3a-a12f-627ab036ab4c"},"vehicle_type_id":"4","last_reported":1742382507,"current_range_meters":8000,"station_id":"ce4bgn92rcd13ifvqbvg","pricing_plan_id":"cebpf4jnsgd1na2vs0mg"},{"bike_id":"61c41159-7a8b-45ee-a18c-926f56b3edec","system_id":"levelo_inurba_marseille","lat":43.25825,"lon":5.39426,"is_reserved":false,"is_disabled":false,"rental_uris":{"android":"levelo://app?vid=61c41159-7a8b-45ee-a18c-926f56b3edec","ios":"levelo://app?vid=61c41159-7a8b-45ee-a18c-926f56b3edec"},"vehicle_type_id":"4","last_reported":1742382507,"current_range_meters":8000,"station_id":"ce4bhip2rcd13ifvqft0","pricing_plan_id":"cebpf4jnsgd1na2vs0mg"},{"bike_id":"e7727825-1550-4ac5-83b8-e36a5d869f96","system_id":"levelo_inurba_marseille","lat":43.26217,"lon":5.40457,"is_reserved":false,"is_disabled":false,"rental_uris":{"android":"levelo://app?vid=e7727825-1550-4ac5-83b8-e36a5d869f96","ios":"levelo://app?vid=e7727825-1550-4ac5-83b8-e36a5d869f96"},"vehicle_type_id":"4","last_reported":1742382507,"current_range_meters":8000,"station_id":"ce4bhmh2rcd13ifvqgmg","pricing_plan_id":"cebpf4jnsgd1na2vs0mg"},{"bike_id":"f1220761-b8f0-4898-9663-db5e8aacc757","system_id":"levelo_inurba_marseille","lat":43.26555,"lon":5.37284,"is_reserved":false,"is_disabled":false,"rental_uris":{"android":"levelo://app?vid=f1220761-b8f0-4898-9663-db5e8aacc757","ios":"levelo://app?vid=f1220761-b8f0-4898-9663-db5e8aacc757"},"vehicle_type_id":"4","last_reported":1742382507,"current_range_meters":8400,"station_id":"ce4bhg12rcd13ifvqf70","pricing_plan_id":"cebpf4jnsgd1na2vs0mg"},{"bike_id":"c6dd187f-2428-4bff-ac66-72cca29c2769","system_id":"levelo_inurba_marseille","lat":43.24668,"lon":5.38175,"is_reserved":false,"is_disabled":false,"rental_uris":{"android":"levelo://app?vid=c6dd187f-2428-4bff-ac66-72cca29c2769","ios":"levelo://app?vid=c6dd187f-2428-4bff-ac66-72cca29c2769"},"vehicle_type_id":"4","last_reported":1742382507,"current_range_meters":8400,"station_id":"ce4bhih2rcd13ifvqfr0","pricing_plan_id":"cebpf4jnsgd1na2vs0mg"},{"bike_id":"1cdd4cb0-5174-47d9-b59c-b9aedd3081d4","system_id":"levelo_inurba_marseille","lat":43.33603,"lon":5.40992,"is_reserved":false,"is_disabled":false,"rental_uris":{"android":"levelo://app?vid=1cdd4cb0-5174-47d9-b59c-b9aedd3081d4","ios":"levelo://app?vid=1cdd4cb0-5174-47d9-b59c-b9aedd3081d4"},"vehicle_type_id":"4","last_reported":1742382507,"current_range_meters":8400,"station_id":"ce4bhqh2rcd13ifvqhmg","pricing_plan_id":"cebpf4jnsgd1na2vs0mg"},{"bike_id":"c86e58fa-395e-4f39-8df3-231e0c76bee5","system_id":"levelo_inurba_marseille","lat":43.32369,"lon":5.38885,"is_reserved":false,"is_disabled":false,"rental_uris":{"android":"levelo://app?vid=c86e58fa-395e-4f39-8df3-231e0c76bee5","ios":"levelo://app?vid=c86e58fa-395e-4f39-8df3-231e0c76bee5"},"vehicle_type_id":"4","last_reported":1742382507,"current_range_meters":8400,"station_id":"ce4bhqp2rcd13ifvqhog","pricing_plan_id":"cebpf4jnsgd1na2vs0mg"},{"bike_id":"6b162ed9-3599-4156-a34b-2df90433ae5c","system_id":"levelo_inurba_marseille","lat":43.24161,"lon":5.39738,"is_reserved":false,"is_disabled":false,"rental_uris":{"android":"levelo://app?vid=6b162ed9-3599-4156-a34b-2df90433ae5c","ios":"levelo://app?vid=6b162ed9-3599-4156-a34b-2df90433ae5c"},"vehicle_type_id":"4","last_reported":1742382507,"current_range_meters":8400,"station_id":"ce4bhn12rcd13ifvqgpg","pricing_plan_id":"cebpf4jnsgd1na2vs0mg"},{"bike_id":"1ff4b712-0199-4a94-832d-5142c1180356","system_id":"levelo_inurba_marseille","lat":43.31361,"lon":5.36709,"is_reserved":false,"is_disabled":true,"rental_uris":{"android":"levelo://app?vid=1ff4b712-0199-4a94-832d-5142c1180356","ios":"levelo://app?vid=1ff4b712-0199-4a94-832d-5142c1180356"},"vehicle_type_id":"4","last_reported":1742382507,"current_range_meters":8800,"station_id":"ce4bgr92rcd13ifvqc6g","pricing_plan_id":"cebpf4jnsgd1na2vs0mg"},{"bike_id":"f21279f0-26ba-40b9-a5fb-1fd6c7d6abe3","system_id":"levelo_inurba_marseille","lat":43.25819,"lon":5.39431,"is_reserved":false,"is_disabled":false,"rental_uris":{"android":"levelo://app?vid=f21279f0-26ba-40b9-a5fb-1fd6c7d6abe3","ios":"levelo://app?vid=f21279f0-26ba-40b9-a5fb-1fd6c7d6abe3"},"vehicle_type_id":"4","last_reported":1742382507,"current_range_meters":8800,"station_id":"ce4bhip2rcd13ifvqft0","pricing_plan_id":"cebpf4jnsgd1na2vs0mg"},{"bike_id":"e94b1f20-3e0e-4dcb-9056-1e4af333e85a","system_id":"levelo_inurba_marseille","lat":43.28932,"lon":5.39737,"is_reserved":false,"is_disabled":false,"rental_uris":{"android":"levelo://app?vid=e94b1f20-3e0e-4dcb-9056-1e4af333e85a","ios":"levelo://app?vid=e94b1f20-3e0e-4dcb-9056-1e4af333e85a"},"vehicle_type_id":"4","last_reported":1742382507,"current_range_meters":8800,"station_id":"","pricing_plan_id":"cebpf4jnsgd1na2vs0mg"},{"bike_id":"854fbef3-9265-4bb6-a6ac-980aabae185c","system_id":"levelo_inurba_marseille","lat":43.27057,"lon":5.42269,"is_reserved":false,"is_disabled":false,"rental_uris":{"android":"levelo://app?vid=854fbef3-9265-4bb6-a6ac-980aabae185c","ios":"levelo://app?vid=854fbef3-9265-4bb6-a6ac-980aabae185c"},"vehicle_type_id":"4","last_reported":1742382507,"current_range_meters":8800,"station_id":"ce4bhk92rcd13ifvqgb0","pricing_plan_id":"cebpf4jnsgd1na2vs0mg"},{"bike_id":"8e7fc45b-6bdb-4231-a939-ba764a0432c4","system_id":"levelo_inurba_marseille","lat":43.29555,"lon":5.42299,"is_reserved":false,"is_disabled":false,"rental_uris":{"android":"levelo://app?vid=8e7fc45b-6bdb-4231-a939-ba764a0432c4","ios":"levelo://app?vid=8e7fc45b-6bdb-4231-a939-ba764a0432c4"},"vehicle_type_id":"4","last_reported":1742382507,"current_range_meters":8800,"station_id":"ce4bhph2rcd13ifvqhdg","pricing_plan_id":"cebpf4jnsgd1na2vs0mg"},{"bike_id":"45233882-6a89-4b02-addd-28d39958200a","system_id":"levelo_inurba_marseille","lat":43.32361,"lon":5.36768,"is_reserved":false,"is_disabled":false,"rental_uris":{"android":"levelo://app?vid=45233882-6a89-4b02-addd-28d39958200a","ios":"levelo://app?vid=45233882-6a89-4b02-addd-28d39958200a"},"vehicle_type_id":"4","last_reported":1742382507,"current_range_meters":9200,"station_id":"ce4bhsh2rcd13ifvqi2g","pricing_plan_id":"cebpf4jnsgd1na2vs0mg"},{"bike_id":"10eed6fd-0341-4510-a4a6-4c8769f4a4be","system_id":"levelo_inurba_marseille","lat":43.26685,"lon":5.38267,"is_reserved":false,"is_disabled":false,"rental_uris":{"android":"levelo://app?vid=10eed6fd-0341-4510-a4a6-4c8769f4a4be","ios":"levelo://app?vid=10eed6fd-0341-4510-a4a6-4c8769f4a4be"},"vehicle_type_id":"4","last_reported":1742382507,"current_range_meters":9200,"station_id":"ce4bhg92rcd13ifvqf90","pricing_plan_id":"cebpf4jnsgd1na2vs0mg"},{"bike_id":"c82c20ba-b001-4289-8fc0-ff6498eeb07a","system_id":"levelo_inurba_marseille","lat":43.28276,"lon":5.35066,"is_reserved":false,"is_disabled":false,"rental_uris":{"android":"levelo://app?vid=c82c20ba-b001-4289-8fc0-ff6498eeb07a","ios":"levelo://app?vid=c82c20ba-b001-4289-8fc0-ff6498eeb07a"},"vehicle_type_id":"4","last_reported":1742382507,"current_range_meters":9200,"station_id":"ce4bhbp2rcd13ifvqerg","pricing_plan_id":"cebpf4jnsgd1na2vs0mg"},{"bike_id":"ec31732b-9dfc-48ca-aeba-f8aba544d1d4","system_id":"levelo_inurba_marseille","lat":43.25917,"lon":5.40822,"is_reserved":false,"is_disabled":false,"rental_uris":{"android":"levelo://app?vid=ec31732b-9dfc-48ca-aeba-f8aba544d1d4","ios":"levelo://app?vid=ec31732b-9dfc-48ca-aeba-f8aba544d1d4"},"vehicle_type_id":"4","last_reported":1742382507,"current_range_meters":9200,"station_id":"ce4bhm92rcd13ifvqglg","pricing_plan_id":"cebpf4jnsgd1na2vs0mg"},{"bike_id":"61e9fd90-e9dd-462d-a9bd-1aa2307b7287","system_id":"levelo_inurba_marseille","lat":43.23143,"lon":5.43713,"is_reserved":false,"is_disabled":false,"rental_uris":{"android":"levelo://app?vid=61e9fd90-e9dd-462d-a9bd-1aa2307b7287","ios":"levelo://app?vid=61e9fd90-e9dd-462d-a9bd-1aa2307b7287"},"vehicle_type_id":"4","last_reported":1742382507,"current_range_meters":9200,"station_id":"ce4bhmp2rcd13ifvqgog","pricing_plan_id":"cebpf4jnsgd1na2vs0mg"},{"bike_id":"9c122150-253e-4347-9c19-b1964cc017d2","system_id":"levelo_inurba_marseille","lat":43.29266,"lon":5.38445,"is_reserved":false,"is_disabled":false,"rental_uris":{"android":"levelo://app?vid=9c122150-253e-4347-9c19-b1964cc017d2","ios":"levelo://app?vid=9c122150-253e-4347-9c19-b1964cc017d2"},"vehicle_type_id":"4","last_reported":1742382507,"current_range_meters":9200,"station_id":"ce4bh692rcd13ifvqea0","pricing_plan_id":"cebpf4jnsgd1na2vs0mg"},{"bike_id":"b0ba98e1-4ebc-4a16-96dc-8685ca13ec7a","system_id":"levelo_inurba_marseille","lat":43.272,"lon":5.39183,"is_reserved":false,"is_disabled":false,"rental_uris":{"android":"levelo://app?vid=b0ba98e1-4ebc-4a16-96dc-8685ca13ec7a","ios":"levelo://app?vid=b0ba98e1-4ebc-4a16-96dc-8685ca13ec7a"},"vehicle_type_id":"4","last_reported":1742382507,"current_range_meters":9200,"station_id":"ce4bhhp2rcd13ifvqfm0","pricing_plan_id":"cebpf4jnsgd1na2vs0mg"},{"bike_id":"6bdb9dcd-e491-4708-b65f-6635c942b502","system_id":"levelo_inurba_marseille","lat":43.27085,"lon":5.42269,"is_reserved":false,"is_disabled":false,"rental_uris":{"android":"levelo://app?vid=6bdb9dcd-e491-4708-b65f-6635c942b502","ios":"levelo://app?vid=6bdb9dcd-e491-4708-b65f-6635c942b502"},"vehicle_type_id":"4","last_reported":1742382507,"current_range_meters":9200,"station_id":"ce4bhk92rcd13ifvqgb0","pricing_plan_id":"cebpf4jnsgd1na2vs0mg"},{"bike_id":"73775d85-d06e-4705-b3d6-611dd3926542","system_id":"levelo_inurba_marseille","lat":43.25941,"lon":5.40934,"is_reserved":false,"is_disabled":false,"rental_uris":{"android":"levelo://app?vid=73775d85-d06e-4705-b3d6-611dd3926542","ios":"levelo://app?vid=73775d85-d06e-4705-b3d6-611dd3926542"},"vehicle_type_id":"4","last_reported":1742382507,"current_range_meters":9200,"station_id":"ce4bhm92rcd13ifvqglg","pricing_plan_id":"cebpf4jnsgd1na2vs0mg"},{"bike_id":"52e51408-92ef-4726-bdb3-411461311776","system_id":"levelo_inurba_marseille","lat":43.27189,"lon":5.41002,"is_reserved":false,"is_disabled":false,"rental_uris":{"android":"levelo://app?vid=52e51408-92ef-4726-bdb3-411461311776","ios":"levelo://app?vid=52e51408-92ef-4726-bdb3-411461311776"},"vehicle_type_id":"4","last_reported":1742382507,"current_range_meters":9200,"station_id":"ce4bhl12rcd13ifvqgf0","pricing_plan_id":"cebpf4jnsgd1na2vs0mg"},{"bike_id":"f1902b49-b20b-4c9d-8f9a-55c59de656d2","system_id":"levelo_inurba_marseille","lat":43.29871,"lon":5.39733,"is_reserved":false,"is_disabled":false,"rental_uris":{"android":"levelo://app?vid=f1902b49-b20b-4c9d-8f9a-55c59de656d2","ios":"levelo://app?vid=f1902b49-b20b-4c9d-8f9a-55c59de656d2"},"vehicle_type_id":"4","last_reported":1742382507,"current_range_meters":9200,"station_id":"ce4bh0h2rcd13ifvqd50","pricing_plan_id":"cebpf4jnsgd1na2vs0mg"},{"bike_id":"6ee5181a-1ee9-4345-8378-e4274ccc3fd3","system_id":"levelo_inurba_marseille","lat":43.28705,"lon":5.37384,"is_reserved":false,"is_disabled":false,"rental_uris":{"android":"levelo://app?vid=6ee5181a-1ee9-4345-8378-e4274ccc3fd3","ios":"levelo://app?vid=6ee5181a-1ee9-4345-8378-e4274ccc3fd3"},"vehicle_type_id":"4","last_reported":1742382507,"current_range_meters":9600,"station_id":"ce4bh3p2rcd13ifvqdq0","pricing_plan_id":"cebpf4jnsgd1na2vs0mg"},{"bike_id":"8abf66b0-4c7b-4a5b-9216-254c311cdf06","system_id":"levelo_inurba_marseille","lat":43.25588,"lon":5.38234,"is_reserved":false,"is_disabled":false,"rental_uris":{"android":"levelo://app?vid=8abf66b0-4c7b-4a5b-9216-254c311cdf06","ios":"levelo://app?vid=8abf66b0-4c7b-4a5b-9216-254c311cdf06"},"vehicle_type_id":"4","last_reported":1742382507,"current_range_meters":9600,"station_id":"ce4bhih2rcd13ifvqfs0","pricing_plan_id":"cebpf4jnsgd1na2vs0mg"},{"bike_id":"bee239d2-2a40-41dd-8204-6e42885fdc2f","system_id":"levelo_inurba_marseille","lat":43.3014,"lon":5.37399,"is_reserved":false,"is_disabled":false,"rental_uris":{"android":"levelo://app?vid=bee239d2-2a40-41dd-8204-6e42885fdc2f","ios":"levelo://app?vid=bee239d2-2a40-41dd-8204-6e42885fdc2f"},"vehicle_type_id":"4","last_reported":1742382507,"current_range_meters":9600,"station_id":"ce4bgs92rcd13ifvqcc0","pricing_plan_id":"cebpf4jnsgd1na2vs0mg"},{"bike_id":"f142dc05-f5d3-4cbc-afe5-c54cd3d760d6","system_id":"levelo_inurba_marseille","lat":43.28101,"lon":5.39647,"is_reserved":false,"is_disabled":false,"rental_uris":{"android":"levelo://app?vid=f142dc05-f5d3-4cbc-afe5-c54cd3d760d6","ios":"levelo://app?vid=f142dc05-f5d3-4cbc-afe5-c54cd3d760d6"},"vehicle_type_id":"4","last_reported":1742382507,"current_range_meters":9600,"station_id":"ce4bho12rcd13ifvqh2g","pricing_plan_id":"cebpf4jnsgd1na2vs0mg"},{"bike_id":"f8307535-8c5c-432d-9493-33bbc7c0e2fd","system_id":"levelo_inurba_marseille","lat":43.27374,"lon":5.36255,"is_reserved":false,"is_disabled":false,"rental_uris":{"android":"levelo://app?vid=f8307535-8c5c-432d-9493-33bbc7c0e2fd","ios":"levelo://app?vid=f8307535-8c5c-432d-9493-33bbc7c0e2fd"},"vehicle_type_id":"4","last_reported":1742382507,"current_range_meters":9600,"station_id":"ce4bhbh2rcd13ifvqeo0","pricing_plan_id":"cebpf4jnsgd1na2vs0mg"},{"bike_id":"85ed4f08-79b9-4ccc-a1b9-09c0e9a6efde","system_id":"levelo_inurba_marseille","lat":43.3079,"lon":5.38147,"is_reserved":false,"is_disabled":false,"rental_uris":{"android":"levelo://app?vid=85ed4f08-79b9-4ccc-a1b9-09c0e9a6efde","ios":"levelo://app?vid=85ed4f08-79b9-4ccc-a1b9-09c0e9a6efde"},"vehicle_type_id":"4","last_reported":1742382507,"current_range_meters":10000,"station_id":"ce4bgt12rcd13ifvqce0","pricing_plan_id":"cebpf4jnsgd1na2vs0mg"},{"bike_id":"505c6e85-22bf-4dc4-a762-e1ff9b054e2b","system_id":"levelo_inurba_marseille","lat":43.23147,"lon":5.43701,"is_reserved":false,"is_disabled":false,"rental_uris":{"android":"levelo://app?vid=505c6e85-22bf-4dc4-a762-e1ff9b054e2b","ios":"levelo://app?vid=505c6e85-22bf-4dc4-a762-e1ff9b054e2b"},"vehicle_type_id":"4","last_reported":1742382507,"current_range_meters":10000,"station_id":"ce4bhmp2rcd13ifvqgog","pricing_plan_id":"cebpf4jnsgd1na2vs0mg"},{"bike_id":"73d88c4a-5a38-4518-981b-7a9b426c42ec","system_id":"levelo_inurba_marseille","lat":43.2418,"lon":5.39731,"is_reserved":false,"is_disabled":false,"rental_uris":{"android":"levelo://app?vid=73d88c4a-5a38-4518-981b-7a9b426c42ec","ios":"levelo://app?vid=73d88c4a-5a38-4518-981b-7a9b426c42ec"},"vehicle_type_id":"4","last_reported":1742382507,"current_range_meters":10000,"station_id":"ce4bhn12rcd13ifvqgpg","pricing_plan_id":"cebpf4jnsgd1na2vs0mg"},{"bike_id":"4e18c39b-8206-49db-86b9-4e5e65e0c8b4","system_id":"levelo_inurba_marseille","lat":43.23969,"lon":5.36627,"is_reserved":false,"is_disabled":false,"rental_uris":{"android":"levelo://app?vid=4e18c39b-8206-49db-86b9-4e5e65e0c8b4","ios":"levelo://app?vid=4e18c39b-8206-49db-86b9-4e5e65e0c8b4"},"vehicle_type_id":"4","last_reported":1742382507,"current_range_meters":10000,"station_id":"ce4bhi12rcd13ifvqfp0","pricing_plan_id":"cebpf4jnsgd1na2vs0mg"},{"bike_id":"927ccfa8-7feb-41ec-9901-39dd721ef6c8","system_id":"levelo_inurba_marseille","lat":43.27822,"lon":5.40714,"is_reserved":false,"is_disabled":true,"rental_uris":{"android":"levelo://app?vid=927ccfa8-7feb-41ec-9901-39dd721ef6c8","ios":"levelo://app?vid=927ccfa8-7feb-41ec-9901-39dd721ef6c8"},"vehicle_type_id":"4","last_reported":1742382507,"current_range_meters":10000,"station_id":"ce4bhnh2rcd13ifvqgtg","pricing_plan_id":"cebpf4jnsgd1na2vs0mg"},{"bike_id":"ab402316-ac55-46b3-8c86-f064799319e0","system_id":"levelo_inurba_marseille","lat":43.2718,"lon":5.41003,"is_reserved":false,"is_disabled":false,"rental_uris":{"android":"levelo://app?vid=ab402316-ac55-46b3-8c86-f064799319e0","ios":"levelo://app?vid=ab402316-ac55-46b3-8c86-f064799319e0"},"vehicle_type_id":"4","last_reported":1742382507,"current_range_meters":10000,"station_id":"ce4bhl12rcd13ifvqgf0","pricing_plan_id":"cebpf4jnsgd1na2vs0mg"},{"bike_id":"3455258b-4135-46b9-9a26-10bf95160e40","system_id":"levelo_inurba_marseille","lat":43.23189,"lon":5.3555,"is_reserved":false,"is_disabled":false,"rental_uris":{"android":"levelo://app?vid=3455258b-4135-46b9-9a26-10bf95160e40","ios":"levelo://app?vid=3455258b-4135-46b9-9a26-10bf95160e40"},"vehicle_type_id":"4","last_reported":1742382507,"current_range_meters":10000,"station_id":"ce4bhu92rcd13ifvqi70","pricing_plan_id":"cebpf4jnsgd1na2vs0mg"},{"bike_id":"f175e98e-b5f7-4bcf-a8d0-91885bb7df74","system_id":"levelo_inurba_marseille","lat":43.30139,"lon":5.37404,"is_reserved":false,"is_disabled":false,"rental_uris":{"android":"levelo://app?vid=f175e98e-b5f7-4bcf-a8d0-91885bb7df74","ios":"levelo://app?vid=f175e98e-b5f7-4bcf-a8d0-91885bb7df74"},"vehicle_type_id":"4","last_reported":1742382507,"current_range_meters":10000,"station_id":"ce4bgs92rcd13ifvqcc0","pricing_plan_id":"cebpf4jnsgd1na2vs0mg"},{"bike_id":"e4e9c206-4fbc-4baa-9db1-0f85766d4ac0","system_id":"levelo_inurba_marseille","lat":43.29737,"lon":5.37698,"is_reserved":false,"is_disabled":false,"rental_uris":{"android":"levelo://app?vid=e4e9c206-4fbc-4baa-9db1-0f85766d4ac0","ios":"levelo://app?vid=e4e9c206-4fbc-4baa-9db1-0f85766d4ac0"},"vehicle_type_id":"4","last_reported":1742382507,"current_range_meters":10000,"station_id":"ce4bgkh2rcd13ifvqbl0","pricing_plan_id":"cebpf4jnsgd1na2vs0mg"},{"bike_id":"36b45bdf-8a03-4146-b8a6-9fb01bfd8256","system_id":"levelo_inurba_marseille","lat":43.25867,"lon":5.39898,"is_reserved":false,"is_disabled":false,"rental_uris":{"android":"levelo://app?vid=36b45bdf-8a03-4146-b8a6-9fb01bfd8256","ios":"levelo://app?vid=36b45bdf-8a03-4146-b8a6-9fb01bfd8256"},"vehicle_type_id":"4","last_reported":1742382507,"current_range_meters":10000,"station_id":"ce4bhl92rcd13ifvqghg","pricing_plan_id":"cebpf4jnsgd1na2vs0mg"},{"bike_id":"453d476e-d55d-432e-82a1-ce7d5ee8c4da","system_id":"levelo_inurba_marseille","lat":43.32495,"lon":5.36575,"is_reserved":false,"is_disabled":false,"rental_uris":{"android":"levelo://app?vid=453d476e-d55d-432e-82a1-ce7d5ee8c4da","ios":"levelo://app?vid=453d476e-d55d-432e-82a1-ce7d5ee8c4da"},"vehicle_type_id":"4","last_reported":1742382507,"current_range_meters":10000,"station_id":"ce4bhs12rcd13ifvqhvg","pricing_plan_id":"cebpf4jnsgd1na2vs0mg"},{"bike_id":"63da7dd4-6093-42a6-a6e1-bb7bc1bc78e8","system_id":"levelo_inurba_marseille","lat":43.29042,"lon":5.39985,"is_reserved":false,"is_disabled":false,"rental_uris":{"android":"levelo://app?vid=63da7dd4-6093-42a6-a6e1-bb7bc1bc78e8","ios":"levelo://app?vid=63da7dd4-6093-42a6-a6e1-bb7bc1bc78e8"},"vehicle_type_id":"4","last_reported":1742382507,"current_range_meters":10000,"station_id":"ce4bh392rcd13ifvqdm0","pricing_plan_id":"cebpf4jnsgd1na2vs0mg"},{"bike_id":"8cf8f2d1-cd7e-4a3e-a6fe-fc7af9ab3241","system_id":"levelo_inurba_marseille","lat":43.29559,"lon":5.42292,"is_reserved":false,"is_disabled":false,"rental_uris":{"android":"levelo://app?vid=8cf8f2d1-cd7e-4a3e-a6fe-fc7af9ab3241","ios":"levelo://app?vid=8cf8f2d1-cd7e-4a3e-a6fe-fc7af9ab3241"},"vehicle_type_id":"4","last_reported":1742382507,"current_range_meters":10000,"station_id":"ce4bhph2rcd13ifvqhdg","pricing_plan_id":"cebpf4jnsgd1na2vs0mg"},{"bike_id":"c2f4da44-a44d-44d2-8be6-51648ee37d7f","system_id":"levelo_inurba_marseille","lat":43.25014,"lon":5.3894,"is_reserved":false,"is_disabled":false,"rental_uris":{"android":"levelo://app?vid=c2f4da44-a44d-44d2-8be6-51648ee37d7f","ios":"levelo://app?vid=c2f4da44-a44d-44d2-8be6-51648ee37d7f"},"vehicle_type_id":"4","last_reported":1742382507,"current_range_meters":10000,"station_id":"ce4bhgp2rcd13ifvqfd0","pricing_plan_id":"cebpf4jnsgd1na2vs0mg"},{"bike_id":"b6516885-6b2a-4c3b-b46a-6df7fec02364","system_id":"levelo_inurba_marseille","lat":43.2593,"lon":5.40855,"is_reserved":false,"is_disabled":false,"rental_uris":{"android":"levelo://app?vid=b6516885-6b2a-4c3b-b46a-6df7fec02364","ios":"levelo://app?vid=b6516885-6b2a-4c3b-b46a-6df7fec02364"},"vehicle_type_id":"4","last_reported":1742382507,"current_range_meters":10000,"station_id":"ce4bhm92rcd13ifvqglg","pricing_plan_id":"cebpf4jnsgd1na2vs0mg"},{"bike_id":"546beaa1-c80f-46f3-9be2-aab7e3a75fdc","system_id":"levelo_inurba_marseille","lat":43.2668,"lon":5.38266,"is_reserved":false,"is_disabled":false,"rental_uris":{"android":"levelo://app?vid=546beaa1-c80f-46f3-9be2-aab7e3a75fdc","ios":"levelo://app?vid=546beaa1-c80f-46f3-9be2-aab7e3a75fdc"},"vehicle_type_id":"4","last_reported":1742382507,"current_range_meters":10800,"station_id":"ce4bhg92rcd13ifvqf90","pricing_plan_id":"cebpf4jnsgd1na2vs0mg"},{"bike_id":"d54a16a1-543c-4932-9b5a-df0c900fdb05","system_id":"levelo_inurba_marseille","lat":43.33022,"lon":5.39039,"is_reserved":false,"is_disabled":false,"rental_uris":{"android":"levelo://app?vid=d54a16a1-543c-4932-9b5a-df0c900fdb05","ios":"levelo://app?vid=d54a16a1-543c-4932-9b5a-df0c900fdb05"},"vehicle_type_id":"4","last_reported":1742382507,"current_range_meters":10800,"station_id":"ce4bhr92rcd13ifvqhrg","pricing_plan_id":"cebpf4jnsgd1na2vs0mg"},{"bike_id":"0fe13004-041b-42c2-a475-c7bc22675182","system_id":"levelo_inurba_marseille","lat":43.29902,"lon":5.38138,"is_reserved":false,"is_disabled":false,"rental_uris":{"android":"levelo://app?vid=0fe13004-041b-42c2-a475-c7bc22675182","ios":"levelo://app?vid=0fe13004-041b-42c2-a475-c7bc22675182"},"vehicle_type_id":"4","last_reported":1742382507,"current_range_meters":10800,"station_id":"ce4bgj12rcd13ifvqbc0","pricing_plan_id":"cebpf4jnsgd1na2vs0mg"},{"bike_id":"8c07c4a7-d14f-4051-9d3d-4085873163f0","system_id":"levelo_inurba_marseille","lat":43.24657,"lon":5.3815,"is_reserved":false,"is_disabled":false,"rental_uris":{"android":"levelo://app?vid=8c07c4a7-d14f-4051-9d3d-4085873163f0","ios":"levelo://app?vid=8c07c4a7-d14f-4051-9d3d-4085873163f0"},"vehicle_type_id":"4","last_reported":1742382507,"current_range_meters":10800,"station_id":"ce4bhih2rcd13ifvqfr0","pricing_plan_id":"cebpf4jnsgd1na2vs0mg"},{"bike_id":"97f132f3-f25e-4589-ad73-9c5a087e55dd","system_id":"levelo_inurba_marseille","lat":43.30173,"lon":5.38085,"is_reserved":false,"is_disabled":false,"rental_uris":{"android":"levelo://app?vid=97f132f3-f25e-4589-ad73-9c5a087e55dd","ios":"levelo://app?vid=97f132f3-f25e-4589-ad73-9c5a087e55dd"},"vehicle_type_id":"4","last_reported":1742382507,"current_range_meters":10800,"station_id":"ce4bgjp2rcd13ifvqbh0","pricing_plan_id":"cebpf4jnsgd1na2vs0mg"},{"bike_id":"46626044-2035-4685-8464-a73cddf17560","system_id":"levelo_inurba_marseille","lat":43.30466,"lon":5.37893,"is_reserved":false,"is_disabled":false,"rental_uris":{"android":"levelo://app?vid=46626044-2035-4685-8464-a73cddf17560","ios":"levelo://app?vid=46626044-2035-4685-8464-a73cddf17560"},"vehicle_type_id":"4","last_reported":1742382507,"current_range_meters":10800,"station_id":"ce4bgup2rcd13ifvqcn0","pricing_plan_id":"cebpf4jnsgd1na2vs0mg"},{"bike_id":"f4165607-80d2-4e6e-8b9c-c523c42872fb","system_id":"levelo_inurba_marseille","lat":43.24761,"lon":5.37492,"is_reserved":false,"is_disabled":false,"rental_uris":{"android":"levelo://app?vid=f4165607-80d2-4e6e-8b9c-c523c42872fb","ios":"levelo://app?vid=f4165607-80d2-4e6e-8b9c-c523c42872fb"},"vehicle_type_id":"4","last_reported":1742382507,"current_range_meters":10800,"station_id":"ce4bhgh2rcd13ifvqfb0","pricing_plan_id":"cebpf4jnsgd1na2vs0mg"},{"bike_id":"b6cec0a8-8151-4282-95b3-b7e2e2bb4ad7","system_id":"levelo_inurba_marseille","lat":43.29569,"lon":5.37518,"is_reserved":false,"is_disabled":false,"rental_uris":{"android":"levelo://app?vid=b6cec0a8-8151-4282-95b3-b7e2e2bb4ad7","ios":"levelo://app?vid=b6cec0a8-8151-4282-95b3-b7e2e2bb4ad7"},"vehicle_type_id":"4","last_reported":1742382507,"current_range_meters":10800,"station_id":"ce4bgh92rcd13ifvqb50","pricing_plan_id":"cebpf4jnsgd1na2vs0mg"},{"bike_id":"044ae6e0-181a-498f-adfb-761c99757eee","system_id":"levelo_inurba_marseille","lat":43.28469,"lon":5.38422,"is_reserved":false,"is_disabled":false,"rental_uris":{"android":"levelo://app?vid=044ae6e0-181a-498f-adfb-761c99757eee","ios":"levelo://app?vid=044ae6e0-181a-498f-adfb-761c99757eee"},"vehicle_type_id":"4","last_reported":1742382507,"current_range_meters":10800,"station_id":"ce4bh512rcd13ifvqe3g","pricing_plan_id":"cebpf4jnsgd1na2vs0mg"},{"bike_id":"d43d8dd8-c39c-44fb-8277-a182966728d2","system_id":"levelo_inurba_marseille","lat":43.28275,"lon":5.35065,"is_reserved":false,"is_disabled":false,"rental_uris":{"android":"levelo://app?vid=d43d8dd8-c39c-44fb-8277-a182966728d2","ios":"levelo://app?vid=d43d8dd8-c39c-44fb-8277-a182966728d2"},"vehicle_type_id":"4","last_reported":1742382507,"current_range_meters":10800,"station_id":"ce4bhbp2rcd13ifvqerg","pricing_plan_id":"cebpf4jnsgd1na2vs0mg"},{"bike_id":"b3ab2806-f410-4cce-8b04-fb1a4b877921","system_id":"levelo_inurba_marseille","lat":43.24181,"lon":5.39736,"is_reserved":false,"is_disabled":false,"rental_uris":{"android":"levelo://app?vid=b3ab2806-f410-4cce-8b04-fb1a4b877921","ios":"levelo://app?vid=b3ab2806-f410-4cce-8b04-fb1a4b877921"},"vehicle_type_id":"4","last_reported":1742382507,"current_range_meters":10800,"station_id":"ce4bhn12rcd13ifvqgpg","pricing_plan_id":"cebpf4jnsgd1na2vs0mg"},{"bike_id":"824f61e3-b63d-402c-8b6f-9f6bbc10ce69","system_id":"levelo_inurba_marseille","lat":43.30545,"lon":5.36557,"is_reserved":false,"is_disabled":false,"rental_uris":{"android":"levelo://app?vid=824f61e3-b63d-402c-8b6f-9f6bbc10ce69","ios":"levelo://app?vid=824f61e3-b63d-402c-8b6f-9f6bbc10ce69"},"vehicle_type_id":"4","last_reported":1742382507,"current_range_meters":10800,"station_id":"ce4bgs12rcd13ifvqcag","pricing_plan_id":"cebpf4jnsgd1na2vs0mg"},{"bike_id":"93c34480-7d65-487d-a3a6-24b9aab974cb","system_id":"levelo_inurba_marseille","lat":43.3009,"lon":5.39069,"is_reserved":false,"is_disabled":false,"rental_uris":{"android":"levelo://app?vid=93c34480-7d65-487d-a3a6-24b9aab974cb","ios":"levelo://app?vid=93c34480-7d65-487d-a3a6-24b9aab974cb"},"vehicle_type_id":"4","last_reported":1742382507,"current_range_meters":10800,"station_id":"ce4bh192rcd13ifvqdb0","pricing_plan_id":"cebpf4jnsgd1na2vs0mg"},{"bike_id":"92d4205c-d33b-422f-a415-ad71884cbc9f","system_id":"levelo_inurba_marseille","lat":43.24998,"lon":5.38938,"is_reserved":false,"is_disabled":false,"rental_uris":{"android":"levelo://app?vid=92d4205c-d33b-422f-a415-ad71884cbc9f","ios":"levelo://app?vid=92d4205c-d33b-422f-a415-ad71884cbc9f"},"vehicle_type_id":"4","last_reported":1742382507,"current_range_meters":10800,"station_id":"ce4bhgp2rcd13ifvqfd0","pricing_plan_id":"cebpf4jnsgd1na2vs0mg"},{"bike_id":"cd6f1262-06b9-4383-8718-dbf3ba4fd41e","system_id":"levelo_inurba_marseille","lat":43.26236,"lon":5.40462,"is_reserved":false,"is_disabled":false,"rental_uris":{"android":"levelo://app?vid=cd6f1262-06b9-4383-8718-dbf3ba4fd41e","ios":"levelo://app?vid=cd6f1262-06b9-4383-8718-dbf3ba4fd41e"},"vehicle_type_id":"4","last_reported":1742382507,"current_range_meters":11200,"station_id":"ce4bhmh2rcd13ifvqgmg","pricing_plan_id":"cebpf4jnsgd1na2vs0mg"},{"bike_id":"2312adcb-aec8-4176-9b08-9c8733b32e1a","system_id":"levelo_inurba_marseille","lat":43.31199,"lon":5.36904,"is_reserved":false,"is_disabled":false,"rental_uris":{"android":"levelo://app?vid=2312adcb-aec8-4176-9b08-9c8733b32e1a","ios":"levelo://app?vid=2312adcb-aec8-4176-9b08-9c8733b32e1a"},"vehicle_type_id":"4","last_reported":1742382507,"current_range_meters":11200,"station_id":"ce4bgl92rcd13ifvqbq0","pricing_plan_id":"cebpf4jnsgd1na2vs0mg"},{"bike_id":"f28382c0-26da-4556-9c4c-3f123b4905f6","system_id":"levelo_inurba_marseille","lat":43.30539,"lon":5.38433,"is_reserved":false,"is_disabled":false,"rental_uris":{"android":"levelo://app?vid=f28382c0-26da-4556-9c4c-3f123b4905f6","ios":"levelo://app?vid=f28382c0-26da-4556-9c4c-3f123b4905f6"},"vehicle_type_id":"4","last_reported":1742382507,"current_range_meters":11200,"station_id":"ce4bgg92rcd13ifvqb30","pricing_plan_id":"cebpf4jnsgd1na2vs0mg"},{"bike_id":"e3570b0e-a1d3-457a-b206-7a1b3629223e","system_id":"levelo_inurba_marseille","lat":43.31115,"lon":5.37776,"is_reserved":false,"is_disabled":false,"rental_uris":{"android":"levelo://app?vid=e3570b0e-a1d3-457a-b206-7a1b3629223e","ios":"levelo://app?vid=e3570b0e-a1d3-457a-b206-7a1b3629223e"},"vehicle_type_id":"4","last_reported":1742382507,"current_range_meters":11200,"station_id":"ce4bgt92rcd13ifvqcg0","pricing_plan_id":"cebpf4jnsgd1na2vs0mg"},{"bike_id":"64e57b95-3e99-4fe8-bedc-2203aa4906e9","system_id":"levelo_inurba_marseille","lat":43.29879,"lon":5.39742,"is_reserved":false,"is_disabled":false,"rental_uris":{"android":"levelo://app?vid=64e57b95-3e99-4fe8-bedc-2203aa4906e9","ios":"levelo://app?vid=64e57b95-3e99-4fe8-bedc-2203aa4906e9"},"vehicle_type_id":"4","last_reported":1742382507,"current_range_meters":11200,"station_id":"ce4bh0h2rcd13ifvqd50","pricing_plan_id":"cebpf4jnsgd1na2vs0mg"},{"bike_id":"7b660f94-53f2-4ea2-ac2b-9a7c88505f64","system_id":"levelo_inurba_marseille","lat":43.25929,"lon":5.40902,"is_reserved":false,"is_disabled":false,"rental_uris":{"android":"levelo://app?vid=7b660f94-53f2-4ea2-ac2b-9a7c88505f64","ios":"levelo://app?vid=7b660f94-53f2-4ea2-ac2b-9a7c88505f64"},"vehicle_type_id":"4","last_reported":1742382507,"current_range_meters":11200,"station_id":"ce4bhm92rcd13ifvqglg","pricing_plan_id":"cebpf4jnsgd1na2vs0mg"},{"bike_id":"6138b640-3a79-45fe-b651-9195792b5201","system_id":"levelo_inurba_marseille","lat":43.23966,"lon":5.36626,"is_reserved":false,"is_disabled":false,"rental_uris":{"android":"levelo://app?vid=6138b640-3a79-45fe-b651-9195792b5201","ios":"levelo://app?vid=6138b640-3a79-45fe-b651-9195792b5201"},"vehicle_type_id":"4","last_reported":1742382507,"current_range_meters":11200,"station_id":"ce4bhi12rcd13ifvqfp0","pricing_plan_id":"cebpf4jnsgd1na2vs0mg"},{"bike_id":"963a17fa-4222-4f93-b414-09c4cce8d25a","system_id":"levelo_inurba_marseille","lat":43.28418,"lon":5.38484,"is_reserved":false,"is_disabled":false,"rental_uris":{"android":"levelo://app?vid=963a17fa-4222-4f93-b414-09c4cce8d25a","ios":"levelo://app?vid=963a17fa-4222-4f93-b414-09c4cce8d25a"},"vehicle_type_id":"4","last_reported":1742382507,"current_range_meters":11200,"station_id":"","pricing_plan_id":"cebpf4jnsgd1na2vs0mg"},{"bike_id":"0940199b-b172-4169-a1e3-34623c8c49cd","system_id":"levelo_inurba_marseille","lat":43.30905,"lon":5.37197,"is_reserved":false,"is_disabled":false,"rental_uris":{"android":"levelo://app?vid=0940199b-b172-4169-a1e3-34623c8c49cd","ios":"levelo://app?vid=0940199b-b172-4169-a1e3-34623c8c49cd"},"vehicle_type_id":"4","last_reported":1742382507,"current_range_meters":11600,"station_id":"ce4bguh2rcd13ifvqckg","pricing_plan_id":"cebpf4jnsgd1na2vs0mg"},{"bike_id":"b5ab980b-7710-480f-b702-51a8f54ece86","system_id":"levelo_inurba_marseille","lat":43.23063,"lon":5.35494,"is_reserved":false,"is_disabled":false,"rental_uris":{"android":"levelo://app?vid=b5ab980b-7710-480f-b702-51a8f54ece86","ios":"levelo://app?vid=b5ab980b-7710-480f-b702-51a8f54ece86"},"vehicle_type_id":"4","last_reported":1742382507,"current_range_meters":11600,"station_id":"cpo3342slgdg3j2ifvpg","pricing_plan_id":"cebpf4jnsgd1na2vs0mg"},{"bike_id":"5f90e3d6-b886-48e6-b60e-2dd77fb6d3d6","system_id":"levelo_inurba_marseille","lat":43.24184,"lon":5.39727,"is_reserved":false,"is_disabled":false,"rental_uris":{"android":"levelo://app?vid=5f90e3d6-b886-48e6-b60e-2dd77fb6d3d6","ios":"levelo://app?vid=5f90e3d6-b886-48e6-b60e-2dd77fb6d3d6"},"vehicle_type_id":"4","last_reported":1742382507,"current_range_meters":11600,"station_id":"ce4bhn12rcd13ifvqgpg","pricing_plan_id":"cebpf4jnsgd1na2vs0mg"},{"bike_id":"db108403-2aeb-4746-8be7-2bc20bb7f902","system_id":"levelo_inurba_marseille","lat":43.29031,"lon":5.3812,"is_reserved":false,"is_disabled":false,"rental_uris":{"android":"levelo://app?vid=db108403-2aeb-4746-8be7-2bc20bb7f902","ios":"levelo://app?vid=db108403-2aeb-4746-8be7-2bc20bb7f902"},"vehicle_type_id":"4","last_reported":1742382507,"current_range_meters":11200,"station_id":"ce4bh4p2rcd13ifvqe1g","pricing_plan_id":"cebpf4jnsgd1na2vs0mg"},{"bike_id":"9a996c7c-0c58-46e2-97a6-72983ae1a6f0","system_id":"levelo_inurba_marseille","lat":43.30471,"lon":5.37913,"is_reserved":false,"is_disabled":false,"rental_uris":{"android":"levelo://app?vid=9a996c7c-0c58-46e2-97a6-72983ae1a6f0","ios":"levelo://app?vid=9a996c7c-0c58-46e2-97a6-72983ae1a6f0"},"vehicle_type_id":"4","last_reported":1742382507,"current_range_meters":11600,"station_id":"ce4bgup2rcd13ifvqcn0","pricing_plan_id":"cebpf4jnsgd1na2vs0mg"},{"bike_id":"b5fdeab3-464d-4e2b-a308-d0bb1676f894","system_id":"levelo_inurba_marseille","lat":43.29367,"lon":5.37857,"is_reserved":false,"is_disabled":false,"rental_uris":{"android":"levelo://app?vid=b5fdeab3-464d-4e2b-a308-d0bb1676f894","ios":"levelo://app?vid=b5fdeab3-464d-4e2b-a308-d0bb1676f894"},"vehicle_type_id":"4","last_reported":1742382507,"current_range_meters":11600,"station_id":"ce4bgjh2rcd13ifvqbf0","pricing_plan_id":"cebpf4jnsgd1na2vs0mg"},{"bike_id":"ac5b42ba-fee1-4fd7-b724-d555e7494e24","system_id":"levelo_inurba_marseille","lat":43.28475,"lon":5.38416,"is_reserved":false,"is_disabled":false,"rental_uris":{"android":"levelo://app?vid=ac5b42ba-fee1-4fd7-b724-d555e7494e24","ios":"levelo://app?vid=ac5b42ba-fee1-4fd7-b724-d555e7494e24"},"vehicle_type_id":"4","last_reported":1742382507,"current_range_meters":11600,"station_id":"ce4bh512rcd13ifvqe3g","pricing_plan_id":"cebpf4jnsgd1na2vs0mg"},{"bike_id":"bfe7ddc3-e6c7-4501-86b1-bf4541cdf352","system_id":"levelo_inurba_marseille","lat":43.25914,"lon":5.4087,"is_reserved":false,"is_disabled":true,"rental_uris":{"android":"levelo://app?vid=bfe7ddc3-e6c7-4501-86b1-bf4541cdf352","ios":"levelo://app?vid=bfe7ddc3-e6c7-4501-86b1-bf4541cdf352"},"vehicle_type_id":"4","last_reported":1742382507,"current_range_meters":11600,"station_id":"ce4bhm92rcd13ifvqglg","pricing_plan_id":"cebpf4jnsgd1na2vs0mg"},{"bike_id":"75e8bee3-0a10-4522-9d7e-72ece2846129","system_id":"levelo_inurba_marseille","lat":43.33032,"lon":5.39056,"is_reserved":false,"is_disabled":false,"rental_uris":{"android":"levelo://app?vid=75e8bee3-0a10-4522-9d7e-72ece2846129","ios":"levelo://app?vid=75e8bee3-0a10-4522-9d7e-72ece2846129"},"vehicle_type_id":"4","last_reported":1742382507,"current_range_meters":11600,"station_id":"ce4bhr92rcd13ifvqhrg","pricing_plan_id":"cebpf4jnsgd1na2vs0mg"},{"bike_id":"3d155719-00f0-4aeb-b400-cdeda7a4cd30","system_id":"levelo_inurba_marseille","lat":43.30547,"lon":5.38432,"is_reserved":false,"is_disabled":false,"rental_uris":{"android":"levelo://app?vid=3d155719-00f0-4aeb-b400-cdeda7a4cd30","ios":"levelo://app?vid=3d155719-00f0-4aeb-b400-cdeda7a4cd30"},"vehicle_type_id":"4","last_reported":1742382507,"current_range_meters":12000,"station_id":"ce4bgg92rcd13ifvqb30","pricing_plan_id":"cebpf4jnsgd1na2vs0mg"},{"bike_id":"5fcb8309-0208-48b4-b28d-ff6e405d3efe","system_id":"levelo_inurba_marseille","lat":43.24997,"lon":5.38901,"is_reserved":false,"is_disabled":false,"rental_uris":{"android":"levelo://app?vid=5fcb8309-0208-48b4-b28d-ff6e405d3efe","ios":"levelo://app?vid=5fcb8309-0208-48b4-b28d-ff6e405d3efe"},"vehicle_type_id":"4","last_reported":1742382507,"current_range_meters":12000,"station_id":"ce4bhgp2rcd13ifvqfd0","pricing_plan_id":"cebpf4jnsgd1na2vs0mg"},{"bike_id":"71f9f3f7-1dec-45cd-b0fe-d3d23c5535c1","system_id":"levelo_inurba_marseille","lat":43.26499,"lon":5.39555,"is_reserved":false,"is_disabled":false,"rental_uris":{"android":"levelo://app?vid=71f9f3f7-1dec-45cd-b0fe-d3d23c5535c1","ios":"levelo://app?vid=71f9f3f7-1dec-45cd-b0fe-d3d23c5535c1"},"vehicle_type_id":"4","last_reported":1742382507,"current_range_meters":12000,"station_id":"ce4bhi12rcd13ifvqfq0","pricing_plan_id":"cebpf4jnsgd1na2vs0mg"},{"bike_id":"eb6ad15b-5d6f-4c9e-aca2-00662fed81a8","system_id":"levelo_inurba_marseille","lat":43.30548,"lon":5.36697,"is_reserved":false,"is_disabled":false,"rental_uris":{"android":"levelo://app?vid=eb6ad15b-5d6f-4c9e-aca2-00662fed81a8","ios":"levelo://app?vid=eb6ad15b-5d6f-4c9e-aca2-00662fed81a8"},"vehicle_type_id":"4","last_reported":1742382507,"current_range_meters":12000,"station_id":"ce4bgrp2rcd13ifvqc9g","pricing_plan_id":"cebpf4jnsgd1na2vs0mg"},{"bike_id":"1b78901a-e3ff-4d99-bb3a-5535ec6ebc0d","system_id":"levelo_inurba_marseille","lat":43.257294,"lon":5.411171,"is_reserved":false,"is_disabled":false,"rental_uris":{"android":"levelo://app?vid=1b78901a-e3ff-4d99-bb3a-5535ec6ebc0d","ios":"levelo://app?vid=1b78901a-e3ff-4d99-bb3a-5535ec6ebc0d"},"vehicle_type_id":"4","last_reported":1742382507,"current_range_meters":12400,"station_id":"ce4bhkp2rcd13ifvqgd0","pricing_plan_id":"cebpf4jnsgd1na2vs0mg"},{"bike_id":"f6d7ec0c-12a9-4a56-84f0-6e30b0160de8","system_id":"levelo_inurba_marseille","lat":43.29254,"lon":5.37619,"is_reserved":false,"is_disabled":false,"rental_uris":{"android":"levelo://app?vid=f6d7ec0c-12a9-4a56-84f0-6e30b0160de8","ios":"levelo://app?vid=f6d7ec0c-12a9-4a56-84f0-6e30b0160de8"},"vehicle_type_id":"4","last_reported":1742382507,"current_range_meters":12400,"station_id":"ce4bgi12rcd13ifvqb80","pricing_plan_id":"cebpf4jnsgd1na2vs0mg"},{"bike_id":"446d3bc1-911c-49dc-9eed-88d006c466c1","system_id":"levelo_inurba_marseille","lat":43.33022,"lon":5.39042,"is_reserved":false,"is_disabled":false,"rental_uris":{"android":"levelo://app?vid=446d3bc1-911c-49dc-9eed-88d006c466c1","ios":"levelo://app?vid=446d3bc1-911c-49dc-9eed-88d006c466c1"},"vehicle_type_id":"4","last_reported":1742382507,"current_range_meters":12400,"station_id":"ce4bhr92rcd13ifvqhrg","pricing_plan_id":"cebpf4jnsgd1na2vs0mg"},{"bike_id":"ee0f687c-08bb-4e36-98a2-e3de6b954481","system_id":"levelo_inurba_marseille","lat":43.24186,"lon":5.39728,"is_reserved":false,"is_disabled":false,"rental_uris":{"android":"levelo://app?vid=ee0f687c-08bb-4e36-98a2-e3de6b954481","ios":"levelo://app?vid=ee0f687c-08bb-4e36-98a2-e3de6b954481"},"vehicle_type_id":"4","last_reported":1742382507,"current_range_meters":12400,"station_id":"ce4bhn12rcd13ifvqgpg","pricing_plan_id":"cebpf4jnsgd1na2vs0mg"},{"bike_id":"f5c3ae74-c1e7-4312-aaf8-ca982ce92b47","system_id":"levelo_inurba_marseille","lat":43.24995,"lon":5.38942,"is_reserved":false,"is_disabled":false,"rental_uris":{"android":"levelo://app?vid=f5c3ae74-c1e7-4312-aaf8-ca982ce92b47","ios":"levelo://app?vid=f5c3ae74-c1e7-4312-aaf8-ca982ce92b47"},"vehicle_type_id":"4","last_reported":1742382507,"current_range_meters":12400,"station_id":"ce4bhgp2rcd13ifvqfd0","pricing_plan_id":"cebpf4jnsgd1na2vs0mg"},{"bike_id":"02f43b01-3b74-45fa-a40e-2df823c84cda","system_id":"levelo_inurba_marseille","lat":43.24175,"lon":5.39715,"is_reserved":false,"is_disabled":false,"rental_uris":{"android":"levelo://app?vid=02f43b01-3b74-45fa-a40e-2df823c84cda","ios":"levelo://app?vid=02f43b01-3b74-45fa-a40e-2df823c84cda"},"vehicle_type_id":"4","last_reported":1742382507,"current_range_meters":12400,"station_id":"ce4bhn12rcd13ifvqgpg","pricing_plan_id":"cebpf4jnsgd1na2vs0mg"},{"bike_id":"f380d6e8-d281-4f9f-a093-4fe4f404b2fc","system_id":"levelo_inurba_marseille","lat":43.26555,"lon":5.37292,"is_reserved":false,"is_disabled":false,"rental_uris":{"android":"levelo://app?vid=f380d6e8-d281-4f9f-a093-4fe4f404b2fc","ios":"levelo://app?vid=f380d6e8-d281-4f9f-a093-4fe4f404b2fc"},"vehicle_type_id":"4","last_reported":1742382507,"current_range_meters":12400,"station_id":"ce4bhg12rcd13ifvqf70","pricing_plan_id":"cebpf4jnsgd1na2vs0mg"},{"bike_id":"9d26c008-8ec1-4269-9cd2-f45774f03ccb","system_id":"levelo_inurba_marseille","lat":43.27958,"lon":5.37931,"is_reserved":false,"is_disabled":false,"rental_uris":{"android":"levelo://app?vid=9d26c008-8ec1-4269-9cd2-f45774f03ccb","ios":"levelo://app?vid=9d26c008-8ec1-4269-9cd2-f45774f03ccb"},"vehicle_type_id":"4","last_reported":1742382507,"current_range_meters":12400,"station_id":"","pricing_plan_id":"cebpf4jnsgd1na2vs0mg"},{"bike_id":"1652e584-399a-41d1-a049-27ebcca2f981","system_id":"levelo_inurba_marseille","lat":43.27061,"lon":5.40258,"is_reserved":false,"is_disabled":false,"rental_uris":{"android":"levelo://app?vid=1652e584-399a-41d1-a049-27ebcca2f981","ios":"levelo://app?vid=1652e584-399a-41d1-a049-27ebcca2f981"},"vehicle_type_id":"4","last_reported":1742382507,"current_range_meters":12400,"station_id":"ce4bhk92rcd13ifvqgc0","pricing_plan_id":"cebpf4jnsgd1na2vs0mg"},{"bike_id":"6ee2859d-d814-4d26-b878-e9869cfdd7f4","system_id":"levelo_inurba_marseille","lat":43.24181,"lon":5.39725,"is_reserved":false,"is_disabled":false,"rental_uris":{"android":"levelo://app?vid=6ee2859d-d814-4d26-b878-e9869cfdd7f4","ios":"levelo://app?vid=6ee2859d-d814-4d26-b878-e9869cfdd7f4"},"vehicle_type_id":"4","last_reported":1742382507,"current_range_meters":12800,"station_id":"ce4bhn12rcd13ifvqgpg","pricing_plan_id":"cebpf4jnsgd1na2vs0mg"},{"bike_id":"52a77ac1-3929-40d8-bbe5-9071034bfde8","system_id":"levelo_inurba_marseille","lat":43.25818,"lon":5.39434,"is_reserved":false,"is_disabled":false,"rental_uris":{"android":"levelo://app?vid=52a77ac1-3929-40d8-bbe5-9071034bfde8","ios":"levelo://app?vid=52a77ac1-3929-40d8-bbe5-9071034bfde8"},"vehicle_type_id":"4","last_reported":1742382507,"current_range_meters":12800,"station_id":"ce4bhip2rcd13ifvqft0","pricing_plan_id":"cebpf4jnsgd1na2vs0mg"},{"bike_id":"93d34d92-c907-4df9-a792-b6ee1e3ff7eb","system_id":"levelo_inurba_marseille","lat":43.25928,"lon":5.40873,"is_reserved":false,"is_disabled":false,"rental_uris":{"android":"levelo://app?vid=93d34d92-c907-4df9-a792-b6ee1e3ff7eb","ios":"levelo://app?vid=93d34d92-c907-4df9-a792-b6ee1e3ff7eb"},"vehicle_type_id":"4","last_reported":1742382507,"current_range_meters":12800,"station_id":"ce4bhm92rcd13ifvqglg","pricing_plan_id":"cebpf4jnsgd1na2vs0mg"},{"bike_id":"c23acf6c-07a9-4818-8510-e5e5608746bd","system_id":"levelo_inurba_marseille","lat":43.30307,"lon":5.36898,"is_reserved":false,"is_disabled":false,"rental_uris":{"android":"levelo://app?vid=c23acf6c-07a9-4818-8510-e5e5608746bd","ios":"levelo://app?vid=c23acf6c-07a9-4818-8510-e5e5608746bd"},"vehicle_type_id":"4","last_reported":1742382507,"current_range_meters":12800,"station_id":"ce4bgqh2rcd13ifvqc5g","pricing_plan_id":"cebpf4jnsgd1na2vs0mg"},{"bike_id":"41495f18-b669-4020-a0f2-a25ce3a87cb3","system_id":"levelo_inurba_marseille","lat":43.3043,"lon":5.38892,"is_reserved":false,"is_disabled":false,"rental_uris":{"android":"levelo://app?vid=41495f18-b669-4020-a0f2-a25ce3a87cb3","ios":"levelo://app?vid=41495f18-b669-4020-a0f2-a25ce3a87cb3"},"vehicle_type_id":"4","last_reported":1742382507,"current_range_meters":15200,"station_id":"ce4bgk12rcd13ifvqbi0","pricing_plan_id":"cebpf4jnsgd1na2vs0mg"},{"bike_id":"176d2e0b-da43-4b98-b92e-b45d4ab12b2f","system_id":"levelo_inurba_marseille","lat":43.30232,"lon":5.3848,"is_reserved":false,"is_disabled":false,"rental_uris":{"android":"levelo://app?vid=176d2e0b-da43-4b98-b92e-b45d4ab12b2f","ios":"levelo://app?vid=176d2e0b-da43-4b98-b92e-b45d4ab12b2f"},"vehicle_type_id":"4","last_reported":1742382507,"current_range_meters":12800,"station_id":"","pricing_plan_id":"cebpf4jnsgd1na2vs0mg"},{"bike_id":"7c9af7c2-44ed-435c-a37c-5097cebf8d67","system_id":"levelo_inurba_marseille","lat":43.26937,"lon":5.38924,"is_reserved":false,"is_disabled":false,"rental_uris":{"android":"levelo://app?vid=7c9af7c2-44ed-435c-a37c-5097cebf8d67","ios":"levelo://app?vid=7c9af7c2-44ed-435c-a37c-5097cebf8d67"},"vehicle_type_id":"4","last_reported":1742382507,"current_range_meters":13600,"station_id":"ce4bhhh2rcd13ifvqfl0","pricing_plan_id":"cebpf4jnsgd1na2vs0mg"},{"bike_id":"e3dc2bda-203a-49b1-9fc0-6631eae1e60d","system_id":"levelo_inurba_marseille","lat":43.33557,"lon":5.40953,"is_reserved":false,"is_disabled":false,"rental_uris":{"android":"levelo://app?vid=e3dc2bda-203a-49b1-9fc0-6631eae1e60d","ios":"levelo://app?vid=e3dc2bda-203a-49b1-9fc0-6631eae1e60d"},"vehicle_type_id":"4","last_reported":1742382507,"current_range_meters":13600,"station_id":"ce4bhqh2rcd13ifvqhmg","pricing_plan_id":"cebpf4jnsgd1na2vs0mg"},{"bike_id":"eba3d8e8-e851-47dc-8eb9-2b562e17e402","system_id":"levelo_inurba_marseille","lat":43.30286,"lon":5.37695,"is_reserved":false,"is_disabled":false,"rental_uris":{"android":"levelo://app?vid=eba3d8e8-e851-47dc-8eb9-2b562e17e402","ios":"levelo://app?vid=eba3d8e8-e851-47dc-8eb9-2b562e17e402"},"vehicle_type_id":"4","last_reported":1742382507,"current_range_meters":13600,"station_id":"ce4bguh2rcd13ifvqcj0","pricing_plan_id":"cebpf4jnsgd1na2vs0mg"},{"bike_id":"38bd332a-82b8-48e5-8440-16891f61c5c3","system_id":"levelo_inurba_marseille","lat":43.3096,"lon":5.39033,"is_reserved":false,"is_disabled":false,"rental_uris":{"android":"levelo://app?vid=38bd332a-82b8-48e5-8440-16891f61c5c3","ios":"levelo://app?vid=38bd332a-82b8-48e5-8440-16891f61c5c3"},"vehicle_type_id":"4","last_reported":1742382507,"current_range_meters":14000,"station_id":"ce4bgup2rcd13ifvqco0","pricing_plan_id":"cebpf4jnsgd1na2vs0mg"},{"bike_id":"db8be1fb-f875-412a-9e75-590c6b6b3817","system_id":"levelo_inurba_marseille","lat":43.23149,"lon":5.43729,"is_reserved":false,"is_disabled":false,"rental_uris":{"android":"levelo://app?vid=db8be1fb-f875-412a-9e75-590c6b6b3817","ios":"levelo://app?vid=db8be1fb-f875-412a-9e75-590c6b6b3817"},"vehicle_type_id":"4","last_reported":1742382507,"current_range_meters":13600,"station_id":"ce4bhmp2rcd13ifvqgog","pricing_plan_id":"cebpf4jnsgd1na2vs0mg"},{"bike_id":"daec0be6-00ee-42fc-bfd6-a5ef8456b0e8","system_id":"levelo_inurba_marseille","lat":43.30308,"lon":5.36913,"is_reserved":false,"is_disabled":false,"rental_uris":{"android":"levelo://app?vid=daec0be6-00ee-42fc-bfd6-a5ef8456b0e8","ios":"levelo://app?vid=daec0be6-00ee-42fc-bfd6-a5ef8456b0e8"},"vehicle_type_id":"4","last_reported":1742382507,"current_range_meters":13600,"station_id":"ce4bgqh2rcd13ifvqc5g","pricing_plan_id":"cebpf4jnsgd1na2vs0mg"},{"bike_id":"a3ae58ef-7951-4fce-9005-aaa79f89070c","system_id":"levelo_inurba_marseille","lat":43.31221,"lon":5.36861,"is_reserved":false,"is_disabled":false,"rental_uris":{"android":"levelo://app?vid=a3ae58ef-7951-4fce-9005-aaa79f89070c","ios":"levelo://app?vid=a3ae58ef-7951-4fce-9005-aaa79f89070c"},"vehicle_type_id":"4","last_reported":1742382507,"current_range_meters":13600,"station_id":"ce4bgl92rcd13ifvqbq0","pricing_plan_id":"cebpf4jnsgd1na2vs0mg"},{"bike_id":"01346141-c7ed-40e4-8b13-cbf2b2aae288","system_id":"levelo_inurba_marseille","lat":43.255,"lon":5.37653,"is_reserved":false,"is_disabled":false,"rental_uris":{"android":"levelo://app?vid=01346141-c7ed-40e4-8b13-cbf2b2aae288","ios":"levelo://app?vid=01346141-c7ed-40e4-8b13-cbf2b2aae288"},"vehicle_type_id":"4","last_reported":1742382507,"current_range_meters":14000,"station_id":"ce4bhh12rcd13ifvqff0","pricing_plan_id":"cebpf4jnsgd1na2vs0mg"},{"bike_id":"355a7202-20f1-46d0-a55f-4b6005afa9e4","system_id":"levelo_inurba_marseille","lat":43.31376,"lon":5.38494,"is_reserved":false,"is_disabled":false,"rental_uris":{"android":"levelo://app?vid=355a7202-20f1-46d0-a55f-4b6005afa9e4","ios":"levelo://app?vid=355a7202-20f1-46d0-a55f-4b6005afa9e4"},"vehicle_type_id":"4","last_reported":1742382507,"current_range_meters":13600,"station_id":"ce4bgt92rcd13ifvqcf0","pricing_plan_id":"cebpf4jnsgd1na2vs0mg"},{"bike_id":"fd78d565-e8af-4c6e-94e3-d92db15cedac","system_id":"levelo_inurba_marseille","lat":43.23164,"lon":5.43697,"is_reserved":false,"is_disabled":true,"rental_uris":{"android":"levelo://app?vid=fd78d565-e8af-4c6e-94e3-d92db15cedac","ios":"levelo://app?vid=fd78d565-e8af-4c6e-94e3-d92db15cedac"},"vehicle_type_id":"4","last_reported":1742382507,"current_range_meters":14000,"station_id":"ce4bhmp2rcd13ifvqgog","pricing_plan_id":"cebpf4jnsgd1na2vs0mg"},{"bike_id":"3a34c87c-3a7c-409e-814d-9fb27cf6bcdf","system_id":"levelo_inurba_marseille","lat":43.29609,"lon":5.37719,"is_reserved":false,"is_disabled":true,"rental_uris":{"android":"levelo://app?vid=3a34c87c-3a7c-409e-814d-9fb27cf6bcdf","ios":"levelo://app?vid=3a34c87c-3a7c-409e-814d-9fb27cf6bcdf"},"vehicle_type_id":"4","last_reported":1742382507,"current_range_meters":14000,"station_id":"","pricing_plan_id":"cebpf4jnsgd1na2vs0mg"},{"bike_id":"671210b1-9e8f-4893-953f-985ab8b97e34","system_id":"levelo_inurba_marseille","lat":43.32104,"lon":5.36761,"is_reserved":false,"is_disabled":false,"rental_uris":{"android":"levelo://app?vid=671210b1-9e8f-4893-953f-985ab8b97e34","ios":"levelo://app?vid=671210b1-9e8f-4893-953f-985ab8b97e34"},"vehicle_type_id":"4","last_reported":1742382507,"current_range_meters":14000,"station_id":"ce4bhrh2rcd13ifvqhug","pricing_plan_id":"cebpf4jnsgd1na2vs0mg"},{"bike_id":"93b2e990-4509-49fe-9a46-59dcd1f3b605","system_id":"levelo_inurba_marseille","lat":43.29631,"lon":5.40592,"is_reserved":false,"is_disabled":false,"rental_uris":{"android":"levelo://app?vid=93b2e990-4509-49fe-9a46-59dcd1f3b605","ios":"levelo://app?vid=93b2e990-4509-49fe-9a46-59dcd1f3b605"},"vehicle_type_id":"4","last_reported":1742382507,"current_range_meters":14000,"station_id":"ce4bh0h2rcd13ifvqd60","pricing_plan_id":"cebpf4jnsgd1na2vs0mg"},{"bike_id":"41e37c74-e9b1-498d-98e9-f705fdd743f9","system_id":"levelo_inurba_marseille","lat":43.287,"lon":5.39986,"is_reserved":false,"is_disabled":false,"rental_uris":{"android":"levelo://app?vid=41e37c74-e9b1-498d-98e9-f705fdd743f9","ios":"levelo://app?vid=41e37c74-e9b1-498d-98e9-f705fdd743f9"},"vehicle_type_id":"4","last_reported":1742382507,"current_range_meters":16800,"station_id":"ce4bho92rcd13ifvqh3g","pricing_plan_id":"cebpf4jnsgd1na2vs0mg"},{"bike_id":"7c23dcb0-31a4-457d-8cd5-05a913c017d4","system_id":"levelo_inurba_marseille","lat":43.3304,"lon":5.39024,"is_reserved":false,"is_disabled":false,"rental_uris":{"android":"levelo://app?vid=7c23dcb0-31a4-457d-8cd5-05a913c017d4","ios":"levelo://app?vid=7c23dcb0-31a4-457d-8cd5-05a913c017d4"},"vehicle_type_id":"4","last_reported":1742382507,"current_range_meters":14000,"station_id":"ce4bhr92rcd13ifvqhrg","pricing_plan_id":"cebpf4jnsgd1na2vs0mg"},{"bike_id":"7b5cf8e0-8a9f-4abf-be94-387d28e26ea4","system_id":"levelo_inurba_marseille","lat":43.31494,"lon":5.37293,"is_reserved":false,"is_disabled":false,"rental_uris":{"android":"levelo://app?vid=7b5cf8e0-8a9f-4abf-be94-387d28e26ea4","ios":"levelo://app?vid=7b5cf8e0-8a9f-4abf-be94-387d28e26ea4"},"vehicle_type_id":"4","last_reported":1742382507,"current_range_meters":14000,"station_id":"ce4bgt12rcd13ifvqcd0","pricing_plan_id":"cebpf4jnsgd1na2vs0mg"},{"bike_id":"0be2b54a-2df5-4cb9-ab77-c64ea4c4d6a6","system_id":"levelo_inurba_marseille","lat":43.29551,"lon":5.42267,"is_reserved":false,"is_disabled":false,"rental_uris":{"android":"levelo://app?vid=0be2b54a-2df5-4cb9-ab77-c64ea4c4d6a6","ios":"levelo://app?vid=0be2b54a-2df5-4cb9-ab77-c64ea4c4d6a6"},"vehicle_type_id":"4","last_reported":1742382507,"current_range_meters":14400,"station_id":"ce4bhph2rcd13ifvqhdg","pricing_plan_id":"cebpf4jnsgd1na2vs0mg"},{"bike_id":"9a407e55-d314-42fc-8c32-c5b5dcba6239","system_id":"levelo_inurba_marseille","lat":43.26221,"lon":5.40465,"is_reserved":false,"is_disabled":false,"rental_uris":{"android":"levelo://app?vid=9a407e55-d314-42fc-8c32-c5b5dcba6239","ios":"levelo://app?vid=9a407e55-d314-42fc-8c32-c5b5dcba6239"},"vehicle_type_id":"4","last_reported":1742382507,"current_range_meters":14400,"station_id":"ce4bhmh2rcd13ifvqgmg","pricing_plan_id":"cebpf4jnsgd1na2vs0mg"},{"bike_id":"c78666c0-40c1-48e0-a163-fa0043698d36","system_id":"levelo_inurba_marseille","lat":43.30915,"lon":5.36819,"is_reserved":false,"is_disabled":false,"rental_uris":{"android":"levelo://app?vid=c78666c0-40c1-48e0-a163-fa0043698d36","ios":"levelo://app?vid=c78666c0-40c1-48e0-a163-fa0043698d36"},"vehicle_type_id":"4","last_reported":1742382507,"current_range_meters":14400,"station_id":"ce4bgn92rcd13ifvqbvg","pricing_plan_id":"cebpf4jnsgd1na2vs0mg"},{"bike_id":"36171524-784d-4f5a-84fe-e4628286a384","system_id":"levelo_inurba_marseille","lat":43.29513,"lon":5.37953,"is_reserved":false,"is_disabled":true,"rental_uris":{"android":"levelo://app?vid=36171524-784d-4f5a-84fe-e4628286a384","ios":"levelo://app?vid=36171524-784d-4f5a-84fe-e4628286a384"},"vehicle_type_id":"4","last_reported":1742382507,"current_range_meters":14400,"station_id":"","pricing_plan_id":"cebpf4jnsgd1na2vs0mg"},{"bike_id":"3d6e5bb2-49a5-4ae9-ac7c-7c3250491a49","system_id":"levelo_inurba_marseille","lat":43.28878,"lon":5.35937,"is_reserved":false,"is_disabled":false,"rental_uris":{"android":"levelo://app?vid=3d6e5bb2-49a5-4ae9-ac7c-7c3250491a49","ios":"levelo://app?vid=3d6e5bb2-49a5-4ae9-ac7c-7c3250491a49"},"vehicle_type_id":"4","last_reported":1742382507,"current_range_meters":14400,"station_id":"","pricing_plan_id":"cebpf4jnsgd1na2vs0mg"},{"bike_id":"0af285be-0294-4c23-9728-cedd0c1ca6b2","system_id":"levelo_inurba_marseille","lat":43.23199,"lon":5.39996,"is_reserved":false,"is_disabled":false,"rental_uris":{"android":"levelo://app?vid=0af285be-0294-4c23-9728-cedd0c1ca6b2","ios":"levelo://app?vid=0af285be-0294-4c23-9728-cedd0c1ca6b2"},"vehicle_type_id":"4","last_reported":1742382507,"current_range_meters":14400,"station_id":"ce4bhn12rcd13ifvqgqg","pricing_plan_id":"cebpf4jnsgd1na2vs0mg"},{"bike_id":"4cb775e3-6dd1-4933-88f0-18c4f0d3749e","system_id":"levelo_inurba_marseille","lat":43.24652,"lon":5.38896,"is_reserved":false,"is_disabled":false,"rental_uris":{"android":"levelo://app?vid=4cb775e3-6dd1-4933-88f0-18c4f0d3749e","ios":"levelo://app?vid=4cb775e3-6dd1-4933-88f0-18c4f0d3749e"},"vehicle_type_id":"4","last_reported":1742382507,"current_range_meters":14000,"station_id":"ce4bhg12rcd13ifvqf60","pricing_plan_id":"cebpf4jnsgd1na2vs0mg"},{"bike_id":"ce81e589-4ae9-4946-a8bc-a44b4af0bf6c","system_id":"levelo_inurba_marseille","lat":43.2419,"lon":5.36389,"is_reserved":false,"is_disabled":false,"rental_uris":{"android":"levelo://app?vid=ce81e589-4ae9-4946-a8bc-a44b4af0bf6c","ios":"levelo://app?vid=ce81e589-4ae9-4946-a8bc-a44b4af0bf6c"},"vehicle_type_id":"4","last_reported":1742382507,"current_range_meters":14400,"station_id":"cpo36qri1sfpv3e86is0","pricing_plan_id":"cebpf4jnsgd1na2vs0mg"},{"bike_id":"1e096a21-9296-4ea4-ad05-342ac819913b","system_id":"levelo_inurba_marseille","lat":43.26685,"lon":5.38276,"is_reserved":false,"is_disabled":false,"rental_uris":{"android":"levelo://app?vid=1e096a21-9296-4ea4-ad05-342ac819913b","ios":"levelo://app?vid=1e096a21-9296-4ea4-ad05-342ac819913b"},"vehicle_type_id":"4","last_reported":1742382507,"current_range_meters":14400,"station_id":"ce4bhg92rcd13ifvqf90","pricing_plan_id":"cebpf4jnsgd1na2vs0mg"},{"bike_id":"f724a8f5-51e1-41bf-a623-23db6b7ba2b1","system_id":"levelo_inurba_marseille","lat":43.27811,"lon":5.40718,"is_reserved":false,"is_disabled":false,"rental_uris":{"android":"levelo://app?vid=f724a8f5-51e1-41bf-a623-23db6b7ba2b1","ios":"levelo://app?vid=f724a8f5-51e1-41bf-a623-23db6b7ba2b1"},"vehicle_type_id":"4","last_reported":1742382507,"current_range_meters":14000,"station_id":"ce4bhnh2rcd13ifvqgtg","pricing_plan_id":"cebpf4jnsgd1na2vs0mg"},{"bike_id":"4738f595-cdb2-45c9-81b7-1f237b0e1ce7","system_id":"levelo_inurba_marseille","lat":43.31716,"lon":5.3776,"is_reserved":false,"is_disabled":false,"rental_uris":{"android":"levelo://app?vid=4738f595-cdb2-45c9-81b7-1f237b0e1ce7","ios":"levelo://app?vid=4738f595-cdb2-45c9-81b7-1f237b0e1ce7"},"vehicle_type_id":"4","last_reported":1742382507,"current_range_meters":14400,"station_id":"ce4bgth2rcd13ifvqch0","pricing_plan_id":"cebpf4jnsgd1na2vs0mg"},{"bike_id":"752be030-9571-4975-8443-801838ce8aa3","system_id":"levelo_inurba_marseille","lat":43.30464,"lon":5.37894,"is_reserved":false,"is_disabled":false,"rental_uris":{"android":"levelo://app?vid=752be030-9571-4975-8443-801838ce8aa3","ios":"levelo://app?vid=752be030-9571-4975-8443-801838ce8aa3"},"vehicle_type_id":"4","last_reported":1742382507,"current_range_meters":14800,"station_id":"ce4bgup2rcd13ifvqcn0","pricing_plan_id":"cebpf4jnsgd1na2vs0mg"},{"bike_id":"471b8c1a-1a85-4080-b533-fb41f3dbfd81","system_id":"levelo_inurba_marseille","lat":43.232,"lon":5.35556,"is_reserved":false,"is_disabled":false,"rental_uris":{"android":"levelo://app?vid=471b8c1a-1a85-4080-b533-fb41f3dbfd81","ios":"levelo://app?vid=471b8c1a-1a85-4080-b533-fb41f3dbfd81"},"vehicle_type_id":"4","last_reported":1742382507,"current_range_meters":14800,"station_id":"ce4bhu92rcd13ifvqi70","pricing_plan_id":"cebpf4jnsgd1na2vs0mg"},{"bike_id":"b9aaaf4c-c366-479a-89d3-010d5948acd7","system_id":"levelo_inurba_marseille","lat":43.28012,"lon":5.41681,"is_reserved":false,"is_disabled":false,"rental_uris":{"android":"levelo://app?vid=b9aaaf4c-c366-479a-89d3-010d5948acd7","ios":"levelo://app?vid=b9aaaf4c-c366-479a-89d3-010d5948acd7"},"vehicle_type_id":"4","last_reported":1742382507,"current_range_meters":14800,"station_id":"ce4bho12rcd13ifvqh1g","pricing_plan_id":"cebpf4jnsgd1na2vs0mg"},{"bike_id":"a649d307-9589-43b3-9c88-ad4906901002","system_id":"levelo_inurba_marseille","lat":43.24182,"lon":5.39734,"is_reserved":false,"is_disabled":false,"rental_uris":{"android":"levelo://app?vid=a649d307-9589-43b3-9c88-ad4906901002","ios":"levelo://app?vid=a649d307-9589-43b3-9c88-ad4906901002"},"vehicle_type_id":"4","last_reported":1742382507,"current_range_meters":14800,"station_id":"ce4bhn12rcd13ifvqgpg","pricing_plan_id":"cebpf4jnsgd1na2vs0mg"},{"bike_id":"c405ab68-223f-47db-99ed-c18c10d1f19e","system_id":"levelo_inurba_marseille","lat":43.28619,"lon":5.35115,"is_reserved":false,"is_disabled":false,"rental_uris":{"android":"levelo://app?vid=c405ab68-223f-47db-99ed-c18c10d1f19e","ios":"levelo://app?vid=c405ab68-223f-47db-99ed-c18c10d1f19e"},"vehicle_type_id":"4","last_reported":1742382507,"current_range_meters":14800,"station_id":"ce4bhch2rcd13ifvqeug","pricing_plan_id":"cebpf4jnsgd1na2vs0mg"},{"bike_id":"d7645557-54c5-44ed-8c44-41e433a350da","system_id":"levelo_inurba_marseille","lat":43.29479,"lon":5.35582,"is_reserved":false,"is_disabled":false,"rental_uris":{"android":"levelo://app?vid=d7645557-54c5-44ed-8c44-41e433a350da","ios":"levelo://app?vid=d7645557-54c5-44ed-8c44-41e433a350da"},"vehicle_type_id":"4","last_reported":1742382507,"current_range_meters":14800,"station_id":"","pricing_plan_id":"cebpf4jnsgd1na2vs0mg"},{"bike_id":"a5f9ed8a-95dc-4f47-8107-d5ae06044454","system_id":"levelo_inurba_marseille","lat":43.24649,"lon":5.38894,"is_reserved":false,"is_disabled":false,"rental_uris":{"android":"levelo://app?vid=a5f9ed8a-95dc-4f47-8107-d5ae06044454","ios":"levelo://app?vid=a5f9ed8a-95dc-4f47-8107-d5ae06044454"},"vehicle_type_id":"4","last_reported":1742382507,"current_range_meters":15200,"station_id":"ce4bhg12rcd13ifvqf60","pricing_plan_id":"cebpf4jnsgd1na2vs0mg"},{"bike_id":"973c0ebb-6773-40e0-972a-ac80c64d7bd2","system_id":"levelo_inurba_marseille","lat":43.26492,"lon":5.39547,"is_reserved":false,"is_disabled":false,"rental_uris":{"android":"levelo://app?vid=973c0ebb-6773-40e0-972a-ac80c64d7bd2","ios":"levelo://app?vid=973c0ebb-6773-40e0-972a-ac80c64d7bd2"},"vehicle_type_id":"4","last_reported":1742382507,"current_range_meters":15200,"station_id":"ce4bhi12rcd13ifvqfq0","pricing_plan_id":"cebpf4jnsgd1na2vs0mg"},{"bike_id":"417af3f2-604f-4823-9c57-86d48f5f947e","system_id":"levelo_inurba_marseille","lat":43.30274,"lon":5.39116,"is_reserved":false,"is_disabled":false,"rental_uris":{"android":"levelo://app?vid=417af3f2-604f-4823-9c57-86d48f5f947e","ios":"levelo://app?vid=417af3f2-604f-4823-9c57-86d48f5f947e"},"vehicle_type_id":"4","last_reported":1742382507,"current_range_meters":15200,"station_id":"ce4bh312rcd13ifvqdj0","pricing_plan_id":"cebpf4jnsgd1na2vs0mg"},{"bike_id":"9ca97652-8da3-453a-ba10-a0c533e092ad","system_id":"levelo_inurba_marseille","lat":43.28485,"lon":5.38418,"is_reserved":false,"is_disabled":false,"rental_uris":{"android":"levelo://app?vid=9ca97652-8da3-453a-ba10-a0c533e092ad","ios":"levelo://app?vid=9ca97652-8da3-453a-ba10-a0c533e092ad"},"vehicle_type_id":"4","last_reported":1742382507,"current_range_meters":15200,"station_id":"ce4bh512rcd13ifvqe3g","pricing_plan_id":"cebpf4jnsgd1na2vs0mg"},{"bike_id":"9d9dd95d-f731-482f-a9aa-ece67fa92d5d","system_id":"levelo_inurba_marseille","lat":43.24995,"lon":5.38926,"is_reserved":false,"is_disabled":false,"rental_uris":{"android":"levelo://app?vid=9d9dd95d-f731-482f-a9aa-ece67fa92d5d","ios":"levelo://app?vid=9d9dd95d-f731-482f-a9aa-ece67fa92d5d"},"vehicle_type_id":"4","last_reported":1742382507,"current_range_meters":16000,"station_id":"ce4bhgp2rcd13ifvqfd0","pricing_plan_id":"cebpf4jnsgd1na2vs0mg"},{"bike_id":"4dd87ef8-8d15-4b6b-ad14-e05b7933df96","system_id":"levelo_inurba_marseille","lat":43.30544,"lon":5.36531,"is_reserved":false,"is_disabled":false,"rental_uris":{"android":"levelo://app?vid=4dd87ef8-8d15-4b6b-ad14-e05b7933df96","ios":"levelo://app?vid=4dd87ef8-8d15-4b6b-ad14-e05b7933df96"},"vehicle_type_id":"4","last_reported":1742382507,"current_range_meters":16000,"station_id":"ce4bgs12rcd13ifvqcag","pricing_plan_id":"cebpf4jnsgd1na2vs0mg"},{"bike_id":"529a7e87-ec2a-4c51-8144-a022d78f3e5f","system_id":"levelo_inurba_marseille","lat":43.30455,"lon":5.37909,"is_reserved":false,"is_disabled":false,"rental_uris":{"android":"levelo://app?vid=529a7e87-ec2a-4c51-8144-a022d78f3e5f","ios":"levelo://app?vid=529a7e87-ec2a-4c51-8144-a022d78f3e5f"},"vehicle_type_id":"4","last_reported":1742382507,"current_range_meters":16000,"station_id":"ce4bgup2rcd13ifvqcn0","pricing_plan_id":"cebpf4jnsgd1na2vs0mg"},{"bike_id":"f458418f-c75c-43be-8b5e-fcf56df219b7","system_id":"levelo_inurba_marseille","lat":43.29367,"lon":5.3785,"is_reserved":false,"is_disabled":false,"rental_uris":{"android":"levelo://app?vid=f458418f-c75c-43be-8b5e-fcf56df219b7","ios":"levelo://app?vid=f458418f-c75c-43be-8b5e-fcf56df219b7"},"vehicle_type_id":"4","last_reported":1742382507,"current_range_meters":16000,"station_id":"ce4bgjh2rcd13ifvqbf0","pricing_plan_id":"cebpf4jnsgd1na2vs0mg"},{"bike_id":"7be2f1cd-cf31-4dbd-b37c-ffccd34d06e9","system_id":"levelo_inurba_marseille","lat":43.2706,"lon":5.40272,"is_reserved":false,"is_disabled":false,"rental_uris":{"android":"levelo://app?vid=7be2f1cd-cf31-4dbd-b37c-ffccd34d06e9","ios":"levelo://app?vid=7be2f1cd-cf31-4dbd-b37c-ffccd34d06e9"},"vehicle_type_id":"4","last_reported":1742382507,"current_range_meters":16000,"station_id":"ce4bhk92rcd13ifvqgc0","pricing_plan_id":"cebpf4jnsgd1na2vs0mg"},{"bike_id":"c4a86313-06f3-4614-aac3-998df5699df3","system_id":"levelo_inurba_marseille","lat":43.30593,"lon":5.37216,"is_reserved":false,"is_disabled":false,"rental_uris":{"android":"levelo://app?vid=c4a86313-06f3-4614-aac3-998df5699df3","ios":"levelo://app?vid=c4a86313-06f3-4614-aac3-998df5699df3"},"vehicle_type_id":"4","last_reported":1742382507,"current_range_meters":16000,"station_id":"ce4bgqh2rcd13ifvqc4g","pricing_plan_id":"cebpf4jnsgd1na2vs0mg"},{"bike_id":"da3ffe1c-5f1f-472c-b3b2-922c6ffc4820","system_id":"levelo_inurba_marseille","lat":43.26943,"lon":5.40265,"is_reserved":false,"is_disabled":false,"rental_uris":{"android":"levelo://app?vid=da3ffe1c-5f1f-472c-b3b2-922c6ffc4820","ios":"levelo://app?vid=da3ffe1c-5f1f-472c-b3b2-922c6ffc4820"},"vehicle_type_id":"4","last_reported":1742382507,"current_range_meters":16000,"station_id":"cjm6bp8fraef2m0cb0m0","pricing_plan_id":"cebpf4jnsgd1na2vs0mg"},{"bike_id":"692d08bb-2df3-47b2-8141-097e1dc01fd1","system_id":"levelo_inurba_marseille","lat":43.31498,"lon":5.37305,"is_reserved":false,"is_disabled":false,"rental_uris":{"android":"levelo://app?vid=692d08bb-2df3-47b2-8141-097e1dc01fd1","ios":"levelo://app?vid=692d08bb-2df3-47b2-8141-097e1dc01fd1"},"vehicle_type_id":"4","last_reported":1742382507,"current_range_meters":16000,"station_id":"ce4bgt12rcd13ifvqcd0","pricing_plan_id":"cebpf4jnsgd1na2vs0mg"},{"bike_id":"e0358a08-5f7e-4638-a25a-280d4cbd1eec","system_id":"levelo_inurba_marseille","lat":43.26695,"lon":5.38271,"is_reserved":false,"is_disabled":false,"rental_uris":{"android":"levelo://app?vid=e0358a08-5f7e-4638-a25a-280d4cbd1eec","ios":"levelo://app?vid=e0358a08-5f7e-4638-a25a-280d4cbd1eec"},"vehicle_type_id":"4","last_reported":1742382507,"current_range_meters":16000,"station_id":"ce4bhg92rcd13ifvqf90","pricing_plan_id":"cebpf4jnsgd1na2vs0mg"},{"bike_id":"4fa6c594-6ed4-4fb4-b055-ac3ab6518d88","system_id":"levelo_inurba_marseille","lat":43.2588,"lon":5.39905,"is_reserved":false,"is_disabled":false,"rental_uris":{"android":"levelo://app?vid=4fa6c594-6ed4-4fb4-b055-ac3ab6518d88","ios":"levelo://app?vid=4fa6c594-6ed4-4fb4-b055-ac3ab6518d88"},"vehicle_type_id":"4","last_reported":1742382507,"current_range_meters":16000,"station_id":"ce4bhl92rcd13ifvqghg","pricing_plan_id":"cebpf4jnsgd1na2vs0mg"},{"bike_id":"717c710c-88f9-4fc5-9863-26da9cb81d84","system_id":"levelo_inurba_marseille","lat":43.31364,"lon":5.38496,"is_reserved":false,"is_disabled":false,"rental_uris":{"android":"levelo://app?vid=717c710c-88f9-4fc5-9863-26da9cb81d84","ios":"levelo://app?vid=717c710c-88f9-4fc5-9863-26da9cb81d84"},"vehicle_type_id":"4","last_reported":1742382507,"current_range_meters":16400,"station_id":"ce4bgt92rcd13ifvqcf0","pricing_plan_id":"cebpf4jnsgd1na2vs0mg"},{"bike_id":"0c205f04-a9f0-4695-b57c-8ab905bf0369","system_id":"levelo_inurba_marseille","lat":43.2893,"lon":5.38401,"is_reserved":false,"is_disabled":false,"rental_uris":{"android":"levelo://app?vid=0c205f04-a9f0-4695-b57c-8ab905bf0369","ios":"levelo://app?vid=0c205f04-a9f0-4695-b57c-8ab905bf0369"},"vehicle_type_id":"4","last_reported":1742382507,"current_range_meters":16400,"station_id":"ce4bh612rcd13ifvqe6g","pricing_plan_id":"cebpf4jnsgd1na2vs0mg"},{"bike_id":"0f351189-83e7-48e4-abd4-32c542b9f3b0","system_id":"levelo_inurba_marseille","lat":43.30322,"lon":5.36911,"is_reserved":false,"is_disabled":true,"rental_uris":{"android":"levelo://app?vid=0f351189-83e7-48e4-abd4-32c542b9f3b0","ios":"levelo://app?vid=0f351189-83e7-48e4-abd4-32c542b9f3b0"},"vehicle_type_id":"4","last_reported":1742382507,"current_range_meters":16400,"station_id":"ce4bgqh2rcd13ifvqc5g","pricing_plan_id":"cebpf4jnsgd1na2vs0mg"},{"bike_id":"6f39e9c2-00d0-4026-b8ae-e3d3568af85e","system_id":"levelo_inurba_marseille","lat":43.30147,"lon":5.39875,"is_reserved":false,"is_disabled":false,"rental_uris":{"android":"levelo://app?vid=6f39e9c2-00d0-4026-b8ae-e3d3568af85e","ios":"levelo://app?vid=6f39e9c2-00d0-4026-b8ae-e3d3568af85e"},"vehicle_type_id":"4","last_reported":1742382507,"current_range_meters":16400,"station_id":"ce4bh0h2rcd13ifvqd40","pricing_plan_id":"cebpf4jnsgd1na2vs0mg"},{"bike_id":"9db609b5-e61b-42b8-83e7-12a88e180d26","system_id":"levelo_inurba_marseille","lat":43.25924,"lon":5.40899,"is_reserved":false,"is_disabled":false,"rental_uris":{"android":"levelo://app?vid=9db609b5-e61b-42b8-83e7-12a88e180d26","ios":"levelo://app?vid=9db609b5-e61b-42b8-83e7-12a88e180d26"},"vehicle_type_id":"4","last_reported":1742382507,"current_range_meters":16400,"station_id":"ce4bhm92rcd13ifvqglg","pricing_plan_id":"cebpf4jnsgd1na2vs0mg"},{"bike_id":"024b59dc-dfef-4325-a2fe-c982e808a020","system_id":"levelo_inurba_marseille","lat":43.27053,"lon":5.4025,"is_reserved":false,"is_disabled":false,"rental_uris":{"android":"levelo://app?vid=024b59dc-dfef-4325-a2fe-c982e808a020","ios":"levelo://app?vid=024b59dc-dfef-4325-a2fe-c982e808a020"},"vehicle_type_id":"4","last_reported":1742382507,"current_range_meters":16800,"station_id":"ce4bhk92rcd13ifvqgc0","pricing_plan_id":"cebpf4jnsgd1na2vs0mg"},{"bike_id":"f939e8d3-351c-4010-9cb1-44904757ac7a","system_id":"levelo_inurba_marseille","lat":43.27177,"lon":5.40988,"is_reserved":false,"is_disabled":false,"rental_uris":{"android":"levelo://app?vid=f939e8d3-351c-4010-9cb1-44904757ac7a","ios":"levelo://app?vid=f939e8d3-351c-4010-9cb1-44904757ac7a"},"vehicle_type_id":"4","last_reported":1742382507,"current_range_meters":16800,"station_id":"ce4bhl12rcd13ifvqgf0","pricing_plan_id":"cebpf4jnsgd1na2vs0mg"},{"bike_id":"d88abdfa-ae38-4145-8077-334191ce440a","system_id":"levelo_inurba_marseille","lat":43.33604,"lon":5.40994,"is_reserved":false,"is_disabled":false,"rental_uris":{"android":"levelo://app?vid=d88abdfa-ae38-4145-8077-334191ce440a","ios":"levelo://app?vid=d88abdfa-ae38-4145-8077-334191ce440a"},"vehicle_type_id":"4","last_reported":1742382507,"current_range_meters":16800,"station_id":"ce4bhqh2rcd13ifvqhmg","pricing_plan_id":"cebpf4jnsgd1na2vs0mg"},{"bike_id":"529eccbf-add8-476b-acf0-6cf5c7af8023","system_id":"levelo_inurba_marseille","lat":43.27211,"lon":5.39159,"is_reserved":false,"is_disabled":false,"rental_uris":{"android":"levelo://app?vid=529eccbf-add8-476b-acf0-6cf5c7af8023","ios":"levelo://app?vid=529eccbf-add8-476b-acf0-6cf5c7af8023"},"vehicle_type_id":"4","last_reported":1742382507,"current_range_meters":16800,"station_id":"ce4bhhp2rcd13ifvqfm0","pricing_plan_id":"cebpf4jnsgd1na2vs0mg"},{"bike_id":"357cc3b4-1310-41e9-89c7-ed63585ec1f9","system_id":"levelo_inurba_marseille","lat":43.29202,"lon":5.35793,"is_reserved":false,"is_disabled":false,"rental_uris":{"android":"levelo://app?vid=357cc3b4-1310-41e9-89c7-ed63585ec1f9","ios":"levelo://app?vid=357cc3b4-1310-41e9-89c7-ed63585ec1f9"},"vehicle_type_id":"4","last_reported":1742382507,"current_range_meters":16800,"station_id":"ce4bhb12rcd13ifvqel0","pricing_plan_id":"cebpf4jnsgd1na2vs0mg"},{"bike_id":"b9e4bdd0-024c-4547-9a94-39d0c7923642","system_id":"levelo_inurba_marseille","lat":43.24175,"lon":5.36407,"is_reserved":false,"is_disabled":false,"rental_uris":{"android":"levelo://app?vid=b9e4bdd0-024c-4547-9a94-39d0c7923642","ios":"levelo://app?vid=b9e4bdd0-024c-4547-9a94-39d0c7923642"},"vehicle_type_id":"4","last_reported":1742382507,"current_range_meters":16800,"station_id":"cpo36qri1sfpv3e86is0","pricing_plan_id":"cebpf4jnsgd1na2vs0mg"},{"bike_id":"e1267d4c-0409-4e51-b579-697437900e13","system_id":"levelo_inurba_marseille","lat":43.30513,"lon":5.36695,"is_reserved":false,"is_disabled":false,"rental_uris":{"android":"levelo://app?vid=e1267d4c-0409-4e51-b579-697437900e13","ios":"levelo://app?vid=e1267d4c-0409-4e51-b579-697437900e13"},"vehicle_type_id":"4","last_reported":1742382507,"current_range_meters":16800,"station_id":"ce4bgrp2rcd13ifvqc9g","pricing_plan_id":"cebpf4jnsgd1na2vs0mg"},{"bike_id":"c5bb5dca-1dc9-450e-9a3d-9fa737cf345d","system_id":"levelo_inurba_marseille","lat":43.24655,"lon":5.38912,"is_reserved":false,"is_disabled":false,"rental_uris":{"android":"levelo://app?vid=c5bb5dca-1dc9-450e-9a3d-9fa737cf345d","ios":"levelo://app?vid=c5bb5dca-1dc9-450e-9a3d-9fa737cf345d"},"vehicle_type_id":"4","last_reported":1742382507,"current_range_meters":16800,"station_id":"ce4bhg12rcd13ifvqf60","pricing_plan_id":"cebpf4jnsgd1na2vs0mg"},{"bike_id":"54847f11-7a71-4f5c-8a04-db0ae7840457","system_id":"levelo_inurba_marseille","lat":43.3055,"lon":5.36532,"is_reserved":false,"is_disabled":false,"rental_uris":{"android":"levelo://app?vid=54847f11-7a71-4f5c-8a04-db0ae7840457","ios":"levelo://app?vid=54847f11-7a71-4f5c-8a04-db0ae7840457"},