{"last_updated":1769675236,"ttl":60,"version":"2.2","data":{"bikes":[{"bike_id":"8d798e6d-f25a-4bb0-a8e7-6f01b0dea7db","system_id":"levelo_inurba_marseille","lat":43.2962,"lon":5.37722,"is_reserved":false,"is_disabled":true,"rental_uris":{"android":"levelo://app?vid=8d798e6d-f25a-4bb0-a8e7-6f01b0dea7db","ios":"levelo://app?vid=8d798e6d-f25a-4bb0-a8e7-6f01b0dea7db"},"vehicle_type_id":"4","last_reported":1769675237,"current_range_meters":2800,"station_id":"ce4bgi92rcd13ifvqb90","pricing_plan_id":"cebpf4jnsgd1na2vs0mg"},{"bike_id":"b7cbb55d-e4ab-4ccb-af8a-dc447b6a08f7","system_id":"levelo_inurba_marseille","lat":43.24398,"lon":5.37071,"is_reserved":false,"is_disabled":false,"rental_uris":{"android":"levelo://app?vid=b7cbb55d-e4ab-4ccb-af8a-dc447b6a08f7","ios":"levelo://app?vid=b7cbb55d-e4ab-4ccb-af8a-dc447b6a08f7"},"vehicle_type_id":"4","last_reported":1769675237,"current_range_meters":2800,"station_id":"ce4bhhh2rcd13ifvqfk0","pricing_plan_id":"cebpf4jnsgd1na2vs0mg"},{"bike_id":"5432d7a0-1700-4fbb-98da-e9587b56686e","system_id":"levelo_inurba_marseille","lat":43.27595,"lon":5.36145,"is_reserved":false,"is_disabled":false,"rental_uris":{"android":"levelo://app?vid=5432d7a0-1700-4fbb-98da-e9587b56686e","ios":"levelo://app?vid=5432d7a0-1700-4fbb-98da-e9587b56686e"},"vehicle_type_id":"4","last_reported":1769675237,"current_range_meters":2800,"station_id":"ce4bgj92rcd13ifvqbe0","pricing_plan_id":"cebpf4jnsgd1na2vs0mg"},{"bike_id":"013d8dd9-e4cd-41c3-abfc-895716ef5327","system_id":"levelo_inurba_marseille","lat":43.27944,"lon":5.41051,"is_reserved":false,"is_disabled":false,"rental_uris":{"android":"levelo://app?vid=013d8dd9-e4cd-41c3-abfc-895716ef5327","ios":"levelo://app?vid=013d8dd9-e4cd-41c3-abfc-895716ef5327"},"vehicle_type_id":"4","last_reported":1769675237,"current_range_meters":2800,"station_id":"ce4bhnp2rcd13ifvqh0g","pricing_plan_id":"cebpf4jnsgd1na2vs0mg"},{"bike_id":"24d298c7-9ef4-4ef4-a767-97f83620d860","system_id":"levelo_inurba_marseille","lat":43.24177,"lon":5.39726,"is_reserved":false,"is_disabled":false,"rental_uris":{"android":"levelo://app?vid=24d298c7-9ef4-4ef4-a767-97f83620d860","ios":"levelo://app?vid=24d298c7-9ef4-4ef4-a767-97f83620d860"},"vehicle_type_id":"4","last_reported":1769675237,"current_range_meters":2800,"station_id":"ce4bhn12rcd13ifvqgpg","pricing_plan_id":"cebpf4jnsgd1na2vs0mg"},{"bike_id":"9096c539-545c-43be-b071-c1bd3552effa","system_id":"levelo_inurba_marseille","lat":43.26207,"lon":5.37443,"is_reserved":false,"is_disabled":false,"rental_uris":{"android":"levelo://app?vid=9096c539-545c-43be-b071-c1bd3552effa","ios":"levelo://app?vid=9096c539-545c-43be-b071-c1bd3552effa"},"vehicle_type_id":"4","last_reported":1769675237,"current_range_meters":2800,"station_id":"ce4bhgp2rcd13ifvqfc0","pricing_plan_id":"cebpf4jnsgd1na2vs0mg"},{"bike_id":"9c5af480-efac-404b-9d61-32a6514f45c4","system_id":"levelo_inurba_marseille","lat":43.30247,"lon":5.40072,"is_reserved":false,"is_disabled":true,"rental_uris":{"android":"levelo://app?vid=9c5af480-efac-404b-9d61-32a6514f45c4","ios":"levelo://app?vid=9c5af480-efac-404b-9d61-32a6514f45c4"},"vehicle_type_id":"4","last_reported":1769675237,"current_range_meters":2800,"station_id":"ce4bgvh2rcd13ifvqcs0","pricing_plan_id":"cebpf4jnsgd1na2vs0mg"},{"bike_id":"cd737560-f7db-4070-9139-519c55f31a04","system_id":"levelo_inurba_marseille","lat":43.23194,"lon":5.39987,"is_reserved":false,"is_disabled":false,"rental_uris":{"android":"levelo://app?vid=cd737560-f7db-4070-9139-519c55f31a04","ios":"levelo://app?vid=cd737560-f7db-4070-9139-519c55f31a04"},"vehicle_type_id":"4","last_reported":1769675237,"current_range_meters":2800,"station_id":"ce4bhn12rcd13ifvqgqg","pricing_plan_id":"cebpf4jnsgd1na2vs0mg"},{"bike_id":"461ff003-9959-4983-b9a2-ee536bdf0356","system_id":"levelo_inurba_marseille","lat":43.279408,"lon":5.410516,"is_reserved":false,"is_disabled":false,"rental_uris":{"android":"levelo://app?vid=461ff003-9959-4983-b9a2-ee536bdf0356","ios":"levelo://app?vid=461ff003-9959-4983-b9a2-ee536bdf0356"},"vehicle_type_id":"4","last_reported":1769675237,"current_range_meters":2800,"station_id":"ce4bhnp2rcd13ifvqh0g","pricing_plan_id":"cebpf4jnsgd1na2vs0mg"},{"bike_id":"f48c1f6e-0473-4847-8c29-30c8ea2f18f5","system_id":"levelo_inurba_marseille","lat":43.29486,"lon":5.43299,"is_reserved":false,"is_disabled":false,"rental_uris":{"android":"levelo://app?vid=f48c1f6e-0473-4847-8c29-30c8ea2f18f5","ios":"levelo://app?vid=f48c1f6e-0473-4847-8c29-30c8ea2f18f5"},"vehicle_type_id":"4","last_reported":1769675237,"current_range_meters":2800,"station_id":"st_d3j5ugp08ojc73fj9d10","pricing_plan_id":"cebpf4jnsgd1na2vs0mg"},{"bike_id":"c895b4ea-aec7-440c-a912-4ace0c9611a7","system_id":"levelo_inurba_marseille","lat":43.26554,"lon":5.40342,"is_reserved":false,"is_disabled":false,"rental_uris":{"android":"levelo://app?vid=c895b4ea-aec7-440c-a912-4ace0c9611a7","ios":"levelo://app?vid=c895b4ea-aec7-440c-a912-4ace0c9611a7"},"vehicle_type_id":"4","last_reported":1769675237,"current_range_meters":2800,"station_id":"ce4bhmp2rcd13ifvqgng","pricing_plan_id":"cebpf4jnsgd1na2vs0mg"},{"bike_id":"f3e9f9a1-18e7-4a48-a464-0191ac1803bc","system_id":"levelo_inurba_marseille","lat":43.27405,"lon":5.39239,"is_reserved":false,"is_disabled":false,"rental_uris":{"android":"levelo://app?vid=f3e9f9a1-18e7-4a48-a464-0191ac1803bc","ios":"levelo://app?vid=f3e9f9a1-18e7-4a48-a464-0191ac1803bc"},"vehicle_type_id":"4","last_reported":1769675237,"current_range_meters":2800,"station_id":"","pricing_plan_id":"cebpf4jnsgd1na2vs0mg"},{"bike_id":"7ed0e531-46c5-4568-a4ff-e07120242996","system_id":"levelo_inurba_marseille","lat":43.30951,"lon":5.39047,"is_reserved":false,"is_disabled":false,"rental_uris":{"android":"levelo://app?vid=7ed0e531-46c5-4568-a4ff-e07120242996","ios":"levelo://app?vid=7ed0e531-46c5-4568-a4ff-e07120242996"},"vehicle_type_id":"4","last_reported":1769675237,"current_range_meters":2800,"station_id":"ce4bgup2rcd13ifvqco0","pricing_plan_id":"cebpf4jnsgd1na2vs0mg"},{"bike_id":"69015cf3-bc6b-446f-9be5-f6f422a1478d","system_id":"levelo_inurba_marseille","lat":43.28867,"lon":5.4254,"is_reserved":false,"is_disabled":false,"rental_uris":{"android":"levelo://app?vid=69015cf3-bc6b-446f-9be5-f6f422a1478d","ios":"levelo://app?vid=69015cf3-bc6b-446f-9be5-f6f422a1478d"},"vehicle_type_id":"4","last_reported":1769675237,"current_range_meters":2800,"station_id":"st_d3b462108ojc7389ooeg","pricing_plan_id":"cebpf4jnsgd1na2vs0mg"},{"bike_id":"dd025a3b-8d88-4cc7-98ea-d46d5c91c806","system_id":"levelo_inurba_marseille","lat":43.27191,"lon":5.409974,"is_reserved":false,"is_disabled":false,"rental_uris":{"android":"levelo://app?vid=dd025a3b-8d88-4cc7-98ea-d46d5c91c806","ios":"levelo://app?vid=dd025a3b-8d88-4cc7-98ea-d46d5c91c806"},"vehicle_type_id":"4","last_reported":1769675237,"current_range_meters":2800,"station_id":"ce4bhl12rcd13ifvqgf0","pricing_plan_id":"cebpf4jnsgd1na2vs0mg"},{"bike_id":"2b025830-a75f-4dd0-9345-1f4a2853b8f8","system_id":"levelo_inurba_marseille","lat":43.32344,"lon":5.3673,"is_reserved":false,"is_disabled":false,"rental_uris":{"android":"levelo://app?vid=2b025830-a75f-4dd0-9345-1f4a2853b8f8","ios":"levelo://app?vid=2b025830-a75f-4dd0-9345-1f4a2853b8f8"},"vehicle_type_id":"4","last_reported":1769675237,"current_range_meters":3200,"station_id":"ce4bhsh2rcd13ifvqi2g","pricing_plan_id":"cebpf4jnsgd1na2vs0mg"},{"bike_id":"71474573-e139-42f3-bf94-d0fc6a99c0c9","system_id":"levelo_inurba_marseille","lat":43.28113,"lon":5.4265,"is_reserved":false,"is_disabled":false,"rental_uris":{"android":"levelo://app?vid=71474573-e139-42f3-bf94-d0fc6a99c0c9","ios":"levelo://app?vid=71474573-e139-42f3-bf94-d0fc6a99c0c9"},"vehicle_type_id":"4","last_reported":1769675237,"current_range_meters":3200,"station_id":"ce4bhnh2rcd13ifvqgug","pricing_plan_id":"cebpf4jnsgd1na2vs0mg"},{"bike_id":"f816da3e-106d-4a26-a69b-0036911e3ca8","system_id":"levelo_inurba_marseille","lat":43.29888,"lon":5.38893,"is_reserved":false,"is_disabled":false,"rental_uris":{"android":"levelo://app?vid=f816da3e-106d-4a26-a69b-0036911e3ca8","ios":"levelo://app?vid=f816da3e-106d-4a26-a69b-0036911e3ca8"},"vehicle_type_id":"4","last_reported":1769675237,"current_range_meters":3200,"station_id":"ce4bh392rcd13ifvqdl0","pricing_plan_id":"cebpf4jnsgd1na2vs0mg"},{"bike_id":"83bd8fdc-1306-440f-8d10-a47f2dbfc88a","system_id":"levelo_inurba_marseille","lat":43.29962,"lon":5.38503,"is_reserved":false,"is_disabled":false,"rental_uris":{"android":"levelo://app?vid=83bd8fdc-1306-440f-8d10-a47f2dbfc88a","ios":"levelo://app?vid=83bd8fdc-1306-440f-8d10-a47f2dbfc88a"},"vehicle_type_id":"4","last_reported":1769675237,"current_range_meters":3200,"station_id":"ce4bgj92rcd13ifvqbd0","pricing_plan_id":"cebpf4jnsgd1na2vs0mg"},{"bike_id":"62fefa31-51b3-462c-96ed-d5a46df975c3","system_id":"levelo_inurba_marseille","lat":43.305458,"lon":5.36736,"is_reserved":false,"is_disabled":false,"rental_uris":{"android":"levelo://app?vid=62fefa31-51b3-462c-96ed-d5a46df975c3","ios":"levelo://app?vid=62fefa31-51b3-462c-96ed-d5a46df975c3"},"vehicle_type_id":"4","last_reported":1769675237,"current_range_meters":3600,"station_id":"ce4bgrp2rcd13ifvqc9g","pricing_plan_id":"cebpf4jnsgd1na2vs0mg"},{"bike_id":"54e3cc28-a140-4775-befe-e3dc2ae200d2","system_id":"levelo_inurba_marseille","lat":43.28491,"lon":5.38522,"is_reserved":false,"is_disabled":false,"rental_uris":{"android":"levelo://app?vid=54e3cc28-a140-4775-befe-e3dc2ae200d2","ios":"levelo://app?vid=54e3cc28-a140-4775-befe-e3dc2ae200d2"},"vehicle_type_id":"4","last_reported":1769675237,"current_range_meters":3600,"station_id":"ce4bh8p2rcd13ifvqeb0","pricing_plan_id":"cebpf4jnsgd1na2vs0mg"},{"bike_id":"04815bf4-822d-4b47-94b0-25754b48d9c4","system_id":"levelo_inurba_marseille","lat":43.30219,"lon":5.39451,"is_reserved":false,"is_disabled":true,"rental_uris":{"android":"levelo://app?vid=04815bf4-822d-4b47-94b0-25754b48d9c4","ios":"levelo://app?vid=04815bf4-822d-4b47-94b0-25754b48d9c4"},"vehicle_type_id":"4","last_reported":1769675237,"current_range_meters":3600,"station_id":"ce4bh0p2rcd13ifvqd70","pricing_plan_id":"cebpf4jnsgd1na2vs0mg"},{"bike_id":"18975a44-e499-49a1-a68c-bdc7f9cfefe3","system_id":"levelo_inurba_marseille","lat":43.2406,"lon":5.37755,"is_reserved":false,"is_disabled":false,"rental_uris":{"android":"levelo://app?vid=18975a44-e499-49a1-a68c-bdc7f9cfefe3","ios":"levelo://app?vid=18975a44-e499-49a1-a68c-bdc7f9cfefe3"},"vehicle_type_id":"4","last_reported":1769675237,"current_range_meters":3600,"station_id":"ce4bhnp2rcd13ifvqgvg","pricing_plan_id":"cebpf4jnsgd1na2vs0mg"},{"bike_id":"14cce97b-e945-4fe9-82a1-2f2562cb9523","system_id":"levelo_inurba_marseille","lat":43.27228,"lon":5.39117,"is_reserved":false,"is_disabled":false,"rental_uris":{"android":"levelo://app?vid=14cce97b-e945-4fe9-82a1-2f2562cb9523","ios":"levelo://app?vid=14cce97b-e945-4fe9-82a1-2f2562cb9523"},"vehicle_type_id":"4","last_reported":1769675237,"current_range_meters":3600,"station_id":"ce4bhhp2rcd13ifvqfm0","pricing_plan_id":"cebpf4jnsgd1na2vs0mg"},{"bike_id":"dcc20a74-9ba4-4119-a5f5-ce0a76ef7ac9","system_id":"levelo_inurba_marseille","lat":43.2255,"lon":5.41649,"is_reserved":false,"is_disabled":false,"rental_uris":{"android":"levelo://app?vid=dcc20a74-9ba4-4119-a5f5-ce0a76ef7ac9","ios":"levelo://app?vid=dcc20a74-9ba4-4119-a5f5-ce0a76ef7ac9"},"vehicle_type_id":"4","last_reported":1769675237,"current_range_meters":3600,"station_id":"st_d2o4gvlbi1j2169b742g","pricing_plan_id":"cebpf4jnsgd1na2vs0mg"},{"bike_id":"599d058d-f8ac-4710-af01-6929bf70782d","system_id":"levelo_inurba_marseille","lat":43.24996,"lon":5.38938,"is_reserved":false,"is_disabled":false,"rental_uris":{"android":"levelo://app?vid=599d058d-f8ac-4710-af01-6929bf70782d","ios":"levelo://app?vid=599d058d-f8ac-4710-af01-6929bf70782d"},"vehicle_type_id":"4","last_reported":1769675237,"current_range_meters":3600,"station_id":"ce4bhgp2rcd13ifvqfd0","pricing_plan_id":"cebpf4jnsgd1na2vs0mg"},{"bike_id":"215d9242-cc67-4957-98e5-94a2159c71f8","system_id":"levelo_inurba_marseille","lat":43.3235,"lon":5.36749,"is_reserved":false,"is_disabled":false,"rental_uris":{"android":"levelo://app?vid=215d9242-cc67-4957-98e5-94a2159c71f8","ios":"levelo://app?vid=215d9242-cc67-4957-98e5-94a2159c71f8"},"vehicle_type_id":"4","last_reported":1769675237,"current_range_meters":3600,"station_id":"ce4bhsh2rcd13ifvqi2g","pricing_plan_id":"cebpf4jnsgd1na2vs0mg"},{"bike_id":"4ae21097-68ff-4a44-bcb7-3e142e11d517","system_id":"levelo_inurba_marseille","lat":43.24181,"lon":5.36424,"is_reserved":false,"is_disabled":false,"rental_uris":{"android":"levelo://app?vid=4ae21097-68ff-4a44-bcb7-3e142e11d517","ios":"levelo://app?vid=4ae21097-68ff-4a44-bcb7-3e142e11d517"},"vehicle_type_id":"4","last_reported":1769675237,"current_range_meters":3600,"station_id":"cpo36qri1sfpv3e86is0","pricing_plan_id":"cebpf4jnsgd1na2vs0mg"},{"bike_id":"8e4d4fbc-7328-48d7-bd42-e8345b1a423f","system_id":"levelo_inurba_marseille","lat":43.243876,"lon":5.370621,"is_reserved":false,"is_disabled":false,"rental_uris":{"android":"levelo://app?vid=8e4d4fbc-7328-48d7-bd42-e8345b1a423f","ios":"levelo://app?vid=8e4d4fbc-7328-48d7-bd42-e8345b1a423f"},"vehicle_type_id":"4","last_reported":1769675237,"current_range_meters":3600,"station_id":"ce4bhhh2rcd13ifvqfk0","pricing_plan_id":"cebpf4jnsgd1na2vs0mg"},{"bike_id":"3aaa97e8-6cbb-46f2-8298-95220655c5c8","system_id":"levelo_inurba_marseille","lat":43.28488,"lon":5.48404,"is_reserved":false,"is_disabled":false,"rental_uris":{"android":"levelo://app?vid=3aaa97e8-6cbb-46f2-8298-95220655c5c8","ios":"levelo://app?vid=3aaa97e8-6cbb-46f2-8298-95220655c5c8"},"vehicle_type_id":"4","last_reported":1769675237,"current_range_meters":3600,"station_id":"st_d3svhcjqgbts73a3dn0g","pricing_plan_id":"cebpf4jnsgd1na2vs0mg"},{"bike_id":"0bb33504-3492-4d22-9a2b-17f8e1fbdca2","system_id":"levelo_inurba_marseille","lat":43.336,"lon":5.41034,"is_reserved":false,"is_disabled":false,"rental_uris":{"android":"levelo://app?vid=0bb33504-3492-4d22-9a2b-17f8e1fbdca2","ios":"levelo://app?vid=0bb33504-3492-4d22-9a2b-17f8e1fbdca2"},"vehicle_type_id":"4","last_reported":1769675237,"current_range_meters":3600,"station_id":"ce4bhqh2rcd13ifvqhmg","pricing_plan_id":"cebpf4jnsgd1na2vs0mg"},{"bike_id":"c9f3a220-219b-4c2b-8c1e-c880db7831c0","system_id":"levelo_inurba_marseille","lat":43.23147,"lon":5.43719,"is_reserved":false,"is_disabled":false,"rental_uris":{"android":"levelo://app?vid=c9f3a220-219b-4c2b-8c1e-c880db7831c0","ios":"levelo://app?vid=c9f3a220-219b-4c2b-8c1e-c880db7831c0"},"vehicle_type_id":"4","last_reported":1769675237,"current_range_meters":3600,"station_id":"ce4bhmp2rcd13ifvqgog","pricing_plan_id":"cebpf4jnsgd1na2vs0mg"},{"bike_id":"ff470d37-3e36-4428-8218-61243a2b1af0","system_id":"levelo_inurba_marseille","lat":43.28935,"lon":5.36637,"is_reserved":false,"is_disabled":false,"rental_uris":{"android":"levelo://app?vid=ff470d37-3e36-4428-8218-61243a2b1af0","ios":"levelo://app?vid=ff470d37-3e36-4428-8218-61243a2b1af0"},"vehicle_type_id":"4","last_reported":1769675237,"current_range_meters":3600,"station_id":"ce4bhap2rcd13ifvqek0","pricing_plan_id":"cebpf4jnsgd1na2vs0mg"},{"bike_id":"4834325e-267c-4cd5-8406-8910e61d6e94","system_id":"levelo_inurba_marseille","lat":43.3123,"lon":5.36845,"is_reserved":false,"is_disabled":false,"rental_uris":{"android":"levelo://app?vid=4834325e-267c-4cd5-8406-8910e61d6e94","ios":"levelo://app?vid=4834325e-267c-4cd5-8406-8910e61d6e94"},"vehicle_type_id":"4","last_reported":1769675237,"current_range_meters":4000,"station_id":"ce4bgl92rcd13ifvqbq0","pricing_plan_id":"cebpf4jnsgd1na2vs0mg"},{"bike_id":"9ec7216d-c7f4-4adf-8afb-0ffd0be7e9d3","system_id":"levelo_inurba_marseille","lat":43.30959,"lon":5.39034,"is_reserved":false,"is_disabled":false,"rental_uris":{"android":"levelo://app?vid=9ec7216d-c7f4-4adf-8afb-0ffd0be7e9d3","ios":"levelo://app?vid=9ec7216d-c7f4-4adf-8afb-0ffd0be7e9d3"},"vehicle_type_id":"4","last_reported":1769675237,"current_range_meters":4000,"station_id":"ce4bgup2rcd13ifvqco0","pricing_plan_id":"cebpf4jnsgd1na2vs0mg"},{"bike_id":"7c1cf96e-9d1a-4fe8-a913-8ece9a24896e","system_id":"levelo_inurba_marseille","lat":43.31691,"lon":5.4042,"is_reserved":false,"is_disabled":false,"rental_uris":{"android":"levelo://app?vid=7c1cf96e-9d1a-4fe8-a913-8ece9a24896e","ios":"levelo://app?vid=7c1cf96e-9d1a-4fe8-a913-8ece9a24896e"},"vehicle_type_id":"4","last_reported":1769675237,"current_range_meters":4000,"station_id":"ce4bh012rcd13ifvqd00","pricing_plan_id":"cebpf4jnsgd1na2vs0mg"},{"bike_id":"e23c8aab-87c6-40a0-916e-d256f0bd5288","system_id":"levelo_inurba_marseille","lat":43.33605,"lon":5.41001,"is_reserved":false,"is_disabled":false,"rental_uris":{"android":"levelo://app?vid=e23c8aab-87c6-40a0-916e-d256f0bd5288","ios":"levelo://app?vid=e23c8aab-87c6-40a0-916e-d256f0bd5288"},"vehicle_type_id":"4","last_reported":1769675237,"current_range_meters":4000,"station_id":"ce4bhqh2rcd13ifvqhmg","pricing_plan_id":"cebpf4jnsgd1na2vs0mg"},{"bike_id":"045f6fcf-c057-4aad-b65a-51b5b81b63f1","system_id":"levelo_inurba_marseille","lat":43.24073,"lon":5.37757,"is_reserved":false,"is_disabled":false,"rental_uris":{"android":"levelo://app?vid=045f6fcf-c057-4aad-b65a-51b5b81b63f1","ios":"levelo://app?vid=045f6fcf-c057-4aad-b65a-51b5b81b63f1"},"vehicle_type_id":"4","last_reported":1769675237,"current_range_meters":4000,"station_id":"ce4bhnp2rcd13ifvqgvg","pricing_plan_id":"cebpf4jnsgd1na2vs0mg"},{"bike_id":"7685a49c-8aa3-4105-b6c4-9b0fdec5d0f8","system_id":"levelo_inurba_marseille","lat":43.314945,"lon":5.372303,"is_reserved":false,"is_disabled":false,"rental_uris":{"android":"levelo://app?vid=7685a49c-8aa3-4105-b6c4-9b0fdec5d0f8","ios":"levelo://app?vid=7685a49c-8aa3-4105-b6c4-9b0fdec5d0f8"},"vehicle_type_id":"4","last_reported":1769675237,"current_range_meters":4000,"station_id":"","pricing_plan_id":"cebpf4jnsgd1na2vs0mg"},{"bike_id":"f1456dcf-2e61-431a-b78d-ce4624a9cf9a","system_id":"levelo_inurba_marseille","lat":43.27054,"lon":5.42306,"is_reserved":false,"is_disabled":true,"rental_uris":{"android":"levelo://app?vid=f1456dcf-2e61-431a-b78d-ce4624a9cf9a","ios":"levelo://app?vid=f1456dcf-2e61-431a-b78d-ce4624a9cf9a"},"vehicle_type_id":"4","last_reported":1769675237,"current_range_meters":4000,"station_id":"ce4bhk92rcd13ifvqgb0","pricing_plan_id":"cebpf4jnsgd1na2vs0mg"},{"bike_id":"5d05d531-ebc5-422e-a94d-fab2e789248e","system_id":"levelo_inurba_marseille","lat":43.25088,"lon":5.39521,"is_reserved":false,"is_disabled":false,"rental_uris":{"android":"levelo://app?vid=5d05d531-ebc5-422e-a94d-fab2e789248e","ios":"levelo://app?vid=5d05d531-ebc5-422e-a94d-fab2e789248e"},"vehicle_type_id":"4","last_reported":1769675237,"current_range_meters":4400,"station_id":"ce4bhm12rcd13ifvqgkg","pricing_plan_id":"cebpf4jnsgd1na2vs0mg"},{"bike_id":"dcd40080-27b2-4fc8-8a6f-927416d34b7a","system_id":"levelo_inurba_marseille","lat":43.2721,"lon":5.39198,"is_reserved":false,"is_disabled":false,"rental_uris":{"android":"levelo://app?vid=dcd40080-27b2-4fc8-8a6f-927416d34b7a","ios":"levelo://app?vid=dcd40080-27b2-4fc8-8a6f-927416d34b7a"},"vehicle_type_id":"4","last_reported":1769675237,"current_range_meters":4400,"station_id":"ce4bhhp2rcd13ifvqfm0","pricing_plan_id":"cebpf4jnsgd1na2vs0mg"},{"bike_id":"a4e7d057-e9fa-48ce-abfc-2a2c6294c8fc","system_id":"levelo_inurba_marseille","lat":43.24068,"lon":5.37744,"is_reserved":false,"is_disabled":false,"rental_uris":{"android":"levelo://app?vid=a4e7d057-e9fa-48ce-abfc-2a2c6294c8fc","ios":"levelo://app?vid=a4e7d057-e9fa-48ce-abfc-2a2c6294c8fc"},"vehicle_type_id":"4","last_reported":1769675237,"current_range_meters":4400,"station_id":"ce4bhnp2rcd13ifvqgvg","pricing_plan_id":"cebpf4jnsgd1na2vs0mg"},{"bike_id":"266b0834-654b-47d2-95f5-e9ad274f17f8","system_id":"levelo_inurba_marseille","lat":43.23775,"lon":5.36634,"is_reserved":false,"is_disabled":false,"rental_uris":{"android":"levelo://app?vid=266b0834-654b-47d2-95f5-e9ad274f17f8","ios":"levelo://app?vid=266b0834-654b-47d2-95f5-e9ad274f17f8"},"vehicle_type_id":"4","last_reported":1769675237,"current_range_meters":4400,"station_id":"st_d3nk18o9ro0c73en2l3g","pricing_plan_id":"cebpf4jnsgd1na2vs0mg"},{"bike_id":"518ac125-62a0-4876-98d9-5c9f5ff89c17","system_id":"levelo_inurba_marseille","lat":43.29517,"lon":5.37498,"is_reserved":false,"is_disabled":false,"rental_uris":{"android":"levelo://app?vid=518ac125-62a0-4876-98d9-5c9f5ff89c17","ios":"levelo://app?vid=518ac125-62a0-4876-98d9-5c9f5ff89c17"},"vehicle_type_id":"4","last_reported":1769675237,"current_range_meters":4400,"station_id":"ce4bgkp2rcd13ifvqbmg","pricing_plan_id":"cebpf4jnsgd1na2vs0mg"},{"bike_id":"c00d1abe-f6f3-4677-9b5b-65f2d4348ca7","system_id":"levelo_inurba_marseille","lat":43.231924,"lon":5.355546,"is_reserved":false,"is_disabled":false,"rental_uris":{"android":"levelo://app?vid=c00d1abe-f6f3-4677-9b5b-65f2d4348ca7","ios":"levelo://app?vid=c00d1abe-f6f3-4677-9b5b-65f2d4348ca7"},"vehicle_type_id":"4","last_reported":1769675237,"current_range_meters":4400,"station_id":"","pricing_plan_id":"cebpf4jnsgd1na2vs0mg"},{"bike_id":"99f7f675-e70d-4670-8c6f-64b994e91b0c","system_id":"levelo_inurba_marseille","lat":43.31242,"lon":5.3684,"is_reserved":false,"is_disabled":false,"rental_uris":{"android":"levelo://app?vid=99f7f675-e70d-4670-8c6f-64b994e91b0c","ios":"levelo://app?vid=99f7f675-e70d-4670-8c6f-64b994e91b0c"},"vehicle_type_id":"4","last_reported":1769675237,"current_range_meters":4400,"station_id":"ce4bgl92rcd13ifvqbq0","pricing_plan_id":"cebpf4jnsgd1na2vs0mg"},{"bike_id":"6812648c-7981-4b96-97d2-73fefcf01402","system_id":"levelo_inurba_marseille","lat":43.310563,"lon":5.37173,"is_reserved":false,"is_disabled":false,"rental_uris":{"android":"levelo://app?vid=6812648c-7981-4b96-97d2-73fefcf01402","ios":"levelo://app?vid=6812648c-7981-4b96-97d2-73fefcf01402"},"vehicle_type_id":"4","last_reported":1769675237,"current_range_meters":4400,"station_id":"st_d4kl2rp97mjs73e7tdfg","pricing_plan_id":"cebpf4jnsgd1na2vs0mg"},{"bike_id":"e534ec64-86aa-46db-a10c-9b74453f49de","system_id":"levelo_inurba_marseille","lat":43.25082,"lon":5.39524,"is_reserved":false,"is_disabled":false,"rental_uris":{"android":"levelo://app?vid=e534ec64-86aa-46db-a10c-9b74453f49de","ios":"levelo://app?vid=e534ec64-86aa-46db-a10c-9b74453f49de"},"vehicle_type_id":"4","last_reported":1769675237,"current_range_meters":4400,"station_id":"ce4bhm12rcd13ifvqgkg","pricing_plan_id":"cebpf4jnsgd1na2vs0mg"},{"bike_id":"221c5f22-8cbe-4eb1-863b-1a21014bd539","system_id":"levelo_inurba_marseille","lat":43.299363,"lon":5.37438,"is_reserved":false,"is_disabled":false,"rental_uris":{"android":"levelo://app?vid=221c5f22-8cbe-4eb1-863b-1a21014bd539","ios":"levelo://app?vid=221c5f22-8cbe-4eb1-863b-1a21014bd539"},"vehicle_type_id":"4","last_reported":1769675237,"current_range_meters":4400,"station_id":"ce4bgrp2rcd13ifvqc9g","pricing_plan_id":"cebpf4jnsgd1na2vs0mg"},{"bike_id":"41c91ad2-73b9-4699-b23d-1b5a65edd284","system_id":"levelo_inurba_marseille","lat":43.33535,"lon":5.37471,"is_reserved":false,"is_disabled":false,"rental_uris":{"android":"levelo://app?vid=41c91ad2-73b9-4699-b23d-1b5a65edd284","ios":"levelo://app?vid=41c91ad2-73b9-4699-b23d-1b5a65edd284"},"vehicle_type_id":"4","last_reported":1769675237,"current_range_meters":4400,"station_id":"st_d46tts09ee8s73dlu43g","pricing_plan_id":"cebpf4jnsgd1na2vs0mg"},{"bike_id":"580b59d8-91a6-4f29-a50d-bac770ac96ab","system_id":"levelo_inurba_marseille","lat":43.28873,"lon":5.42553,"is_reserved":false,"is_disabled":false,"rental_uris":{"android":"levelo://app?vid=580b59d8-91a6-4f29-a50d-bac770ac96ab","ios":"levelo://app?vid=580b59d8-91a6-4f29-a50d-bac770ac96ab"},"vehicle_type_id":"4","last_reported":1769675237,"current_range_meters":4400,"station_id":"st_d3b462108ojc7389ooeg","pricing_plan_id":"cebpf4jnsgd1na2vs0mg"},{"bike_id":"a3120952-f4de-483f-ac39-1358612b53f0","system_id":"levelo_inurba_marseille","lat":43.29268,"lon":5.36839,"is_reserved":false,"is_disabled":false,"rental_uris":{"android":"levelo://app?vid=a3120952-f4de-483f-ac39-1358612b53f0","ios":"levelo://app?vid=a3120952-f4de-483f-ac39-1358612b53f0"},"vehicle_type_id":"4","last_reported":1769675237,"current_range_meters":4400,"station_id":"ce4bhbp2rcd13ifvqesg","pricing_plan_id":"cebpf4jnsgd1na2vs0mg"},{"bike_id":"df52980a-93f4-4285-ad17-40525d77857a","system_id":"levelo_inurba_marseille","lat":43.305287,"lon":5.365468,"is_reserved":false,"is_disabled":false,"rental_uris":{"android":"levelo://app?vid=df52980a-93f4-4285-ad17-40525d77857a","ios":"levelo://app?vid=df52980a-93f4-4285-ad17-40525d77857a"},"vehicle_type_id":"4","last_reported":1769675237,"current_range_meters":4800,"station_id":"ce4bgs12rcd13ifvqcag","pricing_plan_id":"cebpf4jnsgd1na2vs0mg"},{"bike_id":"69a8705c-622c-4687-befc-0e95f406c55e","system_id":"levelo_inurba_marseille","lat":43.22561,"lon":5.41622,"is_reserved":false,"is_disabled":false,"rental_uris":{"android":"levelo://app?vid=69a8705c-622c-4687-befc-0e95f406c55e","ios":"levelo://app?vid=69a8705c-622c-4687-befc-0e95f406c55e"},"vehicle_type_id":"4","last_reported":1769675237,"current_range_meters":4800,"station_id":"st_d2o4gvlbi1j2169b742g","pricing_plan_id":"cebpf4jnsgd1na2vs0mg"},{"bike_id":"c7e4813a-c248-4d27-817f-f64ef50a11f2","system_id":"levelo_inurba_marseille","lat":43.25925,"lon":5.40875,"is_reserved":false,"is_disabled":false,"rental_uris":{"android":"levelo://app?vid=c7e4813a-c248-4d27-817f-f64ef50a11f2","ios":"levelo://app?vid=c7e4813a-c248-4d27-817f-f64ef50a11f2"},"vehicle_type_id":"4","last_reported":1769675237,"current_range_meters":4800,"station_id":"ce4bhm92rcd13ifvqglg","pricing_plan_id":"cebpf4jnsgd1na2vs0mg"},{"bike_id":"4bc51199-a3ee-4ecb-9580-99a8f9dac78b","system_id":"levelo_inurba_marseille","lat":43.31353,"lon":5.36698,"is_reserved":false,"is_disabled":false,"rental_uris":{"android":"levelo://app?vid=4bc51199-a3ee-4ecb-9580-99a8f9dac78b","ios":"levelo://app?vid=4bc51199-a3ee-4ecb-9580-99a8f9dac78b"},"vehicle_type_id":"4","last_reported":1769675237,"current_range_meters":4800,"station_id":"ce4bgr92rcd13ifvqc6g","pricing_plan_id":"cebpf4jnsgd1na2vs0mg"},{"bike_id":"cf516726-854c-444b-bc22-fe0deab1cd04","system_id":"levelo_inurba_marseille","lat":43.28851,"lon":5.35847,"is_reserved":false,"is_disabled":false,"rental_uris":{"android":"levelo://app?vid=cf516726-854c-444b-bc22-fe0deab1cd04","ios":"levelo://app?vid=cf516726-854c-444b-bc22-fe0deab1cd04"},"vehicle_type_id":"4","last_reported":1769675237,"current_range_meters":4800,"station_id":"ce4bhb12rcd13ifvqem0","pricing_plan_id":"cebpf4jnsgd1na2vs0mg"},{"bike_id":"b7beb5d7-874f-47b1-9a5e-2af0e9b8e81f","system_id":"levelo_inurba_marseille","lat":43.30537,"lon":5.36549,"is_reserved":false,"is_disabled":false,"rental_uris":{"android":"levelo://app?vid=b7beb5d7-874f-47b1-9a5e-2af0e9b8e81f","ios":"levelo://app?vid=b7beb5d7-874f-47b1-9a5e-2af0e9b8e81f"},"vehicle_type_id":"4","last_reported":1769675237,"current_range_meters":4800,"station_id":"ce4bgs12rcd13ifvqcag","pricing_plan_id":"cebpf4jnsgd1na2vs0mg"},{"bike_id":"74f15e47-3367-473d-b70d-51b716edacba","system_id":"levelo_inurba_marseille","lat":43.30527,"lon":5.3655,"is_reserved":false,"is_disabled":false,"rental_uris":{"android":"levelo://app?vid=74f15e47-3367-473d-b70d-51b716edacba","ios":"levelo://app?vid=74f15e47-3367-473d-b70d-51b716edacba"},"vehicle_type_id":"4","last_reported":1769675237,"current_range_meters":4800,"station_id":"ce4bgs12rcd13ifvqcag","pricing_plan_id":"cebpf4jnsgd1na2vs0mg"},{"bike_id":"d8f10f2c-7d24-4c17-a837-8b5dcbbaa6da","system_id":"levelo_inurba_marseille","lat":43.29018,"lon":5.3815,"is_reserved":false,"is_disabled":false,"rental_uris":{"android":"levelo://app?vid=d8f10f2c-7d24-4c17-a837-8b5dcbbaa6da","ios":"levelo://app?vid=d8f10f2c-7d24-4c17-a837-8b5dcbbaa6da"},"vehicle_type_id":"4","last_reported":1769675237,"current_range_meters":4800,"station_id":"ce4bh4p2rcd13ifvqe1g","pricing_plan_id":"cebpf4jnsgd1na2vs0mg"},{"bike_id":"3a560c1d-76d6-45a6-9554-036aa12f4461","system_id":"levelo_inurba_marseille","lat":43.2318,"lon":5.3557,"is_reserved":false,"is_disabled":false,"rental_uris":{"android":"levelo://app?vid=3a560c1d-76d6-45a6-9554-036aa12f4461","ios":"levelo://app?vid=3a560c1d-76d6-45a6-9554-036aa12f4461"},"vehicle_type_id":"4","last_reported":1769675237,"current_range_meters":4800,"station_id":"ce4bhu92rcd13ifvqi70","pricing_plan_id":"cebpf4jnsgd1na2vs0mg"},{"bike_id":"282f364e-5258-4a81-a604-e794474e7625","system_id":"levelo_inurba_marseille","lat":43.32062,"lon":5.41546,"is_reserved":false,"is_disabled":false,"rental_uris":{"android":"levelo://app?vid=282f364e-5258-4a81-a604-e794474e7625","ios":"levelo://app?vid=282f364e-5258-4a81-a604-e794474e7625"},"vehicle_type_id":"4","last_reported":1769675237,"current_range_meters":4800,"station_id":"ce4bhq92rcd13ifvqhkg","pricing_plan_id":"cebpf4jnsgd1na2vs0mg"},{"bike_id":"9328d8d0-a319-4fb2-9d4a-db2606a87040","system_id":"levelo_inurba_marseille","lat":43.24171,"lon":5.36422,"is_reserved":false,"is_disabled":false,"rental_uris":{"android":"levelo://app?vid=9328d8d0-a319-4fb2-9d4a-db2606a87040","ios":"levelo://app?vid=9328d8d0-a319-4fb2-9d4a-db2606a87040"},"vehicle_type_id":"4","last_reported":1769675237,"current_range_meters":4800,"station_id":"cpo36qri1sfpv3e86is0","pricing_plan_id":"cebpf4jnsgd1na2vs0mg"},{"bike_id":"9618079e-2ff2-4c22-ba09-0e64f5a7d76f","system_id":"levelo_inurba_marseille","lat":43.31231,"lon":5.36877,"is_reserved":false,"is_disabled":false,"rental_uris":{"android":"levelo://app?vid=9618079e-2ff2-4c22-ba09-0e64f5a7d76f","ios":"levelo://app?vid=9618079e-2ff2-4c22-ba09-0e64f5a7d76f"},"vehicle_type_id":"4","last_reported":1769675237,"current_range_meters":4800,"station_id":"ce4bgl92rcd13ifvqbq0","pricing_plan_id":"cebpf4jnsgd1na2vs0mg"},{"bike_id":"6a36add2-2625-4772-8ab9-818fada0bbe1","system_id":"levelo_inurba_marseille","lat":43.2681,"lon":5.40252,"is_reserved":false,"is_disabled":false,"rental_uris":{"android":"levelo://app?vid=6a36add2-2625-4772-8ab9-818fada0bbe1","ios":"levelo://app?vid=6a36add2-2625-4772-8ab9-818fada0bbe1"},"vehicle_type_id":"4","last_reported":1769675237,"current_range_meters":4800,"station_id":"ce501612rcd8frsf0b60","pricing_plan_id":"cebpf4jnsgd1na2vs0mg"},{"bike_id":"90874d16-f22a-426c-92b8-d209cc44b463","system_id":"levelo_inurba_marseille","lat":43.31166,"lon":5.3872,"is_reserved":false,"is_disabled":false,"rental_uris":{"android":"levelo://app?vid=90874d16-f22a-426c-92b8-d209cc44b463","ios":"levelo://app?vid=90874d16-f22a-426c-92b8-d209cc44b463"},"vehicle_type_id":"4","last_reported":1769675237,"current_range_meters":4800,"station_id":"ce4bgv12rcd13ifvqcp0","pricing_plan_id":"cebpf4jnsgd1na2vs0mg"},{"bike_id":"ca12b7cc-8815-40ae-be57-f808e99266b1","system_id":"levelo_inurba_marseille","lat":43.29018,"lon":5.38132,"is_reserved":false,"is_disabled":false,"rental_uris":{"android":"levelo://app?vid=ca12b7cc-8815-40ae-be57-f808e99266b1","ios":"levelo://app?vid=ca12b7cc-8815-40ae-be57-f808e99266b1"},"vehicle_type_id":"4","last_reported":1769675237,"current_range_meters":4800,"station_id":"ce4bh4p2rcd13ifvqe1g","pricing_plan_id":"cebpf4jnsgd1na2vs0mg"},{"bike_id":"cd630351-18da-48e7-b950-dd365ae506d8","system_id":"levelo_inurba_marseille","lat":43.30337,"lon":5.39198,"is_reserved":false,"is_disabled":false,"rental_uris":{"android":"levelo://app?vid=cd630351-18da-48e7-b950-dd365ae506d8","ios":"levelo://app?vid=cd630351-18da-48e7-b950-dd365ae506d8"},"vehicle_type_id":"4","last_reported":1769675237,"current_range_meters":5600,"station_id":"ce4bgkh2rcd13ifvqbk0","pricing_plan_id":"cebpf4jnsgd1na2vs0mg"},{"bike_id":"895a6ff1-a5ce-4618-a225-c21aa9d2d9fe","system_id":"levelo_inurba_marseille","lat":43.29049,"lon":5.38192,"is_reserved":false,"is_disabled":false,"rental_uris":{"android":"levelo://app?vid=895a6ff1-a5ce-4618-a225-c21aa9d2d9fe","ios":"levelo://app?vid=895a6ff1-a5ce-4618-a225-c21aa9d2d9fe"},"vehicle_type_id":"4","last_reported":1769675237,"current_range_meters":5600,"station_id":"","pricing_plan_id":"cebpf4jnsgd1na2vs0mg"},{"bike_id":"ad760db1-c08e-4218-880f-506e66682432","system_id":"levelo_inurba_marseille","lat":43.29251,"lon":5.37931,"is_reserved":false,"is_disabled":false,"rental_uris":{"android":"levelo://app?vid=ad760db1-c08e-4218-880f-506e66682432","ios":"levelo://app?vid=ad760db1-c08e-4218-880f-506e66682432"},"vehicle_type_id":"4","last_reported":1769675237,"current_range_meters":5600,"station_id":"","pricing_plan_id":"cebpf4jnsgd1na2vs0mg"},{"bike_id":"b45c8d2c-8d88-4cef-8b61-a19c2da1c61e","system_id":"levelo_inurba_marseille","lat":43.33543,"lon":5.3746,"is_reserved":false,"is_disabled":false,"rental_uris":{"android":"levelo://app?vid=b45c8d2c-8d88-4cef-8b61-a19c2da1c61e","ios":"levelo://app?vid=b45c8d2c-8d88-4cef-8b61-a19c2da1c61e"},"vehicle_type_id":"4","last_reported":1769675237,"current_range_meters":5600,"station_id":"st_d46tts09ee8s73dlu43g","pricing_plan_id":"cebpf4jnsgd1na2vs0mg"},{"bike_id":"0393f1bf-344f-45c8-9042-27b39d04c542","system_id":"levelo_inurba_marseille","lat":43.29025,"lon":5.37817,"is_reserved":false,"is_disabled":false,"rental_uris":{"android":"levelo://app?vid=0393f1bf-344f-45c8-9042-27b39d04c542","ios":"levelo://app?vid=0393f1bf-344f-45c8-9042-27b39d04c542"},"vehicle_type_id":"4","last_reported":1769675237,"current_range_meters":5600,"station_id":"","pricing_plan_id":"cebpf4jnsgd1na2vs0mg"},{"bike_id":"a0b868ec-2b45-4930-a5d4-8831d547ffe0","system_id":"levelo_inurba_marseille","lat":43.26368,"lon":5.40139,"is_reserved":false,"is_disabled":false,"rental_uris":{"android":"levelo://app?vid=a0b868ec-2b45-4930-a5d4-8831d547ffe0","ios":"levelo://app?vid=a0b868ec-2b45-4930-a5d4-8831d547ffe0"},"vehicle_type_id":"4","last_reported":1769675237,"current_range_meters":5600,"station_id":"ce4bhqp2rcd13ifvqhng","pricing_plan_id":"cebpf4jnsgd1na2vs0mg"},{"bike_id":"78ca3fa5-5325-4fd9-b6b5-1bb6bd866233","system_id":"levelo_inurba_marseille","lat":43.2623,"lon":5.40431,"is_reserved":false,"is_disabled":false,"rental_uris":{"android":"levelo://app?vid=78ca3fa5-5325-4fd9-b6b5-1bb6bd866233","ios":"levelo://app?vid=78ca3fa5-5325-4fd9-b6b5-1bb6bd866233"},"vehicle_type_id":"4","last_reported":1769675237,"current_range_meters":5600,"station_id":"ce4bhmh2rcd13ifvqgmg","pricing_plan_id":"cebpf4jnsgd1na2vs0mg"},{"bike_id":"14a1029a-e013-47b5-a192-5abfdaad58a8","system_id":"levelo_inurba_marseille","lat":43.29025,"lon":5.39988,"is_reserved":false,"is_disabled":false,"rental_uris":{"android":"levelo://app?vid=14a1029a-e013-47b5-a192-5abfdaad58a8","ios":"levelo://app?vid=14a1029a-e013-47b5-a192-5abfdaad58a8"},"vehicle_type_id":"4","last_reported":1769675237,"current_range_meters":5600,"station_id":"ce4bh392rcd13ifvqdm0","pricing_plan_id":"cebpf4jnsgd1na2vs0mg"},{"bike_id":"a8f63d2c-39d2-449c-95a5-17db81c8856e","system_id":"levelo_inurba_marseille","lat":43.29725,"lon":5.37699,"is_reserved":false,"is_disabled":true,"rental_uris":{"android":"levelo://app?vid=a8f63d2c-39d2-449c-95a5-17db81c8856e","ios":"levelo://app?vid=a8f63d2c-39d2-449c-95a5-17db81c8856e"},"vehicle_type_id":"4","last_reported":1769675237,"current_range_meters":5600,"station_id":"ce4bgkh2rcd13ifvqbl0","pricing_plan_id":"cebpf4jnsgd1na2vs0mg"},{"bike_id":"4cb4d70a-7459-41e3-8f1f-c1b70712658c","system_id":"levelo_inurba_marseille","lat":43.29518,"lon":5.38548,"is_reserved":false,"is_disabled":false,"rental_uris":{"android":"levelo://app?vid=4cb4d70a-7459-41e3-8f1f-c1b70712658c","ios":"levelo://app?vid=4cb4d70a-7459-41e3-8f1f-c1b70712658c"},"vehicle_type_id":"4","last_reported":1769675237,"current_range_meters":5600,"station_id":"ce4bgih2rcd13ifvqba0","pricing_plan_id":"cebpf4jnsgd1na2vs0mg"},{"bike_id":"48c3af51-f3e3-4022-adb7-5a316e69c9bb","system_id":"levelo_inurba_marseille","lat":43.27495,"lon":5.42459,"is_reserved":false,"is_disabled":false,"rental_uris":{"android":"levelo://app?vid=48c3af51-f3e3-4022-adb7-5a316e69c9bb","ios":"levelo://app?vid=48c3af51-f3e3-4022-adb7-5a316e69c9bb"},"vehicle_type_id":"4","last_reported":1769675237,"current_range_meters":5600,"station_id":"ce4bhn92rcd13ifvqgrg","pricing_plan_id":"cebpf4jnsgd1na2vs0mg"},{"bike_id":"6f1b1b8d-23c3-4f4f-88f0-ee5dcfd3fa39","system_id":"levelo_inurba_marseille","lat":43.29166,"lon":5.37152,"is_reserved":false,"is_disabled":false,"rental_uris":{"android":"levelo://app?vid=6f1b1b8d-23c3-4f4f-88f0-ee5dcfd3fa39","ios":"levelo://app?vid=6f1b1b8d-23c3-4f4f-88f0-ee5dcfd3fa39"},"vehicle_type_id":"4","last_reported":1769675237,"current_range_meters":5600,"station_id":"ce4bha92rcd13ifvqeh0","pricing_plan_id":"cebpf4jnsgd1na2vs0mg"},{"bike_id":"3eec611c-d8cb-4b54-9748-ae62ab9ddb70","system_id":"levelo_inurba_marseille","lat":43.22932,"lon":5.35376,"is_reserved":false,"is_disabled":false,"rental_uris":{"android":"levelo://app?vid=3eec611c-d8cb-4b54-9748-ae62ab9ddb70","ios":"levelo://app?vid=3eec611c-d8cb-4b54-9748-ae62ab9ddb70"},"vehicle_type_id":"4","last_reported":1769675237,"current_range_meters":5600,"station_id":"cpo3532slgdg3j2ikp40","pricing_plan_id":"cebpf4jnsgd1na2vs0mg"},{"bike_id":"1045dce1-d956-4d6c-a6f1-00a6eb36293b","system_id":"levelo_inurba_marseille","lat":43.25936,"lon":5.40895,"is_reserved":false,"is_disabled":false,"rental_uris":{"android":"levelo://app?vid=1045dce1-d956-4d6c-a6f1-00a6eb36293b","ios":"levelo://app?vid=1045dce1-d956-4d6c-a6f1-00a6eb36293b"},"vehicle_type_id":"4","last_reported":1769675237,"current_range_meters":5600,"station_id":"ce4bhm92rcd13ifvqglg","pricing_plan_id":"cebpf4jnsgd1na2vs0mg"},{"bike_id":"a8f638c1-c685-4e3a-adf7-3d7a1bc3acf7","system_id":"levelo_inurba_marseille","lat":43.23171,"lon":5.43711,"is_reserved":false,"is_disabled":false,"rental_uris":{"android":"levelo://app?vid=a8f638c1-c685-4e3a-adf7-3d7a1bc3acf7","ios":"levelo://app?vid=a8f638c1-c685-4e3a-adf7-3d7a1bc3acf7"},"vehicle_type_id":"4","last_reported":1769675237,"current_range_meters":5600,"station_id":"ce4bhmp2rcd13ifvqgog","pricing_plan_id":"cebpf4jnsgd1na2vs0mg"},{"bike_id":"ae28ed85-fab7-4df7-9020-68e5f5c8d64e","system_id":"levelo_inurba_marseille","lat":43.29718,"lon":5.3772,"is_reserved":false,"is_disabled":false,"rental_uris":{"android":"levelo://app?vid=ae28ed85-fab7-4df7-9020-68e5f5c8d64e","ios":"levelo://app?vid=ae28ed85-fab7-4df7-9020-68e5f5c8d64e"},"vehicle_type_id":"4","last_reported":1769675237,"current_range_meters":5600,"station_id":"ce4bgkh2rcd13ifvqbl0","pricing_plan_id":"cebpf4jnsgd1na2vs0mg"},{"bike_id":"2f4f1efc-9b0b-42b7-bf32-e22458d006e7","system_id":"levelo_inurba_marseille","lat":43.30911,"lon":5.36863,"is_reserved":false,"is_disabled":false,"rental_uris":{"android":"levelo://app?vid=2f4f1efc-9b0b-42b7-bf32-e22458d006e7","ios":"levelo://app?vid=2f4f1efc-9b0b-42b7-bf32-e22458d006e7"},"vehicle_type_id":"4","last_reported":1769675237,"current_range_meters":6000,"station_id":"ce4bgn92rcd13ifvqbvg","pricing_plan_id":"cebpf4jnsgd1na2vs0mg"},{"bike_id":"e8ca0351-a625-48e9-b7bb-7e535f2705d3","system_id":"levelo_inurba_marseille","lat":43.26783,"lon":5.394168,"is_reserved":false,"is_disabled":false,"rental_uris":{"android":"levelo://app?vid=e8ca0351-a625-48e9-b7bb-7e535f2705d3","ios":"levelo://app?vid=e8ca0351-a625-48e9-b7bb-7e535f2705d3"},"vehicle_type_id":"4","last_reported":1769675237,"current_range_meters":6000,"station_id":"ce4bhh12rcd13ifvqfg0","pricing_plan_id":"cebpf4jnsgd1na2vs0mg"},{"bike_id":"3e6599b3-80f5-4cb4-a947-9865a5671465","system_id":"levelo_inurba_marseille","lat":43.276146,"lon":5.361165,"is_reserved":false,"is_disabled":false,"rental_uris":{"android":"levelo://app?vid=3e6599b3-80f5-4cb4-a947-9865a5671465","ios":"levelo://app?vid=3e6599b3-80f5-4cb4-a947-9865a5671465"},"vehicle_type_id":"4","last_reported":1769675237,"current_range_meters":6000,"station_id":"ce4bgj92rcd13ifvqbe0","pricing_plan_id":"cebpf4jnsgd1na2vs0mg"},{"bike_id":"09586d55-d979-48a3-a25c-b7661056bca6","system_id":"levelo_inurba_marseille","lat":43.26682,"lon":5.38262,"is_reserved":false,"is_disabled":false,"rental_uris":{"android":"levelo://app?vid=09586d55-d979-48a3-a25c-b7661056bca6","ios":"levelo://app?vid=09586d55-d979-48a3-a25c-b7661056bca6"},"vehicle_type_id":"4","last_reported":1769675237,"current_range_meters":6000,"station_id":"ce4bhg92rcd13ifvqf90","pricing_plan_id":"cebpf4jnsgd1na2vs0mg"},{"bike_id":"26642daf-b677-45e5-a99f-57048cec6d60","system_id":"levelo_inurba_marseille","lat":43.24461,"lon":5.42538,"is_reserved":false,"is_disabled":false,"rental_uris":{"android":"levelo://app?vid=26642daf-b677-45e5-a99f-57048cec6d60","ios":"levelo://app?vid=26642daf-b677-45e5-a99f-57048cec6d60"},"vehicle_type_id":"4","last_reported":1769675237,"current_range_meters":6000,"station_id":"st_d4a3vfp97mjs738cd8kg","pricing_plan_id":"cebpf4jnsgd1na2vs0mg"},{"bike_id":"a427dc38-23d3-4de9-bf63-6adbfd6a515b","system_id":"levelo_inurba_marseille","lat":43.29829,"lon":5.39776,"is_reserved":false,"is_disabled":false,"rental_uris":{"android":"levelo://app?vid=a427dc38-23d3-4de9-bf63-6adbfd6a515b","ios":"levelo://app?vid=a427dc38-23d3-4de9-bf63-6adbfd6a515b"},"vehicle_type_id":"4","last_reported":1769675237,"current_range_meters":6000,"station_id":"ce4bh0h2rcd13ifvqd50","pricing_plan_id":"cebpf4jnsgd1na2vs0mg"},{"bike_id":"9e85f69d-091f-4b29-86a6-ef3b54792a1f","system_id":"levelo_inurba_marseille","lat":43.24077,"lon":5.37759,"is_reserved":false,"is_disabled":false,"rental_uris":{"android":"levelo://app?vid=9e85f69d-091f-4b29-86a6-ef3b54792a1f","ios":"levelo://app?vid=9e85f69d-091f-4b29-86a6-ef3b54792a1f"},"vehicle_type_id":"4","last_reported":1769675237,"current_range_meters":6000,"station_id":"ce4bhnp2rcd13ifvqgvg","pricing_plan_id":"cebpf4jnsgd1na2vs0mg"},{"bike_id":"eae72288-1b63-4615-90d3-036b0e9fe89c","system_id":"levelo_inurba_marseille","lat":43.245496,"lon":5.395229,"is_reserved":false,"is_disabled":false,"rental_uris":{"android":"levelo://app?vid=eae72288-1b63-4615-90d3-036b0e9fe89c","ios":"levelo://app?vid=eae72288-1b63-4615-90d3-036b0e9fe89c"},"vehicle_type_id":"4","last_reported":1769675237,"current_range_meters":6000,"station_id":"ce4bhlp2rcd13ifvqgjg","pricing_plan_id":"cebpf4jnsgd1na2vs0mg"},{"bike_id":"029c80a3-52af-443b-bb36-06defcaa362c","system_id":"levelo_inurba_marseille","lat":43.295615,"lon":5.375127,"is_reserved":false,"is_disabled":false,"rental_uris":{"android":"levelo://app?vid=029c80a3-52af-443b-bb36-06defcaa362c","ios":"levelo://app?vid=029c80a3-52af-443b-bb36-06defcaa362c"},"vehicle_type_id":"4","last_reported":1769675237,"current_range_meters":6000,"station_id":"ce4bgh92rcd13ifvqb50","pricing_plan_id":"cebpf4jnsgd1na2vs0mg"},{"bike_id":"adcf69d8-1927-438e-b914-5f915ba575b2","system_id":"levelo_inurba_marseille","lat":43.25568,"lon":5.3824,"is_reserved":false,"is_disabled":false,"rental_uris":{"android":"levelo://app?vid=adcf69d8-1927-438e-b914-5f915ba575b2","ios":"levelo://app?vid=adcf69d8-1927-438e-b914-5f915ba575b2"},"vehicle_type_id":"4","last_reported":1769675237,"current_range_meters":6000,"station_id":"ce4bhih2rcd13ifvqfs0","pricing_plan_id":"cebpf4jnsgd1na2vs0mg"},{"bike_id":"c98b11d0-0520-418d-bfc6-d6149e6ffac9","system_id":"levelo_inurba_marseille","lat":43.284785,"lon":5.483896,"is_reserved":false,"is_disabled":false,"rental_uris":{"android":"levelo://app?vid=c98b11d0-0520-418d-bfc6-d6149e6ffac9","ios":"levelo://app?vid=c98b11d0-0520-418d-bfc6-d6149e6ffac9"},"vehicle_type_id":"4","last_reported":1769675237,"current_range_meters":6000,"station_id":"st_d3svhcjqgbts73a3dn0g","pricing_plan_id":"cebpf4jnsgd1na2vs0mg"},{"bike_id":"79009d73-0523-4c6d-91de-5993a965a866","system_id":"levelo_inurba_marseille","lat":43.25955,"lon":5.40891,"is_reserved":false,"is_disabled":false,"rental_uris":{"android":"levelo://app?vid=79009d73-0523-4c6d-91de-5993a965a866","ios":"levelo://app?vid=79009d73-0523-4c6d-91de-5993a965a866"},"vehicle_type_id":"4","last_reported":1769675237,"current_range_meters":6000,"station_id":"ce4bhm92rcd13ifvqglg","pricing_plan_id":"cebpf4jnsgd1na2vs0mg"},{"bike_id":"bc230eaa-6d54-4e2d-8428-bb3463d83558","system_id":"levelo_inurba_marseille","lat":43.27316,"lon":5.39137,"is_reserved":false,"is_disabled":true,"rental_uris":{"android":"levelo://app?vid=bc230eaa-6d54-4e2d-8428-bb3463d83558","ios":"levelo://app?vid=bc230eaa-6d54-4e2d-8428-bb3463d83558"},"vehicle_type_id":"4","last_reported":1769675237,"current_range_meters":6400,"station_id":"","pricing_plan_id":"cebpf4jnsgd1na2vs0mg"},{"bike_id":"da36e3f4-f391-48da-be2c-e1660715f5f9","system_id":"levelo_inurba_marseille","lat":43.32491,"lon":5.38306,"is_reserved":false,"is_disabled":false,"rental_uris":{"android":"levelo://app?vid=da36e3f4-f391-48da-be2c-e1660715f5f9","ios":"levelo://app?vid=da36e3f4-f391-48da-be2c-e1660715f5f9"},"vehicle_type_id":"4","last_reported":1769675237,"current_range_meters":6400,"station_id":"st_d4asgbiv49dc73anf9m0","pricing_plan_id":"cebpf4jnsgd1na2vs0mg"},{"bike_id":"0c5850f8-016d-4e0b-8ca9-3ae4e72c7220","system_id":"levelo_inurba_marseille","lat":43.317583,"lon":5.39015,"is_reserved":false,"is_disabled":false,"rental_uris":{"android":"levelo://app?vid=0c5850f8-016d-4e0b-8ca9-3ae4e72c7220","ios":"levelo://app?vid=0c5850f8-016d-4e0b-8ca9-3ae4e72c7220"},"vehicle_type_id":"4","last_reported":1769675237,"current_range_meters":6400,"station_id":"ce4bhqp2rcd13ifvqhng","pricing_plan_id":"cebpf4jnsgd1na2vs0mg"},{"bike_id":"96ddcdc4-3d11-47dc-91b3-e1897ae67898","system_id":"levelo_inurba_marseille","lat":43.29528,"lon":5.42288,"is_reserved":false,"is_disabled":false,"rental_uris":{"android":"levelo://app?vid=96ddcdc4-3d11-47dc-91b3-e1897ae67898","ios":"levelo://app?vid=96ddcdc4-3d11-47dc-91b3-e1897ae67898"},"vehicle_type_id":"4","last_reported":1769675237,"current_range_meters":6400,"station_id":"ce4bhph2rcd13ifvqhdg","pricing_plan_id":"cebpf4jnsgd1na2vs0mg"},{"bike_id":"c6d2fb33-3bc6-4a3f-b189-d6c0761b64cb","system_id":"levelo_inurba_marseille","lat":43.27375,"lon":5.39464,"is_reserved":false,"is_disabled":false,"rental_uris":{"android":"levelo://app?vid=c6d2fb33-3bc6-4a3f-b189-d6c0761b64cb","ios":"levelo://app?vid=c6d2fb33-3bc6-4a3f-b189-d6c0761b64cb"},"vehicle_type_id":"4","last_reported":1769675237,"current_range_meters":6400,"station_id":"","pricing_plan_id":"cebpf4jnsgd1na2vs0mg"},{"bike_id":"0dd61424-bf1e-401d-9632-d1489fb3cc66","system_id":"levelo_inurba_marseille","lat":43.321058,"lon":5.367642,"is_reserved":false,"is_disabled":false,"rental_uris":{"android":"levelo://app?vid=0dd61424-bf1e-401d-9632-d1489fb3cc66","ios":"levelo://app?vid=0dd61424-bf1e-401d-9632-d1489fb3cc66"},"vehicle_type_id":"4","last_reported":1769675237,"current_range_meters":6400,"station_id":"ce4bhrh2rcd13ifvqhug","pricing_plan_id":"cebpf4jnsgd1na2vs0mg"},{"bike_id":"c0696abc-372a-454c-bbf6-807b3165d2b0","system_id":"levelo_inurba_marseille","lat":43.23963,"lon":5.36645,"is_reserved":false,"is_disabled":false,"rental_uris":{"android":"levelo://app?vid=c0696abc-372a-454c-bbf6-807b3165d2b0","ios":"levelo://app?vid=c0696abc-372a-454c-bbf6-807b3165d2b0"},"vehicle_type_id":"4","last_reported":1769675237,"current_range_meters":6400,"station_id":"ce4bhi12rcd13ifvqfp0","pricing_plan_id":"cebpf4jnsgd1na2vs0mg"},{"bike_id":"1ffbda22-e3ce-449b-8cf2-1a8499f4ffd7","system_id":"levelo_inurba_marseille","lat":43.26951,"lon":5.38656,"is_reserved":false,"is_disabled":true,"rental_uris":{"android":"levelo://app?vid=1ffbda22-e3ce-449b-8cf2-1a8499f4ffd7","ios":"levelo://app?vid=1ffbda22-e3ce-449b-8cf2-1a8499f4ffd7"},"vehicle_type_id":"4","last_reported":1769675237,"current_range_meters":6400,"station_id":"ce4bhh92rcd13ifvqfh0","pricing_plan_id":"cebpf4jnsgd1na2vs0mg"},{"bike_id":"ec92a3d7-0aaf-40cf-9513-2fb7d35cc0c4","system_id":"levelo_inurba_marseille","lat":43.23055,"lon":5.35498,"is_reserved":false,"is_disabled":false,"rental_uris":{"android":"levelo://app?vid=ec92a3d7-0aaf-40cf-9513-2fb7d35cc0c4","ios":"levelo://app?vid=ec92a3d7-0aaf-40cf-9513-2fb7d35cc0c4"},"vehicle_type_id":"4","last_reported":1769675237,"current_range_meters":6400,"station_id":"cpo3342slgdg3j2ifvpg","pricing_plan_id":"cebpf4jnsgd1na2vs0mg"},{"bike_id":"465c0a07-9b2c-463d-a28f-fb29e821c731","system_id":"levelo_inurba_marseille","lat":43.30272,"lon":5.38722,"is_reserved":false,"is_disabled":false,"rental_uris":{"android":"levelo://app?vid=465c0a07-9b2c-463d-a28f-fb29e821c731","ios":"levelo://app?vid=465c0a07-9b2c-463d-a28f-fb29e821c731"},"vehicle_type_id":"4","last_reported":1769675237,"current_range_meters":6400,"station_id":"","pricing_plan_id":"cebpf4jnsgd1na2vs0mg"},{"bike_id":"db91af1c-8610-46d2-8811-cba210a8ff4f","system_id":"levelo_inurba_marseille","lat":43.33278,"lon":5.37959,"is_reserved":false,"is_disabled":false,"rental_uris":{"android":"levelo://app?vid=db91af1c-8610-46d2-8811-cba210a8ff4f","ios":"levelo://app?vid=db91af1c-8610-46d2-8811-cba210a8ff4f"},"vehicle_type_id":"4","last_reported":1769675237,"current_range_meters":6400,"station_id":"","pricing_plan_id":"cebpf4jnsgd1na2vs0mg"},{"bike_id":"40ba71d9-8bf7-4ba4-bd45-44f5a2866a53","system_id":"levelo_inurba_marseille","lat":43.24543,"lon":5.39538,"is_reserved":false,"is_disabled":true,"rental_uris":{"android":"levelo://app?vid=40ba71d9-8bf7-4ba4-bd45-44f5a2866a53","ios":"levelo://app?vid=40ba71d9-8bf7-4ba4-bd45-44f5a2866a53"},"vehicle_type_id":"4","last_reported":1769675237,"current_range_meters":6400,"station_id":"ce4bhlp2rcd13ifvqgjg","pricing_plan_id":"cebpf4jnsgd1na2vs0mg"},{"bike_id":"ba94ad88-2d86-4f15-a70c-04c6ad4ea30f","system_id":"levelo_inurba_marseille","lat":43.33165,"lon":5.37733,"is_reserved":false,"is_disabled":false,"rental_uris":{"android":"levelo://app?vid=ba94ad88-2d86-4f15-a70c-04c6ad4ea30f","ios":"levelo://app?vid=ba94ad88-2d86-4f15-a70c-04c6ad4ea30f"},"vehicle_type_id":"4","last_reported":1769675237,"current_range_meters":6400,"station_id":"st_d46cu089ee8s73dldbu0","pricing_plan_id":"cebpf4jnsgd1na2vs0mg"},{"bike_id":"c40c7547-57d8-4928-88b4-bbd6e6b01a54","system_id":"levelo_inurba_marseille","lat":43.27412,"lon":5.39416,"is_reserved":false,"is_disabled":false,"rental_uris":{"android":"levelo://app?vid=c40c7547-57d8-4928-88b4-bbd6e6b01a54","ios":"levelo://app?vid=c40c7547-57d8-4928-88b4-bbd6e6b01a54"},"vehicle_type_id":"4","last_reported":1769675237,"current_range_meters":6400,"station_id":"ce4bhdp2rcd13ifvqf20","pricing_plan_id":"cebpf4jnsgd1na2vs0mg"},{"bike_id":"ce3a51ab-f1c3-4c04-b646-bf91553b59b1","system_id":"levelo_inurba_marseille","lat":43.29036,"lon":5.37564,"is_reserved":false,"is_disabled":false,"rental_uris":{"android":"levelo://app?vid=ce3a51ab-f1c3-4c04-b646-bf91553b59b1","ios":"levelo://app?vid=ce3a51ab-f1c3-4c04-b646-bf91553b59b1"},"vehicle_type_id":"4","last_reported":1769675237,"current_range_meters":6400,"station_id":"ce4bh692rcd13ifvqe90","pricing_plan_id":"cebpf4jnsgd1na2vs0mg"},{"bike_id":"b3d64fe2-83cd-4586-bbd5-6d3fc9e2de54","system_id":"levelo_inurba_marseille","lat":43.24178,"lon":5.39727,"is_reserved":false,"is_disabled":false,"rental_uris":{"android":"levelo://app?vid=b3d64fe2-83cd-4586-bbd5-6d3fc9e2de54","ios":"levelo://app?vid=b3d64fe2-83cd-4586-bbd5-6d3fc9e2de54"},"vehicle_type_id":"4","last_reported":1769675237,"current_range_meters":6800,"station_id":"ce4bhn12rcd13ifvqgpg","pricing_plan_id":"cebpf4jnsgd1na2vs0mg"},{"bike_id":"9806da0f-d7e9-4daf-99fc-e3fd22a4da76","system_id":"levelo_inurba_marseille","lat":43.25887,"lon":5.41019,"is_reserved":false,"is_disabled":false,"rental_uris":{"android":"levelo://app?vid=9806da0f-d7e9-4daf-99fc-e3fd22a4da76","ios":"levelo://app?vid=9806da0f-d7e9-4daf-99fc-e3fd22a4da76"},"vehicle_type_id":"4","last_reported":1769675237,"current_range_meters":6800,"station_id":"","pricing_plan_id":"cebpf4jnsgd1na2vs0mg"},{"bike_id":"b595c27a-68a5-4a01-8281-37a9e80f1be4","system_id":"levelo_inurba_marseille","lat":43.23775,"lon":5.36632,"is_reserved":false,"is_disabled":false,"rental_uris":{"android":"levelo://app?vid=b595c27a-68a5-4a01-8281-37a9e80f1be4","ios":"levelo://app?vid=b595c27a-68a5-4a01-8281-37a9e80f1be4"},"vehicle_type_id":"4","last_reported":1769675237,"current_range_meters":6800,"station_id":"st_d3nk18o9ro0c73en2l3g","pricing_plan_id":"cebpf4jnsgd1na2vs0mg"},{"bike_id":"60ebce89-9b49-41d8-b1d5-1fdb022bac99","system_id":"levelo_inurba_marseille","lat":43.336616,"lon":5.373608,"is_reserved":false,"is_disabled":false,"rental_uris":{"android":"levelo://app?vid=60ebce89-9b49-41d8-b1d5-1fdb022bac99","ios":"levelo://app?vid=60ebce89-9b49-41d8-b1d5-1fdb022bac99"},"vehicle_type_id":"4","last_reported":1769675237,"current_range_meters":6800,"station_id":"","pricing_plan_id":"cebpf4jnsgd1na2vs0mg"},{"bike_id":"cf243b3e-2488-429a-87d1-361f66d5c5b5","system_id":"levelo_inurba_marseille","lat":43.2977,"lon":5.37142,"is_reserved":false,"is_disabled":true,"rental_uris":{"android":"levelo://app?vid=cf243b3e-2488-429a-87d1-361f66d5c5b5","ios":"levelo://app?vid=cf243b3e-2488-429a-87d1-361f66d5c5b5"},"vehicle_type_id":"4","last_reported":1769675237,"current_range_meters":6800,"station_id":"ce4bgop2rcd13ifvqc1g","pricing_plan_id":"cebpf4jnsgd1na2vs0mg"},{"bike_id":"34f2a8a0-e95e-4e52-9ac9-2fcd111eb2e2","system_id":"levelo_inurba_marseille","lat":43.26678,"lon":5.38267,"is_reserved":false,"is_disabled":false,"rental_uris":{"android":"levelo://app?vid=34f2a8a0-e95e-4e52-9ac9-2fcd111eb2e2","ios":"levelo://app?vid=34f2a8a0-e95e-4e52-9ac9-2fcd111eb2e2"},"vehicle_type_id":"4","last_reported":1769675237,"current_range_meters":6800,"station_id":"ce4bhg92rcd13ifvqf90","pricing_plan_id":"cebpf4jnsgd1na2vs0mg"},{"bike_id":"1c8c849d-1cb3-4d0a-ac51-77f8c235afb9","system_id":"levelo_inurba_marseille","lat":43.25938,"lon":5.40901,"is_reserved":false,"is_disabled":false,"rental_uris":{"android":"levelo://app?vid=1c8c849d-1cb3-4d0a-ac51-77f8c235afb9","ios":"levelo://app?vid=1c8c849d-1cb3-4d0a-ac51-77f8c235afb9"},"vehicle_type_id":"4","last_reported":1769675237,"current_range_meters":6800,"station_id":"ce4bhm92rcd13ifvqglg","pricing_plan_id":"cebpf4jnsgd1na2vs0mg"},{"bike_id":"493b0019-fa38-4cb9-ae4e-0650edf0c22d","system_id":"levelo_inurba_marseille","lat":43.24194,"lon":5.39767,"is_reserved":false,"is_disabled":false,"rental_uris":{"android":"levelo://app?vid=493b0019-fa38-4cb9-ae4e-0650edf0c22d","ios":"levelo://app?vid=493b0019-fa38-4cb9-ae4e-0650edf0c22d"},"vehicle_type_id":"4","last_reported":1769675237,"current_range_meters":6800,"station_id":"ce4bhn12rcd13ifvqgpg","pricing_plan_id":"cebpf4jnsgd1na2vs0mg"},{"bike_id":"802f6e05-7249-407a-aac4-32d2041628b8","system_id":"levelo_inurba_marseille","lat":43.23051,"lon":5.35506,"is_reserved":false,"is_disabled":false,"rental_uris":{"android":"levelo://app?vid=802f6e05-7249-407a-aac4-32d2041628b8","ios":"levelo://app?vid=802f6e05-7249-407a-aac4-32d2041628b8"},"vehicle_type_id":"4","last_reported":1769675237,"current_range_meters":6800,"station_id":"cpo3342slgdg3j2ifvpg","pricing_plan_id":"cebpf4jnsgd1na2vs0mg"},{"bike_id":"2091fd8b-82ef-4338-9ed3-42b40b6b35f0","system_id":"levelo_inurba_marseille","lat":43.30356,"lon":5.38059,"is_reserved":false,"is_disabled":false,"rental_uris":{"android":"levelo://app?vid=2091fd8b-82ef-4338-9ed3-42b40b6b35f0","ios":"levelo://app?vid=2091fd8b-82ef-4338-9ed3-42b40b6b35f0"},"vehicle_type_id":"4","last_reported":1769675237,"current_range_meters":6800,"station_id":"","pricing_plan_id":"cebpf4jnsgd1na2vs0mg"},{"bike_id":"32e71fc4-e929-4075-822f-a95a396e66d2","system_id":"levelo_inurba_marseille","lat":43.31353,"lon":5.36716,"is_reserved":false,"is_disabled":false,"rental_uris":{"android":"levelo://app?vid=32e71fc4-e929-4075-822f-a95a396e66d2","ios":"levelo://app?vid=32e71fc4-e929-4075-822f-a95a396e66d2"},"vehicle_type_id":"4","last_reported":1769675237,"current_range_meters":6800,"station_id":"ce4bgr92rcd13ifvqc6g","pricing_plan_id":"cebpf4jnsgd1na2vs0mg"},{"bike_id":"4a79be4b-7873-47e9-a1f7-a2ab2806fc60","system_id":"levelo_inurba_marseille","lat":43.25719,"lon":5.41115,"is_reserved":false,"is_disabled":false,"rental_uris":{"android":"levelo://app?vid=4a79be4b-7873-47e9-a1f7-a2ab2806fc60","ios":"levelo://app?vid=4a79be4b-7873-47e9-a1f7-a2ab2806fc60"},"vehicle_type_id":"4","last_reported":1769675237,"current_range_meters":6800,"station_id":"ce4bhkp2rcd13ifvqgd0","pricing_plan_id":"cebpf4jnsgd1na2vs0mg"},{"bike_id":"4531e977-81b8-4d1c-b402-1cacbdf2121c","system_id":"levelo_inurba_marseille","lat":43.29051,"lon":5.39942,"is_reserved":false,"is_disabled":false,"rental_uris":{"android":"levelo://app?vid=4531e977-81b8-4d1c-b402-1cacbdf2121c","ios":"levelo://app?vid=4531e977-81b8-4d1c-b402-1cacbdf2121c"},"vehicle_type_id":"4","last_reported":1769675237,"current_range_meters":6800,"station_id":"ce4bh392rcd13ifvqdm0","pricing_plan_id":"cebpf4jnsgd1na2vs0mg"},{"bike_id":"b96775b7-8954-4f94-990f-968813344c58","system_id":"levelo_inurba_marseille","lat":43.31274,"lon":5.37813,"is_reserved":false,"is_disabled":false,"rental_uris":{"android":"levelo://app?vid=b96775b7-8954-4f94-990f-968813344c58","ios":"levelo://app?vid=b96775b7-8954-4f94-990f-968813344c58"},"vehicle_type_id":"4","last_reported":1769675237,"current_range_meters":6800,"station_id":"","pricing_plan_id":"cebpf4jnsgd1na2vs0mg"},{"bike_id":"83d96df5-081e-43ee-952b-92a2b06f6540","system_id":"levelo_inurba_marseille","lat":43.24454,"lon":5.38025,"is_reserved":false,"is_disabled":false,"rental_uris":{"android":"levelo://app?vid=83d96df5-081e-43ee-952b-92a2b06f6540","ios":"levelo://app?vid=83d96df5-081e-43ee-952b-92a2b06f6540"},"vehicle_type_id":"4","last_reported":1769675237,"current_range_meters":6800,"station_id":"","pricing_plan_id":"cebpf4jnsgd1na2vs0mg"},{"bike_id":"cc334b6c-2a6a-49b5-95b4-5cc3094e336f","system_id":"levelo_inurba_marseille","lat":43.28712,"lon":5.3793,"is_reserved":false,"is_disabled":false,"rental_uris":{"android":"levelo://app?vid=cc334b6c-2a6a-49b5-95b4-5cc3094e336f","ios":"levelo://app?vid=cc334b6c-2a6a-49b5-95b4-5cc3094e336f"},"vehicle_type_id":"4","last_reported":1769675237,"current_range_meters":6800,"station_id":"ce4bh9p2rcd13ifvqec0","pricing_plan_id":"cebpf4jnsgd1na2vs0mg"},{"bike_id":"b832276f-e88a-4ccb-9e43-277713f202f2","system_id":"levelo_inurba_marseille","lat":43.32366,"lon":5.38868,"is_reserved":false,"is_disabled":false,"rental_uris":{"android":"levelo://app?vid=b832276f-e88a-4ccb-9e43-277713f202f2","ios":"levelo://app?vid=b832276f-e88a-4ccb-9e43-277713f202f2"},"vehicle_type_id":"4","last_reported":1769675237,"current_range_meters":6800,"station_id":"ce4bhqp2rcd13ifvqhog","pricing_plan_id":"cebpf4jnsgd1na2vs0mg"},{"bike_id":"a89bdadf-8855-40f2-afbd-3e7c167e2483","system_id":"levelo_inurba_marseille","lat":43.30144,"lon":5.38101,"is_reserved":false,"is_disabled":false,"rental_uris":{"android":"levelo://app?vid=a89bdadf-8855-40f2-afbd-3e7c167e2483","ios":"levelo://app?vid=a89bdadf-8855-40f2-afbd-3e7c167e2483"},"vehicle_type_id":"4","last_reported":1769675237,"current_range_meters":6800,"station_id":"ce4bgjp2rcd13ifvqbh0","pricing_plan_id":"cebpf4jnsgd1na2vs0mg"},{"bike_id":"c3c6dc8f-bef4-4889-a182-29d2342f41e7","system_id":"levelo_inurba_marseille","lat":43.29022,"lon":5.3814,"is_reserved":false,"is_disabled":false,"rental_uris":{"android":"levelo://app?vid=c3c6dc8f-bef4-4889-a182-29d2342f41e7","ios":"levelo://app?vid=c3c6dc8f-bef4-4889-a182-29d2342f41e7"},"vehicle_type_id":"4","last_reported":1769675237,"current_range_meters":7200,"station_id":"ce4bh4p2rcd13ifvqe1g","pricing_plan_id":"cebpf4jnsgd1na2vs0mg"},{"bike_id":"29e658f4-2359-46f1-90c1-df0499696a70","system_id":"levelo_inurba_marseille","lat":43.30133,"lon":5.43123,"is_reserved":false,"is_disabled":false,"rental_uris":{"android":"levelo://app?vid=29e658f4-2359-46f1-90c1-df0499696a70","ios":"levelo://app?vid=29e658f4-2359-46f1-90c1-df0499696a70"},"vehicle_type_id":"4","last_reported":1769675237,"current_range_meters":7200,"station_id":"st_d3js3co5814s73ftftug","pricing_plan_id":"cebpf4jnsgd1na2vs0mg"},{"bike_id":"0f0e3ad5-adf0-49dd-bac7-a2c7ac77eeaf","system_id":"levelo_inurba_marseille","lat":43.26191,"lon":5.40462,"is_reserved":false,"is_disabled":false,"rental_uris":{"android":"levelo://app?vid=0f0e3ad5-adf0-49dd-bac7-a2c7ac77eeaf","ios":"levelo://app?vid=0f0e3ad5-adf0-49dd-bac7-a2c7ac77eeaf"},"vehicle_type_id":"4","last_reported":1769675237,"current_range_meters":7200,"station_id":"ce4bhmh2rcd13ifvqgmg","pricing_plan_id":"cebpf4jnsgd1na2vs0mg"},{"bike_id":"be7a4d7e-1984-4b23-8b92-0f9bbe591f55","system_id":"levelo_inurba_marseille","lat":43.28879,"lon":5.4253,"is_reserved":false,"is_disabled":false,"rental_uris":{"android":"levelo://app?vid=be7a4d7e-1984-4b23-8b92-0f9bbe591f55","ios":"levelo://app?vid=be7a4d7e-1984-4b23-8b92-0f9bbe591f55"},"vehicle_type_id":"4","last_reported":1769675237,"current_range_meters":7200,"station_id":"st_d3b462108ojc7389ooeg","pricing_plan_id":"cebpf4jnsgd1na2vs0mg"},{"bike_id":"eda9c3ae-7ccd-46bc-ad2e-bc5c85d71baa","system_id":"levelo_inurba_marseille","lat":43.27484,"lon":5.42506,"is_reserved":false,"is_disabled":false,"rental_uris":{"android":"levelo://app?vid=eda9c3ae-7ccd-46bc-ad2e-bc5c85d71baa","ios":"levelo://app?vid=eda9c3ae-7ccd-46bc-ad2e-bc5c85d71baa"},"vehicle_type_id":"4","last_reported":1769675237,"current_range_meters":7200,"station_id":"ce4bhn92rcd13ifvqgrg","pricing_plan_id":"cebpf4jnsgd1na2vs0mg"},{"bike_id":"8cd6ecf2-6993-45bf-aba8-304a892cdc0f","system_id":"levelo_inurba_marseille","lat":43.30957,"lon":5.39036,"is_reserved":false,"is_disabled":false,"rental_uris":{"android":"levelo://app?vid=8cd6ecf2-6993-45bf-aba8-304a892cdc0f","ios":"levelo://app?vid=8cd6ecf2-6993-45bf-aba8-304a892cdc0f"},"vehicle_type_id":"4","last_reported":1769675237,"current_range_meters":7200,"station_id":"ce4bgup2rcd13ifvqco0","pricing_plan_id":"cebpf4jnsgd1na2vs0mg"},{"bike_id":"85b1b1e1-c458-4711-86a6-2ddb2584b733","system_id":"levelo_inurba_marseille","lat":43.33563,"lon":5.37487,"is_reserved":false,"is_disabled":false,"rental_uris":{"android":"levelo://app?vid=85b1b1e1-c458-4711-86a6-2ddb2584b733","ios":"levelo://app?vid=85b1b1e1-c458-4711-86a6-2ddb2584b733"},"vehicle_type_id":"4","last_reported":1769675237,"current_range_meters":7200,"station_id":"st_d46tts09ee8s73dlu43g","pricing_plan_id":"cebpf4jnsgd1na2vs0mg"},{"bike_id":"3d405854-a3e9-4cc4-bcac-5ce2eff49e57","system_id":"levelo_inurba_marseille","lat":43.23185,"lon":5.39985,"is_reserved":false,"is_disabled":false,"rental_uris":{"android":"levelo://app?vid=3d405854-a3e9-4cc4-bcac-5ce2eff49e57","ios":"levelo://app?vid=3d405854-a3e9-4cc4-bcac-5ce2eff49e57"},"vehicle_type_id":"4","last_reported":1769675237,"current_range_meters":7200,"station_id":"ce4bhn12rcd13ifvqgqg","pricing_plan_id":"cebpf4jnsgd1na2vs0mg"},{"bike_id":"d6347785-7f4b-4520-b64a-bf5bb0e98944","system_id":"levelo_inurba_marseille","lat":43.25022,"lon":5.38897,"is_reserved":false,"is_disabled":false,"rental_uris":{"android":"levelo://app?vid=d6347785-7f4b-4520-b64a-bf5bb0e98944","ios":"levelo://app?vid=d6347785-7f4b-4520-b64a-bf5bb0e98944"},"vehicle_type_id":"4","last_reported":1769675237,"current_range_meters":7200,"station_id":"ce4bhgp2rcd13ifvqfd0","pricing_plan_id":"cebpf4jnsgd1na2vs0mg"},{"bike_id":"a1adbbcc-56be-41a6-a560-f4a5e4282b51","system_id":"levelo_inurba_marseille","lat":43.28404,"lon":5.34989,"is_reserved":false,"is_disabled":false,"rental_uris":{"android":"levelo://app?vid=a1adbbcc-56be-41a6-a560-f4a5e4282b51","ios":"levelo://app?vid=a1adbbcc-56be-41a6-a560-f4a5e4282b51"},"vehicle_type_id":"4","last_reported":1769675237,"current_range_meters":7200,"station_id":"ce4bhbh2rcd13ifvqepg","pricing_plan_id":"cebpf4jnsgd1na2vs0mg"},{"bike_id":"8c50cc1b-6957-4db2-9b96-76d9d37bac03","system_id":"levelo_inurba_marseille","lat":43.2257,"lon":5.41641,"is_reserved":false,"is_disabled":false,"rental_uris":{"android":"levelo://app?vid=8c50cc1b-6957-4db2-9b96-76d9d37bac03","ios":"levelo://app?vid=8c50cc1b-6957-4db2-9b96-76d9d37bac03"},"vehicle_type_id":"4","last_reported":1769675237,"current_range_meters":7200,"station_id":"st_d2o4gvlbi1j2169b742g","pricing_plan_id":"cebpf4jnsgd1na2vs0mg"},{"bike_id":"65acf627-cf1b-4d50-950d-139ba4fe7e7b","system_id":"levelo_inurba_marseille","lat":43.28149,"lon":5.42648,"is_reserved":false,"is_disabled":false,"rental_uris":{"android":"levelo://app?vid=65acf627-cf1b-4d50-950d-139ba4fe7e7b","ios":"levelo://app?vid=65acf627-cf1b-4d50-950d-139ba4fe7e7b"},"vehicle_type_id":"4","last_reported":1769675237,"current_range_meters":7200,"station_id":"ce4bhnh2rcd13ifvqgug","pricing_plan_id":"cebpf4jnsgd1na2vs0mg"},{"bike_id":"ac605ac9-20fd-41ab-b16b-356ba124b9b7","system_id":"levelo_inurba_marseille","lat":43.27218,"lon":5.42836,"is_reserved":false,"is_disabled":false,"rental_uris":{"android":"levelo://app?vid=ac605ac9-20fd-41ab-b16b-356ba124b9b7","ios":"levelo://app?vid=ac605ac9-20fd-41ab-b16b-356ba124b9b7"},"vehicle_type_id":"4","last_reported":1769675237,"current_range_meters":7200,"station_id":"","pricing_plan_id":"cebpf4jnsgd1na2vs0mg"},{"bike_id":"74b115d5-a1d9-4b50-9b60-fc2ba9062651","system_id":"levelo_inurba_marseille","lat":43.29898,"lon":5.38147,"is_reserved":false,"is_disabled":false,"rental_uris":{"android":"levelo://app?vid=74b115d5-a1d9-4b50-9b60-fc2ba9062651","ios":"levelo://app?vid=74b115d5-a1d9-4b50-9b60-fc2ba9062651"},"vehicle_type_id":"4","last_reported":1769675237,"current_range_meters":7200,"station_id":"ce4bgj12rcd13ifvqbc0","pricing_plan_id":"cebpf4jnsgd1na2vs0mg"},{"bike_id":"96f3c448-2c45-4356-81ba-02ce0a5255bc","system_id":"levelo_inurba_marseille","lat":43.28468,"lon":5.35892,"is_reserved":false,"is_disabled":false,"rental_uris":{"android":"levelo://app?vid=96f3c448-2c45-4356-81ba-02ce0a5255bc","ios":"levelo://app?vid=96f3c448-2c45-4356-81ba-02ce0a5255bc"},"vehicle_type_id":"4","last_reported":1769675237,"current_range_meters":7200,"station_id":"ce4bhah2rcd13ifvqei0","pricing_plan_id":"cebpf4jnsgd1na2vs0mg"},{"bike_id":"cef89498-fbf9-4ad5-afa6-46a5eea10249","system_id":"levelo_inurba_marseille","lat":43.27333,"lon":5.40966,"is_reserved":false,"is_disabled":false,"rental_uris":{"android":"levelo://app?vid=cef89498-fbf9-4ad5-afa6-46a5eea10249","ios":"levelo://app?vid=cef89498-fbf9-4ad5-afa6-46a5eea10249"},"vehicle_type_id":"4","last_reported":1769675237,"current_range_meters":7200,"station_id":"","pricing_plan_id":"cebpf4jnsgd1na2vs0mg"},{"bike_id":"84ec7476-68b1-4a51-b1e3-6fc3f735a5c4","system_id":"levelo_inurba_marseille","lat":43.25818,"lon":5.39437,"is_reserved":false,"is_disabled":false,"rental_uris":{"android":"levelo://app?vid=84ec7476-68b1-4a51-b1e3-6fc3f735a5c4","ios":"levelo://app?vid=84ec7476-68b1-4a51-b1e3-6fc3f735a5c4"},"vehicle_type_id":"4","last_reported":1769675237,"current_range_meters":8000,"station_id":"ce4bhip2rcd13ifvqft0","pricing_plan_id":"cebpf4jnsgd1na2vs0mg"},{"bike_id":"91d5b206-dc4e-44f7-b650-6a661ac611bd","system_id":"levelo_inurba_marseille","lat":43.28615,"lon":5.35107,"is_reserved":false,"is_disabled":false,"rental_uris":{"android":"levelo://app?vid=91d5b206-dc4e-44f7-b650-6a661ac611bd","ios":"levelo://app?vid=91d5b206-dc4e-44f7-b650-6a661ac611bd"},"vehicle_type_id":"4","last_reported":1769675237,"current_range_meters":8000,"station_id":"ce4bhch2rcd13ifvqeug","pricing_plan_id":"cebpf4jnsgd1na2vs0mg"},{"bike_id":"30d272d6-cf1b-4089-b738-2811a9999ed2","system_id":"levelo_inurba_marseille","lat":43.2976,"lon":5.3768,"is_reserved":false,"is_disabled":false,"rental_uris":{"android":"levelo://app?vid=30d272d6-cf1b-4089-b738-2811a9999ed2","ios":"levelo://app?vid=30d272d6-cf1b-4089-b738-2811a9999ed2"},"vehicle_type_id":"4","last_reported":1769675237,"current_range_meters":8000,"station_id":"","pricing_plan_id":"cebpf4jnsgd1na2vs0mg"},{"bike_id":"30de5438-ad94-49f7-b24f-53bb0231f073","system_id":"levelo_inurba_marseille","lat":43.29038,"lon":5.39955,"is_reserved":false,"is_disabled":false,"rental_uris":{"android":"levelo://app?vid=30de5438-ad94-49f7-b24f-53bb0231f073","ios":"levelo://app?vid=30de5438-ad94-49f7-b24f-53bb0231f073"},"vehicle_type_id":"4","last_reported":1769675237,"current_range_meters":8000,"station_id":"ce4bh392rcd13ifvqdm0","pricing_plan_id":"cebpf4jnsgd1na2vs0mg"},{"bike_id":"e44d6c0d-4cdc-487c-87b1-e5cf7cd1bdd8","system_id":"levelo_inurba_marseille","lat":43.27693,"lon":5.38868,"is_reserved":false,"is_disabled":false,"rental_uris":{"android":"levelo://app?vid=e44d6c0d-4cdc-487c-87b1-e5cf7cd1bdd8","ios":"levelo://app?vid=e44d6c0d-4cdc-487c-87b1-e5cf7cd1bdd8"},"vehicle_type_id":"4","last_reported":1769675237,"current_range_meters":8000,"station_id":"ce4bhi12rcd13ifvqfo0","pricing_plan_id":"cebpf4jnsgd1na2vs0mg"},{"bike_id":"bb6db0b0-a7e3-42a8-992e-e2e55dc89d52","system_id":"levelo_inurba_marseille","lat":43.331613,"lon":5.376857,"is_reserved":false,"is_disabled":false,"rental_uris":{"android":"levelo://app?vid=bb6db0b0-a7e3-42a8-992e-e2e55dc89d52","ios":"levelo://app?vid=bb6db0b0-a7e3-42a8-992e-e2e55dc89d52"},"vehicle_type_id":"4","last_reported":1769675237,"current_range_meters":8000,"station_id":"st_d46cu089ee8s73dldbu0","pricing_plan_id":"cebpf4jnsgd1na2vs0mg"},{"bike_id":"cfe3a6dd-a211-4abb-80dc-8311ecf0e5e7","system_id":"levelo_inurba_marseille","lat":43.23161,"lon":5.43716,"is_reserved":false,"is_disabled":false,"rental_uris":{"android":"levelo://app?vid=cfe3a6dd-a211-4abb-80dc-8311ecf0e5e7","ios":"levelo://app?vid=cfe3a6dd-a211-4abb-80dc-8311ecf0e5e7"},"vehicle_type_id":"4","last_reported":1769675237,"current_range_meters":8000,"station_id":"ce4bhmp2rcd13ifvqgog","pricing_plan_id":"cebpf4jnsgd1na2vs0mg"},{"bike_id":"28cd6432-28f1-438b-a9b2-6f9b8c869b47","system_id":"levelo_inurba_marseille","lat":43.309364,"lon":5.390188,"is_reserved":false,"is_disabled":false,"rental_uris":{"android":"levelo://app?vid=28cd6432-28f1-438b-a9b2-6f9b8c869b47","ios":"levelo://app?vid=28cd6432-28f1-438b-a9b2-6f9b8c869b47"},"vehicle_type_id":"4","last_reported":1769675237,"current_range_meters":8000,"station_id":"ce4bgup2rcd13ifvqco0","pricing_plan_id":"cebpf4jnsgd1na2vs0mg"},{"bike_id":"65eb5cb0-a6f7-4de3-a9be-a5e0a4386045","system_id":"levelo_inurba_marseille","lat":43.33158,"lon":5.37707,"is_reserved":false,"is_disabled":false,"rental_uris":{"android":"levelo://app?vid=65eb5cb0-a6f7-4de3-a9be-a5e0a4386045","ios":"levelo://app?vid=65eb5cb0-a6f7-4de3-a9be-a5e0a4386045"},"vehicle_type_id":"4","last_reported":1769675237,"current_range_meters":8000,"station_id":"st_d46cu089ee8s73dldbu0","pricing_plan_id":"cebpf4jnsgd1na2vs0mg"},{"bike_id":"8252e483-8cd2-4e1f-8159-245c555c915e","system_id":"levelo_inurba_marseille","lat":43.22931,"lon":5.35377,"is_reserved":false,"is_disabled":false,"rental_uris":{"android":"levelo://app?vid=8252e483-8cd2-4e1f-8159-245c555c915e","ios":"levelo://app?vid=8252e483-8cd2-4e1f-8159-245c555c915e"},"vehicle_type_id":"4","last_reported":1769675237,"current_range_meters":8000,"station_id":"cpo3532slgdg3j2ikp40","pricing_plan_id":"cebpf4jnsgd1na2vs0mg"},{"bike_id":"d760a9b3-0646-48a8-bb88-906c83ef223a","system_id":"levelo_inurba_marseille","lat":43.24178,"lon":5.39728,"is_reserved":false,"is_disabled":false,"rental_uris":{"android":"levelo://app?vid=d760a9b3-0646-48a8-bb88-906c83ef223a","ios":"levelo://app?vid=d760a9b3-0646-48a8-bb88-906c83ef223a"},"vehicle_type_id":"4","last_reported":1769675237,"current_range_meters":8000,"station_id":"ce4bhn12rcd13ifvqgpg","pricing_plan_id":"cebpf4jnsgd1na2vs0mg"},{"bike_id":"e236f0a6-2e87-48ed-94ce-e49f696f4842","system_id":"levelo_inurba_marseille","lat":43.26598,"lon":5.37506,"is_reserved":false,"is_disabled":false,"rental_uris":{"android":"levelo://app?vid=e236f0a6-2e87-48ed-94ce-e49f696f4842","ios":"levelo://app?vid=e236f0a6-2e87-48ed-94ce-e49f696f4842"},"vehicle_type_id":"4","last_reported":1769675237,"current_range_meters":8000,"station_id":"","pricing_plan_id":"cebpf4jnsgd1na2vs0mg"},{"bike_id":"3d61244e-0dde-42a1-8efa-05e556593c38","system_id":"levelo_inurba_marseille","lat":43.22576,"lon":5.41625,"is_reserved":false,"is_disabled":false,"rental_uris":{"android":"levelo://app?vid=3d61244e-0dde-42a1-8efa-05e556593c38","ios":"levelo://app?vid=3d61244e-0dde-42a1-8efa-05e556593c38"},"vehicle_type_id":"4","last_reported":1769675237,"current_range_meters":8000,"station_id":"st_d2o4gvlbi1j2169b742g","pricing_plan_id":"cebpf4jnsgd1na2vs0mg"},{"bike_id":"117dbdde-286a-4849-9317-cb6577972066","system_id":"levelo_inurba_marseille","lat":43.29528,"lon":5.37506,"is_reserved":false,"is_disabled":false,"rental_uris":{"android":"levelo://app?vid=117dbdde-286a-4849-9317-cb6577972066","ios":"levelo://app?vid=117dbdde-286a-4849-9317-cb6577972066"},"vehicle_type_id":"4","last_reported":1769675237,"current_range_meters":8000,"station_id":"ce4bgkp2rcd13ifvqbmg","pricing_plan_id":"cebpf4jnsgd1na2vs0mg"},{"bike_id":"7f2a3fad-d23a-48fd-bd3a-71779c7146ad","system_id":"levelo_inurba_marseille","lat":43.28222,"lon":5.39062,"is_reserved":false,"is_disabled":false,"rental_uris":{"android":"levelo://app?vid=7f2a3fad-d23a-48fd-bd3a-71779c7146ad","ios":"levelo://app?vid=7f2a3fad-d23a-48fd-bd3a-71779c7146ad"},"vehicle_type_id":"4","last_reported":1769675237,"current_range_meters":8000,"station_id":"ce4bhn92rcd13ifvqgsg","pricing_plan_id":"cebpf4jnsgd1na2vs0mg"},{"bike_id":"39ce936d-a259-48fc-ad2d-5b0d2f2834c1","system_id":"levelo_inurba_marseille","lat":43.337444,"lon":5.374475,"is_reserved":false,"is_disabled":false,"rental_uris":{"android":"levelo://app?vid=39ce936d-a259-48fc-ad2d-5b0d2f2834c1","ios":"levelo://app?vid=39ce936d-a259-48fc-ad2d-5b0d2f2834c1"},"vehicle_type_id":"4","last_reported":1769675237,"current_range_meters":8000,"station_id":"","pricing_plan_id":"cebpf4jnsgd1na2vs0mg"},{"bike_id":"c336219b-0783-4962-9516-65bf9cde20a8","system_id":"levelo_inurba_marseille","lat":43.28153,"lon":5.42648,"is_reserved":false,"is_disabled":false,"rental_uris":{"android":"levelo://app?vid=c336219b-0783-4962-9516-65bf9cde20a8","ios":"levelo://app?vid=c336219b-0783-4962-9516-65bf9cde20a8"},"vehicle_type_id":"4","last_reported":1769675237,"current_range_meters":8000,"station_id":"ce4bhnh2rcd13ifvqgug","pricing_plan_id":"cebpf4jnsgd1na2vs0mg"},{"bike_id":"d414af3d-b007-4036-a0cc-e85e14f9c75e","system_id":"levelo_inurba_marseille","lat":43.29034,"lon":5.37558,"is_reserved":false,"is_disabled":false,"rental_uris":{"android":"levelo://app?vid=d414af3d-b007-4036-a0cc-e85e14f9c75e","ios":"levelo://app?vid=d414af3d-b007-4036-a0cc-e85e14f9c75e"},"vehicle_type_id":"4","last_reported":1769675237,"current_range_meters":8000,"station_id":"ce4bh692rcd13ifvqe90","pricing_plan_id":"cebpf4jnsgd1na2vs0mg"},{"bike_id":"51e33b43-0b63-43c6-8dbf-365699605da8","system_id":"levelo_inurba_marseille","lat":43.26987,"lon":5.39849,"is_reserved":false,"is_disabled":false,"rental_uris":{"android":"levelo://app?vid=51e33b43-0b63-43c6-8dbf-365699605da8","ios":"levelo://app?vid=51e33b43-0b63-43c6-8dbf-365699605da8"},"vehicle_type_id":"4","last_reported":1769675237,"current_range_meters":8000,"station_id":"","pricing_plan_id":"cebpf4jnsgd1na2vs0mg"},{"bike_id":"ae2bd00b-86f2-42b9-8e4e-3fa74e019d82","system_id":"levelo_inurba_marseille","lat":43.23187,"lon":5.39977,"is_reserved":false,"is_disabled":false,"rental_uris":{"android":"levelo://app?vid=ae2bd00b-86f2-42b9-8e4e-3fa74e019d82","ios":"levelo://app?vid=ae2bd00b-86f2-42b9-8e4e-3fa74e019d82"},"vehicle_type_id":"4","last_reported":1769675237,"current_range_meters":8000,"station_id":"ce4bhn12rcd13ifvqgqg","pricing_plan_id":"cebpf4jnsgd1na2vs0mg"},{"bike_id":"f3a64c65-4a5a-4fd3-971b-1b35de978008","system_id":"levelo_inurba_marseille","lat":43.27563,"lon":5.3844,"is_reserved":false,"is_disabled":true,"rental_uris":{"android":"levelo://app?vid=f3a64c65-4a5a-4fd3-971b-1b35de978008","ios":"levelo://app?vid=f3a64c65-4a5a-4fd3-971b-1b35de978008"},"vehicle_type_id":"4","last_reported":1769675237,"current_range_meters":8000,"station_id":"ce4bhh92rcd13ifvqfi0","pricing_plan_id":"cebpf4jnsgd1na2vs0mg"},{"bike_id":"f4b1aa15-0619-416f-92d9-e23dfb876864","system_id":"levelo_inurba_marseille","lat":43.30148,"lon":5.3809,"is_reserved":false,"is_disabled":false,"rental_uris":{"android":"levelo://app?vid=f4b1aa15-0619-416f-92d9-e23dfb876864","ios":"levelo://app?vid=f4b1aa15-0619-416f-92d9-e23dfb876864"},"vehicle_type_id":"4","last_reported":1769675237,"current_range_meters":8000,"station_id":"ce4bgjp2rcd13ifvqbh0","pricing_plan_id":"cebpf4jnsgd1na2vs0mg"},{"bike_id":"e322fbc1-ba7d-4452-9d08-bc1a4a79174e","system_id":"levelo_inurba_marseille","lat":43.23147,"lon":5.43731,"is_reserved":false,"is_disabled":false,"rental_uris":{"android":"levelo://app?vid=e322fbc1-ba7d-4452-9d08-bc1a4a79174e","ios":"levelo://app?vid=e322fbc1-ba7d-4452-9d08-bc1a4a79174e"},"vehicle_type_id":"4","last_reported":1769675237,"current_range_meters":8000,"station_id":"ce4bhmp2rcd13ifvqgog","pricing_plan_id":"cebpf4jnsgd1na2vs0mg"},{"bike_id":"1bfe2930-bdb0-4422-9fe9-421cffed6f81","system_id":"levelo_inurba_marseille","lat":43.25909,"lon":5.40882,"is_reserved":false,"is_disabled":false,"rental_uris":{"android":"levelo://app?vid=1bfe2930-bdb0-4422-9fe9-421cffed6f81","ios":"levelo://app?vid=1bfe2930-bdb0-4422-9fe9-421cffed6f81"},"vehicle_type_id":"4","last_reported":1769675237,"current_range_meters":8000,"station_id":"ce4bhm92rcd13ifvqglg","pricing_plan_id":"cebpf4jnsgd1na2vs0mg"},{"bike_id":"626f2e49-da66-4aca-b419-36ccc5e515c3","system_id":"levelo_inurba_marseille","lat":43.24627,"lon":5.43141,"is_reserved":false,"is_disabled":false,"rental_uris":{"android":"levelo://app?vid=626f2e49-da66-4aca-b419-36ccc5e515c3","ios":"levelo://app?vid=626f2e49-da66-4aca-b419-36ccc5e515c3"},"vehicle_type_id":"4","last_reported":1769675237,"current_range_meters":8000,"station_id":"st_d2m6c4gdas8pm72e190g","pricing_plan_id":"cebpf4jnsgd1na2vs0mg"},{"bike_id":"081fa14c-ca4a-442f-8de3-b221dffe51d8","system_id":"levelo_inurba_marseille","lat":43.27998,"lon":5.41666,"is_reserved":false,"is_disabled":false,"rental_uris":{"android":"levelo://app?vid=081fa14c-ca4a-442f-8de3-b221dffe51d8","ios":"levelo://app?vid=081fa14c-ca4a-442f-8de3-b221dffe51d8"},"vehicle_type_id":"4","last_reported":1769675237,"current_range_meters":8000,"station_id":"ce4bho12rcd13ifvqh1g","pricing_plan_id":"cebpf4jnsgd1na2vs0mg"},{"bike_id":"d1dfc668-7233-45d4-9307-756eb4daec9a","system_id":"levelo_inurba_marseille","lat":43.321062,"lon":5.367602,"is_reserved":false,"is_disabled":true,"rental_uris":{"android":"levelo://app?vid=d1dfc668-7233-45d4-9307-756eb4daec9a","ios":"levelo://app?vid=d1dfc668-7233-45d4-9307-756eb4daec9a"},"vehicle_type_id":"4","last_reported":1769675237,"current_range_meters":8400,"station_id":"","pricing_plan_id":"cebpf4jnsgd1na2vs0mg"},{"bike_id":"15698324-3145-4547-849e-2fd8a77ba3ab","system_id":"levelo_inurba_marseille","lat":43.27374,"lon":5.36249,"is_reserved":false,"is_disabled":false,"rental_uris":{"android":"levelo://app?vid=15698324-3145-4547-849e-2fd8a77ba3ab","ios":"levelo://app?vid=15698324-3145-4547-849e-2fd8a77ba3ab"},"vehicle_type_id":"4","last_reported":1769675237,"current_range_meters":8400,"station_id":"ce4bhbh2rcd13ifvqeo0","pricing_plan_id":"cebpf4jnsgd1na2vs0mg"},{"bike_id":"163be110-90f6-4ea9-9e0a-c8260a42fd9b","system_id":"levelo_inurba_marseille","lat":43.28098,"lon":5.3785,"is_reserved":false,"is_disabled":false,"rental_uris":{"android":"levelo://app?vid=163be110-90f6-4ea9-9e0a-c8260a42fd9b","ios":"levelo://app?vid=163be110-90f6-4ea9-9e0a-c8260a42fd9b"},"vehicle_type_id":"4","last_reported":1769675237,"current_range_meters":8400,"station_id":"ce4bha12rcd13ifvqee0","pricing_plan_id":"cebpf4jnsgd1na2vs0mg"},{"bike_id":"e44421fa-83e8-471c-99c3-00ee87f503e6","system_id":"levelo_inurba_marseille","lat":43.23189,"lon":5.35589,"is_reserved":false,"is_disabled":false,"rental_uris":{"android":"levelo://app?vid=e44421fa-83e8-471c-99c3-00ee87f503e6","ios":"levelo://app?vid=e44421fa-83e8-471c-99c3-00ee87f503e6"},"vehicle_type_id":"4","last_reported":1769675237,"current_range_meters":8400,"station_id":"ce4bhu92rcd13ifvqi70","pricing_plan_id":"cebpf4jnsgd1na2vs0mg"},{"bike_id":"59c1aaff-f796-4b2e-9d17-a0149e8ecf86","system_id":"levelo_inurba_marseille","lat":43.263673,"lon":5.41082,"is_reserved":false,"is_disabled":false,"rental_uris":{"android":"levelo://app?vid=59c1aaff-f796-4b2e-9d17-a0149e8ecf86","ios":"levelo://app?vid=59c1aaff-f796-4b2e-9d17-a0149e8ecf86"},"vehicle_type_id":"4","last_reported":1769675237,"current_range_meters":8400,"station_id":"st_d4e5ca6na9uc73bfl5fg","pricing_plan_id":"cebpf4jnsgd1na2vs0mg"},{"bike_id":"8de5f716-900c-4d99-9559-2c9a76a29460","system_id":"levelo_inurba_marseille","lat":43.278871,"lon":5.379989,"is_reserved":false,"is_disabled":false,"rental_uris":{"android":"levelo://app?vid=8de5f716-900c-4d99-9559-2c9a76a29460","ios":"levelo://app?vid=8de5f716-900c-4d99-9559-2c9a76a29460"},"vehicle_type_id":"4","last_reported":1769675237,"current_range_meters":8400,"station_id":"ce4bhf92rcd13ifvqf50","pricing_plan_id":"cebpf4jnsgd1na2vs0mg"},{"bike_id":"e9ab1c78-d16f-4493-b9ac-cfe803b5f484","system_id":"levelo_inurba_marseille","lat":43.32476,"lon":5.38287,"is_reserved":false,"is_disabled":false,"rental_uris":{"android":"levelo://app?vid=e9ab1c78-d16f-4493-b9ac-cfe803b5f484","ios":"levelo://app?vid=e9ab1c78-d16f-4493-b9ac-cfe803b5f484"},"vehicle_type_id":"4","last_reported":1769675237,"current_range_meters":8400,"station_id":"st_d4asgbiv49dc73anf9m0","pricing_plan_id":"cebpf4jnsgd1na2vs0mg"},{"bike_id":"ca8aa705-78fb-4dba-a3eb-862afc625597","system_id":"levelo_inurba_marseille","lat":43.28853,"lon":5.4253,"is_reserved":false,"is_disabled":false,"rental_uris":{"android":"levelo://app?vid=ca8aa705-78fb-4dba-a3eb-862afc625597","ios":"levelo://app?vid=ca8aa705-78fb-4dba-a3eb-862afc625597"},"vehicle_type_id":"4","last_reported":1769675237,"current_range_meters":8400,"station_id":"st_d3b462108ojc7389ooeg","pricing_plan_id":"cebpf4jnsgd1na2vs0mg"},{"bike_id":"4b70e8cd-0aa1-41e5-8686-715edc919307","system_id":"levelo_inurba_marseille","lat":43.28993,"lon":5.356,"is_reserved":false,"is_disabled":false,"rental_uris":{"android":"levelo://app?vid=4b70e8cd-0aa1-41e5-8686-715edc919307","ios":"levelo://app?vid=4b70e8cd-0aa1-41e5-8686-715edc919307"},"vehicle_type_id":"4","last_reported":1769675237,"current_range_meters":8400,"station_id":"ce4bhb92rcd13ifvqen0","pricing_plan_id":"cebpf4jnsgd1na2vs0mg"},{"bike_id":"9c143376-0522-4d00-a116-66d871cdb46d","system_id":"levelo_inurba_marseille","lat":43.25569,"lon":5.38245,"is_reserved":false,"is_disabled":false,"rental_uris":{"android":"levelo://app?vid=9c143376-0522-4d00-a116-66d871cdb46d","ios":"levelo://app?vid=9c143376-0522-4d00-a116-66d871cdb46d"},"vehicle_type_id":"4","last_reported":1769675237,"current_range_meters":8400,"station_id":"ce4bhih2rcd13ifvqfs0","pricing_plan_id":"cebpf4jnsgd1na2vs0mg"},{"bike_id":"59d7c568-6724-480d-b1e6-ba1e4cc63559","system_id":"levelo_inurba_marseille","lat":43.29276,"lon":5.37161,"is_reserved":false,"is_disabled":false,"rental_uris":{"android":"levelo://app?vid=59d7c568-6724-480d-b1e6-ba1e4cc63559","ios":"levelo://app?vid=59d7c568-6724-480d-b1e6-ba1e4cc63559"},"vehicle_type_id":"4","last_reported":1769675237,"current_range_meters":8400,"station_id":"ce4bgh92rcd13ifvqb40","pricing_plan_id":"cebpf4jnsgd1na2vs0mg"},{"bike_id":"92ac9ca0-f0b4-4afa-9cdd-b121e9de80a9","system_id":"levelo_inurba_marseille","lat":43.26202,"lon":5.37462,"is_reserved":false,"is_disabled":false,"rental_uris":{"android":"levelo://app?vid=92ac9ca0-f0b4-4afa-9cdd-b121e9de80a9","ios":"levelo://app?vid=92ac9ca0-f0b4-4afa-9cdd-b121e9de80a9"},"vehicle_type_id":"4","last_reported":1769675237,"current_range_meters":8400,"station_id":"ce4bhgp2rcd13ifvqfc0","pricing_plan_id":"cebpf4jnsgd1na2vs0mg"},{"bike_id":"541aab47-c46a-45ce-9946-ea87420fea14","system_id":"levelo_inurba_marseille","lat":43.23207,"lon":5.39972,"is_reserved":false,"is_disabled":false,"rental_uris":{"android":"levelo://app?vid=541aab47-c46a-45ce-9946-ea87420fea14","ios":"levelo://app?vid=541aab47-c46a-45ce-9946-ea87420fea14"},"vehicle_type_id":"4","last_reported":1769675237,"current_range_meters":8400,"station_id":"ce4bhn12rcd13ifvqgqg","pricing_plan_id":"cebpf4jnsgd1na2vs0mg"},{"bike_id":"62f82450-43a9-44e6-af3a-8e769023aed7","system_id":"levelo_inurba_marseille","lat":43.31753,"lon":5.40428,"is_reserved":false,"is_disabled":false,"rental_uris":{"android":"levelo://app?vid=62f82450-43a9-44e6-af3a-8e769023aed7","ios":"levelo://app?vid=62f82450-43a9-44e6-af3a-8e769023aed7"},"vehicle_type_id":"4","last_reported":1769675237,"current_range_meters":8400,"station_id":"ce4bh012rcd13ifvqd00","pricing_plan_id":"cebpf4jnsgd1na2vs0mg"},{"bike_id":"6a979c51-5aa6-4b44-9231-1d2760d4aad3","system_id":"levelo_inurba_marseille","lat":43.289381,"lon":5.366467,"is_reserved":false,"is_disabled":false,"rental_uris":{"android":"levelo://app?vid=6a979c51-5aa6-4b44-9231-1d2760d4aad3","ios":"levelo://app?vid=6a979c51-5aa6-4b44-9231-1d2760d4aad3"},"vehicle_type_id":"4","last_reported":1769675237,"current_range_meters":8400,"station_id":"ce4bhah2rcd13ifvqei0","pricing_plan_id":"cebpf4jnsgd1na2vs0mg"},{"bike_id":"02a2f9fc-1ee7-4aa0-b2b5-f148113b2ec2","system_id":"levelo_inurba_marseille","lat":43.24088,"lon":5.37765,"is_reserved":false,"is_disabled":false,"rental_uris":{"android":"levelo://app?vid=02a2f9fc-1ee7-4aa0-b2b5-f148113b2ec2","ios":"levelo://app?vid=02a2f9fc-1ee7-4aa0-b2b5-f148113b2ec2"},"vehicle_type_id":"4","last_reported":1769675237,"current_range_meters":8400,"station_id":"ce4bhnp2rcd13ifvqgvg","pricing_plan_id":"cebpf4jnsgd1na2vs0mg"},{"bike_id":"c2dbc2d9-f503-42b9-8a28-5a086e3533c8","system_id":"levelo_inurba_marseille","lat":43.284135,"lon":5.349903,"is_reserved":false,"is_disabled":false,"rental_uris":{"android":"levelo://app?vid=c2dbc2d9-f503-42b9-8a28-5a086e3533c8","ios":"levelo://app?vid=c2dbc2d9-f503-42b9-8a28-5a086e3533c8"},"vehicle_type_id":"4","last_reported":1769675237,"current_range_meters":8400,"station_id":"ce4bhbh2rcd13ifvqepg","pricing_plan_id":"cebpf4jnsgd1na2vs0mg"},{"bike_id":"2d655a97-bd06-49e9-b2b4-efa072ca5fda","system_id":"levelo_inurba_marseille","lat":43.32112,"lon":5.36785,"is_reserved":false,"is_disabled":false,"rental_uris":{"android":"levelo://app?vid=2d655a97-bd06-49e9-b2b4-efa072ca5fda","ios":"levelo://app?vid=2d655a97-bd06-49e9-b2b4-efa072ca5fda"},"vehicle_type_id":"4","last_reported":1769675237,"current_range_meters":8400,"station_id":"ce4bhrh2rcd13ifvqhug","pricing_plan_id":"cebpf4jnsgd1na2vs0mg"},{"bike_id":"e2b6b5ca-4ed5-40ed-a243-c41b4f9656de","system_id":"levelo_inurba_marseille","lat":43.27609,"lon":5.36134,"is_reserved":false,"is_disabled":false,"rental_uris":{"android":"levelo://app?vid=e2b6b5ca-4ed5-40ed-a243-c41b4f9656de","ios":"levelo://app?vid=e2b6b5ca-4ed5-40ed-a243-c41b4f9656de"},"vehicle_type_id":"4","last_reported":1769675237,"current_range_meters":8400,"station_id":"ce4bgj92rcd13ifvqbe0","pricing_plan_id":"cebpf4jnsgd1na2vs0mg"},{"bike_id":"794a02b4-b317-4453-81f5-829281534d59","system_id":"levelo_inurba_marseille","lat":43.262537,"lon":5.404561,"is_reserved":false,"is_disabled":false,"rental_uris":{"android":"levelo://app?vid=794a02b4-b317-4453-81f5-829281534d59","ios":"levelo://app?vid=794a02b4-b317-4453-81f5-829281534d59"},"vehicle_type_id":"4","last_reported":1769675237,"current_range_meters":8400,"station_id":"ce4bhmh2rcd13ifvqgmg","pricing_plan_id":"cebpf4jnsgd1na2vs0mg"},{"bike_id":"e53e03e9-1e53-4411-8383-4d6aad77b3e0","system_id":"levelo_inurba_marseille","lat":43.33715,"lon":5.39191,"is_reserved":false,"is_disabled":false,"rental_uris":{"android":"levelo://app?vid=e53e03e9-1e53-4411-8383-4d6aad77b3e0","ios":"levelo://app?vid=e53e03e9-1e53-4411-8383-4d6aad77b3e0"},"vehicle_type_id":"4","last_reported":1769675237,"current_range_meters":8400,"station_id":"ce4bhr92rcd13ifvqhsg","pricing_plan_id":"cebpf4jnsgd1na2vs0mg"},{"bike_id":"ba7cd6fe-a41a-45f1-a852-88f0d8fa2a4e","system_id":"levelo_inurba_marseille","lat":43.24073,"lon":5.37763,"is_reserved":false,"is_disabled":false,"rental_uris":{"android":"levelo://app?vid=ba7cd6fe-a41a-45f1-a852-88f0d8fa2a4e","ios":"levelo://app?vid=ba7cd6fe-a41a-45f1-a852-88f0d8fa2a4e"},"vehicle_type_id":"4","last_reported":1769675237,"current_range_meters":8400,"station_id":"","pricing_plan_id":"cebpf4jnsgd1na2vs0mg"},{"bike_id":"dc9ee814-7f33-4fbb-a1ce-2d30e8c57914","system_id":"levelo_inurba_marseille","lat":43.22566,"lon":5.41618,"is_reserved":false,"is_disabled":false,"rental_uris":{"android":"levelo://app?vid=dc9ee814-7f33-4fbb-a1ce-2d30e8c57914","ios":"levelo://app?vid=dc9ee814-7f33-4fbb-a1ce-2d30e8c57914"},"vehicle_type_id":"4","last_reported":1769675237,"current_range_meters":8400,"station_id":"st_d2o4gvlbi1j2169b742g","pricing_plan_id":"cebpf4jnsgd1na2vs0mg"},{"bike_id":"20396a4d-5919-4afc-8904-7bb363ea5b42","system_id":"levelo_inurba_marseille","lat":43.24083,"lon":5.37781,"is_reserved":false,"is_disabled":false,"rental_uris":{"android":"levelo://app?vid=20396a4d-5919-4afc-8904-7bb363ea5b42","ios":"levelo://app?vid=20396a4d-5919-4afc-8904-7bb363ea5b42"},"vehicle_type_id":"4","last_reported":1769675237,"current_range_meters":8400,"station_id":"ce4bhnp2rcd13ifvqgvg","pricing_plan_id":"cebpf4jnsgd1na2vs0mg"},{"bike_id":"39753960-3c7e-4e4a-acb2-25c74c17dd07","system_id":"levelo_inurba_marseille","lat":43.22941,"lon":5.35373,"is_reserved":false,"is_disabled":false,"rental_uris":{"android":"levelo://app?vid=39753960-3c7e-4e4a-acb2-25c74c17dd07","ios":"levelo://app?vid=39753960-3c7e-4e4a-acb2-25c74c17dd07"},"vehicle_type_id":"4","last_reported":1769675237,"current_range_meters":8400,"station_id":"cpo3532slgdg3j2ikp40","pricing_plan_id":"cebpf4jnsgd1na2vs0mg"},{"bike_id":"76656029-63ad-4a62-a7cb-555cda44c48d","system_id":"levelo_inurba_marseille","lat":43.26058,"lon":5.39382,"is_reserved":false,"is_disabled":false,"rental_uris":{"android":"levelo://app?vid=76656029-63ad-4a62-a7cb-555cda44c48d","ios":"levelo://app?vid=76656029-63ad-4a62-a7cb-555cda44c48d"},"vehicle_type_id":"4","last_reported":1769675237,"current_range_meters":8400,"station_id":"ce4bhh92rcd13ifvqfj0","pricing_plan_id":"cebpf4jnsgd1na2vs0mg"},{"bike_id":"4bd6cb39-f26e-431f-9c48-bc9838a79167","system_id":"levelo_inurba_marseille","lat":43.29808,"lon":5.44028,"is_reserved":false,"is_disabled":false,"rental_uris":{"android":"levelo://app?vid=4bd6cb39-f26e-431f-9c48-bc9838a79167","ios":"levelo://app?vid=4bd6cb39-f26e-431f-9c48-bc9838a79167"},"vehicle_type_id":"4","last_reported":1769675237,"current_range_meters":8400,"station_id":"st_d3jp68qikq2c7381ktn0","pricing_plan_id":"cebpf4jnsgd1na2vs0mg"},{"bike_id":"8124257b-86e4-4773-9928-40b9e517b1e7","system_id":"levelo_inurba_marseille","lat":43.24466,"lon":5.42535,"is_reserved":false,"is_disabled":false,"rental_uris":{"android":"levelo://app?vid=8124257b-86e4-4773-9928-40b9e517b1e7","ios":"levelo://app?vid=8124257b-86e4-4773-9928-40b9e517b1e7"},"vehicle_type_id":"4","last_reported":1769675237,"current_range_meters":8800,"station_id":"st_d4a3vfp97mjs738cd8kg","pricing_plan_id":"cebpf4jnsgd1na2vs0mg"},{"bike_id":"ef68bdf9-fa71-483b-bc99-7f9581830aca","system_id":"levelo_inurba_marseille","lat":43.30605,"lon":5.36755,"is_reserved":false,"is_disabled":false,"rental_uris":{"android":"levelo://app?vid=ef68bdf9-fa71-483b-bc99-7f9581830aca","ios":"levelo://app?vid=ef68bdf9-fa71-483b-bc99-7f9581830aca"},"vehicle_type_id":"4","last_reported":1769675237,"current_range_meters":8800,"station_id":"","pricing_plan_id":"cebpf4jnsgd1na2vs0mg"},{"bike_id":"670a3383-cb43-48c4-b474-69605a3ab186","system_id":"levelo_inurba_marseille","lat":43.31118,"lon":5.37727,"is_reserved":false,"is_disabled":false,"rental_uris":{"android":"levelo://app?vid=670a3383-cb43-48c4-b474-69605a3ab186","ios":"levelo://app?vid=670a3383-cb43-48c4-b474-69605a3ab186"},"vehicle_type_id":"4","last_reported":1769675237,"current_range_meters":8800,"station_id":"ce4bgt92rcd13ifvqcg0","pricing_plan_id":"cebpf4jnsgd1na2vs0mg"},{"bike_id":"7b6d8a8b-d351-4282-bf84-c6e7865bd8af","system_id":"levelo_inurba_marseille","lat":43.24641,"lon":5.38898,"is_reserved":false,"is_disabled":false,"rental_uris":{"android":"levelo://app?vid=7b6d8a8b-d351-4282-bf84-c6e7865bd8af","ios":"levelo://app?vid=7b6d8a8b-d351-4282-bf84-c6e7865bd8af"},"vehicle_type_id":"4","last_reported":1769675237,"current_range_meters":8800,"station_id":"ce4bhg12rcd13ifvqf60","pricing_plan_id":"cebpf4jnsgd1na2vs0mg"},{"bike_id":"c1e56def-2d7c-4e93-b918-3096a8beff38","system_id":"levelo_inurba_marseille","lat":43.31218,"lon":5.36846,"is_reserved":false,"is_disabled":false,"rental_uris":{"android":"levelo://app?vid=c1e56def-2d7c-4e93-b918-3096a8beff38","ios":"levelo://app?vid=c1e56def-2d7c-4e93-b918-3096a8beff38"},"vehicle_type_id":"4","last_reported":1769675237,"current_range_meters":8800,"station_id":"ce4bgl92rcd13ifvqbq0","pricing_plan_id":"cebpf4jnsgd1na2vs0mg"},{"bike_id":"83a4e1d2-5f71-4b5a-bd57-96f3c4c0826c","system_id":"levelo_inurba_marseille","lat":43.23144,"lon":5.43726,"is_reserved":false,"is_disabled":false,"rental_uris":{"android":"levelo://app?vid=83a4e1d2-5f71-4b5a-bd57-96f3c4c0826c","ios":"levelo://app?vid=83a4e1d2-5f71-4b5a-bd57-96f3c4c0826c"},"vehicle_type_id":"4","last_reported":1769675237,"current_range_meters":8800,"station_id":"ce4bhmp2rcd13ifvqgog","pricing_plan_id":"cebpf4jnsgd1na2vs0mg"},{"bike_id":"0edb73c2-0d71-41ef-92a0-39c6197600e4","system_id":"levelo_inurba_marseille","lat":43.27053,"lon":5.38299,"is_reserved":false,"is_disabled":false,"rental_uris":{"android":"levelo://app?vid=0edb73c2-0d71-41ef-92a0-39c6197600e4","ios":"levelo://app?vid=0edb73c2-0d71-41ef-92a0-39c6197600e4"},"vehicle_type_id":"4","last_reported":1769675237,"current_range_meters":8800,"station_id":"st_d3n2fo6cfp8s73cte1j0","pricing_plan_id":"cebpf4jnsgd1na2vs0mg"},{"bike_id":"d4cad163-0564-4ce5-927b-b3b5d8addcfe","system_id":"levelo_inurba_marseille","lat":43.29313,"lon":5.37462,"is_reserved":false,"is_disabled":false,"rental_uris":{"android":"levelo://app?vid=d4cad163-0564-4ce5-927b-b3b5d8addcfe","ios":"levelo://app?vid=d4cad163-0564-4ce5-927b-b3b5d8addcfe"},"vehicle_type_id":"4","last_reported":1769675237,"current_range_meters":8800,"station_id":"ce4bgi12rcd13ifvqb70","pricing_plan_id":"cebpf4jnsgd1na2vs0mg"},{"bike_id":"5270bea9-0fb0-4453-b2ea-f179fff24e03","system_id":"levelo_inurba_marseille","lat":43.29688,"lon":5.3659,"is_reserved":false,"is_disabled":false,"rental_uris":{"android":"levelo://app?vid=5270bea9-0fb0-4453-b2ea-f179fff24e03","ios":"levelo://app?vid=5270bea9-0fb0-4453-b2ea-f179fff24e03"},"vehicle_type_id":"4","last_reported":1769675237,"current_range_meters":8800,"station_id":"ce4bgn12rcd13ifvqbt0","pricing_plan_id":"cebpf4jnsgd1na2vs0mg"},{"bike_id":"2f4543d2-e450-4359-90ef-2351f9674a4d","system_id":"levelo_inurba_marseille","lat":43.27631,"lon":5.36121,"is_reserved":false,"is_disabled":false,"rental_uris":{"android":"levelo://app?vid=2f4543d2-e450-4359-90ef-2351f9674a4d","ios":"levelo://app?vid=2f4543d2-e450-4359-90ef-2351f9674a4d"},"vehicle_type_id":"4","last_reported":1769675237,"current_range_meters":8800,"station_id":"ce4bgj92rcd13ifvqbe0","pricing_plan_id":"cebpf4jnsgd1na2vs0mg"},{"bike_id":"25cb32b1-e128-4153-b1fc-d3e9ea105f47","system_id":"levelo_inurba_marseille","lat":43.26188,"lon":5.37939,"is_reserved":false,"is_disabled":false,"rental_uris":{"android":"levelo://app?vid=25cb32b1-e128-4153-b1fc-d3e9ea105f47","ios":"levelo://app?vid=25cb32b1-e128-4153-b1fc-d3e9ea105f47"},"vehicle_type_id":"4","last_reported":1769675237,"current_range_meters":8800,"station_id":"ce4bhjp2rcd13ifvqg90","pricing_plan_id":"cebpf4jnsgd1na2vs0mg"},{"bike_id":"5a5070bd-16de-4246-b119-9edc6b7db571","system_id":"levelo_inurba_marseille","lat":43.31165,"lon":5.38722,"is_reserved":false,"is_disabled":false,"rental_uris":{"android":"levelo://app?vid=5a5070bd-16de-4246-b119-9edc6b7db571","ios":"levelo://app?vid=5a5070bd-16de-4246-b119-9edc6b7db571"},"vehicle_type_id":"4","last_reported":1769675237,"current_range_meters":8800,"station_id":"ce4bgv12rcd13ifvqcp0","pricing_plan_id":"cebpf4jnsgd1na2vs0mg"},{"bike_id":"bd551aec-24c2-4aba-b573-e89c13f76575","system_id":"levelo_inurba_marseille","lat":43.2556,"lon":5.38297,"is_reserved":false,"is_disabled":false,"rental_uris":{"android":"levelo://app?vid=bd551aec-24c2-4aba-b573-e89c13f76575","ios":"levelo://app?vid=bd551aec-24c2-4aba-b573-e89c13f76575"},"vehicle_type_id":"4","last_reported":1769675237,"current_range_meters":8800,"station_id":"","pricing_plan_id":"cebpf4jnsgd1na2vs0mg"},{"bike_id":"2cf24460-60e7-450b-bf44-a410632c1dd0","system_id":"levelo_inurba_marseille","lat":43.299296,"lon":5.37636,"is_reserved":false,"is_disabled":false,"rental_uris":{"android":"levelo://app?vid=2cf24460-60e7-450b-bf44-a410632c1dd0","ios":"levelo://app?vid=2cf24460-60e7-450b-bf44-a410632c1dd0"},"vehicle_type_id":"4","last_reported":1769675237,"current_range_meters":8800,"station_id":"ce4bgjh2rcd13ifvqbg0","pricing_plan_id":"cebpf4jnsgd1na2vs0mg"},{"bike_id":"af654c71-a67d-46af-bf40-a020e2f3bf53","system_id":"levelo_inurba_marseille","lat":43.250081,"lon":5.389223,"is_reserved":false,"is_disabled":false,"rental_uris":{"android":"levelo://app?vid=af654c71-a67d-46af-bf40-a020e2f3bf53","ios":"levelo://app?vid=af654c71-a67d-46af-bf40-a020e2f3bf53"},"vehicle_type_id":"4","last_reported":1769675237,"current_range_meters":8800,"station_id":"ce4bhgp2rcd13ifvqfd0","pricing_plan_id":"cebpf4jnsgd1na2vs0mg"},{"bike_id":"28bcb9d8-af7e-4e97-808c-cc7b21fe1431","system_id":"levelo_inurba_marseille","lat":43.22573,"lon":5.41603,"is_reserved":false,"is_disabled":false,"rental_uris":{"android":"levelo://app?vid=28bcb9d8-af7e-4e97-808c-cc7b21fe1431","ios":"levelo://app?vid=28bcb9d8-af7e-4e97-808c-cc7b21fe1431"},"vehicle_type_id":"4","last_reported":1769675237,"current_range_meters":8800,"station_id":"st_d2o4gvlbi1j2169b742g","pricing_plan_id":"cebpf4jnsgd1na2vs0mg"},{"bike_id":"6bbbb293-eb34-4491-93db-96fbd5084502","system_id":"levelo_inurba_marseille","lat":43.30278,"lon":5.37703,"is_reserved":false,"is_disabled":false,"rental_uris":{"android":"levelo://app?vid=6bbbb293-eb34-4491-93db-96fbd5084502","ios":"levelo://app?vid=6bbbb293-eb34-4491-93db-96fbd5084502"},"vehicle_type_id":"4","last_reported":1769675237,"current_range_meters":8800,"station_id":"ce4bguh2rcd13ifvqcj0","pricing_plan_id":"cebpf4jnsgd1na2vs0mg"},{"bike_id":"71ea06b7-46c1-4fc9-a594-153d92364656","system_id":"levelo_inurba_marseille","lat":43.307244,"lon":5.410225,"is_reserved":false,"is_disabled":false,"rental_uris":{"android":"levelo://app?vid=71ea06b7-46c1-4fc9-a594-153d92364656","ios":"levelo://app?vid=71ea06b7-46c1-4fc9-a594-153d92364656"},"vehicle_type_id":"4","last_reported":1769675237,"current_range_meters":8800,"station_id":"","pricing_plan_id":"cebpf4jnsgd1na2vs0mg"},{"bike_id":"546d524a-128a-4e22-a3a9-72f5ef24036b","system_id":"levelo_inurba_marseille","lat":43.26939,"lon":5.38924,"is_reserved":false,"is_disabled":false,"rental_uris":{"android":"levelo://app?vid=546d524a-128a-4e22-a3a9-72f5ef24036b","ios":"levelo://app?vid=546d524a-128a-4e22-a3a9-72f5ef24036b"},"vehicle_type_id":"4","last_reported":1769675237,"current_range_meters":8800,"station_id":"ce4bhhh2rcd13ifvqfl0","pricing_plan_id":"cebpf4jnsgd1na2vs0mg"},{"bike_id":"01ff8c36-e65e-4466-bd0e-cd9ecb475e78","system_id":"levelo_inurba_marseille","lat":43.29844,"lon":5.3627,"is_reserved":false,"is_disabled":false,"rental_uris":{"android":"levelo://app?vid=01ff8c36-e65e-4466-bd0e-cd9ecb475e78","ios":"levelo://app?vid=01ff8c36-e65e-4466-bd0e-cd9ecb475e78"},"vehicle_type_id":"4","last_reported":1769675237,"current_range_meters":8800,"station_id":"ce4bgpp2rcd13ifvqc3g","pricing_plan_id":"cebpf4jnsgd1na2vs0mg"},{"bike_id":"ba4f6c0d-c0a8-4c21-9308-a4e81ac5d5b4","system_id":"levelo_inurba_marseille","lat":43.30891,"lon":5.3684,"is_reserved":false,"is_disabled":false,"rental_uris":{"android":"levelo://app?vid=ba4f6c0d-c0a8-4c21-9308-a4e81ac5d5b4","ios":"levelo://app?vid=ba4f6c0d-c0a8-4c21-9308-a4e81ac5d5b4"},"vehicle_type_id":"4","last_reported":1769675237,"current_range_meters":9200,"station_id":"ce4bgn92rcd13ifvqbvg","pricing_plan_id":"cebpf4jnsgd1na2vs0mg"},{"bike_id":"bd889336-68ff-4f09-8c88-588306cf9fc6","system_id":"levelo_inurba_marseille","lat":43.270559,"lon":5.403228,"is_reserved":false,"is_disabled":false,"rental_uris":{"android":"levelo://app?vid=bd889336-68ff-4f09-8c88-588306cf9fc6","ios":"levelo://app?vid=bd889336-68ff-4f09-8c88-588306cf9fc6"},"vehicle_type_id":"4","last_reported":1769675237,"current_range_meters":9200,"station_id":"","pricing_plan_id":"cebpf4jnsgd1na2vs0mg"},