{"last_updated":1730128179,"ttl":60,"version":"2.2","data":{"bikes":[{"bike_id":"d357ec8f-8baa-4f41-97be-d8e9eb16dfab","system_id":"levelo_inurba_marseille","lat":43.24652,"lon":5.38896,"is_reserved":false,"is_disabled":false,"rental_uris":{"android":"levelo://app?vid=d357ec8f-8baa-4f41-97be-d8e9eb16dfab","ios":"levelo://app?vid=d357ec8f-8baa-4f41-97be-d8e9eb16dfab"},"vehicle_type_id":"4","last_reported":1730128179,"current_range_meters":8800,"station_id":"ce4bhg12rcd13ifvqf60","pricing_plan_id":"cebpf4jnsgd1na2vs0mg"},{"bike_id":"cba85006-9bbb-4511-8872-9e4a93d433d7","system_id":"levelo_inurba_marseille","lat":43.28977,"lon":5.37838,"is_reserved":false,"is_disabled":false,"rental_uris":{"android":"levelo://app?vid=cba85006-9bbb-4511-8872-9e4a93d433d7","ios":"levelo://app?vid=cba85006-9bbb-4511-8872-9e4a93d433d7"},"vehicle_type_id":"4","last_reported":1730128179,"current_range_meters":14400,"station_id":"ce4bh9p2rcd13ifvqed0","pricing_plan_id":"cebpf4jnsgd1na2vs0mg"},{"bike_id":"62848e5a-d18f-42f2-bd07-697848141a2a","system_id":"levelo_inurba_marseille","lat":43.299369,"lon":5.372015,"is_reserved":false,"is_disabled":false,"rental_uris":{"android":"levelo://app?vid=62848e5a-d18f-42f2-bd07-697848141a2a","ios":"levelo://app?vid=62848e5a-d18f-42f2-bd07-697848141a2a"},"vehicle_type_id":"4","last_reported":1730128179,"current_range_meters":26800,"station_id":"ce4bgr92rcd13ifvqc7g","pricing_plan_id":"cebpf4jnsgd1na2vs0mg"},{"bike_id":"aaf1c17c-0d6c-47da-a188-f7ef018d9a32","system_id":"levelo_inurba_marseille","lat":43.30607,"lon":5.37215,"is_reserved":false,"is_disabled":false,"rental_uris":{"android":"levelo://app?vid=aaf1c17c-0d6c-47da-a188-f7ef018d9a32","ios":"levelo://app?vid=aaf1c17c-0d6c-47da-a188-f7ef018d9a32"},"vehicle_type_id":"4","last_reported":1730128179,"current_range_meters":39200,"station_id":"ce4bgqh2rcd13ifvqc4g","pricing_plan_id":"cebpf4jnsgd1na2vs0mg"},{"bike_id":"7501dbaf-a35e-4bd2-9151-59352e5a8638","system_id":"levelo_inurba_marseille","lat":43.23154,"lon":5.43707,"is_reserved":false,"is_disabled":false,"rental_uris":{"android":"levelo://app?vid=7501dbaf-a35e-4bd2-9151-59352e5a8638","ios":"levelo://app?vid=7501dbaf-a35e-4bd2-9151-59352e5a8638"},"vehicle_type_id":"4","last_reported":1730128179,"current_range_meters":38800,"station_id":"ce4bhmp2rcd13ifvqgog","pricing_plan_id":"cebpf4jnsgd1na2vs0mg"},{"bike_id":"755cc1c7-1bcf-4ddc-bdce-2e5d195411b7","system_id":"levelo_inurba_marseille","lat":43.30187,"lon":5.36625,"is_reserved":false,"is_disabled":false,"rental_uris":{"android":"levelo://app?vid=755cc1c7-1bcf-4ddc-bdce-2e5d195411b7","ios":"levelo://app?vid=755cc1c7-1bcf-4ddc-bdce-2e5d195411b7"},"vehicle_type_id":"4","last_reported":1730128179,"current_range_meters":38400,"station_id":"ce4bgrh2rcd13ifvqc8g","pricing_plan_id":"cebpf4jnsgd1na2vs0mg"},{"bike_id":"a8652586-bac3-4066-8349-87b461f05426","system_id":"levelo_inurba_marseille","lat":43.30307,"lon":5.36912,"is_reserved":false,"is_disabled":false,"rental_uris":{"android":"levelo://app?vid=a8652586-bac3-4066-8349-87b461f05426","ios":"levelo://app?vid=a8652586-bac3-4066-8349-87b461f05426"},"vehicle_type_id":"4","last_reported":1730128179,"current_range_meters":32400,"station_id":"ce4bgqh2rcd13ifvqc5g","pricing_plan_id":"cebpf4jnsgd1na2vs0mg"},{"bike_id":"bdad3495-554f-4212-bfee-6d09865ad08a","system_id":"levelo_inurba_marseille","lat":43.2985,"lon":5.36282,"is_reserved":false,"is_disabled":false,"rental_uris":{"android":"levelo://app?vid=bdad3495-554f-4212-bfee-6d09865ad08a","ios":"levelo://app?vid=bdad3495-554f-4212-bfee-6d09865ad08a"},"vehicle_type_id":"4","last_reported":1730128179,"current_range_meters":27200,"station_id":"ce4bgpp2rcd13ifvqc3g","pricing_plan_id":"cebpf4jnsgd1na2vs0mg"},{"bike_id":"f8afd607-178d-4ec0-af02-09f891f49fa6","system_id":"levelo_inurba_marseille","lat":43.29799,"lon":5.38098,"is_reserved":false,"is_disabled":false,"rental_uris":{"android":"levelo://app?vid=f8afd607-178d-4ec0-af02-09f891f49fa6","ios":"levelo://app?vid=f8afd607-178d-4ec0-af02-09f891f49fa6"},"vehicle_type_id":"4","last_reported":1730128179,"current_range_meters":17200,"station_id":"ce4bgip2rcd13ifvqbb0","pricing_plan_id":"cebpf4jnsgd1na2vs0mg"},{"bike_id":"eba87e6a-5452-43c0-80fb-8051d1b2f293","system_id":"levelo_inurba_marseille","lat":43.27386,"lon":5.36269,"is_reserved":false,"is_disabled":false,"rental_uris":{"android":"levelo://app?vid=eba87e6a-5452-43c0-80fb-8051d1b2f293","ios":"levelo://app?vid=eba87e6a-5452-43c0-80fb-8051d1b2f293"},"vehicle_type_id":"4","last_reported":1730128179,"current_range_meters":8000,"station_id":"ce4bhbh2rcd13ifvqeo0","pricing_plan_id":"cebpf4jnsgd1na2vs0mg"},{"bike_id":"5e0bbe94-b4c9-4877-b82c-f7608602bb21","system_id":"levelo_inurba_marseille","lat":43.29784,"lon":5.37101,"is_reserved":false,"is_disabled":false,"rental_uris":{"android":"levelo://app?vid=5e0bbe94-b4c9-4877-b82c-f7608602bb21","ios":"levelo://app?vid=5e0bbe94-b4c9-4877-b82c-f7608602bb21"},"vehicle_type_id":"4","last_reported":1730128179,"current_range_meters":4400,"station_id":"ce4bgop2rcd13ifvqc1g","pricing_plan_id":"cebpf4jnsgd1na2vs0mg"},{"bike_id":"c8fdd4fd-9773-4891-9caf-90f82e9deaa9","system_id":"levelo_inurba_marseille","lat":43.32482,"lon":5.36567,"is_reserved":false,"is_disabled":false,"rental_uris":{"android":"levelo://app?vid=c8fdd4fd-9773-4891-9caf-90f82e9deaa9","ios":"levelo://app?vid=c8fdd4fd-9773-4891-9caf-90f82e9deaa9"},"vehicle_type_id":"4","last_reported":1730128179,"current_range_meters":18800,"station_id":"ce4bhs12rcd13ifvqhvg","pricing_plan_id":"cebpf4jnsgd1na2vs0mg"},{"bike_id":"7f75e14d-56f3-48b4-be30-9d55ffaa2981","system_id":"levelo_inurba_marseille","lat":43.30539,"lon":5.3655,"is_reserved":false,"is_disabled":false,"rental_uris":{"android":"levelo://app?vid=7f75e14d-56f3-48b4-be30-9d55ffaa2981","ios":"levelo://app?vid=7f75e14d-56f3-48b4-be30-9d55ffaa2981"},"vehicle_type_id":"4","last_reported":1730128179,"current_range_meters":23200,"station_id":"ce4bgs12rcd13ifvqcag","pricing_plan_id":"cebpf4jnsgd1na2vs0mg"},{"bike_id":"7d6accf3-5536-4c98-91e9-020e8aa8cc17","system_id":"levelo_inurba_marseille","lat":43.30124,"lon":5.39875,"is_reserved":false,"is_disabled":false,"rental_uris":{"android":"levelo://app?vid=7d6accf3-5536-4c98-91e9-020e8aa8cc17","ios":"levelo://app?vid=7d6accf3-5536-4c98-91e9-020e8aa8cc17"},"vehicle_type_id":"4","last_reported":1730128179,"current_range_meters":26000,"station_id":"ce4bh0h2rcd13ifvqd40","pricing_plan_id":"cebpf4jnsgd1na2vs0mg"},{"bike_id":"9560caed-7e9b-4e0e-b615-082589894156","system_id":"levelo_inurba_marseille","lat":43.29573,"lon":5.3751,"is_reserved":false,"is_disabled":false,"rental_uris":{"android":"levelo://app?vid=9560caed-7e9b-4e0e-b615-082589894156","ios":"levelo://app?vid=9560caed-7e9b-4e0e-b615-082589894156"},"vehicle_type_id":"4","last_reported":1730128179,"current_range_meters":31200,"station_id":"ce4bgh92rcd13ifvqb50","pricing_plan_id":"cebpf4jnsgd1na2vs0mg"},{"bike_id":"a00811ad-ad2c-4124-a6c6-334261d5c56a","system_id":"levelo_inurba_marseille","lat":43.2648,"lon":5.39551,"is_reserved":false,"is_disabled":false,"rental_uris":{"android":"levelo://app?vid=a00811ad-ad2c-4124-a6c6-334261d5c56a","ios":"levelo://app?vid=a00811ad-ad2c-4124-a6c6-334261d5c56a"},"vehicle_type_id":"4","last_reported":1730128179,"current_range_meters":28800,"station_id":"ce4bhi12rcd13ifvqfq0","pricing_plan_id":"cebpf4jnsgd1na2vs0mg"},{"bike_id":"e3a0d9af-c063-4600-8a9a-88d7f3b9c22f","system_id":"levelo_inurba_marseille","lat":43.30894,"lon":5.37196,"is_reserved":false,"is_disabled":false,"rental_uris":{"android":"levelo://app?vid=e3a0d9af-c063-4600-8a9a-88d7f3b9c22f","ios":"levelo://app?vid=e3a0d9af-c063-4600-8a9a-88d7f3b9c22f"},"vehicle_type_id":"4","last_reported":1730128179,"current_range_meters":31200,"station_id":"ce4bguh2rcd13ifvqckg","pricing_plan_id":"cebpf4jnsgd1na2vs0mg"},{"bike_id":"3293e351-1eff-4da4-9b10-abb646e19fad","system_id":"levelo_inurba_marseille","lat":43.2928,"lon":5.4012,"is_reserved":false,"is_disabled":false,"rental_uris":{"android":"levelo://app?vid=3293e351-1eff-4da4-9b10-abb646e19fad","ios":"levelo://app?vid=3293e351-1eff-4da4-9b10-abb646e19fad"},"vehicle_type_id":"4","last_reported":1730128179,"current_range_meters":32800,"station_id":"ce4bh312rcd13ifvqdk0","pricing_plan_id":"cebpf4jnsgd1na2vs0mg"},{"bike_id":"acc61a83-ec6e-4e7d-9566-4f94324d4a2c","system_id":"levelo_inurba_marseille","lat":43.30543,"lon":5.36547,"is_reserved":false,"is_disabled":false,"rental_uris":{"android":"levelo://app?vid=acc61a83-ec6e-4e7d-9566-4f94324d4a2c","ios":"levelo://app?vid=acc61a83-ec6e-4e7d-9566-4f94324d4a2c"},"vehicle_type_id":"4","last_reported":1730128179,"current_range_meters":36800,"station_id":"ce4bgs12rcd13ifvqcag","pricing_plan_id":"cebpf4jnsgd1na2vs0mg"},{"bike_id":"ddd5b8b6-ca35-401a-8882-5f1ef0984cf2","system_id":"levelo_inurba_marseille","lat":43.29731,"lon":5.38123,"is_reserved":false,"is_disabled":false,"rental_uris":{"android":"levelo://app?vid=ddd5b8b6-ca35-401a-8882-5f1ef0984cf2","ios":"levelo://app?vid=ddd5b8b6-ca35-401a-8882-5f1ef0984cf2"},"vehicle_type_id":"4","last_reported":1730128179,"current_range_meters":35200,"station_id":"ce4bgip2rcd13ifvqbb0","pricing_plan_id":"cebpf4jnsgd1na2vs0mg"},{"bike_id":"745bbd7d-68b0-4107-ba40-b867ca0cb0a0","system_id":"levelo_inurba_marseille","lat":43.25002,"lon":5.38929,"is_reserved":false,"is_disabled":false,"rental_uris":{"android":"levelo://app?vid=745bbd7d-68b0-4107-ba40-b867ca0cb0a0","ios":"levelo://app?vid=745bbd7d-68b0-4107-ba40-b867ca0cb0a0"},"vehicle_type_id":"4","last_reported":1730128179,"current_range_meters":38800,"station_id":"ce4bhgp2rcd13ifvqfd0","pricing_plan_id":"cebpf4jnsgd1na2vs0mg"},{"bike_id":"edc873dd-cec0-4855-b8a8-6bc6239a7eb6","system_id":"levelo_inurba_marseille","lat":43.31493,"lon":5.3731,"is_reserved":false,"is_disabled":false,"rental_uris":{"android":"levelo://app?vid=edc873dd-cec0-4855-b8a8-6bc6239a7eb6","ios":"levelo://app?vid=edc873dd-cec0-4855-b8a8-6bc6239a7eb6"},"vehicle_type_id":"4","last_reported":1730128179,"current_range_meters":19200,"station_id":"ce4bgt12rcd13ifvqcd0","pricing_plan_id":"cebpf4jnsgd1na2vs0mg"},{"bike_id":"d3e21c44-4db6-404b-be1b-bdfed76092f4","system_id":"levelo_inurba_marseille","lat":43.27381,"lon":5.36265,"is_reserved":false,"is_disabled":false,"rental_uris":{"android":"levelo://app?vid=d3e21c44-4db6-404b-be1b-bdfed76092f4","ios":"levelo://app?vid=d3e21c44-4db6-404b-be1b-bdfed76092f4"},"vehicle_type_id":"4","last_reported":1730128179,"current_range_meters":11200,"station_id":"ce4bhbh2rcd13ifvqeo0","pricing_plan_id":"cebpf4jnsgd1na2vs0mg"},{"bike_id":"2ab6a876-b383-42be-8174-3b09d00c2764","system_id":"levelo_inurba_marseille","lat":43.22929,"lon":5.35373,"is_reserved":false,"is_disabled":false,"rental_uris":{"android":"levelo://app?vid=2ab6a876-b383-42be-8174-3b09d00c2764","ios":"levelo://app?vid=2ab6a876-b383-42be-8174-3b09d00c2764"},"vehicle_type_id":"4","last_reported":1730128179,"current_range_meters":36800,"station_id":"cpo3532slgdg3j2ikp40","pricing_plan_id":"cebpf4jnsgd1na2vs0mg"},{"bike_id":"61da5b52-ac74-461a-95d5-143a6b50af3a","system_id":"levelo_inurba_marseille","lat":43.28416,"lon":5.34987,"is_reserved":false,"is_disabled":false,"rental_uris":{"android":"levelo://app?vid=61da5b52-ac74-461a-95d5-143a6b50af3a","ios":"levelo://app?vid=61da5b52-ac74-461a-95d5-143a6b50af3a"},"vehicle_type_id":"4","last_reported":1730128179,"current_range_meters":38800,"station_id":"ce4bhbh2rcd13ifvqepg","pricing_plan_id":"cebpf4jnsgd1na2vs0mg"},{"bike_id":"e9d2627b-0323-4f6a-bb61-f8fed2e2d6e2","system_id":"levelo_inurba_marseille","lat":43.24189,"lon":5.39726,"is_reserved":false,"is_disabled":false,"rental_uris":{"android":"levelo://app?vid=e9d2627b-0323-4f6a-bb61-f8fed2e2d6e2","ios":"levelo://app?vid=e9d2627b-0323-4f6a-bb61-f8fed2e2d6e2"},"vehicle_type_id":"4","last_reported":1730128179,"current_range_meters":8400,"station_id":"ce4bhn12rcd13ifvqgpg","pricing_plan_id":"cebpf4jnsgd1na2vs0mg"},{"bike_id":"f087f3aa-789c-42ad-b464-3aaf0a08050f","system_id":"levelo_inurba_marseille","lat":43.28422,"lon":5.34998,"is_reserved":false,"is_disabled":false,"rental_uris":{"android":"levelo://app?vid=f087f3aa-789c-42ad-b464-3aaf0a08050f","ios":"levelo://app?vid=f087f3aa-789c-42ad-b464-3aaf0a08050f"},"vehicle_type_id":"4","last_reported":1730128179,"current_range_meters":38800,"station_id":"ce4bhbh2rcd13ifvqepg","pricing_plan_id":"cebpf4jnsgd1na2vs0mg"},{"bike_id":"3b72b6b3-6159-4c3e-9d9f-d4ea267c065c","system_id":"levelo_inurba_marseille","lat":43.31242,"lon":5.36886,"is_reserved":false,"is_disabled":false,"rental_uris":{"android":"levelo://app?vid=3b72b6b3-6159-4c3e-9d9f-d4ea267c065c","ios":"levelo://app?vid=3b72b6b3-6159-4c3e-9d9f-d4ea267c065c"},"vehicle_type_id":"4","last_reported":1730128179,"current_range_meters":36800,"station_id":"ce4bgth2rcd13ifvqch0","pricing_plan_id":"cebpf4jnsgd1na2vs0mg"},{"bike_id":"a17ec3cc-41ed-4e1c-adad-a499b5d5183e","system_id":"levelo_inurba_marseille","lat":43.29848,"lon":5.3628,"is_reserved":false,"is_disabled":false,"rental_uris":{"android":"levelo://app?vid=a17ec3cc-41ed-4e1c-adad-a499b5d5183e","ios":"levelo://app?vid=a17ec3cc-41ed-4e1c-adad-a499b5d5183e"},"vehicle_type_id":"4","last_reported":1730128179,"current_range_meters":22800,"station_id":"ce4bgpp2rcd13ifvqc3g","pricing_plan_id":"cebpf4jnsgd1na2vs0mg"},{"bike_id":"d1dacee6-8f47-4ca5-823b-a2ea6c3413e8","system_id":"levelo_inurba_marseille","lat":43.23195,"lon":5.35559,"is_reserved":false,"is_disabled":false,"rental_uris":{"android":"levelo://app?vid=d1dacee6-8f47-4ca5-823b-a2ea6c3413e8","ios":"levelo://app?vid=d1dacee6-8f47-4ca5-823b-a2ea6c3413e8"},"vehicle_type_id":"4","last_reported":1730128179,"current_range_meters":38800,"station_id":"ce4bhu92rcd13ifvqi70","pricing_plan_id":"cebpf4jnsgd1na2vs0mg"},{"bike_id":"3cd5a57b-8b43-4669-a1d6-e0b2e66d91d1","system_id":"levelo_inurba_marseille","lat":43.29782,"lon":5.37108,"is_reserved":false,"is_disabled":false,"rental_uris":{"android":"levelo://app?vid=3cd5a57b-8b43-4669-a1d6-e0b2e66d91d1","ios":"levelo://app?vid=3cd5a57b-8b43-4669-a1d6-e0b2e66d91d1"},"vehicle_type_id":"4","last_reported":1730128179,"current_range_meters":35600,"station_id":"ce4bgop2rcd13ifvqc1g","pricing_plan_id":"cebpf4jnsgd1na2vs0mg"},{"bike_id":"b77c3c7b-7a32-47cd-9e13-62b908b6d1c8","system_id":"levelo_inurba_marseille","lat":43.33778,"lon":5.37434,"is_reserved":false,"is_disabled":false,"rental_uris":{"android":"levelo://app?vid=b77c3c7b-7a32-47cd-9e13-62b908b6d1c8","ios":"levelo://app?vid=b77c3c7b-7a32-47cd-9e13-62b908b6d1c8"},"vehicle_type_id":"4","last_reported":1730128179,"current_range_meters":4400,"station_id":"","pricing_plan_id":"cebpf4jnsgd1na2vs0mg"},{"bike_id":"9f85ca18-0860-43a5-8b51-6713a6514068","system_id":"levelo_inurba_marseille","lat":43.32293,"lon":5.38273,"is_reserved":false,"is_disabled":false,"rental_uris":{"android":"levelo://app?vid=9f85ca18-0860-43a5-8b51-6713a6514068","ios":"levelo://app?vid=9f85ca18-0860-43a5-8b51-6713a6514068"},"vehicle_type_id":"4","last_reported":1730128179,"current_range_meters":33600,"station_id":"ce4bhr12rcd13ifvqhqg","pricing_plan_id":"cebpf4jnsgd1na2vs0mg"},{"bike_id":"74aec867-ed36-4359-8861-c82b9adfaa00","system_id":"levelo_inurba_marseille","lat":43.29032,"lon":5.37568,"is_reserved":false,"is_disabled":false,"rental_uris":{"android":"levelo://app?vid=74aec867-ed36-4359-8861-c82b9adfaa00","ios":"levelo://app?vid=74aec867-ed36-4359-8861-c82b9adfaa00"},"vehicle_type_id":"4","last_reported":1730128179,"current_range_meters":38000,"station_id":"ce4bh692rcd13ifvqe90","pricing_plan_id":"cebpf4jnsgd1na2vs0mg"},{"bike_id":"54b4f5b1-7a14-4043-ad6d-2d9b580d105b","system_id":"levelo_inurba_marseille","lat":43.29318,"lon":5.37178,"is_reserved":false,"is_disabled":false,"rental_uris":{"android":"levelo://app?vid=54b4f5b1-7a14-4043-ad6d-2d9b580d105b","ios":"levelo://app?vid=54b4f5b1-7a14-4043-ad6d-2d9b580d105b"},"vehicle_type_id":"4","last_reported":1730128179,"current_range_meters":20400,"station_id":"ce4bgh92rcd13ifvqb40","pricing_plan_id":"cebpf4jnsgd1na2vs0mg"},{"bike_id":"8e2b79c4-bed0-4855-9ee6-0fc1b2339404","system_id":"levelo_inurba_marseille","lat":43.26567,"lon":5.39005,"is_reserved":false,"is_disabled":false,"rental_uris":{"android":"levelo://app?vid=8e2b79c4-bed0-4855-9ee6-0fc1b2339404","ios":"levelo://app?vid=8e2b79c4-bed0-4855-9ee6-0fc1b2339404"},"vehicle_type_id":"4","last_reported":1730128179,"current_range_meters":23200,"station_id":"ce4bhe12rcd13ifvqf30","pricing_plan_id":"cebpf4jnsgd1na2vs0mg"},{"bike_id":"e5de596f-bbfd-4a89-9b06-4f2452433cb2","system_id":"levelo_inurba_marseille","lat":43.289398,"lon":5.366397,"is_reserved":false,"is_disabled":false,"rental_uris":{"android":"levelo://app?vid=e5de596f-bbfd-4a89-9b06-4f2452433cb2","ios":"levelo://app?vid=e5de596f-bbfd-4a89-9b06-4f2452433cb2"},"vehicle_type_id":"4","last_reported":1730128179,"current_range_meters":18000,"station_id":"ce4bhap2rcd13ifvqek0","pricing_plan_id":"cebpf4jnsgd1na2vs0mg"},{"bike_id":"86a905c8-0069-4c90-8c83-a0cc5d99e407","system_id":"levelo_inurba_marseille","lat":43.25719,"lon":5.41112,"is_reserved":false,"is_disabled":false,"rental_uris":{"android":"levelo://app?vid=86a905c8-0069-4c90-8c83-a0cc5d99e407","ios":"levelo://app?vid=86a905c8-0069-4c90-8c83-a0cc5d99e407"},"vehicle_type_id":"4","last_reported":1730128179,"current_range_meters":19200,"station_id":"ce4bhkp2rcd13ifvqgd0","pricing_plan_id":"cebpf4jnsgd1na2vs0mg"},{"bike_id":"6875a1a6-32b9-4783-93f5-84a3a0c85f67","system_id":"levelo_inurba_marseille","lat":43.23066,"lon":5.35491,"is_reserved":false,"is_disabled":false,"rental_uris":{"android":"levelo://app?vid=6875a1a6-32b9-4783-93f5-84a3a0c85f67","ios":"levelo://app?vid=6875a1a6-32b9-4783-93f5-84a3a0c85f67"},"vehicle_type_id":"4","last_reported":1730128179,"current_range_meters":19200,"station_id":"cpo3342slgdg3j2ifvpg","pricing_plan_id":"cebpf4jnsgd1na2vs0mg"},{"bike_id":"d1823cd1-8fd3-49c2-9d87-e1574747b393","system_id":"levelo_inurba_marseille","lat":43.24652,"lon":5.38895,"is_reserved":false,"is_disabled":false,"rental_uris":{"android":"levelo://app?vid=d1823cd1-8fd3-49c2-9d87-e1574747b393","ios":"levelo://app?vid=d1823cd1-8fd3-49c2-9d87-e1574747b393"},"vehicle_type_id":"4","last_reported":1730128179,"current_range_meters":32000,"station_id":"ce4bhg12rcd13ifvqf60","pricing_plan_id":"cebpf4jnsgd1na2vs0mg"},{"bike_id":"edee228c-76f1-4f9d-b4f7-5773b8a0b850","system_id":"levelo_inurba_marseille","lat":43.23193,"lon":5.35552,"is_reserved":false,"is_disabled":false,"rental_uris":{"android":"levelo://app?vid=edee228c-76f1-4f9d-b4f7-5773b8a0b850","ios":"levelo://app?vid=edee228c-76f1-4f9d-b4f7-5773b8a0b850"},"vehicle_type_id":"4","last_reported":1730128179,"current_range_meters":24800,"station_id":"ce4bhu92rcd13ifvqi70","pricing_plan_id":"cebpf4jnsgd1na2vs0mg"},{"bike_id":"4e09bf1c-de89-431c-8c1f-adbe3417d977","system_id":"levelo_inurba_marseille","lat":43.28939,"lon":5.36645,"is_reserved":false,"is_disabled":false,"rental_uris":{"android":"levelo://app?vid=4e09bf1c-de89-431c-8c1f-adbe3417d977","ios":"levelo://app?vid=4e09bf1c-de89-431c-8c1f-adbe3417d977"},"vehicle_type_id":"4","last_reported":1730128179,"current_range_meters":16000,"station_id":"ce4bhap2rcd13ifvqek0","pricing_plan_id":"cebpf4jnsgd1na2vs0mg"},{"bike_id":"e89036ab-06cb-459b-91f1-830ff3435de6","system_id":"levelo_inurba_marseille","lat":43.23197,"lon":5.35549,"is_reserved":false,"is_disabled":false,"rental_uris":{"android":"levelo://app?vid=e89036ab-06cb-459b-91f1-830ff3435de6","ios":"levelo://app?vid=e89036ab-06cb-459b-91f1-830ff3435de6"},"vehicle_type_id":"4","last_reported":1730128179,"current_range_meters":36800,"station_id":"ce4bhu92rcd13ifvqi70","pricing_plan_id":"cebpf4jnsgd1na2vs0mg"},{"bike_id":"1e9c6d74-0c0c-49af-9594-2e87c37feece","system_id":"levelo_inurba_marseille","lat":43.28848,"lon":5.3585,"is_reserved":false,"is_disabled":false,"rental_uris":{"android":"levelo://app?vid=1e9c6d74-0c0c-49af-9594-2e87c37feece","ios":"levelo://app?vid=1e9c6d74-0c0c-49af-9594-2e87c37feece"},"vehicle_type_id":"4","last_reported":1730128179,"current_range_meters":38800,"station_id":"ce4bhb12rcd13ifvqem0","pricing_plan_id":"cebpf4jnsgd1na2vs0mg"},{"bike_id":"e024556a-5e13-473f-93f1-0564b95b1a8c","system_id":"levelo_inurba_marseille","lat":43.30143,"lon":5.37429,"is_reserved":false,"is_disabled":false,"rental_uris":{"android":"levelo://app?vid=e024556a-5e13-473f-93f1-0564b95b1a8c","ios":"levelo://app?vid=e024556a-5e13-473f-93f1-0564b95b1a8c"},"vehicle_type_id":"4","last_reported":1730128179,"current_range_meters":8400,"station_id":"ce4bgs92rcd13ifvqcc0","pricing_plan_id":"cebpf4jnsgd1na2vs0mg"},{"bike_id":"ca89ed94-58cc-47ac-95d4-ddc16ed6670a","system_id":"levelo_inurba_marseille","lat":43.31268,"lon":5.40182,"is_reserved":false,"is_disabled":false,"rental_uris":{"android":"levelo://app?vid=ca89ed94-58cc-47ac-95d4-ddc16ed6670a","ios":"levelo://app?vid=ca89ed94-58cc-47ac-95d4-ddc16ed6670a"},"vehicle_type_id":"4","last_reported":1730128179,"current_range_meters":20000,"station_id":"ce4bh092rcd13ifvqd30","pricing_plan_id":"cebpf4jnsgd1na2vs0mg"},{"bike_id":"5d013205-968f-46f0-8cb2-f55d13ad5ff4","system_id":"levelo_inurba_marseille","lat":43.32483,"lon":5.36571,"is_reserved":false,"is_disabled":false,"rental_uris":{"android":"levelo://app?vid=5d013205-968f-46f0-8cb2-f55d13ad5ff4","ios":"levelo://app?vid=5d013205-968f-46f0-8cb2-f55d13ad5ff4"},"vehicle_type_id":"4","last_reported":1730128179,"current_range_meters":36800,"station_id":"ce4bhs12rcd13ifvqhvg","pricing_plan_id":"cebpf4jnsgd1na2vs0mg"},{"bike_id":"9f5f68ba-461d-45e6-a267-976961ce8e55","system_id":"levelo_inurba_marseille","lat":43.32557,"lon":5.38022,"is_reserved":false,"is_disabled":false,"rental_uris":{"android":"levelo://app?vid=9f5f68ba-461d-45e6-a267-976961ce8e55","ios":"levelo://app?vid=9f5f68ba-461d-45e6-a267-976961ce8e55"},"vehicle_type_id":"4","last_reported":1730128179,"current_range_meters":26800,"station_id":"ce4bgvp2rcd13ifvqcu0","pricing_plan_id":"cebpf4jnsgd1na2vs0mg"},{"bike_id":"f149b07a-716e-44e4-b275-ae54caf5f871","system_id":"levelo_inurba_marseille","lat":43.24177,"lon":5.39729,"is_reserved":false,"is_disabled":false,"rental_uris":{"android":"levelo://app?vid=f149b07a-716e-44e4-b275-ae54caf5f871","ios":"levelo://app?vid=f149b07a-716e-44e4-b275-ae54caf5f871"},"vehicle_type_id":"4","last_reported":1730128179,"current_range_meters":14400,"station_id":"ce4bhn12rcd13ifvqgpg","pricing_plan_id":"cebpf4jnsgd1na2vs0mg"},{"bike_id":"e54ae837-88f6-4927-9ee9-81884c060210","system_id":"levelo_inurba_marseille","lat":43.27373,"lon":5.36264,"is_reserved":false,"is_disabled":false,"rental_uris":{"android":"levelo://app?vid=e54ae837-88f6-4927-9ee9-81884c060210","ios":"levelo://app?vid=e54ae837-88f6-4927-9ee9-81884c060210"},"vehicle_type_id":"4","last_reported":1730128179,"current_range_meters":18000,"station_id":"ce4bhbh2rcd13ifvqeo0","pricing_plan_id":"cebpf4jnsgd1na2vs0mg"},{"bike_id":"2f921f60-1890-404a-898c-6dae28d2ff64","system_id":"levelo_inurba_marseille","lat":43.32114,"lon":5.36783,"is_reserved":false,"is_disabled":false,"rental_uris":{"android":"levelo://app?vid=2f921f60-1890-404a-898c-6dae28d2ff64","ios":"levelo://app?vid=2f921f60-1890-404a-898c-6dae28d2ff64"},"vehicle_type_id":"4","last_reported":1730128179,"current_range_meters":38800,"station_id":"ce4bhrh2rcd13ifvqhug","pricing_plan_id":"cebpf4jnsgd1na2vs0mg"},{"bike_id":"133988f1-6f73-4e20-907b-af9f23cfa899","system_id":"levelo_inurba_marseille","lat":43.24167,"lon":5.36396,"is_reserved":false,"is_disabled":false,"rental_uris":{"android":"levelo://app?vid=133988f1-6f73-4e20-907b-af9f23cfa899","ios":"levelo://app?vid=133988f1-6f73-4e20-907b-af9f23cfa899"},"vehicle_type_id":"4","last_reported":1730128179,"current_range_meters":16000,"station_id":"cpo36qri1sfpv3e86is0","pricing_plan_id":"cebpf4jnsgd1na2vs0mg"},{"bike_id":"79226d2a-7d7c-4232-b251-c5a27e6cacb4","system_id":"levelo_inurba_marseille","lat":43.33024,"lon":5.39046,"is_reserved":false,"is_disabled":false,"rental_uris":{"android":"levelo://app?vid=79226d2a-7d7c-4232-b251-c5a27e6cacb4","ios":"levelo://app?vid=79226d2a-7d7c-4232-b251-c5a27e6cacb4"},"vehicle_type_id":"4","last_reported":1730128179,"current_range_meters":28800,"station_id":"ce4bhr92rcd13ifvqhrg","pricing_plan_id":"cebpf4jnsgd1na2vs0mg"},{"bike_id":"1959dbd9-0ee0-478d-a3dc-b3a0dfb37df2","system_id":"levelo_inurba_marseille","lat":43.30544,"lon":5.36537,"is_reserved":false,"is_disabled":false,"rental_uris":{"android":"levelo://app?vid=1959dbd9-0ee0-478d-a3dc-b3a0dfb37df2","ios":"levelo://app?vid=1959dbd9-0ee0-478d-a3dc-b3a0dfb37df2"},"vehicle_type_id":"4","last_reported":1730128179,"current_range_meters":36000,"station_id":"ce4bgs12rcd13ifvqcag","pricing_plan_id":"cebpf4jnsgd1na2vs0mg"},{"bike_id":"952539e1-9be0-48d5-adc4-6d5a41ae7b8d","system_id":"levelo_inurba_marseille","lat":43.29704,"lon":5.36618,"is_reserved":false,"is_disabled":false,"rental_uris":{"android":"levelo://app?vid=952539e1-9be0-48d5-adc4-6d5a41ae7b8d","ios":"levelo://app?vid=952539e1-9be0-48d5-adc4-6d5a41ae7b8d"},"vehicle_type_id":"4","last_reported":1730128179,"current_range_meters":6000,"station_id":"ce4bgn12rcd13ifvqbt0","pricing_plan_id":"cebpf4jnsgd1na2vs0mg"},{"bike_id":"cd8988cf-34e0-4cd8-92c1-67d3cd8c964e","system_id":"levelo_inurba_marseille","lat":43.23961,"lon":5.36628,"is_reserved":false,"is_disabled":false,"rental_uris":{"android":"levelo://app?vid=cd8988cf-34e0-4cd8-92c1-67d3cd8c964e","ios":"levelo://app?vid=cd8988cf-34e0-4cd8-92c1-67d3cd8c964e"},"vehicle_type_id":"4","last_reported":1730128179,"current_range_meters":10000,"station_id":"ce4bhi12rcd13ifvqfp0","pricing_plan_id":"cebpf4jnsgd1na2vs0mg"},{"bike_id":"ffad5566-4dd5-4560-9355-b6f620cf1a28","system_id":"levelo_inurba_marseille","lat":43.29876,"lon":5.39733,"is_reserved":false,"is_disabled":false,"rental_uris":{"android":"levelo://app?vid=ffad5566-4dd5-4560-9355-b6f620cf1a28","ios":"levelo://app?vid=ffad5566-4dd5-4560-9355-b6f620cf1a28"},"vehicle_type_id":"4","last_reported":1730128179,"current_range_meters":19600,"station_id":"ce4bh0h2rcd13ifvqd50","pricing_plan_id":"cebpf4jnsgd1na2vs0mg"},{"bike_id":"f2e4a1d3-5b1f-4dc4-a508-04c2edfd00c2","system_id":"levelo_inurba_marseille","lat":43.30266,"lon":5.37732,"is_reserved":false,"is_disabled":false,"rental_uris":{"android":"levelo://app?vid=f2e4a1d3-5b1f-4dc4-a508-04c2edfd00c2","ios":"levelo://app?vid=f2e4a1d3-5b1f-4dc4-a508-04c2edfd00c2"},"vehicle_type_id":"4","last_reported":1730128179,"current_range_meters":36000,"station_id":"ce4bguh2rcd13ifvqcj0","pricing_plan_id":"cebpf4jnsgd1na2vs0mg"},{"bike_id":"4f252ccf-d8bc-4d84-98b8-8245335e1e6c","system_id":"levelo_inurba_marseille","lat":43.30907,"lon":5.36851,"is_reserved":false,"is_disabled":false,"rental_uris":{"android":"levelo://app?vid=4f252ccf-d8bc-4d84-98b8-8245335e1e6c","ios":"levelo://app?vid=4f252ccf-d8bc-4d84-98b8-8245335e1e6c"},"vehicle_type_id":"4","last_reported":1730128179,"current_range_meters":19600,"station_id":"ce4bgn92rcd13ifvqbvg","pricing_plan_id":"cebpf4jnsgd1na2vs0mg"},{"bike_id":"58d71a62-e404-4a9f-b49c-a8d046c60c70","system_id":"levelo_inurba_marseille","lat":43.25582,"lon":5.38241,"is_reserved":false,"is_disabled":false,"rental_uris":{"android":"levelo://app?vid=58d71a62-e404-4a9f-b49c-a8d046c60c70","ios":"levelo://app?vid=58d71a62-e404-4a9f-b49c-a8d046c60c70"},"vehicle_type_id":"4","last_reported":1730128179,"current_range_meters":8000,"station_id":"ce4bhih2rcd13ifvqfs0","pricing_plan_id":"cebpf4jnsgd1na2vs0mg"},{"bike_id":"8778b84f-6ef8-421b-978e-8a2e5da33f5e","system_id":"levelo_inurba_marseille","lat":43.28264,"lon":5.35073,"is_reserved":false,"is_disabled":false,"rental_uris":{"android":"levelo://app?vid=8778b84f-6ef8-421b-978e-8a2e5da33f5e","ios":"levelo://app?vid=8778b84f-6ef8-421b-978e-8a2e5da33f5e"},"vehicle_type_id":"4","last_reported":1730128179,"current_range_meters":22800,"station_id":"ce4bhbp2rcd13ifvqerg","pricing_plan_id":"cebpf4jnsgd1na2vs0mg"},{"bike_id":"62366555-63d3-49e1-a5bc-bcf08decf2f5","system_id":"levelo_inurba_marseille","lat":43.29191,"lon":5.35791,"is_reserved":false,"is_disabled":false,"rental_uris":{"android":"levelo://app?vid=62366555-63d3-49e1-a5bc-bcf08decf2f5","ios":"levelo://app?vid=62366555-63d3-49e1-a5bc-bcf08decf2f5"},"vehicle_type_id":"4","last_reported":1730128179,"current_range_meters":19600,"station_id":"ce4bhb12rcd13ifvqel0","pricing_plan_id":"cebpf4jnsgd1na2vs0mg"},{"bike_id":"fe0f4ad9-8221-48ed-be5d-c64547a2f47a","system_id":"levelo_inurba_marseille","lat":43.28643,"lon":5.38354,"is_reserved":false,"is_disabled":false,"rental_uris":{"android":"levelo://app?vid=fe0f4ad9-8221-48ed-be5d-c64547a2f47a","ios":"levelo://app?vid=fe0f4ad9-8221-48ed-be5d-c64547a2f47a"},"vehicle_type_id":"4","last_reported":1730128179,"current_range_meters":21600,"station_id":"ce4bh4p2rcd13ifvqe1g","pricing_plan_id":"cebpf4jnsgd1na2vs0mg"},{"bike_id":"6054241b-cc29-4be5-8fa2-240795619742","system_id":"levelo_inurba_marseille","lat":43.29306,"lon":5.37177,"is_reserved":false,"is_disabled":false,"rental_uris":{"android":"levelo://app?vid=6054241b-cc29-4be5-8fa2-240795619742","ios":"levelo://app?vid=6054241b-cc29-4be5-8fa2-240795619742"},"vehicle_type_id":"4","last_reported":1730128179,"current_range_meters":29600,"station_id":"ce4bgh92rcd13ifvqb40","pricing_plan_id":"cebpf4jnsgd1na2vs0mg"},{"bike_id":"8d66ba2e-e771-4c67-99ad-ef2d113002e3","system_id":"levelo_inurba_marseille","lat":43.25091,"lon":5.3952,"is_reserved":false,"is_disabled":false,"rental_uris":{"android":"levelo://app?vid=8d66ba2e-e771-4c67-99ad-ef2d113002e3","ios":"levelo://app?vid=8d66ba2e-e771-4c67-99ad-ef2d113002e3"},"vehicle_type_id":"4","last_reported":1730128179,"current_range_meters":38800,"station_id":"ce4bhm12rcd13ifvqgkg","pricing_plan_id":"cebpf4jnsgd1na2vs0mg"},{"bike_id":"e74371b6-52a5-44a0-a08b-084b860ed7ae","system_id":"levelo_inurba_marseille","lat":43.28414,"lon":5.34978,"is_reserved":false,"is_disabled":false,"rental_uris":{"android":"levelo://app?vid=e74371b6-52a5-44a0-a08b-084b860ed7ae","ios":"levelo://app?vid=e74371b6-52a5-44a0-a08b-084b860ed7ae"},"vehicle_type_id":"4","last_reported":1730128179,"current_range_meters":28400,"station_id":"ce4bhbh2rcd13ifvqepg","pricing_plan_id":"cebpf4jnsgd1na2vs0mg"},{"bike_id":"985f0226-a4e7-458b-bf91-958049d6ae02","system_id":"levelo_inurba_marseille","lat":43.28666,"lon":5.36356,"is_reserved":false,"is_disabled":false,"rental_uris":{"android":"levelo://app?vid=985f0226-a4e7-458b-bf91-958049d6ae02","ios":"levelo://app?vid=985f0226-a4e7-458b-bf91-958049d6ae02"},"vehicle_type_id":"4","last_reported":1730128179,"current_range_meters":20000,"station_id":"ce4bhah2rcd13ifvqej0","pricing_plan_id":"cebpf4jnsgd1na2vs0mg"},{"bike_id":"5d739456-44a8-4b3a-96b2-6036db304e94","system_id":"levelo_inurba_marseille","lat":43.24547,"lon":5.39523,"is_reserved":false,"is_disabled":false,"rental_uris":{"android":"levelo://app?vid=5d739456-44a8-4b3a-96b2-6036db304e94","ios":"levelo://app?vid=5d739456-44a8-4b3a-96b2-6036db304e94"},"vehicle_type_id":"4","last_reported":1730128179,"current_range_meters":14800,"station_id":"ce4bhlp2rcd13ifvqgjg","pricing_plan_id":"cebpf4jnsgd1na2vs0mg"},{"bike_id":"7294e48a-4dba-46cb-8218-4e4ba1cdcc29","system_id":"levelo_inurba_marseille","lat":43.27182,"lon":5.40988,"is_reserved":false,"is_disabled":false,"rental_uris":{"android":"levelo://app?vid=7294e48a-4dba-46cb-8218-4e4ba1cdcc29","ios":"levelo://app?vid=7294e48a-4dba-46cb-8218-4e4ba1cdcc29"},"vehicle_type_id":"4","last_reported":1730128179,"current_range_meters":36400,"station_id":"ce4bhl12rcd13ifvqgf0","pricing_plan_id":"cebpf4jnsgd1na2vs0mg"},{"bike_id":"6b6a994b-dd1b-4c47-bb79-285b7ce84777","system_id":"levelo_inurba_marseille","lat":43.32109,"lon":5.36782,"is_reserved":false,"is_disabled":false,"rental_uris":{"android":"levelo://app?vid=6b6a994b-dd1b-4c47-bb79-285b7ce84777","ios":"levelo://app?vid=6b6a994b-dd1b-4c47-bb79-285b7ce84777"},"vehicle_type_id":"4","last_reported":1730128179,"current_range_meters":38800,"station_id":"ce4bhrh2rcd13ifvqhug","pricing_plan_id":"cebpf4jnsgd1na2vs0mg"},{"bike_id":"e1c56ad3-d37c-47e0-b6b5-190841d1e4dc","system_id":"levelo_inurba_marseille","lat":43.265,"lon":5.39546,"is_reserved":false,"is_disabled":false,"rental_uris":{"android":"levelo://app?vid=e1c56ad3-d37c-47e0-b6b5-190841d1e4dc","ios":"levelo://app?vid=e1c56ad3-d37c-47e0-b6b5-190841d1e4dc"},"vehicle_type_id":"4","last_reported":1730128179,"current_range_meters":32000,"station_id":"ce4bhi12rcd13ifvqfq0","pricing_plan_id":"cebpf4jnsgd1na2vs0mg"},{"bike_id":"1d1788e1-fe25-45aa-9dbb-5a3ac626b825","system_id":"levelo_inurba_marseille","lat":43.29857,"lon":5.36294,"is_reserved":false,"is_disabled":false,"rental_uris":{"android":"levelo://app?vid=1d1788e1-fe25-45aa-9dbb-5a3ac626b825","ios":"levelo://app?vid=1d1788e1-fe25-45aa-9dbb-5a3ac626b825"},"vehicle_type_id":"4","last_reported":1730128179,"current_range_meters":32800,"station_id":"ce4bgpp2rcd13ifvqc3g","pricing_plan_id":"cebpf4jnsgd1na2vs0mg"},{"bike_id":"e113f747-4daa-44f7-a218-9e030daa2565","system_id":"levelo_inurba_marseille","lat":43.32105,"lon":5.36779,"is_reserved":false,"is_disabled":false,"rental_uris":{"android":"levelo://app?vid=e113f747-4daa-44f7-a218-9e030daa2565","ios":"levelo://app?vid=e113f747-4daa-44f7-a218-9e030daa2565"},"vehicle_type_id":"4","last_reported":1730128179,"current_range_meters":20400,"station_id":"ce4bhrh2rcd13ifvqhug","pricing_plan_id":"cebpf4jnsgd1na2vs0mg"},{"bike_id":"48ba46aa-3a9e-498e-973d-fdc042d3ef83","system_id":"levelo_inurba_marseille","lat":43.29885,"lon":5.38915,"is_reserved":false,"is_disabled":false,"rental_uris":{"android":"levelo://app?vid=48ba46aa-3a9e-498e-973d-fdc042d3ef83","ios":"levelo://app?vid=48ba46aa-3a9e-498e-973d-fdc042d3ef83"},"vehicle_type_id":"4","last_reported":1730128179,"current_range_meters":34800,"station_id":"ce4bh392rcd13ifvqdl0","pricing_plan_id":"cebpf4jnsgd1na2vs0mg"},{"bike_id":"c83bf92a-895e-4031-90cc-0a4806604b3f","system_id":"levelo_inurba_marseille","lat":43.23054,"lon":5.35491,"is_reserved":false,"is_disabled":false,"rental_uris":{"android":"levelo://app?vid=c83bf92a-895e-4031-90cc-0a4806604b3f","ios":"levelo://app?vid=c83bf92a-895e-4031-90cc-0a4806604b3f"},"vehicle_type_id":"4","last_reported":1730128179,"current_range_meters":36800,"station_id":"cpo3342slgdg3j2ifvpg","pricing_plan_id":"cebpf4jnsgd1na2vs0mg"},{"bike_id":"8369c906-d97f-47a6-9399-b6cd9d8c7358","system_id":"levelo_inurba_marseille","lat":43.30877,"lon":5.37187,"is_reserved":false,"is_disabled":false,"rental_uris":{"android":"levelo://app?vid=8369c906-d97f-47a6-9399-b6cd9d8c7358","ios":"levelo://app?vid=8369c906-d97f-47a6-9399-b6cd9d8c7358"},"vehicle_type_id":"4","last_reported":1730128179,"current_range_meters":28400,"station_id":"ce4bguh2rcd13ifvqckg","pricing_plan_id":"cebpf4jnsgd1na2vs0mg"},{"bike_id":"331938df-934d-4263-b048-6d18b7a1cda1","system_id":"levelo_inurba_marseille","lat":43.30601,"lon":5.37214,"is_reserved":false,"is_disabled":false,"rental_uris":{"android":"levelo://app?vid=331938df-934d-4263-b048-6d18b7a1cda1","ios":"levelo://app?vid=331938df-934d-4263-b048-6d18b7a1cda1"},"vehicle_type_id":"4","last_reported":1730128179,"current_range_meters":22000,"station_id":"ce4bgqh2rcd13ifvqc4g","pricing_plan_id":"cebpf4jnsgd1na2vs0mg"},{"bike_id":"9fd56fad-5f3d-42b4-b491-7b57b76bc0cf","system_id":"levelo_inurba_marseille","lat":43.27817,"lon":5.4072,"is_reserved":false,"is_disabled":false,"rental_uris":{"android":"levelo://app?vid=9fd56fad-5f3d-42b4-b491-7b57b76bc0cf","ios":"levelo://app?vid=9fd56fad-5f3d-42b4-b491-7b57b76bc0cf"},"vehicle_type_id":"4","last_reported":1730128179,"current_range_meters":16400,"station_id":"ce4bhnh2rcd13ifvqgtg","pricing_plan_id":"cebpf4jnsgd1na2vs0mg"},{"bike_id":"fac1759b-03bb-40c6-b55f-5f45ab1952b6","system_id":"levelo_inurba_marseille","lat":43.30592,"lon":5.3936,"is_reserved":false,"is_disabled":false,"rental_uris":{"android":"levelo://app?vid=fac1759b-03bb-40c6-b55f-5f45ab1952b6","ios":"levelo://app?vid=fac1759b-03bb-40c6-b55f-5f45ab1952b6"},"vehicle_type_id":"4","last_reported":1730128179,"current_range_meters":38400,"station_id":"ce4bh0p2rcd13ifvqd80","pricing_plan_id":"cebpf4jnsgd1na2vs0mg"},{"bike_id":"263c3a26-a124-4663-abb1-4c08951a90e3","system_id":"levelo_inurba_marseille","lat":43.31223,"lon":5.36867,"is_reserved":false,"is_disabled":false,"rental_uris":{"android":"levelo://app?vid=263c3a26-a124-4663-abb1-4c08951a90e3","ios":"levelo://app?vid=263c3a26-a124-4663-abb1-4c08951a90e3"},"vehicle_type_id":"4","last_reported":1730128179,"current_range_meters":28000,"station_id":"ce4bgl92rcd13ifvqbq0","pricing_plan_id":"cebpf4jnsgd1na2vs0mg"},{"bike_id":"4a60a4b3-3d7b-4747-ae32-7ad4aff1372b","system_id":"levelo_inurba_marseille","lat":43.28431,"lon":5.34997,"is_reserved":false,"is_disabled":false,"rental_uris":{"android":"levelo://app?vid=4a60a4b3-3d7b-4747-ae32-7ad4aff1372b","ios":"levelo://app?vid=4a60a4b3-3d7b-4747-ae32-7ad4aff1372b"},"vehicle_type_id":"4","last_reported":1730128179,"current_range_meters":36400,"station_id":"ce4bhbh2rcd13ifvqepg","pricing_plan_id":"cebpf4jnsgd1na2vs0mg"},{"bike_id":"cf81b8aa-ceff-4b15-8225-02825f6af1ac","system_id":"levelo_inurba_marseille","lat":43.28271,"lon":5.35069,"is_reserved":false,"is_disabled":false,"rental_uris":{"android":"levelo://app?vid=cf81b8aa-ceff-4b15-8225-02825f6af1ac","ios":"levelo://app?vid=cf81b8aa-ceff-4b15-8225-02825f6af1ac"},"vehicle_type_id":"4","last_reported":1730128179,"current_range_meters":38000,"station_id":"ce4bhbp2rcd13ifvqerg","pricing_plan_id":"cebpf4jnsgd1na2vs0mg"},{"bike_id":"9a2687d0-a4b5-41d5-8900-f196f97f8cee","system_id":"levelo_inurba_marseille","lat":43.26558,"lon":5.37283,"is_reserved":false,"is_disabled":false,"rental_uris":{"android":"levelo://app?vid=9a2687d0-a4b5-41d5-8900-f196f97f8cee","ios":"levelo://app?vid=9a2687d0-a4b5-41d5-8900-f196f97f8cee"},"vehicle_type_id":"4","last_reported":1730128179,"current_range_meters":10000,"station_id":"ce4bhg12rcd13ifvqf70","pricing_plan_id":"cebpf4jnsgd1na2vs0mg"},{"bike_id":"115150ac-0db0-4868-b97e-184bd0c900fe","system_id":"levelo_inurba_marseille","lat":43.27374,"lon":5.36247,"is_reserved":false,"is_disabled":false,"rental_uris":{"android":"levelo://app?vid=115150ac-0db0-4868-b97e-184bd0c900fe","ios":"levelo://app?vid=115150ac-0db0-4868-b97e-184bd0c900fe"},"vehicle_type_id":"4","last_reported":1730128179,"current_range_meters":13600,"station_id":"ce4bhbh2rcd13ifvqeo0","pricing_plan_id":"cebpf4jnsgd1na2vs0mg"},{"bike_id":"e93f42e4-ca27-4ae1-ade5-80b77e2287bc","system_id":"levelo_inurba_marseille","lat":43.26208,"lon":5.37923,"is_reserved":false,"is_disabled":false,"rental_uris":{"android":"levelo://app?vid=e93f42e4-ca27-4ae1-ade5-80b77e2287bc","ios":"levelo://app?vid=e93f42e4-ca27-4ae1-ade5-80b77e2287bc"},"vehicle_type_id":"4","last_reported":1730128179,"current_range_meters":32400,"station_id":"ce4bhjp2rcd13ifvqg90","pricing_plan_id":"cebpf4jnsgd1na2vs0mg"},{"bike_id":"2c053df8-239c-4642-af9a-a9ae04a15aee","system_id":"levelo_inurba_marseille","lat":43.29683,"lon":5.37307,"is_reserved":false,"is_disabled":false,"rental_uris":{"android":"levelo://app?vid=2c053df8-239c-4642-af9a-a9ae04a15aee","ios":"levelo://app?vid=2c053df8-239c-4642-af9a-a9ae04a15aee"},"vehicle_type_id":"4","last_reported":1730128179,"current_range_meters":26800,"station_id":"ce4bgk12rcd13ifvqbj0","pricing_plan_id":"cebpf4jnsgd1na2vs0mg"},{"bike_id":"939ef23a-8e9f-47e0-ba95-784e8e1c14b8","system_id":"levelo_inurba_marseille","lat":43.23065,"lon":5.35499,"is_reserved":false,"is_disabled":false,"rental_uris":{"android":"levelo://app?vid=939ef23a-8e9f-47e0-ba95-784e8e1c14b8","ios":"levelo://app?vid=939ef23a-8e9f-47e0-ba95-784e8e1c14b8"},"vehicle_type_id":"4","last_reported":1730128179,"current_range_meters":16400,"station_id":"cpo3342slgdg3j2ifvpg","pricing_plan_id":"cebpf4jnsgd1na2vs0mg"},{"bike_id":"55dd2868-94c0-4d82-ab00-1d50b90d8d01","system_id":"levelo_inurba_marseille","lat":43.31272,"lon":5.40172,"is_reserved":false,"is_disabled":false,"rental_uris":{"android":"levelo://app?vid=55dd2868-94c0-4d82-ab00-1d50b90d8d01","ios":"levelo://app?vid=55dd2868-94c0-4d82-ab00-1d50b90d8d01"},"vehicle_type_id":"4","last_reported":1730128179,"current_range_meters":36000,"station_id":"ce4bh092rcd13ifvqd30","pricing_plan_id":"cebpf4jnsgd1na2vs0mg"},{"bike_id":"ef2df979-577d-4de6-92de-f1fd0872918a","system_id":"levelo_inurba_marseille","lat":43.29031,"lon":5.37571,"is_reserved":false,"is_disabled":false,"rental_uris":{"android":"levelo://app?vid=ef2df979-577d-4de6-92de-f1fd0872918a","ios":"levelo://app?vid=ef2df979-577d-4de6-92de-f1fd0872918a"},"vehicle_type_id":"4","last_reported":1730128179,"current_range_meters":8800,"station_id":"ce4bh692rcd13ifvqe90","pricing_plan_id":"cebpf4jnsgd1na2vs0mg"},{"bike_id":"89c096d5-da09-40eb-8271-0be42ba55676","system_id":"levelo_inurba_marseille","lat":43.30892,"lon":5.37189,"is_reserved":false,"is_disabled":false,"rental_uris":{"android":"levelo://app?vid=89c096d5-da09-40eb-8271-0be42ba55676","ios":"levelo://app?vid=89c096d5-da09-40eb-8271-0be42ba55676"},"vehicle_type_id":"4","last_reported":1730128179,"current_range_meters":10800,"station_id":"ce4bguh2rcd13ifvqckg","pricing_plan_id":"cebpf4jnsgd1na2vs0mg"},{"bike_id":"ba7ff12b-4fb3-47ea-b304-85ab8fca1364","system_id":"levelo_inurba_marseille","lat":43.32293,"lon":5.38278,"is_reserved":false,"is_disabled":false,"rental_uris":{"android":"levelo://app?vid=ba7ff12b-4fb3-47ea-b304-85ab8fca1364","ios":"levelo://app?vid=ba7ff12b-4fb3-47ea-b304-85ab8fca1364"},"vehicle_type_id":"4","last_reported":1730128179,"current_range_meters":38800,"station_id":"ce4bhr12rcd13ifvqhqg","pricing_plan_id":"cebpf4jnsgd1na2vs0mg"},{"bike_id":"eddbf326-a36a-408f-8214-1fb5d88e4a45","system_id":"levelo_inurba_marseille","lat":43.29938,"lon":5.36552,"is_reserved":false,"is_disabled":false,"rental_uris":{"android":"levelo://app?vid=eddbf326-a36a-408f-8214-1fb5d88e4a45","ios":"levelo://app?vid=eddbf326-a36a-408f-8214-1fb5d88e4a45"},"vehicle_type_id":"4","last_reported":1730128179,"current_range_meters":3200,"station_id":"ce4bgm92rcd13ifvqbr0","pricing_plan_id":"cebpf4jnsgd1na2vs0mg"},{"bike_id":"60f8d52b-933f-4d09-b199-a8f1a6fae431","system_id":"levelo_inurba_marseille","lat":43.29579,"lon":5.36735,"is_reserved":false,"is_disabled":false,"rental_uris":{"android":"levelo://app?vid=60f8d52b-933f-4d09-b199-a8f1a6fae431","ios":"levelo://app?vid=60f8d52b-933f-4d09-b199-a8f1a6fae431"},"vehicle_type_id":"4","last_reported":1730128179,"current_range_meters":28800,"station_id":"ce4bgph2rcd13ifvqc2g","pricing_plan_id":"cebpf4jnsgd1na2vs0mg"},{"bike_id":"5dc0c8cb-a897-49f0-91a0-1c9ab72781a3","system_id":"levelo_inurba_marseille","lat":43.30613,"lon":5.37223,"is_reserved":false,"is_disabled":false,"rental_uris":{"android":"levelo://app?vid=5dc0c8cb-a897-49f0-91a0-1c9ab72781a3","ios":"levelo://app?vid=5dc0c8cb-a897-49f0-91a0-1c9ab72781a3"},"vehicle_type_id":"4","last_reported":1730128179,"current_range_meters":24400,"station_id":"ce4bgqh2rcd13ifvqc4g","pricing_plan_id":"cebpf4jnsgd1na2vs0mg"},{"bike_id":"45957955-dd08-4565-babe-32d38dc5a423","system_id":"levelo_inurba_marseille","lat":43.28275,"lon":5.35073,"is_reserved":false,"is_disabled":false,"rental_uris":{"android":"levelo://app?vid=45957955-dd08-4565-babe-32d38dc5a423","ios":"levelo://app?vid=45957955-dd08-4565-babe-32d38dc5a423"},"vehicle_type_id":"4","last_reported":1730128179,"current_range_meters":26000,"station_id":"ce4bhbp2rcd13ifvqerg","pricing_plan_id":"cebpf4jnsgd1na2vs0mg"},{"bike_id":"f7a50275-88a4-4be4-ac33-5cce1242cfaa","system_id":"levelo_inurba_marseille","lat":43.31657,"lon":5.37687,"is_reserved":false,"is_disabled":false,"rental_uris":{"android":"levelo://app?vid=f7a50275-88a4-4be4-ac33-5cce1242cfaa","ios":"levelo://app?vid=f7a50275-88a4-4be4-ac33-5cce1242cfaa"},"vehicle_type_id":"4","last_reported":1730128179,"current_range_meters":38800,"station_id":"","pricing_plan_id":"cebpf4jnsgd1na2vs0mg"},{"bike_id":"90c03840-8184-4e2c-bace-d66090600f33","system_id":"levelo_inurba_marseille","lat":43.29518,"lon":5.39048,"is_reserved":false,"is_disabled":false,"rental_uris":{"android":"levelo://app?vid=90c03840-8184-4e2c-bace-d66090600f33","ios":"levelo://app?vid=90c03840-8184-4e2c-bace-d66090600f33"},"vehicle_type_id":"4","last_reported":1730128179,"current_range_meters":17600,"station_id":"ce4bh3p2rcd13ifvqdp0","pricing_plan_id":"cebpf4jnsgd1na2vs0mg"},{"bike_id":"cfc018a0-c93f-4770-9845-f55d47510a28","system_id":"levelo_inurba_marseille","lat":43.30462,"lon":5.3791,"is_reserved":false,"is_disabled":false,"rental_uris":{"android":"levelo://app?vid=cfc018a0-c93f-4770-9845-f55d47510a28","ios":"levelo://app?vid=cfc018a0-c93f-4770-9845-f55d47510a28"},"vehicle_type_id":"4","last_reported":1730128179,"current_range_meters":38800,"station_id":"ce4bgup2rcd13ifvqcn0","pricing_plan_id":"cebpf4jnsgd1na2vs0mg"},{"bike_id":"4ed66cac-c256-49da-949b-2eff01730dbf","system_id":"levelo_inurba_marseille","lat":43.27053,"lon":5.40259,"is_reserved":false,"is_disabled":false,"rental_uris":{"android":"levelo://app?vid=4ed66cac-c256-49da-949b-2eff01730dbf","ios":"levelo://app?vid=4ed66cac-c256-49da-949b-2eff01730dbf"},"vehicle_type_id":"4","last_reported":1730128179,"current_range_meters":38800,"station_id":"ce4bhk92rcd13ifvqgc0","pricing_plan_id":"cebpf4jnsgd1na2vs0mg"},{"bike_id":"4f4057f8-4b93-48aa-9ad9-7176f8b561f5","system_id":"levelo_inurba_marseille","lat":43.29856,"lon":5.36291,"is_reserved":false,"is_disabled":false,"rental_uris":{"android":"levelo://app?vid=4f4057f8-4b93-48aa-9ad9-7176f8b561f5","ios":"levelo://app?vid=4f4057f8-4b93-48aa-9ad9-7176f8b561f5"},"vehicle_type_id":"4","last_reported":1730128179,"current_range_meters":3600,"station_id":"ce4bgpp2rcd13ifvqc3g","pricing_plan_id":"cebpf4jnsgd1na2vs0mg"},{"bike_id":"3a9bd22a-10d8-4950-b2de-0d9c17a4db2a","system_id":"levelo_inurba_marseille","lat":43.293024,"lon":5.374519,"is_reserved":false,"is_disabled":false,"rental_uris":{"android":"levelo://app?vid=3a9bd22a-10d8-4950-b2de-0d9c17a4db2a","ios":"levelo://app?vid=3a9bd22a-10d8-4950-b2de-0d9c17a4db2a"},"vehicle_type_id":"4","last_reported":1730128179,"current_range_meters":16400,"station_id":"ce4bgi12rcd13ifvqb70","pricing_plan_id":"cebpf4jnsgd1na2vs0mg"},{"bike_id":"24c3453c-534c-45c3-af57-87b77df17206","system_id":"levelo_inurba_marseille","lat":43.337675,"lon":5.374638,"is_reserved":false,"is_disabled":false,"rental_uris":{"android":"levelo://app?vid=24c3453c-534c-45c3-af57-87b77df17206","ios":"levelo://app?vid=24c3453c-534c-45c3-af57-87b77df17206"},"vehicle_type_id":"4","last_reported":1730128179,"current_range_meters":38000,"station_id":"","pricing_plan_id":"cebpf4jnsgd1na2vs0mg"},{"bike_id":"4cf016cf-222a-4af0-b71c-5001d7c7e17d","system_id":"levelo_inurba_marseille","lat":43.2509,"lon":5.39529,"is_reserved":false,"is_disabled":false,"rental_uris":{"android":"levelo://app?vid=4cf016cf-222a-4af0-b71c-5001d7c7e17d","ios":"levelo://app?vid=4cf016cf-222a-4af0-b71c-5001d7c7e17d"},"vehicle_type_id":"4","last_reported":1730128179,"current_range_meters":38800,"station_id":"ce4bhm12rcd13ifvqgkg","pricing_plan_id":"cebpf4jnsgd1na2vs0mg"},{"bike_id":"4b010d48-62ee-4913-9d20-dde3bd12a19d","system_id":"levelo_inurba_marseille","lat":43.28722,"lon":5.36086,"is_reserved":false,"is_disabled":false,"rental_uris":{"android":"levelo://app?vid=4b010d48-62ee-4913-9d20-dde3bd12a19d","ios":"levelo://app?vid=4b010d48-62ee-4913-9d20-dde3bd12a19d"},"vehicle_type_id":"4","last_reported":1730128179,"current_range_meters":38400,"station_id":"cki0cbj6b192h4jlfktg","pricing_plan_id":"cebpf4jnsgd1na2vs0mg"},{"bike_id":"6ab00db5-f473-4316-b995-2c38a1f114b1","system_id":"levelo_inurba_marseille","lat":43.29923,"lon":5.37477,"is_reserved":false,"is_disabled":false,"rental_uris":{"android":"levelo://app?vid=6ab00db5-f473-4316-b995-2c38a1f114b1","ios":"levelo://app?vid=6ab00db5-f473-4316-b995-2c38a1f114b1"},"vehicle_type_id":"4","last_reported":1730128179,"current_range_meters":35200,"station_id":"ce4bgjh2rcd13ifvqbg0","pricing_plan_id":"cebpf4jnsgd1na2vs0mg"},{"bike_id":"82c43ad3-9e3d-43ac-ace0-20c229b62050","system_id":"levelo_inurba_marseille","lat":43.26568,"lon":5.39013,"is_reserved":false,"is_disabled":false,"rental_uris":{"android":"levelo://app?vid=82c43ad3-9e3d-43ac-ace0-20c229b62050","ios":"levelo://app?vid=82c43ad3-9e3d-43ac-ace0-20c229b62050"},"vehicle_type_id":"4","last_reported":1730128179,"current_range_meters":4800,"station_id":"ce4bhe12rcd13ifvqf30","pricing_plan_id":"cebpf4jnsgd1na2vs0mg"},{"bike_id":"426c10fa-6ac3-46d5-b82d-ffe5493c7a76","system_id":"levelo_inurba_marseille","lat":43.23057,"lon":5.35487,"is_reserved":false,"is_disabled":false,"rental_uris":{"android":"levelo://app?vid=426c10fa-6ac3-46d5-b82d-ffe5493c7a76","ios":"levelo://app?vid=426c10fa-6ac3-46d5-b82d-ffe5493c7a76"},"vehicle_type_id":"4","last_reported":1730128179,"current_range_meters":8000,"station_id":"cpo3342slgdg3j2ifvpg","pricing_plan_id":"cebpf4jnsgd1na2vs0mg"},{"bike_id":"1c7f26ee-b0d1-4c55-b487-ce810cec61b4","system_id":"levelo_inurba_marseille","lat":43.25088,"lon":5.39517,"is_reserved":false,"is_disabled":false,"rental_uris":{"android":"levelo://app?vid=1c7f26ee-b0d1-4c55-b487-ce810cec61b4","ios":"levelo://app?vid=1c7f26ee-b0d1-4c55-b487-ce810cec61b4"},"vehicle_type_id":"4","last_reported":1730128179,"current_range_meters":28400,"station_id":"ce4bhm12rcd13ifvqgkg","pricing_plan_id":"cebpf4jnsgd1na2vs0mg"},{"bike_id":"9befed88-9f8c-464c-b07b-093bd97066bb","system_id":"levelo_inurba_marseille","lat":43.29805,"lon":5.37136,"is_reserved":false,"is_disabled":false,"rental_uris":{"android":"levelo://app?vid=9befed88-9f8c-464c-b07b-093bd97066bb","ios":"levelo://app?vid=9befed88-9f8c-464c-b07b-093bd97066bb"},"vehicle_type_id":"4","last_reported":1730128179,"current_range_meters":14800,"station_id":"","pricing_plan_id":"cebpf4jnsgd1na2vs0mg"},{"bike_id":"f37e3b02-a49c-4c4e-b112-f9c8c24edf90","system_id":"levelo_inurba_marseille","lat":43.23461,"lon":5.35844,"is_reserved":false,"is_disabled":false,"rental_uris":{"android":"levelo://app?vid=f37e3b02-a49c-4c4e-b112-f9c8c24edf90","ios":"levelo://app?vid=f37e3b02-a49c-4c4e-b112-f9c8c24edf90"},"vehicle_type_id":"4","last_reported":1730128179,"current_range_meters":4800,"station_id":"ce4bhu92rcd13ifvqi70","pricing_plan_id":"cebpf4jnsgd1na2vs0mg"},{"bike_id":"98ccba86-a02d-4bfd-9cb4-d849d3f9f575","system_id":"levelo_inurba_marseille","lat":43.2509,"lon":5.39522,"is_reserved":false,"is_disabled":false,"rental_uris":{"android":"levelo://app?vid=98ccba86-a02d-4bfd-9cb4-d849d3f9f575","ios":"levelo://app?vid=98ccba86-a02d-4bfd-9cb4-d849d3f9f575"},"vehicle_type_id":"4","last_reported":1730128179,"current_range_meters":38800,"station_id":"ce4bhm12rcd13ifvqgkg","pricing_plan_id":"cebpf4jnsgd1na2vs0mg"},{"bike_id":"1ba50cfe-ed45-47f7-9a5c-1b510be542ec","system_id":"levelo_inurba_marseille","lat":43.26213,"lon":5.3744,"is_reserved":false,"is_disabled":false,"rental_uris":{"android":"levelo://app?vid=1ba50cfe-ed45-47f7-9a5c-1b510be542ec","ios":"levelo://app?vid=1ba50cfe-ed45-47f7-9a5c-1b510be542ec"},"vehicle_type_id":"4","last_reported":1730128179,"current_range_meters":17600,"station_id":"ce4bhgp2rcd13ifvqfc0","pricing_plan_id":"cebpf4jnsgd1na2vs0mg"},{"bike_id":"869cd782-8a6b-410b-a09b-821ee59f0f59","system_id":"levelo_inurba_marseille","lat":43.3043,"lon":5.41296,"is_reserved":false,"is_disabled":false,"rental_uris":{"android":"levelo://app?vid=869cd782-8a6b-410b-a09b-821ee59f0f59","ios":"levelo://app?vid=869cd782-8a6b-410b-a09b-821ee59f0f59"},"vehicle_type_id":"4","last_reported":1730128179,"current_range_meters":38800,"station_id":"ce4bhop2rcd13ifvqh8g","pricing_plan_id":"cebpf4jnsgd1na2vs0mg"},{"bike_id":"91ec04be-6cab-4699-b8ff-bb9edc82e8aa","system_id":"levelo_inurba_marseille","lat":43.27379,"lon":5.36256,"is_reserved":false,"is_disabled":false,"rental_uris":{"android":"levelo://app?vid=91ec04be-6cab-4699-b8ff-bb9edc82e8aa","ios":"levelo://app?vid=91ec04be-6cab-4699-b8ff-bb9edc82e8aa"},"vehicle_type_id":"4","last_reported":1730128179,"current_range_meters":6000,"station_id":"ce4bhbh2rcd13ifvqeo0","pricing_plan_id":"cebpf4jnsgd1na2vs0mg"},{"bike_id":"66163ec5-2957-490c-8fe5-3b218664284a","system_id":"levelo_inurba_marseille","lat":43.30557,"lon":5.36543,"is_reserved":false,"is_disabled":false,"rental_uris":{"android":"levelo://app?vid=66163ec5-2957-490c-8fe5-3b218664284a","ios":"levelo://app?vid=66163ec5-2957-490c-8fe5-3b218664284a"},"vehicle_type_id":"4","last_reported":1730128179,"current_range_meters":26000,"station_id":"ce4bgs12rcd13ifvqcag","pricing_plan_id":"cebpf4jnsgd1na2vs0mg"},{"bike_id":"f0c6141b-f834-49b9-8fbf-9bda7044dd0d","system_id":"levelo_inurba_marseille","lat":43.27056,"lon":5.40256,"is_reserved":false,"is_disabled":false,"rental_uris":{"android":"levelo://app?vid=f0c6141b-f834-49b9-8fbf-9bda7044dd0d","ios":"levelo://app?vid=f0c6141b-f834-49b9-8fbf-9bda7044dd0d"},"vehicle_type_id":"4","last_reported":1730128179,"current_range_meters":36800,"station_id":"ce4bhk92rcd13ifvqgc0","pricing_plan_id":"cebpf4jnsgd1na2vs0mg"},{"bike_id":"1387e57a-de33-44e7-8eeb-8aa5ceb355a0","system_id":"levelo_inurba_marseille","lat":43.29304,"lon":5.37474,"is_reserved":false,"is_disabled":false,"rental_uris":{"android":"levelo://app?vid=1387e57a-de33-44e7-8eeb-8aa5ceb355a0","ios":"levelo://app?vid=1387e57a-de33-44e7-8eeb-8aa5ceb355a0"},"vehicle_type_id":"4","last_reported":1730128179,"current_range_meters":21600,"station_id":"ce4bgi12rcd13ifvqb70","pricing_plan_id":"cebpf4jnsgd1na2vs0mg"},{"bike_id":"e39645c5-87ac-4e87-90ca-e4c6f3ff67ce","system_id":"levelo_inurba_marseille","lat":43.29942,"lon":5.36552,"is_reserved":false,"is_disabled":false,"rental_uris":{"android":"levelo://app?vid=e39645c5-87ac-4e87-90ca-e4c6f3ff67ce","ios":"levelo://app?vid=e39645c5-87ac-4e87-90ca-e4c6f3ff67ce"},"vehicle_type_id":"4","last_reported":1730128179,"current_range_meters":30000,"station_id":"ce4bgm92rcd13ifvqbr0","pricing_plan_id":"cebpf4jnsgd1na2vs0mg"},{"bike_id":"aebe2bf4-82d5-4772-81dc-0d6c4331f6d3","system_id":"levelo_inurba_marseille","lat":43.26678,"lon":5.38274,"is_reserved":false,"is_disabled":false,"rental_uris":{"android":"levelo://app?vid=aebe2bf4-82d5-4772-81dc-0d6c4331f6d3","ios":"levelo://app?vid=aebe2bf4-82d5-4772-81dc-0d6c4331f6d3"},"vehicle_type_id":"4","last_reported":1730128179,"current_range_meters":32000,"station_id":"ce4bhg92rcd13ifvqf90","pricing_plan_id":"cebpf4jnsgd1na2vs0mg"},{"bike_id":"def66fbe-9129-4b94-9aa6-f0a9941a832b","system_id":"levelo_inurba_marseille","lat":43.29177,"lon":5.36906,"is_reserved":false,"is_disabled":false,"rental_uris":{"android":"levelo://app?vid=def66fbe-9129-4b94-9aa6-f0a9941a832b","ios":"levelo://app?vid=def66fbe-9129-4b94-9aa6-f0a9941a832b"},"vehicle_type_id":"4","last_reported":1730128179,"current_range_meters":11200,"station_id":"","pricing_plan_id":"cebpf4jnsgd1na2vs0mg"},{"bike_id":"e67b6af8-4589-43ef-a021-118ab3386ad8","system_id":"levelo_inurba_marseille","lat":43.30253,"lon":5.40081,"is_reserved":false,"is_disabled":false,"rental_uris":{"android":"levelo://app?vid=e67b6af8-4589-43ef-a021-118ab3386ad8","ios":"levelo://app?vid=e67b6af8-4589-43ef-a021-118ab3386ad8"},"vehicle_type_id":"4","last_reported":1730128179,"current_range_meters":20400,"station_id":"ce4bgvh2rcd13ifvqcs0","pricing_plan_id":"cebpf4jnsgd1na2vs0mg"},{"bike_id":"e823422d-8c67-49ae-a0e8-4f5abea53fad","system_id":"levelo_inurba_marseille","lat":43.26947,"lon":5.38626,"is_reserved":false,"is_disabled":false,"rental_uris":{"android":"levelo://app?vid=e823422d-8c67-49ae-a0e8-4f5abea53fad","ios":"levelo://app?vid=e823422d-8c67-49ae-a0e8-4f5abea53fad"},"vehicle_type_id":"4","last_reported":1730128179,"current_range_meters":24800,"station_id":"ce4bhh92rcd13ifvqfh0","pricing_plan_id":"cebpf4jnsgd1na2vs0mg"},{"bike_id":"e5630466-0af0-4d76-a58b-254eeaf8085b","system_id":"levelo_inurba_marseille","lat":43.29589,"lon":5.36741,"is_reserved":false,"is_disabled":false,"rental_uris":{"android":"levelo://app?vid=e5630466-0af0-4d76-a58b-254eeaf8085b","ios":"levelo://app?vid=e5630466-0af0-4d76-a58b-254eeaf8085b"},"vehicle_type_id":"4","last_reported":1730128179,"current_range_meters":38800,"station_id":"ce4bgph2rcd13ifvqc2g","pricing_plan_id":"cebpf4jnsgd1na2vs0mg"},{"bike_id":"f104cce8-b1a8-40b3-aa19-36c300a58b9c","system_id":"levelo_inurba_marseille","lat":43.29804,"lon":5.38103,"is_reserved":false,"is_disabled":false,"rental_uris":{"android":"levelo://app?vid=f104cce8-b1a8-40b3-aa19-36c300a58b9c","ios":"levelo://app?vid=f104cce8-b1a8-40b3-aa19-36c300a58b9c"},"vehicle_type_id":"4","last_reported":1730128179,"current_range_meters":37600,"station_id":"ce4bgip2rcd13ifvqbb0","pricing_plan_id":"cebpf4jnsgd1na2vs0mg"},{"bike_id":"a08296db-b3f4-4d7c-b368-674ac3a21b1e","system_id":"levelo_inurba_marseille","lat":43.23058,"lon":5.35493,"is_reserved":false,"is_disabled":false,"rental_uris":{"android":"levelo://app?vid=a08296db-b3f4-4d7c-b368-674ac3a21b1e","ios":"levelo://app?vid=a08296db-b3f4-4d7c-b368-674ac3a21b1e"},"vehicle_type_id":"4","last_reported":1730128179,"current_range_meters":36400,"station_id":"cpo3342slgdg3j2ifvpg","pricing_plan_id":"cebpf4jnsgd1na2vs0mg"},{"bike_id":"e8b1d499-1fb8-48d9-9f2a-60b4b9923777","system_id":"levelo_inurba_marseille","lat":43.30534,"lon":5.36702,"is_reserved":false,"is_disabled":false,"rental_uris":{"android":"levelo://app?vid=e8b1d499-1fb8-48d9-9f2a-60b4b9923777","ios":"levelo://app?vid=e8b1d499-1fb8-48d9-9f2a-60b4b9923777"},"vehicle_type_id":"4","last_reported":1730128179,"current_range_meters":38800,"station_id":"ce4bgrp2rcd13ifvqc9g","pricing_plan_id":"cebpf4jnsgd1na2vs0mg"},{"bike_id":"e69b86be-0727-4961-ad18-cf6cc7bb2d2a","system_id":"levelo_inurba_marseille","lat":43.28371,"lon":5.40048,"is_reserved":false,"is_disabled":false,"rental_uris":{"android":"levelo://app?vid=e69b86be-0727-4961-ad18-cf6cc7bb2d2a","ios":"levelo://app?vid=e69b86be-0727-4961-ad18-cf6cc7bb2d2a"},"vehicle_type_id":"4","last_reported":1730128179,"current_range_meters":29600,"station_id":"","pricing_plan_id":"cebpf4jnsgd1na2vs0mg"},{"bike_id":"0e01ac24-2784-4039-a876-30b14394ea65","system_id":"levelo_inurba_marseille","lat":43.28259,"lon":5.35073,"is_reserved":false,"is_disabled":false,"rental_uris":{"android":"levelo://app?vid=0e01ac24-2784-4039-a876-30b14394ea65","ios":"levelo://app?vid=0e01ac24-2784-4039-a876-30b14394ea65"},"vehicle_type_id":"4","last_reported":1730128179,"current_range_meters":38800,"station_id":"ce4bhbp2rcd13ifvqerg","pricing_plan_id":"cebpf4jnsgd1na2vs0mg"},{"bike_id":"2db8f544-f62f-463d-9330-1a45c719fa23","system_id":"levelo_inurba_marseille","lat":43.29625,"lon":5.37176,"is_reserved":false,"is_disabled":false,"rental_uris":{"android":"levelo://app?vid=2db8f544-f62f-463d-9330-1a45c719fa23","ios":"levelo://app?vid=2db8f544-f62f-463d-9330-1a45c719fa23"},"vehicle_type_id":"4","last_reported":1730128179,"current_range_meters":30000,"station_id":"ce4bgnh2rcd13ifvqc0g","pricing_plan_id":"cebpf4jnsgd1na2vs0mg"},{"bike_id":"2e35d890-93f1-459d-93be-823b2fb58197","system_id":"levelo_inurba_marseille","lat":43.29579,"lon":5.3674,"is_reserved":false,"is_disabled":false,"rental_uris":{"android":"levelo://app?vid=2e35d890-93f1-459d-93be-823b2fb58197","ios":"levelo://app?vid=2e35d890-93f1-459d-93be-823b2fb58197"},"vehicle_type_id":"4","last_reported":1730128179,"current_range_meters":8800,"station_id":"ce4bgph2rcd13ifvqc2g","pricing_plan_id":"cebpf4jnsgd1na2vs0mg"},{"bike_id":"74c719e8-4c57-4b20-877a-1b742162a164","system_id":"levelo_inurba_marseille","lat":43.28725,"lon":5.3609,"is_reserved":false,"is_disabled":false,"rental_uris":{"android":"levelo://app?vid=74c719e8-4c57-4b20-877a-1b742162a164","ios":"levelo://app?vid=74c719e8-4c57-4b20-877a-1b742162a164"},"vehicle_type_id":"4","last_reported":1730128179,"current_range_meters":36000,"station_id":"cki0cbj6b192h4jlfktg","pricing_plan_id":"cebpf4jnsgd1na2vs0mg"},{"bike_id":"1d6aa1e9-5a55-4a2f-b860-7f393ebbc2b0","system_id":"levelo_inurba_marseille","lat":43.31682,"lon":5.40476,"is_reserved":false,"is_disabled":false,"rental_uris":{"android":"levelo://app?vid=1d6aa1e9-5a55-4a2f-b860-7f393ebbc2b0","ios":"levelo://app?vid=1d6aa1e9-5a55-4a2f-b860-7f393ebbc2b0"},"vehicle_type_id":"4","last_reported":1730128179,"current_range_meters":8800,"station_id":"ce4bh012rcd13ifvqd00","pricing_plan_id":"cebpf4jnsgd1na2vs0mg"},{"bike_id":"2a6848c1-d22b-44f2-a324-89f4967e1c2c","system_id":"levelo_inurba_marseille","lat":43.3014,"lon":5.37426,"is_reserved":false,"is_disabled":false,"rental_uris":{"android":"levelo://app?vid=2a6848c1-d22b-44f2-a324-89f4967e1c2c","ios":"levelo://app?vid=2a6848c1-d22b-44f2-a324-89f4967e1c2c"},"vehicle_type_id":"4","last_reported":1730128179,"current_range_meters":27600,"station_id":"ce4bgs92rcd13ifvqcc0","pricing_plan_id":"cebpf4jnsgd1na2vs0mg"},{"bike_id":"ef785b4d-abeb-4561-9bfa-6c9ace06ace3","system_id":"levelo_inurba_marseille","lat":43.32291,"lon":5.38276,"is_reserved":false,"is_disabled":false,"rental_uris":{"android":"levelo://app?vid=ef785b4d-abeb-4561-9bfa-6c9ace06ace3","ios":"levelo://app?vid=ef785b4d-abeb-4561-9bfa-6c9ace06ace3"},"vehicle_type_id":"4","last_reported":1730128179,"current_range_meters":38800,"station_id":"ce4bhr12rcd13ifvqhqg","pricing_plan_id":"cebpf4jnsgd1na2vs0mg"},{"bike_id":"8365ae7d-b072-4734-9306-a366f4b5c63c","system_id":"levelo_inurba_marseille","lat":43.27371,"lon":5.36254,"is_reserved":false,"is_disabled":false,"rental_uris":{"android":"levelo://app?vid=8365ae7d-b072-4734-9306-a366f4b5c63c","ios":"levelo://app?vid=8365ae7d-b072-4734-9306-a366f4b5c63c"},"vehicle_type_id":"4","last_reported":1730128179,"current_range_meters":38800,"station_id":"ce4bhbh2rcd13ifvqeo0","pricing_plan_id":"cebpf4jnsgd1na2vs0mg"},{"bike_id":"a647c039-2fe7-4564-9ec5-e4c6211b2a51","system_id":"levelo_inurba_marseille","lat":43.29976,"lon":5.38488,"is_reserved":false,"is_disabled":false,"rental_uris":{"android":"levelo://app?vid=a647c039-2fe7-4564-9ec5-e4c6211b2a51","ios":"levelo://app?vid=a647c039-2fe7-4564-9ec5-e4c6211b2a51"},"vehicle_type_id":"4","last_reported":1730128179,"current_range_meters":27600,"station_id":"ce4bgj92rcd13ifvqbd0","pricing_plan_id":"cebpf4jnsgd1na2vs0mg"},{"bike_id":"c7ee28b3-e460-4e89-8e87-ae4dbb59e757","system_id":"levelo_inurba_marseille","lat":43.27054,"lon":5.40262,"is_reserved":false,"is_disabled":false,"rental_uris":{"android":"levelo://app?vid=c7ee28b3-e460-4e89-8e87-ae4dbb59e757","ios":"levelo://app?vid=c7ee28b3-e460-4e89-8e87-ae4dbb59e757"},"vehicle_type_id":"4","last_reported":1730128179,"current_range_meters":16000,"station_id":"ce4bhk92rcd13ifvqgc0","pricing_plan_id":"cebpf4jnsgd1na2vs0mg"},{"bike_id":"182b6bcf-4cb0-4a0a-b043-3cb94628b8a5","system_id":"levelo_inurba_marseille","lat":43.28163,"lon":5.42645,"is_reserved":false,"is_disabled":false,"rental_uris":{"android":"levelo://app?vid=182b6bcf-4cb0-4a0a-b043-3cb94628b8a5","ios":"levelo://app?vid=182b6bcf-4cb0-4a0a-b043-3cb94628b8a5"},"vehicle_type_id":"4","last_reported":1730128179,"current_range_meters":38000,"station_id":"ce4bhnh2rcd13ifvqgug","pricing_plan_id":"cebpf4jnsgd1na2vs0mg"},{"bike_id":"99f1b7bf-3cec-4a52-b3e2-5c1166f4e274","system_id":"levelo_inurba_marseille","lat":43.29417,"lon":5.38627,"is_reserved":false,"is_disabled":false,"rental_uris":{"android":"levelo://app?vid=99f1b7bf-3cec-4a52-b3e2-5c1166f4e274","ios":"levelo://app?vid=99f1b7bf-3cec-4a52-b3e2-5c1166f4e274"},"vehicle_type_id":"4","last_reported":1730128179,"current_range_meters":15200,"station_id":"ce4bh2h2rcd13ifvqdh0","pricing_plan_id":"cebpf4jnsgd1na2vs0mg"},{"bike_id":"a2ea2797-ae2a-4d35-8b0b-0c47931da0c1","system_id":"levelo_inurba_marseille","lat":43.26495,"lon":5.3955,"is_reserved":false,"is_disabled":false,"rental_uris":{"android":"levelo://app?vid=a2ea2797-ae2a-4d35-8b0b-0c47931da0c1","ios":"levelo://app?vid=a2ea2797-ae2a-4d35-8b0b-0c47931da0c1"},"vehicle_type_id":"4","last_reported":1730128179,"current_range_meters":39200,"station_id":"ce4bhi12rcd13ifvqfq0","pricing_plan_id":"cebpf4jnsgd1na2vs0mg"},{"bike_id":"c643206c-a726-4b02-980b-4560649fbb26","system_id":"levelo_inurba_marseille","lat":43.3013,"lon":5.39873,"is_reserved":false,"is_disabled":false,"rental_uris":{"android":"levelo://app?vid=c643206c-a726-4b02-980b-4560649fbb26","ios":"levelo://app?vid=c643206c-a726-4b02-980b-4560649fbb26"},"vehicle_type_id":"4","last_reported":1730128179,"current_range_meters":23200,"station_id":"ce4bh0h2rcd13ifvqd40","pricing_plan_id":"cebpf4jnsgd1na2vs0mg"},{"bike_id":"ed370ef9-8bee-4041-939c-116177496bfe","system_id":"levelo_inurba_marseille","lat":43.33026,"lon":5.39044,"is_reserved":false,"is_disabled":false,"rental_uris":{"android":"levelo://app?vid=ed370ef9-8bee-4041-939c-116177496bfe","ios":"levelo://app?vid=ed370ef9-8bee-4041-939c-116177496bfe"},"vehicle_type_id":"4","last_reported":1730128179,"current_range_meters":11200,"station_id":"ce4bhr92rcd13ifvqhrg","pricing_plan_id":"cebpf4jnsgd1na2vs0mg"},{"bike_id":"efb90eb5-b74a-4229-93cc-8c45be093ff2","system_id":"levelo_inurba_marseille","lat":43.2959,"lon":5.38097,"is_reserved":false,"is_disabled":false,"rental_uris":{"android":"levelo://app?vid=efb90eb5-b74a-4229-93cc-8c45be093ff2","ios":"levelo://app?vid=efb90eb5-b74a-4229-93cc-8c45be093ff2"},"vehicle_type_id":"4","last_reported":1730128179,"current_range_meters":36800,"station_id":"ce4bgl12rcd13ifvqbo0","pricing_plan_id":"cebpf4jnsgd1na2vs0mg"},{"bike_id":"6395c196-b961-4d8a-9c54-a956fac21801","system_id":"levelo_inurba_marseille","lat":43.29003,"lon":5.35618,"is_reserved":false,"is_disabled":false,"rental_uris":{"android":"levelo://app?vid=6395c196-b961-4d8a-9c54-a956fac21801","ios":"levelo://app?vid=6395c196-b961-4d8a-9c54-a956fac21801"},"vehicle_type_id":"4","last_reported":1730128179,"current_range_meters":24800,"station_id":"ce4bhb92rcd13ifvqen0","pricing_plan_id":"cebpf4jnsgd1na2vs0mg"},{"bike_id":"fa44638b-7c7d-46bf-9c87-fa0754bbaf56","system_id":"levelo_inurba_marseille","lat":43.23967,"lon":5.36636,"is_reserved":false,"is_disabled":false,"rental_uris":{"android":"levelo://app?vid=fa44638b-7c7d-46bf-9c87-fa0754bbaf56","ios":"levelo://app?vid=fa44638b-7c7d-46bf-9c87-fa0754bbaf56"},"vehicle_type_id":"4","last_reported":1730128179,"current_range_meters":9200,"station_id":"ce4bhi12rcd13ifvqfp0","pricing_plan_id":"cebpf4jnsgd1na2vs0mg"},{"bike_id":"048c3786-6d5e-40a5-b094-e08fc52375e9","system_id":"levelo_inurba_marseille","lat":43.28615,"lon":5.35107,"is_reserved":false,"is_disabled":false,"rental_uris":{"android":"levelo://app?vid=048c3786-6d5e-40a5-b094-e08fc52375e9","ios":"levelo://app?vid=048c3786-6d5e-40a5-b094-e08fc52375e9"},"vehicle_type_id":"4","last_reported":1730128179,"current_range_meters":16400,"station_id":"ce4bhch2rcd13ifvqeug","pricing_plan_id":"cebpf4jnsgd1na2vs0mg"},{"bike_id":"83951415-bd72-4fd4-82c4-ca875a9c879e","system_id":"levelo_inurba_marseille","lat":43.30543,"lon":5.36534,"is_reserved":false,"is_disabled":false,"rental_uris":{"android":"levelo://app?vid=83951415-bd72-4fd4-82c4-ca875a9c879e","ios":"levelo://app?vid=83951415-bd72-4fd4-82c4-ca875a9c879e"},"vehicle_type_id":"4","last_reported":1730128179,"current_range_meters":38400,"station_id":"ce4bgs12rcd13ifvqcag","pricing_plan_id":"cebpf4jnsgd1na2vs0mg"},{"bike_id":"815d9467-d2dd-4ab2-8c47-3e561ba4be5f","system_id":"levelo_inurba_marseille","lat":43.30251,"lon":5.40078,"is_reserved":false,"is_disabled":false,"rental_uris":{"android":"levelo://app?vid=815d9467-d2dd-4ab2-8c47-3e561ba4be5f","ios":"levelo://app?vid=815d9467-d2dd-4ab2-8c47-3e561ba4be5f"},"vehicle_type_id":"4","last_reported":1730128179,"current_range_meters":36400,"station_id":"ce4bgvh2rcd13ifvqcs0","pricing_plan_id":"cebpf4jnsgd1na2vs0mg"},{"bike_id":"f55dcfa5-fad0-4f00-aac0-bfc52a6f26a1","system_id":"levelo_inurba_marseille","lat":43.29165,"lon":5.37166,"is_reserved":false,"is_disabled":false,"rental_uris":{"android":"levelo://app?vid=f55dcfa5-fad0-4f00-aac0-bfc52a6f26a1","ios":"levelo://app?vid=f55dcfa5-fad0-4f00-aac0-bfc52a6f26a1"},"vehicle_type_id":"4","last_reported":1730128179,"current_range_meters":38800,"station_id":"ce4bha92rcd13ifvqeh0","pricing_plan_id":"cebpf4jnsgd1na2vs0mg"},{"bike_id":"5d820ce0-2d55-46e5-b74d-cc75a18e2e27","system_id":"levelo_inurba_marseille","lat":43.26995,"lon":5.39252,"is_reserved":false,"is_disabled":false,"rental_uris":{"android":"levelo://app?vid=5d820ce0-2d55-46e5-b74d-cc75a18e2e27","ios":"levelo://app?vid=5d820ce0-2d55-46e5-b74d-cc75a18e2e27"},"vehicle_type_id":"4","last_reported":1730128179,"current_range_meters":31200,"station_id":"ce4bgh92rcd13ifvqb40","pricing_plan_id":"cebpf4jnsgd1na2vs0mg"},{"bike_id":"40b039ad-0769-4a0e-8ad8-e16a05aa5fd5","system_id":"levelo_inurba_marseille","lat":43.27945,"lon":5.41055,"is_reserved":false,"is_disabled":false,"rental_uris":{"android":"levelo://app?vid=40b039ad-0769-4a0e-8ad8-e16a05aa5fd5","ios":"levelo://app?vid=40b039ad-0769-4a0e-8ad8-e16a05aa5fd5"},"vehicle_type_id":"4","last_reported":1730128179,"current_range_meters":36400,"station_id":"ce4bhnp2rcd13ifvqh0g","pricing_plan_id":"cebpf4jnsgd1na2vs0mg"},{"bike_id":"55433e48-d44e-4b78-92c7-ee7cf1d8fd02","system_id":"levelo_inurba_marseille","lat":43.3089,"lon":5.37201,"is_reserved":false,"is_disabled":false,"rental_uris":{"android":"levelo://app?vid=55433e48-d44e-4b78-92c7-ee7cf1d8fd02","ios":"levelo://app?vid=55433e48-d44e-4b78-92c7-ee7cf1d8fd02"},"vehicle_type_id":"4","last_reported":1730128179,"current_range_meters":38800,"station_id":"ce4bguh2rcd13ifvqckg","pricing_plan_id":"cebpf4jnsgd1na2vs0mg"},{"bike_id":"673e1a33-6c3d-4dd2-8ee6-654b6e391601","system_id":"levelo_inurba_marseille","lat":43.2656,"lon":5.3728,"is_reserved":false,"is_disabled":false,"rental_uris":{"android":"levelo://app?vid=673e1a33-6c3d-4dd2-8ee6-654b6e391601","ios":"levelo://app?vid=673e1a33-6c3d-4dd2-8ee6-654b6e391601"},"vehicle_type_id":"4","last_reported":1730128179,"current_range_meters":27200,"station_id":"ce4bhg12rcd13ifvqf70","pricing_plan_id":"cebpf4jnsgd1na2vs0mg"},{"bike_id":"df18a4d4-051a-4a60-ad8e-e275c817d3a2","system_id":"levelo_inurba_marseille","lat":43.30541,"lon":5.36548,"is_reserved":false,"is_disabled":false,"rental_uris":{"android":"levelo://app?vid=df18a4d4-051a-4a60-ad8e-e275c817d3a2","ios":"levelo://app?vid=df18a4d4-051a-4a60-ad8e-e275c817d3a2"},"vehicle_type_id":"4","last_reported":1730128179,"current_range_meters":33200,"station_id":"ce4bgs12rcd13ifvqcag","pricing_plan_id":"cebpf4jnsgd1na2vs0mg"},{"bike_id":"f06896e8-b6ac-4bd0-b8f5-50bfab8505ae","system_id":"levelo_inurba_marseille","lat":43.30297,"lon":5.36885,"is_reserved":false,"is_disabled":false,"rental_uris":{"android":"levelo://app?vid=f06896e8-b6ac-4bd0-b8f5-50bfab8505ae","ios":"levelo://app?vid=f06896e8-b6ac-4bd0-b8f5-50bfab8505ae"},"vehicle_type_id":"4","last_reported":1730128179,"current_range_meters":9200,"station_id":"ce4bgqh2rcd13ifvqc5g","pricing_plan_id":"cebpf4jnsgd1na2vs0mg"},{"bike_id":"db63f058-fdad-4057-bb90-e81b78c31449","system_id":"levelo_inurba_marseille","lat":43.27622,"lon":5.36105,"is_reserved":false,"is_disabled":false,"rental_uris":{"android":"levelo://app?vid=db63f058-fdad-4057-bb90-e81b78c31449","ios":"levelo://app?vid=db63f058-fdad-4057-bb90-e81b78c31449"},"vehicle_type_id":"4","last_reported":1730128179,"current_range_meters":38800,"station_id":"ce4bgj92rcd13ifvqbe0","pricing_plan_id":"cebpf4jnsgd1na2vs0mg"},{"bike_id":"3805866d-f983-4df9-bdef-102acf595c58","system_id":"levelo_inurba_marseille","lat":43.30309,"lon":5.39221,"is_reserved":false,"is_disabled":false,"rental_uris":{"android":"levelo://app?vid=3805866d-f983-4df9-bdef-102acf595c58","ios":"levelo://app?vid=3805866d-f983-4df9-bdef-102acf595c58"},"vehicle_type_id":"4","last_reported":1730128179,"current_range_meters":14400,"station_id":"ce4bgkh2rcd13ifvqbk0","pricing_plan_id":"cebpf4jnsgd1na2vs0mg"},{"bike_id":"5760066e-9e1c-4e6f-9fd1-a14322871d86","system_id":"levelo_inurba_marseille","lat":43.24387,"lon":5.37057,"is_reserved":false,"is_disabled":false,"rental_uris":{"android":"levelo://app?vid=5760066e-9e1c-4e6f-9fd1-a14322871d86","ios":"levelo://app?vid=5760066e-9e1c-4e6f-9fd1-a14322871d86"},"vehicle_type_id":"4","last_reported":1730128179,"current_range_meters":27600,"station_id":"ce4bhhh2rcd13ifvqfk0","pricing_plan_id":"cebpf4jnsgd1na2vs0mg"},{"bike_id":"15c2aee6-95b2-49be-8540-082983932d80","system_id":"levelo_inurba_marseille","lat":43.29005,"lon":5.35609,"is_reserved":false,"is_disabled":false,"rental_uris":{"android":"levelo://app?vid=15c2aee6-95b2-49be-8540-082983932d80","ios":"levelo://app?vid=15c2aee6-95b2-49be-8540-082983932d80"},"vehicle_type_id":"4","last_reported":1730128179,"current_range_meters":38800,"station_id":"ce4bhb92rcd13ifvqen0","pricing_plan_id":"cebpf4jnsgd1na2vs0mg"},{"bike_id":"5e8add12-0a2f-4ee0-a948-b3005ed38fe3","system_id":"levelo_inurba_marseille","lat":43.32486,"lon":5.3659,"is_reserved":false,"is_disabled":false,"rental_uris":{"android":"levelo://app?vid=5e8add12-0a2f-4ee0-a948-b3005ed38fe3","ios":"levelo://app?vid=5e8add12-0a2f-4ee0-a948-b3005ed38fe3"},"vehicle_type_id":"4","last_reported":1730128179,"current_range_meters":39200,"station_id":"ce4bhs12rcd13ifvqhvg","pricing_plan_id":"cebpf4jnsgd1na2vs0mg"},{"bike_id":"47048f6c-a5a2-46bf-8850-d92c5482d790","system_id":"levelo_inurba_marseille","lat":43.29584,"lon":5.36748,"is_reserved":false,"is_disabled":false,"rental_uris":{"android":"levelo://app?vid=47048f6c-a5a2-46bf-8850-d92c5482d790","ios":"levelo://app?vid=47048f6c-a5a2-46bf-8850-d92c5482d790"},"vehicle_type_id":"4","last_reported":1730128179,"current_range_meters":28800,"station_id":"ce4bgph2rcd13ifvqc2g","pricing_plan_id":"cebpf4jnsgd1na2vs0mg"},{"bike_id":"3f61e95f-67f1-48f0-b2b8-3909b4e6c8d8","system_id":"levelo_inurba_marseille","lat":43.29531,"lon":5.38542,"is_reserved":false,"is_disabled":false,"rental_uris":{"android":"levelo://app?vid=3f61e95f-67f1-48f0-b2b8-3909b4e6c8d8","ios":"levelo://app?vid=3f61e95f-67f1-48f0-b2b8-3909b4e6c8d8"},"vehicle_type_id":"4","last_reported":1730128179,"current_range_meters":15200,"station_id":"ce4bgih2rcd13ifvqba0","pricing_plan_id":"cebpf4jnsgd1na2vs0mg"},{"bike_id":"58c29938-9a66-4cb0-80d8-96474a8212ec","system_id":"levelo_inurba_marseille","lat":43.2315,"lon":5.43729,"is_reserved":false,"is_disabled":false,"rental_uris":{"android":"levelo://app?vid=58c29938-9a66-4cb0-80d8-96474a8212ec","ios":"levelo://app?vid=58c29938-9a66-4cb0-80d8-96474a8212ec"},"vehicle_type_id":"4","last_reported":1730128179,"current_range_meters":21600,"station_id":"ce4bhmp2rcd13ifvqgog","pricing_plan_id":"cebpf4jnsgd1na2vs0mg"},{"bike_id":"facbc120-b6b0-48dd-adc3-cbbda316052a","system_id":"levelo_inurba_marseille","lat":43.29233,"lon":5.36075,"is_reserved":false,"is_disabled":false,"rental_uris":{"android":"levelo://app?vid=facbc120-b6b0-48dd-adc3-cbbda316052a","ios":"levelo://app?vid=facbc120-b6b0-48dd-adc3-cbbda316052a"},"vehicle_type_id":"4","last_reported":1730128179,"current_range_meters":36400,"station_id":"ce4bhbh2rcd13ifvqeqg","pricing_plan_id":"cebpf4jnsgd1na2vs0mg"},{"bike_id":"a78142db-8f73-47b5-8475-09ac74d05900","system_id":"levelo_inurba_marseille","lat":43.29523,"lon":5.39406,"is_reserved":false,"is_disabled":false,"rental_uris":{"android":"levelo://app?vid=a78142db-8f73-47b5-8475-09ac74d05900","ios":"levelo://app?vid=a78142db-8f73-47b5-8475-09ac74d05900"},"vehicle_type_id":"4","last_reported":1730128179,"current_range_meters":37600,"station_id":"ce4bh292rcd13ifvqdf0","pricing_plan_id":"cebpf4jnsgd1na2vs0mg"},{"bike_id":"b9d69b35-7206-4f04-8dc9-8dfbe439b1bb","system_id":"levelo_inurba_marseille","lat":43.31233,"lon":5.36867,"is_reserved":false,"is_disabled":false,"rental_uris":{"android":"levelo://app?vid=b9d69b35-7206-4f04-8dc9-8dfbe439b1bb","ios":"levelo://app?vid=b9d69b35-7206-4f04-8dc9-8dfbe439b1bb"},"vehicle_type_id":"4","last_reported":1730128179,"current_range_meters":38800,"station_id":"ce4bgl92rcd13ifvqbq0","pricing_plan_id":"cebpf4jnsgd1na2vs0mg"},{"bike_id":"bca1c95d-88ea-42d2-88ef-f9232ab56cf0","system_id":"levelo_inurba_marseille","lat":43.2738,"lon":5.36279,"is_reserved":false,"is_disabled":false,"rental_uris":{"android":"levelo://app?vid=bca1c95d-88ea-42d2-88ef-f9232ab56cf0","ios":"levelo://app?vid=bca1c95d-88ea-42d2-88ef-f9232ab56cf0"},"vehicle_type_id":"4","last_reported":1730128179,"current_range_meters":32800,"station_id":"ce4bhbh2rcd13ifvqeo0","pricing_plan_id":"cebpf4jnsgd1na2vs0mg"},{"bike_id":"e7d0ea56-9e1f-43e7-9594-28592412f4a4","system_id":"levelo_inurba_marseille","lat":43.29013,"lon":5.38134,"is_reserved":false,"is_disabled":false,"rental_uris":{"android":"levelo://app?vid=e7d0ea56-9e1f-43e7-9594-28592412f4a4","ios":"levelo://app?vid=e7d0ea56-9e1f-43e7-9594-28592412f4a4"},"vehicle_type_id":"4","last_reported":1730128179,"current_range_meters":6000,"station_id":"ce4bh4p2rcd13ifvqe1g","pricing_plan_id":"cebpf4jnsgd1na2vs0mg"},{"bike_id":"cca25c28-ca75-4c2b-be41-3a4d98b1de4e","system_id":"levelo_inurba_marseille","lat":43.30296,"lon":5.39217,"is_reserved":false,"is_disabled":false,"rental_uris":{"android":"levelo://app?vid=cca25c28-ca75-4c2b-be41-3a4d98b1de4e","ios":"levelo://app?vid=cca25c28-ca75-4c2b-be41-3a4d98b1de4e"},"vehicle_type_id":"4","last_reported":1730128179,"current_range_meters":28400,"station_id":"ce4bgkh2rcd13ifvqbk0","pricing_plan_id":"cebpf4jnsgd1na2vs0mg"},{"bike_id":"31f6bf22-da01-409d-8589-c334ffc0d1b4","system_id":"levelo_inurba_marseille","lat":43.27369,"lon":5.36264,"is_reserved":false,"is_disabled":false,"rental_uris":{"android":"levelo://app?vid=31f6bf22-da01-409d-8589-c334ffc0d1b4","ios":"levelo://app?vid=31f6bf22-da01-409d-8589-c334ffc0d1b4"},"vehicle_type_id":"4","last_reported":1730128179,"current_range_meters":9200,"station_id":"ce4bhbh2rcd13ifvqeo0","pricing_plan_id":"cebpf4jnsgd1na2vs0mg"},{"bike_id":"9c2ef327-16d2-46db-8c30-fba517bdd7e5","system_id":"levelo_inurba_marseille","lat":43.29584,"lon":5.38549,"is_reserved":false,"is_disabled":false,"rental_uris":{"android":"levelo://app?vid=9c2ef327-16d2-46db-8c30-fba517bdd7e5","ios":"levelo://app?vid=9c2ef327-16d2-46db-8c30-fba517bdd7e5"},"vehicle_type_id":"4","last_reported":1730128179,"current_range_meters":14800,"station_id":"ce4bgih2rcd13ifvqba0","pricing_plan_id":"cebpf4jnsgd1na2vs0mg"},{"bike_id":"f61d7b0a-3285-48bd-8678-adb4726d48da","system_id":"levelo_inurba_marseille","lat":43.28931,"lon":5.36637,"is_reserved":false,"is_disabled":false,"rental_uris":{"android":"levelo://app?vid=f61d7b0a-3285-48bd-8678-adb4726d48da","ios":"levelo://app?vid=f61d7b0a-3285-48bd-8678-adb4726d48da"},"vehicle_type_id":"4","last_reported":1730128179,"current_range_meters":36000,"station_id":"ce4bhap2rcd13ifvqek0","pricing_plan_id":"cebpf4jnsgd1na2vs0mg"},{"bike_id":"870759aa-b4f1-410f-8dd7-8cce75f5dcfb","system_id":"levelo_inurba_marseille","lat":43.23149,"lon":5.4372,"is_reserved":false,"is_disabled":false,"rental_uris":{"android":"levelo://app?vid=870759aa-b4f1-410f-8dd7-8cce75f5dcfb","ios":"levelo://app?vid=870759aa-b4f1-410f-8dd7-8cce75f5dcfb"},"vehicle_type_id":"4","last_reported":1730128179,"current_range_meters":38800,"station_id":"ce4bhmp2rcd13ifvqgog","pricing_plan_id":"cebpf4jnsgd1na2vs0mg"},{"bike_id":"35b00115-bbff-4070-9e06-a26417317bb3","system_id":"levelo_inurba_marseille","lat":43.28149,"lon":5.3793,"is_reserved":false,"is_disabled":false,"rental_uris":{"android":"levelo://app?vid=35b00115-bbff-4070-9e06-a26417317bb3","ios":"levelo://app?vid=35b00115-bbff-4070-9e06-a26417317bb3"},"vehicle_type_id":"4","last_reported":1730128179,"current_range_meters":22000,"station_id":"ce4bh412rcd13ifvqdr0","pricing_plan_id":"cebpf4jnsgd1na2vs0mg"},{"bike_id":"826eb7f4-7b2c-4960-b8f0-1ad2d382103e","system_id":"levelo_inurba_marseille","lat":43.27497,"lon":5.4245,"is_reserved":false,"is_disabled":false,"rental_uris":{"android":"levelo://app?vid=826eb7f4-7b2c-4960-b8f0-1ad2d382103e","ios":"levelo://app?vid=826eb7f4-7b2c-4960-b8f0-1ad2d382103e"},"vehicle_type_id":"4","last_reported":1730128179,"current_range_meters":37600,"station_id":"ce4bhn92rcd13ifvqgrg","pricing_plan_id":"cebpf4jnsgd1na2vs0mg"},{"bike_id":"32205da9-fff2-454c-bc6b-5580fe73fcec","system_id":"levelo_inurba_marseille","lat":43.24071,"lon":5.37765,"is_reserved":false,"is_disabled":false,"rental_uris":{"android":"levelo://app?vid=32205da9-fff2-454c-bc6b-5580fe73fcec","ios":"levelo://app?vid=32205da9-fff2-454c-bc6b-5580fe73fcec"},"vehicle_type_id":"4","last_reported":1730128179,"current_range_meters":28400,"station_id":"ce4bhnp2rcd13ifvqgvg","pricing_plan_id":"cebpf4jnsgd1na2vs0mg"},{"bike_id":"089c37ba-3c44-437d-be3a-8dcc8e4e5629","system_id":"levelo_inurba_marseille","lat":43.30553,"lon":5.36535,"is_reserved":false,"is_disabled":false,"rental_uris":{"android":"levelo://app?vid=089c37ba-3c44-437d-be3a-8dcc8e4e5629","ios":"levelo://app?vid=089c37ba-3c44-437d-be3a-8dcc8e4e5629"},"vehicle_type_id":"4","last_reported":1730128179,"current_range_meters":39200,"station_id":"ce4bgs12rcd13ifvqcag","pricing_plan_id":"cebpf4jnsgd1na2vs0mg"},{"bike_id":"b1d682a3-b183-4990-9110-109ef59d9970","system_id":"levelo_inurba_marseille","lat":43.298798,"lon":5.38907,"is_reserved":false,"is_disabled":false,"rental_uris":{"android":"levelo://app?vid=b1d682a3-b183-4990-9110-109ef59d9970","ios":"levelo://app?vid=b1d682a3-b183-4990-9110-109ef59d9970"},"vehicle_type_id":"4","last_reported":1730128179,"current_range_meters":30000,"station_id":"ce4bh392rcd13ifvqdl0","pricing_plan_id":"cebpf4jnsgd1na2vs0mg"},{"bike_id":"322e91e7-2437-4943-96f4-3bbddcacb574","system_id":"levelo_inurba_marseille","lat":43.27382,"lon":5.36266,"is_reserved":false,"is_disabled":false,"rental_uris":{"android":"levelo://app?vid=322e91e7-2437-4943-96f4-3bbddcacb574","ios":"levelo://app?vid=322e91e7-2437-4943-96f4-3bbddcacb574"},"vehicle_type_id":"4","last_reported":1730128179,"current_range_meters":22000,"station_id":"ce4bhbh2rcd13ifvqeo0","pricing_plan_id":"cebpf4jnsgd1na2vs0mg"},{"bike_id":"23658f61-4d08-4e9c-968c-e1cfe5631873","system_id":"levelo_inurba_marseille","lat":43.29026,"lon":5.3865,"is_reserved":false,"is_disabled":false,"rental_uris":{"android":"levelo://app?vid=23658f61-4d08-4e9c-968c-e1cfe5631873","ios":"levelo://app?vid=23658f61-4d08-4e9c-968c-e1cfe5631873"},"vehicle_type_id":"4","last_reported":1730128179,"current_range_meters":14400,"station_id":"ce4bh4p2rcd13ifvqe0g","pricing_plan_id":"cebpf4jnsgd1na2vs0mg"},{"bike_id":"1fdae6ce-d111-40a1-88a5-3dc38b723134","system_id":"levelo_inurba_marseille","lat":43.30262,"lon":5.40077,"is_reserved":false,"is_disabled":false,"rental_uris":{"android":"levelo://app?vid=1fdae6ce-d111-40a1-88a5-3dc38b723134","ios":"levelo://app?vid=1fdae6ce-d111-40a1-88a5-3dc38b723134"},"vehicle_type_id":"4","last_reported":1730128179,"current_range_meters":21600,"station_id":"ce4bgvh2rcd13ifvqcs0","pricing_plan_id":"cebpf4jnsgd1na2vs0mg"},{"bike_id":"48f2124d-081d-433e-9cb8-772eaa9e8855","system_id":"levelo_inurba_marseille","lat":43.29224,"lon":5.3606,"is_reserved":false,"is_disabled":false,"rental_uris":{"android":"levelo://app?vid=48f2124d-081d-433e-9cb8-772eaa9e8855","ios":"levelo://app?vid=48f2124d-081d-433e-9cb8-772eaa9e8855"},"vehicle_type_id":"4","last_reported":1730128179,"current_range_meters":38800,"station_id":"ce4bhbh2rcd13ifvqeqg","pricing_plan_id":"cebpf4jnsgd1na2vs0mg"},{"bike_id":"cd5289ce-9e66-4976-9552-3aa1b0da909c","system_id":"levelo_inurba_marseille","lat":43.32485,"lon":5.36566,"is_reserved":false,"is_disabled":false,"rental_uris":{"android":"levelo://app?vid=cd5289ce-9e66-4976-9552-3aa1b0da909c","ios":"levelo://app?vid=cd5289ce-9e66-4976-9552-3aa1b0da909c"},"vehicle_type_id":"4","last_reported":1730128179,"current_range_meters":38800,"station_id":"ce4bhs12rcd13ifvqhvg","pricing_plan_id":"cebpf4jnsgd1na2vs0mg"},{"bike_id":"d2cfb8e2-b4f5-493e-9190-4fd91f5e908d","system_id":"levelo_inurba_marseille","lat":43.33768,"lon":5.374576,"is_reserved":false,"is_disabled":false,"rental_uris":{"android":"levelo://app?vid=d2cfb8e2-b4f5-493e-9190-4fd91f5e908d","ios":"levelo://app?vid=d2cfb8e2-b4f5-493e-9190-4fd91f5e908d"},"vehicle_type_id":"4","last_reported":1730128179,"current_range_meters":34800,"station_id":"","pricing_plan_id":"cebpf4jnsgd1na2vs0mg"},{"bike_id":"4f21f473-d6ef-4678-b028-ed29a51ab020","system_id":"levelo_inurba_marseille","lat":43.30385,"lon":5.40715,"is_reserved":false,"is_disabled":false,"rental_uris":{"android":"levelo://app?vid=4f21f473-d6ef-4678-b028-ed29a51ab020","ios":"levelo://app?vid=4f21f473-d6ef-4678-b028-ed29a51ab020"},"vehicle_type_id":"4","last_reported":1730128179,"current_range_meters":28400,"station_id":"ce4bhp92rcd13ifvqhcg","pricing_plan_id":"cebpf4jnsgd1na2vs0mg"},{"bike_id":"e90549fb-eb6a-4fc9-b8bf-c48518f4f31d","system_id":"levelo_inurba_marseille","lat":43.30144,"lon":5.37416,"is_reserved":false,"is_disabled":false,"rental_uris":{"android":"levelo://app?vid=e90549fb-eb6a-4fc9-b8bf-c48518f4f31d","ios":"levelo://app?vid=e90549fb-eb6a-4fc9-b8bf-c48518f4f31d"},"vehicle_type_id":"4","last_reported":1730128179,"current_range_meters":28400,"station_id":"ce4bgs92rcd13ifvqcc0","pricing_plan_id":"cebpf4jnsgd1na2vs0mg"},{"bike_id":"e3b4a056-8568-4cea-bef3-aee38648b932","system_id":"levelo_inurba_marseille","lat":43.29515,"lon":5.37505,"is_reserved":false,"is_disabled":false,"rental_uris":{"android":"levelo://app?vid=e3b4a056-8568-4cea-bef3-aee38648b932","ios":"levelo://app?vid=e3b4a056-8568-4cea-bef3-aee38648b932"},"vehicle_type_id":"4","last_reported":1730128179,"current_range_meters":28800,"station_id":"ce4bgkp2rcd13ifvqbmg","pricing_plan_id":"cebpf4jnsgd1na2vs0mg"},{"bike_id":"d69474df-fd30-4cfd-aaad-36376b9afc92","system_id":"levelo_inurba_marseille","lat":43.24652,"lon":5.38893,"is_reserved":false,"is_disabled":false,"rental_uris":{"android":"levelo://app?vid=d69474df-fd30-4cfd-aaad-36376b9afc92","ios":"levelo://app?vid=d69474df-fd30-4cfd-aaad-36376b9afc92"},"vehicle_type_id":"4","last_reported":1730128179,"current_range_meters":36800,"station_id":"ce4bhg12rcd13ifvqf60","pricing_plan_id":"cebpf4jnsgd1na2vs0mg"},{"bike_id":"3b9734be-d229-4b10-abbb-45cfb75b1d0c","system_id":"levelo_inurba_marseille","lat":43.29869,"lon":5.3974,"is_reserved":false,"is_disabled":false,"rental_uris":{"android":"levelo://app?vid=3b9734be-d229-4b10-abbb-45cfb75b1d0c","ios":"levelo://app?vid=3b9734be-d229-4b10-abbb-45cfb75b1d0c"},"vehicle_type_id":"4","last_reported":1730128179,"current_range_meters":16400,"station_id":"ce4bh0h2rcd13ifvqd50","pricing_plan_id":"cebpf4jnsgd1na2vs0mg"},{"bike_id":"63d52158-5852-49fc-be29-4a7e9dacb7cf","system_id":"levelo_inurba_marseille","lat":43.27991,"lon":5.40018,"is_reserved":false,"is_disabled":false,"rental_uris":{"android":"levelo://app?vid=63d52158-5852-49fc-be29-4a7e9dacb7cf","ios":"levelo://app?vid=63d52158-5852-49fc-be29-4a7e9dacb7cf"},"vehicle_type_id":"4","last_reported":1730128179,"current_range_meters":20800,"station_id":"ce4bho92rcd13ifvqh4g","pricing_plan_id":"cebpf4jnsgd1na2vs0mg"},{"bike_id":"0e3e66cb-92c4-4f86-a977-1d5a58b1b39e","system_id":"levelo_inurba_marseille","lat":43.311981,"lon":5.368173,"is_reserved":false,"is_disabled":false,"rental_uris":{"android":"levelo://app?vid=0e3e66cb-92c4-4f86-a977-1d5a58b1b39e","ios":"levelo://app?vid=0e3e66cb-92c4-4f86-a977-1d5a58b1b39e"},"vehicle_type_id":"4","last_reported":1730128179,"current_range_meters":23200,"station_id":"ce4bgl92rcd13ifvqbq0","pricing_plan_id":"cebpf4jnsgd1na2vs0mg"},{"bike_id":"65d34050-1c18-4611-afa7-c2c037b3b82c","system_id":"levelo_inurba_marseille","lat":43.30136,"lon":5.3743,"is_reserved":false,"is_disabled":false,"rental_uris":{"android":"levelo://app?vid=65d34050-1c18-4611-afa7-c2c037b3b82c","ios":"levelo://app?vid=65d34050-1c18-4611-afa7-c2c037b3b82c"},"vehicle_type_id":"4","last_reported":1730128179,"current_range_meters":38800,"station_id":"ce4bgs92rcd13ifvqcc0","pricing_plan_id":"cebpf4jnsgd1na2vs0mg"},{"bike_id":"cdf17972-f2c9-4737-8435-7c3678448f02","system_id":"levelo_inurba_marseille","lat":43.3056,"lon":5.36558,"is_reserved":false,"is_disabled":false,"rental_uris":{"android":"levelo://app?vid=cdf17972-f2c9-4737-8435-7c3678448f02","ios":"levelo://app?vid=cdf17972-f2c9-4737-8435-7c3678448f02"},"vehicle_type_id":"4","last_reported":1730128179,"current_range_meters":9200,"station_id":"ce4bgs12rcd13ifvqcag","pricing_plan_id":"cebpf4jnsgd1na2vs0mg"},{"bike_id":"00461461-7c62-4fdb-a38f-3aef98d2ea3a","system_id":"levelo_inurba_marseille","lat":43.33023,"lon":5.39037,"is_reserved":false,"is_disabled":false,"rental_uris":{"android":"levelo://app?vid=00461461-7c62-4fdb-a38f-3aef98d2ea3a","ios":"levelo://app?vid=00461461-7c62-4fdb-a38f-3aef98d2ea3a"},"vehicle_type_id":"4","last_reported":1730128179,"current_range_meters":26800,"station_id":"ce4bhr92rcd13ifvqhrg","pricing_plan_id":"cebpf4jnsgd1na2vs0mg"},{"bike_id":"c8ec5b8f-ea64-42fe-890a-d25bb1cea546","system_id":"levelo_inurba_marseille","lat":43.33611,"lon":5.41033,"is_reserved":false,"is_disabled":false,"rental_uris":{"android":"levelo://app?vid=c8ec5b8f-ea64-42fe-890a-d25bb1cea546","ios":"levelo://app?vid=c8ec5b8f-ea64-42fe-890a-d25bb1cea546"},"vehicle_type_id":"4","last_reported":1730128179,"current_range_meters":8000,"station_id":"ce4bhqh2rcd13ifvqhmg","pricing_plan_id":"cebpf4jnsgd1na2vs0mg"},{"bike_id":"8c715a93-36cb-4a15-9c2d-9e088d5a163d","system_id":"levelo_inurba_marseille","lat":43.29352,"lon":5.37451,"is_reserved":false,"is_disabled":false,"rental_uris":{"android":"levelo://app?vid=8c715a93-36cb-4a15-9c2d-9e088d5a163d","ios":"levelo://app?vid=8c715a93-36cb-4a15-9c2d-9e088d5a163d"},"vehicle_type_id":"4","last_reported":1730128179,"current_range_meters":38800,"station_id":"","pricing_plan_id":"cebpf4jnsgd1na2vs0mg"},{"bike_id":"227938b9-5f76-4cb3-b33b-f281515da800","system_id":"levelo_inurba_marseille","lat":43.29532,"lon":5.37504,"is_reserved":false,"is_disabled":false,"rental_uris":{"android":"levelo://app?vid=227938b9-5f76-4cb3-b33b-f281515da800","ios":"levelo://app?vid=227938b9-5f76-4cb3-b33b-f281515da800"},"vehicle_type_id":"4","last_reported":1730128179,"current_range_meters":36800,"station_id":"ce4bgkp2rcd13ifvqbmg","pricing_plan_id":"cebpf4jnsgd1na2vs0mg"},{"bike_id":"4507aabe-c953-4b60-b859-500111514d1d","system_id":"levelo_inurba_marseille","lat":43.2794,"lon":5.41049,"is_reserved":false,"is_disabled":false,"rental_uris":{"android":"levelo://app?vid=4507aabe-c953-4b60-b859-500111514d1d","ios":"levelo://app?vid=4507aabe-c953-4b60-b859-500111514d1d"},"vehicle_type_id":"4","last_reported":1730128179,"current_range_meters":38800,"station_id":"ce4bhnp2rcd13ifvqh0g","pricing_plan_id":"cebpf4jnsgd1na2vs0mg"},{"bike_id":"b55e0104-612e-47db-87f7-333309a69e4e","system_id":"levelo_inurba_marseille","lat":43.2738,"lon":5.36263,"is_reserved":false,"is_disabled":false,"rental_uris":{"android":"levelo://app?vid=b55e0104-612e-47db-87f7-333309a69e4e","ios":"levelo://app?vid=b55e0104-612e-47db-87f7-333309a69e4e"},"vehicle_type_id":"4","last_reported":1730128179,"current_range_meters":17600,"station_id":"ce4bhbh2rcd13ifvqeo0","pricing_plan_id":"cebpf4jnsgd1na2vs0mg"},{"bike_id":"fbe29dc0-d5ca-42fb-bf96-d397c1a14506","system_id":"levelo_inurba_marseille","lat":43.30325,"lon":5.36847,"is_reserved":false,"is_disabled":false,"rental_uris":{"android":"levelo://app?vid=fbe29dc0-d5ca-42fb-bf96-d397c1a14506","ios":"levelo://app?vid=fbe29dc0-d5ca-42fb-bf96-d397c1a14506"},"vehicle_type_id":"4","last_reported":1730128179,"current_range_meters":28800,"station_id":"ce4bgqh2rcd13ifvqc5g","pricing_plan_id":"cebpf4jnsgd1na2vs0mg"},{"bike_id":"b17c4c33-86f4-4dab-a96f-9ad352e0edf6","system_id":"levelo_inurba_marseille","lat":43.29262,"lon":5.36866,"is_reserved":false,"is_disabled":false,"rental_uris":{"android":"levelo://app?vid=b17c4c33-86f4-4dab-a96f-9ad352e0edf6","ios":"levelo://app?vid=b17c4c33-86f4-4dab-a96f-9ad352e0edf6"},"vehicle_type_id":"4","last_reported":1730128179,"current_range_meters":23200,"station_id":"ce4bhbp2rcd13ifvqesg","pricing_plan_id":"cebpf4jnsgd1na2vs0mg"},{"bike_id":"19a67e0e-ddcc-4efd-b094-9c16f442c422","system_id":"levelo_inurba_marseille","lat":43.31727,"lon":5.42399,"is_reserved":false,"is_disabled":false,"rental_uris":{"android":"levelo://app?vid=19a67e0e-ddcc-4efd-b094-9c16f442c422","ios":"levelo://app?vid=19a67e0e-ddcc-4efd-b094-9c16f442c422"},"vehicle_type_id":"4","last_reported":1730128179,"current_range_meters":14400,"station_id":"ce4bhp92rcd13ifvqhbg","pricing_plan_id":"cebpf4jnsgd1na2vs0mg"},{"bike_id":"737837b8-7066-4d20-89f3-91917ea0193c","system_id":"levelo_inurba_marseille","lat":43.28479,"lon":5.35905,"is_reserved":false,"is_disabled":false,"rental_uris":{"android":"levelo://app?vid=737837b8-7066-4d20-89f3-91917ea0193c","ios":"levelo://app?vid=737837b8-7066-4d20-89f3-91917ea0193c"},"vehicle_type_id":"4","last_reported":1730128179,"current_range_meters":24000,"station_id":"ce4bhah2rcd13ifvqei0","pricing_plan_id":"cebpf4jnsgd1na2vs0mg"},{"bike_id":"7000ab0f-ef23-470c-907f-596ae06253d2","system_id":"levelo_inurba_marseille","lat":43.30195,"lon":5.3661,"is_reserved":false,"is_disabled":false,"rental_uris":{"android":"levelo://app?vid=7000ab0f-ef23-470c-907f-596ae06253d2","ios":"levelo://app?vid=7000ab0f-ef23-470c-907f-596ae06253d2"},"vehicle_type_id":"4","last_reported":1730128179,"current_range_meters":17200,"station_id":"ce4bgop2rcd13ifvqc1g","pricing_plan_id":"cebpf4jnsgd1na2vs0mg"},{"bike_id":"2e4ee113-a20b-438f-ba1e-da90654529ca","system_id":"levelo_inurba_marseille","lat":43.3107,"lon":5.38356,"is_reserved":false,"is_disabled":false,"rental_uris":{"android":"levelo://app?vid=2e4ee113-a20b-438f-ba1e-da90654529ca","ios":"levelo://app?vid=2e4ee113-a20b-438f-ba1e-da90654529ca"},"vehicle_type_id":"4","last_reported":1730128179,"current_range_meters":30800,"station_id":"ce4bgv92rcd13ifvqcr0","pricing_plan_id":"cebpf4jnsgd1na2vs0mg"},{"bike_id":"ab1d2f78-c1d6-459c-9fc7-51421188561b","system_id":"levelo_inurba_marseille","lat":43.30912,"lon":5.36855,"is_reserved":false,"is_disabled":false,"rental_uris":{"android":"levelo://app?vid=ab1d2f78-c1d6-459c-9fc7-51421188561b","ios":"levelo://app?vid=ab1d2f78-c1d6-459c-9fc7-51421188561b"},"vehicle_type_id":"4","last_reported":1730128179,"current_range_meters":39200,"station_id":"ce4bgn92rcd13ifvqbvg","pricing_plan_id":"cebpf4jnsgd1na2vs0mg"},{"bike_id":"1f02a00c-e697-4446-8389-72dcdacc9f45","system_id":"levelo_inurba_marseille","lat":43.3248,"lon":5.36571,"is_reserved":false,"is_disabled":false,"rental_uris":{"android":"levelo://app?vid=1f02a00c-e697-4446-8389-72dcdacc9f45","ios":"levelo://app?vid=1f02a00c-e697-4446-8389-72dcdacc9f45"},"vehicle_type_id":"4","last_reported":1730128179,"current_range_meters":33600,"station_id":"ce4bhs12rcd13ifvqhvg","pricing_plan_id":"cebpf4jnsgd1na2vs0mg"},{"bike_id":"8e93bc1b-1b4f-4129-bbbf-603daf4b7dff","system_id":"levelo_inurba_marseille","lat":43.29575,"lon":5.39979,"is_reserved":false,"is_disabled":false,"rental_uris":{"android":"levelo://app?vid=8e93bc1b-1b4f-4129-bbbf-603daf4b7dff","ios":"levelo://app?vid=8e93bc1b-1b4f-4129-bbbf-603daf4b7dff"},"vehicle_type_id":"4","last_reported":1730128179,"current_range_meters":38400,"station_id":"ce4bh312rcd13ifvqdj0","pricing_plan_id":"cebpf4jnsgd1na2vs0mg"},{"bike_id":"90a42d14-a402-49f5-8c35-a7b6aac93729","system_id":"levelo_inurba_marseille","lat":43.31231,"lon":5.36866,"is_reserved":false,"is_disabled":false,"rental_uris":{"android":"levelo://app?vid=90a42d14-a402-49f5-8c35-a7b6aac93729","ios":"levelo://app?vid=90a42d14-a402-49f5-8c35-a7b6aac93729"},"vehicle_type_id":"4","last_reported":1730128179,"current_range_meters":38800,"station_id":"ce4bgl92rcd13ifvqbq0","pricing_plan_id":"cebpf4jnsgd1na2vs0mg"},{"bike_id":"d93ab759-75c6-464b-974b-83502adf0cb4","system_id":"levelo_inurba_marseille","lat":43.29224,"lon":5.36076,"is_reserved":false,"is_disabled":false,"rental_uris":{"android":"levelo://app?vid=d93ab759-75c6-464b-974b-83502adf0cb4","ios":"levelo://app?vid=d93ab759-75c6-464b-974b-83502adf0cb4"},"vehicle_type_id":"4","last_reported":1730128179,"current_range_meters":36800,"station_id":"ce4bhbh2rcd13ifvqeqg","pricing_plan_id":"cebpf4jnsgd1na2vs0mg"},{"bike_id":"26bddca9-4f9d-43af-b104-a81502da8f91","system_id":"levelo_inurba_marseille","lat":43.30175,"lon":5.39795,"is_reserved":false,"is_disabled":false,"rental_uris":{"android":"levelo://app?vid=26bddca9-4f9d-43af-b104-a81502da8f91","ios":"levelo://app?vid=26bddca9-4f9d-43af-b104-a81502da8f91"},"vehicle_type_id":"4","last_reported":1730128179,"current_range_meters":14400,"station_id":"ce4bh0h2rcd13ifvqd40","pricing_plan_id":"cebpf4jnsgd1na2vs0mg"},{"bike_id":"57e4b759-031c-4599-be3c-813677bd9137","system_id":"levelo_inurba_marseille","lat":43.26058,"lon":5.39397,"is_reserved":false,"is_disabled":false,"rental_uris":{"android":"levelo://app?vid=57e4b759-031c-4599-be3c-813677bd9137","ios":"levelo://app?vid=57e4b759-031c-4599-be3c-813677bd9137"},"vehicle_type_id":"4","last_reported":1730128179,"current_range_meters":30400,"station_id":"ce4bhh92rcd13ifvqfj0","pricing_plan_id":"cebpf4jnsgd1na2vs0mg"},{"bike_id":"eabe73fe-3e08-43bb-b6e1-37b1dd48aa50","system_id":"levelo_inurba_marseille","lat":43.29974,"lon":5.38488,"is_reserved":false,"is_disabled":false,"rental_uris":{"android":"levelo://app?vid=eabe73fe-3e08-43bb-b6e1-37b1dd48aa50","ios":"levelo://app?vid=eabe73fe-3e08-43bb-b6e1-37b1dd48aa50"},"vehicle_type_id":"4","last_reported":1730128179,"current_range_meters":38800,"station_id":"ce4bh092rcd13ifvqd30","pricing_plan_id":"cebpf4jnsgd1na2vs0mg"},{"bike_id":"56dc96ae-90d1-4a84-9cb6-cacb10ab3e69","system_id":"levelo_inurba_marseille","lat":43.28408,"lon":5.34996,"is_reserved":false,"is_disabled":false,"rental_uris":{"android":"levelo://app?vid=56dc96ae-90d1-4a84-9cb6-cacb10ab3e69","ios":"levelo://app?vid=56dc96ae-90d1-4a84-9cb6-cacb10ab3e69"},"vehicle_type_id":"4","last_reported":1730128179,"current_range_meters":38800,"station_id":"ce4bhbh2rcd13ifvqepg","pricing_plan_id":"cebpf4jnsgd1na2vs0mg"},{"bike_id":"0fcda6f0-5cdc-4506-9a94-3c8f8482ed90","system_id":"levelo_inurba_marseille","lat":43.29538,"lon":5.37507,"is_reserved":false,"is_disabled":false,"rental_uris":{"android":"levelo://app?vid=0fcda6f0-5cdc-4506-9a94-3c8f8482ed90","ios":"levelo://app?vid=0fcda6f0-5cdc-4506-9a94-3c8f8482ed90"},"vehicle_type_id":"4","last_reported":1730128179,"current_range_meters":11200,"station_id":"ce4bgkp2rcd13ifvqbmg","pricing_plan_id":"cebpf4jnsgd1na2vs0mg"},{"bike_id":"4c564bcf-faa0-41f3-90cc-f45e27a2c4dc","system_id":"levelo_inurba_marseille","lat":43.2707,"lon":5.40261,"is_reserved":false,"is_disabled":false,"rental_uris":{"android":"levelo://app?vid=4c564bcf-faa0-41f3-90cc-f45e27a2c4dc","ios":"levelo://app?vid=4c564bcf-faa0-41f3-90cc-f45e27a2c4dc"},"vehicle_type_id":"4","last_reported":1730128179,"current_range_meters":33600,"station_id":"ce4bhk92rcd13ifvqgc0","pricing_plan_id":"cebpf4jnsgd1na2vs0mg"},{"bike_id":"6d92f4d9-0cdd-41cd-aecc-2b7f33713104","system_id":"levelo_inurba_marseille","lat":43.29114,"lon":5.41745,"is_reserved":false,"is_disabled":false,"rental_uris":{"android":"levelo://app?vid=6d92f4d9-0cdd-41cd-aecc-2b7f33713104","ios":"levelo://app?vid=6d92f4d9-0cdd-41cd-aecc-2b7f33713104"},"vehicle_type_id":"4","last_reported":1730128179,"current_range_meters":9600,"station_id":"","pricing_plan_id":"cebpf4jnsgd1na2vs0mg"},{"bike_id":"d64da2b9-0892-4264-8a1a-3dc8679a864e","system_id":"levelo_inurba_marseille","lat":43.30574,"lon":5.36557,"is_reserved":false,"is_disabled":false,"rental_uris":{"android":"levelo://app?vid=d64da2b9-0892-4264-8a1a-3dc8679a864e","ios":"levelo://app?vid=d64da2b9-0892-4264-8a1a-3dc8679a864e"},"vehicle_type_id":"4","last_reported":1730128179,"current_range_meters":7200,"station_id":"ce4bgs12rcd13ifvqcag","pricing_plan_id":"cebpf4jnsgd1na2vs0mg"},{"bike_id":"1a0470b1-efd0-4c07-9492-eb118f3b50d2","system_id":"levelo_inurba_marseille","lat":43.28447,"lon":5.38444,"is_reserved":false,"is_disabled":false,"rental_uris":{"android":"levelo://app?vid=1a0470b1-efd0-4c07-9492-eb118f3b50d2","ios":"levelo://app?vid=1a0470b1-efd0-4c07-9492-eb118f3b50d2"},"vehicle_type_id":"4","last_reported":1730128179,"current_range_meters":37600,"station_id":"ce4bh512rcd13ifvqe3g","pricing_plan_id":"cebpf4jnsgd1na2vs0mg"},