{"last_updated":1741777677,"ttl":60,"version":"2.2","data":{"bikes":[{"bike_id":"e3565dcf-4d34-49d7-919b-1234920ea466","system_id":"levelo_inurba_marseille","lat":43.33746,"lon":5.3745,"is_reserved":false,"is_disabled":false,"rental_uris":{"android":"levelo://app?vid=e3565dcf-4d34-49d7-919b-1234920ea466","ios":"levelo://app?vid=e3565dcf-4d34-49d7-919b-1234920ea466"},"vehicle_type_id":"4","last_reported":1741777678,"current_range_meters":18000,"station_id":"","pricing_plan_id":"cebpf4jnsgd1na2vs0mg"},{"bike_id":"2fbb2f0e-b64e-445e-a2b3-ee5227dc63e4","system_id":"levelo_inurba_marseille","lat":43.26908,"lon":5.36791,"is_reserved":false,"is_disabled":true,"rental_uris":{"android":"levelo://app?vid=2fbb2f0e-b64e-445e-a2b3-ee5227dc63e4","ios":"levelo://app?vid=2fbb2f0e-b64e-445e-a2b3-ee5227dc63e4"},"vehicle_type_id":"4","last_reported":1741777678,"current_range_meters":0,"station_id":"","pricing_plan_id":"cebpf4jnsgd1na2vs0mg"},{"bike_id":"62b3a7b8-8202-4684-8ab1-a7c1ed31d3f6","system_id":"levelo_inurba_marseille","lat":43.31106,"lon":5.37506,"is_reserved":false,"is_disabled":true,"rental_uris":{"android":"levelo://app?vid=62b3a7b8-8202-4684-8ab1-a7c1ed31d3f6","ios":"levelo://app?vid=62b3a7b8-8202-4684-8ab1-a7c1ed31d3f6"},"vehicle_type_id":"4","last_reported":1741777678,"current_range_meters":0,"station_id":"","pricing_plan_id":"cebpf4jnsgd1na2vs0mg"},{"bike_id":"9ee8d9b2-106d-4490-9546-f216244e7995","system_id":"levelo_inurba_marseille","lat":43.276856,"lon":5.378662,"is_reserved":false,"is_disabled":true,"rental_uris":{"android":"levelo://app?vid=9ee8d9b2-106d-4490-9546-f216244e7995","ios":"levelo://app?vid=9ee8d9b2-106d-4490-9546-f216244e7995"},"vehicle_type_id":"4","last_reported":1741777678,"current_range_meters":0,"station_id":"","pricing_plan_id":"cebpf4jnsgd1na2vs0mg"},{"bike_id":"b104001a-10f7-4c93-b613-2b76cb885027","system_id":"levelo_inurba_marseille","lat":43.31147,"lon":5.37108,"is_reserved":false,"is_disabled":true,"rental_uris":{"android":"levelo://app?vid=b104001a-10f7-4c93-b613-2b76cb885027","ios":"levelo://app?vid=b104001a-10f7-4c93-b613-2b76cb885027"},"vehicle_type_id":"4","last_reported":1741777678,"current_range_meters":0,"station_id":"","pricing_plan_id":"cebpf4jnsgd1na2vs0mg"},{"bike_id":"fbaaf3b2-379e-420b-b0c4-e3229edd3437","system_id":"levelo_inurba_marseille","lat":43.30631,"lon":5.40078,"is_reserved":false,"is_disabled":true,"rental_uris":{"android":"levelo://app?vid=fbaaf3b2-379e-420b-b0c4-e3229edd3437","ios":"levelo://app?vid=fbaaf3b2-379e-420b-b0c4-e3229edd3437"},"vehicle_type_id":"4","last_reported":1741777678,"current_range_meters":0,"station_id":"ce4bh112rcd13ifvqda0","pricing_plan_id":"cebpf4jnsgd1na2vs0mg"},{"bike_id":"e7fb5dee-a2b0-4069-8174-f67d1214e169","system_id":"levelo_inurba_marseille","lat":43.2804,"lon":5.36937,"is_reserved":false,"is_disabled":true,"rental_uris":{"android":"levelo://app?vid=e7fb5dee-a2b0-4069-8174-f67d1214e169","ios":"levelo://app?vid=e7fb5dee-a2b0-4069-8174-f67d1214e169"},"vehicle_type_id":"4","last_reported":1741777678,"current_range_meters":0,"station_id":"ce4bha12rcd13ifvqef0","pricing_plan_id":"cebpf4jnsgd1na2vs0mg"},{"bike_id":"2c50545f-2e26-44c7-b7d5-00c0e66bb1cd","system_id":"levelo_inurba_marseille","lat":43.28449,"lon":5.35877,"is_reserved":false,"is_disabled":true,"rental_uris":{"android":"levelo://app?vid=2c50545f-2e26-44c7-b7d5-00c0e66bb1cd","ios":"levelo://app?vid=2c50545f-2e26-44c7-b7d5-00c0e66bb1cd"},"vehicle_type_id":"4","last_reported":1741777678,"current_range_meters":0,"station_id":"ce4bhah2rcd13ifvqei0","pricing_plan_id":"cebpf4jnsgd1na2vs0mg"},{"bike_id":"36f2d343-0d04-4fb2-9a01-5f48eb52596f","system_id":"levelo_inurba_marseille","lat":43.28459,"lon":5.35884,"is_reserved":false,"is_disabled":true,"rental_uris":{"android":"levelo://app?vid=36f2d343-0d04-4fb2-9a01-5f48eb52596f","ios":"levelo://app?vid=36f2d343-0d04-4fb2-9a01-5f48eb52596f"},"vehicle_type_id":"4","last_reported":1741777678,"current_range_meters":0,"station_id":"ce4bhah2rcd13ifvqei0","pricing_plan_id":"cebpf4jnsgd1na2vs0mg"},{"bike_id":"89e26b02-015a-410e-94a9-526be3e95c44","system_id":"levelo_inurba_marseille","lat":43.23148,"lon":5.43709,"is_reserved":false,"is_disabled":true,"rental_uris":{"android":"levelo://app?vid=89e26b02-015a-410e-94a9-526be3e95c44","ios":"levelo://app?vid=89e26b02-015a-410e-94a9-526be3e95c44"},"vehicle_type_id":"4","last_reported":1741777678,"current_range_meters":0,"station_id":"ce4bhmp2rcd13ifvqgog","pricing_plan_id":"cebpf4jnsgd1na2vs0mg"},{"bike_id":"4db736b9-68d3-4f2a-9431-002ce7a44183","system_id":"levelo_inurba_marseille","lat":43.23199,"lon":5.43667,"is_reserved":false,"is_disabled":true,"rental_uris":{"android":"levelo://app?vid=4db736b9-68d3-4f2a-9431-002ce7a44183","ios":"levelo://app?vid=4db736b9-68d3-4f2a-9431-002ce7a44183"},"vehicle_type_id":"4","last_reported":1741777678,"current_range_meters":400,"station_id":"ce4bhmp2rcd13ifvqgog","pricing_plan_id":"cebpf4jnsgd1na2vs0mg"},{"bike_id":"702cb46f-b487-4fa7-bb19-ff8a8de79b57","system_id":"levelo_inurba_marseille","lat":43.268,"lon":5.40265,"is_reserved":false,"is_disabled":true,"rental_uris":{"android":"levelo://app?vid=702cb46f-b487-4fa7-bb19-ff8a8de79b57","ios":"levelo://app?vid=702cb46f-b487-4fa7-bb19-ff8a8de79b57"},"vehicle_type_id":"4","last_reported":1741777678,"current_range_meters":400,"station_id":"ce501612rcd8frsf0b60","pricing_plan_id":"cebpf4jnsgd1na2vs0mg"},{"bike_id":"d3f91f22-7ed5-4876-8ee7-65c967f221fb","system_id":"levelo_inurba_marseille","lat":43.31334,"lon":5.37037,"is_reserved":false,"is_disabled":true,"rental_uris":{"android":"levelo://app?vid=d3f91f22-7ed5-4876-8ee7-65c967f221fb","ios":"levelo://app?vid=d3f91f22-7ed5-4876-8ee7-65c967f221fb"},"vehicle_type_id":"4","last_reported":1741777678,"current_range_meters":800,"station_id":"","pricing_plan_id":"cebpf4jnsgd1na2vs0mg"},{"bike_id":"b9936fe1-22c3-419a-8ea8-df9fc70e6aa9","system_id":"levelo_inurba_marseille","lat":43.27995,"lon":5.41664,"is_reserved":false,"is_disabled":true,"rental_uris":{"android":"levelo://app?vid=b9936fe1-22c3-419a-8ea8-df9fc70e6aa9","ios":"levelo://app?vid=b9936fe1-22c3-419a-8ea8-df9fc70e6aa9"},"vehicle_type_id":"4","last_reported":1741777678,"current_range_meters":800,"station_id":"ce4bho12rcd13ifvqh1g","pricing_plan_id":"cebpf4jnsgd1na2vs0mg"},{"bike_id":"36a83dc7-2da9-4fd8-9caf-ab5acfefbac5","system_id":"levelo_inurba_marseille","lat":43.2574,"lon":5.41107,"is_reserved":false,"is_disabled":true,"rental_uris":{"android":"levelo://app?vid=36a83dc7-2da9-4fd8-9caf-ab5acfefbac5","ios":"levelo://app?vid=36a83dc7-2da9-4fd8-9caf-ab5acfefbac5"},"vehicle_type_id":"4","last_reported":1741777678,"current_range_meters":1200,"station_id":"ce4bhkp2rcd13ifvqgd0","pricing_plan_id":"cebpf4jnsgd1na2vs0mg"},{"bike_id":"f87ec094-5b89-4c57-8d9c-798181315a30","system_id":"levelo_inurba_marseille","lat":43.29274,"lon":5.38413,"is_reserved":false,"is_disabled":true,"rental_uris":{"android":"levelo://app?vid=f87ec094-5b89-4c57-8d9c-798181315a30","ios":"levelo://app?vid=f87ec094-5b89-4c57-8d9c-798181315a30"},"vehicle_type_id":"4","last_reported":1741777678,"current_range_meters":2000,"station_id":"ce4bh692rcd13ifvqea0","pricing_plan_id":"cebpf4jnsgd1na2vs0mg"},{"bike_id":"40d26d58-cfff-4e9d-8f43-6e6477981f85","system_id":"levelo_inurba_marseille","lat":43.2621,"lon":5.37951,"is_reserved":false,"is_disabled":true,"rental_uris":{"android":"levelo://app?vid=40d26d58-cfff-4e9d-8f43-6e6477981f85","ios":"levelo://app?vid=40d26d58-cfff-4e9d-8f43-6e6477981f85"},"vehicle_type_id":"4","last_reported":1741777678,"current_range_meters":2000,"station_id":"ce4bhjp2rcd13ifvqg90","pricing_plan_id":"cebpf4jnsgd1na2vs0mg"},{"bike_id":"9b4447de-b6c6-4967-bd1e-701e8b3c7110","system_id":"levelo_inurba_marseille","lat":43.23153,"lon":5.43706,"is_reserved":false,"is_disabled":true,"rental_uris":{"android":"levelo://app?vid=9b4447de-b6c6-4967-bd1e-701e8b3c7110","ios":"levelo://app?vid=9b4447de-b6c6-4967-bd1e-701e8b3c7110"},"vehicle_type_id":"4","last_reported":1741777678,"current_range_meters":2000,"station_id":"ce4bhmp2rcd13ifvqgog","pricing_plan_id":"cebpf4jnsgd1na2vs0mg"},{"bike_id":"69240521-5c86-4da8-9d31-b38720cfb532","system_id":"levelo_inurba_marseille","lat":43.26209,"lon":5.40457,"is_reserved":false,"is_disabled":false,"rental_uris":{"android":"levelo://app?vid=69240521-5c86-4da8-9d31-b38720cfb532","ios":"levelo://app?vid=69240521-5c86-4da8-9d31-b38720cfb532"},"vehicle_type_id":"4","last_reported":1741777678,"current_range_meters":2800,"station_id":"ce4bhmh2rcd13ifvqgmg","pricing_plan_id":"cebpf4jnsgd1na2vs0mg"},{"bike_id":"0c1d813a-250e-430a-bd56-28b3784109a4","system_id":"levelo_inurba_marseille","lat":43.25699,"lon":5.41082,"is_reserved":false,"is_disabled":false,"rental_uris":{"android":"levelo://app?vid=0c1d813a-250e-430a-bd56-28b3784109a4","ios":"levelo://app?vid=0c1d813a-250e-430a-bd56-28b3784109a4"},"vehicle_type_id":"4","last_reported":1741777678,"current_range_meters":3200,"station_id":"ce4bhkp2rcd13ifvqgd0","pricing_plan_id":"cebpf4jnsgd1na2vs0mg"},{"bike_id":"e9e5f3eb-d077-46f1-8267-8d16dde715f7","system_id":"levelo_inurba_marseille","lat":43.25936,"lon":5.40873,"is_reserved":false,"is_disabled":false,"rental_uris":{"android":"levelo://app?vid=e9e5f3eb-d077-46f1-8267-8d16dde715f7","ios":"levelo://app?vid=e9e5f3eb-d077-46f1-8267-8d16dde715f7"},"vehicle_type_id":"4","last_reported":1741777678,"current_range_meters":3200,"station_id":"ce4bhm92rcd13ifvqglg","pricing_plan_id":"cebpf4jnsgd1na2vs0mg"},{"bike_id":"6b42988a-de91-4a30-b407-bb1347588844","system_id":"levelo_inurba_marseille","lat":43.27804,"lon":5.4071,"is_reserved":false,"is_disabled":false,"rental_uris":{"android":"levelo://app?vid=6b42988a-de91-4a30-b407-bb1347588844","ios":"levelo://app?vid=6b42988a-de91-4a30-b407-bb1347588844"},"vehicle_type_id":"4","last_reported":1741777678,"current_range_meters":3200,"station_id":"ce4bhnh2rcd13ifvqgtg","pricing_plan_id":"cebpf4jnsgd1na2vs0mg"},{"bike_id":"db0337c4-55bf-4b23-9c13-b49af263e664","system_id":"levelo_inurba_marseille","lat":43.298309,"lon":5.436162,"is_reserved":false,"is_disabled":false,"rental_uris":{"android":"levelo://app?vid=db0337c4-55bf-4b23-9c13-b49af263e664","ios":"levelo://app?vid=db0337c4-55bf-4b23-9c13-b49af263e664"},"vehicle_type_id":"4","last_reported":1741777678,"current_range_meters":3200,"station_id":"ce4bhpp2rcd13ifvqhfg","pricing_plan_id":"cebpf4jnsgd1na2vs0mg"},{"bike_id":"086d3780-5e1b-464d-bea1-4d92af6d5ea0","system_id":"levelo_inurba_marseille","lat":43.30525,"lon":5.36712,"is_reserved":false,"is_disabled":false,"rental_uris":{"android":"levelo://app?vid=086d3780-5e1b-464d-bea1-4d92af6d5ea0","ios":"levelo://app?vid=086d3780-5e1b-464d-bea1-4d92af6d5ea0"},"vehicle_type_id":"4","last_reported":1741777678,"current_range_meters":3600,"station_id":"","pricing_plan_id":"cebpf4jnsgd1na2vs0mg"},{"bike_id":"848095da-7240-4b07-a607-3c081d58ff31","system_id":"levelo_inurba_marseille","lat":43.31392,"lon":5.38496,"is_reserved":false,"is_disabled":false,"rental_uris":{"android":"levelo://app?vid=848095da-7240-4b07-a607-3c081d58ff31","ios":"levelo://app?vid=848095da-7240-4b07-a607-3c081d58ff31"},"vehicle_type_id":"4","last_reported":1741777678,"current_range_meters":3600,"station_id":"ce4bgt92rcd13ifvqcf0","pricing_plan_id":"cebpf4jnsgd1na2vs0mg"},{"bike_id":"c86d68f5-55ee-4a68-ba82-758fa1373f1d","system_id":"levelo_inurba_marseille","lat":43.31714,"lon":5.43704,"is_reserved":false,"is_disabled":false,"rental_uris":{"android":"levelo://app?vid=c86d68f5-55ee-4a68-ba82-758fa1373f1d","ios":"levelo://app?vid=c86d68f5-55ee-4a68-ba82-758fa1373f1d"},"vehicle_type_id":"4","last_reported":1741777678,"current_range_meters":3600,"station_id":"ce4bhp92rcd13ifvqhcg","pricing_plan_id":"cebpf4jnsgd1na2vs0mg"},{"bike_id":"3ac71b9e-3b30-457c-8471-e3fc9cbb7fb6","system_id":"levelo_inurba_marseille","lat":43.27314,"lon":5.39095,"is_reserved":false,"is_disabled":false,"rental_uris":{"android":"levelo://app?vid=3ac71b9e-3b30-457c-8471-e3fc9cbb7fb6","ios":"levelo://app?vid=3ac71b9e-3b30-457c-8471-e3fc9cbb7fb6"},"vehicle_type_id":"4","last_reported":1741777678,"current_range_meters":4000,"station_id":"ce4bhgp2rcd13ifvqfe0","pricing_plan_id":"cebpf4jnsgd1na2vs0mg"},{"bike_id":"1cccf9ee-139c-4dc2-8dd0-ced14ebbe202","system_id":"levelo_inurba_marseille","lat":43.23973,"lon":5.36613,"is_reserved":false,"is_disabled":false,"rental_uris":{"android":"levelo://app?vid=1cccf9ee-139c-4dc2-8dd0-ced14ebbe202","ios":"levelo://app?vid=1cccf9ee-139c-4dc2-8dd0-ced14ebbe202"},"vehicle_type_id":"4","last_reported":1741777678,"current_range_meters":4000,"station_id":"ce4bhi12rcd13ifvqfp0","pricing_plan_id":"cebpf4jnsgd1na2vs0mg"},{"bike_id":"09d0dc97-3cf9-47bc-b28b-d8dd4fbf05fa","system_id":"levelo_inurba_marseille","lat":43.2884,"lon":5.39303,"is_reserved":false,"is_disabled":false,"rental_uris":{"android":"levelo://app?vid=09d0dc97-3cf9-47bc-b28b-d8dd4fbf05fa","ios":"levelo://app?vid=09d0dc97-3cf9-47bc-b28b-d8dd4fbf05fa"},"vehicle_type_id":"4","last_reported":1741777678,"current_range_meters":4400,"station_id":"ce4bh2p2rcd13ifvqdi0","pricing_plan_id":"cebpf4jnsgd1na2vs0mg"},{"bike_id":"4655ae61-9f01-41c1-8540-ac39b4dc6c5b","system_id":"levelo_inurba_marseille","lat":43.32551,"lon":5.41445,"is_reserved":false,"is_disabled":false,"rental_uris":{"android":"levelo://app?vid=4655ae61-9f01-41c1-8540-ac39b4dc6c5b","ios":"levelo://app?vid=4655ae61-9f01-41c1-8540-ac39b4dc6c5b"},"vehicle_type_id":"4","last_reported":1741777678,"current_range_meters":4400,"station_id":"ce4bhq12rcd13ifvqhhg","pricing_plan_id":"cebpf4jnsgd1na2vs0mg"},{"bike_id":"09bbb690-af86-458c-bbad-70d10e2033ee","system_id":"levelo_inurba_marseille","lat":43.230626,"lon":5.354861,"is_reserved":false,"is_disabled":false,"rental_uris":{"android":"levelo://app?vid=09bbb690-af86-458c-bbad-70d10e2033ee","ios":"levelo://app?vid=09bbb690-af86-458c-bbad-70d10e2033ee"},"vehicle_type_id":"4","last_reported":1741777678,"current_range_meters":4400,"station_id":"cpo3342slgdg3j2ifvpg","pricing_plan_id":"cebpf4jnsgd1na2vs0mg"},{"bike_id":"bf2feb02-4272-4476-92f9-9420844c4078","system_id":"levelo_inurba_marseille","lat":43.31203,"lon":5.37677,"is_reserved":false,"is_disabled":false,"rental_uris":{"android":"levelo://app?vid=bf2feb02-4272-4476-92f9-9420844c4078","ios":"levelo://app?vid=bf2feb02-4272-4476-92f9-9420844c4078"},"vehicle_type_id":"4","last_reported":1741777678,"current_range_meters":5600,"station_id":"","pricing_plan_id":"cebpf4jnsgd1na2vs0mg"},{"bike_id":"d3acab28-3125-4afa-b5eb-02e807f46858","system_id":"levelo_inurba_marseille","lat":43.24175,"lon":5.39725,"is_reserved":false,"is_disabled":false,"rental_uris":{"android":"levelo://app?vid=d3acab28-3125-4afa-b5eb-02e807f46858","ios":"levelo://app?vid=d3acab28-3125-4afa-b5eb-02e807f46858"},"vehicle_type_id":"4","last_reported":1741777678,"current_range_meters":5600,"station_id":"ce4bhn12rcd13ifvqgpg","pricing_plan_id":"cebpf4jnsgd1na2vs0mg"},{"bike_id":"cbd6f8ee-d91a-4c06-a50f-8aefa40d8ceb","system_id":"levelo_inurba_marseille","lat":43.29902,"lon":5.43648,"is_reserved":false,"is_disabled":false,"rental_uris":{"android":"levelo://app?vid=cbd6f8ee-d91a-4c06-a50f-8aefa40d8ceb","ios":"levelo://app?vid=cbd6f8ee-d91a-4c06-a50f-8aefa40d8ceb"},"vehicle_type_id":"4","last_reported":1741777678,"current_range_meters":5600,"station_id":"ce4bhpp2rcd13ifvqhfg","pricing_plan_id":"cebpf4jnsgd1na2vs0mg"},{"bike_id":"ee3470b0-a6a9-4f94-b140-463e351648db","system_id":"levelo_inurba_marseille","lat":43.24645,"lon":5.38899,"is_reserved":false,"is_disabled":false,"rental_uris":{"android":"levelo://app?vid=ee3470b0-a6a9-4f94-b140-463e351648db","ios":"levelo://app?vid=ee3470b0-a6a9-4f94-b140-463e351648db"},"vehicle_type_id":"4","last_reported":1741777678,"current_range_meters":6000,"station_id":"ce4bhg12rcd13ifvqf60","pricing_plan_id":"cebpf4jnsgd1na2vs0mg"},{"bike_id":"80771939-f406-42f7-81c5-33180fd8a338","system_id":"levelo_inurba_marseille","lat":43.2319,"lon":5.35545,"is_reserved":false,"is_disabled":false,"rental_uris":{"android":"levelo://app?vid=80771939-f406-42f7-81c5-33180fd8a338","ios":"levelo://app?vid=80771939-f406-42f7-81c5-33180fd8a338"},"vehicle_type_id":"4","last_reported":1741777678,"current_range_meters":6000,"station_id":"ce4bhu92rcd13ifvqi70","pricing_plan_id":"cebpf4jnsgd1na2vs0mg"},{"bike_id":"7ce12bf9-e84e-4a31-8718-deba0d155dc9","system_id":"levelo_inurba_marseille","lat":43.29607,"lon":5.38113,"is_reserved":false,"is_disabled":false,"rental_uris":{"android":"levelo://app?vid=7ce12bf9-e84e-4a31-8718-deba0d155dc9","ios":"levelo://app?vid=7ce12bf9-e84e-4a31-8718-deba0d155dc9"},"vehicle_type_id":"4","last_reported":1741777678,"current_range_meters":6400,"station_id":"ce4bgl12rcd13ifvqbo0","pricing_plan_id":"cebpf4jnsgd1na2vs0mg"},{"bike_id":"97aa80a6-48d3-44af-93c6-9dd96b4ee340","system_id":"levelo_inurba_marseille","lat":43.3089,"lon":5.37189,"is_reserved":false,"is_disabled":false,"rental_uris":{"android":"levelo://app?vid=97aa80a6-48d3-44af-93c6-9dd96b4ee340","ios":"levelo://app?vid=97aa80a6-48d3-44af-93c6-9dd96b4ee340"},"vehicle_type_id":"4","last_reported":1741777678,"current_range_meters":6400,"station_id":"ce4bguh2rcd13ifvqckg","pricing_plan_id":"cebpf4jnsgd1na2vs0mg"},{"bike_id":"42f73380-bbdc-4d69-8496-7e17d0550ae7","system_id":"levelo_inurba_marseille","lat":43.28257,"lon":5.35057,"is_reserved":false,"is_disabled":false,"rental_uris":{"android":"levelo://app?vid=42f73380-bbdc-4d69-8496-7e17d0550ae7","ios":"levelo://app?vid=42f73380-bbdc-4d69-8496-7e17d0550ae7"},"vehicle_type_id":"4","last_reported":1741777678,"current_range_meters":6400,"station_id":"ce4bhbp2rcd13ifvqerg","pricing_plan_id":"cebpf4jnsgd1na2vs0mg"},{"bike_id":"9b8580bc-ae0f-4f8a-90a3-feb852a37ce9","system_id":"levelo_inurba_marseille","lat":43.31077,"lon":5.42426,"is_reserved":false,"is_disabled":false,"rental_uris":{"android":"levelo://app?vid=9b8580bc-ae0f-4f8a-90a3-feb852a37ce9","ios":"levelo://app?vid=9b8580bc-ae0f-4f8a-90a3-feb852a37ce9"},"vehicle_type_id":"4","last_reported":1741777678,"current_range_meters":6400,"station_id":"ce4bhp92rcd13ifvqhag","pricing_plan_id":"cebpf4jnsgd1na2vs0mg"},{"bike_id":"6aea2566-b841-4d06-9681-2f6a23bb8c08","system_id":"levelo_inurba_marseille","lat":43.28466,"lon":5.35878,"is_reserved":false,"is_disabled":false,"rental_uris":{"android":"levelo://app?vid=6aea2566-b841-4d06-9681-2f6a23bb8c08","ios":"levelo://app?vid=6aea2566-b841-4d06-9681-2f6a23bb8c08"},"vehicle_type_id":"4","last_reported":1741777678,"current_range_meters":6800,"station_id":"ce4bhah2rcd13ifvqei0","pricing_plan_id":"cebpf4jnsgd1na2vs0mg"},{"bike_id":"cec6458d-2bf5-4cc3-b72a-8930c855e1a8","system_id":"levelo_inurba_marseille","lat":43.31094,"lon":5.42428,"is_reserved":false,"is_disabled":false,"rental_uris":{"android":"levelo://app?vid=cec6458d-2bf5-4cc3-b72a-8930c855e1a8","ios":"levelo://app?vid=cec6458d-2bf5-4cc3-b72a-8930c855e1a8"},"vehicle_type_id":"4","last_reported":1741777678,"current_range_meters":6800,"station_id":"ce4bhp92rcd13ifvqhag","pricing_plan_id":"cebpf4jnsgd1na2vs0mg"},{"bike_id":"58d1b5b3-d322-4418-97d0-3066ec3d9afc","system_id":"levelo_inurba_marseille","lat":43.23188,"lon":5.35538,"is_reserved":false,"is_disabled":false,"rental_uris":{"android":"levelo://app?vid=58d1b5b3-d322-4418-97d0-3066ec3d9afc","ios":"levelo://app?vid=58d1b5b3-d322-4418-97d0-3066ec3d9afc"},"vehicle_type_id":"4","last_reported":1741777678,"current_range_meters":6800,"station_id":"ce4bhu92rcd13ifvqi70","pricing_plan_id":"cebpf4jnsgd1na2vs0mg"},{"bike_id":"46b47549-8f4f-4088-a27a-bea7bc202563","system_id":"levelo_inurba_marseille","lat":43.22928,"lon":5.35374,"is_reserved":false,"is_disabled":false,"rental_uris":{"android":"levelo://app?vid=46b47549-8f4f-4088-a27a-bea7bc202563","ios":"levelo://app?vid=46b47549-8f4f-4088-a27a-bea7bc202563"},"vehicle_type_id":"4","last_reported":1741777678,"current_range_meters":6800,"station_id":"cpo3532slgdg3j2ikp40","pricing_plan_id":"cebpf4jnsgd1na2vs0mg"},{"bike_id":"c835eee2-01bf-4ff1-a164-4c90e0a065d9","system_id":"levelo_inurba_marseille","lat":43.25012,"lon":5.38919,"is_reserved":false,"is_disabled":false,"rental_uris":{"android":"levelo://app?vid=c835eee2-01bf-4ff1-a164-4c90e0a065d9","ios":"levelo://app?vid=c835eee2-01bf-4ff1-a164-4c90e0a065d9"},"vehicle_type_id":"4","last_reported":1741777678,"current_range_meters":7200,"station_id":"ce4bhgp2rcd13ifvqfd0","pricing_plan_id":"cebpf4jnsgd1na2vs0mg"},{"bike_id":"7270e3a1-ea48-45d4-aa0e-e1bb1295c598","system_id":"levelo_inurba_marseille","lat":43.24547,"lon":5.39525,"is_reserved":false,"is_disabled":false,"rental_uris":{"android":"levelo://app?vid=7270e3a1-ea48-45d4-aa0e-e1bb1295c598","ios":"levelo://app?vid=7270e3a1-ea48-45d4-aa0e-e1bb1295c598"},"vehicle_type_id":"4","last_reported":1741777678,"current_range_meters":7200,"station_id":"ce4bhlp2rcd13ifvqgjg","pricing_plan_id":"cebpf4jnsgd1na2vs0mg"},{"bike_id":"9b75f73b-4e4f-4d50-8655-4ca7749a5646","system_id":"levelo_inurba_marseille","lat":43.27821,"lon":5.40704,"is_reserved":false,"is_disabled":false,"rental_uris":{"android":"levelo://app?vid=9b75f73b-4e4f-4d50-8655-4ca7749a5646","ios":"levelo://app?vid=9b75f73b-4e4f-4d50-8655-4ca7749a5646"},"vehicle_type_id":"4","last_reported":1741777678,"current_range_meters":7200,"station_id":"ce4bhnh2rcd13ifvqgtg","pricing_plan_id":"cebpf4jnsgd1na2vs0mg"},{"bike_id":"f640465e-8c9e-425a-8e36-08d8d5201bf6","system_id":"levelo_inurba_marseille","lat":43.23186,"lon":5.35531,"is_reserved":false,"is_disabled":false,"rental_uris":{"android":"levelo://app?vid=f640465e-8c9e-425a-8e36-08d8d5201bf6","ios":"levelo://app?vid=f640465e-8c9e-425a-8e36-08d8d5201bf6"},"vehicle_type_id":"4","last_reported":1741777678,"current_range_meters":7200,"station_id":"ce4bhu92rcd13ifvqi70","pricing_plan_id":"cebpf4jnsgd1na2vs0mg"},{"bike_id":"241d79a7-8164-4ee5-8d3f-2565e2e0b3e8","system_id":"levelo_inurba_marseille","lat":43.31361,"lon":5.37979,"is_reserved":false,"is_disabled":false,"rental_uris":{"android":"levelo://app?vid=241d79a7-8164-4ee5-8d3f-2565e2e0b3e8","ios":"levelo://app?vid=241d79a7-8164-4ee5-8d3f-2565e2e0b3e8"},"vehicle_type_id":"4","last_reported":1741777678,"current_range_meters":8000,"station_id":"","pricing_plan_id":"cebpf4jnsgd1na2vs0mg"},{"bike_id":"512c4bea-01ec-4a77-9442-bae8cc15ba12","system_id":"levelo_inurba_marseille","lat":43.260625,"lon":5.393978,"is_reserved":false,"is_disabled":false,"rental_uris":{"android":"levelo://app?vid=512c4bea-01ec-4a77-9442-bae8cc15ba12","ios":"levelo://app?vid=512c4bea-01ec-4a77-9442-bae8cc15ba12"},"vehicle_type_id":"4","last_reported":1741777678,"current_range_meters":8000,"station_id":"ce4bhh92rcd13ifvqfj0","pricing_plan_id":"cebpf4jnsgd1na2vs0mg"},{"bike_id":"62d9fb39-b2d8-4c58-88bd-f5d77d8cfe03","system_id":"levelo_inurba_marseille","lat":43.27943,"lon":5.41048,"is_reserved":false,"is_disabled":false,"rental_uris":{"android":"levelo://app?vid=62d9fb39-b2d8-4c58-88bd-f5d77d8cfe03","ios":"levelo://app?vid=62d9fb39-b2d8-4c58-88bd-f5d77d8cfe03"},"vehicle_type_id":"4","last_reported":1741777678,"current_range_meters":8000,"station_id":"ce4bhnp2rcd13ifvqh0g","pricing_plan_id":"cebpf4jnsgd1na2vs0mg"},{"bike_id":"feb4b9df-ca5a-441d-8892-405597e7da99","system_id":"levelo_inurba_marseille","lat":43.23052,"lon":5.35494,"is_reserved":false,"is_disabled":false,"rental_uris":{"android":"levelo://app?vid=feb4b9df-ca5a-441d-8892-405597e7da99","ios":"levelo://app?vid=feb4b9df-ca5a-441d-8892-405597e7da99"},"vehicle_type_id":"4","last_reported":1741777678,"current_range_meters":8000,"station_id":"cpo3342slgdg3j2ifvpg","pricing_plan_id":"cebpf4jnsgd1na2vs0mg"},{"bike_id":"29dcf4e5-3fc4-4240-b459-5be7b3d8998f","system_id":"levelo_inurba_marseille","lat":43.33587,"lon":5.40925,"is_reserved":false,"is_disabled":false,"rental_uris":{"android":"levelo://app?vid=29dcf4e5-3fc4-4240-b459-5be7b3d8998f","ios":"levelo://app?vid=29dcf4e5-3fc4-4240-b459-5be7b3d8998f"},"vehicle_type_id":"4","last_reported":1741777678,"current_range_meters":8400,"station_id":"","pricing_plan_id":"cebpf4jnsgd1na2vs0mg"},{"bike_id":"2d7a4821-d52a-4157-b146-9e3523cf764b","system_id":"levelo_inurba_marseille","lat":43.28934,"lon":5.36392,"is_reserved":false,"is_disabled":false,"rental_uris":{"android":"levelo://app?vid=2d7a4821-d52a-4157-b146-9e3523cf764b","ios":"levelo://app?vid=2d7a4821-d52a-4157-b146-9e3523cf764b"},"vehicle_type_id":"4","last_reported":1741777678,"current_range_meters":8400,"station_id":"ce4bhc92rcd13ifvqetg","pricing_plan_id":"cebpf4jnsgd1na2vs0mg"},{"bike_id":"9acab34d-76c9-4fd5-bed6-0265a89df8bb","system_id":"levelo_inurba_marseille","lat":43.257314,"lon":5.411106,"is_reserved":false,"is_disabled":false,"rental_uris":{"android":"levelo://app?vid=9acab34d-76c9-4fd5-bed6-0265a89df8bb","ios":"levelo://app?vid=9acab34d-76c9-4fd5-bed6-0265a89df8bb"},"vehicle_type_id":"4","last_reported":1741777678,"current_range_meters":8400,"station_id":"ce4bhkp2rcd13ifvqgd0","pricing_plan_id":"cebpf4jnsgd1na2vs0mg"},{"bike_id":"b9240381-73fa-4e41-88b7-ade9a83b5ed8","system_id":"levelo_inurba_marseille","lat":43.26215,"lon":5.40438,"is_reserved":false,"is_disabled":false,"rental_uris":{"android":"levelo://app?vid=b9240381-73fa-4e41-88b7-ade9a83b5ed8","ios":"levelo://app?vid=b9240381-73fa-4e41-88b7-ade9a83b5ed8"},"vehicle_type_id":"4","last_reported":1741777678,"current_range_meters":8400,"station_id":"ce4bhmh2rcd13ifvqgmg","pricing_plan_id":"cebpf4jnsgd1na2vs0mg"},{"bike_id":"f57125ae-71fb-4c19-8ca8-136b1ad2f9c2","system_id":"levelo_inurba_marseille","lat":43.23195,"lon":5.40001,"is_reserved":false,"is_disabled":false,"rental_uris":{"android":"levelo://app?vid=f57125ae-71fb-4c19-8ca8-136b1ad2f9c2","ios":"levelo://app?vid=f57125ae-71fb-4c19-8ca8-136b1ad2f9c2"},"vehicle_type_id":"4","last_reported":1741777678,"current_range_meters":8400,"station_id":"ce4bhn12rcd13ifvqgqg","pricing_plan_id":"cebpf4jnsgd1na2vs0mg"},{"bike_id":"415e7a31-245d-4ead-9f33-dad092a04302","system_id":"levelo_inurba_marseille","lat":43.23058,"lon":5.3548,"is_reserved":false,"is_disabled":false,"rental_uris":{"android":"levelo://app?vid=415e7a31-245d-4ead-9f33-dad092a04302","ios":"levelo://app?vid=415e7a31-245d-4ead-9f33-dad092a04302"},"vehicle_type_id":"4","last_reported":1741777678,"current_range_meters":8400,"station_id":"cpo3342slgdg3j2ifvpg","pricing_plan_id":"cebpf4jnsgd1na2vs0mg"},{"bike_id":"e4e7b0f4-be16-4e67-8045-462e24fe9df7","system_id":"levelo_inurba_marseille","lat":43.231553,"lon":5.437056,"is_reserved":false,"is_disabled":false,"rental_uris":{"android":"levelo://app?vid=e4e7b0f4-be16-4e67-8045-462e24fe9df7","ios":"levelo://app?vid=e4e7b0f4-be16-4e67-8045-462e24fe9df7"},"vehicle_type_id":"4","last_reported":1741777678,"current_range_meters":8800,"station_id":"ce4bhmp2rcd13ifvqgog","pricing_plan_id":"cebpf4jnsgd1na2vs0mg"},{"bike_id":"1b149b4e-6cd5-4296-b92f-c5d69438443b","system_id":"levelo_inurba_marseille","lat":43.23152,"lon":5.43713,"is_reserved":false,"is_disabled":false,"rental_uris":{"android":"levelo://app?vid=1b149b4e-6cd5-4296-b92f-c5d69438443b","ios":"levelo://app?vid=1b149b4e-6cd5-4296-b92f-c5d69438443b"},"vehicle_type_id":"4","last_reported":1741777678,"current_range_meters":8800,"station_id":"ce4bhmp2rcd13ifvqgog","pricing_plan_id":"cebpf4jnsgd1na2vs0mg"},{"bike_id":"dc659cc2-ef1d-45ff-b00d-79cb893fa91a","system_id":"levelo_inurba_marseille","lat":43.32336,"lon":5.40622,"is_reserved":false,"is_disabled":false,"rental_uris":{"android":"levelo://app?vid=dc659cc2-ef1d-45ff-b00d-79cb893fa91a","ios":"levelo://app?vid=dc659cc2-ef1d-45ff-b00d-79cb893fa91a"},"vehicle_type_id":"4","last_reported":1741777678,"current_range_meters":8800,"station_id":"ce4bhq92rcd13ifvqhjg","pricing_plan_id":"cebpf4jnsgd1na2vs0mg"},{"bike_id":"6216841f-c9be-4e6e-bcf4-810c7dd12453","system_id":"levelo_inurba_marseille","lat":43.31206,"lon":5.36852,"is_reserved":false,"is_disabled":false,"rental_uris":{"android":"levelo://app?vid=6216841f-c9be-4e6e-bcf4-810c7dd12453","ios":"levelo://app?vid=6216841f-c9be-4e6e-bcf4-810c7dd12453"},"vehicle_type_id":"4","last_reported":1741777678,"current_range_meters":9200,"station_id":"","pricing_plan_id":"cebpf4jnsgd1na2vs0mg"},{"bike_id":"dd6cfe13-1052-44e4-868f-b490e559ac95","system_id":"levelo_inurba_marseille","lat":43.29585,"lon":5.37523,"is_reserved":false,"is_disabled":false,"rental_uris":{"android":"levelo://app?vid=dd6cfe13-1052-44e4-868f-b490e559ac95","ios":"levelo://app?vid=dd6cfe13-1052-44e4-868f-b490e559ac95"},"vehicle_type_id":"4","last_reported":1741777678,"current_range_meters":9200,"station_id":"ce4bgh92rcd13ifvqb50","pricing_plan_id":"cebpf4jnsgd1na2vs0mg"},{"bike_id":"0117055b-abaa-4782-a83e-c23d24cb8a2e","system_id":"levelo_inurba_marseille","lat":43.24644,"lon":5.38952,"is_reserved":false,"is_disabled":false,"rental_uris":{"android":"levelo://app?vid=0117055b-abaa-4782-a83e-c23d24cb8a2e","ios":"levelo://app?vid=0117055b-abaa-4782-a83e-c23d24cb8a2e"},"vehicle_type_id":"4","last_reported":1741777678,"current_range_meters":9200,"station_id":"ce4bhg12rcd13ifvqf60","pricing_plan_id":"cebpf4jnsgd1na2vs0mg"},{"bike_id":"c1fdf776-5ff6-4f38-96ad-d3bee4a7cebb","system_id":"levelo_inurba_marseille","lat":43.23081,"lon":5.43656,"is_reserved":false,"is_disabled":false,"rental_uris":{"android":"levelo://app?vid=c1fdf776-5ff6-4f38-96ad-d3bee4a7cebb","ios":"levelo://app?vid=c1fdf776-5ff6-4f38-96ad-d3bee4a7cebb"},"vehicle_type_id":"4","last_reported":1741777678,"current_range_meters":9200,"station_id":"ce4bhmp2rcd13ifvqgog","pricing_plan_id":"cebpf4jnsgd1na2vs0mg"},{"bike_id":"ec1222a2-2427-4434-8beb-67ee03715ced","system_id":"levelo_inurba_marseille","lat":43.24162,"lon":5.39713,"is_reserved":false,"is_disabled":false,"rental_uris":{"android":"levelo://app?vid=ec1222a2-2427-4434-8beb-67ee03715ced","ios":"levelo://app?vid=ec1222a2-2427-4434-8beb-67ee03715ced"},"vehicle_type_id":"4","last_reported":1741777678,"current_range_meters":9200,"station_id":"ce4bhn12rcd13ifvqgpg","pricing_plan_id":"cebpf4jnsgd1na2vs0mg"},{"bike_id":"1e383331-4cf9-4f27-840c-e013f13c25d8","system_id":"levelo_inurba_marseille","lat":43.2317,"lon":5.3995,"is_reserved":false,"is_disabled":false,"rental_uris":{"android":"levelo://app?vid=1e383331-4cf9-4f27-840c-e013f13c25d8","ios":"levelo://app?vid=1e383331-4cf9-4f27-840c-e013f13c25d8"},"vehicle_type_id":"4","last_reported":1741777678,"current_range_meters":9200,"station_id":"ce4bhn12rcd13ifvqgqg","pricing_plan_id":"cebpf4jnsgd1na2vs0mg"},{"bike_id":"acbad0fb-6d08-48a5-87a0-b4f240cab73d","system_id":"levelo_inurba_marseille","lat":43.23189,"lon":5.39987,"is_reserved":false,"is_disabled":false,"rental_uris":{"android":"levelo://app?vid=acbad0fb-6d08-48a5-87a0-b4f240cab73d","ios":"levelo://app?vid=acbad0fb-6d08-48a5-87a0-b4f240cab73d"},"vehicle_type_id":"4","last_reported":1741777678,"current_range_meters":9200,"station_id":"ce4bhn12rcd13ifvqgqg","pricing_plan_id":"cebpf4jnsgd1na2vs0mg"},{"bike_id":"47fa1a31-5bb3-4522-abd9-b87b4a821178","system_id":"levelo_inurba_marseille","lat":43.27821,"lon":5.40699,"is_reserved":false,"is_disabled":false,"rental_uris":{"android":"levelo://app?vid=47fa1a31-5bb3-4522-abd9-b87b4a821178","ios":"levelo://app?vid=47fa1a31-5bb3-4522-abd9-b87b4a821178"},"vehicle_type_id":"4","last_reported":1741777678,"current_range_meters":9200,"station_id":"ce4bhnh2rcd13ifvqgtg","pricing_plan_id":"cebpf4jnsgd1na2vs0mg"},{"bike_id":"2931d81f-abb3-45b8-9224-dc3fce2fae31","system_id":"levelo_inurba_marseille","lat":43.32362,"lon":5.367586,"is_reserved":false,"is_disabled":false,"rental_uris":{"android":"levelo://app?vid=2931d81f-abb3-45b8-9224-dc3fce2fae31","ios":"levelo://app?vid=2931d81f-abb3-45b8-9224-dc3fce2fae31"},"vehicle_type_id":"4","last_reported":1741777678,"current_range_meters":9200,"station_id":"ce4bhsh2rcd13ifvqi2g","pricing_plan_id":"cebpf4jnsgd1na2vs0mg"},{"bike_id":"afb2e71f-a8ba-4423-ae89-028450e0b4f3","system_id":"levelo_inurba_marseille","lat":43.286076,"lon":5.370562,"is_reserved":false,"is_disabled":false,"rental_uris":{"android":"levelo://app?vid=afb2e71f-a8ba-4423-ae89-028450e0b4f3","ios":"levelo://app?vid=afb2e71f-a8ba-4423-ae89-028450e0b4f3"},"vehicle_type_id":"4","last_reported":1741777678,"current_range_meters":9600,"station_id":"","pricing_plan_id":"cebpf4jnsgd1na2vs0mg"},{"bike_id":"9294a26b-c088-4208-917f-c73e3c4f5f46","system_id":"levelo_inurba_marseille","lat":43.30373,"lon":5.4076,"is_reserved":false,"is_disabled":false,"rental_uris":{"android":"levelo://app?vid=9294a26b-c088-4208-917f-c73e3c4f5f46","ios":"levelo://app?vid=9294a26b-c088-4208-917f-c73e3c4f5f46"},"vehicle_type_id":"4","last_reported":1741777678,"current_range_meters":9600,"station_id":"","pricing_plan_id":"cebpf4jnsgd1na2vs0mg"},{"bike_id":"35e1c8de-568f-4d43-8c4f-5ad221c99a90","system_id":"levelo_inurba_marseille","lat":43.30201,"lon":5.36604,"is_reserved":false,"is_disabled":false,"rental_uris":{"android":"levelo://app?vid=35e1c8de-568f-4d43-8c4f-5ad221c99a90","ios":"levelo://app?vid=35e1c8de-568f-4d43-8c4f-5ad221c99a90"},"vehicle_type_id":"4","last_reported":1741777678,"current_range_meters":9600,"station_id":"ce4bgrh2rcd13ifvqc8g","pricing_plan_id":"cebpf4jnsgd1na2vs0mg"},{"bike_id":"ed483413-ad4f-4c1d-8f26-61f9ac8efb74","system_id":"levelo_inurba_marseille","lat":43.302599,"lon":5.400804,"is_reserved":false,"is_disabled":false,"rental_uris":{"android":"levelo://app?vid=ed483413-ad4f-4c1d-8f26-61f9ac8efb74","ios":"levelo://app?vid=ed483413-ad4f-4c1d-8f26-61f9ac8efb74"},"vehicle_type_id":"4","last_reported":1741777678,"current_range_meters":9600,"station_id":"ce4bh312rcd13ifvqdj0","pricing_plan_id":"cebpf4jnsgd1na2vs0mg"},{"bike_id":"b47c3c1c-6e99-4a95-8308-255743a13298","system_id":"levelo_inurba_marseille","lat":43.2846,"lon":5.35875,"is_reserved":false,"is_disabled":false,"rental_uris":{"android":"levelo://app?vid=b47c3c1c-6e99-4a95-8308-255743a13298","ios":"levelo://app?vid=b47c3c1c-6e99-4a95-8308-255743a13298"},"vehicle_type_id":"4","last_reported":1741777678,"current_range_meters":9600,"station_id":"ce4bhah2rcd13ifvqei0","pricing_plan_id":"cebpf4jnsgd1na2vs0mg"},{"bike_id":"6a794b6d-8e66-4a2c-b2ed-13aa26495bf3","system_id":"levelo_inurba_marseille","lat":43.27918,"lon":5.39576,"is_reserved":false,"is_disabled":false,"rental_uris":{"android":"levelo://app?vid=6a794b6d-8e66-4a2c-b2ed-13aa26495bf3","ios":"levelo://app?vid=6a794b6d-8e66-4a2c-b2ed-13aa26495bf3"},"vehicle_type_id":"4","last_reported":1741777678,"current_range_meters":9600,"station_id":"ce4bhf92rcd13ifvqf40","pricing_plan_id":"cebpf4jnsgd1na2vs0mg"},{"bike_id":"511a478b-16c6-4549-a89d-177a4b1ec633","system_id":"levelo_inurba_marseille","lat":43.26558,"lon":5.37279,"is_reserved":false,"is_disabled":false,"rental_uris":{"android":"levelo://app?vid=511a478b-16c6-4549-a89d-177a4b1ec633","ios":"levelo://app?vid=511a478b-16c6-4549-a89d-177a4b1ec633"},"vehicle_type_id":"4","last_reported":1741777678,"current_range_meters":9600,"station_id":"ce4bhg12rcd13ifvqf70","pricing_plan_id":"cebpf4jnsgd1na2vs0mg"},{"bike_id":"82512acd-d4a4-4e69-ad68-d5bb4078ae7a","system_id":"levelo_inurba_marseille","lat":43.23974,"lon":5.36635,"is_reserved":false,"is_disabled":false,"rental_uris":{"android":"levelo://app?vid=82512acd-d4a4-4e69-ad68-d5bb4078ae7a","ios":"levelo://app?vid=82512acd-d4a4-4e69-ad68-d5bb4078ae7a"},"vehicle_type_id":"4","last_reported":1741777678,"current_range_meters":9600,"station_id":"ce4bhi12rcd13ifvqfp0","pricing_plan_id":"cebpf4jnsgd1na2vs0mg"},{"bike_id":"0159053d-2507-4fc3-b43b-5586ac27b74e","system_id":"levelo_inurba_marseille","lat":43.24684,"lon":5.38152,"is_reserved":false,"is_disabled":false,"rental_uris":{"android":"levelo://app?vid=0159053d-2507-4fc3-b43b-5586ac27b74e","ios":"levelo://app?vid=0159053d-2507-4fc3-b43b-5586ac27b74e"},"vehicle_type_id":"4","last_reported":1741777678,"current_range_meters":9600,"station_id":"ce4bhih2rcd13ifvqfr0","pricing_plan_id":"cebpf4jnsgd1na2vs0mg"},{"bike_id":"05388ace-665a-4114-a828-939b708a2589","system_id":"levelo_inurba_marseille","lat":43.23183,"lon":5.39981,"is_reserved":false,"is_disabled":false,"rental_uris":{"android":"levelo://app?vid=05388ace-665a-4114-a828-939b708a2589","ios":"levelo://app?vid=05388ace-665a-4114-a828-939b708a2589"},"vehicle_type_id":"4","last_reported":1741777678,"current_range_meters":9600,"station_id":"ce4bhn12rcd13ifvqgqg","pricing_plan_id":"cebpf4jnsgd1na2vs0mg"},{"bike_id":"5513c195-ca66-4cb6-ac62-82329b095ea7","system_id":"levelo_inurba_marseille","lat":43.31265,"lon":5.36725,"is_reserved":false,"is_disabled":false,"rental_uris":{"android":"levelo://app?vid=5513c195-ca66-4cb6-ac62-82329b095ea7","ios":"levelo://app?vid=5513c195-ca66-4cb6-ac62-82329b095ea7"},"vehicle_type_id":"4","last_reported":1741777678,"current_range_meters":10000,"station_id":"","pricing_plan_id":"cebpf4jnsgd1na2vs0mg"},{"bike_id":"8dee66dd-a753-4e90-9df0-a75f60b0d66f","system_id":"levelo_inurba_marseille","lat":43.28572,"lon":5.42478,"is_reserved":false,"is_disabled":false,"rental_uris":{"android":"levelo://app?vid=8dee66dd-a753-4e90-9df0-a75f60b0d66f","ios":"levelo://app?vid=8dee66dd-a753-4e90-9df0-a75f60b0d66f"},"vehicle_type_id":"4","last_reported":1741777678,"current_range_meters":10000,"station_id":"","pricing_plan_id":"cebpf4jnsgd1na2vs0mg"},{"bike_id":"f829a819-671e-4b71-9c22-56c5f8047725","system_id":"levelo_inurba_marseille","lat":43.3232,"lon":5.36634,"is_reserved":false,"is_disabled":false,"rental_uris":{"android":"levelo://app?vid=f829a819-671e-4b71-9c22-56c5f8047725","ios":"levelo://app?vid=f829a819-671e-4b71-9c22-56c5f8047725"},"vehicle_type_id":"4","last_reported":1741777678,"current_range_meters":10000,"station_id":"","pricing_plan_id":"cebpf4jnsgd1na2vs0mg"},{"bike_id":"8ed118fd-8691-4768-9cff-b316c4021269","system_id":"levelo_inurba_marseille","lat":43.2952,"lon":5.37505,"is_reserved":false,"is_disabled":false,"rental_uris":{"android":"levelo://app?vid=8ed118fd-8691-4768-9cff-b316c4021269","ios":"levelo://app?vid=8ed118fd-8691-4768-9cff-b316c4021269"},"vehicle_type_id":"4","last_reported":1741777678,"current_range_meters":10000,"station_id":"ce4bgkp2rcd13ifvqbmg","pricing_plan_id":"cebpf4jnsgd1na2vs0mg"},{"bike_id":"447166a1-bb31-4c42-8f9a-7cb2052fe7e5","system_id":"levelo_inurba_marseille","lat":43.3031,"lon":5.36914,"is_reserved":false,"is_disabled":false,"rental_uris":{"android":"levelo://app?vid=447166a1-bb31-4c42-8f9a-7cb2052fe7e5","ios":"levelo://app?vid=447166a1-bb31-4c42-8f9a-7cb2052fe7e5"},"vehicle_type_id":"4","last_reported":1741777678,"current_range_meters":10000,"station_id":"ce4bgqh2rcd13ifvqc5g","pricing_plan_id":"cebpf4jnsgd1na2vs0mg"},{"bike_id":"f089405c-d65a-4a6b-a39c-5cde3f352c4b","system_id":"levelo_inurba_marseille","lat":43.3055,"lon":5.36693,"is_reserved":false,"is_disabled":false,"rental_uris":{"android":"levelo://app?vid=f089405c-d65a-4a6b-a39c-5cde3f352c4b","ios":"levelo://app?vid=f089405c-d65a-4a6b-a39c-5cde3f352c4b"},"vehicle_type_id":"4","last_reported":1741777678,"current_range_meters":10000,"station_id":"ce4bgrp2rcd13ifvqc9g","pricing_plan_id":"cebpf4jnsgd1na2vs0mg"},{"bike_id":"13038f8e-ae85-4d9c-ac24-31f2124a973b","system_id":"levelo_inurba_marseille","lat":43.24647,"lon":5.38891,"is_reserved":false,"is_disabled":false,"rental_uris":{"android":"levelo://app?vid=13038f8e-ae85-4d9c-ac24-31f2124a973b","ios":"levelo://app?vid=13038f8e-ae85-4d9c-ac24-31f2124a973b"},"vehicle_type_id":"4","last_reported":1741777678,"current_range_meters":10000,"station_id":"ce4bhg12rcd13ifvqf60","pricing_plan_id":"cebpf4jnsgd1na2vs0mg"},{"bike_id":"abd01563-25ee-495a-a95b-891dbf0a92ef","system_id":"levelo_inurba_marseille","lat":43.24997,"lon":5.38935,"is_reserved":false,"is_disabled":false,"rental_uris":{"android":"levelo://app?vid=abd01563-25ee-495a-a95b-891dbf0a92ef","ios":"levelo://app?vid=abd01563-25ee-495a-a95b-891dbf0a92ef"},"vehicle_type_id":"4","last_reported":1741777678,"current_range_meters":10000,"station_id":"ce4bhgp2rcd13ifvqfd0","pricing_plan_id":"cebpf4jnsgd1na2vs0mg"},{"bike_id":"ba18639b-98cc-4ab3-ad63-4ac259cc4916","system_id":"levelo_inurba_marseille","lat":43.23974,"lon":5.36618,"is_reserved":false,"is_disabled":false,"rental_uris":{"android":"levelo://app?vid=ba18639b-98cc-4ab3-ad63-4ac259cc4916","ios":"levelo://app?vid=ba18639b-98cc-4ab3-ad63-4ac259cc4916"},"vehicle_type_id":"4","last_reported":1741777678,"current_range_meters":10000,"station_id":"ce4bhi12rcd13ifvqfp0","pricing_plan_id":"cebpf4jnsgd1na2vs0mg"},{"bike_id":"472fc3c9-ff81-4115-97ad-d3af3a7c64d6","system_id":"levelo_inurba_marseille","lat":43.27199,"lon":5.40997,"is_reserved":false,"is_disabled":false,"rental_uris":{"android":"levelo://app?vid=472fc3c9-ff81-4115-97ad-d3af3a7c64d6","ios":"levelo://app?vid=472fc3c9-ff81-4115-97ad-d3af3a7c64d6"},"vehicle_type_id":"4","last_reported":1741777678,"current_range_meters":10000,"station_id":"ce4bhl12rcd13ifvqgf0","pricing_plan_id":"cebpf4jnsgd1na2vs0mg"},{"bike_id":"2522a26f-7e6a-428f-babd-f222d0dac36a","system_id":"levelo_inurba_marseille","lat":43.27949,"lon":5.41044,"is_reserved":false,"is_disabled":false,"rental_uris":{"android":"levelo://app?vid=2522a26f-7e6a-428f-babd-f222d0dac36a","ios":"levelo://app?vid=2522a26f-7e6a-428f-babd-f222d0dac36a"},"vehicle_type_id":"4","last_reported":1741777678,"current_range_meters":10000,"station_id":"ce4bhnp2rcd13ifvqh0g","pricing_plan_id":"cebpf4jnsgd1na2vs0mg"},{"bike_id":"1ba7f897-d908-489f-a544-59e3f8742aa3","system_id":"levelo_inurba_marseille","lat":43.27993,"lon":5.41659,"is_reserved":false,"is_disabled":false,"rental_uris":{"android":"levelo://app?vid=1ba7f897-d908-489f-a544-59e3f8742aa3","ios":"levelo://app?vid=1ba7f897-d908-489f-a544-59e3f8742aa3"},"vehicle_type_id":"4","last_reported":1741777678,"current_range_meters":10000,"station_id":"ce4bho12rcd13ifvqh1g","pricing_plan_id":"cebpf4jnsgd1na2vs0mg"},{"bike_id":"03fcef79-f017-4d15-a10d-891c5cd96db2","system_id":"levelo_inurba_marseille","lat":43.23059,"lon":5.35488,"is_reserved":false,"is_disabled":false,"rental_uris":{"android":"levelo://app?vid=03fcef79-f017-4d15-a10d-891c5cd96db2","ios":"levelo://app?vid=03fcef79-f017-4d15-a10d-891c5cd96db2"},"vehicle_type_id":"4","last_reported":1741777678,"current_range_meters":10000,"station_id":"cpo3342slgdg3j2ifvpg","pricing_plan_id":"cebpf4jnsgd1na2vs0mg"},{"bike_id":"ec5d08ce-934d-49b5-9a73-c20b44942d11","system_id":"levelo_inurba_marseille","lat":43.31431,"lon":5.37643,"is_reserved":false,"is_disabled":false,"rental_uris":{"android":"levelo://app?vid=ec5d08ce-934d-49b5-9a73-c20b44942d11","ios":"levelo://app?vid=ec5d08ce-934d-49b5-9a73-c20b44942d11"},"vehicle_type_id":"4","last_reported":1741777678,"current_range_meters":10800,"station_id":"","pricing_plan_id":"cebpf4jnsgd1na2vs0mg"},{"bike_id":"73e322c8-7ded-47ba-9855-1e50f41f6948","system_id":"levelo_inurba_marseille","lat":43.3046,"lon":5.37893,"is_reserved":false,"is_disabled":false,"rental_uris":{"android":"levelo://app?vid=73e322c8-7ded-47ba-9855-1e50f41f6948","ios":"levelo://app?vid=73e322c8-7ded-47ba-9855-1e50f41f6948"},"vehicle_type_id":"4","last_reported":1741777678,"current_range_meters":10800,"station_id":"ce4bgup2rcd13ifvqcn0","pricing_plan_id":"cebpf4jnsgd1na2vs0mg"},{"bike_id":"eb1ba1b6-2e87-45ed-8cf3-925b9709627f","system_id":"levelo_inurba_marseille","lat":43.29477,"lon":5.39147,"is_reserved":false,"is_disabled":false,"rental_uris":{"android":"levelo://app?vid=eb1ba1b6-2e87-45ed-8cf3-925b9709627f","ios":"levelo://app?vid=eb1ba1b6-2e87-45ed-8cf3-925b9709627f"},"vehicle_type_id":"4","last_reported":1741777678,"current_range_meters":10800,"station_id":"ce4bh3p2rcd13ifvqdp0","pricing_plan_id":"cebpf4jnsgd1na2vs0mg"},{"bike_id":"6190eac7-4d69-4aee-8885-569caf678aef","system_id":"levelo_inurba_marseille","lat":43.25725,"lon":5.41106,"is_reserved":false,"is_disabled":false,"rental_uris":{"android":"levelo://app?vid=6190eac7-4d69-4aee-8885-569caf678aef","ios":"levelo://app?vid=6190eac7-4d69-4aee-8885-569caf678aef"},"vehicle_type_id":"4","last_reported":1741777678,"current_range_meters":10800,"station_id":"ce4bhkp2rcd13ifvqgd0","pricing_plan_id":"cebpf4jnsgd1na2vs0mg"},{"bike_id":"27e3b5c7-8b26-484b-b1cb-f6f23606ee7d","system_id":"levelo_inurba_marseille","lat":43.23146,"lon":5.43673,"is_reserved":false,"is_disabled":false,"rental_uris":{"android":"levelo://app?vid=27e3b5c7-8b26-484b-b1cb-f6f23606ee7d","ios":"levelo://app?vid=27e3b5c7-8b26-484b-b1cb-f6f23606ee7d"},"vehicle_type_id":"4","last_reported":1741777678,"current_range_meters":10800,"station_id":"ce4bhmp2rcd13ifvqgog","pricing_plan_id":"cebpf4jnsgd1na2vs0mg"},{"bike_id":"4104d052-dae4-48ee-971d-d33c76b195b3","system_id":"levelo_inurba_marseille","lat":43.23055,"lon":5.35491,"is_reserved":false,"is_disabled":false,"rental_uris":{"android":"levelo://app?vid=4104d052-dae4-48ee-971d-d33c76b195b3","ios":"levelo://app?vid=4104d052-dae4-48ee-971d-d33c76b195b3"},"vehicle_type_id":"4","last_reported":1741777678,"current_range_meters":10800,"station_id":"cpo3342slgdg3j2ifvpg","pricing_plan_id":"cebpf4jnsgd1na2vs0mg"},{"bike_id":"28ddcdf4-024a-4f42-80ff-fb3bac3f5f61","system_id":"levelo_inurba_marseille","lat":43.24167,"lon":5.36404,"is_reserved":false,"is_disabled":false,"rental_uris":{"android":"levelo://app?vid=28ddcdf4-024a-4f42-80ff-fb3bac3f5f61","ios":"levelo://app?vid=28ddcdf4-024a-4f42-80ff-fb3bac3f5f61"},"vehicle_type_id":"4","last_reported":1741777678,"current_range_meters":10800,"station_id":"cpo36qri1sfpv3e86is0","pricing_plan_id":"cebpf4jnsgd1na2vs0mg"},{"bike_id":"15945df9-cece-4165-b8da-5cff592695e2","system_id":"levelo_inurba_marseille","lat":43.30553,"lon":5.36548,"is_reserved":false,"is_disabled":false,"rental_uris":{"android":"levelo://app?vid=15945df9-cece-4165-b8da-5cff592695e2","ios":"levelo://app?vid=15945df9-cece-4165-b8da-5cff592695e2"},"vehicle_type_id":"4","last_reported":1741777678,"current_range_meters":11200,"station_id":"ce4bgs12rcd13ifvqcag","pricing_plan_id":"cebpf4jnsgd1na2vs0mg"},{"bike_id":"7abe1730-b7ec-4e2c-becf-4bc384ef620e","system_id":"levelo_inurba_marseille","lat":43.30643,"lon":5.40096,"is_reserved":false,"is_disabled":false,"rental_uris":{"android":"levelo://app?vid=7abe1730-b7ec-4e2c-becf-4bc384ef620e","ios":"levelo://app?vid=7abe1730-b7ec-4e2c-becf-4bc384ef620e"},"vehicle_type_id":"4","last_reported":1741777678,"current_range_meters":11200,"station_id":"ce4bh112rcd13ifvqda0","pricing_plan_id":"cebpf4jnsgd1na2vs0mg"},{"bike_id":"def84d26-b13d-4e4f-90cd-257f700cfc2b","system_id":"levelo_inurba_marseille","lat":43.26681,"lon":5.38268,"is_reserved":false,"is_disabled":false,"rental_uris":{"android":"levelo://app?vid=def84d26-b13d-4e4f-90cd-257f700cfc2b","ios":"levelo://app?vid=def84d26-b13d-4e4f-90cd-257f700cfc2b"},"vehicle_type_id":"4","last_reported":1741777678,"current_range_meters":11200,"station_id":"ce4bhg92rcd13ifvqf90","pricing_plan_id":"cebpf4jnsgd1na2vs0mg"},{"bike_id":"c3b5deb9-a409-4c47-9a7b-8d5212b3e06b","system_id":"levelo_inurba_marseille","lat":43.26212,"lon":5.3744,"is_reserved":false,"is_disabled":false,"rental_uris":{"android":"levelo://app?vid=c3b5deb9-a409-4c47-9a7b-8d5212b3e06b","ios":"levelo://app?vid=c3b5deb9-a409-4c47-9a7b-8d5212b3e06b"},"vehicle_type_id":"4","last_reported":1741777678,"current_range_meters":11200,"station_id":"ce4bhgp2rcd13ifvqfc0","pricing_plan_id":"cebpf4jnsgd1na2vs0mg"},{"bike_id":"29a79942-87b6-4add-bc4a-da907bdbb506","system_id":"levelo_inurba_marseille","lat":43.23172,"lon":5.43709,"is_reserved":false,"is_disabled":false,"rental_uris":{"android":"levelo://app?vid=29a79942-87b6-4add-bc4a-da907bdbb506","ios":"levelo://app?vid=29a79942-87b6-4add-bc4a-da907bdbb506"},"vehicle_type_id":"4","last_reported":1741777678,"current_range_meters":11200,"station_id":"ce4bhmp2rcd13ifvqgog","pricing_plan_id":"cebpf4jnsgd1na2vs0mg"},{"bike_id":"d34c486a-1f4c-4633-aedb-8d2096ade05a","system_id":"levelo_inurba_marseille","lat":43.30808,"lon":5.4352,"is_reserved":false,"is_disabled":false,"rental_uris":{"android":"levelo://app?vid=d34c486a-1f4c-4633-aedb-8d2096ade05a","ios":"levelo://app?vid=d34c486a-1f4c-4633-aedb-8d2096ade05a"},"vehicle_type_id":"4","last_reported":1741777678,"current_range_meters":11200,"station_id":"ce4bhph2rcd13ifvqheg","pricing_plan_id":"cebpf4jnsgd1na2vs0mg"},{"bike_id":"1c01930b-65ad-457e-945b-28c1041e2a4c","system_id":"levelo_inurba_marseille","lat":43.31361,"lon":5.36679,"is_reserved":false,"is_disabled":false,"rental_uris":{"android":"levelo://app?vid=1c01930b-65ad-457e-945b-28c1041e2a4c","ios":"levelo://app?vid=1c01930b-65ad-457e-945b-28c1041e2a4c"},"vehicle_type_id":"4","last_reported":1741777678,"current_range_meters":11600,"station_id":"ce4bgr92rcd13ifvqc6g","pricing_plan_id":"cebpf4jnsgd1na2vs0mg"},{"bike_id":"058dacb5-1f63-446a-af81-41304d209d48","system_id":"levelo_inurba_marseille","lat":43.29517,"lon":5.39042,"is_reserved":false,"is_disabled":false,"rental_uris":{"android":"levelo://app?vid=058dacb5-1f63-446a-af81-41304d209d48","ios":"levelo://app?vid=058dacb5-1f63-446a-af81-41304d209d48"},"vehicle_type_id":"4","last_reported":1741777678,"current_range_meters":11600,"station_id":"ce4bh3p2rcd13ifvqdp0","pricing_plan_id":"cebpf4jnsgd1na2vs0mg"},{"bike_id":"0a995a9a-6122-4f4b-b298-a8b06cbca7e2","system_id":"levelo_inurba_marseille","lat":43.25018,"lon":5.38912,"is_reserved":false,"is_disabled":false,"rental_uris":{"android":"levelo://app?vid=0a995a9a-6122-4f4b-b298-a8b06cbca7e2","ios":"levelo://app?vid=0a995a9a-6122-4f4b-b298-a8b06cbca7e2"},"vehicle_type_id":"4","last_reported":1741777678,"current_range_meters":11600,"station_id":"ce4bhgp2rcd13ifvqfd0","pricing_plan_id":"cebpf4jnsgd1na2vs0mg"},{"bike_id":"2d16443d-ed2e-4c48-af94-4deffe2479f1","system_id":"levelo_inurba_marseille","lat":43.25024,"lon":5.3892,"is_reserved":false,"is_disabled":false,"rental_uris":{"android":"levelo://app?vid=2d16443d-ed2e-4c48-af94-4deffe2479f1","ios":"levelo://app?vid=2d16443d-ed2e-4c48-af94-4deffe2479f1"},"vehicle_type_id":"4","last_reported":1741777678,"current_range_meters":11600,"station_id":"ce4bhgp2rcd13ifvqfd0","pricing_plan_id":"cebpf4jnsgd1na2vs0mg"},{"bike_id":"1bc526f3-1dd3-45cb-8d57-6b5b618e7037","system_id":"levelo_inurba_marseille","lat":43.32485,"lon":5.36558,"is_reserved":false,"is_disabled":false,"rental_uris":{"android":"levelo://app?vid=1bc526f3-1dd3-45cb-8d57-6b5b618e7037","ios":"levelo://app?vid=1bc526f3-1dd3-45cb-8d57-6b5b618e7037"},"vehicle_type_id":"4","last_reported":1741777678,"current_range_meters":11600,"station_id":"ce4bhs12rcd13ifvqhvg","pricing_plan_id":"cebpf4jnsgd1na2vs0mg"},{"bike_id":"45345445-a78a-493f-a730-c619602e3241","system_id":"levelo_inurba_marseille","lat":43.256084,"lon":5.38549,"is_reserved":false,"is_disabled":false,"rental_uris":{"android":"levelo://app?vid=45345445-a78a-493f-a730-c619602e3241","ios":"levelo://app?vid=45345445-a78a-493f-a730-c619602e3241"},"vehicle_type_id":"4","last_reported":1741777678,"current_range_meters":12000,"station_id":"","pricing_plan_id":"cebpf4jnsgd1na2vs0mg"},{"bike_id":"843c81a9-3053-4a25-8ea4-9fed425794d0","system_id":"levelo_inurba_marseille","lat":43.30484,"lon":5.37908,"is_reserved":false,"is_disabled":false,"rental_uris":{"android":"levelo://app?vid=843c81a9-3053-4a25-8ea4-9fed425794d0","ios":"levelo://app?vid=843c81a9-3053-4a25-8ea4-9fed425794d0"},"vehicle_type_id":"4","last_reported":1741777678,"current_range_meters":12000,"station_id":"ce4bgup2rcd13ifvqcn0","pricing_plan_id":"cebpf4jnsgd1na2vs0mg"},{"bike_id":"8afc345b-56b8-46e6-a0b1-6f81dadf6638","system_id":"levelo_inurba_marseille","lat":43.24179,"lon":5.39728,"is_reserved":false,"is_disabled":false,"rental_uris":{"android":"levelo://app?vid=8afc345b-56b8-46e6-a0b1-6f81dadf6638","ios":"levelo://app?vid=8afc345b-56b8-46e6-a0b1-6f81dadf6638"},"vehicle_type_id":"4","last_reported":1741777678,"current_range_meters":12000,"station_id":"ce4bhn12rcd13ifvqgpg","pricing_plan_id":"cebpf4jnsgd1na2vs0mg"},{"bike_id":"e3063b15-6922-4159-a4c9-dcab6a4e6eb7","system_id":"levelo_inurba_marseille","lat":43.2799,"lon":5.41661,"is_reserved":false,"is_disabled":false,"rental_uris":{"android":"levelo://app?vid=e3063b15-6922-4159-a4c9-dcab6a4e6eb7","ios":"levelo://app?vid=e3063b15-6922-4159-a4c9-dcab6a4e6eb7"},"vehicle_type_id":"4","last_reported":1741777678,"current_range_meters":12000,"station_id":"ce4bho12rcd13ifvqh1g","pricing_plan_id":"cebpf4jnsgd1na2vs0mg"},{"bike_id":"fb55f9d1-18dc-4569-919c-3c5a2e705317","system_id":"levelo_inurba_marseille","lat":43.32496,"lon":5.36622,"is_reserved":false,"is_disabled":false,"rental_uris":{"android":"levelo://app?vid=fb55f9d1-18dc-4569-919c-3c5a2e705317","ios":"levelo://app?vid=fb55f9d1-18dc-4569-919c-3c5a2e705317"},"vehicle_type_id":"4","last_reported":1741777678,"current_range_meters":12400,"station_id":"","pricing_plan_id":"cebpf4jnsgd1na2vs0mg"},{"bike_id":"01759420-a6ea-49e8-88be-a734b3015f7d","system_id":"levelo_inurba_marseille","lat":43.29967,"lon":5.38492,"is_reserved":false,"is_disabled":false,"rental_uris":{"android":"levelo://app?vid=01759420-a6ea-49e8-88be-a734b3015f7d","ios":"levelo://app?vid=01759420-a6ea-49e8-88be-a734b3015f7d"},"vehicle_type_id":"4","last_reported":1741777678,"current_range_meters":12400,"station_id":"ce4bgj92rcd13ifvqbd0","pricing_plan_id":"cebpf4jnsgd1na2vs0mg"},{"bike_id":"e51737b5-103c-4e9c-9b1c-179827e49cf8","system_id":"levelo_inurba_marseille","lat":43.31687,"lon":5.40472,"is_reserved":false,"is_disabled":false,"rental_uris":{"android":"levelo://app?vid=e51737b5-103c-4e9c-9b1c-179827e49cf8","ios":"levelo://app?vid=e51737b5-103c-4e9c-9b1c-179827e49cf8"},"vehicle_type_id":"4","last_reported":1741777678,"current_range_meters":12400,"station_id":"ce4bh012rcd13ifvqd00","pricing_plan_id":"cebpf4jnsgd1na2vs0mg"},{"bike_id":"cce801d3-c75e-4dc8-ad36-7a5b40a6aac0","system_id":"levelo_inurba_marseille","lat":43.29222,"lon":5.36077,"is_reserved":false,"is_disabled":false,"rental_uris":{"android":"levelo://app?vid=cce801d3-c75e-4dc8-ad36-7a5b40a6aac0","ios":"levelo://app?vid=cce801d3-c75e-4dc8-ad36-7a5b40a6aac0"},"vehicle_type_id":"4","last_reported":1741777678,"current_range_meters":12400,"station_id":"ce4bhbh2rcd13ifvqeqg","pricing_plan_id":"cebpf4jnsgd1na2vs0mg"},{"bike_id":"9776d519-3376-4f51-aaa3-2da63911d7cc","system_id":"levelo_inurba_marseille","lat":43.25102,"lon":5.39559,"is_reserved":false,"is_disabled":false,"rental_uris":{"android":"levelo://app?vid=9776d519-3376-4f51-aaa3-2da63911d7cc","ios":"levelo://app?vid=9776d519-3376-4f51-aaa3-2da63911d7cc"},"vehicle_type_id":"4","last_reported":1741777678,"current_range_meters":12400,"station_id":"ce4bhm12rcd13ifvqgkg","pricing_plan_id":"cebpf4jnsgd1na2vs0mg"},{"bike_id":"b44022d5-a3c8-45f9-9984-eaba76929c7b","system_id":"levelo_inurba_marseille","lat":43.27829,"lon":5.40678,"is_reserved":false,"is_disabled":false,"rental_uris":{"android":"levelo://app?vid=b44022d5-a3c8-45f9-9984-eaba76929c7b","ios":"levelo://app?vid=b44022d5-a3c8-45f9-9984-eaba76929c7b"},"vehicle_type_id":"4","last_reported":1741777678,"current_range_meters":12400,"station_id":"ce4bhnh2rcd13ifvqgtg","pricing_plan_id":"cebpf4jnsgd1na2vs0mg"},{"bike_id":"8cc302c5-52e9-4074-aaa8-2ec59b799832","system_id":"levelo_inurba_marseille","lat":43.27949,"lon":5.41042,"is_reserved":false,"is_disabled":false,"rental_uris":{"android":"levelo://app?vid=8cc302c5-52e9-4074-aaa8-2ec59b799832","ios":"levelo://app?vid=8cc302c5-52e9-4074-aaa8-2ec59b799832"},"vehicle_type_id":"4","last_reported":1741777678,"current_range_meters":12400,"station_id":"ce4bhnp2rcd13ifvqh0g","pricing_plan_id":"cebpf4jnsgd1na2vs0mg"},{"bike_id":"453f5d19-0c6d-4feb-923e-26ac1adaeb34","system_id":"levelo_inurba_marseille","lat":43.30551,"lon":5.36727,"is_reserved":false,"is_disabled":false,"rental_uris":{"android":"levelo://app?vid=453f5d19-0c6d-4feb-923e-26ac1adaeb34","ios":"levelo://app?vid=453f5d19-0c6d-4feb-923e-26ac1adaeb34"},"vehicle_type_id":"4","last_reported":1741777678,"current_range_meters":12800,"station_id":"ce4bgrp2rcd13ifvqc9g","pricing_plan_id":"cebpf4jnsgd1na2vs0mg"},{"bike_id":"3d64f6d3-7312-4cd3-9716-5fe144dd9431","system_id":"levelo_inurba_marseille","lat":43.3169,"lon":5.4047,"is_reserved":false,"is_disabled":false,"rental_uris":{"android":"levelo://app?vid=3d64f6d3-7312-4cd3-9716-5fe144dd9431","ios":"levelo://app?vid=3d64f6d3-7312-4cd3-9716-5fe144dd9431"},"vehicle_type_id":"4","last_reported":1741777678,"current_range_meters":12800,"station_id":"ce4bh012rcd13ifvqd00","pricing_plan_id":"cebpf4jnsgd1na2vs0mg"},{"bike_id":"a7c2e7e0-7201-4785-9233-c26ab8f60f63","system_id":"levelo_inurba_marseille","lat":43.298993,"lon":5.374721,"is_reserved":false,"is_disabled":false,"rental_uris":{"android":"levelo://app?vid=a7c2e7e0-7201-4785-9233-c26ab8f60f63","ios":"levelo://app?vid=a7c2e7e0-7201-4785-9233-c26ab8f60f63"},"vehicle_type_id":"4","last_reported":1741777678,"current_range_meters":13600,"station_id":"ce4bgjh2rcd13ifvqbg0","pricing_plan_id":"cebpf4jnsgd1na2vs0mg"},{"bike_id":"d4df08b0-e4dd-4c4b-ac7e-66a43d848ae1","system_id":"levelo_inurba_marseille","lat":43.31276,"lon":5.36897,"is_reserved":false,"is_disabled":false,"rental_uris":{"android":"levelo://app?vid=d4df08b0-e4dd-4c4b-ac7e-66a43d848ae1","ios":"levelo://app?vid=d4df08b0-e4dd-4c4b-ac7e-66a43d848ae1"},"vehicle_type_id":"4","last_reported":1741777678,"current_range_meters":13600,"station_id":"ce4bgl92rcd13ifvqbq0","pricing_plan_id":"cebpf4jnsgd1na2vs0mg"},{"bike_id":"07ae81dc-aa2e-4f6c-bbd1-2309993788ef","system_id":"levelo_inurba_marseille","lat":43.2983,"lon":5.36239,"is_reserved":false,"is_disabled":false,"rental_uris":{"android":"levelo://app?vid=07ae81dc-aa2e-4f6c-bbd1-2309993788ef","ios":"levelo://app?vid=07ae81dc-aa2e-4f6c-bbd1-2309993788ef"},"vehicle_type_id":"4","last_reported":1741777678,"current_range_meters":13600,"station_id":"ce4bgpp2rcd13ifvqc3g","pricing_plan_id":"cebpf4jnsgd1na2vs0mg"},{"bike_id":"c2fdc035-3896-46f1-aee2-5294a5907071","system_id":"levelo_inurba_marseille","lat":43.25005,"lon":5.38941,"is_reserved":false,"is_disabled":false,"rental_uris":{"android":"levelo://app?vid=c2fdc035-3896-46f1-aee2-5294a5907071","ios":"levelo://app?vid=c2fdc035-3896-46f1-aee2-5294a5907071"},"vehicle_type_id":"4","last_reported":1741777678,"current_range_meters":13600,"station_id":"ce4bhgp2rcd13ifvqfd0","pricing_plan_id":"cebpf4jnsgd1na2vs0mg"},{"bike_id":"e8eed6a9-9b1e-459f-819e-9b5293e16ab4","system_id":"levelo_inurba_marseille","lat":43.26945,"lon":5.38921,"is_reserved":false,"is_disabled":false,"rental_uris":{"android":"levelo://app?vid=e8eed6a9-9b1e-459f-819e-9b5293e16ab4","ios":"levelo://app?vid=e8eed6a9-9b1e-459f-819e-9b5293e16ab4"},"vehicle_type_id":"4","last_reported":1741777678,"current_range_meters":13600,"station_id":"ce4bhhh2rcd13ifvqfl0","pricing_plan_id":"cebpf4jnsgd1na2vs0mg"},{"bike_id":"3660cf0a-ff5a-4c92-b437-36b1144cce1e","system_id":"levelo_inurba_marseille","lat":43.29791,"lon":5.39342,"is_reserved":false,"is_disabled":false,"rental_uris":{"android":"levelo://app?vid=3660cf0a-ff5a-4c92-b437-36b1144cce1e","ios":"levelo://app?vid=3660cf0a-ff5a-4c92-b437-36b1144cce1e"},"vehicle_type_id":"4","last_reported":1741777678,"current_range_meters":13600,"station_id":"chh1huq6cuj3fo74tm60","pricing_plan_id":"cebpf4jnsgd1na2vs0mg"},{"bike_id":"07d514da-daa5-4a51-ad4f-da23bea5a512","system_id":"levelo_inurba_marseille","lat":43.30572,"lon":5.36528,"is_reserved":false,"is_disabled":false,"rental_uris":{"android":"levelo://app?vid=07d514da-daa5-4a51-ad4f-da23bea5a512","ios":"levelo://app?vid=07d514da-daa5-4a51-ad4f-da23bea5a512"},"vehicle_type_id":"4","last_reported":1741777678,"current_range_meters":14000,"station_id":"ce4bgs12rcd13ifvqcag","pricing_plan_id":"cebpf4jnsgd1na2vs0mg"},{"bike_id":"30441505-cc04-4481-b2ab-1f8386edbae1","system_id":"levelo_inurba_marseille","lat":43.26552,"lon":5.37285,"is_reserved":false,"is_disabled":false,"rental_uris":{"android":"levelo://app?vid=30441505-cc04-4481-b2ab-1f8386edbae1","ios":"levelo://app?vid=30441505-cc04-4481-b2ab-1f8386edbae1"},"vehicle_type_id":"4","last_reported":1741777678,"current_range_meters":14000,"station_id":"ce4bhg12rcd13ifvqf70","pricing_plan_id":"cebpf4jnsgd1na2vs0mg"},{"bike_id":"4c607265-c996-4d9b-81fd-daa80dd99e32","system_id":"levelo_inurba_marseille","lat":43.287589,"lon":5.384198,"is_reserved":false,"is_disabled":false,"rental_uris":{"android":"levelo://app?vid=4c607265-c996-4d9b-81fd-daa80dd99e32","ios":"levelo://app?vid=4c607265-c996-4d9b-81fd-daa80dd99e32"},"vehicle_type_id":"4","last_reported":1741777678,"current_range_meters":14400,"station_id":"","pricing_plan_id":"cebpf4jnsgd1na2vs0mg"},{"bike_id":"3975ecc3-e488-422c-a87e-1b9caf701bab","system_id":"levelo_inurba_marseille","lat":43.29415,"lon":5.38628,"is_reserved":false,"is_disabled":false,"rental_uris":{"android":"levelo://app?vid=3975ecc3-e488-422c-a87e-1b9caf701bab","ios":"levelo://app?vid=3975ecc3-e488-422c-a87e-1b9caf701bab"},"vehicle_type_id":"4","last_reported":1741777678,"current_range_meters":14400,"station_id":"ce4bh2h2rcd13ifvqdh0","pricing_plan_id":"cebpf4jnsgd1na2vs0mg"},{"bike_id":"b116cfbb-e402-4c8c-8847-8ac6822bb312","system_id":"levelo_inurba_marseille","lat":43.23157,"lon":5.43701,"is_reserved":false,"is_disabled":false,"rental_uris":{"android":"levelo://app?vid=b116cfbb-e402-4c8c-8847-8ac6822bb312","ios":"levelo://app?vid=b116cfbb-e402-4c8c-8847-8ac6822bb312"},"vehicle_type_id":"4","last_reported":1741777678,"current_range_meters":14400,"station_id":"ce4bhmp2rcd13ifvqgog","pricing_plan_id":"cebpf4jnsgd1na2vs0mg"},{"bike_id":"c32eb91c-0d61-4af3-8b86-ea1d03823ab1","system_id":"levelo_inurba_marseille","lat":43.28455,"lon":5.35889,"is_reserved":false,"is_disabled":false,"rental_uris":{"android":"levelo://app?vid=c32eb91c-0d61-4af3-8b86-ea1d03823ab1","ios":"levelo://app?vid=c32eb91c-0d61-4af3-8b86-ea1d03823ab1"},"vehicle_type_id":"4","last_reported":1741777678,"current_range_meters":14800,"station_id":"","pricing_plan_id":"cebpf4jnsgd1na2vs0mg"},{"bike_id":"ba12daba-d8c9-4d0d-a041-99082b815d6f","system_id":"levelo_inurba_marseille","lat":43.30547,"lon":5.36696,"is_reserved":false,"is_disabled":false,"rental_uris":{"android":"levelo://app?vid=ba12daba-d8c9-4d0d-a041-99082b815d6f","ios":"levelo://app?vid=ba12daba-d8c9-4d0d-a041-99082b815d6f"},"vehicle_type_id":"4","last_reported":1741777678,"current_range_meters":14800,"station_id":"ce4bgrp2rcd13ifvqc9g","pricing_plan_id":"cebpf4jnsgd1na2vs0mg"},{"bike_id":"2872f208-7a92-4283-a98c-8da021fd4c46","system_id":"levelo_inurba_marseille","lat":43.30275,"lon":5.37688,"is_reserved":false,"is_disabled":false,"rental_uris":{"android":"levelo://app?vid=2872f208-7a92-4283-a98c-8da021fd4c46","ios":"levelo://app?vid=2872f208-7a92-4283-a98c-8da021fd4c46"},"vehicle_type_id":"4","last_reported":1741777678,"current_range_meters":14800,"station_id":"ce4bguh2rcd13ifvqcj0","pricing_plan_id":"cebpf4jnsgd1na2vs0mg"},{"bike_id":"4e0fe3ef-0fc8-4d38-a0cd-2215088b5a17","system_id":"levelo_inurba_marseille","lat":43.28048,"lon":5.36939,"is_reserved":false,"is_disabled":false,"rental_uris":{"android":"levelo://app?vid=4e0fe3ef-0fc8-4d38-a0cd-2215088b5a17","ios":"levelo://app?vid=4e0fe3ef-0fc8-4d38-a0cd-2215088b5a17"},"vehicle_type_id":"4","last_reported":1741777678,"current_range_meters":14800,"station_id":"ce4bha12rcd13ifvqef0","pricing_plan_id":"cebpf4jnsgd1na2vs0mg"},{"bike_id":"5d059a24-9b2d-4c0f-bf86-25529400725b","system_id":"levelo_inurba_marseille","lat":43.25,"lon":5.38909,"is_reserved":false,"is_disabled":false,"rental_uris":{"android":"levelo://app?vid=5d059a24-9b2d-4c0f-bf86-25529400725b","ios":"levelo://app?vid=5d059a24-9b2d-4c0f-bf86-25529400725b"},"vehicle_type_id":"4","last_reported":1741777678,"current_range_meters":14800,"station_id":"ce4bhgp2rcd13ifvqfd0","pricing_plan_id":"cebpf4jnsgd1na2vs0mg"},{"bike_id":"5d921864-461d-43e0-8068-dbf8d25be452","system_id":"levelo_inurba_marseille","lat":43.29025,"lon":5.37831,"is_reserved":false,"is_disabled":false,"rental_uris":{"android":"levelo://app?vid=5d921864-461d-43e0-8068-dbf8d25be452","ios":"levelo://app?vid=5d921864-461d-43e0-8068-dbf8d25be452"},"vehicle_type_id":"4","last_reported":1741777678,"current_range_meters":15200,"station_id":"","pricing_plan_id":"cebpf4jnsgd1na2vs0mg"},{"bike_id":"583e9a08-8a7b-47cc-aaab-563ec5211ebd","system_id":"levelo_inurba_marseille","lat":43.30521,"lon":5.36523,"is_reserved":false,"is_disabled":false,"rental_uris":{"android":"levelo://app?vid=583e9a08-8a7b-47cc-aaab-563ec5211ebd","ios":"levelo://app?vid=583e9a08-8a7b-47cc-aaab-563ec5211ebd"},"vehicle_type_id":"4","last_reported":1741777678,"current_range_meters":15200,"station_id":"ce4bgs12rcd13ifvqcag","pricing_plan_id":"cebpf4jnsgd1na2vs0mg"},{"bike_id":"fa58a492-3362-4a95-8f5b-40bcb4751dcd","system_id":"levelo_inurba_marseille","lat":43.3107,"lon":5.38345,"is_reserved":false,"is_disabled":false,"rental_uris":{"android":"levelo://app?vid=fa58a492-3362-4a95-8f5b-40bcb4751dcd","ios":"levelo://app?vid=fa58a492-3362-4a95-8f5b-40bcb4751dcd"},"vehicle_type_id":"4","last_reported":1741777678,"current_range_meters":15200,"station_id":"ce4bgv92rcd13ifvqcr0","pricing_plan_id":"cebpf4jnsgd1na2vs0mg"},{"bike_id":"d3ac1ba6-6349-4d47-99e4-9f85d3ef1aa5","system_id":"levelo_inurba_marseille","lat":43.285006,"lon":5.36874,"is_reserved":false,"is_disabled":false,"rental_uris":{"android":"levelo://app?vid=d3ac1ba6-6349-4d47-99e4-9f85d3ef1aa5","ios":"levelo://app?vid=d3ac1ba6-6349-4d47-99e4-9f85d3ef1aa5"},"vehicle_type_id":"4","last_reported":1741777678,"current_range_meters":16000,"station_id":"","pricing_plan_id":"cebpf4jnsgd1na2vs0mg"},{"bike_id":"7315a875-fa76-4210-b51f-8653ba99a23c","system_id":"levelo_inurba_marseille","lat":43.27326,"lon":5.39132,"is_reserved":false,"is_disabled":false,"rental_uris":{"android":"levelo://app?vid=7315a875-fa76-4210-b51f-8653ba99a23c","ios":"levelo://app?vid=7315a875-fa76-4210-b51f-8653ba99a23c"},"vehicle_type_id":"4","last_reported":1741777678,"current_range_meters":16000,"station_id":"","pricing_plan_id":"cebpf4jnsgd1na2vs0mg"},{"bike_id":"e65eeaba-6ddc-4e1d-b451-59b5b5fdeeec","system_id":"levelo_inurba_marseille","lat":43.29064,"lon":5.37782,"is_reserved":false,"is_disabled":false,"rental_uris":{"android":"levelo://app?vid=e65eeaba-6ddc-4e1d-b451-59b5b5fdeeec","ios":"levelo://app?vid=e65eeaba-6ddc-4e1d-b451-59b5b5fdeeec"},"vehicle_type_id":"4","last_reported":1741777678,"current_range_meters":16000,"station_id":"","pricing_plan_id":"cebpf4jnsgd1na2vs0mg"},{"bike_id":"223e3379-9e12-491c-a6e0-15c33ad5def1","system_id":"levelo_inurba_marseille","lat":43.29901,"lon":5.381445,"is_reserved":false,"is_disabled":false,"rental_uris":{"android":"levelo://app?vid=223e3379-9e12-491c-a6e0-15c33ad5def1","ios":"levelo://app?vid=223e3379-9e12-491c-a6e0-15c33ad5def1"},"vehicle_type_id":"4","last_reported":1741777678,"current_range_meters":16000,"station_id":"ce4bgj12rcd13ifvqbc0","pricing_plan_id":"cebpf4jnsgd1na2vs0mg"},{"bike_id":"f10b20ca-bfc7-4474-866f-d217929d7761","system_id":"levelo_inurba_marseille","lat":43.3054,"lon":5.36699,"is_reserved":false,"is_disabled":false,"rental_uris":{"android":"levelo://app?vid=f10b20ca-bfc7-4474-866f-d217929d7761","ios":"levelo://app?vid=f10b20ca-bfc7-4474-866f-d217929d7761"},"vehicle_type_id":"4","last_reported":1741777678,"current_range_meters":16000,"station_id":"ce4bgrp2rcd13ifvqc9g","pricing_plan_id":"cebpf4jnsgd1na2vs0mg"},{"bike_id":"99a3f406-b0b8-4066-adb6-b7e55216ac38","system_id":"levelo_inurba_marseille","lat":43.30307,"lon":5.3771,"is_reserved":false,"is_disabled":false,"rental_uris":{"android":"levelo://app?vid=99a3f406-b0b8-4066-adb6-b7e55216ac38","ios":"levelo://app?vid=99a3f406-b0b8-4066-adb6-b7e55216ac38"},"vehicle_type_id":"4","last_reported":1741777678,"current_range_meters":16000,"station_id":"ce4bguh2rcd13ifvqcj0","pricing_plan_id":"cebpf4jnsgd1na2vs0mg"},{"bike_id":"fa8f8249-fd86-4153-9f9d-d37fdddd786e","system_id":"levelo_inurba_marseille","lat":43.28616,"lon":5.35102,"is_reserved":false,"is_disabled":false,"rental_uris":{"android":"levelo://app?vid=fa8f8249-fd86-4153-9f9d-d37fdddd786e","ios":"levelo://app?vid=fa8f8249-fd86-4153-9f9d-d37fdddd786e"},"vehicle_type_id":"4","last_reported":1741777678,"current_range_meters":16000,"station_id":"ce4bhch2rcd13ifvqeug","pricing_plan_id":"cebpf4jnsgd1na2vs0mg"},{"bike_id":"10386e3e-15de-4d47-b8d5-6f0c01fe2207","system_id":"levelo_inurba_marseille","lat":43.26205,"lon":5.37446,"is_reserved":false,"is_disabled":false,"rental_uris":{"android":"levelo://app?vid=10386e3e-15de-4d47-b8d5-6f0c01fe2207","ios":"levelo://app?vid=10386e3e-15de-4d47-b8d5-6f0c01fe2207"},"vehicle_type_id":"4","last_reported":1741777678,"current_range_meters":16000,"station_id":"ce4bhgp2rcd13ifvqfc0","pricing_plan_id":"cebpf4jnsgd1na2vs0mg"},{"bike_id":"d452823c-a209-45b8-8a98-654bbe0f0994","system_id":"levelo_inurba_marseille","lat":43.25934,"lon":5.40904,"is_reserved":false,"is_disabled":false,"rental_uris":{"android":"levelo://app?vid=d452823c-a209-45b8-8a98-654bbe0f0994","ios":"levelo://app?vid=d452823c-a209-45b8-8a98-654bbe0f0994"},"vehicle_type_id":"4","last_reported":1741777678,"current_range_meters":16000,"station_id":"ce4bhm92rcd13ifvqglg","pricing_plan_id":"cebpf4jnsgd1na2vs0mg"},{"bike_id":"06c2343e-22ea-46c4-bebc-d383c0ea6807","system_id":"levelo_inurba_marseille","lat":43.29557,"lon":5.37515,"is_reserved":false,"is_disabled":false,"rental_uris":{"android":"levelo://app?vid=06c2343e-22ea-46c4-bebc-d383c0ea6807","ios":"levelo://app?vid=06c2343e-22ea-46c4-bebc-d383c0ea6807"},"vehicle_type_id":"4","last_reported":1741777678,"current_range_meters":16400,"station_id":"ce4bgh92rcd13ifvqb50","pricing_plan_id":"cebpf4jnsgd1na2vs0mg"},{"bike_id":"5a2fac9e-7560-4954-8011-a7bd59004a4d","system_id":"levelo_inurba_marseille","lat":43.29845,"lon":5.36275,"is_reserved":false,"is_disabled":false,"rental_uris":{"android":"levelo://app?vid=5a2fac9e-7560-4954-8011-a7bd59004a4d","ios":"levelo://app?vid=5a2fac9e-7560-4954-8011-a7bd59004a4d"},"vehicle_type_id":"4","last_reported":1741777678,"current_range_meters":16400,"station_id":"ce4bgpp2rcd13ifvqc3g","pricing_plan_id":"cebpf4jnsgd1na2vs0mg"},{"bike_id":"5ca4c6fd-9c97-48d5-b73b-f16f2825c2a6","system_id":"levelo_inurba_marseille","lat":43.29766,"lon":5.36411,"is_reserved":false,"is_disabled":false,"rental_uris":{"android":"levelo://app?vid=5ca4c6fd-9c97-48d5-b73b-f16f2825c2a6","ios":"levelo://app?vid=5ca4c6fd-9c97-48d5-b73b-f16f2825c2a6"},"vehicle_type_id":"4","last_reported":1741777678,"current_range_meters":16400,"station_id":"ce4bgpp2rcd13ifvqc3g","pricing_plan_id":"cebpf4jnsgd1na2vs0mg"},{"bike_id":"e9659ee9-41f3-4ac4-a175-dbc38c113030","system_id":"levelo_inurba_marseille","lat":43.28458,"lon":5.35882,"is_reserved":false,"is_disabled":false,"rental_uris":{"android":"levelo://app?vid=e9659ee9-41f3-4ac4-a175-dbc38c113030","ios":"levelo://app?vid=e9659ee9-41f3-4ac4-a175-dbc38c113030"},"vehicle_type_id":"4","last_reported":1741777678,"current_range_meters":16400,"station_id":"ce4bhah2rcd13ifvqei0","pricing_plan_id":"cebpf4jnsgd1na2vs0mg"},{"bike_id":"f4703ec0-2e9c-49e1-90f1-d1bdf69a84d4","system_id":"levelo_inurba_marseille","lat":43.26712,"lon":5.38282,"is_reserved":false,"is_disabled":false,"rental_uris":{"android":"levelo://app?vid=f4703ec0-2e9c-49e1-90f1-d1bdf69a84d4","ios":"levelo://app?vid=f4703ec0-2e9c-49e1-90f1-d1bdf69a84d4"},"vehicle_type_id":"4","last_reported":1741777678,"current_range_meters":16400,"station_id":"ce4bhg92rcd13ifvqf90","pricing_plan_id":"cebpf4jnsgd1na2vs0mg"},{"bike_id":"2891a238-1ef0-4a9b-a95c-7c9d280faaca","system_id":"levelo_inurba_marseille","lat":43.24801,"lon":5.37453,"is_reserved":false,"is_disabled":false,"rental_uris":{"android":"levelo://app?vid=2891a238-1ef0-4a9b-a95c-7c9d280faaca","ios":"levelo://app?vid=2891a238-1ef0-4a9b-a95c-7c9d280faaca"},"vehicle_type_id":"4","last_reported":1741777678,"current_range_meters":16400,"station_id":"ce4bhgh2rcd13ifvqfb0","pricing_plan_id":"cebpf4jnsgd1na2vs0mg"},{"bike_id":"a239c77c-9cd7-456f-93e4-f47a462ffe00","system_id":"levelo_inurba_marseille","lat":43.26054,"lon":5.39386,"is_reserved":false,"is_disabled":false,"rental_uris":{"android":"levelo://app?vid=a239c77c-9cd7-456f-93e4-f47a462ffe00","ios":"levelo://app?vid=a239c77c-9cd7-456f-93e4-f47a462ffe00"},"vehicle_type_id":"4","last_reported":1741777678,"current_range_meters":16400,"station_id":"ce4bhh92rcd13ifvqfj0","pricing_plan_id":"cebpf4jnsgd1na2vs0mg"},{"bike_id":"9ee3b534-911c-448d-bb36-2434c5536575","system_id":"levelo_inurba_marseille","lat":43.24555,"lon":5.39531,"is_reserved":false,"is_disabled":false,"rental_uris":{"android":"levelo://app?vid=9ee3b534-911c-448d-bb36-2434c5536575","ios":"levelo://app?vid=9ee3b534-911c-448d-bb36-2434c5536575"},"vehicle_type_id":"4","last_reported":1741777678,"current_range_meters":16400,"station_id":"ce4bhlp2rcd13ifvqgjg","pricing_plan_id":"cebpf4jnsgd1na2vs0mg"},{"bike_id":"0118782e-a9be-4c57-a3c6-f989e8d3b9bf","system_id":"levelo_inurba_marseille","lat":43.24179,"lon":5.397,"is_reserved":false,"is_disabled":false,"rental_uris":{"android":"levelo://app?vid=0118782e-a9be-4c57-a3c6-f989e8d3b9bf","ios":"levelo://app?vid=0118782e-a9be-4c57-a3c6-f989e8d3b9bf"},"vehicle_type_id":"4","last_reported":1741777678,"current_range_meters":16400,"station_id":"ce4bhn12rcd13ifvqgpg","pricing_plan_id":"cebpf4jnsgd1na2vs0mg"},{"bike_id":"ca762409-3e9b-49eb-b311-18b138aaa95f","system_id":"levelo_inurba_marseille","lat":43.33729,"lon":5.39188,"is_reserved":false,"is_disabled":false,"rental_uris":{"android":"levelo://app?vid=ca762409-3e9b-49eb-b311-18b138aaa95f","ios":"levelo://app?vid=ca762409-3e9b-49eb-b311-18b138aaa95f"},"vehicle_type_id":"4","last_reported":1741777678,"current_range_meters":16400,"station_id":"ce4bhr92rcd13ifvqhsg","pricing_plan_id":"cebpf4jnsgd1na2vs0mg"},{"bike_id":"d1235ce3-1007-4d2d-9e28-ea39398a63a8","system_id":"levelo_inurba_marseille","lat":43.23189,"lon":5.35539,"is_reserved":false,"is_disabled":false,"rental_uris":{"android":"levelo://app?vid=d1235ce3-1007-4d2d-9e28-ea39398a63a8","ios":"levelo://app?vid=d1235ce3-1007-4d2d-9e28-ea39398a63a8"},"vehicle_type_id":"4","last_reported":1741777678,"current_range_meters":16400,"station_id":"ce4bhu92rcd13ifvqi70","pricing_plan_id":"cebpf4jnsgd1na2vs0mg"},{"bike_id":"e85e7281-8ded-4f9f-9074-cd43c73f5f32","system_id":"levelo_inurba_marseille","lat":43.3134,"lon":5.37345,"is_reserved":false,"is_disabled":false,"rental_uris":{"android":"levelo://app?vid=e85e7281-8ded-4f9f-9074-cd43c73f5f32","ios":"levelo://app?vid=e85e7281-8ded-4f9f-9074-cd43c73f5f32"},"vehicle_type_id":"4","last_reported":1741777678,"current_range_meters":16800,"station_id":"","pricing_plan_id":"cebpf4jnsgd1na2vs0mg"},{"bike_id":"c2706a7e-a77b-44ef-bc8f-95c2f6e1b539","system_id":"levelo_inurba_marseille","lat":43.29298,"lon":5.3744,"is_reserved":false,"is_disabled":false,"rental_uris":{"android":"levelo://app?vid=c2706a7e-a77b-44ef-bc8f-95c2f6e1b539","ios":"levelo://app?vid=c2706a7e-a77b-44ef-bc8f-95c2f6e1b539"},"vehicle_type_id":"4","last_reported":1741777678,"current_range_meters":16800,"station_id":"ce4bgi12rcd13ifvqb70","pricing_plan_id":"cebpf4jnsgd1na2vs0mg"},{"bike_id":"94b30f95-19e8-4b24-809a-d279976d82ea","system_id":"levelo_inurba_marseille","lat":43.31341,"lon":5.39639,"is_reserved":false,"is_disabled":false,"rental_uris":{"android":"levelo://app?vid=94b30f95-19e8-4b24-809a-d279976d82ea","ios":"levelo://app?vid=94b30f95-19e8-4b24-809a-d279976d82ea"},"vehicle_type_id":"4","last_reported":1741777678,"current_range_meters":16800,"station_id":"ce4bgvp2rcd13ifvqcu0","pricing_plan_id":"cebpf4jnsgd1na2vs0mg"},{"bike_id":"96114f57-f074-443d-9ee4-282b0360c01e","system_id":"levelo_inurba_marseille","lat":43.28725,"lon":5.3793,"is_reserved":false,"is_disabled":false,"rental_uris":{"android":"levelo://app?vid=96114f57-f074-443d-9ee4-282b0360c01e","ios":"levelo://app?vid=96114f57-f074-443d-9ee4-282b0360c01e"},"vehicle_type_id":"4","last_reported":1741777678,"current_range_meters":16800,"station_id":"ce4bh9p2rcd13ifvqec0","pricing_plan_id":"cebpf4jnsgd1na2vs0mg"},{"bike_id":"a44739fe-6c4a-4d10-b7d6-ed0ad39ea565","system_id":"levelo_inurba_marseille","lat":43.28462,"lon":5.35883,"is_reserved":false,"is_disabled":false,"rental_uris":{"android":"levelo://app?vid=a44739fe-6c4a-4d10-b7d6-ed0ad39ea565","ios":"levelo://app?vid=a44739fe-6c4a-4d10-b7d6-ed0ad39ea565"},"vehicle_type_id":"4","last_reported":1741777678,"current_range_meters":16800,"station_id":"ce4bhah2rcd13ifvqei0","pricing_plan_id":"cebpf4jnsgd1na2vs0mg"},{"bike_id":"64131d47-ed22-438b-a2f9-804d73ae742c","system_id":"levelo_inurba_marseille","lat":43.27186,"lon":5.39173,"is_reserved":false,"is_disabled":false,"rental_uris":{"android":"levelo://app?vid=64131d47-ed22-438b-a2f9-804d73ae742c","ios":"levelo://app?vid=64131d47-ed22-438b-a2f9-804d73ae742c"},"vehicle_type_id":"4","last_reported":1741777678,"current_range_meters":16800,"station_id":"ce4bhhp2rcd13ifvqfm0","pricing_plan_id":"cebpf4jnsgd1na2vs0mg"},{"bike_id":"70e6be62-0414-44e1-8fea-9b845a8a0d98","system_id":"levelo_inurba_marseille","lat":43.25814,"lon":5.39419,"is_reserved":false,"is_disabled":false,"rental_uris":{"android":"levelo://app?vid=70e6be62-0414-44e1-8fea-9b845a8a0d98","ios":"levelo://app?vid=70e6be62-0414-44e1-8fea-9b845a8a0d98"},"vehicle_type_id":"4","last_reported":1741777678,"current_range_meters":16800,"station_id":"ce4bhip2rcd13ifvqft0","pricing_plan_id":"cebpf4jnsgd1na2vs0mg"},{"bike_id":"894adb72-eba3-4c31-be33-a34cdb918fbd","system_id":"levelo_inurba_marseille","lat":43.25719,"lon":5.411,"is_reserved":false,"is_disabled":false,"rental_uris":{"android":"levelo://app?vid=894adb72-eba3-4c31-be33-a34cdb918fbd","ios":"levelo://app?vid=894adb72-eba3-4c31-be33-a34cdb918fbd"},"vehicle_type_id":"4","last_reported":1741777678,"current_range_meters":16800,"station_id":"ce4bhkp2rcd13ifvqgd0","pricing_plan_id":"cebpf4jnsgd1na2vs0mg"},{"bike_id":"192d82ba-3791-4d48-8d71-dcd69e0c85c9","system_id":"levelo_inurba_marseille","lat":43.29796,"lon":5.38091,"is_reserved":false,"is_disabled":false,"rental_uris":{"android":"levelo://app?vid=192d82ba-3791-4d48-8d71-dcd69e0c85c9","ios":"levelo://app?vid=192d82ba-3791-4d48-8d71-dcd69e0c85c9"},"vehicle_type_id":"4","last_reported":1741777678,"current_range_meters":17200,"station_id":"ce4bgip2rcd13ifvqbb0","pricing_plan_id":"cebpf4jnsgd1na2vs0mg"},{"bike_id":"a9a8f061-112f-49ae-bde7-04345c0f9571","system_id":"levelo_inurba_marseille","lat":43.3117,"lon":5.38715,"is_reserved":false,"is_disabled":false,"rental_uris":{"android":"levelo://app?vid=a9a8f061-112f-49ae-bde7-04345c0f9571","ios":"levelo://app?vid=a9a8f061-112f-49ae-bde7-04345c0f9571"},"vehicle_type_id":"4","last_reported":1741777678,"current_range_meters":17200,"station_id":"ce4bgv12rcd13ifvqcp0","pricing_plan_id":"cebpf4jnsgd1na2vs0mg"},{"bike_id":"a2a5e789-242a-4b1f-9df9-dfba999e1fc1","system_id":"levelo_inurba_marseille","lat":43.30881,"lon":5.39655,"is_reserved":false,"is_disabled":false,"rental_uris":{"android":"levelo://app?vid=a2a5e789-242a-4b1f-9df9-dfba999e1fc1","ios":"levelo://app?vid=a2a5e789-242a-4b1f-9df9-dfba999e1fc1"},"vehicle_type_id":"4","last_reported":1741777678,"current_range_meters":17200,"station_id":"ce4bh012rcd13ifvqcv0","pricing_plan_id":"cebpf4jnsgd1na2vs0mg"},{"bike_id":"80ac6dbc-8d5f-44e3-885f-bce839496e6b","system_id":"levelo_inurba_marseille","lat":43.29245,"lon":5.40906,"is_reserved":false,"is_disabled":false,"rental_uris":{"android":"levelo://app?vid=80ac6dbc-8d5f-44e3-885f-bce839496e6b","ios":"levelo://app?vid=80ac6dbc-8d5f-44e3-885f-bce839496e6b"},"vehicle_type_id":"4","last_reported":1741777678,"current_range_meters":17200,"station_id":"ce4bh192rcd13ifvqdc0","pricing_plan_id":"cebpf4jnsgd1na2vs0mg"},{"bike_id":"ae7fc1ea-84cd-4b37-95fa-39065213291a","system_id":"levelo_inurba_marseille","lat":43.2846,"lon":5.35882,"is_reserved":false,"is_disabled":false,"rental_uris":{"android":"levelo://app?vid=ae7fc1ea-84cd-4b37-95fa-39065213291a","ios":"levelo://app?vid=ae7fc1ea-84cd-4b37-95fa-39065213291a"},"vehicle_type_id":"4","last_reported":1741777678,"current_range_meters":17200,"station_id":"ce4bhah2rcd13ifvqei0","pricing_plan_id":"cebpf4jnsgd1na2vs0mg"},{"bike_id":"f550acae-a478-493d-8418-eb4ab17dc323","system_id":"levelo_inurba_marseille","lat":43.25017,"lon":5.38917,"is_reserved":false,"is_disabled":false,"rental_uris":{"android":"levelo://app?vid=f550acae-a478-493d-8418-eb4ab17dc323","ios":"levelo://app?vid=f550acae-a478-493d-8418-eb4ab17dc323"},"vehicle_type_id":"4","last_reported":1741777678,"current_range_meters":17200,"station_id":"ce4bhgp2rcd13ifvqfd0","pricing_plan_id":"cebpf4jnsgd1na2vs0mg"},{"bike_id":"b997b4d1-0b66-4c24-8862-da05f86da312","system_id":"levelo_inurba_marseille","lat":43.29302,"lon":5.37449,"is_reserved":false,"is_disabled":false,"rental_uris":{"android":"levelo://app?vid=b997b4d1-0b66-4c24-8862-da05f86da312","ios":"levelo://app?vid=b997b4d1-0b66-4c24-8862-da05f86da312"},"vehicle_type_id":"4","last_reported":1741777678,"current_range_meters":17600,"station_id":"ce4bgi12rcd13ifvqb70","pricing_plan_id":"cebpf4jnsgd1na2vs0mg"},{"bike_id":"7aff343b-f879-4588-94d2-4f5d35c19b2d","system_id":"levelo_inurba_marseille","lat":43.29795,"lon":5.38103,"is_reserved":false,"is_disabled":false,"rental_uris":{"android":"levelo://app?vid=7aff343b-f879-4588-94d2-4f5d35c19b2d","ios":"levelo://app?vid=7aff343b-f879-4588-94d2-4f5d35c19b2d"},"vehicle_type_id":"4","last_reported":1741777678,"current_range_meters":17600,"station_id":"ce4bgip2rcd13ifvqbb0","pricing_plan_id":"cebpf4jnsgd1na2vs0mg"},{"bike_id":"e85e3569-d481-4389-b95c-1d53a5180ccf","system_id":"levelo_inurba_marseille","lat":43.30792,"lon":5.38151,"is_reserved":false,"is_disabled":false,"rental_uris":{"android":"levelo://app?vid=e85e3569-d481-4389-b95c-1d53a5180ccf","ios":"levelo://app?vid=e85e3569-d481-4389-b95c-1d53a5180ccf"},"vehicle_type_id":"4","last_reported":1741777678,"current_range_meters":17600,"station_id":"ce4bgt12rcd13ifvqce0","pricing_plan_id":"cebpf4jnsgd1na2vs0mg"},{"bike_id":"64a2c598-dbab-4505-89de-07a2f42e35ac","system_id":"levelo_inurba_marseille","lat":43.29265,"lon":5.40902,"is_reserved":false,"is_disabled":false,"rental_uris":{"android":"levelo://app?vid=64a2c598-dbab-4505-89de-07a2f42e35ac","ios":"levelo://app?vid=64a2c598-dbab-4505-89de-07a2f42e35ac"},"vehicle_type_id":"4","last_reported":1741777678,"current_range_meters":17600,"station_id":"ce4bh192rcd13ifvqdc0","pricing_plan_id":"cebpf4jnsgd1na2vs0mg"},{"bike_id":"a823fe98-0845-44f0-af70-a3e75e70ed04","system_id":"levelo_inurba_marseille","lat":43.25006,"lon":5.38919,"is_reserved":false,"is_disabled":false,"rental_uris":{"android":"levelo://app?vid=a823fe98-0845-44f0-af70-a3e75e70ed04","ios":"levelo://app?vid=a823fe98-0845-44f0-af70-a3e75e70ed04"},"vehicle_type_id":"4","last_reported":1741777678,"current_range_meters":17600,"station_id":"ce4bhgp2rcd13ifvqfd0","pricing_plan_id":"cebpf4jnsgd1na2vs0mg"},{"bike_id":"ad906abc-b7a3-4881-a391-f3ba60929c52","system_id":"levelo_inurba_marseille","lat":43.29595,"lon":5.37504,"is_reserved":false,"is_disabled":false,"rental_uris":{"android":"levelo://app?vid=ad906abc-b7a3-4881-a391-f3ba60929c52","ios":"levelo://app?vid=ad906abc-b7a3-4881-a391-f3ba60929c52"},"vehicle_type_id":"4","last_reported":1741777678,"current_range_meters":18000,"station_id":"ce4bgh92rcd13ifvqb50","pricing_plan_id":"cebpf4jnsgd1na2vs0mg"},{"bike_id":"16f3eb24-4ec3-48f6-a46c-871ca20a13c8","system_id":"levelo_inurba_marseille","lat":43.29251,"lon":5.37618,"is_reserved":false,"is_disabled":false,"rental_uris":{"android":"levelo://app?vid=16f3eb24-4ec3-48f6-a46c-871ca20a13c8","ios":"levelo://app?vid=16f3eb24-4ec3-48f6-a46c-871ca20a13c8"},"vehicle_type_id":"4","last_reported":1741777678,"current_range_meters":18000,"station_id":"ce4bgi12rcd13ifvqb80","pricing_plan_id":"cebpf4jnsgd1na2vs0mg"},{"bike_id":"09a328e6-3055-4986-beca-2cb080fa8cfd","system_id":"levelo_inurba_marseille","lat":43.29626,"lon":5.37165,"is_reserved":false,"is_disabled":false,"rental_uris":{"android":"levelo://app?vid=09a328e6-3055-4986-beca-2cb080fa8cfd","ios":"levelo://app?vid=09a328e6-3055-4986-beca-2cb080fa8cfd"},"vehicle_type_id":"4","last_reported":1741777678,"current_range_meters":18000,"station_id":"ce4bgnh2rcd13ifvqc0g","pricing_plan_id":"cebpf4jnsgd1na2vs0mg"},{"bike_id":"6edb5fce-7856-4724-99a8-e22b71732b62","system_id":"levelo_inurba_marseille","lat":43.30556,"lon":5.36533,"is_reserved":false,"is_disabled":false,"rental_uris":{"android":"levelo://app?vid=6edb5fce-7856-4724-99a8-e22b71732b62","ios":"levelo://app?vid=6edb5fce-7856-4724-99a8-e22b71732b62"},"vehicle_type_id":"4","last_reported":1741777678,"current_range_meters":18000,"station_id":"ce4bgs12rcd13ifvqcag","pricing_plan_id":"cebpf4jnsgd1na2vs0mg"},{"bike_id":"e277317d-aed0-4817-a0d0-294590e2e37d","system_id":"levelo_inurba_marseille","lat":43.29002,"lon":5.35612,"is_reserved":false,"is_disabled":false,"rental_uris":{"android":"levelo://app?vid=e277317d-aed0-4817-a0d0-294590e2e37d","ios":"levelo://app?vid=e277317d-aed0-4817-a0d0-294590e2e37d"},"vehicle_type_id":"4","last_reported":1741777678,"current_range_meters":18000,"station_id":"ce4bhb92rcd13ifvqen0","pricing_plan_id":"cebpf4jnsgd1na2vs0mg"},{"bike_id":"a5704320-05b9-407c-becc-112aee5dfb75","system_id":"levelo_inurba_marseille","lat":43.29223,"lon":5.36056,"is_reserved":false,"is_disabled":false,"rental_uris":{"android":"levelo://app?vid=a5704320-05b9-407c-becc-112aee5dfb75","ios":"levelo://app?vid=a5704320-05b9-407c-becc-112aee5dfb75"},"vehicle_type_id":"4","last_reported":1741777678,"current_range_meters":18000,"station_id":"ce4bhbh2rcd13ifvqeqg","pricing_plan_id":"cebpf4jnsgd1na2vs0mg"},{"bike_id":"7d5351c9-c272-40e5-b16b-60da7ac07b77","system_id":"levelo_inurba_marseille","lat":43.25024,"lon":5.38926,"is_reserved":false,"is_disabled":false,"rental_uris":{"android":"levelo://app?vid=7d5351c9-c272-40e5-b16b-60da7ac07b77","ios":"levelo://app?vid=7d5351c9-c272-40e5-b16b-60da7ac07b77"},"vehicle_type_id":"4","last_reported":1741777678,"current_range_meters":18000,"station_id":"ce4bhgp2rcd13ifvqfd0","pricing_plan_id":"cebpf4jnsgd1na2vs0mg"},{"bike_id":"2c542a09-e66b-400a-a635-ed3442b0a9f5","system_id":"levelo_inurba_marseille","lat":43.23967,"lon":5.36646,"is_reserved":false,"is_disabled":false,"rental_uris":{"android":"levelo://app?vid=2c542a09-e66b-400a-a635-ed3442b0a9f5","ios":"levelo://app?vid=2c542a09-e66b-400a-a635-ed3442b0a9f5"},"vehicle_type_id":"4","last_reported":1741777678,"current_range_meters":18000,"station_id":"ce4bhi12rcd13ifvqfp0","pricing_plan_id":"cebpf4jnsgd1na2vs0mg"},{"bike_id":"5167d198-5092-4014-ae89-548e22f776e7","system_id":"levelo_inurba_marseille","lat":43.25816,"lon":5.39424,"is_reserved":false,"is_disabled":false,"rental_uris":{"android":"levelo://app?vid=5167d198-5092-4014-ae89-548e22f776e7","ios":"levelo://app?vid=5167d198-5092-4014-ae89-548e22f776e7"},"vehicle_type_id":"4","last_reported":1741777678,"current_range_meters":18000,"station_id":"ce4bhip2rcd13ifvqft0","pricing_plan_id":"cebpf4jnsgd1na2vs0mg"},{"bike_id":"3f5fb6ab-70c9-4053-9048-00f87210aeb7","system_id":"levelo_inurba_marseille","lat":43.24531,"lon":5.39492,"is_reserved":false,"is_disabled":false,"rental_uris":{"android":"levelo://app?vid=3f5fb6ab-70c9-4053-9048-00f87210aeb7","ios":"levelo://app?vid=3f5fb6ab-70c9-4053-9048-00f87210aeb7"},"vehicle_type_id":"4","last_reported":1741777678,"current_range_meters":18000,"station_id":"ce4bhlp2rcd13ifvqgjg","pricing_plan_id":"cebpf4jnsgd1na2vs0mg"},{"bike_id":"a71207bf-987b-453f-ad45-f7da76d9b586","system_id":"levelo_inurba_marseille","lat":43.23156,"lon":5.43702,"is_reserved":false,"is_disabled":false,"rental_uris":{"android":"levelo://app?vid=a71207bf-987b-453f-ad45-f7da76d9b586","ios":"levelo://app?vid=a71207bf-987b-453f-ad45-f7da76d9b586"},"vehicle_type_id":"4","last_reported":1741777678,"current_range_meters":18000,"station_id":"ce4bhmp2rcd13ifvqgog","pricing_plan_id":"cebpf4jnsgd1na2vs0mg"},{"bike_id":"138950fe-6475-45f2-9756-9aeb93c609d4","system_id":"levelo_inurba_marseille","lat":43.24177,"lon":5.39733,"is_reserved":false,"is_disabled":false,"rental_uris":{"android":"levelo://app?vid=138950fe-6475-45f2-9756-9aeb93c609d4","ios":"levelo://app?vid=138950fe-6475-45f2-9756-9aeb93c609d4"},"vehicle_type_id":"4","last_reported":1741777678,"current_range_meters":18000,"station_id":"ce4bhn12rcd13ifvqgpg","pricing_plan_id":"cebpf4jnsgd1na2vs0mg"},{"bike_id":"42b98171-ab37-4e6e-bb7f-9c223079c847","system_id":"levelo_inurba_marseille","lat":43.27934,"lon":5.41038,"is_reserved":false,"is_disabled":false,"rental_uris":{"android":"levelo://app?vid=42b98171-ab37-4e6e-bb7f-9c223079c847","ios":"levelo://app?vid=42b98171-ab37-4e6e-bb7f-9c223079c847"},"vehicle_type_id":"4","last_reported":1741777678,"current_range_meters":18000,"station_id":"ce4bhnp2rcd13ifvqh0g","pricing_plan_id":"cebpf4jnsgd1na2vs0mg"},{"bike_id":"d499aa7d-37fe-4efe-8d86-7fc011ad17ad","system_id":"levelo_inurba_marseille","lat":43.2308,"lon":5.35501,"is_reserved":false,"is_disabled":false,"rental_uris":{"android":"levelo://app?vid=d499aa7d-37fe-4efe-8d86-7fc011ad17ad","ios":"levelo://app?vid=d499aa7d-37fe-4efe-8d86-7fc011ad17ad"},"vehicle_type_id":"4","last_reported":1741777678,"current_range_meters":18000,"station_id":"cpo3342slgdg3j2ifvpg","pricing_plan_id":"cebpf4jnsgd1na2vs0mg"},{"bike_id":"f175ae34-45c7-4866-b98c-09a051b521b9","system_id":"levelo_inurba_marseille","lat":43.2962,"lon":5.3715,"is_reserved":false,"is_disabled":false,"rental_uris":{"android":"levelo://app?vid=f175ae34-45c7-4866-b98c-09a051b521b9","ios":"levelo://app?vid=f175ae34-45c7-4866-b98c-09a051b521b9"},"vehicle_type_id":"4","last_reported":1741777678,"current_range_meters":18800,"station_id":"ce4bgnh2rcd13ifvqc0g","pricing_plan_id":"cebpf4jnsgd1na2vs0mg"},{"bike_id":"45a13d77-f108-43b1-81fe-df5d5ab8ad87","system_id":"levelo_inurba_marseille","lat":43.29845,"lon":5.36266,"is_reserved":false,"is_disabled":false,"rental_uris":{"android":"levelo://app?vid=45a13d77-f108-43b1-81fe-df5d5ab8ad87","ios":"levelo://app?vid=45a13d77-f108-43b1-81fe-df5d5ab8ad87"},"vehicle_type_id":"4","last_reported":1741777678,"current_range_meters":18800,"station_id":"ce4bgpp2rcd13ifvqc3g","pricing_plan_id":"cebpf4jnsgd1na2vs0mg"},{"bike_id":"e17fdaa0-5c3e-4a96-8743-379bf9fc815d","system_id":"levelo_inurba_marseille","lat":43.29845,"lon":5.36265,"is_reserved":false,"is_disabled":false,"rental_uris":{"android":"levelo://app?vid=e17fdaa0-5c3e-4a96-8743-379bf9fc815d","ios":"levelo://app?vid=e17fdaa0-5c3e-4a96-8743-379bf9fc815d"},"vehicle_type_id":"4","last_reported":1741777678,"current_range_meters":18800,"station_id":"ce4bgpp2rcd13ifvqc3g","pricing_plan_id":"cebpf4jnsgd1na2vs0mg"},{"bike_id":"fa59939e-e557-4110-9551-df35b8f1ec54","system_id":"levelo_inurba_marseille","lat":43.24645,"lon":5.38885,"is_reserved":false,"is_disabled":false,"rental_uris":{"android":"levelo://app?vid=fa59939e-e557-4110-9551-df35b8f1ec54","ios":"levelo://app?vid=fa59939e-e557-4110-9551-df35b8f1ec54"},"vehicle_type_id":"4","last_reported":1741777678,"current_range_meters":18800,"station_id":"ce4bhg12rcd13ifvqf60","pricing_plan_id":"cebpf4jnsgd1na2vs0mg"},{"bike_id":"301d459d-7abc-4914-b044-2024c77c38b3","system_id":"levelo_inurba_marseille","lat":43.26197,"lon":5.37922,"is_reserved":false,"is_disabled":false,"rental_uris":{"android":"levelo://app?vid=301d459d-7abc-4914-b044-2024c77c38b3","ios":"levelo://app?vid=301d459d-7abc-4914-b044-2024c77c38b3"},"vehicle_type_id":"4","last_reported":1741777678,"current_range_meters":18800,"station_id":"ce4bhjp2rcd13ifvqg90","pricing_plan_id":"cebpf4jnsgd1na2vs0mg"},{"bike_id":"054b60c6-5971-460b-bb10-54c67838f7a0","system_id":"levelo_inurba_marseille","lat":43.31362,"lon":5.36735,"is_reserved":false,"is_disabled":false,"rental_uris":{"android":"levelo://app?vid=054b60c6-5971-460b-bb10-54c67838f7a0","ios":"levelo://app?vid=054b60c6-5971-460b-bb10-54c67838f7a0"},"vehicle_type_id":"4","last_reported":1741777678,"current_range_meters":19200,"station_id":"ce4bgr92rcd13ifvqc6g","pricing_plan_id":"cebpf4jnsgd1na2vs0mg"},{"bike_id":"0756db4f-7ce5-40f5-8588-5172b4f8eeaf","system_id":"levelo_inurba_marseille","lat":43.30143,"lon":5.37397,"is_reserved":false,"is_disabled":false,"rental_uris":{"android":"levelo://app?vid=0756db4f-7ce5-40f5-8588-5172b4f8eeaf","ios":"levelo://app?vid=0756db4f-7ce5-40f5-8588-5172b4f8eeaf"},"vehicle_type_id":"4","last_reported":1741777678,"current_range_meters":19200,"station_id":"ce4bgs92rcd13ifvqcc0","pricing_plan_id":"cebpf4jnsgd1na2vs0mg"},{"bike_id":"7382db7c-ea28-4d6b-a6ac-0a5dc179880b","system_id":"levelo_inurba_marseille","lat":43.31491,"lon":5.3729,"is_reserved":false,"is_disabled":false,"rental_uris":{"android":"levelo://app?vid=7382db7c-ea28-4d6b-a6ac-0a5dc179880b","ios":"levelo://app?vid=7382db7c-ea28-4d6b-a6ac-0a5dc179880b"},"vehicle_type_id":"4","last_reported":1741777678,"current_range_meters":19200,"station_id":"ce4bgt12rcd13ifvqcd0","pricing_plan_id":"cebpf4jnsgd1na2vs0mg"},{"bike_id":"d26a1b9b-e826-43b5-9345-17d86027546a","system_id":"levelo_inurba_marseille","lat":43.29028,"lon":5.37581,"is_reserved":false,"is_disabled":false,"rental_uris":{"android":"levelo://app?vid=d26a1b9b-e826-43b5-9345-17d86027546a","ios":"levelo://app?vid=d26a1b9b-e826-43b5-9345-17d86027546a"},"vehicle_type_id":"4","last_reported":1741777678,"current_range_meters":19200,"station_id":"ce4bh692rcd13ifvqe90","pricing_plan_id":"cebpf4jnsgd1na2vs0mg"},{"bike_id":"9b665522-2639-45b0-bd52-d9f8cfad2bac","system_id":"levelo_inurba_marseille","lat":43.25725,"lon":5.41081,"is_reserved":false,"is_disabled":false,"rental_uris":{"android":"levelo://app?vid=9b665522-2639-45b0-bd52-d9f8cfad2bac","ios":"levelo://app?vid=9b665522-2639-45b0-bd52-d9f8cfad2bac"},"vehicle_type_id":"4","last_reported":1741777678,"current_range_meters":19200,"station_id":"ce4bhkp2rcd13ifvqgd0","pricing_plan_id":"cebpf4jnsgd1na2vs0mg"},{"bike_id":"a9c147e1-d83d-4cec-bc69-ab7258144045","system_id":"levelo_inurba_marseille","lat":43.29609,"lon":5.37721,"is_reserved":false,"is_disabled":false,"rental_uris":{"android":"levelo://app?vid=a9c147e1-d83d-4cec-bc69-ab7258144045","ios":"levelo://app?vid=a9c147e1-d83d-4cec-bc69-ab7258144045"},"vehicle_type_id":"4","last_reported":1741777678,"current_range_meters":19600,"station_id":"","pricing_plan_id":"cebpf4jnsgd1na2vs0mg"},{"bike_id":"bb29cae9-3f04-4ae6-98f5-8815afa59921","system_id":"levelo_inurba_marseille","lat":43.30149,"lon":5.38087,"is_reserved":false,"is_disabled":false,"rental_uris":{"android":"levelo://app?vid=bb29cae9-3f04-4ae6-98f5-8815afa59921","ios":"levelo://app?vid=bb29cae9-3f04-4ae6-98f5-8815afa59921"},"vehicle_type_id":"4","last_reported":1741777678,"current_range_meters":19600,"station_id":"ce4bgjp2rcd13ifvqbh0","pricing_plan_id":"cebpf4jnsgd1na2vs0mg"},{"bike_id":"44f78de4-44be-40a6-a32b-a2ccb455d2b2","system_id":"levelo_inurba_marseille","lat":43.30598,"lon":5.37225,"is_reserved":false,"is_disabled":false,"rental_uris":{"android":"levelo://app?vid=44f78de4-44be-40a6-a32b-a2ccb455d2b2","ios":"levelo://app?vid=44f78de4-44be-40a6-a32b-a2ccb455d2b2"},"vehicle_type_id":"4","last_reported":1741777678,"current_range_meters":19600,"station_id":"ce4bgqh2rcd13ifvqc4g","pricing_plan_id":"cebpf4jnsgd1na2vs0mg"},{"bike_id":"a80563ae-6e8b-469b-a990-a5f4874c66a6","system_id":"levelo_inurba_marseille","lat":43.30557,"lon":5.36544,"is_reserved":false,"is_disabled":false,"rental_uris":{"android":"levelo://app?vid=a80563ae-6e8b-469b-a990-a5f4874c66a6","ios":"levelo://app?vid=a80563ae-6e8b-469b-a990-a5f4874c66a6"},"vehicle_type_id":"4","last_reported":1741777678,"current_range_meters":19600,"station_id":"ce4bgs12rcd13ifvqcag","pricing_plan_id":"cebpf4jnsgd1na2vs0mg"},{"bike_id":"2692ecec-5758-4add-8b2c-3833eb14a18b","system_id":"levelo_inurba_marseille","lat":43.311021,"lon":5.377713,"is_reserved":false,"is_disabled":false,"rental_uris":{"android":"levelo://app?vid=2692ecec-5758-4add-8b2c-3833eb14a18b","ios":"levelo://app?vid=2692ecec-5758-4add-8b2c-3833eb14a18b"},"vehicle_type_id":"4","last_reported":1741777678,"current_range_meters":19600,"station_id":"ce4bgt92rcd13ifvqcg0","pricing_plan_id":"cebpf4jnsgd1na2vs0mg"},{"bike_id":"0649367f-eeb3-4ecf-85ff-51884dda8ff6","system_id":"levelo_inurba_marseille","lat":43.286947,"lon":5.37924,"is_reserved":false,"is_disabled":false,"rental_uris":{"android":"levelo://app?vid=0649367f-eeb3-4ecf-85ff-51884dda8ff6","ios":"levelo://app?vid=0649367f-eeb3-4ecf-85ff-51884dda8ff6"},"vehicle_type_id":"4","last_reported":1741777678,"current_range_meters":19600,"station_id":"ce4bh9p2rcd13ifvqec0","pricing_plan_id":"cebpf4jnsgd1na2vs0mg"},{"bike_id":"b126eeb3-a555-4e2a-a818-f0c9335257f5","system_id":"levelo_inurba_marseille","lat":43.28938,"lon":5.36605,"is_reserved":false,"is_disabled":false,"rental_uris":{"android":"levelo://app?vid=b126eeb3-a555-4e2a-a818-f0c9335257f5","ios":"levelo://app?vid=b126eeb3-a555-4e2a-a818-f0c9335257f5"},"vehicle_type_id":"4","last_reported":1741777678,"current_range_meters":19600,"station_id":"ce4bhap2rcd13ifvqek0","pricing_plan_id":"cebpf4jnsgd1na2vs0mg"},{"bike_id":"5c68ac46-3edb-4873-87d3-9b8dbad7cc54","system_id":"levelo_inurba_marseille","lat":43.2671,"lon":5.38271,"is_reserved":false,"is_disabled":false,"rental_uris":{"android":"levelo://app?vid=5c68ac46-3edb-4873-87d3-9b8dbad7cc54","ios":"levelo://app?vid=5c68ac46-3edb-4873-87d3-9b8dbad7cc54"},"vehicle_type_id":"4","last_reported":1741777678,"current_range_meters":19600,"station_id":"ce4bhg92rcd13ifvqf90","pricing_plan_id":"cebpf4jnsgd1na2vs0mg"},{"bike_id":"54dbaa9f-2733-4559-9902-b1d75e70626c","system_id":"levelo_inurba_marseille","lat":43.25719,"lon":5.41115,"is_reserved":false,"is_disabled":false,"rental_uris":{"android":"levelo://app?vid=54dbaa9f-2733-4559-9902-b1d75e70626c","ios":"levelo://app?vid=54dbaa9f-2733-4559-9902-b1d75e70626c"},"vehicle_type_id":"4","last_reported":1741777678,"current_range_meters":19600,"station_id":"ce4bhkp2rcd13ifvqgd0","pricing_plan_id":"cebpf4jnsgd1na2vs0mg"},{"bike_id":"ebb34b1a-a0d0-460f-8975-aea816f57999","system_id":"levelo_inurba_marseille","lat":43.27987,"lon":5.41666,"is_reserved":false,"is_disabled":false,"rental_uris":{"android":"levelo://app?vid=ebb34b1a-a0d0-460f-8975-aea816f57999","ios":"levelo://app?vid=ebb34b1a-a0d0-460f-8975-aea816f57999"},"vehicle_type_id":"4","last_reported":1741777678,"current_range_meters":19600,"station_id":"ce4bho12rcd13ifvqh1g","pricing_plan_id":"cebpf4jnsgd1na2vs0mg"},{"bike_id":"5d10198e-17be-47d0-b64a-e96b5151efb7","system_id":"levelo_inurba_marseille","lat":43.31086,"lon":5.42431,"is_reserved":false,"is_disabled":false,"rental_uris":{"android":"levelo://app?vid=5d10198e-17be-47d0-b64a-e96b5151efb7","ios":"levelo://app?vid=5d10198e-17be-47d0-b64a-e96b5151efb7"},"vehicle_type_id":"4","last_reported":1741777678,"current_range_meters":19600,"station_id":"ce4bhp92rcd13ifvqhag","pricing_plan_id":"cebpf4jnsgd1na2vs0mg"},{"bike_id":"d591ffb8-403e-483e-b1df-e014b542b3be","system_id":"levelo_inurba_marseille","lat":43.32523,"lon":5.41428,"is_reserved":false,"is_disabled":false,"rental_uris":{"android":"levelo://app?vid=d591ffb8-403e-483e-b1df-e014b542b3be","ios":"levelo://app?vid=d591ffb8-403e-483e-b1df-e014b542b3be"},"vehicle_type_id":"4","last_reported":1741777678,"current_range_meters":19600,"station_id":"ce4bhq12rcd13ifvqhhg","pricing_plan_id":"cebpf4jnsgd1na2vs0mg"},{"bike_id":"a8e6facd-0ed9-4fb1-a796-3934f52346fc","system_id":"levelo_inurba_marseille","lat":43.32105,"lon":5.36761,"is_reserved":false,"is_disabled":false,"rental_uris":{"android":"levelo://app?vid=a8e6facd-0ed9-4fb1-a796-3934f52346fc","ios":"levelo://app?vid=a8e6facd-0ed9-4fb1-a796-3934f52346fc"},"vehicle_type_id":"4","last_reported":1741777678,"current_range_meters":19600,"station_id":"ce4bhrh2rcd13ifvqhug","pricing_plan_id":"cebpf4jnsgd1na2vs0mg"},{"bike_id":"a5114c03-ba94-4867-b4ce-fa7b110e88e4","system_id":"levelo_inurba_marseille","lat":43.30477,"lon":5.37909,"is_reserved":false,"is_disabled":false,"rental_uris":{"android":"levelo://app?vid=a5114c03-ba94-4867-b4ce-fa7b110e88e4","ios":"levelo://app?vid=a5114c03-ba94-4867-b4ce-fa7b110e88e4"},"vehicle_type_id":"4","last_reported":1741777678,"current_range_meters":20000,"station_id":"ce4bgup2rcd13ifvqcn0","pricing_plan_id":"cebpf4jnsgd1na2vs0mg"},