{"last_updated":1741892848,"ttl":60,"version":"2.2","data":{"bikes":[{"bike_id":"54d97014-89bb-4f6a-85e6-7fd97f8a0def","system_id":"levelo_inurba_marseille","lat":43.32992,"lon":5.39015,"is_reserved":false,"is_disabled":false,"rental_uris":{"android":"levelo://app?vid=54d97014-89bb-4f6a-85e6-7fd97f8a0def","ios":"levelo://app?vid=54d97014-89bb-4f6a-85e6-7fd97f8a0def"},"vehicle_type_id":"4","last_reported":1741892848,"current_range_meters":2800,"station_id":"ce4bhr92rcd13ifvqhrg","pricing_plan_id":"cebpf4jnsgd1na2vs0mg"},{"bike_id":"8b83a773-8070-4922-ae6d-61dd2e61d681","system_id":"levelo_inurba_marseille","lat":43.30661,"lon":5.40096,"is_reserved":false,"is_disabled":false,"rental_uris":{"android":"levelo://app?vid=8b83a773-8070-4922-ae6d-61dd2e61d681","ios":"levelo://app?vid=8b83a773-8070-4922-ae6d-61dd2e61d681"},"vehicle_type_id":"4","last_reported":1741892848,"current_range_meters":2800,"station_id":"ce4bh112rcd13ifvqda0","pricing_plan_id":"cebpf4jnsgd1na2vs0mg"},{"bike_id":"ac34d914-73a6-4215-8acf-ca29ea3ba865","system_id":"levelo_inurba_marseille","lat":43.28444,"lon":5.39201,"is_reserved":false,"is_disabled":false,"rental_uris":{"android":"levelo://app?vid=ac34d914-73a6-4215-8acf-ca29ea3ba865","ios":"levelo://app?vid=ac34d914-73a6-4215-8acf-ca29ea3ba865"},"vehicle_type_id":"4","last_reported":1741892848,"current_range_meters":2000,"station_id":"ce4bhoh2rcd13ifvqh5g","pricing_plan_id":"cebpf4jnsgd1na2vs0mg"},{"bike_id":"a3330ff5-1c6a-4f66-b834-4f5fd62a8e4d","system_id":"levelo_inurba_marseille","lat":43.27071,"lon":5.42276,"is_reserved":false,"is_disabled":false,"rental_uris":{"android":"levelo://app?vid=a3330ff5-1c6a-4f66-b834-4f5fd62a8e4d","ios":"levelo://app?vid=a3330ff5-1c6a-4f66-b834-4f5fd62a8e4d"},"vehicle_type_id":"4","last_reported":1741892848,"current_range_meters":3200,"station_id":"ce4bhk92rcd13ifvqgb0","pricing_plan_id":"cebpf4jnsgd1na2vs0mg"},{"bike_id":"7ced7085-a847-4fb4-bfdf-4f0584939465","system_id":"levelo_inurba_marseille","lat":43.23962,"lon":5.36637,"is_reserved":false,"is_disabled":false,"rental_uris":{"android":"levelo://app?vid=7ced7085-a847-4fb4-bfdf-4f0584939465","ios":"levelo://app?vid=7ced7085-a847-4fb4-bfdf-4f0584939465"},"vehicle_type_id":"4","last_reported":1741892848,"current_range_meters":3200,"station_id":"ce4bhi12rcd13ifvqfp0","pricing_plan_id":"cebpf4jnsgd1na2vs0mg"},{"bike_id":"1305a998-3c57-442e-bfd8-90943657057b","system_id":"levelo_inurba_marseille","lat":43.27834,"lon":5.39207,"is_reserved":false,"is_disabled":false,"rental_uris":{"android":"levelo://app?vid=1305a998-3c57-442e-bfd8-90943657057b","ios":"levelo://app?vid=1305a998-3c57-442e-bfd8-90943657057b"},"vehicle_type_id":"4","last_reported":1741892848,"current_range_meters":3200,"station_id":"ce4bhjp2rcd13ifvqga0","pricing_plan_id":"cebpf4jnsgd1na2vs0mg"},{"bike_id":"cd80a725-bb18-48ba-9769-67249d6a51d1","system_id":"levelo_inurba_marseille","lat":43.28457,"lon":5.37512,"is_reserved":false,"is_disabled":false,"rental_uris":{"android":"levelo://app?vid=cd80a725-bb18-48ba-9769-67249d6a51d1","ios":"levelo://app?vid=cd80a725-bb18-48ba-9769-67249d6a51d1"},"vehicle_type_id":"4","last_reported":1741892848,"current_range_meters":3600,"station_id":"","pricing_plan_id":"cebpf4jnsgd1na2vs0mg"},{"bike_id":"d506a175-d16b-417e-8a3a-f2241e0e262e","system_id":"levelo_inurba_marseille","lat":43.30898,"lon":5.37911,"is_reserved":false,"is_disabled":false,"rental_uris":{"android":"levelo://app?vid=d506a175-d16b-417e-8a3a-f2241e0e262e","ios":"levelo://app?vid=d506a175-d16b-417e-8a3a-f2241e0e262e"},"vehicle_type_id":"4","last_reported":1741892848,"current_range_meters":3600,"station_id":"","pricing_plan_id":"cebpf4jnsgd1na2vs0mg"},{"bike_id":"7d8e67f1-ebfe-4a94-9853-cc6995aa7f0b","system_id":"levelo_inurba_marseille","lat":43.28351,"lon":5.38107,"is_reserved":false,"is_disabled":false,"rental_uris":{"android":"levelo://app?vid=7d8e67f1-ebfe-4a94-9853-cc6995aa7f0b","ios":"levelo://app?vid=7d8e67f1-ebfe-4a94-9853-cc6995aa7f0b"},"vehicle_type_id":"4","last_reported":1741892848,"current_range_meters":3600,"station_id":"ce4bh412rcd13ifvqdr0","pricing_plan_id":"cebpf4jnsgd1na2vs0mg"},{"bike_id":"1857f120-f250-499e-af4f-d6bd5e0cb9f4","system_id":"levelo_inurba_marseille","lat":43.2909,"lon":5.38124,"is_reserved":false,"is_disabled":false,"rental_uris":{"android":"levelo://app?vid=1857f120-f250-499e-af4f-d6bd5e0cb9f4","ios":"levelo://app?vid=1857f120-f250-499e-af4f-d6bd5e0cb9f4"},"vehicle_type_id":"4","last_reported":1741892848,"current_range_meters":3600,"station_id":"ce4bh512rcd13ifvqe2g","pricing_plan_id":"cebpf4jnsgd1na2vs0mg"},{"bike_id":"b7750009-6836-4f4d-8e60-d86893e18e14","system_id":"levelo_inurba_marseille","lat":43.31036,"lon":5.37135,"is_reserved":false,"is_disabled":false,"rental_uris":{"android":"levelo://app?vid=b7750009-6836-4f4d-8e60-d86893e18e14","ios":"levelo://app?vid=b7750009-6836-4f4d-8e60-d86893e18e14"},"vehicle_type_id":"4","last_reported":1741892848,"current_range_meters":3600,"station_id":"","pricing_plan_id":"cebpf4jnsgd1na2vs0mg"},{"bike_id":"9d9d5804-1ff5-49f0-83a0-9bba1fc49232","system_id":"levelo_inurba_marseille","lat":43.30933,"lon":5.40124,"is_reserved":false,"is_disabled":false,"rental_uris":{"android":"levelo://app?vid=9d9d5804-1ff5-49f0-83a0-9bba1fc49232","ios":"levelo://app?vid=9d9d5804-1ff5-49f0-83a0-9bba1fc49232"},"vehicle_type_id":"4","last_reported":1741892848,"current_range_meters":3600,"station_id":"ce4bgvp2rcd13ifvqct0","pricing_plan_id":"cebpf4jnsgd1na2vs0mg"},{"bike_id":"22983eea-8f78-400c-b1ef-225cb622047c","system_id":"levelo_inurba_marseille","lat":43.27814,"lon":5.4073,"is_reserved":false,"is_disabled":false,"rental_uris":{"android":"levelo://app?vid=22983eea-8f78-400c-b1ef-225cb622047c","ios":"levelo://app?vid=22983eea-8f78-400c-b1ef-225cb622047c"},"vehicle_type_id":"4","last_reported":1741892848,"current_range_meters":4000,"station_id":"ce4bhnh2rcd13ifvqgtg","pricing_plan_id":"cebpf4jnsgd1na2vs0mg"},{"bike_id":"e6ab99ac-5fcb-4cfd-9abf-ffc1c589533e","system_id":"levelo_inurba_marseille","lat":43.285736,"lon":5.39499,"is_reserved":false,"is_disabled":false,"rental_uris":{"android":"levelo://app?vid=e6ab99ac-5fcb-4cfd-9abf-ffc1c589533e","ios":"levelo://app?vid=e6ab99ac-5fcb-4cfd-9abf-ffc1c589533e"},"vehicle_type_id":"4","last_reported":1741892848,"current_range_meters":4000,"station_id":"ce4bhh12rcd13ifvqfg0","pricing_plan_id":"cebpf4jnsgd1na2vs0mg"},{"bike_id":"28d28e1d-393f-4a65-a45c-16f542f782e9","system_id":"levelo_inurba_marseille","lat":43.29241,"lon":5.38453,"is_reserved":false,"is_disabled":false,"rental_uris":{"android":"levelo://app?vid=28d28e1d-393f-4a65-a45c-16f542f782e9","ios":"levelo://app?vid=28d28e1d-393f-4a65-a45c-16f542f782e9"},"vehicle_type_id":"4","last_reported":1741892848,"current_range_meters":4000,"station_id":"ce4bh692rcd13ifvqea0","pricing_plan_id":"cebpf4jnsgd1na2vs0mg"},{"bike_id":"90644266-651a-438e-837e-72138ee04570","system_id":"levelo_inurba_marseille","lat":43.27811,"lon":5.40722,"is_reserved":false,"is_disabled":false,"rental_uris":{"android":"levelo://app?vid=90644266-651a-438e-837e-72138ee04570","ios":"levelo://app?vid=90644266-651a-438e-837e-72138ee04570"},"vehicle_type_id":"4","last_reported":1741892848,"current_range_meters":4000,"station_id":"ce4bhnh2rcd13ifvqgtg","pricing_plan_id":"cebpf4jnsgd1na2vs0mg"},{"bike_id":"55b87d18-0004-462b-9483-15da611a00ce","system_id":"levelo_inurba_marseille","lat":43.31319,"lon":5.3968,"is_reserved":false,"is_disabled":false,"rental_uris":{"android":"levelo://app?vid=55b87d18-0004-462b-9483-15da611a00ce","ios":"levelo://app?vid=55b87d18-0004-462b-9483-15da611a00ce"},"vehicle_type_id":"4","last_reported":1741892848,"current_range_meters":4000,"station_id":"ce4bgvp2rcd13ifvqcu0","pricing_plan_id":"cebpf4jnsgd1na2vs0mg"},{"bike_id":"da160129-cfe2-47ec-a355-699d09c1f1fb","system_id":"levelo_inurba_marseille","lat":43.27809,"lon":5.40716,"is_reserved":false,"is_disabled":false,"rental_uris":{"android":"levelo://app?vid=da160129-cfe2-47ec-a355-699d09c1f1fb","ios":"levelo://app?vid=da160129-cfe2-47ec-a355-699d09c1f1fb"},"vehicle_type_id":"4","last_reported":1741892848,"current_range_meters":4000,"station_id":"ce4bhnh2rcd13ifvqgtg","pricing_plan_id":"cebpf4jnsgd1na2vs0mg"},{"bike_id":"ede9cdcd-d1e4-4cc0-90bd-cfb7cc135dc4","system_id":"levelo_inurba_marseille","lat":43.24185,"lon":5.39722,"is_reserved":false,"is_disabled":true,"rental_uris":{"android":"levelo://app?vid=ede9cdcd-d1e4-4cc0-90bd-cfb7cc135dc4","ios":"levelo://app?vid=ede9cdcd-d1e4-4cc0-90bd-cfb7cc135dc4"},"vehicle_type_id":"4","last_reported":1741892848,"current_range_meters":4400,"station_id":"ce4bhn12rcd13ifvqgpg","pricing_plan_id":"cebpf4jnsgd1na2vs0mg"},{"bike_id":"e65f842e-69b2-436a-a201-83a06add3a55","system_id":"levelo_inurba_marseille","lat":43.25061,"lon":5.3891,"is_reserved":false,"is_disabled":false,"rental_uris":{"android":"levelo://app?vid=e65f842e-69b2-436a-a201-83a06add3a55","ios":"levelo://app?vid=e65f842e-69b2-436a-a201-83a06add3a55"},"vehicle_type_id":"4","last_reported":1741892848,"current_range_meters":4400,"station_id":"","pricing_plan_id":"cebpf4jnsgd1na2vs0mg"},{"bike_id":"75625b0c-c572-4b58-aa40-f86caee3ebad","system_id":"levelo_inurba_marseille","lat":43.31122,"lon":5.37766,"is_reserved":false,"is_disabled":false,"rental_uris":{"android":"levelo://app?vid=75625b0c-c572-4b58-aa40-f86caee3ebad","ios":"levelo://app?vid=75625b0c-c572-4b58-aa40-f86caee3ebad"},"vehicle_type_id":"4","last_reported":1741892848,"current_range_meters":4400,"station_id":"ce4bgt92rcd13ifvqcg0","pricing_plan_id":"cebpf4jnsgd1na2vs0mg"},{"bike_id":"99c1c5b5-f458-405d-b41b-bcd72a54b83f","system_id":"levelo_inurba_marseille","lat":43.28724,"lon":5.36091,"is_reserved":false,"is_disabled":false,"rental_uris":{"android":"levelo://app?vid=99c1c5b5-f458-405d-b41b-bcd72a54b83f","ios":"levelo://app?vid=99c1c5b5-f458-405d-b41b-bcd72a54b83f"},"vehicle_type_id":"4","last_reported":1741892848,"current_range_meters":4400,"station_id":"cki0cbj6b192h4jlfktg","pricing_plan_id":"cebpf4jnsgd1na2vs0mg"},{"bike_id":"02ea7051-967b-4eb9-8958-4a2aff215087","system_id":"levelo_inurba_marseille","lat":43.28926,"lon":5.3664,"is_reserved":false,"is_disabled":false,"rental_uris":{"android":"levelo://app?vid=02ea7051-967b-4eb9-8958-4a2aff215087","ios":"levelo://app?vid=02ea7051-967b-4eb9-8958-4a2aff215087"},"vehicle_type_id":"4","last_reported":1741892848,"current_range_meters":4400,"station_id":"ce4bgs92rcd13ifvqcc0","pricing_plan_id":"cebpf4jnsgd1na2vs0mg"},{"bike_id":"a3fd3e07-65be-4f58-bc5e-6ab23c59edbb","system_id":"levelo_inurba_marseille","lat":43.27051,"lon":5.40263,"is_reserved":false,"is_disabled":false,"rental_uris":{"android":"levelo://app?vid=a3fd3e07-65be-4f58-bc5e-6ab23c59edbb","ios":"levelo://app?vid=a3fd3e07-65be-4f58-bc5e-6ab23c59edbb"},"vehicle_type_id":"4","last_reported":1741892848,"current_range_meters":4400,"station_id":"ce4bhk92rcd13ifvqgc0","pricing_plan_id":"cebpf4jnsgd1na2vs0mg"},{"bike_id":"3ae3dac8-ca57-45e6-9fee-399e33e47d61","system_id":"levelo_inurba_marseille","lat":43.29774,"lon":5.39342,"is_reserved":false,"is_disabled":false,"rental_uris":{"android":"levelo://app?vid=3ae3dac8-ca57-45e6-9fee-399e33e47d61","ios":"levelo://app?vid=3ae3dac8-ca57-45e6-9fee-399e33e47d61"},"vehicle_type_id":"4","last_reported":1741892848,"current_range_meters":4400,"station_id":"chh1huq6cuj3fo74tm60","pricing_plan_id":"cebpf4jnsgd1na2vs0mg"},{"bike_id":"8f9307ba-8c01-4651-8705-2adb9979a637","system_id":"levelo_inurba_marseille","lat":43.30417,"lon":5.38886,"is_reserved":false,"is_disabled":false,"rental_uris":{"android":"levelo://app?vid=8f9307ba-8c01-4651-8705-2adb9979a637","ios":"levelo://app?vid=8f9307ba-8c01-4651-8705-2adb9979a637"},"vehicle_type_id":"4","last_reported":1741892848,"current_range_meters":4800,"station_id":"ce4bgk12rcd13ifvqbi0","pricing_plan_id":"cebpf4jnsgd1na2vs0mg"},{"bike_id":"c90a3d95-3a8f-4d8e-96a4-e0902f8fa5e2","system_id":"levelo_inurba_marseille","lat":43.31075,"lon":5.37497,"is_reserved":false,"is_disabled":false,"rental_uris":{"android":"levelo://app?vid=c90a3d95-3a8f-4d8e-96a4-e0902f8fa5e2","ios":"levelo://app?vid=c90a3d95-3a8f-4d8e-96a4-e0902f8fa5e2"},"vehicle_type_id":"4","last_reported":1741892848,"current_range_meters":4800,"station_id":"","pricing_plan_id":"cebpf4jnsgd1na2vs0mg"},{"bike_id":"ad9b0f87-9588-44ab-a029-ddd0b9eea753","system_id":"levelo_inurba_marseille","lat":43.29859,"lon":5.39743,"is_reserved":false,"is_disabled":false,"rental_uris":{"android":"levelo://app?vid=ad9b0f87-9588-44ab-a029-ddd0b9eea753","ios":"levelo://app?vid=ad9b0f87-9588-44ab-a029-ddd0b9eea753"},"vehicle_type_id":"4","last_reported":1741892848,"current_range_meters":4800,"station_id":"ce4bh0h2rcd13ifvqd50","pricing_plan_id":"cebpf4jnsgd1na2vs0mg"},{"bike_id":"51cb83c2-ce4b-4581-9fcc-7e9bd4a0cd03","system_id":"levelo_inurba_marseille","lat":43.30236,"lon":5.40043,"is_reserved":false,"is_disabled":false,"rental_uris":{"android":"levelo://app?vid=51cb83c2-ce4b-4581-9fcc-7e9bd4a0cd03","ios":"levelo://app?vid=51cb83c2-ce4b-4581-9fcc-7e9bd4a0cd03"},"vehicle_type_id":"4","last_reported":1741892848,"current_range_meters":4800,"station_id":"ce4bgvh2rcd13ifvqcs0","pricing_plan_id":"cebpf4jnsgd1na2vs0mg"},{"bike_id":"409c6cee-b0e3-440d-a6cd-57a71608f18f","system_id":"levelo_inurba_marseille","lat":43.26497,"lon":5.39551,"is_reserved":false,"is_disabled":false,"rental_uris":{"android":"levelo://app?vid=409c6cee-b0e3-440d-a6cd-57a71608f18f","ios":"levelo://app?vid=409c6cee-b0e3-440d-a6cd-57a71608f18f"},"vehicle_type_id":"4","last_reported":1741892848,"current_range_meters":4800,"station_id":"ce4bhi12rcd13ifvqfq0","pricing_plan_id":"cebpf4jnsgd1na2vs0mg"},{"bike_id":"014841bb-3e19-489e-b32e-06cae46fc740","system_id":"levelo_inurba_marseille","lat":43.31761,"lon":5.39022,"is_reserved":false,"is_disabled":false,"rental_uris":{"android":"levelo://app?vid=014841bb-3e19-489e-b32e-06cae46fc740","ios":"levelo://app?vid=014841bb-3e19-489e-b32e-06cae46fc740"},"vehicle_type_id":"4","last_reported":1741892848,"current_range_meters":4800,"station_id":"ce4bhqp2rcd13ifvqhng","pricing_plan_id":"cebpf4jnsgd1na2vs0mg"},{"bike_id":"db15fbfd-f47d-4001-8e32-720d63f11405","system_id":"levelo_inurba_marseille","lat":43.33396,"lon":5.40037,"is_reserved":false,"is_disabled":false,"rental_uris":{"android":"levelo://app?vid=db15fbfd-f47d-4001-8e32-720d63f11405","ios":"levelo://app?vid=db15fbfd-f47d-4001-8e32-720d63f11405"},"vehicle_type_id":"4","last_reported":1741892848,"current_range_meters":5600,"station_id":"","pricing_plan_id":"cebpf4jnsgd1na2vs0mg"},{"bike_id":"0e1454f0-c501-449b-b78c-ddfc8f4d9aab","system_id":"levelo_inurba_marseille","lat":43.33768,"lon":5.3749,"is_reserved":false,"is_disabled":false,"rental_uris":{"android":"levelo://app?vid=0e1454f0-c501-449b-b78c-ddfc8f4d9aab","ios":"levelo://app?vid=0e1454f0-c501-449b-b78c-ddfc8f4d9aab"},"vehicle_type_id":"4","last_reported":1741892848,"current_range_meters":5600,"station_id":"","pricing_plan_id":"cebpf4jnsgd1na2vs0mg"},{"bike_id":"2a84babd-c5d8-4061-b368-e698eb6c790b","system_id":"levelo_inurba_marseille","lat":43.24551,"lon":5.39521,"is_reserved":false,"is_disabled":false,"rental_uris":{"android":"levelo://app?vid=2a84babd-c5d8-4061-b368-e698eb6c790b","ios":"levelo://app?vid=2a84babd-c5d8-4061-b368-e698eb6c790b"},"vehicle_type_id":"4","last_reported":1741892848,"current_range_meters":5600,"station_id":"ce4bhlp2rcd13ifvqgjg","pricing_plan_id":"cebpf4jnsgd1na2vs0mg"},{"bike_id":"c0062d9b-1f26-4a71-8712-49686dc97146","system_id":"levelo_inurba_marseille","lat":43.289721,"lon":5.378406,"is_reserved":false,"is_disabled":false,"rental_uris":{"android":"levelo://app?vid=c0062d9b-1f26-4a71-8712-49686dc97146","ios":"levelo://app?vid=c0062d9b-1f26-4a71-8712-49686dc97146"},"vehicle_type_id":"4","last_reported":1741892848,"current_range_meters":5600,"station_id":"ce4bhjp2rcd13ifvqga0","pricing_plan_id":"cebpf4jnsgd1na2vs0mg"},{"bike_id":"9e14a799-51b1-4bcf-a09a-5227f59eea2c","system_id":"levelo_inurba_marseille","lat":43.23158,"lon":5.43702,"is_reserved":false,"is_disabled":false,"rental_uris":{"android":"levelo://app?vid=9e14a799-51b1-4bcf-a09a-5227f59eea2c","ios":"levelo://app?vid=9e14a799-51b1-4bcf-a09a-5227f59eea2c"},"vehicle_type_id":"4","last_reported":1741892848,"current_range_meters":5600,"station_id":"ce4bhmp2rcd13ifvqgog","pricing_plan_id":"cebpf4jnsgd1na2vs0mg"},{"bike_id":"3a6f4a08-7097-425e-ba9b-503eb294df3b","system_id":"levelo_inurba_marseille","lat":43.27791,"lon":5.40704,"is_reserved":false,"is_disabled":false,"rental_uris":{"android":"levelo://app?vid=3a6f4a08-7097-425e-ba9b-503eb294df3b","ios":"levelo://app?vid=3a6f4a08-7097-425e-ba9b-503eb294df3b"},"vehicle_type_id":"4","last_reported":1741892848,"current_range_meters":5600,"station_id":"ce4bhnh2rcd13ifvqgtg","pricing_plan_id":"cebpf4jnsgd1na2vs0mg"},{"bike_id":"cb567277-cc92-473f-ba27-13f9d7cbb613","system_id":"levelo_inurba_marseille","lat":43.25009,"lon":5.38913,"is_reserved":false,"is_disabled":false,"rental_uris":{"android":"levelo://app?vid=cb567277-cc92-473f-ba27-13f9d7cbb613","ios":"levelo://app?vid=cb567277-cc92-473f-ba27-13f9d7cbb613"},"vehicle_type_id":"4","last_reported":1741892848,"current_range_meters":5600,"station_id":"ce4bhgp2rcd13ifvqfd0","pricing_plan_id":"cebpf4jnsgd1na2vs0mg"},{"bike_id":"dc1a11bb-8cbd-4e87-91f7-12959996de29","system_id":"levelo_inurba_marseille","lat":43.27814,"lon":5.40725,"is_reserved":false,"is_disabled":false,"rental_uris":{"android":"levelo://app?vid=dc1a11bb-8cbd-4e87-91f7-12959996de29","ios":"levelo://app?vid=dc1a11bb-8cbd-4e87-91f7-12959996de29"},"vehicle_type_id":"4","last_reported":1741892848,"current_range_meters":6000,"station_id":"ce4bhnh2rcd13ifvqgtg","pricing_plan_id":"cebpf4jnsgd1na2vs0mg"},{"bike_id":"22d6ec44-6fdb-4724-8554-c293c64a164e","system_id":"levelo_inurba_marseille","lat":43.27494,"lon":5.42472,"is_reserved":false,"is_disabled":false,"rental_uris":{"android":"levelo://app?vid=22d6ec44-6fdb-4724-8554-c293c64a164e","ios":"levelo://app?vid=22d6ec44-6fdb-4724-8554-c293c64a164e"},"vehicle_type_id":"4","last_reported":1741892848,"current_range_meters":6000,"station_id":"ce4bhn92rcd13ifvqgrg","pricing_plan_id":"cebpf4jnsgd1na2vs0mg"},{"bike_id":"616a435f-89dc-43cc-870e-cd4d9550de2e","system_id":"levelo_inurba_marseille","lat":43.31411,"lon":5.37547,"is_reserved":false,"is_disabled":false,"rental_uris":{"android":"levelo://app?vid=616a435f-89dc-43cc-870e-cd4d9550de2e","ios":"levelo://app?vid=616a435f-89dc-43cc-870e-cd4d9550de2e"},"vehicle_type_id":"4","last_reported":1741892848,"current_range_meters":6000,"station_id":"","pricing_plan_id":"cebpf4jnsgd1na2vs0mg"},{"bike_id":"13ef6579-75e6-473d-b400-b41da0686183","system_id":"levelo_inurba_marseille","lat":43.28043,"lon":5.36943,"is_reserved":false,"is_disabled":false,"rental_uris":{"android":"levelo://app?vid=13ef6579-75e6-473d-b400-b41da0686183","ios":"levelo://app?vid=13ef6579-75e6-473d-b400-b41da0686183"},"vehicle_type_id":"4","last_reported":1741892848,"current_range_meters":6000,"station_id":"ce4bha12rcd13ifvqef0","pricing_plan_id":"cebpf4jnsgd1na2vs0mg"},{"bike_id":"2983cd67-b878-442a-a5f1-edd993b911fa","system_id":"levelo_inurba_marseille","lat":43.26486,"lon":5.39573,"is_reserved":false,"is_disabled":false,"rental_uris":{"android":"levelo://app?vid=2983cd67-b878-442a-a5f1-edd993b911fa","ios":"levelo://app?vid=2983cd67-b878-442a-a5f1-edd993b911fa"},"vehicle_type_id":"4","last_reported":1741892848,"current_range_meters":6000,"station_id":"ce4bhi12rcd13ifvqfq0","pricing_plan_id":"cebpf4jnsgd1na2vs0mg"},{"bike_id":"86863c3b-26d2-4646-815d-0597b187b81c","system_id":"levelo_inurba_marseille","lat":43.2885,"lon":5.35857,"is_reserved":false,"is_disabled":false,"rental_uris":{"android":"levelo://app?vid=86863c3b-26d2-4646-815d-0597b187b81c","ios":"levelo://app?vid=86863c3b-26d2-4646-815d-0597b187b81c"},"vehicle_type_id":"4","last_reported":1741892848,"current_range_meters":6400,"station_id":"ce4bhb12rcd13ifvqem0","pricing_plan_id":"cebpf4jnsgd1na2vs0mg"},{"bike_id":"e872f5ef-8b73-4001-8ad4-057654930544","system_id":"levelo_inurba_marseille","lat":43.302306,"lon":5.400412,"is_reserved":false,"is_disabled":true,"rental_uris":{"android":"levelo://app?vid=e872f5ef-8b73-4001-8ad4-057654930544","ios":"levelo://app?vid=e872f5ef-8b73-4001-8ad4-057654930544"},"vehicle_type_id":"4","last_reported":1741892848,"current_range_meters":6400,"station_id":"ce4bgvh2rcd13ifvqcs0","pricing_plan_id":"cebpf4jnsgd1na2vs0mg"},{"bike_id":"c12974bd-5be4-4597-9958-b168354cb86d","system_id":"levelo_inurba_marseille","lat":43.28722,"lon":5.36089,"is_reserved":false,"is_disabled":false,"rental_uris":{"android":"levelo://app?vid=c12974bd-5be4-4597-9958-b168354cb86d","ios":"levelo://app?vid=c12974bd-5be4-4597-9958-b168354cb86d"},"vehicle_type_id":"4","last_reported":1741892848,"current_range_meters":6400,"station_id":"cki0cbj6b192h4jlfktg","pricing_plan_id":"cebpf4jnsgd1na2vs0mg"},{"bike_id":"32aebc3a-14c2-412a-9dd1-139c73270c7f","system_id":"levelo_inurba_marseille","lat":43.25017,"lon":5.3893,"is_reserved":false,"is_disabled":false,"rental_uris":{"android":"levelo://app?vid=32aebc3a-14c2-412a-9dd1-139c73270c7f","ios":"levelo://app?vid=32aebc3a-14c2-412a-9dd1-139c73270c7f"},"vehicle_type_id":"4","last_reported":1741892848,"current_range_meters":6400,"station_id":"ce4bhgp2rcd13ifvqfd0","pricing_plan_id":"cebpf4jnsgd1na2vs0mg"},{"bike_id":"57dd54e3-4a62-4d62-a03b-5320a176e579","system_id":"levelo_inurba_marseille","lat":43.24174,"lon":5.36389,"is_reserved":false,"is_disabled":false,"rental_uris":{"android":"levelo://app?vid=57dd54e3-4a62-4d62-a03b-5320a176e579","ios":"levelo://app?vid=57dd54e3-4a62-4d62-a03b-5320a176e579"},"vehicle_type_id":"4","last_reported":1741892848,"current_range_meters":6400,"station_id":"cpo36qri1sfpv3e86is0","pricing_plan_id":"cebpf4jnsgd1na2vs0mg"},{"bike_id":"0febeb79-541a-4896-8439-fa1b62e37bc0","system_id":"levelo_inurba_marseille","lat":43.29623,"lon":5.37161,"is_reserved":false,"is_disabled":false,"rental_uris":{"android":"levelo://app?vid=0febeb79-541a-4896-8439-fa1b62e37bc0","ios":"levelo://app?vid=0febeb79-541a-4896-8439-fa1b62e37bc0"},"vehicle_type_id":"4","last_reported":1741892848,"current_range_meters":6400,"station_id":"ce4bgnh2rcd13ifvqc0g","pricing_plan_id":"cebpf4jnsgd1na2vs0mg"},{"bike_id":"156c0eab-4bc1-46aa-9366-7c764416cfd1","system_id":"levelo_inurba_marseille","lat":43.31334,"lon":5.39707,"is_reserved":false,"is_disabled":false,"rental_uris":{"android":"levelo://app?vid=156c0eab-4bc1-46aa-9366-7c764416cfd1","ios":"levelo://app?vid=156c0eab-4bc1-46aa-9366-7c764416cfd1"},"vehicle_type_id":"4","last_reported":1741892848,"current_range_meters":6400,"station_id":"ce4bgvp2rcd13ifvqcu0","pricing_plan_id":"cebpf4jnsgd1na2vs0mg"},{"bike_id":"196af0f0-ec08-4989-85e5-5804a2d6b2e4","system_id":"levelo_inurba_marseille","lat":43.29908,"lon":5.43654,"is_reserved":false,"is_disabled":false,"rental_uris":{"android":"levelo://app?vid=196af0f0-ec08-4989-85e5-5804a2d6b2e4","ios":"levelo://app?vid=196af0f0-ec08-4989-85e5-5804a2d6b2e4"},"vehicle_type_id":"4","last_reported":1741892848,"current_range_meters":6400,"station_id":"ce4bhpp2rcd13ifvqhfg","pricing_plan_id":"cebpf4jnsgd1na2vs0mg"},{"bike_id":"d0f37a2d-5920-4a00-ab9e-56f97581bf07","system_id":"levelo_inurba_marseille","lat":43.27818,"lon":5.40706,"is_reserved":false,"is_disabled":false,"rental_uris":{"android":"levelo://app?vid=d0f37a2d-5920-4a00-ab9e-56f97581bf07","ios":"levelo://app?vid=d0f37a2d-5920-4a00-ab9e-56f97581bf07"},"vehicle_type_id":"4","last_reported":1741892848,"current_range_meters":6800,"station_id":"ce4bhnh2rcd13ifvqgtg","pricing_plan_id":"cebpf4jnsgd1na2vs0mg"},{"bike_id":"f6c538a2-1c80-491d-9917-1601a8e252f3","system_id":"levelo_inurba_marseille","lat":43.28938,"lon":5.38425,"is_reserved":false,"is_disabled":false,"rental_uris":{"android":"levelo://app?vid=f6c538a2-1c80-491d-9917-1601a8e252f3","ios":"levelo://app?vid=f6c538a2-1c80-491d-9917-1601a8e252f3"},"vehicle_type_id":"4","last_reported":1741892848,"current_range_meters":6800,"station_id":"ce4bh612rcd13ifvqe6g","pricing_plan_id":"cebpf4jnsgd1na2vs0mg"},{"bike_id":"05e8cc25-25f3-46ac-8f5f-38eae408bf93","system_id":"levelo_inurba_marseille","lat":43.31324,"lon":5.39683,"is_reserved":false,"is_disabled":false,"rental_uris":{"android":"levelo://app?vid=05e8cc25-25f3-46ac-8f5f-38eae408bf93","ios":"levelo://app?vid=05e8cc25-25f3-46ac-8f5f-38eae408bf93"},"vehicle_type_id":"4","last_reported":1741892848,"current_range_meters":6800,"station_id":"ce4bgvp2rcd13ifvqcu0","pricing_plan_id":"cebpf4jnsgd1na2vs0mg"},{"bike_id":"56b3543b-50d7-4c60-92c5-636769dc1933","system_id":"levelo_inurba_marseille","lat":43.30766,"lon":5.37665,"is_reserved":false,"is_disabled":false,"rental_uris":{"android":"levelo://app?vid=56b3543b-50d7-4c60-92c5-636769dc1933","ios":"levelo://app?vid=56b3543b-50d7-4c60-92c5-636769dc1933"},"vehicle_type_id":"4","last_reported":1741892848,"current_range_meters":6800,"station_id":"ce4bgv92rcd13ifvqcq0","pricing_plan_id":"cebpf4jnsgd1na2vs0mg"},{"bike_id":"7f97dab3-6641-4c6a-9b12-3940cae11793","system_id":"levelo_inurba_marseille","lat":43.24992,"lon":5.38922,"is_reserved":false,"is_disabled":false,"rental_uris":{"android":"levelo://app?vid=7f97dab3-6641-4c6a-9b12-3940cae11793","ios":"levelo://app?vid=7f97dab3-6641-4c6a-9b12-3940cae11793"},"vehicle_type_id":"4","last_reported":1741892848,"current_range_meters":6800,"station_id":"ce4bhgp2rcd13ifvqfd0","pricing_plan_id":"cebpf4jnsgd1na2vs0mg"},{"bike_id":"2fe54254-5b11-4939-bb74-6fb31c1295ea","system_id":"levelo_inurba_marseille","lat":43.22926,"lon":5.35365,"is_reserved":false,"is_disabled":false,"rental_uris":{"android":"levelo://app?vid=2fe54254-5b11-4939-bb74-6fb31c1295ea","ios":"levelo://app?vid=2fe54254-5b11-4939-bb74-6fb31c1295ea"},"vehicle_type_id":"4","last_reported":1741892848,"current_range_meters":6800,"station_id":"cpo3532slgdg3j2ikp40","pricing_plan_id":"cebpf4jnsgd1na2vs0mg"},{"bike_id":"8ca720cf-8cc7-4201-a29c-e07b0ffda00a","system_id":"levelo_inurba_marseille","lat":43.23196,"lon":5.39977,"is_reserved":false,"is_disabled":false,"rental_uris":{"android":"levelo://app?vid=8ca720cf-8cc7-4201-a29c-e07b0ffda00a","ios":"levelo://app?vid=8ca720cf-8cc7-4201-a29c-e07b0ffda00a"},"vehicle_type_id":"4","last_reported":1741892848,"current_range_meters":6800,"station_id":"ce4bhn12rcd13ifvqgqg","pricing_plan_id":"cebpf4jnsgd1na2vs0mg"},{"bike_id":"8e17715f-c74e-43f6-ada7-f6c63b953dbf","system_id":"levelo_inurba_marseille","lat":43.31025,"lon":5.37548,"is_reserved":false,"is_disabled":false,"rental_uris":{"android":"levelo://app?vid=8e17715f-c74e-43f6-ada7-f6c63b953dbf","ios":"levelo://app?vid=8e17715f-c74e-43f6-ada7-f6c63b953dbf"},"vehicle_type_id":"4","last_reported":1741892848,"current_range_meters":6800,"station_id":"","pricing_plan_id":"cebpf4jnsgd1na2vs0mg"},{"bike_id":"fa62e7ec-7147-46c0-be4f-553f88a41227","system_id":"levelo_inurba_marseille","lat":43.22936,"lon":5.35376,"is_reserved":false,"is_disabled":false,"rental_uris":{"android":"levelo://app?vid=fa62e7ec-7147-46c0-be4f-553f88a41227","ios":"levelo://app?vid=fa62e7ec-7147-46c0-be4f-553f88a41227"},"vehicle_type_id":"4","last_reported":1741892848,"current_range_meters":6800,"station_id":"cpo3532slgdg3j2ikp40","pricing_plan_id":"cebpf4jnsgd1na2vs0mg"},{"bike_id":"28cd2e82-5ec9-4af4-82a6-0279e5cdf721","system_id":"levelo_inurba_marseille","lat":43.27812,"lon":5.40725,"is_reserved":false,"is_disabled":false,"rental_uris":{"android":"levelo://app?vid=28cd2e82-5ec9-4af4-82a6-0279e5cdf721","ios":"levelo://app?vid=28cd2e82-5ec9-4af4-82a6-0279e5cdf721"},"vehicle_type_id":"4","last_reported":1741892848,"current_range_meters":6800,"station_id":"ce4bhnh2rcd13ifvqgtg","pricing_plan_id":"cebpf4jnsgd1na2vs0mg"},{"bike_id":"85f7cad0-0ead-4423-a64f-d65b20926ce3","system_id":"levelo_inurba_marseille","lat":43.28678,"lon":5.38661,"is_reserved":false,"is_disabled":false,"rental_uris":{"android":"levelo://app?vid=85f7cad0-0ead-4423-a64f-d65b20926ce3","ios":"levelo://app?vid=85f7cad0-0ead-4423-a64f-d65b20926ce3"},"vehicle_type_id":"4","last_reported":1741892848,"current_range_meters":6800,"station_id":"ce4bh492rcd13ifvqdug","pricing_plan_id":"cebpf4jnsgd1na2vs0mg"},{"bike_id":"cce5ede7-10c9-4560-8810-b0d1ec12cf88","system_id":"levelo_inurba_marseille","lat":43.28448,"lon":5.35902,"is_reserved":false,"is_disabled":false,"rental_uris":{"android":"levelo://app?vid=cce5ede7-10c9-4560-8810-b0d1ec12cf88","ios":"levelo://app?vid=cce5ede7-10c9-4560-8810-b0d1ec12cf88"},"vehicle_type_id":"4","last_reported":1741892848,"current_range_meters":6800,"station_id":"ce4bhah2rcd13ifvqei0","pricing_plan_id":"cebpf4jnsgd1na2vs0mg"},{"bike_id":"e2af06ca-a3c6-4d1b-bd0f-78546e54d698","system_id":"levelo_inurba_marseille","lat":43.27419,"lon":5.39411,"is_reserved":false,"is_disabled":false,"rental_uris":{"android":"levelo://app?vid=e2af06ca-a3c6-4d1b-bd0f-78546e54d698","ios":"levelo://app?vid=e2af06ca-a3c6-4d1b-bd0f-78546e54d698"},"vehicle_type_id":"4","last_reported":1741892848,"current_range_meters":6800,"station_id":"ce4bhdp2rcd13ifvqf20","pricing_plan_id":"cebpf4jnsgd1na2vs0mg"},{"bike_id":"d5ae4600-476e-4c8a-b248-76c73ec9f040","system_id":"levelo_inurba_marseille","lat":43.25043,"lon":5.38906,"is_reserved":false,"is_disabled":false,"rental_uris":{"android":"levelo://app?vid=d5ae4600-476e-4c8a-b248-76c73ec9f040","ios":"levelo://app?vid=d5ae4600-476e-4c8a-b248-76c73ec9f040"},"vehicle_type_id":"4","last_reported":1741892848,"current_range_meters":7200,"station_id":"ce4bhgp2rcd13ifvqfd0","pricing_plan_id":"cebpf4jnsgd1na2vs0mg"},{"bike_id":"8e4d589b-f0bc-48ce-9828-cd5a8970424d","system_id":"levelo_inurba_marseille","lat":43.28684,"lon":5.3868,"is_reserved":false,"is_disabled":false,"rental_uris":{"android":"levelo://app?vid=8e4d589b-f0bc-48ce-9828-cd5a8970424d","ios":"levelo://app?vid=8e4d589b-f0bc-48ce-9828-cd5a8970424d"},"vehicle_type_id":"4","last_reported":1741892848,"current_range_meters":7200,"station_id":"ce4bh492rcd13ifvqdug","pricing_plan_id":"cebpf4jnsgd1na2vs0mg"},{"bike_id":"81ac0329-83b7-4a31-b8d0-f379d17c3e01","system_id":"levelo_inurba_marseille","lat":43.323407,"lon":5.40626,"is_reserved":false,"is_disabled":false,"rental_uris":{"android":"levelo://app?vid=81ac0329-83b7-4a31-b8d0-f379d17c3e01","ios":"levelo://app?vid=81ac0329-83b7-4a31-b8d0-f379d17c3e01"},"vehicle_type_id":"4","last_reported":1741892848,"current_range_meters":7200,"station_id":"ce4bhq92rcd13ifvqhjg","pricing_plan_id":"cebpf4jnsgd1na2vs0mg"},{"bike_id":"3248f2a4-d0ac-4e97-8558-71c1072fd105","system_id":"levelo_inurba_marseille","lat":43.31111,"lon":5.37772,"is_reserved":false,"is_disabled":false,"rental_uris":{"android":"levelo://app?vid=3248f2a4-d0ac-4e97-8558-71c1072fd105","ios":"levelo://app?vid=3248f2a4-d0ac-4e97-8558-71c1072fd105"},"vehicle_type_id":"4","last_reported":1741892848,"current_range_meters":7200,"station_id":"ce4bgt92rcd13ifvqcg0","pricing_plan_id":"cebpf4jnsgd1na2vs0mg"},{"bike_id":"bac494fc-e2d3-4216-96dc-19760a31af9c","system_id":"levelo_inurba_marseille","lat":43.29307,"lon":5.37179,"is_reserved":false,"is_disabled":false,"rental_uris":{"android":"levelo://app?vid=bac494fc-e2d3-4216-96dc-19760a31af9c","ios":"levelo://app?vid=bac494fc-e2d3-4216-96dc-19760a31af9c"},"vehicle_type_id":"4","last_reported":1741892848,"current_range_meters":7200,"station_id":"ce4bgh92rcd13ifvqb40","pricing_plan_id":"cebpf4jnsgd1na2vs0mg"},{"bike_id":"555b00c1-483f-43e0-b255-f71db3cd2d05","system_id":"levelo_inurba_marseille","lat":43.30307,"lon":5.39209,"is_reserved":false,"is_disabled":false,"rental_uris":{"android":"levelo://app?vid=555b00c1-483f-43e0-b255-f71db3cd2d05","ios":"levelo://app?vid=555b00c1-483f-43e0-b255-f71db3cd2d05"},"vehicle_type_id":"4","last_reported":1741892848,"current_range_meters":7200,"station_id":"ce4bgkh2rcd13ifvqbk0","pricing_plan_id":"cebpf4jnsgd1na2vs0mg"},{"bike_id":"d7cf3da4-03cf-4eae-b183-47670a6b872f","system_id":"levelo_inurba_marseille","lat":43.23191,"lon":5.35556,"is_reserved":false,"is_disabled":false,"rental_uris":{"android":"levelo://app?vid=d7cf3da4-03cf-4eae-b183-47670a6b872f","ios":"levelo://app?vid=d7cf3da4-03cf-4eae-b183-47670a6b872f"},"vehicle_type_id":"4","last_reported":1741892848,"current_range_meters":7200,"station_id":"ce4bhu92rcd13ifvqi70","pricing_plan_id":"cebpf4jnsgd1na2vs0mg"},{"bike_id":"282af5fb-8bbf-48fc-9036-e294f0d7b506","system_id":"levelo_inurba_marseille","lat":43.30493,"lon":5.36897,"is_reserved":false,"is_disabled":false,"rental_uris":{"android":"levelo://app?vid=282af5fb-8bbf-48fc-9036-e294f0d7b506","ios":"levelo://app?vid=282af5fb-8bbf-48fc-9036-e294f0d7b506"},"vehicle_type_id":"4","last_reported":1741892848,"current_range_meters":7200,"station_id":"","pricing_plan_id":"cebpf4jnsgd1na2vs0mg"},{"bike_id":"20860d70-4363-45ee-8ffa-fe8bd322a211","system_id":"levelo_inurba_marseille","lat":43.28037,"lon":5.36953,"is_reserved":false,"is_disabled":false,"rental_uris":{"android":"levelo://app?vid=20860d70-4363-45ee-8ffa-fe8bd322a211","ios":"levelo://app?vid=20860d70-4363-45ee-8ffa-fe8bd322a211"},"vehicle_type_id":"4","last_reported":1741892848,"current_range_meters":7200,"station_id":"ce4bha12rcd13ifvqef0","pricing_plan_id":"cebpf4jnsgd1na2vs0mg"},{"bike_id":"a081f3db-b088-489c-9bd0-f40a86452d9a","system_id":"levelo_inurba_marseille","lat":43.26485,"lon":5.39562,"is_reserved":false,"is_disabled":false,"rental_uris":{"android":"levelo://app?vid=a081f3db-b088-489c-9bd0-f40a86452d9a","ios":"levelo://app?vid=a081f3db-b088-489c-9bd0-f40a86452d9a"},"vehicle_type_id":"4","last_reported":1741892848,"current_range_meters":7200,"station_id":"ce4bhi12rcd13ifvqfq0","pricing_plan_id":"cebpf4jnsgd1na2vs0mg"},{"bike_id":"e7d7c7e9-94bc-4c89-a593-7321207abf25","system_id":"levelo_inurba_marseille","lat":43.291917,"lon":5.393328,"is_reserved":false,"is_disabled":false,"rental_uris":{"android":"levelo://app?vid=e7d7c7e9-94bc-4c89-a593-7321207abf25","ios":"levelo://app?vid=e7d7c7e9-94bc-4c89-a593-7321207abf25"},"vehicle_type_id":"4","last_reported":1741892848,"current_range_meters":7200,"station_id":"ce4bgqh2rcd13ifvqc4g","pricing_plan_id":"cebpf4jnsgd1na2vs0mg"},{"bike_id":"51b99b1b-ed96-4c00-99a4-3adda6491063","system_id":"levelo_inurba_marseille","lat":43.28453,"lon":5.3589,"is_reserved":false,"is_disabled":false,"rental_uris":{"android":"levelo://app?vid=51b99b1b-ed96-4c00-99a4-3adda6491063","ios":"levelo://app?vid=51b99b1b-ed96-4c00-99a4-3adda6491063"},"vehicle_type_id":"4","last_reported":1741892848,"current_range_meters":7200,"station_id":"ce4bhah2rcd13ifvqei0","pricing_plan_id":"cebpf4jnsgd1na2vs0mg"},{"bike_id":"931a65f6-98be-4189-b167-a49aeaf4dc43","system_id":"levelo_inurba_marseille","lat":43.24986,"lon":5.38956,"is_reserved":false,"is_disabled":false,"rental_uris":{"android":"levelo://app?vid=931a65f6-98be-4189-b167-a49aeaf4dc43","ios":"levelo://app?vid=931a65f6-98be-4189-b167-a49aeaf4dc43"},"vehicle_type_id":"4","last_reported":1741892848,"current_range_meters":7200,"station_id":"ce4bhgp2rcd13ifvqfd0","pricing_plan_id":"cebpf4jnsgd1na2vs0mg"},{"bike_id":"378b5230-95cb-4afd-a7e0-bcc6d3073baa","system_id":"levelo_inurba_marseille","lat":43.27616,"lon":5.36117,"is_reserved":false,"is_disabled":false,"rental_uris":{"android":"levelo://app?vid=378b5230-95cb-4afd-a7e0-bcc6d3073baa","ios":"levelo://app?vid=378b5230-95cb-4afd-a7e0-bcc6d3073baa"},"vehicle_type_id":"4","last_reported":1741892848,"current_range_meters":8000,"station_id":"ce4bgj92rcd13ifvqbe0","pricing_plan_id":"cebpf4jnsgd1na2vs0mg"},{"bike_id":"a4acc583-7b24-4665-929d-fada161a91f7","system_id":"levelo_inurba_marseille","lat":43.29489,"lon":5.44425,"is_reserved":false,"is_disabled":false,"rental_uris":{"android":"levelo://app?vid=a4acc583-7b24-4665-929d-fada161a91f7","ios":"levelo://app?vid=a4acc583-7b24-4665-929d-fada161a91f7"},"vehicle_type_id":"4","last_reported":1741892848,"current_range_meters":8000,"station_id":"","pricing_plan_id":"cebpf4jnsgd1na2vs0mg"},{"bike_id":"3debf3c4-d55d-43c8-a837-1b40cb8b4f46","system_id":"levelo_inurba_marseille","lat":43.28344,"lon":5.38096,"is_reserved":false,"is_disabled":false,"rental_uris":{"android":"levelo://app?vid=3debf3c4-d55d-43c8-a837-1b40cb8b4f46","ios":"levelo://app?vid=3debf3c4-d55d-43c8-a837-1b40cb8b4f46"},"vehicle_type_id":"4","last_reported":1741892848,"current_range_meters":7200,"station_id":"ce4bh412rcd13ifvqdr0","pricing_plan_id":"cebpf4jnsgd1na2vs0mg"},{"bike_id":"db7198b7-4986-487c-848f-b6fa2eea4556","system_id":"levelo_inurba_marseille","lat":43.32007,"lon":5.38168,"is_reserved":false,"is_disabled":false,"rental_uris":{"android":"levelo://app?vid=db7198b7-4986-487c-848f-b6fa2eea4556","ios":"levelo://app?vid=db7198b7-4986-487c-848f-b6fa2eea4556"},"vehicle_type_id":"4","last_reported":1741892848,"current_range_meters":8000,"station_id":"ce4bhr12rcd13ifvqhpg","pricing_plan_id":"cebpf4jnsgd1na2vs0mg"},{"bike_id":"7e22af12-09a7-4346-be61-704585297b3e","system_id":"levelo_inurba_marseille","lat":43.30921,"lon":5.39046,"is_reserved":false,"is_disabled":false,"rental_uris":{"android":"levelo://app?vid=7e22af12-09a7-4346-be61-704585297b3e","ios":"levelo://app?vid=7e22af12-09a7-4346-be61-704585297b3e"},"vehicle_type_id":"4","last_reported":1741892848,"current_range_meters":8000,"station_id":"ce4bgup2rcd13ifvqco0","pricing_plan_id":"cebpf4jnsgd1na2vs0mg"},{"bike_id":"5a50efc6-acaa-442f-a2eb-94a14db891a7","system_id":"levelo_inurba_marseille","lat":43.3127,"lon":5.40186,"is_reserved":false,"is_disabled":false,"rental_uris":{"android":"levelo://app?vid=5a50efc6-acaa-442f-a2eb-94a14db891a7","ios":"levelo://app?vid=5a50efc6-acaa-442f-a2eb-94a14db891a7"},"vehicle_type_id":"4","last_reported":1741892848,"current_range_meters":8000,"station_id":"ce4bh092rcd13ifvqd30","pricing_plan_id":"cebpf4jnsgd1na2vs0mg"},{"bike_id":"ccde3be1-4144-427e-acc2-fed605e4915f","system_id":"levelo_inurba_marseille","lat":43.28114,"lon":5.39843,"is_reserved":false,"is_disabled":false,"rental_uris":{"android":"levelo://app?vid=ccde3be1-4144-427e-acc2-fed605e4915f","ios":"levelo://app?vid=ccde3be1-4144-427e-acc2-fed605e4915f"},"vehicle_type_id":"4","last_reported":1741892848,"current_range_meters":8000,"station_id":"","pricing_plan_id":"cebpf4jnsgd1na2vs0mg"},{"bike_id":"e1b204e9-8eb7-4ef9-b5f6-01ee6e23563c","system_id":"levelo_inurba_marseille","lat":43.29513,"lon":5.39019,"is_reserved":false,"is_disabled":false,"rental_uris":{"android":"levelo://app?vid=e1b204e9-8eb7-4ef9-b5f6-01ee6e23563c","ios":"levelo://app?vid=e1b204e9-8eb7-4ef9-b5f6-01ee6e23563c"},"vehicle_type_id":"4","last_reported":1741892848,"current_range_meters":8400,"station_id":"ce4bh3p2rcd13ifvqdp0","pricing_plan_id":"cebpf4jnsgd1na2vs0mg"},{"bike_id":"7a5158c5-a332-40d9-b718-72571efee9d7","system_id":"levelo_inurba_marseille","lat":43.28113,"lon":5.446,"is_reserved":false,"is_disabled":false,"rental_uris":{"android":"levelo://app?vid=7a5158c5-a332-40d9-b718-72571efee9d7","ios":"levelo://app?vid=7a5158c5-a332-40d9-b718-72571efee9d7"},"vehicle_type_id":"4","last_reported":1741892848,"current_range_meters":8400,"station_id":"","pricing_plan_id":"cebpf4jnsgd1na2vs0mg"},{"bike_id":"93c52f56-a548-459b-89af-fe4ff223cdb7","system_id":"levelo_inurba_marseille","lat":43.23183,"lon":5.39987,"is_reserved":false,"is_disabled":false,"rental_uris":{"android":"levelo://app?vid=93c52f56-a548-459b-89af-fe4ff223cdb7","ios":"levelo://app?vid=93c52f56-a548-459b-89af-fe4ff223cdb7"},"vehicle_type_id":"4","last_reported":1741892848,"current_range_meters":8400,"station_id":"ce4bhn12rcd13ifvqgqg","pricing_plan_id":"cebpf4jnsgd1na2vs0mg"},{"bike_id":"646b2372-b559-48b3-b87a-c986e2e1cd4d","system_id":"levelo_inurba_marseille","lat":43.25009,"lon":5.38924,"is_reserved":false,"is_disabled":false,"rental_uris":{"android":"levelo://app?vid=646b2372-b559-48b3-b87a-c986e2e1cd4d","ios":"levelo://app?vid=646b2372-b559-48b3-b87a-c986e2e1cd4d"},"vehicle_type_id":"4","last_reported":1741892848,"current_range_meters":8400,"station_id":"ce4bhgp2rcd13ifvqfd0","pricing_plan_id":"cebpf4jnsgd1na2vs0mg"},{"bike_id":"12d33aa8-d2f2-4825-bde9-dca5d397a94c","system_id":"levelo_inurba_marseille","lat":43.24802,"lon":5.37454,"is_reserved":false,"is_disabled":false,"rental_uris":{"android":"levelo://app?vid=12d33aa8-d2f2-4825-bde9-dca5d397a94c","ios":"levelo://app?vid=12d33aa8-d2f2-4825-bde9-dca5d397a94c"},"vehicle_type_id":"4","last_reported":1741892848,"current_range_meters":8400,"station_id":"ce4bhgh2rcd13ifvqfb0","pricing_plan_id":"cebpf4jnsgd1na2vs0mg"},{"bike_id":"202fc5a0-0ca0-419f-9257-4f9d603c3d2d","system_id":"levelo_inurba_marseille","lat":43.29175,"lon":5.37157,"is_reserved":false,"is_disabled":false,"rental_uris":{"android":"levelo://app?vid=202fc5a0-0ca0-419f-9257-4f9d603c3d2d","ios":"levelo://app?vid=202fc5a0-0ca0-419f-9257-4f9d603c3d2d"},"vehicle_type_id":"4","last_reported":1741892848,"current_range_meters":8400,"station_id":"ce4bha92rcd13ifvqeh0","pricing_plan_id":"cebpf4jnsgd1na2vs0mg"},{"bike_id":"3a38c42e-d5be-406d-bade-16dfad377267","system_id":"levelo_inurba_marseille","lat":43.30951,"lon":5.39022,"is_reserved":false,"is_disabled":false,"rental_uris":{"android":"levelo://app?vid=3a38c42e-d5be-406d-bade-16dfad377267","ios":"levelo://app?vid=3a38c42e-d5be-406d-bade-16dfad377267"},"vehicle_type_id":"4","last_reported":1741892848,"current_range_meters":8400,"station_id":"ce4bgup2rcd13ifvqco0","pricing_plan_id":"cebpf4jnsgd1na2vs0mg"},{"bike_id":"14871522-af83-465b-a5e3-69fa0811fa67","system_id":"levelo_inurba_marseille","lat":43.29707,"lon":5.3662,"is_reserved":false,"is_disabled":true,"rental_uris":{"android":"levelo://app?vid=14871522-af83-465b-a5e3-69fa0811fa67","ios":"levelo://app?vid=14871522-af83-465b-a5e3-69fa0811fa67"},"vehicle_type_id":"4","last_reported":1741892848,"current_range_meters":8400,"station_id":"ce4bgn12rcd13ifvqbt0","pricing_plan_id":"cebpf4jnsgd1na2vs0mg"},{"bike_id":"f82329f9-2c3f-438b-a56f-d3260042d25d","system_id":"levelo_inurba_marseille","lat":43.27808,"lon":5.40711,"is_reserved":false,"is_disabled":false,"rental_uris":{"android":"levelo://app?vid=f82329f9-2c3f-438b-a56f-d3260042d25d","ios":"levelo://app?vid=f82329f9-2c3f-438b-a56f-d3260042d25d"},"vehicle_type_id":"4","last_reported":1741892848,"current_range_meters":8400,"station_id":"ce4bhnh2rcd13ifvqgtg","pricing_plan_id":"cebpf4jnsgd1na2vs0mg"},{"bike_id":"fe2dbfad-2b3c-45be-b26a-7ab6c0dcbc97","system_id":"levelo_inurba_marseille","lat":43.301514,"lon":5.376997,"is_reserved":false,"is_disabled":false,"rental_uris":{"android":"levelo://app?vid=fe2dbfad-2b3c-45be-b26a-7ab6c0dcbc97","ios":"levelo://app?vid=fe2dbfad-2b3c-45be-b26a-7ab6c0dcbc97"},"vehicle_type_id":"4","last_reported":1741892848,"current_range_meters":8400,"station_id":"","pricing_plan_id":"cebpf4jnsgd1na2vs0mg"},{"bike_id":"f759850b-eb65-4182-9f07-df3729b70f70","system_id":"levelo_inurba_marseille","lat":43.26056,"lon":5.39389,"is_reserved":false,"is_disabled":false,"rental_uris":{"android":"levelo://app?vid=f759850b-eb65-4182-9f07-df3729b70f70","ios":"levelo://app?vid=f759850b-eb65-4182-9f07-df3729b70f70"},"vehicle_type_id":"4","last_reported":1741892848,"current_range_meters":8400,"station_id":"ce4bhh92rcd13ifvqfj0","pricing_plan_id":"cebpf4jnsgd1na2vs0mg"},{"bike_id":"3903ef33-b776-42c4-81c8-9b28f3e45200","system_id":"levelo_inurba_marseille","lat":43.29886,"lon":5.43658,"is_reserved":false,"is_disabled":false,"rental_uris":{"android":"levelo://app?vid=3903ef33-b776-42c4-81c8-9b28f3e45200","ios":"levelo://app?vid=3903ef33-b776-42c4-81c8-9b28f3e45200"},"vehicle_type_id":"4","last_reported":1741892848,"current_range_meters":8400,"station_id":"ce4bhpp2rcd13ifvqhfg","pricing_plan_id":"cebpf4jnsgd1na2vs0mg"},{"bike_id":"36579104-8946-4409-ad7d-a19615f89fd4","system_id":"levelo_inurba_marseille","lat":43.30897,"lon":5.3721,"is_reserved":false,"is_disabled":false,"rental_uris":{"android":"levelo://app?vid=36579104-8946-4409-ad7d-a19615f89fd4","ios":"levelo://app?vid=36579104-8946-4409-ad7d-a19615f89fd4"},"vehicle_type_id":"4","last_reported":1741892848,"current_range_meters":8800,"station_id":"ce4bguh2rcd13ifvqckg","pricing_plan_id":"cebpf4jnsgd1na2vs0mg"},{"bike_id":"be63488c-59db-4701-a598-fb2c2bba0df2","system_id":"levelo_inurba_marseille","lat":43.30802,"lon":5.43528,"is_reserved":false,"is_disabled":false,"rental_uris":{"android":"levelo://app?vid=be63488c-59db-4701-a598-fb2c2bba0df2","ios":"levelo://app?vid=be63488c-59db-4701-a598-fb2c2bba0df2"},"vehicle_type_id":"4","last_reported":1741892848,"current_range_meters":8800,"station_id":"ce4bhph2rcd13ifvqheg","pricing_plan_id":"cebpf4jnsgd1na2vs0mg"},{"bike_id":"db9350f5-d98c-4c2d-a1c9-ccfae2b2e115","system_id":"levelo_inurba_marseille","lat":43.28565,"lon":5.39503,"is_reserved":false,"is_disabled":false,"rental_uris":{"android":"levelo://app?vid=db9350f5-d98c-4c2d-a1c9-ccfae2b2e115","ios":"levelo://app?vid=db9350f5-d98c-4c2d-a1c9-ccfae2b2e115"},"vehicle_type_id":"4","last_reported":1741892848,"current_range_meters":8400,"station_id":"ce4bh292rcd13ifvqdg0","pricing_plan_id":"cebpf4jnsgd1na2vs0mg"},{"bike_id":"5bb60675-343e-40e5-8ecc-6c8030ac3772","system_id":"levelo_inurba_marseille","lat":43.31065,"lon":5.38356,"is_reserved":false,"is_disabled":false,"rental_uris":{"android":"levelo://app?vid=5bb60675-343e-40e5-8ecc-6c8030ac3772","ios":"levelo://app?vid=5bb60675-343e-40e5-8ecc-6c8030ac3772"},"vehicle_type_id":"4","last_reported":1741892848,"current_range_meters":8800,"station_id":"ce4bgv92rcd13ifvqcr0","pricing_plan_id":"cebpf4jnsgd1na2vs0mg"},{"bike_id":"09879306-cc4d-4751-9a54-8aa74c2f5ee0","system_id":"levelo_inurba_marseille","lat":43.27971,"lon":5.3874,"is_reserved":false,"is_disabled":false,"rental_uris":{"android":"levelo://app?vid=09879306-cc4d-4751-9a54-8aa74c2f5ee0","ios":"levelo://app?vid=09879306-cc4d-4751-9a54-8aa74c2f5ee0"},"vehicle_type_id":"4","last_reported":1741892848,"current_range_meters":8800,"station_id":"ce4bhg12rcd13ifvqf80","pricing_plan_id":"cebpf4jnsgd1na2vs0mg"},{"bike_id":"71d58b7f-1082-44b6-ae36-622f6323d2aa","system_id":"levelo_inurba_marseille","lat":43.25106,"lon":5.40335,"is_reserved":false,"is_disabled":false,"rental_uris":{"android":"levelo://app?vid=71d58b7f-1082-44b6-ae36-622f6323d2aa","ios":"levelo://app?vid=71d58b7f-1082-44b6-ae36-622f6323d2aa"},"vehicle_type_id":"4","last_reported":1741892848,"current_range_meters":8800,"station_id":"ce4bhlh2rcd13ifvqgig","pricing_plan_id":"cebpf4jnsgd1na2vs0mg"},{"bike_id":"6b6ec52c-b806-49dc-b85a-3a98162ca254","system_id":"levelo_inurba_marseille","lat":43.29277,"lon":5.36856,"is_reserved":false,"is_disabled":false,"rental_uris":{"android":"levelo://app?vid=6b6ec52c-b806-49dc-b85a-3a98162ca254","ios":"levelo://app?vid=6b6ec52c-b806-49dc-b85a-3a98162ca254"},"vehicle_type_id":"4","last_reported":1741892848,"current_range_meters":8800,"station_id":"ce4bhbp2rcd13ifvqesg","pricing_plan_id":"cebpf4jnsgd1na2vs0mg"},{"bike_id":"c928c59f-d25d-4ead-a02d-c3284ea6096c","system_id":"levelo_inurba_marseille","lat":43.31336,"lon":5.39708,"is_reserved":false,"is_disabled":false,"rental_uris":{"android":"levelo://app?vid=c928c59f-d25d-4ead-a02d-c3284ea6096c","ios":"levelo://app?vid=c928c59f-d25d-4ead-a02d-c3284ea6096c"},"vehicle_type_id":"4","last_reported":1741892848,"current_range_meters":8800,"station_id":"ce4bgvp2rcd13ifvqcu0","pricing_plan_id":"cebpf4jnsgd1na2vs0mg"},{"bike_id":"78098f6d-7644-42c4-be61-64c91df87947","system_id":"levelo_inurba_marseille","lat":43.313965,"lon":5.380731,"is_reserved":false,"is_disabled":false,"rental_uris":{"android":"levelo://app?vid=78098f6d-7644-42c4-be61-64c91df87947","ios":"levelo://app?vid=78098f6d-7644-42c4-be61-64c91df87947"},"vehicle_type_id":"4","last_reported":1741892848,"current_range_meters":8800,"station_id":"ce4bghh2rcd13ifvqb60","pricing_plan_id":"cebpf4jnsgd1na2vs0mg"},{"bike_id":"b3fead73-4c4c-401e-81a0-a7fad437c748","system_id":"levelo_inurba_marseille","lat":43.250059,"lon":5.389158,"is_reserved":false,"is_disabled":false,"rental_uris":{"android":"levelo://app?vid=b3fead73-4c4c-401e-81a0-a7fad437c748","ios":"levelo://app?vid=b3fead73-4c4c-401e-81a0-a7fad437c748"},"vehicle_type_id":"4","last_reported":1741892848,"current_range_meters":8800,"station_id":"ce4bhgp2rcd13ifvqfd0","pricing_plan_id":"cebpf4jnsgd1na2vs0mg"},{"bike_id":"46154b63-9145-4ed1-9313-68e64e26c8f7","system_id":"levelo_inurba_marseille","lat":43.28941,"lon":5.36628,"is_reserved":false,"is_disabled":false,"rental_uris":{"android":"levelo://app?vid=46154b63-9145-4ed1-9313-68e64e26c8f7","ios":"levelo://app?vid=46154b63-9145-4ed1-9313-68e64e26c8f7"},"vehicle_type_id":"4","last_reported":1741892848,"current_range_meters":8400,"station_id":"ce4bhap2rcd13ifvqek0","pricing_plan_id":"cebpf4jnsgd1na2vs0mg"},{"bike_id":"a62fa26c-7146-49f7-b9f2-2253eda42aa9","system_id":"levelo_inurba_marseille","lat":43.26688,"lon":5.38261,"is_reserved":false,"is_disabled":false,"rental_uris":{"android":"levelo://app?vid=a62fa26c-7146-49f7-b9f2-2253eda42aa9","ios":"levelo://app?vid=a62fa26c-7146-49f7-b9f2-2253eda42aa9"},"vehicle_type_id":"4","last_reported":1741892848,"current_range_meters":9200,"station_id":"ce4bhg92rcd13ifvqf90","pricing_plan_id":"cebpf4jnsgd1na2vs0mg"},{"bike_id":"1d71f7ee-0d1e-484c-91b4-fe06f14d4a8c","system_id":"levelo_inurba_marseille","lat":43.290147,"lon":5.381308,"is_reserved":false,"is_disabled":false,"rental_uris":{"android":"levelo://app?vid=1d71f7ee-0d1e-484c-91b4-fe06f14d4a8c","ios":"levelo://app?vid=1d71f7ee-0d1e-484c-91b4-fe06f14d4a8c"},"vehicle_type_id":"4","last_reported":1741892848,"current_range_meters":9200,"station_id":"ce4bh3p2rcd13ifvqdq0","pricing_plan_id":"cebpf4jnsgd1na2vs0mg"},{"bike_id":"c06d3135-7ae4-4cea-9457-edce0a885252","system_id":"levelo_inurba_marseille","lat":43.28152,"lon":5.42633,"is_reserved":false,"is_disabled":false,"rental_uris":{"android":"levelo://app?vid=c06d3135-7ae4-4cea-9457-edce0a885252","ios":"levelo://app?vid=c06d3135-7ae4-4cea-9457-edce0a885252"},"vehicle_type_id":"4","last_reported":1741892848,"current_range_meters":8800,"station_id":"ce4bhnh2rcd13ifvqgug","pricing_plan_id":"cebpf4jnsgd1na2vs0mg"},{"bike_id":"0a85998e-7c72-4c68-8086-4125cfff58bf","system_id":"levelo_inurba_marseille","lat":43.271997,"lon":5.390147,"is_reserved":false,"is_disabled":false,"rental_uris":{"android":"levelo://app?vid=0a85998e-7c72-4c68-8086-4125cfff58bf","ios":"levelo://app?vid=0a85998e-7c72-4c68-8086-4125cfff58bf"},"vehicle_type_id":"4","last_reported":1741892848,"current_range_meters":9200,"station_id":"ce4bhjp2rcd13ifvqg90","pricing_plan_id":"cebpf4jnsgd1na2vs0mg"},{"bike_id":"43835326-78b9-42ff-a7b6-1bd4a9d2b66e","system_id":"levelo_inurba_marseille","lat":43.27948,"lon":5.41047,"is_reserved":false,"is_disabled":false,"rental_uris":{"android":"levelo://app?vid=43835326-78b9-42ff-a7b6-1bd4a9d2b66e","ios":"levelo://app?vid=43835326-78b9-42ff-a7b6-1bd4a9d2b66e"},"vehicle_type_id":"4","last_reported":1741892848,"current_range_meters":9200,"station_id":"ce4bhnp2rcd13ifvqh0g","pricing_plan_id":"cebpf4jnsgd1na2vs0mg"},{"bike_id":"36ebfc17-b6ab-4767-a5e0-c94c11aba8a2","system_id":"levelo_inurba_marseille","lat":43.32378,"lon":5.38885,"is_reserved":false,"is_disabled":false,"rental_uris":{"android":"levelo://app?vid=36ebfc17-b6ab-4767-a5e0-c94c11aba8a2","ios":"levelo://app?vid=36ebfc17-b6ab-4767-a5e0-c94c11aba8a2"},"vehicle_type_id":"4","last_reported":1741892848,"current_range_meters":9200,"station_id":"ce4bhqp2rcd13ifvqhog","pricing_plan_id":"cebpf4jnsgd1na2vs0mg"},{"bike_id":"d0be61ee-8c6c-4bf7-99b6-f099a281a656","system_id":"levelo_inurba_marseille","lat":43.24996,"lon":5.3894,"is_reserved":false,"is_disabled":false,"rental_uris":{"android":"levelo://app?vid=d0be61ee-8c6c-4bf7-99b6-f099a281a656","ios":"levelo://app?vid=d0be61ee-8c6c-4bf7-99b6-f099a281a656"},"vehicle_type_id":"4","last_reported":1741892848,"current_range_meters":9200,"station_id":"ce4bhgp2rcd13ifvqfd0","pricing_plan_id":"cebpf4jnsgd1na2vs0mg"},{"bike_id":"fc4d434d-cedb-422a-899d-a371172f5640","system_id":"levelo_inurba_marseille","lat":43.31994,"lon":5.38161,"is_reserved":false,"is_disabled":false,"rental_uris":{"android":"levelo://app?vid=fc4d434d-cedb-422a-899d-a371172f5640","ios":"levelo://app?vid=fc4d434d-cedb-422a-899d-a371172f5640"},"vehicle_type_id":"4","last_reported":1741892848,"current_range_meters":9200,"station_id":"ce4bhr12rcd13ifvqhpg","pricing_plan_id":"cebpf4jnsgd1na2vs0mg"},{"bike_id":"7e68ab91-64b1-4ca8-90d6-c2d2040b8729","system_id":"levelo_inurba_marseille","lat":43.23192,"lon":5.39992,"is_reserved":false,"is_disabled":false,"rental_uris":{"android":"levelo://app?vid=7e68ab91-64b1-4ca8-90d6-c2d2040b8729","ios":"levelo://app?vid=7e68ab91-64b1-4ca8-90d6-c2d2040b8729"},"vehicle_type_id":"4","last_reported":1741892848,"current_range_meters":9200,"station_id":"ce4bhn12rcd13ifvqgqg","pricing_plan_id":"cebpf4jnsgd1na2vs0mg"},{"bike_id":"5f36c028-2917-40f9-b7cf-076d1c2d56fd","system_id":"levelo_inurba_marseille","lat":43.31338,"lon":5.36718,"is_reserved":false,"is_disabled":false,"rental_uris":{"android":"levelo://app?vid=5f36c028-2917-40f9-b7cf-076d1c2d56fd","ios":"levelo://app?vid=5f36c028-2917-40f9-b7cf-076d1c2d56fd"},"vehicle_type_id":"4","last_reported":1741892848,"current_range_meters":9200,"station_id":"ce4bgr92rcd13ifvqc6g","pricing_plan_id":"cebpf4jnsgd1na2vs0mg"},{"bike_id":"1b70cf85-835f-4bc2-9955-a5908a7ebc84","system_id":"levelo_inurba_marseille","lat":43.29551,"lon":5.38543,"is_reserved":false,"is_disabled":false,"rental_uris":{"android":"levelo://app?vid=1b70cf85-835f-4bc2-9955-a5908a7ebc84","ios":"levelo://app?vid=1b70cf85-835f-4bc2-9955-a5908a7ebc84"},"vehicle_type_id":"4","last_reported":1741892848,"current_range_meters":9200,"station_id":"ce4bgih2rcd13ifvqba0","pricing_plan_id":"cebpf4jnsgd1na2vs0mg"},{"bike_id":"e350ce66-a995-469c-b4d1-ba6658fe49e2","system_id":"levelo_inurba_marseille","lat":43.27812,"lon":5.40717,"is_reserved":false,"is_disabled":false,"rental_uris":{"android":"levelo://app?vid=e350ce66-a995-469c-b4d1-ba6658fe49e2","ios":"levelo://app?vid=e350ce66-a995-469c-b4d1-ba6658fe49e2"},"vehicle_type_id":"4","last_reported":1741892848,"current_range_meters":9200,"station_id":"ce4bhnh2rcd13ifvqgtg","pricing_plan_id":"cebpf4jnsgd1na2vs0mg"},{"bike_id":"39df283f-35a5-4c44-9f0d-6dd6923a19a4","system_id":"levelo_inurba_marseille","lat":43.32118,"lon":5.36805,"is_reserved":false,"is_disabled":false,"rental_uris":{"android":"levelo://app?vid=39df283f-35a5-4c44-9f0d-6dd6923a19a4","ios":"levelo://app?vid=39df283f-35a5-4c44-9f0d-6dd6923a19a4"},"vehicle_type_id":"4","last_reported":1741892848,"current_range_meters":9200,"station_id":"ce4bhrh2rcd13ifvqhug","pricing_plan_id":"cebpf4jnsgd1na2vs0mg"},{"bike_id":"d52e7946-8ebb-4755-b610-79521ae61e12","system_id":"levelo_inurba_marseille","lat":43.33021,"lon":5.3904,"is_reserved":false,"is_disabled":false,"rental_uris":{"android":"levelo://app?vid=d52e7946-8ebb-4755-b610-79521ae61e12","ios":"levelo://app?vid=d52e7946-8ebb-4755-b610-79521ae61e12"},"vehicle_type_id":"4","last_reported":1741892848,"current_range_meters":9200,"station_id":"ce4bhr92rcd13ifvqhrg","pricing_plan_id":"cebpf4jnsgd1na2vs0mg"},{"bike_id":"70ef2428-f810-49eb-9e61-5d18ee56cfbe","system_id":"levelo_inurba_marseille","lat":43.28439,"lon":5.39202,"is_reserved":false,"is_disabled":false,"rental_uris":{"android":"levelo://app?vid=70ef2428-f810-49eb-9e61-5d18ee56cfbe","ios":"levelo://app?vid=70ef2428-f810-49eb-9e61-5d18ee56cfbe"},"vehicle_type_id":"4","last_reported":1741892848,"current_range_meters":9600,"station_id":"ce4bhoh2rcd13ifvqh5g","pricing_plan_id":"cebpf4jnsgd1na2vs0mg"},{"bike_id":"50b380bb-89c1-4784-bb85-891d5709afae","system_id":"levelo_inurba_marseille","lat":43.32339,"lon":5.40614,"is_reserved":false,"is_disabled":false,"rental_uris":{"android":"levelo://app?vid=50b380bb-89c1-4784-bb85-891d5709afae","ios":"levelo://app?vid=50b380bb-89c1-4784-bb85-891d5709afae"},"vehicle_type_id":"4","last_reported":1741892848,"current_range_meters":9600,"station_id":"ce4bhq92rcd13ifvqhjg","pricing_plan_id":"cebpf4jnsgd1na2vs0mg"},{"bike_id":"9d76fd30-3bb6-4810-ad57-91e5bf3088c1","system_id":"levelo_inurba_marseille","lat":43.309268,"lon":5.401405,"is_reserved":false,"is_disabled":false,"rental_uris":{"android":"levelo://app?vid=9d76fd30-3bb6-4810-ad57-91e5bf3088c1","ios":"levelo://app?vid=9d76fd30-3bb6-4810-ad57-91e5bf3088c1"},"vehicle_type_id":"4","last_reported":1741892848,"current_range_meters":9600,"station_id":"ce4bgvp2rcd13ifvqct0","pricing_plan_id":"cebpf4jnsgd1na2vs0mg"},{"bike_id":"629060eb-d4eb-49cd-bb94-19d9dec59452","system_id":"levelo_inurba_marseille","lat":43.29869,"lon":5.38907,"is_reserved":false,"is_disabled":false,"rental_uris":{"android":"levelo://app?vid=629060eb-d4eb-49cd-bb94-19d9dec59452","ios":"levelo://app?vid=629060eb-d4eb-49cd-bb94-19d9dec59452"},"vehicle_type_id":"4","last_reported":1741892848,"current_range_meters":9600,"station_id":"ce4bh392rcd13ifvqdl0","pricing_plan_id":"cebpf4jnsgd1na2vs0mg"},{"bike_id":"5ea0132b-7b67-4fee-bdb4-191046fb5085","system_id":"levelo_inurba_marseille","lat":43.2953,"lon":5.39031,"is_reserved":false,"is_disabled":false,"rental_uris":{"android":"levelo://app?vid=5ea0132b-7b67-4fee-bdb4-191046fb5085","ios":"levelo://app?vid=5ea0132b-7b67-4fee-bdb4-191046fb5085"},"vehicle_type_id":"4","last_reported":1741892848,"current_range_meters":9600,"station_id":"ce4bh3p2rcd13ifvqdp0","pricing_plan_id":"cebpf4jnsgd1na2vs0mg"},{"bike_id":"1179ea35-4831-4438-984a-d67269a5255b","system_id":"levelo_inurba_marseille","lat":43.23205,"lon":5.35552,"is_reserved":false,"is_disabled":false,"rental_uris":{"android":"levelo://app?vid=1179ea35-4831-4438-984a-d67269a5255b","ios":"levelo://app?vid=1179ea35-4831-4438-984a-d67269a5255b"},"vehicle_type_id":"4","last_reported":1741892848,"current_range_meters":10000,"station_id":"ce4bhu92rcd13ifvqi70","pricing_plan_id":"cebpf4jnsgd1na2vs0mg"},{"bike_id":"7a56e38a-cf34-42a1-8644-61558aee45db","system_id":"levelo_inurba_marseille","lat":43.28703,"lon":5.37389,"is_reserved":false,"is_disabled":false,"rental_uris":{"android":"levelo://app?vid=7a56e38a-cf34-42a1-8644-61558aee45db","ios":"levelo://app?vid=7a56e38a-cf34-42a1-8644-61558aee45db"},"vehicle_type_id":"4","last_reported":1741892848,"current_range_meters":9600,"station_id":"ce4bh3p2rcd13ifvqdq0","pricing_plan_id":"cebpf4jnsgd1na2vs0mg"},{"bike_id":"154d0f4a-7cf1-4b4a-8919-807104d462e1","system_id":"levelo_inurba_marseille","lat":43.26653,"lon":5.38632,"is_reserved":false,"is_disabled":false,"rental_uris":{"android":"levelo://app?vid=154d0f4a-7cf1-4b4a-8919-807104d462e1","ios":"levelo://app?vid=154d0f4a-7cf1-4b4a-8919-807104d462e1"},"vehicle_type_id":"4","last_reported":1741892848,"current_range_meters":9600,"station_id":"","pricing_plan_id":"cebpf4jnsgd1na2vs0mg"},{"bike_id":"54184fa2-bc10-4430-9b0e-4e689a6e5eb5","system_id":"levelo_inurba_marseille","lat":43.30307,"lon":5.36917,"is_reserved":false,"is_disabled":true,"rental_uris":{"android":"levelo://app?vid=54184fa2-bc10-4430-9b0e-4e689a6e5eb5","ios":"levelo://app?vid=54184fa2-bc10-4430-9b0e-4e689a6e5eb5"},"vehicle_type_id":"4","last_reported":1741892848,"current_range_meters":9600,"station_id":"ce4bgqh2rcd13ifvqc5g","pricing_plan_id":"cebpf4jnsgd1na2vs0mg"},{"bike_id":"1cbeb49c-8d51-46f2-ad03-8af78ea79d9a","system_id":"levelo_inurba_marseille","lat":43.24186,"lon":5.39733,"is_reserved":false,"is_disabled":false,"rental_uris":{"android":"levelo://app?vid=1cbeb49c-8d51-46f2-ad03-8af78ea79d9a","ios":"levelo://app?vid=1cbeb49c-8d51-46f2-ad03-8af78ea79d9a"},"vehicle_type_id":"4","last_reported":1741892848,"current_range_meters":9600,"station_id":"ce4bhn12rcd13ifvqgpg","pricing_plan_id":"cebpf4jnsgd1na2vs0mg"},{"bike_id":"6307ec30-142e-4380-a1b4-79305fa6f44a","system_id":"levelo_inurba_marseille","lat":43.25767,"lon":5.41082,"is_reserved":false,"is_disabled":true,"rental_uris":{"android":"levelo://app?vid=6307ec30-142e-4380-a1b4-79305fa6f44a","ios":"levelo://app?vid=6307ec30-142e-4380-a1b4-79305fa6f44a"},"vehicle_type_id":"4","last_reported":1741892848,"current_range_meters":9600,"station_id":"","pricing_plan_id":"cebpf4jnsgd1na2vs0mg"},{"bike_id":"ebf3efe3-fd16-4aca-960b-e888b29cb724","system_id":"levelo_inurba_marseille","lat":43.29716,"lon":5.36628,"is_reserved":false,"is_disabled":false,"rental_uris":{"android":"levelo://app?vid=ebf3efe3-fd16-4aca-960b-e888b29cb724","ios":"levelo://app?vid=ebf3efe3-fd16-4aca-960b-e888b29cb724"},"vehicle_type_id":"4","last_reported":1741892848,"current_range_meters":9600,"station_id":"ce4bgn12rcd13ifvqbt0","pricing_plan_id":"cebpf4jnsgd1na2vs0mg"},{"bike_id":"4168177c-2a8a-4764-9d2f-12cf0cdd4ae4","system_id":"levelo_inurba_marseille","lat":43.27814,"lon":5.40709,"is_reserved":false,"is_disabled":false,"rental_uris":{"android":"levelo://app?vid=4168177c-2a8a-4764-9d2f-12cf0cdd4ae4","ios":"levelo://app?vid=4168177c-2a8a-4764-9d2f-12cf0cdd4ae4"},"vehicle_type_id":"4","last_reported":1741892848,"current_range_meters":10000,"station_id":"ce4bhnh2rcd13ifvqgtg","pricing_plan_id":"cebpf4jnsgd1na2vs0mg"},{"bike_id":"76a1a065-7414-4909-8e1f-d9664a62f90e","system_id":"levelo_inurba_marseille","lat":43.28052,"lon":5.3695,"is_reserved":false,"is_disabled":false,"rental_uris":{"android":"levelo://app?vid=76a1a065-7414-4909-8e1f-d9664a62f90e","ios":"levelo://app?vid=76a1a065-7414-4909-8e1f-d9664a62f90e"},"vehicle_type_id":"4","last_reported":1741892848,"current_range_meters":10000,"station_id":"ce4bha12rcd13ifvqef0","pricing_plan_id":"cebpf4jnsgd1na2vs0mg"},{"bike_id":"204431b5-4d2e-40d3-918a-da297cf7b626","system_id":"levelo_inurba_marseille","lat":43.29554,"lon":5.39041,"is_reserved":false,"is_disabled":false,"rental_uris":{"android":"levelo://app?vid=204431b5-4d2e-40d3-918a-da297cf7b626","ios":"levelo://app?vid=204431b5-4d2e-40d3-918a-da297cf7b626"},"vehicle_type_id":"4","last_reported":1741892848,"current_range_meters":9600,"station_id":"ce4bh3p2rcd13ifvqdp0","pricing_plan_id":"cebpf4jnsgd1na2vs0mg"},{"bike_id":"c2100bd3-57ec-4820-992d-70841c2f886a","system_id":"levelo_inurba_marseille","lat":43.32103,"lon":5.36785,"is_reserved":false,"is_disabled":false,"rental_uris":{"android":"levelo://app?vid=c2100bd3-57ec-4820-992d-70841c2f886a","ios":"levelo://app?vid=c2100bd3-57ec-4820-992d-70841c2f886a"},"vehicle_type_id":"4","last_reported":1741892848,"current_range_meters":10000,"station_id":"ce4bhrh2rcd13ifvqhug","pricing_plan_id":"cebpf4jnsgd1na2vs0mg"},{"bike_id":"c75624ab-8824-4f6a-bd1b-20bacca5a148","system_id":"levelo_inurba_marseille","lat":43.27807,"lon":5.407,"is_reserved":false,"is_disabled":false,"rental_uris":{"android":"levelo://app?vid=c75624ab-8824-4f6a-bd1b-20bacca5a148","ios":"levelo://app?vid=c75624ab-8824-4f6a-bd1b-20bacca5a148"},"vehicle_type_id":"4","last_reported":1741892848,"current_range_meters":10000,"station_id":"ce4bhnh2rcd13ifvqgtg","pricing_plan_id":"cebpf4jnsgd1na2vs0mg"},{"bike_id":"4c72b8f8-b79e-40b3-8670-e025da8d8585","system_id":"levelo_inurba_marseille","lat":43.29001,"lon":5.3559,"is_reserved":false,"is_disabled":false,"rental_uris":{"android":"levelo://app?vid=4c72b8f8-b79e-40b3-8670-e025da8d8585","ios":"levelo://app?vid=4c72b8f8-b79e-40b3-8670-e025da8d8585"},"vehicle_type_id":"4","last_reported":1741892848,"current_range_meters":10000,"station_id":"ce4bhb92rcd13ifvqen0","pricing_plan_id":"cebpf4jnsgd1na2vs0mg"},{"bike_id":"5233e443-1736-449b-bfef-634509c8ee4b","system_id":"levelo_inurba_marseille","lat":43.29474,"lon":5.38638,"is_reserved":false,"is_disabled":false,"rental_uris":{"android":"levelo://app?vid=5233e443-1736-449b-bfef-634509c8ee4b","ios":"levelo://app?vid=5233e443-1736-449b-bfef-634509c8ee4b"},"vehicle_type_id":"4","last_reported":1741892848,"current_range_meters":10000,"station_id":"","pricing_plan_id":"cebpf4jnsgd1na2vs0mg"},{"bike_id":"13401a50-391f-44f9-b490-c74e2ad6dc53","system_id":"levelo_inurba_marseille","lat":43.27811,"lon":5.40715,"is_reserved":false,"is_disabled":false,"rental_uris":{"android":"levelo://app?vid=13401a50-391f-44f9-b490-c74e2ad6dc53","ios":"levelo://app?vid=13401a50-391f-44f9-b490-c74e2ad6dc53"},"vehicle_type_id":"4","last_reported":1741892848,"current_range_meters":10000,"station_id":"ce4bhnh2rcd13ifvqgtg","pricing_plan_id":"cebpf4jnsgd1na2vs0mg"},{"bike_id":"8c4e2b01-9679-46b7-86e3-aa2306d13c64","system_id":"levelo_inurba_marseille","lat":43.27844,"lon":5.39212,"is_reserved":false,"is_disabled":false,"rental_uris":{"android":"levelo://app?vid=8c4e2b01-9679-46b7-86e3-aa2306d13c64","ios":"levelo://app?vid=8c4e2b01-9679-46b7-86e3-aa2306d13c64"},"vehicle_type_id":"4","last_reported":1741892848,"current_range_meters":10000,"station_id":"ce4bhjp2rcd13ifvqga0","pricing_plan_id":"cebpf4jnsgd1na2vs0mg"},{"bike_id":"db1d9945-452a-48d1-a218-9d250e8fb884","system_id":"levelo_inurba_marseille","lat":43.31351,"lon":5.39676,"is_reserved":false,"is_disabled":false,"rental_uris":{"android":"levelo://app?vid=db1d9945-452a-48d1-a218-9d250e8fb884","ios":"levelo://app?vid=db1d9945-452a-48d1-a218-9d250e8fb884"},"vehicle_type_id":"4","last_reported":1741892848,"current_range_meters":10000,"station_id":"ce4bgvp2rcd13ifvqcu0","pricing_plan_id":"cebpf4jnsgd1na2vs0mg"},{"bike_id":"c86e5fec-57ba-43cd-9720-fdc7c826c8d9","system_id":"levelo_inurba_marseille","lat":43.30411,"lon":5.41286,"is_reserved":false,"is_disabled":false,"rental_uris":{"android":"levelo://app?vid=c86e5fec-57ba-43cd-9720-fdc7c826c8d9","ios":"levelo://app?vid=c86e5fec-57ba-43cd-9720-fdc7c826c8d9"},"vehicle_type_id":"4","last_reported":1741892848,"current_range_meters":10800,"station_id":"ce4bhop2rcd13ifvqh8g","pricing_plan_id":"cebpf4jnsgd1na2vs0mg"},{"bike_id":"4760c4a3-2ebc-4787-9bfd-517781e41b15","system_id":"levelo_inurba_marseille","lat":43.28611,"lon":5.37079,"is_reserved":false,"is_disabled":false,"rental_uris":{"android":"levelo://app?vid=4760c4a3-2ebc-4787-9bfd-517781e41b15","ios":"levelo://app?vid=4760c4a3-2ebc-4787-9bfd-517781e41b15"},"vehicle_type_id":"4","last_reported":1741892848,"current_range_meters":10800,"station_id":"ce4bht12rcd13ifvqi60","pricing_plan_id":"cebpf4jnsgd1na2vs0mg"},{"bike_id":"4f2ddad8-944b-4f7f-88fd-24992043188c","system_id":"levelo_inurba_marseille","lat":43.30927,"lon":5.40178,"is_reserved":false,"is_disabled":false,"rental_uris":{"android":"levelo://app?vid=4f2ddad8-944b-4f7f-88fd-24992043188c","ios":"levelo://app?vid=4f2ddad8-944b-4f7f-88fd-24992043188c"},"vehicle_type_id":"4","last_reported":1741892848,"current_range_meters":10800,"station_id":"ce4bgvp2rcd13ifvqct0","pricing_plan_id":"cebpf4jnsgd1na2vs0mg"},{"bike_id":"5dd6e0a3-0e9b-4869-99a7-a809694b134f","system_id":"levelo_inurba_marseille","lat":43.30623,"lon":5.37217,"is_reserved":false,"is_disabled":false,"rental_uris":{"android":"levelo://app?vid=5dd6e0a3-0e9b-4869-99a7-a809694b134f","ios":"levelo://app?vid=5dd6e0a3-0e9b-4869-99a7-a809694b134f"},"vehicle_type_id":"4","last_reported":1741892848,"current_range_meters":10800,"station_id":"ce4bgqh2rcd13ifvqc4g","pricing_plan_id":"cebpf4jnsgd1na2vs0mg"},{"bike_id":"6713e28e-1653-4aa7-8df0-276d0831858a","system_id":"levelo_inurba_marseille","lat":43.29278,"lon":5.36848,"is_reserved":false,"is_disabled":false,"rental_uris":{"android":"levelo://app?vid=6713e28e-1653-4aa7-8df0-276d0831858a","ios":"levelo://app?vid=6713e28e-1653-4aa7-8df0-276d0831858a"},"vehicle_type_id":"4","last_reported":1741892848,"current_range_meters":10800,"station_id":"ce4bhbp2rcd13ifvqesg","pricing_plan_id":"cebpf4jnsgd1na2vs0mg"},{"bike_id":"3e0d3460-668f-4e0e-82ce-48f1a048100d","system_id":"levelo_inurba_marseille","lat":43.28936,"lon":5.36629,"is_reserved":false,"is_disabled":false,"rental_uris":{"android":"levelo://app?vid=3e0d3460-668f-4e0e-82ce-48f1a048100d","ios":"levelo://app?vid=3e0d3460-668f-4e0e-82ce-48f1a048100d"},"vehicle_type_id":"4","last_reported":1741892848,"current_range_meters":10000,"station_id":"ce4bhap2rcd13ifvqek0","pricing_plan_id":"cebpf4jnsgd1na2vs0mg"},{"bike_id":"96bae133-2c88-4f4f-a72b-a62518ed1b8a","system_id":"levelo_inurba_marseille","lat":43.27494,"lon":5.42437,"is_reserved":false,"is_disabled":false,"rental_uris":{"android":"levelo://app?vid=96bae133-2c88-4f4f-a72b-a62518ed1b8a","ios":"levelo://app?vid=96bae133-2c88-4f4f-a72b-a62518ed1b8a"},"vehicle_type_id":"4","last_reported":1741892848,"current_range_meters":10800,"station_id":"ce4bhn92rcd13ifvqgrg","pricing_plan_id":"cebpf4jnsgd1na2vs0mg"},{"bike_id":"414a87d8-0320-4da5-94cb-1c2e9eb2c2e2","system_id":"levelo_inurba_marseille","lat":43.25808,"lon":5.39454,"is_reserved":false,"is_disabled":false,"rental_uris":{"android":"levelo://app?vid=414a87d8-0320-4da5-94cb-1c2e9eb2c2e2","ios":"levelo://app?vid=414a87d8-0320-4da5-94cb-1c2e9eb2c2e2"},"vehicle_type_id":"4","last_reported":1741892848,"current_range_meters":11200,"station_id":"ce4bhip2rcd13ifvqft0","pricing_plan_id":"cebpf4jnsgd1na2vs0mg"},{"bike_id":"987d6068-6ede-4b5f-963d-ea828fb36b9e","system_id":"levelo_inurba_marseille","lat":43.29198,"lon":5.35806,"is_reserved":false,"is_disabled":false,"rental_uris":{"android":"levelo://app?vid=987d6068-6ede-4b5f-963d-ea828fb36b9e","ios":"levelo://app?vid=987d6068-6ede-4b5f-963d-ea828fb36b9e"},"vehicle_type_id":"4","last_reported":1741892848,"current_range_meters":11200,"station_id":"ce4bhb12rcd13ifvqel0","pricing_plan_id":"cebpf4jnsgd1na2vs0mg"},{"bike_id":"6cec560f-8635-4801-8462-637e6f2c72c5","system_id":"levelo_inurba_marseille","lat":43.23203,"lon":5.3556,"is_reserved":false,"is_disabled":false,"rental_uris":{"android":"levelo://app?vid=6cec560f-8635-4801-8462-637e6f2c72c5","ios":"levelo://app?vid=6cec560f-8635-4801-8462-637e6f2c72c5"},"vehicle_type_id":"4","last_reported":1741892848,"current_range_meters":11200,"station_id":"ce4bhu92rcd13ifvqi70","pricing_plan_id":"cebpf4jnsgd1na2vs0mg"},{"bike_id":"97a3342f-3ca5-439d-8886-7bbabf5b6c98","system_id":"levelo_inurba_marseille","lat":43.3218,"lon":5.36666,"is_reserved":false,"is_disabled":false,"rental_uris":{"android":"levelo://app?vid=97a3342f-3ca5-439d-8886-7bbabf5b6c98","ios":"levelo://app?vid=97a3342f-3ca5-439d-8886-7bbabf5b6c98"},"vehicle_type_id":"4","last_reported":1741892848,"current_range_meters":11200,"station_id":"ce4bhrh2rcd13ifvqhug","pricing_plan_id":"cebpf4jnsgd1na2vs0mg"},{"bike_id":"be032bdf-fb9e-4a87-aa6d-ada034ed44e6","system_id":"levelo_inurba_marseille","lat":43.27816,"lon":5.40699,"is_reserved":false,"is_disabled":false,"rental_uris":{"android":"levelo://app?vid=be032bdf-fb9e-4a87-aa6d-ada034ed44e6","ios":"levelo://app?vid=be032bdf-fb9e-4a87-aa6d-ada034ed44e6"},"vehicle_type_id":"4","last_reported":1741892848,"current_range_meters":11200,"station_id":"ce4bhnh2rcd13ifvqgtg","pricing_plan_id":"cebpf4jnsgd1na2vs0mg"},{"bike_id":"22fb5fed-8a04-4f31-99cb-625830de4f9b","system_id":"levelo_inurba_marseille","lat":43.32226,"lon":5.41233,"is_reserved":false,"is_disabled":false,"rental_uris":{"android":"levelo://app?vid=22fb5fed-8a04-4f31-99cb-625830de4f9b","ios":"levelo://app?vid=22fb5fed-8a04-4f31-99cb-625830de4f9b"},"vehicle_type_id":"4","last_reported":1741892848,"current_range_meters":11200,"station_id":"","pricing_plan_id":"cebpf4jnsgd1na2vs0mg"},{"bike_id":"6944bb06-8a8c-4cf4-86a1-ca9561cf4ee4","system_id":"levelo_inurba_marseille","lat":43.23053,"lon":5.35501,"is_reserved":false,"is_disabled":false,"rental_uris":{"android":"levelo://app?vid=6944bb06-8a8c-4cf4-86a1-ca9561cf4ee4","ios":"levelo://app?vid=6944bb06-8a8c-4cf4-86a1-ca9561cf4ee4"},"vehicle_type_id":"4","last_reported":1741892848,"current_range_meters":11200,"station_id":"cpo3342slgdg3j2ifvpg","pricing_plan_id":"cebpf4jnsgd1na2vs0mg"},{"bike_id":"5c719959-9907-4d3c-b462-4b9b27c79ed3","system_id":"levelo_inurba_marseille","lat":43.28722,"lon":5.37922,"is_reserved":false,"is_disabled":false,"rental_uris":{"android":"levelo://app?vid=5c719959-9907-4d3c-b462-4b9b27c79ed3","ios":"levelo://app?vid=5c719959-9907-4d3c-b462-4b9b27c79ed3"},"vehicle_type_id":"4","last_reported":1741892848,"current_range_meters":11200,"station_id":"ce4bh9p2rcd13ifvqec0","pricing_plan_id":"cebpf4jnsgd1na2vs0mg"},{"bike_id":"d2c1304d-c6de-4e19-a363-2c0c4bdd9fb1","system_id":"levelo_inurba_marseille","lat":43.24661,"lon":5.38889,"is_reserved":false,"is_disabled":false,"rental_uris":{"android":"levelo://app?vid=d2c1304d-c6de-4e19-a363-2c0c4bdd9fb1","ios":"levelo://app?vid=d2c1304d-c6de-4e19-a363-2c0c4bdd9fb1"},"vehicle_type_id":"4","last_reported":1741892848,"current_range_meters":11200,"station_id":"ce4bhg12rcd13ifvqf60","pricing_plan_id":"cebpf4jnsgd1na2vs0mg"},{"bike_id":"4b112a33-2820-4625-96c9-8f07ae7ff329","system_id":"levelo_inurba_marseille","lat":43.30802,"lon":5.43531,"is_reserved":false,"is_disabled":false,"rental_uris":{"android":"levelo://app?vid=4b112a33-2820-4625-96c9-8f07ae7ff329","ios":"levelo://app?vid=4b112a33-2820-4625-96c9-8f07ae7ff329"},"vehicle_type_id":"4","last_reported":1741892848,"current_range_meters":11200,"station_id":"ce4bhph2rcd13ifvqheg","pricing_plan_id":"cebpf4jnsgd1na2vs0mg"},{"bike_id":"ec96b214-56a6-4965-95d3-d0c013927455","system_id":"levelo_inurba_marseille","lat":43.27818,"lon":5.40725,"is_reserved":false,"is_disabled":false,"rental_uris":{"android":"levelo://app?vid=ec96b214-56a6-4965-95d3-d0c013927455","ios":"levelo://app?vid=ec96b214-56a6-4965-95d3-d0c013927455"},"vehicle_type_id":"4","last_reported":1741892848,"current_range_meters":11600,"station_id":"ce4bhnh2rcd13ifvqgtg","pricing_plan_id":"cebpf4jnsgd1na2vs0mg"},{"bike_id":"5b14ac7e-3817-4136-9278-879c70200063","system_id":"levelo_inurba_marseille","lat":43.28932,"lon":5.36643,"is_reserved":false,"is_disabled":false,"rental_uris":{"android":"levelo://app?vid=5b14ac7e-3817-4136-9278-879c70200063","ios":"levelo://app?vid=5b14ac7e-3817-4136-9278-879c70200063"},"vehicle_type_id":"4","last_reported":1741892848,"current_range_meters":11600,"station_id":"ce4bhap2rcd13ifvqek0","pricing_plan_id":"cebpf4jnsgd1na2vs0mg"},{"bike_id":"e3f0bbde-33b9-4ef7-b743-1495cee8cacf","system_id":"levelo_inurba_marseille","lat":43.30612,"lon":5.37206,"is_reserved":false,"is_disabled":false,"rental_uris":{"android":"levelo://app?vid=e3f0bbde-33b9-4ef7-b743-1495cee8cacf","ios":"levelo://app?vid=e3f0bbde-33b9-4ef7-b743-1495cee8cacf"},"vehicle_type_id":"4","last_reported":1741892848,"current_range_meters":11600,"station_id":"ce4bgqh2rcd13ifvqc4g","pricing_plan_id":"cebpf4jnsgd1na2vs0mg"},{"bike_id":"317454e4-dd48-4611-814d-533bcc596415","system_id":"levelo_inurba_marseille","lat":43.29021,"lon":5.37545,"is_reserved":false,"is_disabled":false,"rental_uris":{"android":"levelo://app?vid=317454e4-dd48-4611-814d-533bcc596415","ios":"levelo://app?vid=317454e4-dd48-4611-814d-533bcc596415"},"vehicle_type_id":"4","last_reported":1741892848,"current_range_meters":11600,"station_id":"ce4bh692rcd13ifvqe90","pricing_plan_id":"cebpf4jnsgd1na2vs0mg"},{"bike_id":"dc40a32f-208d-479f-bbd4-157169ce4c0e","system_id":"levelo_inurba_marseille","lat":43.28155,"lon":5.42633,"is_reserved":false,"is_disabled":false,"rental_uris":{"android":"levelo://app?vid=dc40a32f-208d-479f-bbd4-157169ce4c0e","ios":"levelo://app?vid=dc40a32f-208d-479f-bbd4-157169ce4c0e"},"vehicle_type_id":"4","last_reported":1741892848,"current_range_meters":11600,"station_id":"ce4bhnh2rcd13ifvqgug","pricing_plan_id":"cebpf4jnsgd1na2vs0mg"},{"bike_id":"8a7d6fbc-9324-4554-9abc-ceeffff483c4","system_id":"levelo_inurba_marseille","lat":43.32356,"lon":5.38885,"is_reserved":false,"is_disabled":false,"rental_uris":{"android":"levelo://app?vid=8a7d6fbc-9324-4554-9abc-ceeffff483c4","ios":"levelo://app?vid=8a7d6fbc-9324-4554-9abc-ceeffff483c4"},"vehicle_type_id":"4","last_reported":1741892848,"current_range_meters":11600,"station_id":"ce4bhqp2rcd13ifvqhog","pricing_plan_id":"cebpf4jnsgd1na2vs0mg"},{"bike_id":"22fc9b74-474f-43f0-bf63-e9030166d4ef","system_id":"levelo_inurba_marseille","lat":43.26786,"lon":5.39414,"is_reserved":false,"is_disabled":false,"rental_uris":{"android":"levelo://app?vid=22fc9b74-474f-43f0-bf63-e9030166d4ef","ios":"levelo://app?vid=22fc9b74-474f-43f0-bf63-e9030166d4ef"},"vehicle_type_id":"4","last_reported":1741892848,"current_range_meters":11600,"station_id":"ce4bhh12rcd13ifvqfg0","pricing_plan_id":"cebpf4jnsgd1na2vs0mg"},{"bike_id":"7121d818-13e2-43ed-b445-7134fefdd64f","system_id":"levelo_inurba_marseille","lat":43.23224,"lon":5.3552,"is_reserved":false,"is_disabled":false,"rental_uris":{"android":"levelo://app?vid=7121d818-13e2-43ed-b445-7134fefdd64f","ios":"levelo://app?vid=7121d818-13e2-43ed-b445-7134fefdd64f"},"vehicle_type_id":"4","last_reported":1741892848,"current_range_meters":12000,"station_id":"ce4bhu92rcd13ifvqi70","pricing_plan_id":"cebpf4jnsgd1na2vs0mg"},{"bike_id":"bf7035b0-43dc-4781-beb1-fc31690da7ef","system_id":"levelo_inurba_marseille","lat":43.23965,"lon":5.36619,"is_reserved":false,"is_disabled":false,"rental_uris":{"android":"levelo://app?vid=bf7035b0-43dc-4781-beb1-fc31690da7ef","ios":"levelo://app?vid=bf7035b0-43dc-4781-beb1-fc31690da7ef"},"vehicle_type_id":"4","last_reported":1741892848,"current_range_meters":12000,"station_id":"ce4bhi12rcd13ifvqfp0","pricing_plan_id":"cebpf4jnsgd1na2vs0mg"},{"bike_id":"d223d04b-ce27-4fc4-8511-444a9a682883","system_id":"levelo_inurba_marseille","lat":43.28718,"lon":5.36091,"is_reserved":false,"is_disabled":false,"rental_uris":{"android":"levelo://app?vid=d223d04b-ce27-4fc4-8511-444a9a682883","ios":"levelo://app?vid=d223d04b-ce27-4fc4-8511-444a9a682883"},"vehicle_type_id":"4","last_reported":1741892848,"current_range_meters":11600,"station_id":"cki0cbj6b192h4jlfktg","pricing_plan_id":"cebpf4jnsgd1na2vs0mg"},{"bike_id":"16696a96-3a3d-43af-95d3-c64a89d722d7","system_id":"levelo_inurba_marseille","lat":43.309485,"lon":5.390346,"is_reserved":false,"is_disabled":false,"rental_uris":{"android":"levelo://app?vid=16696a96-3a3d-43af-95d3-c64a89d722d7","ios":"levelo://app?vid=16696a96-3a3d-43af-95d3-c64a89d722d7"},"vehicle_type_id":"4","last_reported":1741892848,"current_range_meters":12000,"station_id":"ce4bgt12rcd13ifvqce0","pricing_plan_id":"cebpf4jnsgd1na2vs0mg"},{"bike_id":"63767377-c964-4303-951f-282b026ac978","system_id":"levelo_inurba_marseille","lat":43.31121,"lon":5.37769,"is_reserved":false,"is_disabled":false,"rental_uris":{"android":"levelo://app?vid=63767377-c964-4303-951f-282b026ac978","ios":"levelo://app?vid=63767377-c964-4303-951f-282b026ac978"},"vehicle_type_id":"4","last_reported":1741892848,"current_range_meters":12000,"station_id":"ce4bgt92rcd13ifvqcg0","pricing_plan_id":"cebpf4jnsgd1na2vs0mg"},{"bike_id":"77c5059d-e18b-4169-9849-a973f1f035b1","system_id":"levelo_inurba_marseille","lat":43.27919,"lon":5.39576,"is_reserved":false,"is_disabled":false,"rental_uris":{"android":"levelo://app?vid=77c5059d-e18b-4169-9849-a973f1f035b1","ios":"levelo://app?vid=77c5059d-e18b-4169-9849-a973f1f035b1"},"vehicle_type_id":"4","last_reported":1741892848,"current_range_meters":12000,"station_id":"ce4bhf92rcd13ifvqf40","pricing_plan_id":"cebpf4jnsgd1na2vs0mg"},{"bike_id":"7ec560ba-5aa0-4004-9944-6b2f1978d1d2","system_id":"levelo_inurba_marseille","lat":43.27814,"lon":5.40716,"is_reserved":false,"is_disabled":false,"rental_uris":{"android":"levelo://app?vid=7ec560ba-5aa0-4004-9944-6b2f1978d1d2","ios":"levelo://app?vid=7ec560ba-5aa0-4004-9944-6b2f1978d1d2"},"vehicle_type_id":"4","last_reported":1741892848,"current_range_meters":12000,"station_id":"ce4bhnh2rcd13ifvqgtg","pricing_plan_id":"cebpf4jnsgd1na2vs0mg"},{"bike_id":"7b9c0270-878e-41ee-8da5-a263e7658b7c","system_id":"levelo_inurba_marseille","lat":43.3111,"lon":5.37774,"is_reserved":false,"is_disabled":false,"rental_uris":{"android":"levelo://app?vid=7b9c0270-878e-41ee-8da5-a263e7658b7c","ios":"levelo://app?vid=7b9c0270-878e-41ee-8da5-a263e7658b7c"},"vehicle_type_id":"4","last_reported":1741892848,"current_range_meters":12000,"station_id":"ce4bgt92rcd13ifvqcg0","pricing_plan_id":"cebpf4jnsgd1na2vs0mg"},{"bike_id":"36ec5a15-215b-4367-a3ca-336aadd9a251","system_id":"levelo_inurba_marseille","lat":43.33746,"lon":5.3745,"is_reserved":false,"is_disabled":false,"rental_uris":{"android":"levelo://app?vid=36ec5a15-215b-4367-a3ca-336aadd9a251","ios":"levelo://app?vid=36ec5a15-215b-4367-a3ca-336aadd9a251"},"vehicle_type_id":"4","last_reported":1741892848,"current_range_meters":12400,"station_id":"","pricing_plan_id":"cebpf4jnsgd1na2vs0mg"},{"bike_id":"a1865482-901a-461f-bbbf-89cc5aaa4978","system_id":"levelo_inurba_marseille","lat":43.31249,"lon":5.37861,"is_reserved":false,"is_disabled":false,"rental_uris":{"android":"levelo://app?vid=a1865482-901a-461f-bbbf-89cc5aaa4978","ios":"levelo://app?vid=a1865482-901a-461f-bbbf-89cc5aaa4978"},"vehicle_type_id":"4","last_reported":1741892848,"current_range_meters":12400,"station_id":"ce4bgj92rcd13ifvqbd0","pricing_plan_id":"cebpf4jnsgd1na2vs0mg"},{"bike_id":"a5c672ff-0d6f-4565-b2c7-94f7284c6604","system_id":"levelo_inurba_marseille","lat":43.27944,"lon":5.41046,"is_reserved":false,"is_disabled":false,"rental_uris":{"android":"levelo://app?vid=a5c672ff-0d6f-4565-b2c7-94f7284c6604","ios":"levelo://app?vid=a5c672ff-0d6f-4565-b2c7-94f7284c6604"},"vehicle_type_id":"4","last_reported":1741892848,"current_range_meters":12400,"station_id":"ce4bhnp2rcd13ifvqh0g","pricing_plan_id":"cebpf4jnsgd1na2vs0mg"},{"bike_id":"1ae01e22-4c4d-4069-8bf6-0be88949011a","system_id":"levelo_inurba_marseille","lat":43.3236,"lon":5.3887,"is_reserved":false,"is_disabled":false,"rental_uris":{"android":"levelo://app?vid=1ae01e22-4c4d-4069-8bf6-0be88949011a","ios":"levelo://app?vid=1ae01e22-4c4d-4069-8bf6-0be88949011a"},"vehicle_type_id":"4","last_reported":1741892848,"current_range_meters":12400,"station_id":"ce4bhqp2rcd13ifvqhog","pricing_plan_id":"cebpf4jnsgd1na2vs0mg"},{"bike_id":"4078ae31-3c28-4811-a96d-e5898683501c","system_id":"levelo_inurba_marseille","lat":43.27822,"lon":5.40711,"is_reserved":false,"is_disabled":false,"rental_uris":{"android":"levelo://app?vid=4078ae31-3c28-4811-a96d-e5898683501c","ios":"levelo://app?vid=4078ae31-3c28-4811-a96d-e5898683501c"},"vehicle_type_id":"4","last_reported":1741892848,"current_range_meters":12400,"station_id":"ce4bhnh2rcd13ifvqgtg","pricing_plan_id":"cebpf4jnsgd1na2vs0mg"},{"bike_id":"b634fcd7-4303-4fed-a2f8-fcd04ed2a4dd","system_id":"levelo_inurba_marseille","lat":43.230553,"lon":5.354947,"is_reserved":false,"is_disabled":false,"rental_uris":{"android":"levelo://app?vid=b634fcd7-4303-4fed-a2f8-fcd04ed2a4dd","ios":"levelo://app?vid=b634fcd7-4303-4fed-a2f8-fcd04ed2a4dd"},"vehicle_type_id":"4","last_reported":1741892848,"current_range_meters":12400,"station_id":"cpo3342slgdg3j2ifvpg","pricing_plan_id":"cebpf4jnsgd1na2vs0mg"},{"bike_id":"3363e5ed-aafd-4c83-9f97-12270e6ffcf4","system_id":"levelo_inurba_marseille","lat":43.24854,"lon":5.4064,"is_reserved":false,"is_disabled":false,"rental_uris":{"android":"levelo://app?vid=3363e5ed-aafd-4c83-9f97-12270e6ffcf4","ios":"levelo://app?vid=3363e5ed-aafd-4c83-9f97-12270e6ffcf4"},"vehicle_type_id":"4","last_reported":1741892848,"current_range_meters":12400,"station_id":"","pricing_plan_id":"cebpf4jnsgd1na2vs0mg"},{"bike_id":"70ba6d01-c759-4be6-937f-2a30aeaa11e1","system_id":"levelo_inurba_marseille","lat":43.30652,"lon":5.40102,"is_reserved":false,"is_disabled":false,"rental_uris":{"android":"levelo://app?vid=70ba6d01-c759-4be6-937f-2a30aeaa11e1","ios":"levelo://app?vid=70ba6d01-c759-4be6-937f-2a30aeaa11e1"},"vehicle_type_id":"4","last_reported":1741892848,"current_range_meters":12400,"station_id":"ce4bh112rcd13ifvqda0","pricing_plan_id":"cebpf4jnsgd1na2vs0mg"},{"bike_id":"3e6f9537-560c-42ba-a35b-f60272e4caab","system_id":"levelo_inurba_marseille","lat":43.28349,"lon":5.38103,"is_reserved":false,"is_disabled":false,"rental_uris":{"android":"levelo://app?vid=3e6f9537-560c-42ba-a35b-f60272e4caab","ios":"levelo://app?vid=3e6f9537-560c-42ba-a35b-f60272e4caab"},"vehicle_type_id":"4","last_reported":1741892848,"current_range_meters":12000,"station_id":"ce4bh412rcd13ifvqdr0","pricing_plan_id":"cebpf4jnsgd1na2vs0mg"},{"bike_id":"d7c54649-9ca5-47be-9341-30b5c6fb686a","system_id":"levelo_inurba_marseille","lat":43.29625,"lon":5.40598,"is_reserved":false,"is_disabled":false,"rental_uris":{"android":"levelo://app?vid=d7c54649-9ca5-47be-9341-30b5c6fb686a","ios":"levelo://app?vid=d7c54649-9ca5-47be-9341-30b5c6fb686a"},"vehicle_type_id":"4","last_reported":1741892848,"current_range_meters":12400,"station_id":"ce4bh0h2rcd13ifvqd60","pricing_plan_id":"cebpf4jnsgd1na2vs0mg"},{"bike_id":"484d62e3-8e92-4d73-971b-41c613b66c1b","system_id":"levelo_inurba_marseille","lat":43.28856,"lon":5.35863,"is_reserved":false,"is_disabled":false,"rental_uris":{"android":"levelo://app?vid=484d62e3-8e92-4d73-971b-41c613b66c1b","ios":"levelo://app?vid=484d62e3-8e92-4d73-971b-41c613b66c1b"},"vehicle_type_id":"4","last_reported":1741892848,"current_range_meters":12400,"station_id":"ce4bhb12rcd13ifvqem0","pricing_plan_id":"cebpf4jnsgd1na2vs0mg"},{"bike_id":"436bf6fd-98f0-4c70-968c-7fcac8f398a5","system_id":"levelo_inurba_marseille","lat":43.25073,"lon":5.41073,"is_reserved":false,"is_disabled":false,"rental_uris":{"android":"levelo://app?vid=436bf6fd-98f0-4c70-968c-7fcac8f398a5","ios":"levelo://app?vid=436bf6fd-98f0-4c70-968c-7fcac8f398a5"},"vehicle_type_id":"4","last_reported":1741892848,"current_range_meters":12800,"station_id":"","pricing_plan_id":"cebpf4jnsgd1na2vs0mg"},{"bike_id":"56c69cdd-79bc-48cf-907a-4c46378e273a","system_id":"levelo_inurba_marseille","lat":43.2558,"lon":5.38241,"is_reserved":false,"is_disabled":false,"rental_uris":{"android":"levelo://app?vid=56c69cdd-79bc-48cf-907a-4c46378e273a","ios":"levelo://app?vid=56c69cdd-79bc-48cf-907a-4c46378e273a"},"vehicle_type_id":"4","last_reported":1741892848,"current_range_meters":12800,"station_id":"ce4bhih2rcd13ifvqfs0","pricing_plan_id":"cebpf4jnsgd1na2vs0mg"},{"bike_id":"59d72e6a-19ec-40b4-9a96-5d1ce1946a7f","system_id":"levelo_inurba_marseille","lat":43.2784,"lon":5.40691,"is_reserved":false,"is_disabled":false,"rental_uris":{"android":"levelo://app?vid=59d72e6a-19ec-40b4-9a96-5d1ce1946a7f","ios":"levelo://app?vid=59d72e6a-19ec-40b4-9a96-5d1ce1946a7f"},"vehicle_type_id":"4","last_reported":1741892848,"current_range_meters":12800,"station_id":"ce4bhnh2rcd13ifvqgtg","pricing_plan_id":"cebpf4jnsgd1na2vs0mg"},{"bike_id":"6017db8d-5fb3-4140-9e20-60d2e7ceb5d8","system_id":"levelo_inurba_marseille","lat":43.27997,"lon":5.40025,"is_reserved":false,"is_disabled":false,"rental_uris":{"android":"levelo://app?vid=6017db8d-5fb3-4140-9e20-60d2e7ceb5d8","ios":"levelo://app?vid=6017db8d-5fb3-4140-9e20-60d2e7ceb5d8"},"vehicle_type_id":"4","last_reported":1741892848,"current_range_meters":12400,"station_id":"ce4bho92rcd13ifvqh4g","pricing_plan_id":"cebpf4jnsgd1na2vs0mg"},{"bike_id":"5cc7458f-f066-4511-ae2c-1f6d5a0e7158","system_id":"levelo_inurba_marseille","lat":43.2758,"lon":5.3842,"is_reserved":false,"is_disabled":false,"rental_uris":{"android":"levelo://app?vid=5cc7458f-f066-4511-ae2c-1f6d5a0e7158","ios":"levelo://app?vid=5cc7458f-f066-4511-ae2c-1f6d5a0e7158"},"vehicle_type_id":"4","last_reported":1741892848,"current_range_meters":12800,"station_id":"ce4bhh92rcd13ifvqfi0","pricing_plan_id":"cebpf4jnsgd1na2vs0mg"},{"bike_id":"9a719051-5115-4a08-8e7b-ae42f9cbb7fe","system_id":"levelo_inurba_marseille","lat":43.31079,"lon":5.37806,"is_reserved":false,"is_disabled":false,"rental_uris":{"android":"levelo://app?vid=9a719051-5115-4a08-8e7b-ae42f9cbb7fe","ios":"levelo://app?vid=9a719051-5115-4a08-8e7b-ae42f9cbb7fe"},"vehicle_type_id":"4","last_reported":1741892848,"current_range_meters":12800,"station_id":"ce4bgt92rcd13ifvqcg0","pricing_plan_id":"cebpf4jnsgd1na2vs0mg"},{"bike_id":"b90ee886-af1a-4aae-b850-ea802bb90718","system_id":"levelo_inurba_marseille","lat":43.2695,"lon":5.38617,"is_reserved":false,"is_disabled":false,"rental_uris":{"android":"levelo://app?vid=b90ee886-af1a-4aae-b850-ea802bb90718","ios":"levelo://app?vid=b90ee886-af1a-4aae-b850-ea802bb90718"},"vehicle_type_id":"4","last_reported":1741892848,"current_range_meters":11200,"station_id":"ce4bhh92rcd13ifvqfh0","pricing_plan_id":"cebpf4jnsgd1na2vs0mg"},{"bike_id":"b4b3ef83-ad79-4dfa-97e2-a6f24424db6a","system_id":"levelo_inurba_marseille","lat":43.32339,"lon":5.40628,"is_reserved":false,"is_disabled":false,"rental_uris":{"android":"levelo://app?vid=b4b3ef83-ad79-4dfa-97e2-a6f24424db6a","ios":"levelo://app?vid=b4b3ef83-ad79-4dfa-97e2-a6f24424db6a"},"vehicle_type_id":"4","last_reported":1741892848,"current_range_meters":12800,"station_id":"ce4bhq92rcd13ifvqhjg","pricing_plan_id":"cebpf4jnsgd1na2vs0mg"},{"bike_id":"dfa987b8-bcc4-417d-800d-2cc88b10be9a","system_id":"levelo_inurba_marseille","lat":43.2931,"lon":5.37167,"is_reserved":false,"is_disabled":false,"rental_uris":{"android":"levelo://app?vid=dfa987b8-bcc4-417d-800d-2cc88b10be9a","ios":"levelo://app?vid=dfa987b8-bcc4-417d-800d-2cc88b10be9a"},"vehicle_type_id":"4","last_reported":1741892848,"current_range_meters":13600,"station_id":"ce4bgh92rcd13ifvqb40","pricing_plan_id":"cebpf4jnsgd1na2vs0mg"},{"bike_id":"16bd8669-e8e5-4db9-8d19-b465f70492a2","system_id":"levelo_inurba_marseille","lat":43.31122,"lon":5.37761,"is_reserved":false,"is_disabled":false,"rental_uris":{"android":"levelo://app?vid=16bd8669-e8e5-4db9-8d19-b465f70492a2","ios":"levelo://app?vid=16bd8669-e8e5-4db9-8d19-b465f70492a2"},"vehicle_type_id":"4","last_reported":1741892848,"current_range_meters":14000,"station_id":"ce4bgt92rcd13ifvqcg0","pricing_plan_id":"cebpf4jnsgd1na2vs0mg"},{"bike_id":"2e351c03-3a13-4dcb-97c2-3573f2f6e096","system_id":"levelo_inurba_marseille","lat":43.23193,"lon":5.35554,"is_reserved":false,"is_disabled":false,"rental_uris":{"android":"levelo://app?vid=2e351c03-3a13-4dcb-97c2-3573f2f6e096","ios":"levelo://app?vid=2e351c03-3a13-4dcb-97c2-3573f2f6e096"},"vehicle_type_id":"4","last_reported":1741892848,"current_range_meters":13600,"station_id":"ce4bhu92rcd13ifvqi70","pricing_plan_id":"cebpf4jnsgd1na2vs0mg"},{"bike_id":"de830bf4-91e4-4420-9b59-a4b88b0041d9","system_id":"levelo_inurba_marseille","lat":43.27813,"lon":5.40721,"is_reserved":false,"is_disabled":false,"rental_uris":{"android":"levelo://app?vid=de830bf4-91e4-4420-9b59-a4b88b0041d9","ios":"levelo://app?vid=de830bf4-91e4-4420-9b59-a4b88b0041d9"},"vehicle_type_id":"4","last_reported":1741892848,"current_range_meters":13600,"station_id":"ce4bhnh2rcd13ifvqgtg","pricing_plan_id":"cebpf4jnsgd1na2vs0mg"},{"bike_id":"840fe58d-702c-4643-802b-02b7904775ac","system_id":"levelo_inurba_marseille","lat":43.30794,"lon":5.43528,"is_reserved":false,"is_disabled":false,"rental_uris":{"android":"levelo://app?vid=840fe58d-702c-4643-802b-02b7904775ac","ios":"levelo://app?vid=840fe58d-702c-4643-802b-02b7904775ac"},"vehicle_type_id":"4","last_reported":1741892848,"current_range_meters":13600,"station_id":"ce4bhph2rcd13ifvqheg","pricing_plan_id":"cebpf4jnsgd1na2vs0mg"},{"bike_id":"8e33ff6f-691d-4650-aa13-155d33799801","system_id":"levelo_inurba_marseille","lat":43.27824,"lon":5.39208,"is_reserved":false,"is_disabled":false,"rental_uris":{"android":"levelo://app?vid=8e33ff6f-691d-4650-aa13-155d33799801","ios":"levelo://app?vid=8e33ff6f-691d-4650-aa13-155d33799801"},"vehicle_type_id":"4","last_reported":1741892848,"current_range_meters":13600,"station_id":"ce4bhjp2rcd13ifvqga0","pricing_plan_id":"cebpf4jnsgd1na2vs0mg"},{"bike_id":"af39de9d-f4ad-4506-92d2-1da4e2e3a188","system_id":"levelo_inurba_marseille","lat":43.2903,"lon":5.38638,"is_reserved":false,"is_disabled":false,"rental_uris":{"android":"levelo://app?vid=af39de9d-f4ad-4506-92d2-1da4e2e3a188","ios":"levelo://app?vid=af39de9d-f4ad-4506-92d2-1da4e2e3a188"},"vehicle_type_id":"4","last_reported":1741892848,"current_range_meters":14000,"station_id":"ce4bh4p2rcd13ifvqe0g","pricing_plan_id":"cebpf4jnsgd1na2vs0mg"},{"bike_id":"a5e71948-735a-4229-b2ca-74d55fc62066","system_id":"levelo_inurba_marseille","lat":43.28031,"lon":5.36961,"is_reserved":false,"is_disabled":false,"rental_uris":{"android":"levelo://app?vid=a5e71948-735a-4229-b2ca-74d55fc62066","ios":"levelo://app?vid=a5e71948-735a-4229-b2ca-74d55fc62066"},"vehicle_type_id":"4","last_reported":1741892848,"current_range_meters":14000,"station_id":"ce4bha12rcd13ifvqef0","pricing_plan_id":"cebpf4jnsgd1na2vs0mg"},{"bike_id":"d71c7109-41aa-4810-80b5-3941266d1101","system_id":"levelo_inurba_marseille","lat":43.2681,"lon":5.40258,"is_reserved":false,"is_disabled":false,"rental_uris":{"android":"levelo://app?vid=d71c7109-41aa-4810-80b5-3941266d1101","ios":"levelo://app?vid=d71c7109-41aa-4810-80b5-3941266d1101"},"vehicle_type_id":"4","last_reported":1741892848,"current_range_meters":14000,"station_id":"ce501612rcd8frsf0b60","pricing_plan_id":"cebpf4jnsgd1na2vs0mg"},{"bike_id":"320ca91b-5cbf-4547-922c-16842260315a","system_id":"levelo_inurba_marseille","lat":43.29275,"lon":5.36849,"is_reserved":false,"is_disabled":false,"rental_uris":{"android":"levelo://app?vid=320ca91b-5cbf-4547-922c-16842260315a","ios":"levelo://app?vid=320ca91b-5cbf-4547-922c-16842260315a"},"vehicle_type_id":"4","last_reported":1741892848,"current_range_meters":14000,"station_id":"ce4bhbp2rcd13ifvqesg","pricing_plan_id":"cebpf4jnsgd1na2vs0mg"},{"bike_id":"ec9cb588-533c-4b6a-8fd0-a59fb36242d5","system_id":"levelo_inurba_marseille","lat":43.29277,"lon":5.36851,"is_reserved":false,"is_disabled":false,"rental_uris":{"android":"levelo://app?vid=ec9cb588-533c-4b6a-8fd0-a59fb36242d5","ios":"levelo://app?vid=ec9cb588-533c-4b6a-8fd0-a59fb36242d5"},"vehicle_type_id":"4","last_reported":1741892848,"current_range_meters":14000,"station_id":"ce4bhbp2rcd13ifvqesg","pricing_plan_id":"cebpf4jnsgd1na2vs0mg"},{"bike_id":"594a33ea-5c85-49b0-893b-48b1f5e1011a","system_id":"levelo_inurba_marseille","lat":43.30924,"lon":5.40183,"is_reserved":false,"is_disabled":true,"rental_uris":{"android":"levelo://app?vid=594a33ea-5c85-49b0-893b-48b1f5e1011a","ios":"levelo://app?vid=594a33ea-5c85-49b0-893b-48b1f5e1011a"},"vehicle_type_id":"4","last_reported":1741892848,"current_range_meters":14000,"station_id":"ce4bgvp2rcd13ifvqct0","pricing_plan_id":"cebpf4jnsgd1na2vs0mg"},{"bike_id":"4c5115b0-3bab-45de-a0cd-c624e4666f9d","system_id":"levelo_inurba_marseille","lat":43.29089,"lon":5.38134,"is_reserved":false,"is_disabled":false,"rental_uris":{"android":"levelo://app?vid=4c5115b0-3bab-45de-a0cd-c624e4666f9d","ios":"levelo://app?vid=4c5115b0-3bab-45de-a0cd-c624e4666f9d"},"vehicle_type_id":"4","last_reported":1741892848,"current_range_meters":14000,"station_id":"ce4bh512rcd13ifvqe2g","pricing_plan_id":"cebpf4jnsgd1na2vs0mg"},{"bike_id":"d0f02bff-97d0-4189-ba61-a3b7cd11e8f0","system_id":"levelo_inurba_marseille","lat":43.29276,"lon":5.36834,"is_reserved":false,"is_disabled":false,"rental_uris":{"android":"levelo://app?vid=d0f02bff-97d0-4189-ba61-a3b7cd11e8f0","ios":"levelo://app?vid=d0f02bff-97d0-4189-ba61-a3b7cd11e8f0"},"vehicle_type_id":"4","last_reported":1741892848,"current_range_meters":14000,"station_id":"ce4bhbp2rcd13ifvqesg","pricing_plan_id":"cebpf4jnsgd1na2vs0mg"},{"bike_id":"4d234660-a1cd-4531-9ad4-f900485ecf5e","system_id":"levelo_inurba_marseille","lat":43.30641,"lon":5.40096,"is_reserved":false,"is_disabled":false,"rental_uris":{"android":"levelo://app?vid=4d234660-a1cd-4531-9ad4-f900485ecf5e","ios":"levelo://app?vid=4d234660-a1cd-4531-9ad4-f900485ecf5e"},"vehicle_type_id":"4","last_reported":1741892848,"current_range_meters":14400,"station_id":"ce4bh112rcd13ifvqda0","pricing_plan_id":"cebpf4jnsgd1na2vs0mg"},{"bike_id":"78dce6e6-36eb-4d6b-a861-292dc7c9e479","system_id":"levelo_inurba_marseille","lat":43.24865,"lon":5.39088,"is_reserved":false,"is_disabled":false,"rental_uris":{"android":"levelo://app?vid=78dce6e6-36eb-4d6b-a861-292dc7c9e479","ios":"levelo://app?vid=78dce6e6-36eb-4d6b-a861-292dc7c9e479"},"vehicle_type_id":"4","last_reported":1741892848,"current_range_meters":14400,"station_id":"ce4bhgp2rcd13ifvqfd0","pricing_plan_id":"cebpf4jnsgd1na2vs0mg"},{"bike_id":"757ac2f4-15cf-4020-9036-d2d18385693b","system_id":"levelo_inurba_marseille","lat":43.25865,"lon":5.39897,"is_reserved":false,"is_disabled":false,"rental_uris":{"android":"levelo://app?vid=757ac2f4-15cf-4020-9036-d2d18385693b","ios":"levelo://app?vid=757ac2f4-15cf-4020-9036-d2d18385693b"},"vehicle_type_id":"4","last_reported":1741892848,"current_range_meters":14400,"station_id":"ce4bhl92rcd13ifvqghg","pricing_plan_id":"cebpf4jnsgd1na2vs0mg"},{"bike_id":"697ab8bb-5045-4359-be5b-f82e82d944f3","system_id":"levelo_inurba_marseille","lat":43.29277,"lon":5.40112,"is_reserved":false,"is_disabled":false,"rental_uris":{"android":"levelo://app?vid=697ab8bb-5045-4359-be5b-f82e82d944f3","ios":"levelo://app?vid=697ab8bb-5045-4359-be5b-f82e82d944f3"},"vehicle_type_id":"4","last_reported":1741892848,"current_range_meters":14400,"station_id":"ce4bh312rcd13ifvqdk0","pricing_plan_id":"cebpf4jnsgd1na2vs0mg"},{"bike_id":"e51d23ca-52f8-4b8f-a9e9-3fadcf38336e","system_id":"levelo_inurba_marseille","lat":43.29624,"lon":5.37167,"is_reserved":false,"is_disabled":false,"rental_uris":{"android":"levelo://app?vid=e51d23ca-52f8-4b8f-a9e9-3fadcf38336e","ios":"levelo://app?vid=e51d23ca-52f8-4b8f-a9e9-3fadcf38336e"},"vehicle_type_id":"4","last_reported":1741892848,"current_range_meters":14400,"station_id":"ce4bgnh2rcd13ifvqc0g","pricing_plan_id":"cebpf4jnsgd1na2vs0mg"},{"bike_id":"aeec4843-e0cf-441f-b4d2-907b0f5fbe59","system_id":"levelo_inurba_marseille","lat":43.25807,"lon":5.39461,"is_reserved":false,"is_disabled":false,"rental_uris":{"android":"levelo://app?vid=aeec4843-e0cf-441f-b4d2-907b0f5fbe59","ios":"levelo://app?vid=aeec4843-e0cf-441f-b4d2-907b0f5fbe59"},"vehicle_type_id":"4","last_reported":1741892848,"current_range_meters":14800,"station_id":"ce4bhip2rcd13ifvqft0","pricing_plan_id":"cebpf4jnsgd1na2vs0mg"},{"bike_id":"9f2f8d7d-4051-42ea-bbe5-2aca50ac04bd","system_id":"levelo_inurba_marseille","lat":43.25581,"lon":5.38237,"is_reserved":false,"is_disabled":false,"rental_uris":{"android":"levelo://app?vid=9f2f8d7d-4051-42ea-bbe5-2aca50ac04bd","ios":"levelo://app?vid=9f2f8d7d-4051-42ea-bbe5-2aca50ac04bd"},"vehicle_type_id":"4","last_reported":1741892848,"current_range_meters":14800,"station_id":"ce4bhih2rcd13ifvqfs0","pricing_plan_id":"cebpf4jnsgd1na2vs0mg"},{"bike_id":"dc2dc920-7061-4611-9ad3-02d4898aaa15","system_id":"levelo_inurba_marseille","lat":43.23178,"lon":5.39984,"is_reserved":false,"is_disabled":false,"rental_uris":{"android":"levelo://app?vid=dc2dc920-7061-4611-9ad3-02d4898aaa15","ios":"levelo://app?vid=dc2dc920-7061-4611-9ad3-02d4898aaa15"},"vehicle_type_id":"4","last_reported":1741892848,"current_range_meters":14800,"station_id":"ce4bhn12rcd13ifvqgqg","pricing_plan_id":"cebpf4jnsgd1na2vs0mg"},{"bike_id":"d7a5e33c-bc6d-479b-9401-5121dfd918cb","system_id":"levelo_inurba_marseille","lat":43.31099,"lon":5.37793,"is_reserved":false,"is_disabled":false,"rental_uris":{"android":"levelo://app?vid=d7a5e33c-bc6d-479b-9401-5121dfd918cb","ios":"levelo://app?vid=d7a5e33c-bc6d-479b-9401-5121dfd918cb"},"vehicle_type_id":"4","last_reported":1741892848,"current_range_meters":14800,"station_id":"ce4bgt92rcd13ifvqcg0","pricing_plan_id":"cebpf4jnsgd1na2vs0mg"},{"bike_id":"3e33256a-d861-45c0-af01-75642132ca20","system_id":"levelo_inurba_marseille","lat":43.33073,"lon":5.39402,"is_reserved":false,"is_disabled":false,"rental_uris":{"android":"levelo://app?vid=3e33256a-d861-45c0-af01-75642132ca20","ios":"levelo://app?vid=3e33256a-d861-45c0-af01-75642132ca20"},"vehicle_type_id":"4","last_reported":1741892848,"current_range_meters":14800,"station_id":"","pricing_plan_id":"cebpf4jnsgd1na2vs0mg"},{"bike_id":"29832e81-b63f-44c3-a8ae-1ccbc505bd58","system_id":"levelo_inurba_marseille","lat":43.27815,"lon":5.40666,"is_reserved":false,"is_disabled":false,"rental_uris":{"android":"levelo://app?vid=29832e81-b63f-44c3-a8ae-1ccbc505bd58","ios":"levelo://app?vid=29832e81-b63f-44c3-a8ae-1ccbc505bd58"},"vehicle_type_id":"4","last_reported":1741892848,"current_range_meters":15200,"station_id":"ce4bhnh2rcd13ifvqgtg","pricing_plan_id":"cebpf4jnsgd1na2vs0mg"},{"bike_id":"0ce2a863-d697-4a2c-ba01-bd8f11f37234","system_id":"levelo_inurba_marseille","lat":43.32043,"lon":5.41549,"is_reserved":false,"is_disabled":false,"rental_uris":{"android":"levelo://app?vid=0ce2a863-d697-4a2c-ba01-bd8f11f37234","ios":"levelo://app?vid=0ce2a863-d697-4a2c-ba01-bd8f11f37234"},