{"last_updated":1768407473,"ttl":60,"version":"2.2","data":{"bikes":[{"bike_id":"7ab4c44b-45f1-4aa3-9de5-0c7938168953","system_id":"levelo_inurba_marseille","lat":43.28613,"lon":5.35104,"is_reserved":false,"is_disabled":false,"rental_uris":{"android":"levelo://app?vid=7ab4c44b-45f1-4aa3-9de5-0c7938168953","ios":"levelo://app?vid=7ab4c44b-45f1-4aa3-9de5-0c7938168953"},"vehicle_type_id":"4","last_reported":1768407474,"current_range_meters":2800,"station_id":"ce4bhch2rcd13ifvqeug","pricing_plan_id":"cebpf4jnsgd1na2vs0mg"},{"bike_id":"2cf2dbb5-c275-458b-a583-376515587ad8","system_id":"levelo_inurba_marseille","lat":43.31726,"lon":5.40434,"is_reserved":false,"is_disabled":true,"rental_uris":{"android":"levelo://app?vid=2cf2dbb5-c275-458b-a583-376515587ad8","ios":"levelo://app?vid=2cf2dbb5-c275-458b-a583-376515587ad8"},"vehicle_type_id":"4","last_reported":1768407474,"current_range_meters":2800,"station_id":"","pricing_plan_id":"cebpf4jnsgd1na2vs0mg"},{"bike_id":"ea9769ab-39d8-4325-b701-f75eef547046","system_id":"levelo_inurba_marseille","lat":43.22528,"lon":5.34843,"is_reserved":false,"is_disabled":false,"rental_uris":{"android":"levelo://app?vid=ea9769ab-39d8-4325-b701-f75eef547046","ios":"levelo://app?vid=ea9769ab-39d8-4325-b701-f75eef547046"},"vehicle_type_id":"4","last_reported":1768407474,"current_range_meters":2800,"station_id":"st_cvj5dfep6f1abm77gieg","pricing_plan_id":"cebpf4jnsgd1na2vs0mg"},{"bike_id":"93ee6405-db38-4ca6-acc1-e8de6e8d2bdc","system_id":"levelo_inurba_marseille","lat":43.32483,"lon":5.36571,"is_reserved":false,"is_disabled":false,"rental_uris":{"android":"levelo://app?vid=93ee6405-db38-4ca6-acc1-e8de6e8d2bdc","ios":"levelo://app?vid=93ee6405-db38-4ca6-acc1-e8de6e8d2bdc"},"vehicle_type_id":"4","last_reported":1768407474,"current_range_meters":2800,"station_id":"ce4bhs12rcd13ifvqhvg","pricing_plan_id":"cebpf4jnsgd1na2vs0mg"},{"bike_id":"cbade099-de57-4fdb-b7fe-92bb4b13f180","system_id":"levelo_inurba_marseille","lat":43.24998,"lon":5.38933,"is_reserved":false,"is_disabled":false,"rental_uris":{"android":"levelo://app?vid=cbade099-de57-4fdb-b7fe-92bb4b13f180","ios":"levelo://app?vid=cbade099-de57-4fdb-b7fe-92bb4b13f180"},"vehicle_type_id":"4","last_reported":1768407474,"current_range_meters":2800,"station_id":"ce4bhgp2rcd13ifvqfd0","pricing_plan_id":"cebpf4jnsgd1na2vs0mg"},{"bike_id":"841440e5-4cf2-4432-a161-4904d9a6bd15","system_id":"levelo_inurba_marseille","lat":43.28541,"lon":5.44091,"is_reserved":false,"is_disabled":false,"rental_uris":{"android":"levelo://app?vid=841440e5-4cf2-4432-a161-4904d9a6bd15","ios":"levelo://app?vid=841440e5-4cf2-4432-a161-4904d9a6bd15"},"vehicle_type_id":"4","last_reported":1768407474,"current_range_meters":2800,"station_id":"st_d3j3df2ikq2c7380ej80","pricing_plan_id":"cebpf4jnsgd1na2vs0mg"},{"bike_id":"3502b945-707a-499e-b3af-6caf8e3903bc","system_id":"levelo_inurba_marseille","lat":43.28479,"lon":5.48392,"is_reserved":false,"is_disabled":false,"rental_uris":{"android":"levelo://app?vid=3502b945-707a-499e-b3af-6caf8e3903bc","ios":"levelo://app?vid=3502b945-707a-499e-b3af-6caf8e3903bc"},"vehicle_type_id":"4","last_reported":1768407474,"current_range_meters":2800,"station_id":"","pricing_plan_id":"cebpf4jnsgd1na2vs0mg"},{"bike_id":"c17fc74c-341d-495b-b6fc-ab44df8b4aa1","system_id":"levelo_inurba_marseille","lat":43.3042,"lon":5.41276,"is_reserved":false,"is_disabled":false,"rental_uris":{"android":"levelo://app?vid=c17fc74c-341d-495b-b6fc-ab44df8b4aa1","ios":"levelo://app?vid=c17fc74c-341d-495b-b6fc-ab44df8b4aa1"},"vehicle_type_id":"4","last_reported":1768407474,"current_range_meters":2800,"station_id":"ce4bhop2rcd13ifvqh8g","pricing_plan_id":"cebpf4jnsgd1na2vs0mg"},{"bike_id":"874aa7ee-1e54-48fd-96cb-78f074972571","system_id":"levelo_inurba_marseille","lat":43.248045,"lon":5.374671,"is_reserved":false,"is_disabled":false,"rental_uris":{"android":"levelo://app?vid=874aa7ee-1e54-48fd-96cb-78f074972571","ios":"levelo://app?vid=874aa7ee-1e54-48fd-96cb-78f074972571"},"vehicle_type_id":"4","last_reported":1768407474,"current_range_meters":2800,"station_id":"ce4bhgh2rcd13ifvqfb0","pricing_plan_id":"cebpf4jnsgd1na2vs0mg"},{"bike_id":"92fe840a-ee12-437f-b679-d521f53658c4","system_id":"levelo_inurba_marseille","lat":43.281533,"lon":5.42642,"is_reserved":false,"is_disabled":false,"rental_uris":{"android":"levelo://app?vid=92fe840a-ee12-437f-b679-d521f53658c4","ios":"levelo://app?vid=92fe840a-ee12-437f-b679-d521f53658c4"},"vehicle_type_id":"4","last_reported":1768407474,"current_range_meters":2800,"station_id":"ce4bhnh2rcd13ifvqgug","pricing_plan_id":"cebpf4jnsgd1na2vs0mg"},{"bike_id":"1d115a65-13c1-4f91-aeb5-e8e1e9fe8ea5","system_id":"levelo_inurba_marseille","lat":43.28105,"lon":5.37839,"is_reserved":false,"is_disabled":false,"rental_uris":{"android":"levelo://app?vid=1d115a65-13c1-4f91-aeb5-e8e1e9fe8ea5","ios":"levelo://app?vid=1d115a65-13c1-4f91-aeb5-e8e1e9fe8ea5"},"vehicle_type_id":"4","last_reported":1768407474,"current_range_meters":3200,"station_id":"ce4bha12rcd13ifvqee0","pricing_plan_id":"cebpf4jnsgd1na2vs0mg"},{"bike_id":"1801c6f9-0c65-4e78-bbf2-c91fed55b8f3","system_id":"levelo_inurba_marseille","lat":43.2621,"lon":5.37445,"is_reserved":false,"is_disabled":false,"rental_uris":{"android":"levelo://app?vid=1801c6f9-0c65-4e78-bbf2-c91fed55b8f3","ios":"levelo://app?vid=1801c6f9-0c65-4e78-bbf2-c91fed55b8f3"},"vehicle_type_id":"4","last_reported":1768407474,"current_range_meters":3200,"station_id":"ce4bhgp2rcd13ifvqfc0","pricing_plan_id":"cebpf4jnsgd1na2vs0mg"},{"bike_id":"9c3a1698-8584-4698-9302-0df588154afa","system_id":"levelo_inurba_marseille","lat":43.25571,"lon":5.38222,"is_reserved":false,"is_disabled":false,"rental_uris":{"android":"levelo://app?vid=9c3a1698-8584-4698-9302-0df588154afa","ios":"levelo://app?vid=9c3a1698-8584-4698-9302-0df588154afa"},"vehicle_type_id":"4","last_reported":1768407474,"current_range_meters":3200,"station_id":"ce4bhih2rcd13ifvqfs0","pricing_plan_id":"cebpf4jnsgd1na2vs0mg"},{"bike_id":"e40dbae3-976c-4dec-b998-8070ff4bf4fb","system_id":"levelo_inurba_marseille","lat":43.30945,"lon":5.39031,"is_reserved":false,"is_disabled":false,"rental_uris":{"android":"levelo://app?vid=e40dbae3-976c-4dec-b998-8070ff4bf4fb","ios":"levelo://app?vid=e40dbae3-976c-4dec-b998-8070ff4bf4fb"},"vehicle_type_id":"4","last_reported":1768407474,"current_range_meters":3200,"station_id":"ce4bgvp2rcd13ifvqcu0","pricing_plan_id":"cebpf4jnsgd1na2vs0mg"},{"bike_id":"8a7b85d3-c7d2-4196-b1ab-690364287dcf","system_id":"levelo_inurba_marseille","lat":43.31353,"lon":5.36722,"is_reserved":false,"is_disabled":false,"rental_uris":{"android":"levelo://app?vid=8a7b85d3-c7d2-4196-b1ab-690364287dcf","ios":"levelo://app?vid=8a7b85d3-c7d2-4196-b1ab-690364287dcf"},"vehicle_type_id":"4","last_reported":1768407474,"current_range_meters":3200,"station_id":"ce4bgr92rcd13ifvqc6g","pricing_plan_id":"cebpf4jnsgd1na2vs0mg"},{"bike_id":"486f5db0-76e1-427e-8da6-b795f5aacf8d","system_id":"levelo_inurba_marseille","lat":43.24392,"lon":5.37074,"is_reserved":false,"is_disabled":false,"rental_uris":{"android":"levelo://app?vid=486f5db0-76e1-427e-8da6-b795f5aacf8d","ios":"levelo://app?vid=486f5db0-76e1-427e-8da6-b795f5aacf8d"},"vehicle_type_id":"4","last_reported":1768407474,"current_range_meters":3200,"station_id":"ce4bhhh2rcd13ifvqfk0","pricing_plan_id":"cebpf4jnsgd1na2vs0mg"},{"bike_id":"594e9b33-a207-48f9-a990-bb4ea163d4cd","system_id":"levelo_inurba_marseille","lat":43.273703,"lon":5.362637,"is_reserved":false,"is_disabled":false,"rental_uris":{"android":"levelo://app?vid=594e9b33-a207-48f9-a990-bb4ea163d4cd","ios":"levelo://app?vid=594e9b33-a207-48f9-a990-bb4ea163d4cd"},"vehicle_type_id":"4","last_reported":1768407474,"current_range_meters":3200,"station_id":"ce4bhbh2rcd13ifvqeo0","pricing_plan_id":"cebpf4jnsgd1na2vs0mg"},{"bike_id":"a63a743a-f12d-4212-ac25-a56fa3a4630c","system_id":"levelo_inurba_marseille","lat":43.30159,"lon":5.38088,"is_reserved":false,"is_disabled":true,"rental_uris":{"android":"levelo://app?vid=a63a743a-f12d-4212-ac25-a56fa3a4630c","ios":"levelo://app?vid=a63a743a-f12d-4212-ac25-a56fa3a4630c"},"vehicle_type_id":"4","last_reported":1768407474,"current_range_meters":3200,"station_id":"ce4bgjp2rcd13ifvqbh0","pricing_plan_id":"cebpf4jnsgd1na2vs0mg"},{"bike_id":"2a79143f-3d8b-4742-85af-e8ce69787652","system_id":"levelo_inurba_marseille","lat":43.32107,"lon":5.36754,"is_reserved":false,"is_disabled":false,"rental_uris":{"android":"levelo://app?vid=2a79143f-3d8b-4742-85af-e8ce69787652","ios":"levelo://app?vid=2a79143f-3d8b-4742-85af-e8ce69787652"},"vehicle_type_id":"4","last_reported":1768407474,"current_range_meters":3200,"station_id":"ce4bhrh2rcd13ifvqhug","pricing_plan_id":"cebpf4jnsgd1na2vs0mg"},{"bike_id":"383c85e1-ab8e-43d7-a8a3-fa43bc06d123","system_id":"levelo_inurba_marseille","lat":43.28399,"lon":5.37518,"is_reserved":false,"is_disabled":false,"rental_uris":{"android":"levelo://app?vid=383c85e1-ab8e-43d7-a8a3-fa43bc06d123","ios":"levelo://app?vid=383c85e1-ab8e-43d7-a8a3-fa43bc06d123"},"vehicle_type_id":"4","last_reported":1768407474,"current_range_meters":3200,"station_id":"ce4bh412rcd13ifvqds0","pricing_plan_id":"cebpf4jnsgd1na2vs0mg"},{"bike_id":"4210b5e1-14c0-4350-9f09-b328efe96417","system_id":"levelo_inurba_marseille","lat":43.3017,"lon":5.37114,"is_reserved":false,"is_disabled":false,"rental_uris":{"android":"levelo://app?vid=4210b5e1-14c0-4350-9f09-b328efe96417","ios":"levelo://app?vid=4210b5e1-14c0-4350-9f09-b328efe96417"},"vehicle_type_id":"4","last_reported":1768407474,"current_range_meters":3600,"station_id":"","pricing_plan_id":"cebpf4jnsgd1na2vs0mg"},{"bike_id":"7e09f6aa-6a01-490d-a5d4-56de9c0277ad","system_id":"levelo_inurba_marseille","lat":43.28543,"lon":5.44082,"is_reserved":false,"is_disabled":false,"rental_uris":{"android":"levelo://app?vid=7e09f6aa-6a01-490d-a5d4-56de9c0277ad","ios":"levelo://app?vid=7e09f6aa-6a01-490d-a5d4-56de9c0277ad"},"vehicle_type_id":"4","last_reported":1768407474,"current_range_meters":3600,"station_id":"st_d3j3df2ikq2c7380ej80","pricing_plan_id":"cebpf4jnsgd1na2vs0mg"},{"bike_id":"8de396d5-6528-4d6c-ab16-d3356213d20b","system_id":"levelo_inurba_marseille","lat":43.311829,"lon":5.387291,"is_reserved":false,"is_disabled":false,"rental_uris":{"android":"levelo://app?vid=8de396d5-6528-4d6c-ab16-d3356213d20b","ios":"levelo://app?vid=8de396d5-6528-4d6c-ab16-d3356213d20b"},"vehicle_type_id":"4","last_reported":1768407474,"current_range_meters":3600,"station_id":"ce4bgv12rcd13ifvqcp0","pricing_plan_id":"cebpf4jnsgd1na2vs0mg"},{"bike_id":"6a2cea38-a98b-4ded-ab60-20d113ce05e0","system_id":"levelo_inurba_marseille","lat":43.25512,"lon":5.37653,"is_reserved":false,"is_disabled":false,"rental_uris":{"android":"levelo://app?vid=6a2cea38-a98b-4ded-ab60-20d113ce05e0","ios":"levelo://app?vid=6a2cea38-a98b-4ded-ab60-20d113ce05e0"},"vehicle_type_id":"4","last_reported":1768407474,"current_range_meters":3600,"station_id":"ce4bhh12rcd13ifvqff0","pricing_plan_id":"cebpf4jnsgd1na2vs0mg"},{"bike_id":"67e98f1b-daa6-42f9-86e4-e09c3ec5905e","system_id":"levelo_inurba_marseille","lat":43.292944,"lon":5.374637,"is_reserved":false,"is_disabled":false,"rental_uris":{"android":"levelo://app?vid=67e98f1b-daa6-42f9-86e4-e09c3ec5905e","ios":"levelo://app?vid=67e98f1b-daa6-42f9-86e4-e09c3ec5905e"},"vehicle_type_id":"4","last_reported":1768407474,"current_range_meters":3600,"station_id":"ce4bgi12rcd13ifvqb70","pricing_plan_id":"cebpf4jnsgd1na2vs0mg"},{"bike_id":"e672060a-ae3e-4de4-beea-63a100631768","system_id":"levelo_inurba_marseille","lat":43.25506,"lon":5.37656,"is_reserved":false,"is_disabled":false,"rental_uris":{"android":"levelo://app?vid=e672060a-ae3e-4de4-beea-63a100631768","ios":"levelo://app?vid=e672060a-ae3e-4de4-beea-63a100631768"},"vehicle_type_id":"4","last_reported":1768407474,"current_range_meters":3600,"station_id":"ce4bhh12rcd13ifvqff0","pricing_plan_id":"cebpf4jnsgd1na2vs0mg"},{"bike_id":"7c969669-50db-4552-b574-0619ffa44efd","system_id":"levelo_inurba_marseille","lat":43.24989,"lon":5.38934,"is_reserved":false,"is_disabled":false,"rental_uris":{"android":"levelo://app?vid=7c969669-50db-4552-b574-0619ffa44efd","ios":"levelo://app?vid=7c969669-50db-4552-b574-0619ffa44efd"},"vehicle_type_id":"4","last_reported":1768407474,"current_range_meters":3600,"station_id":"ce4bhgp2rcd13ifvqfd0","pricing_plan_id":"cebpf4jnsgd1na2vs0mg"},{"bike_id":"09274d01-4a95-409b-8171-0131639b6dc1","system_id":"levelo_inurba_marseille","lat":43.289954,"lon":5.381656,"is_reserved":false,"is_disabled":false,"rental_uris":{"android":"levelo://app?vid=09274d01-4a95-409b-8171-0131639b6dc1","ios":"levelo://app?vid=09274d01-4a95-409b-8171-0131639b6dc1"},"vehicle_type_id":"4","last_reported":1768407474,"current_range_meters":3600,"station_id":"ce4bgjh2rcd13ifvqbg0","pricing_plan_id":"cebpf4jnsgd1na2vs0mg"},{"bike_id":"23a3eada-dea7-4044-b22b-1e0f7c60e76c","system_id":"levelo_inurba_marseille","lat":43.29515,"lon":5.39197,"is_reserved":false,"is_disabled":true,"rental_uris":{"android":"levelo://app?vid=23a3eada-dea7-4044-b22b-1e0f7c60e76c","ios":"levelo://app?vid=23a3eada-dea7-4044-b22b-1e0f7c60e76c"},"vehicle_type_id":"4","last_reported":1768407474,"current_range_meters":3600,"station_id":"","pricing_plan_id":"cebpf4jnsgd1na2vs0mg"},{"bike_id":"443eae92-c2df-4ef7-b7ff-576bec5f299a","system_id":"levelo_inurba_marseille","lat":43.29754,"lon":5.38469,"is_reserved":false,"is_disabled":false,"rental_uris":{"android":"levelo://app?vid=443eae92-c2df-4ef7-b7ff-576bec5f299a","ios":"levelo://app?vid=443eae92-c2df-4ef7-b7ff-576bec5f299a"},"vehicle_type_id":"4","last_reported":1768407474,"current_range_meters":3600,"station_id":"","pricing_plan_id":"cebpf4jnsgd1na2vs0mg"},{"bike_id":"133f5ff7-c8d1-4aeb-931b-7c43dabe5b1f","system_id":"levelo_inurba_marseille","lat":43.26213,"lon":5.37442,"is_reserved":false,"is_disabled":false,"rental_uris":{"android":"levelo://app?vid=133f5ff7-c8d1-4aeb-931b-7c43dabe5b1f","ios":"levelo://app?vid=133f5ff7-c8d1-4aeb-931b-7c43dabe5b1f"},"vehicle_type_id":"4","last_reported":1768407474,"current_range_meters":3600,"station_id":"ce4bhgp2rcd13ifvqfc0","pricing_plan_id":"cebpf4jnsgd1na2vs0mg"},{"bike_id":"cd406d92-9f0f-4054-ad1a-41c532e6a60d","system_id":"levelo_inurba_marseille","lat":43.29193,"lon":5.39312,"is_reserved":false,"is_disabled":false,"rental_uris":{"android":"levelo://app?vid=cd406d92-9f0f-4054-ad1a-41c532e6a60d","ios":"levelo://app?vid=cd406d92-9f0f-4054-ad1a-41c532e6a60d"},"vehicle_type_id":"4","last_reported":1768407474,"current_range_meters":3600,"station_id":"ce4bh192rcd13ifvqdd0","pricing_plan_id":"cebpf4jnsgd1na2vs0mg"},{"bike_id":"18e7aed4-7cab-4e5f-b147-5c98f8a1e192","system_id":"levelo_inurba_marseille","lat":43.32348,"lon":5.36746,"is_reserved":false,"is_disabled":false,"rental_uris":{"android":"levelo://app?vid=18e7aed4-7cab-4e5f-b147-5c98f8a1e192","ios":"levelo://app?vid=18e7aed4-7cab-4e5f-b147-5c98f8a1e192"},"vehicle_type_id":"4","last_reported":1768407474,"current_range_meters":4000,"station_id":"ce4bhsh2rcd13ifvqi2g","pricing_plan_id":"cebpf4jnsgd1na2vs0mg"},{"bike_id":"5926519f-6e6b-4053-b5a0-9706be35fc92","system_id":"levelo_inurba_marseille","lat":43.29025,"lon":5.3813,"is_reserved":false,"is_disabled":false,"rental_uris":{"android":"levelo://app?vid=5926519f-6e6b-4053-b5a0-9706be35fc92","ios":"levelo://app?vid=5926519f-6e6b-4053-b5a0-9706be35fc92"},"vehicle_type_id":"4","last_reported":1768407474,"current_range_meters":4000,"station_id":"ce4bh4p2rcd13ifvqe1g","pricing_plan_id":"cebpf4jnsgd1na2vs0mg"},{"bike_id":"f386e451-0ff7-4c2a-a6cd-27139c57272a","system_id":"levelo_inurba_marseille","lat":43.28533,"lon":5.441,"is_reserved":false,"is_disabled":false,"rental_uris":{"android":"levelo://app?vid=f386e451-0ff7-4c2a-a6cd-27139c57272a","ios":"levelo://app?vid=f386e451-0ff7-4c2a-a6cd-27139c57272a"},"vehicle_type_id":"4","last_reported":1768407474,"current_range_meters":4000,"station_id":"st_d3j3df2ikq2c7380ej80","pricing_plan_id":"cebpf4jnsgd1na2vs0mg"},{"bike_id":"d467484e-7aee-4722-aeb8-99ac2b445e1f","system_id":"levelo_inurba_marseille","lat":43.288722,"lon":5.425098,"is_reserved":false,"is_disabled":false,"rental_uris":{"android":"levelo://app?vid=d467484e-7aee-4722-aeb8-99ac2b445e1f","ios":"levelo://app?vid=d467484e-7aee-4722-aeb8-99ac2b445e1f"},"vehicle_type_id":"4","last_reported":1768407474,"current_range_meters":4000,"station_id":"st_d3b462108ojc7389ooeg","pricing_plan_id":"cebpf4jnsgd1na2vs0mg"},{"bike_id":"4da4b9b5-8e34-4a21-a7eb-76e6a1792527","system_id":"levelo_inurba_marseille","lat":43.28239,"lon":5.43019,"is_reserved":false,"is_disabled":false,"rental_uris":{"android":"levelo://app?vid=4da4b9b5-8e34-4a21-a7eb-76e6a1792527","ios":"levelo://app?vid=4da4b9b5-8e34-4a21-a7eb-76e6a1792527"},"vehicle_type_id":"4","last_reported":1768407474,"current_range_meters":4000,"station_id":"","pricing_plan_id":"cebpf4jnsgd1na2vs0mg"},{"bike_id":"ea5a0539-d10a-493d-b63d-e4e8abdbd9c8","system_id":"levelo_inurba_marseille","lat":43.29194,"lon":5.3881,"is_reserved":false,"is_disabled":false,"rental_uris":{"android":"levelo://app?vid=ea5a0539-d10a-493d-b63d-e4e8abdbd9c8","ios":"levelo://app?vid=ea5a0539-d10a-493d-b63d-e4e8abdbd9c8"},"vehicle_type_id":"4","last_reported":1768407474,"current_range_meters":4000,"station_id":"","pricing_plan_id":"cebpf4jnsgd1na2vs0mg"},{"bike_id":"931b9afb-ecdb-438a-9a33-bf2fa260932f","system_id":"levelo_inurba_marseille","lat":43.29978,"lon":5.37166,"is_reserved":false,"is_disabled":false,"rental_uris":{"android":"levelo://app?vid=931b9afb-ecdb-438a-9a33-bf2fa260932f","ios":"levelo://app?vid=931b9afb-ecdb-438a-9a33-bf2fa260932f"},"vehicle_type_id":"4","last_reported":1768407474,"current_range_meters":4000,"station_id":"ce4bgr92rcd13ifvqc7g","pricing_plan_id":"cebpf4jnsgd1na2vs0mg"},{"bike_id":"fadb5003-2a7a-4d5d-963d-49b966cee94a","system_id":"levelo_inurba_marseille","lat":43.292137,"lon":5.359276,"is_reserved":false,"is_disabled":false,"rental_uris":{"android":"levelo://app?vid=fadb5003-2a7a-4d5d-963d-49b966cee94a","ios":"levelo://app?vid=fadb5003-2a7a-4d5d-963d-49b966cee94a"},"vehicle_type_id":"4","last_reported":1768407474,"current_range_meters":4000,"station_id":"ce4bhb12rcd13ifvqel0","pricing_plan_id":"cebpf4jnsgd1na2vs0mg"},{"bike_id":"a31c8f9e-9708-4ea2-9e5d-05e3441bc85f","system_id":"levelo_inurba_marseille","lat":43.28513,"lon":5.48371,"is_reserved":false,"is_disabled":false,"rental_uris":{"android":"levelo://app?vid=a31c8f9e-9708-4ea2-9e5d-05e3441bc85f","ios":"levelo://app?vid=a31c8f9e-9708-4ea2-9e5d-05e3441bc85f"},"vehicle_type_id":"4","last_reported":1768407474,"current_range_meters":4000,"station_id":"st_d3svhcjqgbts73a3dn0g","pricing_plan_id":"cebpf4jnsgd1na2vs0mg"},{"bike_id":"3a3c141e-8899-48d1-af50-299a61c1bacd","system_id":"levelo_inurba_marseille","lat":43.26217,"lon":5.37439,"is_reserved":false,"is_disabled":false,"rental_uris":{"android":"levelo://app?vid=3a3c141e-8899-48d1-af50-299a61c1bacd","ios":"levelo://app?vid=3a3c141e-8899-48d1-af50-299a61c1bacd"},"vehicle_type_id":"4","last_reported":1768407474,"current_range_meters":4400,"station_id":"ce4bhgp2rcd13ifvqfc0","pricing_plan_id":"cebpf4jnsgd1na2vs0mg"},{"bike_id":"0ab483f6-2c64-4f01-82ac-b52f13aaff16","system_id":"levelo_inurba_marseille","lat":43.33011,"lon":5.39019,"is_reserved":false,"is_disabled":false,"rental_uris":{"android":"levelo://app?vid=0ab483f6-2c64-4f01-82ac-b52f13aaff16","ios":"levelo://app?vid=0ab483f6-2c64-4f01-82ac-b52f13aaff16"},"vehicle_type_id":"4","last_reported":1768407474,"current_range_meters":4400,"station_id":"ce4bhr92rcd13ifvqhrg","pricing_plan_id":"cebpf4jnsgd1na2vs0mg"},{"bike_id":"ae443cce-ff29-49ee-9c93-a04cf4bdacaf","system_id":"levelo_inurba_marseille","lat":43.29544,"lon":5.38546,"is_reserved":false,"is_disabled":false,"rental_uris":{"android":"levelo://app?vid=ae443cce-ff29-49ee-9c93-a04cf4bdacaf","ios":"levelo://app?vid=ae443cce-ff29-49ee-9c93-a04cf4bdacaf"},"vehicle_type_id":"4","last_reported":1768407474,"current_range_meters":4400,"station_id":"ce4bgih2rcd13ifvqba0","pricing_plan_id":"cebpf4jnsgd1na2vs0mg"},{"bike_id":"d8b52035-9107-4203-ba3b-8ab85229defc","system_id":"levelo_inurba_marseille","lat":43.25885,"lon":5.39923,"is_reserved":false,"is_disabled":false,"rental_uris":{"android":"levelo://app?vid=d8b52035-9107-4203-ba3b-8ab85229defc","ios":"levelo://app?vid=d8b52035-9107-4203-ba3b-8ab85229defc"},"vehicle_type_id":"4","last_reported":1768407474,"current_range_meters":4400,"station_id":"ce4bhl92rcd13ifvqghg","pricing_plan_id":"cebpf4jnsgd1na2vs0mg"},{"bike_id":"988898f4-9f2f-4c83-8935-c2cdd80dcda2","system_id":"levelo_inurba_marseille","lat":43.29929,"lon":5.37471,"is_reserved":false,"is_disabled":false,"rental_uris":{"android":"levelo://app?vid=988898f4-9f2f-4c83-8935-c2cdd80dcda2","ios":"levelo://app?vid=988898f4-9f2f-4c83-8935-c2cdd80dcda2"},"vehicle_type_id":"4","last_reported":1768407474,"current_range_meters":4400,"station_id":"ce4bgjh2rcd13ifvqbg0","pricing_plan_id":"cebpf4jnsgd1na2vs0mg"},{"bike_id":"7dd1d8e7-5022-463f-b173-f03ecce952da","system_id":"levelo_inurba_marseille","lat":43.21753,"lon":5.346,"is_reserved":false,"is_disabled":false,"rental_uris":{"android":"levelo://app?vid=7dd1d8e7-5022-463f-b173-f03ecce952da","ios":"levelo://app?vid=7dd1d8e7-5022-463f-b173-f03ecce952da"},"vehicle_type_id":"4","last_reported":1768407474,"current_range_meters":4400,"station_id":"st_cvj6r9ubvosntc0bgbag","pricing_plan_id":"cebpf4jnsgd1na2vs0mg"},{"bike_id":"5506c513-4e43-4b65-9b63-88fe81873ef0","system_id":"levelo_inurba_marseille","lat":43.27314,"lon":5.39088,"is_reserved":false,"is_disabled":false,"rental_uris":{"android":"levelo://app?vid=5506c513-4e43-4b65-9b63-88fe81873ef0","ios":"levelo://app?vid=5506c513-4e43-4b65-9b63-88fe81873ef0"},"vehicle_type_id":"4","last_reported":1768407474,"current_range_meters":4400,"station_id":"ce4bhgp2rcd13ifvqfe0","pricing_plan_id":"cebpf4jnsgd1na2vs0mg"},{"bike_id":"03715948-a7b6-441d-a45e-5f349e3f04b2","system_id":"levelo_inurba_marseille","lat":43.28344,"lon":5.38107,"is_reserved":false,"is_disabled":false,"rental_uris":{"android":"levelo://app?vid=03715948-a7b6-441d-a45e-5f349e3f04b2","ios":"levelo://app?vid=03715948-a7b6-441d-a45e-5f349e3f04b2"},"vehicle_type_id":"4","last_reported":1768407474,"current_range_meters":4400,"station_id":"ce4bh412rcd13ifvqdr0","pricing_plan_id":"cebpf4jnsgd1na2vs0mg"},{"bike_id":"27f242f3-3ae7-4945-8a79-3968179ff814","system_id":"levelo_inurba_marseille","lat":43.32458,"lon":5.36587,"is_reserved":false,"is_disabled":false,"rental_uris":{"android":"levelo://app?vid=27f242f3-3ae7-4945-8a79-3968179ff814","ios":"levelo://app?vid=27f242f3-3ae7-4945-8a79-3968179ff814"},"vehicle_type_id":"4","last_reported":1768407474,"current_range_meters":4400,"station_id":"ce4bhs12rcd13ifvqhvg","pricing_plan_id":"cebpf4jnsgd1na2vs0mg"},{"bike_id":"044262c0-01aa-4b84-b0aa-b66aecdddae5","system_id":"levelo_inurba_marseille","lat":43.29531,"lon":5.38551,"is_reserved":false,"is_disabled":false,"rental_uris":{"android":"levelo://app?vid=044262c0-01aa-4b84-b0aa-b66aecdddae5","ios":"levelo://app?vid=044262c0-01aa-4b84-b0aa-b66aecdddae5"},"vehicle_type_id":"4","last_reported":1768407474,"current_range_meters":4400,"station_id":"ce4bgih2rcd13ifvqba0","pricing_plan_id":"cebpf4jnsgd1na2vs0mg"},{"bike_id":"c5248147-7fef-42d5-9ac7-8dfd55008d05","system_id":"levelo_inurba_marseille","lat":43.28273,"lon":5.35079,"is_reserved":false,"is_disabled":false,"rental_uris":{"android":"levelo://app?vid=c5248147-7fef-42d5-9ac7-8dfd55008d05","ios":"levelo://app?vid=c5248147-7fef-42d5-9ac7-8dfd55008d05"},"vehicle_type_id":"4","last_reported":1768407474,"current_range_meters":4800,"station_id":"ce4bhbp2rcd13ifvqerg","pricing_plan_id":"cebpf4jnsgd1na2vs0mg"},{"bike_id":"e3ab18f2-5a9d-4e66-8fca-01896e94c919","system_id":"levelo_inurba_marseille","lat":43.297088,"lon":5.376929,"is_reserved":false,"is_disabled":false,"rental_uris":{"android":"levelo://app?vid=e3ab18f2-5a9d-4e66-8fca-01896e94c919","ios":"levelo://app?vid=e3ab18f2-5a9d-4e66-8fca-01896e94c919"},"vehicle_type_id":"4","last_reported":1768407474,"current_range_meters":4800,"station_id":"ce4bgkh2rcd13ifvqbl0","pricing_plan_id":"cebpf4jnsgd1na2vs0mg"},{"bike_id":"3e527a83-2b4f-4053-a77a-ca04d7a24bec","system_id":"levelo_inurba_marseille","lat":43.254911,"lon":5.376466,"is_reserved":false,"is_disabled":false,"rental_uris":{"android":"levelo://app?vid=3e527a83-2b4f-4053-a77a-ca04d7a24bec","ios":"levelo://app?vid=3e527a83-2b4f-4053-a77a-ca04d7a24bec"},"vehicle_type_id":"4","last_reported":1768407474,"current_range_meters":4800,"station_id":"ce4bhh12rcd13ifvqff0","pricing_plan_id":"cebpf4jnsgd1na2vs0mg"},{"bike_id":"cbdc031a-f7a8-4ff1-8b01-803b2dfeb125","system_id":"levelo_inurba_marseille","lat":43.26764,"lon":5.39387,"is_reserved":false,"is_disabled":false,"rental_uris":{"android":"levelo://app?vid=cbdc031a-f7a8-4ff1-8b01-803b2dfeb125","ios":"levelo://app?vid=cbdc031a-f7a8-4ff1-8b01-803b2dfeb125"},"vehicle_type_id":"4","last_reported":1768407474,"current_range_meters":4800,"station_id":"ce4bhh12rcd13ifvqfg0","pricing_plan_id":"cebpf4jnsgd1na2vs0mg"},{"bike_id":"b480cffa-935d-4cfa-9257-fa1d20aba786","system_id":"levelo_inurba_marseille","lat":43.29255,"lon":5.40911,"is_reserved":false,"is_disabled":false,"rental_uris":{"android":"levelo://app?vid=b480cffa-935d-4cfa-9257-fa1d20aba786","ios":"levelo://app?vid=b480cffa-935d-4cfa-9257-fa1d20aba786"},"vehicle_type_id":"4","last_reported":1768407474,"current_range_meters":4800,"station_id":"ce4bh192rcd13ifvqdc0","pricing_plan_id":"cebpf4jnsgd1na2vs0mg"},{"bike_id":"0f5f4915-35b7-4639-ab63-f51a53ac94b7","system_id":"levelo_inurba_marseille","lat":43.30212,"lon":5.39313,"is_reserved":false,"is_disabled":false,"rental_uris":{"android":"levelo://app?vid=0f5f4915-35b7-4639-ab63-f51a53ac94b7","ios":"levelo://app?vid=0f5f4915-35b7-4639-ab63-f51a53ac94b7"},"vehicle_type_id":"4","last_reported":1768407474,"current_range_meters":4800,"station_id":"","pricing_plan_id":"cebpf4jnsgd1na2vs0mg"},{"bike_id":"edcf3188-4a6b-46e2-aa32-dc6a17ca3c7d","system_id":"levelo_inurba_marseille","lat":43.25575,"lon":5.38231,"is_reserved":false,"is_disabled":false,"rental_uris":{"android":"levelo://app?vid=edcf3188-4a6b-46e2-aa32-dc6a17ca3c7d","ios":"levelo://app?vid=edcf3188-4a6b-46e2-aa32-dc6a17ca3c7d"},"vehicle_type_id":"4","last_reported":1768407474,"current_range_meters":4800,"station_id":"ce4bhih2rcd13ifvqfs0","pricing_plan_id":"cebpf4jnsgd1na2vs0mg"},{"bike_id":"19f9dd7a-5fe7-4328-9061-93411f25b246","system_id":"levelo_inurba_marseille","lat":43.27914,"lon":5.39573,"is_reserved":false,"is_disabled":false,"rental_uris":{"android":"levelo://app?vid=19f9dd7a-5fe7-4328-9061-93411f25b246","ios":"levelo://app?vid=19f9dd7a-5fe7-4328-9061-93411f25b246"},"vehicle_type_id":"4","last_reported":1768407474,"current_range_meters":4800,"station_id":"ce4bhf92rcd13ifvqf40","pricing_plan_id":"cebpf4jnsgd1na2vs0mg"},{"bike_id":"e14b5983-3ac5-4616-950c-aa923a55a895","system_id":"levelo_inurba_marseille","lat":43.29192,"lon":5.35801,"is_reserved":false,"is_disabled":false,"rental_uris":{"android":"levelo://app?vid=e14b5983-3ac5-4616-950c-aa923a55a895","ios":"levelo://app?vid=e14b5983-3ac5-4616-950c-aa923a55a895"},"vehicle_type_id":"4","last_reported":1768407474,"current_range_meters":4800,"station_id":"ce4bhb12rcd13ifvqel0","pricing_plan_id":"cebpf4jnsgd1na2vs0mg"},{"bike_id":"3277e8cd-d34d-4024-807d-d58939525ecb","system_id":"levelo_inurba_marseille","lat":43.28446,"lon":5.359,"is_reserved":false,"is_disabled":false,"rental_uris":{"android":"levelo://app?vid=3277e8cd-d34d-4024-807d-d58939525ecb","ios":"levelo://app?vid=3277e8cd-d34d-4024-807d-d58939525ecb"},"vehicle_type_id":"4","last_reported":1768407474,"current_range_meters":4800,"station_id":"ce4bhah2rcd13ifvqei0","pricing_plan_id":"cebpf4jnsgd1na2vs0mg"},{"bike_id":"ea7f32b6-7877-46fd-82b1-7ebc9194a1fd","system_id":"levelo_inurba_marseille","lat":43.21747,"lon":5.34602,"is_reserved":false,"is_disabled":false,"rental_uris":{"android":"levelo://app?vid=ea7f32b6-7877-46fd-82b1-7ebc9194a1fd","ios":"levelo://app?vid=ea7f32b6-7877-46fd-82b1-7ebc9194a1fd"},"vehicle_type_id":"4","last_reported":1768407474,"current_range_meters":4800,"station_id":"","pricing_plan_id":"cebpf4jnsgd1na2vs0mg"},{"bike_id":"c121abda-99e7-4b6e-b086-f1caf72d68e2","system_id":"levelo_inurba_marseille","lat":43.297106,"lon":5.376848,"is_reserved":false,"is_disabled":false,"rental_uris":{"android":"levelo://app?vid=c121abda-99e7-4b6e-b086-f1caf72d68e2","ios":"levelo://app?vid=c121abda-99e7-4b6e-b086-f1caf72d68e2"},"vehicle_type_id":"4","last_reported":1768407474,"current_range_meters":4800,"station_id":"ce4bgkh2rcd13ifvqbl0","pricing_plan_id":"cebpf4jnsgd1na2vs0mg"},{"bike_id":"936570bf-e455-479b-ab9d-421b36b3f09d","system_id":"levelo_inurba_marseille","lat":43.23193,"lon":5.35555,"is_reserved":false,"is_disabled":false,"rental_uris":{"android":"levelo://app?vid=936570bf-e455-479b-ab9d-421b36b3f09d","ios":"levelo://app?vid=936570bf-e455-479b-ab9d-421b36b3f09d"},"vehicle_type_id":"4","last_reported":1768407474,"current_range_meters":4800,"station_id":"ce4bhu92rcd13ifvqi70","pricing_plan_id":"cebpf4jnsgd1na2vs0mg"},{"bike_id":"1cada60d-67ba-40f7-97c1-1a320d055880","system_id":"levelo_inurba_marseille","lat":43.2781,"lon":5.40713,"is_reserved":false,"is_disabled":false,"rental_uris":{"android":"levelo://app?vid=1cada60d-67ba-40f7-97c1-1a320d055880","ios":"levelo://app?vid=1cada60d-67ba-40f7-97c1-1a320d055880"},"vehicle_type_id":"4","last_reported":1768407474,"current_range_meters":5600,"station_id":"ce4bhnh2rcd13ifvqgtg","pricing_plan_id":"cebpf4jnsgd1na2vs0mg"},{"bike_id":"0e90d51b-5071-4a42-a270-6759fe02b547","system_id":"levelo_inurba_marseille","lat":43.23188,"lon":5.39985,"is_reserved":false,"is_disabled":false,"rental_uris":{"android":"levelo://app?vid=0e90d51b-5071-4a42-a270-6759fe02b547","ios":"levelo://app?vid=0e90d51b-5071-4a42-a270-6759fe02b547"},"vehicle_type_id":"4","last_reported":1768407474,"current_range_meters":5600,"station_id":"ce4bhn12rcd13ifvqgqg","pricing_plan_id":"cebpf4jnsgd1na2vs0mg"},{"bike_id":"6d5b743f-0d0d-4728-9aac-92cae33bf20c","system_id":"levelo_inurba_marseille","lat":43.25575,"lon":5.38224,"is_reserved":false,"is_disabled":false,"rental_uris":{"android":"levelo://app?vid=6d5b743f-0d0d-4728-9aac-92cae33bf20c","ios":"levelo://app?vid=6d5b743f-0d0d-4728-9aac-92cae33bf20c"},"vehicle_type_id":"4","last_reported":1768407474,"current_range_meters":5600,"station_id":"ce4bhih2rcd13ifvqfs0","pricing_plan_id":"cebpf4jnsgd1na2vs0mg"},{"bike_id":"11d6153c-dd89-4c4a-af20-37dd5f2e70db","system_id":"levelo_inurba_marseille","lat":43.30447,"lon":5.38891,"is_reserved":false,"is_disabled":false,"rental_uris":{"android":"levelo://app?vid=11d6153c-dd89-4c4a-af20-37dd5f2e70db","ios":"levelo://app?vid=11d6153c-dd89-4c4a-af20-37dd5f2e70db"},"vehicle_type_id":"4","last_reported":1768407474,"current_range_meters":5600,"station_id":"ce4bgk12rcd13ifvqbi0","pricing_plan_id":"cebpf4jnsgd1na2vs0mg"},{"bike_id":"8b371773-a5ca-4279-ac7c-a96622713b41","system_id":"levelo_inurba_marseille","lat":43.28608,"lon":5.38056,"is_reserved":false,"is_disabled":false,"rental_uris":{"android":"levelo://app?vid=8b371773-a5ca-4279-ac7c-a96622713b41","ios":"levelo://app?vid=8b371773-a5ca-4279-ac7c-a96622713b41"},"vehicle_type_id":"4","last_reported":1768407474,"current_range_meters":5600,"station_id":"","pricing_plan_id":"cebpf4jnsgd1na2vs0mg"},{"bike_id":"6c8933bb-e549-411e-bbee-946bd19f4175","system_id":"levelo_inurba_marseille","lat":43.2918,"lon":5.37151,"is_reserved":false,"is_disabled":false,"rental_uris":{"android":"levelo://app?vid=6c8933bb-e549-411e-bbee-946bd19f4175","ios":"levelo://app?vid=6c8933bb-e549-411e-bbee-946bd19f4175"},"vehicle_type_id":"4","last_reported":1768407474,"current_range_meters":5600,"station_id":"ce4bha92rcd13ifvqeh0","pricing_plan_id":"cebpf4jnsgd1na2vs0mg"},{"bike_id":"b54d7711-f055-409c-950d-e2c8bc74d3bc","system_id":"levelo_inurba_marseille","lat":43.24807,"lon":5.37444,"is_reserved":false,"is_disabled":false,"rental_uris":{"android":"levelo://app?vid=b54d7711-f055-409c-950d-e2c8bc74d3bc","ios":"levelo://app?vid=b54d7711-f055-409c-950d-e2c8bc74d3bc"},"vehicle_type_id":"4","last_reported":1768407474,"current_range_meters":5600,"station_id":"ce4bhgh2rcd13ifvqfb0","pricing_plan_id":"cebpf4jnsgd1na2vs0mg"},{"bike_id":"b2afaedc-76da-4580-ae5d-1d51d9c69889","system_id":"levelo_inurba_marseille","lat":43.29058,"lon":5.37157,"is_reserved":false,"is_disabled":false,"rental_uris":{"android":"levelo://app?vid=b2afaedc-76da-4580-ae5d-1d51d9c69889","ios":"levelo://app?vid=b2afaedc-76da-4580-ae5d-1d51d9c69889"},"vehicle_type_id":"4","last_reported":1768407474,"current_range_meters":5600,"station_id":"ce4bh5p2rcd13ifvqe4g","pricing_plan_id":"cebpf4jnsgd1na2vs0mg"},{"bike_id":"ff1e20fa-84b0-41c9-9d49-6081e242e43e","system_id":"levelo_inurba_marseille","lat":43.24808,"lon":5.37455,"is_reserved":false,"is_disabled":false,"rental_uris":{"android":"levelo://app?vid=ff1e20fa-84b0-41c9-9d49-6081e242e43e","ios":"levelo://app?vid=ff1e20fa-84b0-41c9-9d49-6081e242e43e"},"vehicle_type_id":"4","last_reported":1768407474,"current_range_meters":6000,"station_id":"ce4bhgh2rcd13ifvqfb0","pricing_plan_id":"cebpf4jnsgd1na2vs0mg"},{"bike_id":"b7d49573-3e66-48d0-a113-0b261fcd2347","system_id":"levelo_inurba_marseille","lat":43.30149,"lon":5.37331,"is_reserved":false,"is_disabled":false,"rental_uris":{"android":"levelo://app?vid=b7d49573-3e66-48d0-a113-0b261fcd2347","ios":"levelo://app?vid=b7d49573-3e66-48d0-a113-0b261fcd2347"},"vehicle_type_id":"4","last_reported":1768407474,"current_range_meters":6000,"station_id":"","pricing_plan_id":"cebpf4jnsgd1na2vs0mg"},{"bike_id":"323bdf5a-fc85-45ab-8b18-361a392bbea5","system_id":"levelo_inurba_marseille","lat":43.2996,"lon":5.37929,"is_reserved":false,"is_disabled":false,"rental_uris":{"android":"levelo://app?vid=323bdf5a-fc85-45ab-8b18-361a392bbea5","ios":"levelo://app?vid=323bdf5a-fc85-45ab-8b18-361a392bbea5"},"vehicle_type_id":"4","last_reported":1768407474,"current_range_meters":6000,"station_id":"","pricing_plan_id":"cebpf4jnsgd1na2vs0mg"},{"bike_id":"0496460c-cd9f-43fd-8720-c5e183ef0a0e","system_id":"levelo_inurba_marseille","lat":43.23772,"lon":5.36616,"is_reserved":false,"is_disabled":false,"rental_uris":{"android":"levelo://app?vid=0496460c-cd9f-43fd-8720-c5e183ef0a0e","ios":"levelo://app?vid=0496460c-cd9f-43fd-8720-c5e183ef0a0e"},"vehicle_type_id":"4","last_reported":1768407474,"current_range_meters":6000,"station_id":"st_d3nk18o9ro0c73en2l3g","pricing_plan_id":"cebpf4jnsgd1na2vs0mg"},{"bike_id":"edb3f9c5-6e6f-4d74-ac22-6330b2cf1217","system_id":"levelo_inurba_marseille","lat":43.32477,"lon":5.36581,"is_reserved":false,"is_disabled":false,"rental_uris":{"android":"levelo://app?vid=edb3f9c5-6e6f-4d74-ac22-6330b2cf1217","ios":"levelo://app?vid=edb3f9c5-6e6f-4d74-ac22-6330b2cf1217"},"vehicle_type_id":"4","last_reported":1768407474,"current_range_meters":6000,"station_id":"ce4bhs12rcd13ifvqhvg","pricing_plan_id":"cebpf4jnsgd1na2vs0mg"},{"bike_id":"b0591438-4f8b-458b-95d3-396e832bb098","system_id":"levelo_inurba_marseille","lat":43.22562,"lon":5.41629,"is_reserved":false,"is_disabled":false,"rental_uris":{"android":"levelo://app?vid=b0591438-4f8b-458b-95d3-396e832bb098","ios":"levelo://app?vid=b0591438-4f8b-458b-95d3-396e832bb098"},"vehicle_type_id":"4","last_reported":1768407474,"current_range_meters":6000,"station_id":"st_d2o4gvlbi1j2169b742g","pricing_plan_id":"cebpf4jnsgd1na2vs0mg"},{"bike_id":"d10c3e03-17c1-4a18-84d3-e167ce7531e2","system_id":"levelo_inurba_marseille","lat":43.32355,"lon":5.36743,"is_reserved":false,"is_disabled":false,"rental_uris":{"android":"levelo://app?vid=d10c3e03-17c1-4a18-84d3-e167ce7531e2","ios":"levelo://app?vid=d10c3e03-17c1-4a18-84d3-e167ce7531e2"},"vehicle_type_id":"4","last_reported":1768407474,"current_range_meters":6000,"station_id":"ce4bhsh2rcd13ifvqi2g","pricing_plan_id":"cebpf4jnsgd1na2vs0mg"},{"bike_id":"fbe88db2-416a-478a-ac7c-29c397f79fa0","system_id":"levelo_inurba_marseille","lat":43.24648,"lon":5.38874,"is_reserved":false,"is_disabled":false,"rental_uris":{"android":"levelo://app?vid=fbe88db2-416a-478a-ac7c-29c397f79fa0","ios":"levelo://app?vid=fbe88db2-416a-478a-ac7c-29c397f79fa0"},"vehicle_type_id":"4","last_reported":1768407474,"current_range_meters":6000,"station_id":"ce4bhg12rcd13ifvqf60","pricing_plan_id":"cebpf4jnsgd1na2vs0mg"},{"bike_id":"165e1d51-8694-42a4-b3fa-64d26439e8fa","system_id":"levelo_inurba_marseille","lat":43.28416,"lon":5.34988,"is_reserved":false,"is_disabled":false,"rental_uris":{"android":"levelo://app?vid=165e1d51-8694-42a4-b3fa-64d26439e8fa","ios":"levelo://app?vid=165e1d51-8694-42a4-b3fa-64d26439e8fa"},"vehicle_type_id":"4","last_reported":1768407474,"current_range_meters":6000,"station_id":"ce4bhbh2rcd13ifvqepg","pricing_plan_id":"cebpf4jnsgd1na2vs0mg"},{"bike_id":"9f87e8cb-8276-4f0e-a149-5b4b619fe8e3","system_id":"levelo_inurba_marseille","lat":43.28944,"lon":5.36645,"is_reserved":false,"is_disabled":false,"rental_uris":{"android":"levelo://app?vid=9f87e8cb-8276-4f0e-a149-5b4b619fe8e3","ios":"levelo://app?vid=9f87e8cb-8276-4f0e-a149-5b4b619fe8e3"},"vehicle_type_id":"4","last_reported":1768407474,"current_range_meters":6000,"station_id":"ce4bhap2rcd13ifvqek0","pricing_plan_id":"cebpf4jnsgd1na2vs0mg"},{"bike_id":"e0b428f0-eceb-42b2-abfb-1c2fa2419392","system_id":"levelo_inurba_marseille","lat":43.2396,"lon":5.36633,"is_reserved":false,"is_disabled":false,"rental_uris":{"android":"levelo://app?vid=e0b428f0-eceb-42b2-abfb-1c2fa2419392","ios":"levelo://app?vid=e0b428f0-eceb-42b2-abfb-1c2fa2419392"},"vehicle_type_id":"4","last_reported":1768407474,"current_range_meters":6000,"station_id":"ce4bhi12rcd13ifvqfp0","pricing_plan_id":"cebpf4jnsgd1na2vs0mg"},{"bike_id":"ed71392b-dc6a-40d8-8ef5-df08ec0f150b","system_id":"levelo_inurba_marseille","lat":43.28715,"lon":5.37401,"is_reserved":false,"is_disabled":false,"rental_uris":{"android":"levelo://app?vid=ed71392b-dc6a-40d8-8ef5-df08ec0f150b","ios":"levelo://app?vid=ed71392b-dc6a-40d8-8ef5-df08ec0f150b"},"vehicle_type_id":"4","last_reported":1768407474,"current_range_meters":6400,"station_id":"ce4bh3p2rcd13ifvqdq0","pricing_plan_id":"cebpf4jnsgd1na2vs0mg"},{"bike_id":"80e1cacf-c38d-4e99-beb6-97caf9f5d5a5","system_id":"levelo_inurba_marseille","lat":43.28209,"lon":5.39082,"is_reserved":false,"is_disabled":false,"rental_uris":{"android":"levelo://app?vid=80e1cacf-c38d-4e99-beb6-97caf9f5d5a5","ios":"levelo://app?vid=80e1cacf-c38d-4e99-beb6-97caf9f5d5a5"},"vehicle_type_id":"4","last_reported":1768407474,"current_range_meters":6400,"station_id":"ce4bhn92rcd13ifvqgsg","pricing_plan_id":"cebpf4jnsgd1na2vs0mg"},{"bike_id":"2ee0fab5-7040-4975-9414-0b1e23a72b5b","system_id":"levelo_inurba_marseille","lat":43.32349,"lon":5.36743,"is_reserved":false,"is_disabled":false,"rental_uris":{"android":"levelo://app?vid=2ee0fab5-7040-4975-9414-0b1e23a72b5b","ios":"levelo://app?vid=2ee0fab5-7040-4975-9414-0b1e23a72b5b"},"vehicle_type_id":"4","last_reported":1768407474,"current_range_meters":6400,"station_id":"ce4bhsh2rcd13ifvqi2g","pricing_plan_id":"cebpf4jnsgd1na2vs0mg"},{"bike_id":"266c2051-cecc-4d1d-bc12-d0ea8442efcf","system_id":"levelo_inurba_marseille","lat":43.23153,"lon":5.43708,"is_reserved":false,"is_disabled":false,"rental_uris":{"android":"levelo://app?vid=266c2051-cecc-4d1d-bc12-d0ea8442efcf","ios":"levelo://app?vid=266c2051-cecc-4d1d-bc12-d0ea8442efcf"},"vehicle_type_id":"4","last_reported":1768407474,"current_range_meters":6400,"station_id":"ce4bhmp2rcd13ifvqgog","pricing_plan_id":"cebpf4jnsgd1na2vs0mg"},{"bike_id":"05f63fa9-494d-453c-8fbd-b43a99415aa7","system_id":"levelo_inurba_marseille","lat":43.26677,"lon":5.38273,"is_reserved":false,"is_disabled":false,"rental_uris":{"android":"levelo://app?vid=05f63fa9-494d-453c-8fbd-b43a99415aa7","ios":"levelo://app?vid=05f63fa9-494d-453c-8fbd-b43a99415aa7"},"vehicle_type_id":"4","last_reported":1768407474,"current_range_meters":6400,"station_id":"ce4bhg92rcd13ifvqf90","pricing_plan_id":"cebpf4jnsgd1na2vs0mg"},{"bike_id":"2dcbaafa-dc26-4d5a-9923-60da74220ab7","system_id":"levelo_inurba_marseille","lat":43.263705,"lon":5.410836,"is_reserved":false,"is_disabled":false,"rental_uris":{"android":"levelo://app?vid=2dcbaafa-dc26-4d5a-9923-60da74220ab7","ios":"levelo://app?vid=2dcbaafa-dc26-4d5a-9923-60da74220ab7"},"vehicle_type_id":"4","last_reported":1768407474,"current_range_meters":6400,"station_id":"","pricing_plan_id":"cebpf4jnsgd1na2vs0mg"},{"bike_id":"bdea8fe9-463d-4a9a-a895-01ea6754a8a9","system_id":"levelo_inurba_marseille","lat":43.25868,"lon":5.39898,"is_reserved":false,"is_disabled":false,"rental_uris":{"android":"levelo://app?vid=bdea8fe9-463d-4a9a-a895-01ea6754a8a9","ios":"levelo://app?vid=bdea8fe9-463d-4a9a-a895-01ea6754a8a9"},"vehicle_type_id":"4","last_reported":1768407474,"current_range_meters":6400,"station_id":"ce4bhl92rcd13ifvqghg","pricing_plan_id":"cebpf4jnsgd1na2vs0mg"},{"bike_id":"dc322333-4210-467d-8d9e-d322d0c44168","system_id":"levelo_inurba_marseille","lat":43.24999,"lon":5.38925,"is_reserved":false,"is_disabled":false,"rental_uris":{"android":"levelo://app?vid=dc322333-4210-467d-8d9e-d322d0c44168","ios":"levelo://app?vid=dc322333-4210-467d-8d9e-d322d0c44168"},"vehicle_type_id":"4","last_reported":1768407474,"current_range_meters":6400,"station_id":"ce4bhgp2rcd13ifvqfd0","pricing_plan_id":"cebpf4jnsgd1na2vs0mg"},{"bike_id":"d8e03ef6-0c5e-49db-943c-98c26bf654da","system_id":"levelo_inurba_marseille","lat":43.29953,"lon":5.37434,"is_reserved":false,"is_disabled":false,"rental_uris":{"android":"levelo://app?vid=d8e03ef6-0c5e-49db-943c-98c26bf654da","ios":"levelo://app?vid=d8e03ef6-0c5e-49db-943c-98c26bf654da"},"vehicle_type_id":"4","last_reported":1768407474,"current_range_meters":6400,"station_id":"ce4bgjh2rcd13ifvqbg0","pricing_plan_id":"cebpf4jnsgd1na2vs0mg"},{"bike_id":"162cd79a-70f0-47c3-86f6-7c0b8ea7fd0a","system_id":"levelo_inurba_marseille","lat":43.29005,"lon":5.35615,"is_reserved":false,"is_disabled":false,"rental_uris":{"android":"levelo://app?vid=162cd79a-70f0-47c3-86f6-7c0b8ea7fd0a","ios":"levelo://app?vid=162cd79a-70f0-47c3-86f6-7c0b8ea7fd0a"},"vehicle_type_id":"4","last_reported":1768407474,"current_range_meters":6400,"station_id":"ce4bhb92rcd13ifvqen0","pricing_plan_id":"cebpf4jnsgd1na2vs0mg"},{"bike_id":"a0f9b52c-bbb7-4f7a-b55f-b65905b6c8ef","system_id":"levelo_inurba_marseille","lat":43.24948,"lon":5.40493,"is_reserved":false,"is_disabled":false,"rental_uris":{"android":"levelo://app?vid=a0f9b52c-bbb7-4f7a-b55f-b65905b6c8ef","ios":"levelo://app?vid=a0f9b52c-bbb7-4f7a-b55f-b65905b6c8ef"},"vehicle_type_id":"4","last_reported":1768407474,"current_range_meters":6400,"station_id":"st_d2ngiaodas8pm72gd1h0","pricing_plan_id":"cebpf4jnsgd1na2vs0mg"},{"bike_id":"a2c3fda5-fb1e-4329-88c2-2e7960229574","system_id":"levelo_inurba_marseille","lat":43.31203,"lon":5.40305,"is_reserved":false,"is_disabled":false,"rental_uris":{"android":"levelo://app?vid=a2c3fda5-fb1e-4329-88c2-2e7960229574","ios":"levelo://app?vid=a2c3fda5-fb1e-4329-88c2-2e7960229574"},"vehicle_type_id":"4","last_reported":1768407474,"current_range_meters":6400,"station_id":"","pricing_plan_id":"cebpf4jnsgd1na2vs0mg"},{"bike_id":"f680f50c-74ae-434a-9907-5a62e8f7d3ec","system_id":"levelo_inurba_marseille","lat":43.30531,"lon":5.36717,"is_reserved":false,"is_disabled":false,"rental_uris":{"android":"levelo://app?vid=f680f50c-74ae-434a-9907-5a62e8f7d3ec","ios":"levelo://app?vid=f680f50c-74ae-434a-9907-5a62e8f7d3ec"},"vehicle_type_id":"4","last_reported":1768407474,"current_range_meters":6400,"station_id":"ce4bgrp2rcd13ifvqc9g","pricing_plan_id":"cebpf4jnsgd1na2vs0mg"},{"bike_id":"2469529a-4c4f-45b7-b2ce-c4433e05b931","system_id":"levelo_inurba_marseille","lat":43.28479,"lon":5.48385,"is_reserved":false,"is_disabled":false,"rental_uris":{"android":"levelo://app?vid=2469529a-4c4f-45b7-b2ce-c4433e05b931","ios":"levelo://app?vid=2469529a-4c4f-45b7-b2ce-c4433e05b931"},"vehicle_type_id":"4","last_reported":1768407474,"current_range_meters":6400,"station_id":"st_d3svhcjqgbts73a3dn0g","pricing_plan_id":"cebpf4jnsgd1na2vs0mg"},{"bike_id":"221e80a5-2cc5-4d00-9930-3b51760e4cfe","system_id":"levelo_inurba_marseille","lat":43.29266,"lon":5.40898,"is_reserved":false,"is_disabled":false,"rental_uris":{"android":"levelo://app?vid=221e80a5-2cc5-4d00-9930-3b51760e4cfe","ios":"levelo://app?vid=221e80a5-2cc5-4d00-9930-3b51760e4cfe"},"vehicle_type_id":"4","last_reported":1768407474,"current_range_meters":6400,"station_id":"ce4bh192rcd13ifvqdc0","pricing_plan_id":"cebpf4jnsgd1na2vs0mg"},{"bike_id":"3628cfe9-19f5-43ff-9270-69e7b74c63cf","system_id":"levelo_inurba_marseille","lat":43.29345,"lon":5.40428,"is_reserved":false,"is_disabled":false,"rental_uris":{"android":"levelo://app?vid=3628cfe9-19f5-43ff-9270-69e7b74c63cf","ios":"levelo://app?vid=3628cfe9-19f5-43ff-9270-69e7b74c63cf"},"vehicle_type_id":"4","last_reported":1768407474,"current_range_meters":6400,"station_id":"","pricing_plan_id":"cebpf4jnsgd1na2vs0mg"},{"bike_id":"e40075f2-cd56-4a94-b6fa-d2e675bc9a70","system_id":"levelo_inurba_marseille","lat":43.31683,"lon":5.40466,"is_reserved":false,"is_disabled":false,"rental_uris":{"android":"levelo://app?vid=e40075f2-cd56-4a94-b6fa-d2e675bc9a70","ios":"levelo://app?vid=e40075f2-cd56-4a94-b6fa-d2e675bc9a70"},"vehicle_type_id":"4","last_reported":1768407474,"current_range_meters":6400,"station_id":"ce4bh012rcd13ifvqd00","pricing_plan_id":"cebpf4jnsgd1na2vs0mg"},{"bike_id":"8ee0bb69-c323-4f5a-a513-b06fb3b6ac55","system_id":"levelo_inurba_marseille","lat":43.29895,"lon":5.43671,"is_reserved":false,"is_disabled":false,"rental_uris":{"android":"levelo://app?vid=8ee0bb69-c323-4f5a-a513-b06fb3b6ac55","ios":"levelo://app?vid=8ee0bb69-c323-4f5a-a513-b06fb3b6ac55"},"vehicle_type_id":"4","last_reported":1768407474,"current_range_meters":6400,"station_id":"ce4bhpp2rcd13ifvqhfg","pricing_plan_id":"cebpf4jnsgd1na2vs0mg"},{"bike_id":"2a0e75bb-b290-48a8-b32f-f06932ee451e","system_id":"levelo_inurba_marseille","lat":43.30651,"lon":5.40055,"is_reserved":false,"is_disabled":false,"rental_uris":{"android":"levelo://app?vid=2a0e75bb-b290-48a8-b32f-f06932ee451e","ios":"levelo://app?vid=2a0e75bb-b290-48a8-b32f-f06932ee451e"},"vehicle_type_id":"4","last_reported":1768407474,"current_range_meters":6400,"station_id":"ce4bh112rcd13ifvqda0","pricing_plan_id":"cebpf4jnsgd1na2vs0mg"},{"bike_id":"c5ca41df-a10b-4946-8859-f377e5e5fca6","system_id":"levelo_inurba_marseille","lat":43.32554,"lon":5.41459,"is_reserved":false,"is_disabled":false,"rental_uris":{"android":"levelo://app?vid=c5ca41df-a10b-4946-8859-f377e5e5fca6","ios":"levelo://app?vid=c5ca41df-a10b-4946-8859-f377e5e5fca6"},"vehicle_type_id":"4","last_reported":1768407474,"current_range_meters":6400,"station_id":"ce4bhq12rcd13ifvqhhg","pricing_plan_id":"cebpf4jnsgd1na2vs0mg"},{"bike_id":"6a4a1ebd-8c7d-4994-93f6-96c7adcc3fb5","system_id":"levelo_inurba_marseille","lat":43.25932,"lon":5.40899,"is_reserved":false,"is_disabled":false,"rental_uris":{"android":"levelo://app?vid=6a4a1ebd-8c7d-4994-93f6-96c7adcc3fb5","ios":"levelo://app?vid=6a4a1ebd-8c7d-4994-93f6-96c7adcc3fb5"},"vehicle_type_id":"4","last_reported":1768407474,"current_range_meters":6800,"station_id":"ce4bhm92rcd13ifvqglg","pricing_plan_id":"cebpf4jnsgd1na2vs0mg"},{"bike_id":"d7c1eb1f-c46e-42da-91bf-bcb55dad9478","system_id":"levelo_inurba_marseille","lat":43.27214,"lon":5.39192,"is_reserved":false,"is_disabled":false,"rental_uris":{"android":"levelo://app?vid=d7c1eb1f-c46e-42da-91bf-bcb55dad9478","ios":"levelo://app?vid=d7c1eb1f-c46e-42da-91bf-bcb55dad9478"},"vehicle_type_id":"4","last_reported":1768407474,"current_range_meters":6800,"station_id":"ce4bhhp2rcd13ifvqfm0","pricing_plan_id":"cebpf4jnsgd1na2vs0mg"},{"bike_id":"f90b66d8-7ec0-4b35-997a-ab70de47e1d5","system_id":"levelo_inurba_marseille","lat":43.32463,"lon":5.36564,"is_reserved":false,"is_disabled":false,"rental_uris":{"android":"levelo://app?vid=f90b66d8-7ec0-4b35-997a-ab70de47e1d5","ios":"levelo://app?vid=f90b66d8-7ec0-4b35-997a-ab70de47e1d5"},"vehicle_type_id":"4","last_reported":1768407474,"current_range_meters":6800,"station_id":"ce4bhs12rcd13ifvqhvg","pricing_plan_id":"cebpf4jnsgd1na2vs0mg"},{"bike_id":"a0b3c393-788e-427a-ba12-453c908bd9de","system_id":"levelo_inurba_marseille","lat":43.22926,"lon":5.35377,"is_reserved":false,"is_disabled":false,"rental_uris":{"android":"levelo://app?vid=a0b3c393-788e-427a-ba12-453c908bd9de","ios":"levelo://app?vid=a0b3c393-788e-427a-ba12-453c908bd9de"},"vehicle_type_id":"4","last_reported":1768407474,"current_range_meters":6800,"station_id":"cpo3532slgdg3j2ikp40","pricing_plan_id":"cebpf4jnsgd1na2vs0mg"},{"bike_id":"dbd86f85-5b5f-4ae9-8c1d-698ae30b47da","system_id":"levelo_inurba_marseille","lat":43.29685,"lon":5.36617,"is_reserved":false,"is_disabled":false,"rental_uris":{"android":"levelo://app?vid=dbd86f85-5b5f-4ae9-8c1d-698ae30b47da","ios":"levelo://app?vid=dbd86f85-5b5f-4ae9-8c1d-698ae30b47da"},"vehicle_type_id":"4","last_reported":1768407474,"current_range_meters":6800,"station_id":"ce4bgn12rcd13ifvqbt0","pricing_plan_id":"cebpf4jnsgd1na2vs0mg"},{"bike_id":"cb91171a-b433-4d62-9e48-7aa16e13fdf7","system_id":"levelo_inurba_marseille","lat":43.29759,"lon":5.42771,"is_reserved":false,"is_disabled":false,"rental_uris":{"android":"levelo://app?vid=cb91171a-b433-4d62-9e48-7aa16e13fdf7","ios":"levelo://app?vid=cb91171a-b433-4d62-9e48-7aa16e13fdf7"},"vehicle_type_id":"4","last_reported":1768407474,"current_range_meters":6800,"station_id":"st_d3md5207bmas73dh9klg","pricing_plan_id":"cebpf4jnsgd1na2vs0mg"},{"bike_id":"c584537b-62c7-4948-a162-60dcd0d33c4c","system_id":"levelo_inurba_marseille","lat":43.3236,"lon":5.3675,"is_reserved":false,"is_disabled":false,"rental_uris":{"android":"levelo://app?vid=c584537b-62c7-4948-a162-60dcd0d33c4c","ios":"levelo://app?vid=c584537b-62c7-4948-a162-60dcd0d33c4c"},"vehicle_type_id":"4","last_reported":1768407474,"current_range_meters":6800,"station_id":"ce4bhsh2rcd13ifvqi2g","pricing_plan_id":"cebpf4jnsgd1na2vs0mg"},{"bike_id":"a41afe78-53cf-4544-bc4e-f67c85d3e8c4","system_id":"levelo_inurba_marseille","lat":43.31373,"lon":5.36734,"is_reserved":false,"is_disabled":false,"rental_uris":{"android":"levelo://app?vid=a41afe78-53cf-4544-bc4e-f67c85d3e8c4","ios":"levelo://app?vid=a41afe78-53cf-4544-bc4e-f67c85d3e8c4"},"vehicle_type_id":"4","last_reported":1768407474,"current_range_meters":6800,"station_id":"ce4bgr92rcd13ifvqc6g","pricing_plan_id":"cebpf4jnsgd1na2vs0mg"},{"bike_id":"942bc0a5-b052-4006-9d0c-e6e5f97d4deb","system_id":"levelo_inurba_marseille","lat":43.29609,"lon":5.3774,"is_reserved":false,"is_disabled":false,"rental_uris":{"android":"levelo://app?vid=942bc0a5-b052-4006-9d0c-e6e5f97d4deb","ios":"levelo://app?vid=942bc0a5-b052-4006-9d0c-e6e5f97d4deb"},"vehicle_type_id":"4","last_reported":1768407474,"current_range_meters":6800,"station_id":"ce4bgi92rcd13ifvqb90","pricing_plan_id":"cebpf4jnsgd1na2vs0mg"},{"bike_id":"611cbb73-54c4-4011-a401-b601214ce58b","system_id":"levelo_inurba_marseille","lat":43.25572,"lon":5.38229,"is_reserved":false,"is_disabled":false,"rental_uris":{"android":"levelo://app?vid=611cbb73-54c4-4011-a401-b601214ce58b","ios":"levelo://app?vid=611cbb73-54c4-4011-a401-b601214ce58b"},"vehicle_type_id":"4","last_reported":1768407474,"current_range_meters":6800,"station_id":"ce4bhih2rcd13ifvqfs0","pricing_plan_id":"cebpf4jnsgd1na2vs0mg"},{"bike_id":"ae61c49b-1317-4f66-bef7-faf737c6ab84","system_id":"levelo_inurba_marseille","lat":43.24645,"lon":5.43148,"is_reserved":false,"is_disabled":false,"rental_uris":{"android":"levelo://app?vid=ae61c49b-1317-4f66-bef7-faf737c6ab84","ios":"levelo://app?vid=ae61c49b-1317-4f66-bef7-faf737c6ab84"},"vehicle_type_id":"4","last_reported":1768407474,"current_range_meters":7200,"station_id":"st_d2m6c4gdas8pm72e190g","pricing_plan_id":"cebpf4jnsgd1na2vs0mg"},{"bike_id":"660f8d3d-996c-4d0c-a098-476ebc30f600","system_id":"levelo_inurba_marseille","lat":43.22562,"lon":5.41634,"is_reserved":false,"is_disabled":false,"rental_uris":{"android":"levelo://app?vid=660f8d3d-996c-4d0c-a098-476ebc30f600","ios":"levelo://app?vid=660f8d3d-996c-4d0c-a098-476ebc30f600"},"vehicle_type_id":"4","last_reported":1768407474,"current_range_meters":7200,"station_id":"st_d2o4gvlbi1j2169b742g","pricing_plan_id":"cebpf4jnsgd1na2vs0mg"},{"bike_id":"e6a4415e-66da-4886-926f-dde89eafb0da","system_id":"levelo_inurba_marseille","lat":43.265395,"lon":5.372878,"is_reserved":false,"is_disabled":false,"rental_uris":{"android":"levelo://app?vid=e6a4415e-66da-4886-926f-dde89eafb0da","ios":"levelo://app?vid=e6a4415e-66da-4886-926f-dde89eafb0da"},"vehicle_type_id":"4","last_reported":1768407474,"current_range_meters":7200,"station_id":"ce4bhg12rcd13ifvqf70","pricing_plan_id":"cebpf4jnsgd1na2vs0mg"},{"bike_id":"55c2b75b-1ea7-466b-96dc-6daa0aa92ad4","system_id":"levelo_inurba_marseille","lat":43.29739,"lon":5.37126,"is_reserved":false,"is_disabled":false,"rental_uris":{"android":"levelo://app?vid=55c2b75b-1ea7-466b-96dc-6daa0aa92ad4","ios":"levelo://app?vid=55c2b75b-1ea7-466b-96dc-6daa0aa92ad4"},"vehicle_type_id":"4","last_reported":1768407474,"current_range_meters":7200,"station_id":"ce4bgop2rcd13ifvqc1g","pricing_plan_id":"cebpf4jnsgd1na2vs0mg"},{"bike_id":"1c368511-4dc5-413e-9320-5c9141f9acf7","system_id":"levelo_inurba_marseille","lat":43.26404,"lon":5.39882,"is_reserved":false,"is_disabled":true,"rental_uris":{"android":"levelo://app?vid=1c368511-4dc5-413e-9320-5c9141f9acf7","ios":"levelo://app?vid=1c368511-4dc5-413e-9320-5c9141f9acf7"},"vehicle_type_id":"4","last_reported":1768407474,"current_range_meters":7200,"station_id":"","pricing_plan_id":"cebpf4jnsgd1na2vs0mg"},{"bike_id":"0018a145-5229-40b3-8721-56b2cedfd3d6","system_id":"levelo_inurba_marseille","lat":43.27978,"lon":5.39979,"is_reserved":false,"is_disabled":false,"rental_uris":{"android":"levelo://app?vid=0018a145-5229-40b3-8721-56b2cedfd3d6","ios":"levelo://app?vid=0018a145-5229-40b3-8721-56b2cedfd3d6"},"vehicle_type_id":"4","last_reported":1768407474,"current_range_meters":7200,"station_id":"ce4bho92rcd13ifvqh4g","pricing_plan_id":"cebpf4jnsgd1na2vs0mg"},{"bike_id":"f27272d4-b42c-4660-aff8-11729aa104cc","system_id":"levelo_inurba_marseille","lat":43.31253,"lon":5.36894,"is_reserved":false,"is_disabled":false,"rental_uris":{"android":"levelo://app?vid=f27272d4-b42c-4660-aff8-11729aa104cc","ios":"levelo://app?vid=f27272d4-b42c-4660-aff8-11729aa104cc"},"vehicle_type_id":"4","last_reported":1768407474,"current_range_meters":7200,"station_id":"ce4bgl92rcd13ifvqbq0","pricing_plan_id":"cebpf4jnsgd1na2vs0mg"},{"bike_id":"326fd45d-11eb-4826-92b5-835d5b4d7fbd","system_id":"levelo_inurba_marseille","lat":43.300324,"lon":5.388794,"is_reserved":false,"is_disabled":false,"rental_uris":{"android":"levelo://app?vid=326fd45d-11eb-4826-92b5-835d5b4d7fbd","ios":"levelo://app?vid=326fd45d-11eb-4826-92b5-835d5b4d7fbd"},"vehicle_type_id":"4","last_reported":1768407474,"current_range_meters":7200,"station_id":"","pricing_plan_id":"cebpf4jnsgd1na2vs0mg"},{"bike_id":"8803a6e9-67a3-479e-b849-a893754260d5","system_id":"levelo_inurba_marseille","lat":43.22936,"lon":5.35369,"is_reserved":false,"is_disabled":false,"rental_uris":{"android":"levelo://app?vid=8803a6e9-67a3-479e-b849-a893754260d5","ios":"levelo://app?vid=8803a6e9-67a3-479e-b849-a893754260d5"},"vehicle_type_id":"4","last_reported":1768407474,"current_range_meters":7200,"station_id":"cpo3532slgdg3j2ikp40","pricing_plan_id":"cebpf4jnsgd1na2vs0mg"},{"bike_id":"99c5a396-108f-4b5b-b5bc-536d0888689b","system_id":"levelo_inurba_marseille","lat":43.2439,"lon":5.3706,"is_reserved":false,"is_disabled":false,"rental_uris":{"android":"levelo://app?vid=99c5a396-108f-4b5b-b5bc-536d0888689b","ios":"levelo://app?vid=99c5a396-108f-4b5b-b5bc-536d0888689b"},"vehicle_type_id":"4","last_reported":1768407474,"current_range_meters":7200,"station_id":"ce4bhhh2rcd13ifvqfk0","pricing_plan_id":"cebpf4jnsgd1na2vs0mg"},{"bike_id":"a6f7909c-a26a-4d0c-8ed1-db8945d687a2","system_id":"levelo_inurba_marseille","lat":43.2619,"lon":5.37446,"is_reserved":false,"is_disabled":false,"rental_uris":{"android":"levelo://app?vid=a6f7909c-a26a-4d0c-8ed1-db8945d687a2","ios":"levelo://app?vid=a6f7909c-a26a-4d0c-8ed1-db8945d687a2"},"vehicle_type_id":"4","last_reported":1768407474,"current_range_meters":7200,"station_id":"ce4bhgp2rcd13ifvqfc0","pricing_plan_id":"cebpf4jnsgd1na2vs0mg"},{"bike_id":"a45f187f-4ab2-403a-85d2-aa48ef73c203","system_id":"levelo_inurba_marseille","lat":43.305985,"lon":5.372326,"is_reserved":false,"is_disabled":false,"rental_uris":{"android":"levelo://app?vid=a45f187f-4ab2-403a-85d2-aa48ef73c203","ios":"levelo://app?vid=a45f187f-4ab2-403a-85d2-aa48ef73c203"},"vehicle_type_id":"4","last_reported":1768407474,"current_range_meters":7200,"station_id":"ce4bgqh2rcd13ifvqc4g","pricing_plan_id":"cebpf4jnsgd1na2vs0mg"},{"bike_id":"ae1d99b1-82a1-460d-bd96-dc1d194fe893","system_id":"levelo_inurba_marseille","lat":43.29823,"lon":5.37648,"is_reserved":false,"is_disabled":false,"rental_uris":{"android":"levelo://app?vid=ae1d99b1-82a1-460d-bd96-dc1d194fe893","ios":"levelo://app?vid=ae1d99b1-82a1-460d-bd96-dc1d194fe893"},"vehicle_type_id":"4","last_reported":1768407474,"current_range_meters":7200,"station_id":"","pricing_plan_id":"cebpf4jnsgd1na2vs0mg"},{"bike_id":"091c8081-61de-43ac-bb2c-74077a5d4149","system_id":"levelo_inurba_marseille","lat":43.22559,"lon":5.41634,"is_reserved":false,"is_disabled":false,"rental_uris":{"android":"levelo://app?vid=091c8081-61de-43ac-bb2c-74077a5d4149","ios":"levelo://app?vid=091c8081-61de-43ac-bb2c-74077a5d4149"},"vehicle_type_id":"4","last_reported":1768407474,"current_range_meters":7200,"station_id":"st_d2o4gvlbi1j2169b742g","pricing_plan_id":"cebpf4jnsgd1na2vs0mg"},{"bike_id":"d822d21f-2a31-408a-b00b-b3387695630b","system_id":"levelo_inurba_marseille","lat":43.21188,"lon":5.35071,"is_reserved":false,"is_disabled":false,"rental_uris":{"android":"levelo://app?vid=d822d21f-2a31-408a-b00b-b3387695630b","ios":"levelo://app?vid=d822d21f-2a31-408a-b00b-b3387695630b"},"vehicle_type_id":"4","last_reported":1768407474,"current_range_meters":7200,"station_id":"st_cvj6sg6p6f1abm77japg","pricing_plan_id":"cebpf4jnsgd1na2vs0mg"},{"bike_id":"037a0099-1ded-43c7-8e30-7e3e2a0dc4bc","system_id":"levelo_inurba_marseille","lat":43.2496,"lon":5.40498,"is_reserved":false,"is_disabled":false,"rental_uris":{"android":"levelo://app?vid=037a0099-1ded-43c7-8e30-7e3e2a0dc4bc","ios":"levelo://app?vid=037a0099-1ded-43c7-8e30-7e3e2a0dc4bc"},"vehicle_type_id":"4","last_reported":1768407474,"current_range_meters":7200,"station_id":"st_d2ngiaodas8pm72gd1h0","pricing_plan_id":"cebpf4jnsgd1na2vs0mg"},{"bike_id":"fb9e54b7-2865-432c-8762-7b2135e9a1f1","system_id":"levelo_inurba_marseille","lat":43.25115,"lon":5.40293,"is_reserved":false,"is_disabled":false,"rental_uris":{"android":"levelo://app?vid=fb9e54b7-2865-432c-8762-7b2135e9a1f1","ios":"levelo://app?vid=fb9e54b7-2865-432c-8762-7b2135e9a1f1"},"vehicle_type_id":"4","last_reported":1768407474,"current_range_meters":7200,"station_id":"ce4bhlh2rcd13ifvqgig","pricing_plan_id":"cebpf4jnsgd1na2vs0mg"},{"bike_id":"edfbacb0-b907-480c-b228-32a2ccd9121e","system_id":"levelo_inurba_marseille","lat":43.29161,"lon":5.37164,"is_reserved":false,"is_disabled":false,"rental_uris":{"android":"levelo://app?vid=edfbacb0-b907-480c-b228-32a2ccd9121e","ios":"levelo://app?vid=edfbacb0-b907-480c-b228-32a2ccd9121e"},"vehicle_type_id":"4","last_reported":1768407474,"current_range_meters":7200,"station_id":"ce4bha92rcd13ifvqeh0","pricing_plan_id":"cebpf4jnsgd1na2vs0mg"},{"bike_id":"44e09ea4-244a-4bbe-8077-ea08fd693753","system_id":"levelo_inurba_marseille","lat":43.3027,"lon":5.37701,"is_reserved":false,"is_disabled":false,"rental_uris":{"android":"levelo://app?vid=44e09ea4-244a-4bbe-8077-ea08fd693753","ios":"levelo://app?vid=44e09ea4-244a-4bbe-8077-ea08fd693753"},"vehicle_type_id":"4","last_reported":1768407474,"current_range_meters":8000,"station_id":"ce4bguh2rcd13ifvqcj0","pricing_plan_id":"cebpf4jnsgd1na2vs0mg"},{"bike_id":"c4c5a3df-e90e-4579-88a2-9cc4ceac9cd9","system_id":"levelo_inurba_marseille","lat":43.30539,"lon":5.3669,"is_reserved":false,"is_disabled":false,"rental_uris":{"android":"levelo://app?vid=c4c5a3df-e90e-4579-88a2-9cc4ceac9cd9","ios":"levelo://app?vid=c4c5a3df-e90e-4579-88a2-9cc4ceac9cd9"},"vehicle_type_id":"4","last_reported":1768407474,"current_range_meters":8000,"station_id":"ce4bgrp2rcd13ifvqc9g","pricing_plan_id":"cebpf4jnsgd1na2vs0mg"},{"bike_id":"c75b139b-6977-457c-8fab-86c172554976","system_id":"levelo_inurba_marseille","lat":43.25103,"lon":5.40455,"is_reserved":false,"is_disabled":false,"rental_uris":{"android":"levelo://app?vid=c75b139b-6977-457c-8fab-86c172554976","ios":"levelo://app?vid=c75b139b-6977-457c-8fab-86c172554976"},"vehicle_type_id":"4","last_reported":1768407474,"current_range_meters":8000,"station_id":"","pricing_plan_id":"cebpf4jnsgd1na2vs0mg"},{"bike_id":"2f317efe-a01b-468a-9036-21dfc4cc3358","system_id":"levelo_inurba_marseille","lat":43.25821,"lon":5.39431,"is_reserved":false,"is_disabled":false,"rental_uris":{"android":"levelo://app?vid=2f317efe-a01b-468a-9036-21dfc4cc3358","ios":"levelo://app?vid=2f317efe-a01b-468a-9036-21dfc4cc3358"},"vehicle_type_id":"4","last_reported":1768407474,"current_range_meters":8000,"station_id":"ce4bhip2rcd13ifvqft0","pricing_plan_id":"cebpf4jnsgd1na2vs0mg"},{"bike_id":"72ff7b73-b7a5-4e8c-b009-667fa554ab4f","system_id":"levelo_inurba_marseille","lat":43.23133,"lon":5.43727,"is_reserved":false,"is_disabled":false,"rental_uris":{"android":"levelo://app?vid=72ff7b73-b7a5-4e8c-b009-667fa554ab4f","ios":"levelo://app?vid=72ff7b73-b7a5-4e8c-b009-667fa554ab4f"},"vehicle_type_id":"4","last_reported":1768407474,"current_range_meters":8000,"station_id":"ce4bhmp2rcd13ifvqgog","pricing_plan_id":"cebpf4jnsgd1na2vs0mg"},{"bike_id":"06897417-f925-403b-9b53-83cb77fb311f","system_id":"levelo_inurba_marseille","lat":43.22948,"lon":5.3537,"is_reserved":false,"is_disabled":false,"rental_uris":{"android":"levelo://app?vid=06897417-f925-403b-9b53-83cb77fb311f","ios":"levelo://app?vid=06897417-f925-403b-9b53-83cb77fb311f"},"vehicle_type_id":"4","last_reported":1768407474,"current_range_meters":8000,"station_id":"cpo3532slgdg3j2ikp40","pricing_plan_id":"cebpf4jnsgd1na2vs0mg"},{"bike_id":"c8c9f1e3-cfb9-4095-8d70-4c877ea7f0b9","system_id":"levelo_inurba_marseille","lat":43.31553,"lon":5.38454,"is_reserved":false,"is_disabled":false,"rental_uris":{"android":"levelo://app?vid=c8c9f1e3-cfb9-4095-8d70-4c877ea7f0b9","ios":"levelo://app?vid=c8c9f1e3-cfb9-4095-8d70-4c877ea7f0b9"},"vehicle_type_id":"4","last_reported":1768407474,"current_range_meters":8000,"station_id":"","pricing_plan_id":"cebpf4jnsgd1na2vs0mg"},{"bike_id":"52dc7a23-02b1-49ea-88fe-a1d65ef8f548","system_id":"levelo_inurba_marseille","lat":43.22937,"lon":5.3537,"is_reserved":false,"is_disabled":false,"rental_uris":{"android":"levelo://app?vid=52dc7a23-02b1-49ea-88fe-a1d65ef8f548","ios":"levelo://app?vid=52dc7a23-02b1-49ea-88fe-a1d65ef8f548"},"vehicle_type_id":"4","last_reported":1768407474,"current_range_meters":8000,"station_id":"cpo3532slgdg3j2ikp40","pricing_plan_id":"cebpf4jnsgd1na2vs0mg"},{"bike_id":"c9da304b-df64-469f-a8fe-783a041f993b","system_id":"levelo_inurba_marseille","lat":43.30553,"lon":5.36505,"is_reserved":false,"is_disabled":false,"rental_uris":{"android":"levelo://app?vid=c9da304b-df64-469f-a8fe-783a041f993b","ios":"levelo://app?vid=c9da304b-df64-469f-a8fe-783a041f993b"},"vehicle_type_id":"4","last_reported":1768407474,"current_range_meters":8000,"station_id":"ce4bgs12rcd13ifvqcag","pricing_plan_id":"cebpf4jnsgd1na2vs0mg"},{"bike_id":"5410fd45-b8b4-470d-9bd7-ad1acafbc363","system_id":"levelo_inurba_marseille","lat":43.284769,"lon":5.483939,"is_reserved":false,"is_disabled":false,"rental_uris":{"android":"levelo://app?vid=5410fd45-b8b4-470d-9bd7-ad1acafbc363","ios":"levelo://app?vid=5410fd45-b8b4-470d-9bd7-ad1acafbc363"},"vehicle_type_id":"4","last_reported":1768407474,"current_range_meters":8000,"station_id":"","pricing_plan_id":"cebpf4jnsgd1na2vs0mg"},{"bike_id":"86aaef4b-aac1-4248-ac79-0d9f37b8c62f","system_id":"levelo_inurba_marseille","lat":43.27317,"lon":5.41682,"is_reserved":false,"is_disabled":false,"rental_uris":{"android":"levelo://app?vid=86aaef4b-aac1-4248-ac79-0d9f37b8c62f","ios":"levelo://app?vid=86aaef4b-aac1-4248-ac79-0d9f37b8c62f"},"vehicle_type_id":"4","last_reported":1768407474,"current_range_meters":8000,"station_id":"","pricing_plan_id":"cebpf4jnsgd1na2vs0mg"},{"bike_id":"7cb266d5-07da-4248-a2a3-ae0ed4caa721","system_id":"levelo_inurba_marseille","lat":43.29189,"lon":5.37149,"is_reserved":false,"is_disabled":false,"rental_uris":{"android":"levelo://app?vid=7cb266d5-07da-4248-a2a3-ae0ed4caa721","ios":"levelo://app?vid=7cb266d5-07da-4248-a2a3-ae0ed4caa721"},"vehicle_type_id":"4","last_reported":1768407474,"current_range_meters":8000,"station_id":"ce4bha92rcd13ifvqeh0","pricing_plan_id":"cebpf4jnsgd1na2vs0mg"},{"bike_id":"32a6fb2e-0d07-41f5-98d9-49c5a72b9745","system_id":"levelo_inurba_marseille","lat":43.25839,"lon":5.39398,"is_reserved":false,"is_disabled":false,"rental_uris":{"android":"levelo://app?vid=32a6fb2e-0d07-41f5-98d9-49c5a72b9745","ios":"levelo://app?vid=32a6fb2e-0d07-41f5-98d9-49c5a72b9745"},"vehicle_type_id":"4","last_reported":1768407474,"current_range_meters":8000,"station_id":"ce4bhip2rcd13ifvqft0","pricing_plan_id":"cebpf4jnsgd1na2vs0mg"},{"bike_id":"43edefa6-64e3-4912-b92b-ba1472456f7d","system_id":"levelo_inurba_marseille","lat":43.28913,"lon":5.36413,"is_reserved":false,"is_disabled":false,"rental_uris":{"android":"levelo://app?vid=43edefa6-64e3-4912-b92b-ba1472456f7d","ios":"levelo://app?vid=43edefa6-64e3-4912-b92b-ba1472456f7d"},"vehicle_type_id":"4","last_reported":1768407474,"current_range_meters":8000,"station_id":"","pricing_plan_id":"cebpf4jnsgd1na2vs0mg"},{"bike_id":"6897c232-09cd-4035-b0ef-f4e964399541","system_id":"levelo_inurba_marseille","lat":43.299198,"lon":5.375134,"is_reserved":false,"is_disabled":false,"rental_uris":{"android":"levelo://app?vid=6897c232-09cd-4035-b0ef-f4e964399541","ios":"levelo://app?vid=6897c232-09cd-4035-b0ef-f4e964399541"},"vehicle_type_id":"4","last_reported":1768407474,"current_range_meters":8000,"station_id":"ce4bgjh2rcd13ifvqbg0","pricing_plan_id":"cebpf4jnsgd1na2vs0mg"},{"bike_id":"55194f29-42dd-4454-96b2-a5d4401446b6","system_id":"levelo_inurba_marseille","lat":43.299343,"lon":5.427511,"is_reserved":false,"is_disabled":false,"rental_uris":{"android":"levelo://app?vid=55194f29-42dd-4454-96b2-a5d4401446b6","ios":"levelo://app?vid=55194f29-42dd-4454-96b2-a5d4401446b6"},"vehicle_type_id":"4","last_reported":1768407474,"current_range_meters":8000,"station_id":"","pricing_plan_id":"cebpf4jnsgd1na2vs0mg"},{"bike_id":"204ac4ab-e203-4329-9ff0-720626e1f908","system_id":"levelo_inurba_marseille","lat":43.270666,"lon":5.383002,"is_reserved":false,"is_disabled":true,"rental_uris":{"android":"levelo://app?vid=204ac4ab-e203-4329-9ff0-720626e1f908","ios":"levelo://app?vid=204ac4ab-e203-4329-9ff0-720626e1f908"},"vehicle_type_id":"4","last_reported":1768407474,"current_range_meters":8000,"station_id":"st_d3n2fo6cfp8s73cte1j0","pricing_plan_id":"cebpf4jnsgd1na2vs0mg"},{"bike_id":"4883c970-634b-4de4-9e21-df47a68eb757","system_id":"levelo_inurba_marseille","lat":43.28482,"lon":5.48391,"is_reserved":false,"is_disabled":false,"rental_uris":{"android":"levelo://app?vid=4883c970-634b-4de4-9e21-df47a68eb757","ios":"levelo://app?vid=4883c970-634b-4de4-9e21-df47a68eb757"},"vehicle_type_id":"4","last_reported":1768407474,"current_range_meters":8000,"station_id":"st_d3svhcjqgbts73a3dn0g","pricing_plan_id":"cebpf4jnsgd1na2vs0mg"},{"bike_id":"c2354b44-17c1-478f-94d4-6c400a3bd0b6","system_id":"levelo_inurba_marseille","lat":43.24159,"lon":5.36397,"is_reserved":false,"is_disabled":false,"rental_uris":{"android":"levelo://app?vid=c2354b44-17c1-478f-94d4-6c400a3bd0b6","ios":"levelo://app?vid=c2354b44-17c1-478f-94d4-6c400a3bd0b6"},"vehicle_type_id":"4","last_reported":1768407474,"current_range_meters":8000,"station_id":"cpo36qri1sfpv3e86is0","pricing_plan_id":"cebpf4jnsgd1na2vs0mg"},{"bike_id":"3cb2be37-2e39-4b55-aac6-c05558c9ac2f","system_id":"levelo_inurba_marseille","lat":43.28933,"lon":5.38422,"is_reserved":false,"is_disabled":false,"rental_uris":{"android":"levelo://app?vid=3cb2be37-2e39-4b55-aac6-c05558c9ac2f","ios":"levelo://app?vid=3cb2be37-2e39-4b55-aac6-c05558c9ac2f"},"vehicle_type_id":"4","last_reported":1768407474,"current_range_meters":8400,"station_id":"ce4bh612rcd13ifvqe6g","pricing_plan_id":"cebpf4jnsgd1na2vs0mg"},{"bike_id":"7cccb604-f149-4e8e-9ee8-78300c58372e","system_id":"levelo_inurba_marseille","lat":43.23194,"lon":5.39998,"is_reserved":false,"is_disabled":false,"rental_uris":{"android":"levelo://app?vid=7cccb604-f149-4e8e-9ee8-78300c58372e","ios":"levelo://app?vid=7cccb604-f149-4e8e-9ee8-78300c58372e"},"vehicle_type_id":"4","last_reported":1768407474,"current_range_meters":8400,"station_id":"ce4bhn12rcd13ifvqgqg","pricing_plan_id":"cebpf4jnsgd1na2vs0mg"},{"bike_id":"1d4a4fad-6302-435f-a955-d4f4ff25438d","system_id":"levelo_inurba_marseille","lat":43.26775,"lon":5.39416,"is_reserved":false,"is_disabled":false,"rental_uris":{"android":"levelo://app?vid=1d4a4fad-6302-435f-a955-d4f4ff25438d","ios":"levelo://app?vid=1d4a4fad-6302-435f-a955-d4f4ff25438d"},"vehicle_type_id":"4","last_reported":1768407474,"current_range_meters":8400,"station_id":"ce4bhh12rcd13ifvqfg0","pricing_plan_id":"cebpf4jnsgd1na2vs0mg"},{"bike_id":"cb112968-19d5-414e-ae84-4e5bf50f8187","system_id":"levelo_inurba_marseille","lat":43.29772,"lon":5.37666,"is_reserved":false,"is_disabled":false,"rental_uris":{"android":"levelo://app?vid=cb112968-19d5-414e-ae84-4e5bf50f8187","ios":"levelo://app?vid=cb112968-19d5-414e-ae84-4e5bf50f8187"},"vehicle_type_id":"4","last_reported":1768407474,"current_range_meters":8400,"station_id":"","pricing_plan_id":"cebpf4jnsgd1na2vs0mg"},{"bike_id":"f1177697-24b8-4122-96be-92006a04ddc7","system_id":"levelo_inurba_marseille","lat":43.27824,"lon":5.40716,"is_reserved":false,"is_disabled":false,"rental_uris":{"android":"levelo://app?vid=f1177697-24b8-4122-96be-92006a04ddc7","ios":"levelo://app?vid=f1177697-24b8-4122-96be-92006a04ddc7"},"vehicle_type_id":"4","last_reported":1768407474,"current_range_meters":8400,"station_id":"ce4bhnh2rcd13ifvqgtg","pricing_plan_id":"cebpf4jnsgd1na2vs0mg"},{"bike_id":"aac02660-451c-4466-97cc-03bd6873da26","system_id":"levelo_inurba_marseille","lat":43.24814,"lon":5.37457,"is_reserved":false,"is_disabled":false,"rental_uris":{"android":"levelo://app?vid=aac02660-451c-4466-97cc-03bd6873da26","ios":"levelo://app?vid=aac02660-451c-4466-97cc-03bd6873da26"},"vehicle_type_id":"4","last_reported":1768407474,"current_range_meters":8400,"station_id":"ce4bhgh2rcd13ifvqfb0","pricing_plan_id":"cebpf4jnsgd1na2vs0mg"},{"bike_id":"da5522d5-7f8c-4f7d-9870-90d14e323d65","system_id":"levelo_inurba_marseille","lat":43.31176,"lon":5.38711,"is_reserved":false,"is_disabled":false,"rental_uris":{"android":"levelo://app?vid=da5522d5-7f8c-4f7d-9870-90d14e323d65","ios":"levelo://app?vid=da5522d5-7f8c-4f7d-9870-90d14e323d65"},"vehicle_type_id":"4","last_reported":1768407474,"current_range_meters":8400,"station_id":"ce4bgv12rcd13ifvqcp0","pricing_plan_id":"cebpf4jnsgd1na2vs0mg"},{"bike_id":"a293b5ac-cc9d-4eaf-9c82-287a9bc7812d","system_id":"levelo_inurba_marseille","lat":43.28979,"lon":5.38825,"is_reserved":false,"is_disabled":false,"rental_uris":{"android":"levelo://app?vid=a293b5ac-cc9d-4eaf-9c82-287a9bc7812d","ios":"levelo://app?vid=a293b5ac-cc9d-4eaf-9c82-287a9bc7812d"},"vehicle_type_id":"4","last_reported":1768407474,"current_range_meters":8400,"station_id":"","pricing_plan_id":"cebpf4jnsgd1na2vs0mg"},{"bike_id":"7420a463-05be-48d3-a089-82560d5ea99f","system_id":"levelo_inurba_marseille","lat":43.25078,"lon":5.40344,"is_reserved":false,"is_disabled":false,"rental_uris":{"android":"levelo://app?vid=7420a463-05be-48d3-a089-82560d5ea99f","ios":"levelo://app?vid=7420a463-05be-48d3-a089-82560d5ea99f"},"vehicle_type_id":"4","last_reported":1768407474,"current_range_meters":8400,"station_id":"ce4bhlh2rcd13ifvqgig","pricing_plan_id":"cebpf4jnsgd1na2vs0mg"},{"bike_id":"fb375ca6-515f-4f8c-9765-b15f93f19e46","system_id":"levelo_inurba_marseille","lat":43.27325,"lon":5.3908,"is_reserved":false,"is_disabled":false,"rental_uris":{"android":"levelo://app?vid=fb375ca6-515f-4f8c-9765-b15f93f19e46","ios":"levelo://app?vid=fb375ca6-515f-4f8c-9765-b15f93f19e46"},"vehicle_type_id":"4","last_reported":1768407474,"current_range_meters":8400,"station_id":"ce4bhgp2rcd13ifvqfe0","pricing_plan_id":"cebpf4jnsgd1na2vs0mg"},{"bike_id":"c98051db-5841-432c-a36b-9ad9148725d8","system_id":"levelo_inurba_marseille","lat":43.29896,"lon":5.43661,"is_reserved":false,"is_disabled":false,"rental_uris":{"android":"levelo://app?vid=c98051db-5841-432c-a36b-9ad9148725d8","ios":"levelo://app?vid=c98051db-5841-432c-a36b-9ad9148725d8"},"vehicle_type_id":"4","last_reported":1768407474,"current_range_meters":8400,"station_id":"ce4bhpp2rcd13ifvqhfg","pricing_plan_id":"cebpf4jnsgd1na2vs0mg"},{"bike_id":"96056386-d9a6-4636-bb5c-976733254508","system_id":"levelo_inurba_marseille","lat":43.21212,"lon":5.35098,"is_reserved":false,"is_disabled":false,"rental_uris":{"android":"levelo://app?vid=96056386-d9a6-4636-bb5c-976733254508","ios":"levelo://app?vid=96056386-d9a6-4636-bb5c-976733254508"},"vehicle_type_id":"4","last_reported":1768407474,"current_range_meters":8400,"station_id":"","pricing_plan_id":"cebpf4jnsgd1na2vs0mg"},{"bike_id":"5eca2757-10c0-4e1c-b8b4-d19eda7615f8","system_id":"levelo_inurba_marseille","lat":43.24478,"lon":5.42524,"is_reserved":false,"is_disabled":false,"rental_uris":{"android":"levelo://app?vid=5eca2757-10c0-4e1c-b8b4-d19eda7615f8","ios":"levelo://app?vid=5eca2757-10c0-4e1c-b8b4-d19eda7615f8"},"vehicle_type_id":"4","last_reported":1768407474,"current_range_meters":8400,"station_id":"st_d4a3vfp97mjs738cd8kg","pricing_plan_id":"cebpf4jnsgd1na2vs0mg"},{"bike_id":"03e9f015-73ba-4c3e-a345-a62206b593d1","system_id":"levelo_inurba_marseille","lat":43.32493,"lon":5.36558,"is_reserved":false,"is_disabled":false,"rental_uris":{"android":"levelo://app?vid=03e9f015-73ba-4c3e-a345-a62206b593d1","ios":"levelo://app?vid=03e9f015-73ba-4c3e-a345-a62206b593d1"},"vehicle_type_id":"4","last_reported":1768407474,"current_range_meters":8800,"station_id":"ce4bhs12rcd13ifvqhvg","pricing_plan_id":"cebpf4jnsgd1na2vs0mg"},{"bike_id":"4984d6b8-a38b-4c8b-a6cf-9cd9c50ff7f8","system_id":"levelo_inurba_marseille","lat":43.25004,"lon":5.38933,"is_reserved":false,"is_disabled":false,"rental_uris":{"android":"levelo://app?vid=4984d6b8-a38b-4c8b-a6cf-9cd9c50ff7f8","ios":"levelo://app?vid=4984d6b8-a38b-4c8b-a6cf-9cd9c50ff7f8"},"vehicle_type_id":"4","last_reported":1768407474,"current_range_meters":8800,"station_id":"ce4bhgp2rcd13ifvqfd0","pricing_plan_id":"cebpf4jnsgd1na2vs0mg"},{"bike_id":"9d1a6d24-7155-4458-99e8-cf8d159dfd69","system_id":"levelo_inurba_marseille","lat":43.284531,"lon":5.358923,"is_reserved":false,"is_disabled":false,"rental_uris":{"android":"levelo://app?vid=9d1a6d24-7155-4458-99e8-cf8d159dfd69","ios":"levelo://app?vid=9d1a6d24-7155-4458-99e8-cf8d159dfd69"},"vehicle_type_id":"4","last_reported":1768407474,"current_range_meters":8800,"station_id":"ce4bhah2rcd13ifvqei0","pricing_plan_id":"cebpf4jnsgd1na2vs0mg"},{"bike_id":"a91a986f-611b-4f2d-a755-d3c91591c10f","system_id":"levelo_inurba_marseille","lat":43.25168,"lon":5.40318,"is_reserved":false,"is_disabled":false,"rental_uris":{"android":"levelo://app?vid=a91a986f-611b-4f2d-a755-d3c91591c10f","ios":"levelo://app?vid=a91a986f-611b-4f2d-a755-d3c91591c10f"},"vehicle_type_id":"4","last_reported":1768407474,"current_range_meters":8800,"station_id":"","pricing_plan_id":"cebpf4jnsgd1na2vs0mg"},{"bike_id":"634a5032-07c2-4ad0-b886-0e21c013fdce","system_id":"levelo_inurba_marseille","lat":43.25578,"lon":5.38227,"is_reserved":false,"is_disabled":false,"rental_uris":{"android":"levelo://app?vid=634a5032-07c2-4ad0-b886-0e21c013fdce","ios":"levelo://app?vid=634a5032-07c2-4ad0-b886-0e21c013fdce"},"vehicle_type_id":"4","last_reported":1768407474,"current_range_meters":8800,"station_id":"ce4bhih2rcd13ifvqfs0","pricing_plan_id":"cebpf4jnsgd1na2vs0mg"},{"bike_id":"7445f670-7827-4e99-80df-37c19e7cc9ec","system_id":"levelo_inurba_marseille","lat":43.32109,"lon":5.36767,"is_reserved":false,"is_disabled":false,"rental_uris":{"android":"levelo://app?vid=7445f670-7827-4e99-80df-37c19e7cc9ec","ios":"levelo://app?vid=7445f670-7827-4e99-80df-37c19e7cc9ec"},"vehicle_type_id":"4","last_reported":1768407474,"current_range_meters":8800,"station_id":"ce4bhrh2rcd13ifvqhug","pricing_plan_id":"cebpf4jnsgd1na2vs0mg"},{"bike_id":"802f6f1f-e419-4e8d-83c9-cb459bd041d8","system_id":"levelo_inurba_marseille","lat":43.2827,"lon":5.35078,"is_reserved":false,"is_disabled":false,"rental_uris":{"android":"levelo://app?vid=802f6f1f-e419-4e8d-83c9-cb459bd041d8","ios":"levelo://app?vid=802f6f1f-e419-4e8d-83c9-cb459bd041d8"},"vehicle_type_id":"4","last_reported":1768407474,"current_range_meters":8800,"station_id":"ce4bhbp2rcd13ifvqerg","pricing_plan_id":"cebpf4jnsgd1na2vs0mg"},{"bike_id":"e11889a7-dd00-4680-82ad-dc48c0a7f8b9","system_id":"levelo_inurba_marseille","lat":43.22941,"lon":5.35373,"is_reserved":false,"is_disabled":false,"rental_uris":{"android":"levelo://app?vid=e11889a7-dd00-4680-82ad-dc48c0a7f8b9","ios":"levelo://app?vid=e11889a7-dd00-4680-82ad-dc48c0a7f8b9"},"vehicle_type_id":"4","last_reported":1768407474,"current_range_meters":8800,"station_id":"cpo3532slgdg3j2ikp40","pricing_plan_id":"cebpf4jnsgd1na2vs0mg"},{"bike_id":"ab4c7e8d-c082-49f2-ad38-3b04b1436978","system_id":"levelo_inurba_marseille","lat":43.22578,"lon":5.41627,"is_reserved":false,"is_disabled":false,"rental_uris":{"android":"levelo://app?vid=ab4c7e8d-c082-49f2-ad38-3b04b1436978","ios":"levelo://app?vid=ab4c7e8d-c082-49f2-ad38-3b04b1436978"},"vehicle_type_id":"4","last_reported":1768407474,"current_range_meters":8800,"station_id":"st_d2o4gvlbi1j2169b742g","pricing_plan_id":"cebpf4jnsgd1na2vs0mg"},{"bike_id":"3b326f81-b0c4-4b16-a9c9-f528a517d078","system_id":"levelo_inurba_marseille","lat":43.23189,"lon":5.35549,"is_reserved":false,"is_disabled":false,"rental_uris":{"android":"levelo://app?vid=3b326f81-b0c4-4b16-a9c9-f528a517d078","ios":"levelo://app?vid=3b326f81-b0c4-4b16-a9c9-f528a517d078"},"vehicle_type_id":"4","last_reported":1768407474,"current_range_meters":8800,"station_id":"ce4bhu92rcd13ifvqi70","pricing_plan_id":"cebpf4jnsgd1na2vs0mg"},{"bike_id":"4a0910bc-2cb8-4117-a88f-aa517b88b474","system_id":"levelo_inurba_marseille","lat":43.3441,"lon":5.39991,"is_reserved":false,"is_disabled":false,"rental_uris":{"android":"levelo://app?vid=4a0910bc-2cb8-4117-a88f-aa517b88b474","ios":"levelo://app?vid=4a0910bc-2cb8-4117-a88f-aa517b88b474"},"vehicle_type_id":"4","last_reported":1768407474,"current_range_meters":8800,"station_id":"","pricing_plan_id":"cebpf4jnsgd1na2vs0mg"},{"bike_id":"32ed67de-fd5b-4133-8bca-f90f8a490931","system_id":"levelo_inurba_marseille","lat":43.29536,"lon":5.37471,"is_reserved":false,"is_disabled":false,"rental_uris":{"android":"levelo://app?vid=32ed67de-fd5b-4133-8bca-f90f8a490931","ios":"levelo://app?vid=32ed67de-fd5b-4133-8bca-f90f8a490931"},"vehicle_type_id":"4","last_reported":1768407474,"current_range_meters":8800,"station_id":"ce4bgkp2rcd13ifvqbmg","pricing_plan_id":"cebpf4jnsgd1na2vs0mg"},{"bike_id":"83b24877-4fa1-4cbc-9729-5d9b1f26a09d","system_id":"levelo_inurba_marseille","lat":43.29651,"lon":5.39168,"is_reserved":false,"is_disabled":false,"rental_uris":{"android":"levelo://app?vid=83b24877-4fa1-4cbc-9729-5d9b1f26a09d","ios":"levelo://app?vid=83b24877-4fa1-4cbc-9729-5d9b1f26a09d"},"vehicle_type_id":"4","last_reported":1768407474,"current_range_meters":8800,"station_id":"","pricing_plan_id":"cebpf4jnsgd1na2vs0mg"},{"bike_id":"03bea929-ded9-4f0a-b535-3ced67ddbf39","system_id":"levelo_inurba_marseille","lat":43.24662,"lon":5.43128,"is_reserved":false,"is_disabled":false,"rental_uris":{"android":"levelo://app?vid=03bea929-ded9-4f0a-b535-3ced67ddbf39","ios":"levelo://app?vid=03bea929-ded9-4f0a-b535-3ced67ddbf39"},"vehicle_type_id":"4","last_reported":1768407474,"current_range_meters":8800,"station_id":"st_d2m6c4gdas8pm72e190g","pricing_plan_id":"cebpf4jnsgd1na2vs0mg"},{"bike_id":"ce705002-36e9-4a86-ba6d-0f075dbe99d7","system_id":"levelo_inurba_marseille","lat":43.297433,"lon":5.362534,"is_reserved":false,"is_disabled":false,"rental_uris":{"android":"levelo://app?vid=ce705002-36e9-4a86-ba6d-0f075dbe99d7","ios":"levelo://app?vid=ce705002-36e9-4a86-ba6d-0f075dbe99d7"},"vehicle_type_id":"4","last_reported":1768407474,"current_range_meters":8800,"station_id":"","pricing_plan_id":"cebpf4jnsgd1na2vs0mg"},{"bike_id":"f9fdbb48-1798-4538-9bda-de4b35ab0ad4","system_id":"levelo_inurba_marseille","lat":43.28142,"lon":5.38323,"is_reserved":false,"is_disabled":false,"rental_uris":{"android":"levelo://app?vid=f9fdbb48-1798-4538-9bda-de4b35ab0ad4","ios":"levelo://app?vid=f9fdbb48-1798-4538-9bda-de4b35ab0ad4"},"vehicle_type_id":"4","last_reported":1768407474,"current_range_meters":8800,"station_id":"","pricing_plan_id":"cebpf4jnsgd1na2vs0mg"},{"bike_id":"699c6bb0-1655-47f0-86fb-78256d649744","system_id":"levelo_inurba_marseille","lat":43.278293,"lon":5.407198,"is_reserved":false,"is_disabled":false,"rental_uris":{"android":"levelo://app?vid=699c6bb0-1655-47f0-86fb-78256d649744","ios":"levelo://app?vid=699c6bb0-1655-47f0-86fb-78256d649744"},"vehicle_type_id":"4","last_reported":1768407474,"current_range_meters":8800,"station_id":"ce4bhnh2rcd13ifvqgtg","pricing_plan_id":"cebpf4jnsgd1na2vs0mg"},{"bike_id":"774ca479-5bb9-49b9-8ea6-99c5cf896279","system_id":"levelo_inurba_marseille","lat":43.24646,"lon":5.43159,"is_reserved":false,"is_disabled":false,"rental_uris":{"android":"levelo://app?vid=774ca479-5bb9-49b9-8ea6-99c5cf896279","ios":"levelo://app?vid=774ca479-5bb9-49b9-8ea6-99c5cf896279"},"vehicle_type_id":"4","last_reported":1768407474,"current_range_meters":8800,"station_id":"st_d2m6c4gdas8pm72e190g","pricing_plan_id":"cebpf4jnsgd1na2vs0mg"},{"bike_id":"18dc8c62-b29b-42f7-9621-fffcbbc18a5c","system_id":"levelo_inurba_marseille","lat":43.23966,"lon":5.36624,"is_reserved":false,"is_disabled":false,"rental_uris":{"android":"levelo://app?vid=18dc8c62-b29b-42f7-9621-fffcbbc18a5c","ios":"levelo://app?vid=18dc8c62-b29b-42f7-9621-fffcbbc18a5c"},"vehicle_type_id":"4","last_reported":1768407474,"current_range_meters":8800,"station_id":"ce4bhi12rcd13ifvqfp0","pricing_plan_id":"cebpf4jnsgd1na2vs0mg"},{"bike_id":"7cfd3202-2f3d-4221-beca-711335bc8c7d","system_id":"levelo_inurba_marseille","lat":43.28942,"lon":5.39636,"is_reserved":false,"is_disabled":false,"rental_uris":{"android":"levelo://app?vid=7cfd3202-2f3d-4221-beca-711335bc8c7d","ios":"levelo://app?vid=7cfd3202-2f3d-4221-beca-711335bc8c7d"},"vehicle_type_id":"4","last_reported":1768407474,"current_range_meters":8800,"station_id":"ce4bh3h2rcd13ifvqdn0","pricing_plan_id":"cebpf4jnsgd1na2vs0mg"},{"bike_id":"24e2710b-3c16-4369-be5e-489a614b6408","system_id":"levelo_inurba_marseille","lat":43.31171,"lon":5.38712,"is_reserved":false,"is_disabled":false,"rental_uris":{"android":"levelo://app?vid=24e2710b-3c16-4369-be5e-489a614b6408","ios":"levelo://app?vid=24e2710b-3c16-4369-be5e-489a614b6408"},"vehicle_type_id":"4","last_reported":1768407474,"current_range_meters":8800,"station_id":"ce4bgv12rcd13ifvqcp0","pricing_plan_id":"cebpf4jnsgd1na2vs0mg"},{"bike_id":"2bcad394-1ed1-45d6-9d60-60ddc14aa0ce","system_id":"levelo_inurba_marseille","lat":43.265447,"lon":5.372863,"is_reserved":false,"is_disabled":false,"rental_uris":{"android":"levelo://app?vid=2bcad394-1ed1-45d6-9d60-60ddc14aa0ce","ios":"levelo://app?vid=2bcad394-1ed1-45d6-9d60-60ddc14aa0ce"},"vehicle_type_id":"4","last_reported":1768407474,"current_range_meters":8800,"station_id":"ce4bhg12rcd13ifvqf70","pricing_plan_id":"cebpf4jnsgd1na2vs0mg"},{"bike_id":"eb0ad9ed-8a5f-4adc-8ba2-7f829ef52aab","system_id":"levelo_inurba_marseille","lat":43.24801,"lon":5.37455,"is_reserved":false,"is_disabled":false,"rental_uris":{"android":"levelo://app?vid=eb0ad9ed-8a5f-4adc-8ba2-7f829ef52aab","ios":"levelo://app?vid=eb0ad9ed-8a5f-4adc-8ba2-7f829ef52aab"},"vehicle_type_id":"4","last_reported":1768407474,"current_range_meters":8800,"station_id":"ce4bhgh2rcd13ifvqfb0","pricing_plan_id":"cebpf4jnsgd1na2vs0mg"},{"bike_id":"10e580fb-3a4d-48aa-a18d-73ca6a776e6c","system_id":"levelo_inurba_marseille","lat":43.26857,"lon":5.40669,"is_reserved":false,"is_disabled":false,"rental_uris":{"android":"levelo://app?vid=10e580fb-3a4d-48aa-a18d-73ca6a776e6c","ios":"levelo://app?vid=10e580fb-3a4d-48aa-a18d-73ca6a776e6c"},"vehicle_type_id":"4","last_reported":1768407474,"current_range_meters":8800,"station_id":"","pricing_plan_id":"cebpf4jnsgd1na2vs0mg"},{"bike_id":"0f756daa-8d92-4357-b5c1-b4a29ad92185","system_id":"levelo_inurba_marseille","lat":43.31259,"lon":5.36885,"is_reserved":false,"is_disabled":false,"rental_uris":{"android":"levelo://app?vid=0f756daa-8d92-4357-b5c1-b4a29ad92185","ios":"levelo://app?vid=0f756daa-8d92-4357-b5c1-b4a29ad92185"},"vehicle_type_id":"4","last_reported":1768407474,"current_range_meters":8800,"station_id":"ce4bgl92rcd13ifvqbq0","pricing_plan_id":"cebpf4jnsgd1na2vs0mg"},{"bike_id":"4810dca0-bad6-47b5-b7db-2f7125b3e022","system_id":"levelo_inurba_marseille","lat":43.2119,"lon":5.35071,"is_reserved":false,"is_disabled":false,"rental_uris":{"android":"levelo://app?vid=4810dca0-bad6-47b5-b7db-2f7125b3e022","ios":"levelo://app?vid=4810dca0-bad6-47b5-b7db-2f7125b3e022"},"vehicle_type_id":"4","last_reported":1768407474,"current_range_meters":8800,"station_id":"st_cvj6sg6p6f1abm77japg","pricing_plan_id":"cebpf4jnsgd1na2vs0mg"},{"bike_id":"f26e9a9c-efcf-4817-ad70-c481de1d89b3","system_id":"levelo_inurba_marseille","lat":43.25569,"lon":5.38237,"is_reserved":false,"is_disabled":false,"rental_uris":{"android":"levelo://app?vid=f26e9a9c-efcf-4817-ad70-c481de1d89b3","ios":"levelo://app?vid=f26e9a9c-efcf-4817-ad70-c481de1d89b3"},"vehicle_type_id":"4","last_reported":1768407474,"current_range_meters":9200,"station_id":"ce4bhih2rcd13ifvqfs0","pricing_plan_id":"cebpf4jnsgd1na2vs0mg"},{"bike_id":"ba903605-23c9-49f6-a7ab-812f5468ec17","system_id":"levelo_inurba_marseille","lat":43.25577,"lon":5.38239,"is_reserved":false,"is_disabled":false,"rental_uris":{"android":"levelo://app?vid=ba903605-23c9-49f6-a7ab-812f5468ec17","ios":"levelo://app?vid=ba903605-23c9-49f6-a7ab-812f5468ec17"},"vehicle_type_id":"4","last_reported":1768407474,"current_range_meters":9200,"station_id":"ce4bhih2rcd13ifvqfs0","pricing_plan_id":"cebpf4jnsgd1na2vs0mg"},{"bike_id":"48e1370e-6b52-4ec1-971f-7c1a4445b804","system_id":"levelo_inurba_marseille","lat":43.25584,"lon":5.38227,"is_reserved":false,"is_disabled":false,"rental_uris":{"android":"levelo://app?vid=48e1370e-6b52-4ec1-971f-7c1a4445b804","ios":"levelo://app?vid=48e1370e-6b52-4ec1-971f-7c1a4445b804"},"vehicle_type_id":"4","last_reported":1768407474,"current_range_meters":9200,"station_id":"ce4bhih2rcd13ifvqfs0","pricing_plan_id":"cebpf4jnsgd1na2vs0mg"},{"bike_id":"413d7eef-9b4a-4710-a9b8-6b434b989c5f","system_id":"levelo_inurba_marseille","lat":43.30507,"lon":5.36712,"is_reserved":false,"is_disabled":false,"rental_uris":{"android":"levelo://app?vid=413d7eef-9b4a-4710-a9b8-6b434b989c5f","ios":"levelo://app?vid=413d7eef-9b4a-4710-a9b8-6b434b989c5f"},"vehicle_type_id":"4","last_reported":1768407474,"current_range_meters":9200,"station_id":"ce4bgrp2rcd13ifvqc9g","pricing_plan_id":"cebpf4jnsgd1na2vs0mg"},{"bike_id":"76971c30-a8f6-4a00-b030-b14396b1d766","system_id":"levelo_inurba_marseille","lat":43.2848,"lon":5.38423,"is_reserved":false,"is_disabled":false,"rental_uris":{"android":"levelo://app?vid=76971c30-a8f6-4a00-b030-b14396b1d766","ios":"levelo://app?vid=76971c30-a8f6-4a00-b030-b14396b1d766"},"vehicle_type_id":"4","last_reported":1768407474,"current_range_meters":9200,"station_id":"ce4bh512rcd13ifvqe3g","pricing_plan_id":"cebpf4jnsgd1na2vs0mg"},{"bike_id":"ec7cfe69-ce17-4347-9607-bf42e20090ad","system_id":"levelo_inurba_marseille","lat":43.323588,"lon":5.367447,"is_reserved":false,"is_disabled":false,"rental_uris":{"android":"levelo://app?vid=ec7cfe69-ce17-4347-9607-bf42e20090ad","ios":"levelo://app?vid=ec7cfe69-ce17-4347-9607-bf42e20090ad"},"vehicle_type_id":"4","last_reported":1768407474,"current_range_meters":9200,"station_id":"ce4bhsh2rcd13ifvqi2g","pricing_plan_id":"cebpf4jnsgd1na2vs0mg"},{"bike_id":"641b863c-a59f-4c4a-9dd7-5a69be5d3503","system_id":"levelo_inurba_marseille","lat":43.29764,"lon":5.42775,"is_reserved":false,"is_disabled":false,"rental_uris":{"android":"levelo://app?vid=641b863c-a59f-4c4a-9dd7-5a69be5d3503","ios":"levelo://app?vid=641b863c-a59f-4c4a-9dd7-5a69be5d3503"},"vehicle_type_id":"4","last_reported":1768407474,"current_range_meters":9200,"station_id":"st_d3md5207bmas73dh9klg","pricing_plan_id":"cebpf4jnsgd1na2vs0mg"},{"bike_id":"4918bbbe-e351-4b9d-8286-4e356ac14772","system_id":"levelo_inurba_marseille","lat":43.27049,"lon":5.38309,"is_reserved":false,"is_disabled":false,"rental_uris":{"android":"levelo://app?vid=4918bbbe-e351-4b9d-8286-4e356ac14772","ios":"levelo://app?vid=4918bbbe-e351-4b9d-8286-4e356ac14772"},"vehicle_type_id":"4","last_reported":1768407474,"current_range_meters":9200,"station_id":"st_d3n2fo6cfp8s73cte1j0","pricing_plan_id":"cebpf4jnsgd1na2vs0mg"},{"bike_id":"d17dfa3a-fec1-4eb2-9701-b2596a82867a","system_id":"levelo_inurba_marseille","lat":43.26209,"lon":5.37443,"is_reserved":false,"is_disabled":false,"rental_uris":{"android":"levelo://app?vid=d17dfa3a-fec1-4eb2-9701-b2596a82867a","ios":"levelo://app?vid=d17dfa3a-fec1-4eb2-9701-b2596a82867a"},"vehicle_type_id":"4","last_reported":1768407474,"current_range_meters":9200,"station_id":"ce4bhgp2rcd13ifvqfc0","pricing_plan_id":"cebpf4jnsgd1na2vs0mg"},{"bike_id":"fe669348-bf89-4dd7-a35a-ddb9a64d3309","system_id":"levelo_inurba_marseille","lat":43.29869,"lon":5.3753,"is_reserved":false,"is_disabled":false,"rental_uris":{"android":"levelo://app?vid=fe669348-bf89-4dd7-a35a-ddb9a64d3309","ios":"levelo://app?vid=fe669348-bf89-4dd7-a35a-ddb9a64d3309"},"vehicle_type_id":"4","last_reported":1768407474,"current_range_meters":9200,"station_id":"","pricing_plan_id":"cebpf4jnsgd1na2vs0mg"},{"bike_id":"b416fe09-c421-415e-96f5-8a3bfd63ea26","system_id":"levelo_inurba_marseille","lat":43.28587,"lon":5.35067,"is_reserved":false,"is_disabled":false,"rental_uris":{"android":"levelo://app?vid=b416fe09-c421-415e-96f5-8a3bfd63ea26","ios":"levelo://app?vid=b416fe09-c421-415e-96f5-8a3bfd63ea26"},"vehicle_type_id":"4","last_reported":1768407474,"current_range_meters":9200,"station_id":"","pricing_plan_id":"cebpf4jnsgd1na2vs0mg"},{"bike_id":"5775fb83-76da-4ec7-a67c-63e90f15d92b","system_id":"levelo_inurba_marseille","lat":43.29242,"lon":5.40925,"is_reserved":false,"is_disabled":false,"rental_uris":{"android":"levelo://app?vid=5775fb83-76da-4ec7-a67c-63e90f15d92b","ios":"levelo://app?vid=5775fb83-76da-4ec7-a67c-63e90f15d92b"},"vehicle_type_id":"4","last_reported":1768407474,"current_range_meters":9200,"station_id":"ce4bh192rcd13ifvqdc0","pricing_plan_id":"cebpf4jnsgd1na2vs0mg"},{"bike_id":"a260a234-ce31-4baa-8e52-6784291f4823","system_id":"levelo_inurba_marseille","lat":43.23781,"lon":5.3662,"is_reserved":false,"is_disabled":false,"rental_uris":{"android":"levelo://app?vid=a260a234-ce31-4baa-8e52-6784291f4823","ios":"levelo://app?vid=a260a234-ce31-4baa-8e52-6784291f4823"},"vehicle_type_id":"4","last_reported":1768407474,"current_range_meters":9200,"station_id":"st_d3nk18o9ro0c73en2l3g","pricing_plan_id":"cebpf4jnsgd1na2vs0mg"},{"bike_id":"42d943ae-7617-4c53-bcea-8d4a81f83185","system_id":"levelo_inurba_marseille","lat":43.22569,"lon":5.41623,"is_reserved":false,"is_disabled":false,"rental_uris":{"android":"levelo://app?vid=42d943ae-7617-4c53-bcea-8d4a81f83185","ios":"levelo://app?vid=42d943ae-7617-4c53-bcea-8d4a81f83185"},"vehicle_type_id":"4","last_reported":1768407474,"current_range_meters":9200,"station_id":"st_d2o4gvlbi1j2169b742g","pricing_plan_id":"cebpf4jnsgd1na2vs0mg"},{"bike_id":"679badb2-9a2f-43f1-a335-b73e2a05fc3e","system_id":"levelo_inurba_marseille","lat":43.2558,"lon":5.38229,"is_reserved":false,"is_disabled":false,"rental_uris":{"android":"levelo://app?vid=679badb2-9a2f-43f1-a335-b73e2a05fc3e","ios":"levelo://app?vid=679badb2-9a2f-43f1-a335-b73e2a05fc3e"},"vehicle_type_id":"4","last_reported":1768407474,"current_range_meters":9200,"station_id":"ce4bhih2rcd13ifvqfs0","pricing_plan_id":"cebpf4jnsgd1na2vs0mg"},{"bike_id":"c28479b3-2435-43fa-a6cc-ec0325255651","system_id":"levelo_inurba_marseille","lat":43.29979,"lon":5.37177,"is_reserved":false,"is_disabled":false,"rental_uris":{"android":"levelo://app?vid=c28479b3-2435-43fa-a6cc-ec0325255651","ios":"levelo://app?vid=c28479b3-2435-43fa-a6cc-ec0325255651"},"vehicle_type_id":"4","last_reported":1768407474,"current_range_meters":9200,"station_id":"ce4bgr92rcd13ifvqc7g","pricing_plan_id":"cebpf4jnsgd1na2vs0mg"},{"bike_id":"5cfd03cf-24a1-4762-9fb7-26a053abe44f","system_id":"levelo_inurba_marseille","lat":43.25836,"lon":5.39421,"is_reserved":false,"is_disabled":false,"rental_uris":{"android":"levelo://app?vid=5cfd03cf-24a1-4762-9fb7-26a053abe44f","ios":"levelo://app?vid=5cfd03cf-24a1-4762-9fb7-26a053abe44f"},"vehicle_type_id":"4","last_reported":1768407474,"current_range_meters":9600,"station_id":"","pricing_plan_id":"cebpf4jnsgd1na2vs0mg"},{"bike_id":"8c7080fa-ae77-4376-b753-98b58900fe5e","system_id":"levelo_inurba_marseille","lat":43.31241,"lon":5.36874,"is_reserved":false,"is_disabled":false,"rental_uris":{"android":"levelo://app?vid=8c7080fa-ae77-4376-b753-98b58900fe5e","ios":"levelo://app?vid=8c7080fa-ae77-4376-b753-98b58900fe5e"},"vehicle_type_id":"4","last_reported":1768407474,"current_range_meters":9600,"station_id":"ce4bgl92rcd13ifvqbq0","pricing_plan_id":"cebpf4jnsgd1na2vs0mg"},{"bike_id":"3cf44cbc-fe31-4047-8f08-85bd3cf3bfe3","system_id":"levelo_inurba_marseille","lat":43.29772,"lon":5.41365,"is_reserved":false,"is_disabled":false,"rental_uris":{"android":"levelo://app?vid=3cf44cbc-fe31-4047-8f08-85bd3cf3bfe3","ios":"levelo://app?vid=3cf44cbc-fe31-4047-8f08-85bd3cf3bfe3"},"vehicle_type_id":"4","last_reported":1768407474,"current_range_meters":9600,"station_id":"","pricing_plan_id":"cebpf4jnsgd1na2vs0mg"},{"bike_id":"19b141b1-85be-49ab-a753-41007920869c","system_id":"levelo_inurba_marseille","lat":43.26692,"lon":5.38268,"is_reserved":false,"is_disabled":false,"rental_uris":{"android":"levelo://app?vid=19b141b1-85be-49ab-a753-41007920869c","ios":"levelo://app?vid=19b141b1-85be-49ab-a753-41007920869c"},"vehicle_type_id":"4","last_reported":1768407474,"current_range_meters":9600,"station_id":"ce4bhg92rcd13ifvqf90","pricing_plan_id":"cebpf4jnsgd1na2vs0mg"},{"bike_id":"26454b05-30a5-446d-92f5-95364ffede98","system_id":"levelo_inurba_marseille","lat":43.33777,"lon":5.37476,"is_reserved":false,"is_disabled":false,"rental_uris":{"android":"levelo://app?vid=26454b05-30a5-446d-92f5-95364ffede98","ios":"levelo://app?vid=26454b05-30a5-446d-92f5-95364ffede98"},"vehicle_type_id":"4","last_reported":1768407474,"current_range_meters":9600,"station_id":"","pricing_plan_id":"cebpf4jnsgd1na2vs0mg"},{"bike_id":"fec414c1-c810-41d2-8c70-9e28210e8340","system_id":"levelo_inurba_marseille","lat":43.25095,"lon":5.39507,"is_reserved":false,"is_disabled":false,"rental_uris":{"android":"levelo://app?vid=fec414c1-c810-41d2-8c70-9e28210e8340","ios":"levelo://app?vid=fec414c1-c810-41d2-8c70-9e28210e8340"},"vehicle_type_id":"4","last_reported":1768407474,"current_range_meters":9600,"station_id":"ce4bhm12rcd13ifvqgkg","pricing_plan_id":"cebpf4jnsgd1na2vs0mg"},{"bike_id":"4e6b7174-47ef-4e28-baa7-b60d79db6a56","system_id":"levelo_inurba_marseille","lat":43.29443,"lon":5.39758,"is_reserved":false,"is_disabled":false,"rental_uris":{"android":"levelo://app?vid=4e6b7174-47ef-4e28-baa7-b60d79db6a56","ios":"levelo://app?vid=4e6b7174-47ef-4e28-baa7-b60d79db6a56"},"vehicle_type_id":"4","last_reported":1768407474,"current_range_meters":9600,"station_id":"ce4bh3h2rcd13ifvqdo0","pricing_plan_id":"cebpf4jnsgd1na2vs0mg"},{"bike_id":"153daeb6-1ced-443a-8511-9ccae5c5d53f","system_id":"levelo_inurba_marseille","lat":43.31736,"lon":5.37631,"is_reserved":false,"is_disabled":false,"rental_uris":{"android":"levelo://app?vid=153daeb6-1ced-443a-8511-9ccae5c5d53f","ios":"levelo://app?vid=153daeb6-1ced-443a-8511-9ccae5c5d53f"},"vehicle_type_id":"4","last_reported":1768407474,"current_range_meters":9600,"station_id":"","pricing_plan_id":"cebpf4jnsgd1na2vs0mg"},{"bike_id":"f02f2976-a4b0-4d71-9982-4d24260d0ce6","system_id":"levelo_inurba_marseille","lat":43.23962,"lon":5.36623,"is_reserved":false,"is_disabled":false,"rental_uris":{"android":"levelo://app?vid=f02f2976-a4b0-4d71-9982-4d24260d0ce6","ios":"levelo://app?vid=f02f2976-a4b0-4d71-9982-4d24260d0ce6"},"vehicle_type_id":"4","last_reported":1768407474,"current_range_meters":9600,"station_id":"ce4bhi12rcd13ifvqfp0","pricing_plan_id":"cebpf4jnsgd1na2vs0mg"},{"bike_id":"4abcbe35-aa5b-4114-8ed3-00e26f381ac3","system_id":"levelo_inurba_marseille","lat":43.24954,"lon":5.40486,"is_reserved":false,"is_disabled":false,"rental_uris":{"android":"levelo://app?vid=4abcbe35-aa5b-4114-8ed3-00e26f381ac3","ios":"levelo://app?vid=4abcbe35-aa5b-4114-8ed3-00e26f381ac3"},"vehicle_type_id":"4","last_reported":1768407474,"current_range_meters":9600,"station_id":"st_d2ngiaodas8pm72gd1h0","pricing_plan_id":"cebpf4jnsgd1na2vs0mg"},{"bike_id":"b5ad29a0-462d-4d07-9a18-d87946a4398c","system_id":"levelo_inurba_marseille","lat":43.3112,"lon":5.38071,"is_reserved":false,"is_disabled":false,"rental_uris":{"android":"levelo://app?vid=b5ad29a0-462d-4d07-9a18-d87946a4398c","ios":"levelo://app?vid=b5ad29a0-462d-4d07-9a18-d87946a4398c"},"vehicle_type_id":"4","last_reported":1768407474,"current_range_meters":9600,"station_id":"","pricing_plan_id":"cebpf4jnsgd1na2vs0mg"},{"bike_id":"7ac3a79a-5902-49ad-bc3e-832aa7e7b923","system_id":"levelo_inurba_marseille","lat":43.29978,"lon":5.37174,"is_reserved":false,"is_disabled":false,"rental_uris":{"android":"levelo://app?vid=7ac3a79a-5902-49ad-bc3e-832aa7e7b923","ios":"levelo://app?vid=7ac3a79a-5902-49ad-bc3e-832aa7e7b923"},"vehicle_type_id":"4","last_reported":1768407474,"current_range_meters":9600,"station_id":"ce4bgr92rcd13ifvqc7g","pricing_plan_id":"cebpf4jnsgd1na2vs0mg"},{"bike_id":"bbca5a78-1ee0-4dab-ba7e-f05d9beea402","system_id":"levelo_inurba_marseille","lat":43.2416,"lon":5.36398,"is_reserved":false,"is_disabled":false,"rental_uris":{"android":"levelo://app?vid=bbca5a78-1ee0-4dab-ba7e-f05d9beea402","ios":"levelo://app?vid=bbca5a78-1ee0-4dab-ba7e-f05d9beea402"},"vehicle_type_id":"4","last_reported":1768407474,"current_range_meters":9600,"station_id":"cpo36qri1sfpv3e86is0","pricing_plan_id":"cebpf4jnsgd1na2vs0mg"},{"bike_id":"d83702a7-e328-4992-b27d-414493d0c4b6","system_id":"levelo_inurba_marseille","lat":43.2974,"lon":5.37894,"is_reserved":false,"is_disabled":false,"rental_uris":{"android":"levelo://app?vid=d83702a7-e328-4992-b27d-414493d0c4b6","ios":"levelo://app?vid=d83702a7-e328-4992-b27d-414493d0c4b6"},"vehicle_type_id":"4","last_reported":1768407474,"current_range_meters":9600,"station_id":"","pricing_plan_id":"cebpf4jnsgd1na2vs0mg"},{"bike_id":"45560b8c-0e05-4e12-aadd-6d4f84ae2310","system_id":"levelo_inurba_marseille","lat":43.26878,"lon":5.38912,"is_reserved":false,"is_disabled":false,"rental_uris":{"android":"levelo://app?vid=45560b8c-0e05-4e12-aadd-6d4f84ae2310","ios":"levelo://app?vid=45560b8c-0e05-4e12-aadd-6d4f84ae2310"},"vehicle_type_id":"4","last_reported":1768407474,"current_range_meters":9600,"station_id":"","pricing_plan_id":"cebpf4jnsgd1na2vs0mg"},{"bike_id":"f1d328ec-8a2c-4647-8162-9531bcbcb299","system_id":"levelo_inurba_marseille","lat":43.24456,"lon":5.41073,"is_reserved":false,"is_disabled":false,"rental_uris":{"android":"levelo://app?vid=f1d328ec-8a2c-4647-8162-9531bcbcb299","ios":"levelo://app?vid=f1d328ec-8a2c-4647-8162-9531bcbcb299"},