{"last_updated":1721491721,"ttl":30,"version":"2.2","data":{"bikes":[{"bike_id":"d1d81e54-fed9-443c-944a-6820c8a62e66","system_id":"levelo_inurba_marseille","lat":43.31251,"lon":5.36793,"is_reserved":false,"is_disabled":false,"rental_uris":{"android":"levelo://app?vid=d1d81e54-fed9-443c-944a-6820c8a62e66","ios":"levelo://app?vid=d1d81e54-fed9-443c-944a-6820c8a62e66"},"vehicle_type_id":"4","last_reported":1721491721,"current_range_meters":0,"station_id":"","pricing_plan_id":"cebpf4jnsgd1na2vs0mg"},{"bike_id":"d5cd2e5b-dc8c-4686-8fbd-8c3ca56c014b","system_id":"levelo_inurba_marseille","lat":43.313391,"lon":5.36706,"is_reserved":false,"is_disabled":false,"rental_uris":{"android":"levelo://app?vid=d5cd2e5b-dc8c-4686-8fbd-8c3ca56c014b","ios":"levelo://app?vid=d5cd2e5b-dc8c-4686-8fbd-8c3ca56c014b"},"vehicle_type_id":"4","last_reported":1721491721,"current_range_meters":12000,"station_id":"ce4bgr92rcd13ifvqc6g","pricing_plan_id":"cebpf4jnsgd1na2vs0mg"},{"bike_id":"e1ec02d0-c0e5-48c5-a8fe-a9ce2cb56f46","system_id":"levelo_inurba_marseille","lat":43.312239,"lon":5.368562,"is_reserved":false,"is_disabled":false,"rental_uris":{"android":"levelo://app?vid=e1ec02d0-c0e5-48c5-a8fe-a9ce2cb56f46","ios":"levelo://app?vid=e1ec02d0-c0e5-48c5-a8fe-a9ce2cb56f46"},"vehicle_type_id":"4","last_reported":1721491721,"current_range_meters":0,"station_id":"ce4bgl92rcd13ifvqbq0","pricing_plan_id":"cebpf4jnsgd1na2vs0mg"},{"bike_id":"d531d1a0-ba26-44fe-b2be-c91e59010bbd","system_id":"levelo_inurba_marseille","lat":43.309076,"lon":5.368465,"is_reserved":false,"is_disabled":false,"rental_uris":{"android":"levelo://app?vid=d531d1a0-ba26-44fe-b2be-c91e59010bbd","ios":"levelo://app?vid=d531d1a0-ba26-44fe-b2be-c91e59010bbd"},"vehicle_type_id":"4","last_reported":1721491721,"current_range_meters":1600,"station_id":"ce4bgn92rcd13ifvqbvg","pricing_plan_id":"cebpf4jnsgd1na2vs0mg"},{"bike_id":"926ad79d-8b06-47c3-9e83-59910d54321d","system_id":"levelo_inurba_marseille","lat":43.31495,"lon":5.37313,"is_reserved":false,"is_disabled":false,"rental_uris":{"android":"levelo://app?vid=926ad79d-8b06-47c3-9e83-59910d54321d","ios":"levelo://app?vid=926ad79d-8b06-47c3-9e83-59910d54321d"},"vehicle_type_id":"4","last_reported":1721491721,"current_range_meters":0,"station_id":"ce4bgt12rcd13ifvqcd0","pricing_plan_id":"cebpf4jnsgd1na2vs0mg"},{"bike_id":"aa61b86e-5c0b-46ed-82e2-6d6e50f57f11","system_id":"levelo_inurba_marseille","lat":43.309039,"lon":5.371797,"is_reserved":false,"is_disabled":false,"rental_uris":{"android":"levelo://app?vid=aa61b86e-5c0b-46ed-82e2-6d6e50f57f11","ios":"levelo://app?vid=aa61b86e-5c0b-46ed-82e2-6d6e50f57f11"},"vehicle_type_id":"4","last_reported":1721491721,"current_range_meters":18800,"station_id":"ce4bguh2rcd13ifvqckg","pricing_plan_id":"cebpf4jnsgd1na2vs0mg"},{"bike_id":"32bf86fb-39c7-4520-b12e-60e8f91c25e9","system_id":"levelo_inurba_marseille","lat":43.30643,"lon":5.36802,"is_reserved":false,"is_disabled":false,"rental_uris":{"android":"levelo://app?vid=32bf86fb-39c7-4520-b12e-60e8f91c25e9","ios":"levelo://app?vid=32bf86fb-39c7-4520-b12e-60e8f91c25e9"},"vehicle_type_id":"4","last_reported":1721491721,"current_range_meters":30400,"station_id":"","pricing_plan_id":"cebpf4jnsgd1na2vs0mg"},{"bike_id":"4013c061-f126-4276-816e-c6563a01cf7b","system_id":"levelo_inurba_marseille","lat":43.30537,"lon":5.367345,"is_reserved":false,"is_disabled":false,"rental_uris":{"android":"levelo://app?vid=4013c061-f126-4276-816e-c6563a01cf7b","ios":"levelo://app?vid=4013c061-f126-4276-816e-c6563a01cf7b"},"vehicle_type_id":"4","last_reported":1721491721,"current_range_meters":22000,"station_id":"ce4bgrp2rcd13ifvqc9g","pricing_plan_id":"cebpf4jnsgd1na2vs0mg"},{"bike_id":"8ee30969-1e73-4445-af3a-ce8ff2d02bb4","system_id":"levelo_inurba_marseille","lat":43.30537,"lon":5.367345,"is_reserved":false,"is_disabled":false,"rental_uris":{"android":"levelo://app?vid=8ee30969-1e73-4445-af3a-ce8ff2d02bb4","ios":"levelo://app?vid=8ee30969-1e73-4445-af3a-ce8ff2d02bb4"},"vehicle_type_id":"4","last_reported":1721491721,"current_range_meters":3600,"station_id":"ce4bgrp2rcd13ifvqc9g","pricing_plan_id":"cebpf4jnsgd1na2vs0mg"},{"bike_id":"85486c28-e4d8-45cb-bc78-e82cff71d06c","system_id":"levelo_inurba_marseille","lat":43.305714,"lon":5.365633,"is_reserved":false,"is_disabled":false,"rental_uris":{"android":"levelo://app?vid=85486c28-e4d8-45cb-bc78-e82cff71d06c","ios":"levelo://app?vid=85486c28-e4d8-45cb-bc78-e82cff71d06c"},"vehicle_type_id":"4","last_reported":1721491721,"current_range_meters":0,"station_id":"ce4bgs12rcd13ifvqcag","pricing_plan_id":"cebpf4jnsgd1na2vs0mg"},{"bike_id":"cf6bdc67-2a4c-431a-a5e2-7b6cc1d11c18","system_id":"levelo_inurba_marseille","lat":43.30537,"lon":5.367345,"is_reserved":false,"is_disabled":false,"rental_uris":{"android":"levelo://app?vid=cf6bdc67-2a4c-431a-a5e2-7b6cc1d11c18","ios":"levelo://app?vid=cf6bdc67-2a4c-431a-a5e2-7b6cc1d11c18"},"vehicle_type_id":"4","last_reported":1721491721,"current_range_meters":5600,"station_id":"ce4bgrp2rcd13ifvqc9g","pricing_plan_id":"cebpf4jnsgd1na2vs0mg"},{"bike_id":"0cf1466b-5157-4fa6-a68c-3f6ddf09be9b","system_id":"levelo_inurba_marseille","lat":43.305368,"lon":5.367343,"is_reserved":false,"is_disabled":false,"rental_uris":{"android":"levelo://app?vid=0cf1466b-5157-4fa6-a68c-3f6ddf09be9b","ios":"levelo://app?vid=0cf1466b-5157-4fa6-a68c-3f6ddf09be9b"},"vehicle_type_id":"4","last_reported":1721491721,"current_range_meters":2400,"station_id":"ce4bgrp2rcd13ifvqc9g","pricing_plan_id":"cebpf4jnsgd1na2vs0mg"},{"bike_id":"a2442584-b5b4-400c-a5bb-acceb59dcf45","system_id":"levelo_inurba_marseille","lat":43.305368,"lon":5.367343,"is_reserved":false,"is_disabled":false,"rental_uris":{"android":"levelo://app?vid=a2442584-b5b4-400c-a5bb-acceb59dcf45","ios":"levelo://app?vid=a2442584-b5b4-400c-a5bb-acceb59dcf45"},"vehicle_type_id":"4","last_reported":1721491721,"current_range_meters":14000,"station_id":"ce4bgrp2rcd13ifvqc9g","pricing_plan_id":"cebpf4jnsgd1na2vs0mg"},{"bike_id":"4dc010b1-20ca-42bd-9c2f-b46aa993ad6b","system_id":"levelo_inurba_marseille","lat":43.30535,"lon":5.36547,"is_reserved":false,"is_disabled":false,"rental_uris":{"android":"levelo://app?vid=4dc010b1-20ca-42bd-9c2f-b46aa993ad6b","ios":"levelo://app?vid=4dc010b1-20ca-42bd-9c2f-b46aa993ad6b"},"vehicle_type_id":"4","last_reported":1721491721,"current_range_meters":30400,"station_id":"ce4bgs12rcd13ifvqcag","pricing_plan_id":"cebpf4jnsgd1na2vs0mg"},{"bike_id":"a5647cad-9a9f-406a-b4b3-7a7a47e15ff6","system_id":"levelo_inurba_marseille","lat":43.311131,"lon":5.377651,"is_reserved":false,"is_disabled":false,"rental_uris":{"android":"levelo://app?vid=a5647cad-9a9f-406a-b4b3-7a7a47e15ff6","ios":"levelo://app?vid=a5647cad-9a9f-406a-b4b3-7a7a47e15ff6"},"vehicle_type_id":"4","last_reported":1721491721,"current_range_meters":0,"station_id":"ce4bgt92rcd13ifvqcg0","pricing_plan_id":"cebpf4jnsgd1na2vs0mg"},{"bike_id":"d7865e5b-56a5-4ca3-a3b1-8d1749e55424","system_id":"levelo_inurba_marseille","lat":43.307945,"lon":5.376487,"is_reserved":false,"is_disabled":false,"rental_uris":{"android":"levelo://app?vid=d7865e5b-56a5-4ca3-a3b1-8d1749e55424","ios":"levelo://app?vid=d7865e5b-56a5-4ca3-a3b1-8d1749e55424"},"vehicle_type_id":"4","last_reported":1721491721,"current_range_meters":26400,"station_id":"ce4bgv92rcd13ifvqcq0","pricing_plan_id":"cebpf4jnsgd1na2vs0mg"},{"bike_id":"e3453838-5aab-41f8-8b66-5abb0920278f","system_id":"levelo_inurba_marseille","lat":43.30805,"lon":5.38141,"is_reserved":false,"is_disabled":false,"rental_uris":{"android":"levelo://app?vid=e3453838-5aab-41f8-8b66-5abb0920278f","ios":"levelo://app?vid=e3453838-5aab-41f8-8b66-5abb0920278f"},"vehicle_type_id":"4","last_reported":1721491721,"current_range_meters":0,"station_id":"ce4bgt12rcd13ifvqce0","pricing_plan_id":"cebpf4jnsgd1na2vs0mg"},{"bike_id":"3ebc22a6-186b-4c2e-afb3-d48c57edd1d6","system_id":"levelo_inurba_marseille","lat":43.304606,"lon":5.379026,"is_reserved":false,"is_disabled":false,"rental_uris":{"android":"levelo://app?vid=3ebc22a6-186b-4c2e-afb3-d48c57edd1d6","ios":"levelo://app?vid=3ebc22a6-186b-4c2e-afb3-d48c57edd1d6"},"vehicle_type_id":"4","last_reported":1721491721,"current_range_meters":4800,"station_id":"ce4bgup2rcd13ifvqcn0","pricing_plan_id":"cebpf4jnsgd1na2vs0mg"},{"bike_id":"6b2424a6-702a-48e9-b4d0-171db29866bf","system_id":"levelo_inurba_marseille","lat":43.304606,"lon":5.379026,"is_reserved":false,"is_disabled":false,"rental_uris":{"android":"levelo://app?vid=6b2424a6-702a-48e9-b4d0-171db29866bf","ios":"levelo://app?vid=6b2424a6-702a-48e9-b4d0-171db29866bf"},"vehicle_type_id":"4","last_reported":1721491721,"current_range_meters":6000,"station_id":"ce4bgup2rcd13ifvqcn0","pricing_plan_id":"cebpf4jnsgd1na2vs0mg"},{"bike_id":"9f1de06f-bb5c-4f47-86e5-e286d21fbfa0","system_id":"levelo_inurba_marseille","lat":43.304606,"lon":5.379026,"is_reserved":false,"is_disabled":false,"rental_uris":{"android":"levelo://app?vid=9f1de06f-bb5c-4f47-86e5-e286d21fbfa0","ios":"levelo://app?vid=9f1de06f-bb5c-4f47-86e5-e286d21fbfa0"},"vehicle_type_id":"4","last_reported":1721491721,"current_range_meters":21200,"station_id":"ce4bgup2rcd13ifvqcn0","pricing_plan_id":"cebpf4jnsgd1na2vs0mg"},{"bike_id":"96190691-5c79-4f2a-af95-3f66f23d1b5b","system_id":"levelo_inurba_marseille","lat":43.32475,"lon":5.36584,"is_reserved":false,"is_disabled":false,"rental_uris":{"android":"levelo://app?vid=96190691-5c79-4f2a-af95-3f66f23d1b5b","ios":"levelo://app?vid=96190691-5c79-4f2a-af95-3f66f23d1b5b"},"vehicle_type_id":"4","last_reported":1721491721,"current_range_meters":1600,"station_id":"ce4bhs12rcd13ifvqhvg","pricing_plan_id":"cebpf4jnsgd1na2vs0mg"},{"bike_id":"d2e6ad8c-8171-48d0-a1fc-9d129302ff72","system_id":"levelo_inurba_marseille","lat":43.324771,"lon":5.36557,"is_reserved":false,"is_disabled":false,"rental_uris":{"android":"levelo://app?vid=d2e6ad8c-8171-48d0-a1fc-9d129302ff72","ios":"levelo://app?vid=d2e6ad8c-8171-48d0-a1fc-9d129302ff72"},"vehicle_type_id":"4","last_reported":1721491721,"current_range_meters":7200,"station_id":"ce4bhs12rcd13ifvqhvg","pricing_plan_id":"cebpf4jnsgd1na2vs0mg"},{"bike_id":"748566fa-8ca2-49fe-ad78-0356bbb18297","system_id":"levelo_inurba_marseille","lat":43.32478,"lon":5.3656,"is_reserved":false,"is_disabled":false,"rental_uris":{"android":"levelo://app?vid=748566fa-8ca2-49fe-ad78-0356bbb18297","ios":"levelo://app?vid=748566fa-8ca2-49fe-ad78-0356bbb18297"},"vehicle_type_id":"4","last_reported":1721491721,"current_range_meters":31200,"station_id":"ce4bhs12rcd13ifvqhvg","pricing_plan_id":"cebpf4jnsgd1na2vs0mg"},{"bike_id":"6b358752-6355-4499-9946-6a0a4d1bfd44","system_id":"levelo_inurba_marseille","lat":43.324771,"lon":5.36557,"is_reserved":false,"is_disabled":false,"rental_uris":{"android":"levelo://app?vid=6b358752-6355-4499-9946-6a0a4d1bfd44","ios":"levelo://app?vid=6b358752-6355-4499-9946-6a0a4d1bfd44"},"vehicle_type_id":"4","last_reported":1721491721,"current_range_meters":6800,"station_id":"ce4bhs12rcd13ifvqhvg","pricing_plan_id":"cebpf4jnsgd1na2vs0mg"},{"bike_id":"751b495a-ded5-440d-924d-2bf060460f69","system_id":"levelo_inurba_marseille","lat":43.324825,"lon":5.365885,"is_reserved":false,"is_disabled":false,"rental_uris":{"android":"levelo://app?vid=751b495a-ded5-440d-924d-2bf060460f69","ios":"levelo://app?vid=751b495a-ded5-440d-924d-2bf060460f69"},"vehicle_type_id":"4","last_reported":1721491721,"current_range_meters":17600,"station_id":"ce4bhs12rcd13ifvqhvg","pricing_plan_id":"cebpf4jnsgd1na2vs0mg"},{"bike_id":"4a01e05f-13ab-412d-bcea-9be4120a8770","system_id":"levelo_inurba_marseille","lat":43.32482,"lon":5.36562,"is_reserved":false,"is_disabled":false,"rental_uris":{"android":"levelo://app?vid=4a01e05f-13ab-412d-bcea-9be4120a8770","ios":"levelo://app?vid=4a01e05f-13ab-412d-bcea-9be4120a8770"},"vehicle_type_id":"4","last_reported":1721491721,"current_range_meters":22000,"station_id":"ce4bhs12rcd13ifvqhvg","pricing_plan_id":"cebpf4jnsgd1na2vs0mg"},{"bike_id":"bb57fd1e-5c22-4a46-983d-4097d95f4007","system_id":"levelo_inurba_marseille","lat":43.32484,"lon":5.36566,"is_reserved":false,"is_disabled":false,"rental_uris":{"android":"levelo://app?vid=bb57fd1e-5c22-4a46-983d-4097d95f4007","ios":"levelo://app?vid=bb57fd1e-5c22-4a46-983d-4097d95f4007"},"vehicle_type_id":"4","last_reported":1721491721,"current_range_meters":5200,"station_id":"ce4bhs12rcd13ifvqhvg","pricing_plan_id":"cebpf4jnsgd1na2vs0mg"},{"bike_id":"2baca4ef-0d69-4564-91f0-6aa88a9ace5b","system_id":"levelo_inurba_marseille","lat":43.324852,"lon":5.365748,"is_reserved":false,"is_disabled":false,"rental_uris":{"android":"levelo://app?vid=2baca4ef-0d69-4564-91f0-6aa88a9ace5b","ios":"levelo://app?vid=2baca4ef-0d69-4564-91f0-6aa88a9ace5b"},"vehicle_type_id":"4","last_reported":1721491721,"current_range_meters":11200,"station_id":"ce4bhs12rcd13ifvqhvg","pricing_plan_id":"cebpf4jnsgd1na2vs0mg"},{"bike_id":"2dc9f3c6-9187-4240-8c2d-ac65344b671a","system_id":"levelo_inurba_marseille","lat":43.324771,"lon":5.36557,"is_reserved":false,"is_disabled":false,"rental_uris":{"android":"levelo://app?vid=2dc9f3c6-9187-4240-8c2d-ac65344b671a","ios":"levelo://app?vid=2dc9f3c6-9187-4240-8c2d-ac65344b671a"},"vehicle_type_id":"4","last_reported":1721491721,"current_range_meters":30400,"station_id":"ce4bhs12rcd13ifvqhvg","pricing_plan_id":"cebpf4jnsgd1na2vs0mg"},{"bike_id":"bb93594a-3740-48df-b567-6b2b3ad6277f","system_id":"levelo_inurba_marseille","lat":43.32487,"lon":5.36558,"is_reserved":false,"is_disabled":false,"rental_uris":{"android":"levelo://app?vid=bb93594a-3740-48df-b567-6b2b3ad6277f","ios":"levelo://app?vid=bb93594a-3740-48df-b567-6b2b3ad6277f"},"vehicle_type_id":"4","last_reported":1721491721,"current_range_meters":0,"station_id":"ce4bhs12rcd13ifvqhvg","pricing_plan_id":"cebpf4jnsgd1na2vs0mg"},{"bike_id":"3d091401-a528-4266-8641-386b24f9f872","system_id":"levelo_inurba_marseille","lat":43.324908,"lon":5.365582,"is_reserved":false,"is_disabled":false,"rental_uris":{"android":"levelo://app?vid=3d091401-a528-4266-8641-386b24f9f872","ios":"levelo://app?vid=3d091401-a528-4266-8641-386b24f9f872"},"vehicle_type_id":"4","last_reported":1721491721,"current_range_meters":6000,"station_id":"ce4bhs12rcd13ifvqhvg","pricing_plan_id":"cebpf4jnsgd1na2vs0mg"},{"bike_id":"3e778f04-6d51-4155-8e6b-69a3dac128ac","system_id":"levelo_inurba_marseille","lat":43.30143,"lon":5.37413,"is_reserved":false,"is_disabled":false,"rental_uris":{"android":"levelo://app?vid=3e778f04-6d51-4155-8e6b-69a3dac128ac","ios":"levelo://app?vid=3e778f04-6d51-4155-8e6b-69a3dac128ac"},"vehicle_type_id":"4","last_reported":1721491721,"current_range_meters":0,"station_id":"ce4bgs92rcd13ifvqcc0","pricing_plan_id":"cebpf4jnsgd1na2vs0mg"},{"bike_id":"77e584a2-0928-4817-9755-ec35e7008616","system_id":"levelo_inurba_marseille","lat":43.319935,"lon":5.381699,"is_reserved":false,"is_disabled":false,"rental_uris":{"android":"levelo://app?vid=77e584a2-0928-4817-9755-ec35e7008616","ios":"levelo://app?vid=77e584a2-0928-4817-9755-ec35e7008616"},"vehicle_type_id":"4","last_reported":1721491721,"current_range_meters":4400,"station_id":"ce4bhr12rcd13ifvqhpg","pricing_plan_id":"cebpf4jnsgd1na2vs0mg"},{"bike_id":"efcdb7dc-9b20-4086-8894-0f973d50df96","system_id":"levelo_inurba_marseille","lat":43.299724,"lon":5.371829,"is_reserved":false,"is_disabled":false,"rental_uris":{"android":"levelo://app?vid=efcdb7dc-9b20-4086-8894-0f973d50df96","ios":"levelo://app?vid=efcdb7dc-9b20-4086-8894-0f973d50df96"},"vehicle_type_id":"4","last_reported":1721491721,"current_range_meters":5600,"station_id":"ce4bgr92rcd13ifvqc7g","pricing_plan_id":"cebpf4jnsgd1na2vs0mg"},{"bike_id":"18581330-bc34-4318-b19b-17fde1af6c2c","system_id":"levelo_inurba_marseille","lat":43.299724,"lon":5.371829,"is_reserved":false,"is_disabled":false,"rental_uris":{"android":"levelo://app?vid=18581330-bc34-4318-b19b-17fde1af6c2c","ios":"levelo://app?vid=18581330-bc34-4318-b19b-17fde1af6c2c"},"vehicle_type_id":"4","last_reported":1721491721,"current_range_meters":20400,"station_id":"ce4bgr92rcd13ifvqc7g","pricing_plan_id":"cebpf4jnsgd1na2vs0mg"},{"bike_id":"b3e3c66a-abc7-4671-b8d7-7c4a83aabb3b","system_id":"levelo_inurba_marseille","lat":43.29935,"lon":5.373,"is_reserved":false,"is_disabled":false,"rental_uris":{"android":"levelo://app?vid=b3e3c66a-abc7-4671-b8d7-7c4a83aabb3b","ios":"levelo://app?vid=b3e3c66a-abc7-4671-b8d7-7c4a83aabb3b"},"vehicle_type_id":"4","last_reported":1721491721,"current_range_meters":4400,"station_id":"","pricing_plan_id":"cebpf4jnsgd1na2vs0mg"},{"bike_id":"349409be-6698-424f-afaa-70684925abdf","system_id":"levelo_inurba_marseille","lat":43.30164,"lon":5.38021,"is_reserved":false,"is_disabled":false,"rental_uris":{"android":"levelo://app?vid=349409be-6698-424f-afaa-70684925abdf","ios":"levelo://app?vid=349409be-6698-424f-afaa-70684925abdf"},"vehicle_type_id":"4","last_reported":1721491721,"current_range_meters":400,"station_id":"","pricing_plan_id":"cebpf4jnsgd1na2vs0mg"},{"bike_id":"f95bfb28-3665-4377-a09f-e75a1425b683","system_id":"levelo_inurba_marseille","lat":43.31445,"lon":5.38751,"is_reserved":false,"is_disabled":false,"rental_uris":{"android":"levelo://app?vid=f95bfb28-3665-4377-a09f-e75a1425b683","ios":"levelo://app?vid=f95bfb28-3665-4377-a09f-e75a1425b683"},"vehicle_type_id":"4","last_reported":1721491721,"current_range_meters":16000,"station_id":"","pricing_plan_id":"cebpf4jnsgd1na2vs0mg"},{"bike_id":"ef08a3d0-425a-48a2-8660-079a046a149b","system_id":"levelo_inurba_marseille","lat":43.322872,"lon":5.382756,"is_reserved":false,"is_disabled":false,"rental_uris":{"android":"levelo://app?vid=ef08a3d0-425a-48a2-8660-079a046a149b","ios":"levelo://app?vid=ef08a3d0-425a-48a2-8660-079a046a149b"},"vehicle_type_id":"4","last_reported":1721491721,"current_range_meters":14800,"station_id":"ce4bhr12rcd13ifvqhqg","pricing_plan_id":"cebpf4jnsgd1na2vs0mg"},{"bike_id":"27d0a611-d1fa-49fb-9649-6dd0898f098a","system_id":"levelo_inurba_marseille","lat":43.297163,"lon":5.365866,"is_reserved":false,"is_disabled":false,"rental_uris":{"android":"levelo://app?vid=27d0a611-d1fa-49fb-9649-6dd0898f098a","ios":"levelo://app?vid=27d0a611-d1fa-49fb-9649-6dd0898f098a"},"vehicle_type_id":"4","last_reported":1721491721,"current_range_meters":21600,"station_id":"ce4bgn12rcd13ifvqbt0","pricing_plan_id":"cebpf4jnsgd1na2vs0mg"},{"bike_id":"05bdae84-1067-465f-ae1f-1f8e13b8e143","system_id":"levelo_inurba_marseille","lat":43.32905,"lon":5.36705,"is_reserved":false,"is_disabled":false,"rental_uris":{"android":"levelo://app?vid=05bdae84-1067-465f-ae1f-1f8e13b8e143","ios":"levelo://app?vid=05bdae84-1067-465f-ae1f-1f8e13b8e143"},"vehicle_type_id":"4","last_reported":1721491721,"current_range_meters":3200,"station_id":"","pricing_plan_id":"cebpf4jnsgd1na2vs0mg"},{"bike_id":"948224f2-5b42-4afd-8902-ee7dfe6a9843","system_id":"levelo_inurba_marseille","lat":43.298433,"lon":5.362774,"is_reserved":false,"is_disabled":false,"rental_uris":{"android":"levelo://app?vid=948224f2-5b42-4afd-8902-ee7dfe6a9843","ios":"levelo://app?vid=948224f2-5b42-4afd-8902-ee7dfe6a9843"},"vehicle_type_id":"4","last_reported":1721491721,"current_range_meters":0,"station_id":"ce4bgpp2rcd13ifvqc3g","pricing_plan_id":"cebpf4jnsgd1na2vs0mg"},{"bike_id":"5f7713c9-95a7-49af-ad45-13e01a177870","system_id":"levelo_inurba_marseille","lat":43.299028,"lon":5.381509,"is_reserved":false,"is_disabled":false,"rental_uris":{"android":"levelo://app?vid=5f7713c9-95a7-49af-ad45-13e01a177870","ios":"levelo://app?vid=5f7713c9-95a7-49af-ad45-13e01a177870"},"vehicle_type_id":"4","last_reported":1721491721,"current_range_meters":0,"station_id":"ce4bgj12rcd13ifvqbc0","pricing_plan_id":"cebpf4jnsgd1na2vs0mg"},{"bike_id":"67f30d8f-4384-4f0d-8302-463f045d8554","system_id":"levelo_inurba_marseille","lat":43.299028,"lon":5.381509,"is_reserved":false,"is_disabled":false,"rental_uris":{"android":"levelo://app?vid=67f30d8f-4384-4f0d-8302-463f045d8554","ios":"levelo://app?vid=67f30d8f-4384-4f0d-8302-463f045d8554"},"vehicle_type_id":"4","last_reported":1721491721,"current_range_meters":2000,"station_id":"ce4bgj12rcd13ifvqbc0","pricing_plan_id":"cebpf4jnsgd1na2vs0mg"},{"bike_id":"ec3b8f89-ded5-49b1-b972-02b8bf88e6be","system_id":"levelo_inurba_marseille","lat":43.317557,"lon":5.390173,"is_reserved":false,"is_disabled":false,"rental_uris":{"android":"levelo://app?vid=ec3b8f89-ded5-49b1-b972-02b8bf88e6be","ios":"levelo://app?vid=ec3b8f89-ded5-49b1-b972-02b8bf88e6be"},"vehicle_type_id":"4","last_reported":1721491721,"current_range_meters":6400,"station_id":"ce4bhqp2rcd13ifvqhng","pricing_plan_id":"cebpf4jnsgd1na2vs0mg"},{"bike_id":"b6fa15c6-5dac-40bf-a6b1-ca0020f4938f","system_id":"levelo_inurba_marseille","lat":43.317557,"lon":5.390173,"is_reserved":false,"is_disabled":false,"rental_uris":{"android":"levelo://app?vid=b6fa15c6-5dac-40bf-a6b1-ca0020f4938f","ios":"levelo://app?vid=b6fa15c6-5dac-40bf-a6b1-ca0020f4938f"},"vehicle_type_id":"4","last_reported":1721491721,"current_range_meters":19200,"station_id":"ce4bhqp2rcd13ifvqhng","pricing_plan_id":"cebpf4jnsgd1na2vs0mg"},{"bike_id":"5c6c99fb-21ca-429e-8b4d-12e45129ed8e","system_id":"levelo_inurba_marseille","lat":43.304274,"lon":5.388873,"is_reserved":false,"is_disabled":false,"rental_uris":{"android":"levelo://app?vid=5c6c99fb-21ca-429e-8b4d-12e45129ed8e","ios":"levelo://app?vid=5c6c99fb-21ca-429e-8b4d-12e45129ed8e"},"vehicle_type_id":"4","last_reported":1721491721,"current_range_meters":11200,"station_id":"ce4bgk12rcd13ifvqbi0","pricing_plan_id":"cebpf4jnsgd1na2vs0mg"},{"bike_id":"969f1621-cd1e-4e50-9d37-83a237696591","system_id":"levelo_inurba_marseille","lat":43.296277,"lon":5.377108,"is_reserved":false,"is_disabled":false,"rental_uris":{"android":"levelo://app?vid=969f1621-cd1e-4e50-9d37-83a237696591","ios":"levelo://app?vid=969f1621-cd1e-4e50-9d37-83a237696591"},"vehicle_type_id":"4","last_reported":1721491721,"current_range_meters":0,"station_id":"ce4bgi92rcd13ifvqb90","pricing_plan_id":"cebpf4jnsgd1na2vs0mg"},{"bike_id":"0e1fe00c-1364-440d-8f85-8f4bbfab7ac0","system_id":"levelo_inurba_marseille","lat":43.29613,"lon":5.37732,"is_reserved":false,"is_disabled":false,"rental_uris":{"android":"levelo://app?vid=0e1fe00c-1364-440d-8f85-8f4bbfab7ac0","ios":"levelo://app?vid=0e1fe00c-1364-440d-8f85-8f4bbfab7ac0"},"vehicle_type_id":"4","last_reported":1721491721,"current_range_meters":0,"station_id":"ce4bgi92rcd13ifvqb90","pricing_plan_id":"cebpf4jnsgd1na2vs0mg"},{"bike_id":"bb9f185a-e542-4bf7-b741-7265c10e1ebd","system_id":"levelo_inurba_marseille","lat":43.296277,"lon":5.377108,"is_reserved":false,"is_disabled":false,"rental_uris":{"android":"levelo://app?vid=bb9f185a-e542-4bf7-b741-7265c10e1ebd","ios":"levelo://app?vid=bb9f185a-e542-4bf7-b741-7265c10e1ebd"},"vehicle_type_id":"4","last_reported":1721491721,"current_range_meters":0,"station_id":"ce4bgi92rcd13ifvqb90","pricing_plan_id":"cebpf4jnsgd1na2vs0mg"},{"bike_id":"bef096e5-fcd1-4efb-b69d-eb3d0b4f1154","system_id":"levelo_inurba_marseille","lat":43.295748,"lon":5.37522,"is_reserved":false,"is_disabled":false,"rental_uris":{"android":"levelo://app?vid=bef096e5-fcd1-4efb-b69d-eb3d0b4f1154","ios":"levelo://app?vid=bef096e5-fcd1-4efb-b69d-eb3d0b4f1154"},"vehicle_type_id":"4","last_reported":1721491721,"current_range_meters":22000,"station_id":"ce4bgh92rcd13ifvqb50","pricing_plan_id":"cebpf4jnsgd1na2vs0mg"},{"bike_id":"c69a1224-4694-4996-b5eb-7e73b3a15956","system_id":"levelo_inurba_marseille","lat":43.29974,"lon":5.38493,"is_reserved":false,"is_disabled":false,"rental_uris":{"android":"levelo://app?vid=c69a1224-4694-4996-b5eb-7e73b3a15956","ios":"levelo://app?vid=c69a1224-4694-4996-b5eb-7e73b3a15956"},"vehicle_type_id":"4","last_reported":1721491721,"current_range_meters":3200,"station_id":"","pricing_plan_id":"cebpf4jnsgd1na2vs0mg"},{"bike_id":"dd36f205-f091-4cb9-acd7-0a420ad2efcb","system_id":"levelo_inurba_marseille","lat":43.296277,"lon":5.377108,"is_reserved":false,"is_disabled":false,"rental_uris":{"android":"levelo://app?vid=dd36f205-f091-4cb9-acd7-0a420ad2efcb","ios":"levelo://app?vid=dd36f205-f091-4cb9-acd7-0a420ad2efcb"},"vehicle_type_id":"4","last_reported":1721491721,"current_range_meters":6000,"station_id":"ce4bgi92rcd13ifvqb90","pricing_plan_id":"cebpf4jnsgd1na2vs0mg"},{"bike_id":"18491e9b-089a-423d-92a6-2224fb4ac1cb","system_id":"levelo_inurba_marseille","lat":43.30473,"lon":5.39011,"is_reserved":false,"is_disabled":false,"rental_uris":{"android":"levelo://app?vid=18491e9b-089a-423d-92a6-2224fb4ac1cb","ios":"levelo://app?vid=18491e9b-089a-423d-92a6-2224fb4ac1cb"},"vehicle_type_id":"4","last_reported":1721491721,"current_range_meters":3200,"station_id":"","pricing_plan_id":"cebpf4jnsgd1na2vs0mg"},{"bike_id":"606eb539-934e-4193-8b90-e76e10660dbd","system_id":"levelo_inurba_marseille","lat":43.273613,"lon":5.362705,"is_reserved":false,"is_disabled":false,"rental_uris":{"android":"levelo://app?vid=606eb539-934e-4193-8b90-e76e10660dbd","ios":"levelo://app?vid=606eb539-934e-4193-8b90-e76e10660dbd"},"vehicle_type_id":"4","last_reported":1721491721,"current_range_meters":3200,"station_id":"ce4bhbh2rcd13ifvqeo0","pricing_plan_id":"cebpf4jnsgd1na2vs0mg"},{"bike_id":"1f783074-f2f8-4bea-b8a4-1b17d1555df1","system_id":"levelo_inurba_marseille","lat":43.32367,"lon":5.388836,"is_reserved":false,"is_disabled":false,"rental_uris":{"android":"levelo://app?vid=1f783074-f2f8-4bea-b8a4-1b17d1555df1","ios":"levelo://app?vid=1f783074-f2f8-4bea-b8a4-1b17d1555df1"},"vehicle_type_id":"4","last_reported":1721491721,"current_range_meters":23200,"station_id":"ce4bhqp2rcd13ifvqhog","pricing_plan_id":"cebpf4jnsgd1na2vs0mg"},{"bike_id":"a95eaa4c-6f0c-4373-8392-473f0c818ba6","system_id":"levelo_inurba_marseille","lat":43.29602,"lon":5.381084,"is_reserved":false,"is_disabled":false,"rental_uris":{"android":"levelo://app?vid=a95eaa4c-6f0c-4373-8392-473f0c818ba6","ios":"levelo://app?vid=a95eaa4c-6f0c-4373-8392-473f0c818ba6"},"vehicle_type_id":"4","last_reported":1721491721,"current_range_meters":29600,"station_id":"ce4bgl12rcd13ifvqbo0","pricing_plan_id":"cebpf4jnsgd1na2vs0mg"},{"bike_id":"9fb7ca89-be85-42a8-a576-cec81e437886","system_id":"levelo_inurba_marseille","lat":43.29598,"lon":5.38104,"is_reserved":false,"is_disabled":false,"rental_uris":{"android":"levelo://app?vid=9fb7ca89-be85-42a8-a576-cec81e437886","ios":"levelo://app?vid=9fb7ca89-be85-42a8-a576-cec81e437886"},"vehicle_type_id":"4","last_reported":1721491721,"current_range_meters":12400,"station_id":"ce4bgl12rcd13ifvqbo0","pricing_plan_id":"cebpf4jnsgd1na2vs0mg"},{"bike_id":"ba7b5b37-9272-4455-b77d-0f0be7c14b22","system_id":"levelo_inurba_marseille","lat":43.29602,"lon":5.381084,"is_reserved":false,"is_disabled":false,"rental_uris":{"android":"levelo://app?vid=ba7b5b37-9272-4455-b77d-0f0be7c14b22","ios":"levelo://app?vid=ba7b5b37-9272-4455-b77d-0f0be7c14b22"},"vehicle_type_id":"4","last_reported":1721491721,"current_range_meters":4000,"station_id":"ce4bgl12rcd13ifvqbo0","pricing_plan_id":"cebpf4jnsgd1na2vs0mg"},{"bike_id":"6651404f-0557-4620-becf-b2a62f787a5b","system_id":"levelo_inurba_marseille","lat":43.292749,"lon":5.368402,"is_reserved":false,"is_disabled":false,"rental_uris":{"android":"levelo://app?vid=6651404f-0557-4620-becf-b2a62f787a5b","ios":"levelo://app?vid=6651404f-0557-4620-becf-b2a62f787a5b"},"vehicle_type_id":"4","last_reported":1721491721,"current_range_meters":30000,"station_id":"ce4bhbp2rcd13ifvqesg","pricing_plan_id":"cebpf4jnsgd1na2vs0mg"},{"bike_id":"4ada0fb3-14f2-4085-88b9-6418e4d57b27","system_id":"levelo_inurba_marseille","lat":43.292749,"lon":5.368402,"is_reserved":false,"is_disabled":false,"rental_uris":{"android":"levelo://app?vid=4ada0fb3-14f2-4085-88b9-6418e4d57b27","ios":"levelo://app?vid=4ada0fb3-14f2-4085-88b9-6418e4d57b27"},"vehicle_type_id":"4","last_reported":1721491721,"current_range_meters":3200,"station_id":"ce4bhbp2rcd13ifvqesg","pricing_plan_id":"cebpf4jnsgd1na2vs0mg"},{"bike_id":"2bb6f90a-bf1e-486b-8751-7df49e5f89de","system_id":"levelo_inurba_marseille","lat":43.33277,"lon":5.36266,"is_reserved":false,"is_disabled":false,"rental_uris":{"android":"levelo://app?vid=2bb6f90a-bf1e-486b-8751-7df49e5f89de","ios":"levelo://app?vid=2bb6f90a-bf1e-486b-8751-7df49e5f89de"},"vehicle_type_id":"4","last_reported":1721491721,"current_range_meters":8000,"station_id":"","pricing_plan_id":"cebpf4jnsgd1na2vs0mg"},{"bike_id":"685b4c6d-e3c6-4342-8b60-8117d46d5244","system_id":"levelo_inurba_marseille","lat":43.305994,"lon":5.393687,"is_reserved":false,"is_disabled":false,"rental_uris":{"android":"levelo://app?vid=685b4c6d-e3c6-4342-8b60-8117d46d5244","ios":"levelo://app?vid=685b4c6d-e3c6-4342-8b60-8117d46d5244"},"vehicle_type_id":"4","last_reported":1721491721,"current_range_meters":6000,"station_id":"ce4bh0p2rcd13ifvqd80","pricing_plan_id":"cebpf4jnsgd1na2vs0mg"},{"bike_id":"82b50977-c05b-4b34-92ff-098358c3330e","system_id":"levelo_inurba_marseille","lat":43.303002,"lon":5.392142,"is_reserved":false,"is_disabled":false,"rental_uris":{"android":"levelo://app?vid=82b50977-c05b-4b34-92ff-098358c3330e","ios":"levelo://app?vid=82b50977-c05b-4b34-92ff-098358c3330e"},"vehicle_type_id":"4","last_reported":1721491721,"current_range_meters":17600,"station_id":"ce4bgkh2rcd13ifvqbk0","pricing_plan_id":"cebpf4jnsgd1na2vs0mg"},{"bike_id":"dbd20af4-ebf1-4dcc-9ed4-9850a2e13880","system_id":"levelo_inurba_marseille","lat":43.29374,"lon":5.3784,"is_reserved":false,"is_disabled":false,"rental_uris":{"android":"levelo://app?vid=dbd20af4-ebf1-4dcc-9ed4-9850a2e13880","ios":"levelo://app?vid=dbd20af4-ebf1-4dcc-9ed4-9850a2e13880"},"vehicle_type_id":"4","last_reported":1721491721,"current_range_meters":0,"station_id":"ce4bgjh2rcd13ifvqbf0","pricing_plan_id":"cebpf4jnsgd1na2vs0mg"},{"bike_id":"295e5a8a-9480-4788-aff5-ac311c730682","system_id":"levelo_inurba_marseille","lat":43.293777,"lon":5.378523,"is_reserved":false,"is_disabled":false,"rental_uris":{"android":"levelo://app?vid=295e5a8a-9480-4788-aff5-ac311c730682","ios":"levelo://app?vid=295e5a8a-9480-4788-aff5-ac311c730682"},"vehicle_type_id":"4","last_reported":1721491721,"current_range_meters":0,"station_id":"ce4bgjh2rcd13ifvqbf0","pricing_plan_id":"cebpf4jnsgd1na2vs0mg"},{"bike_id":"297c6885-4ee0-4bfe-ae8a-6be42b6609d3","system_id":"levelo_inurba_marseille","lat":43.29228,"lon":5.36058,"is_reserved":false,"is_disabled":false,"rental_uris":{"android":"levelo://app?vid=297c6885-4ee0-4bfe-ae8a-6be42b6609d3","ios":"levelo://app?vid=297c6885-4ee0-4bfe-ae8a-6be42b6609d3"},"vehicle_type_id":"4","last_reported":1721491721,"current_range_meters":3200,"station_id":"ce4bhbh2rcd13ifvqeqg","pricing_plan_id":"cebpf4jnsgd1na2vs0mg"},{"bike_id":"2442f040-e1ca-40f7-9c87-54028d3f42cb","system_id":"levelo_inurba_marseille","lat":43.291768,"lon":5.372001,"is_reserved":false,"is_disabled":false,"rental_uris":{"android":"levelo://app?vid=2442f040-e1ca-40f7-9c87-54028d3f42cb","ios":"levelo://app?vid=2442f040-e1ca-40f7-9c87-54028d3f42cb"},"vehicle_type_id":"4","last_reported":1721491721,"current_range_meters":11600,"station_id":"ce4bha92rcd13ifvqeh0","pricing_plan_id":"cebpf4jnsgd1na2vs0mg"},{"bike_id":"539be2ef-d982-45ca-babb-ec5d1fe1a9d3","system_id":"levelo_inurba_marseille","lat":43.309038,"lon":5.396546,"is_reserved":false,"is_disabled":false,"rental_uris":{"android":"levelo://app?vid=539be2ef-d982-45ca-babb-ec5d1fe1a9d3","ios":"levelo://app?vid=539be2ef-d982-45ca-babb-ec5d1fe1a9d3"},"vehicle_type_id":"4","last_reported":1721491721,"current_range_meters":2400,"station_id":"ce4bh012rcd13ifvqcv0","pricing_plan_id":"cebpf4jnsgd1na2vs0mg"},{"bike_id":"2dc4a9b0-8864-4b18-8ee9-0490c6247e1b","system_id":"levelo_inurba_marseille","lat":43.29963,"lon":5.391123,"is_reserved":false,"is_disabled":false,"rental_uris":{"android":"levelo://app?vid=2dc4a9b0-8864-4b18-8ee9-0490c6247e1b","ios":"levelo://app?vid=2dc4a9b0-8864-4b18-8ee9-0490c6247e1b"},"vehicle_type_id":"4","last_reported":1721491721,"current_range_meters":17200,"station_id":"","pricing_plan_id":"cebpf4jnsgd1na2vs0mg"},{"bike_id":"dbce3027-f1b1-46a4-a3d3-fd7e93c1d4ba","system_id":"levelo_inurba_marseille","lat":43.332406,"lon":5.380534,"is_reserved":false,"is_disabled":false,"rental_uris":{"android":"levelo://app?vid=dbce3027-f1b1-46a4-a3d3-fd7e93c1d4ba","ios":"levelo://app?vid=dbce3027-f1b1-46a4-a3d3-fd7e93c1d4ba"},"vehicle_type_id":"4","last_reported":1721491721,"current_range_meters":0,"station_id":"","pricing_plan_id":"cebpf4jnsgd1na2vs0mg"},{"bike_id":"f6281b2d-093d-403a-83d6-4ee35a44b7ff","system_id":"levelo_inurba_marseille","lat":43.29073,"lon":5.37172,"is_reserved":false,"is_disabled":false,"rental_uris":{"android":"levelo://app?vid=f6281b2d-093d-403a-83d6-4ee35a44b7ff","ios":"levelo://app?vid=f6281b2d-093d-403a-83d6-4ee35a44b7ff"},"vehicle_type_id":"4","last_reported":1721491721,"current_range_meters":0,"station_id":"ce4bh5p2rcd13ifvqe4g","pricing_plan_id":"cebpf4jnsgd1na2vs0mg"},{"bike_id":"43d06e1f-ea2c-4ec7-887b-8685310ffb56","system_id":"levelo_inurba_marseille","lat":43.290779,"lon":5.371482,"is_reserved":false,"is_disabled":false,"rental_uris":{"android":"levelo://app?vid=43d06e1f-ea2c-4ec7-887b-8685310ffb56","ios":"levelo://app?vid=43d06e1f-ea2c-4ec7-887b-8685310ffb56"},"vehicle_type_id":"4","last_reported":1721491721,"current_range_meters":0,"station_id":"ce4bh5p2rcd13ifvqe4g","pricing_plan_id":"cebpf4jnsgd1na2vs0mg"},{"bike_id":"bee4ca0c-3067-4794-b99b-dc831474b0b4","system_id":"levelo_inurba_marseille","lat":43.289184,"lon":5.366408,"is_reserved":false,"is_disabled":false,"rental_uris":{"android":"levelo://app?vid=bee4ca0c-3067-4794-b99b-dc831474b0b4","ios":"levelo://app?vid=bee4ca0c-3067-4794-b99b-dc831474b0b4"},"vehicle_type_id":"4","last_reported":1721491721,"current_range_meters":16800,"station_id":"ce4bhap2rcd13ifvqek0","pricing_plan_id":"cebpf4jnsgd1na2vs0mg"},{"bike_id":"951fa7c0-00b4-4457-95c1-def5554f34fd","system_id":"levelo_inurba_marseille","lat":43.289184,"lon":5.366408,"is_reserved":false,"is_disabled":false,"rental_uris":{"android":"levelo://app?vid=951fa7c0-00b4-4457-95c1-def5554f34fd","ios":"levelo://app?vid=951fa7c0-00b4-4457-95c1-def5554f34fd"},"vehicle_type_id":"4","last_reported":1721491721,"current_range_meters":23200,"station_id":"ce4bhap2rcd13ifvqek0","pricing_plan_id":"cebpf4jnsgd1na2vs0mg"},{"bike_id":"b8c9ea2e-0247-486d-96c5-08bc58fbde90","system_id":"levelo_inurba_marseille","lat":43.292598,"lon":5.384467,"is_reserved":false,"is_disabled":false,"rental_uris":{"android":"levelo://app?vid=b8c9ea2e-0247-486d-96c5-08bc58fbde90","ios":"levelo://app?vid=b8c9ea2e-0247-486d-96c5-08bc58fbde90"},"vehicle_type_id":"4","last_reported":1721491721,"current_range_meters":0,"station_id":"ce4bh692rcd13ifvqea0","pricing_plan_id":"cebpf4jnsgd1na2vs0mg"},{"bike_id":"c890f84f-8819-4fd3-aeb8-0e6dfdd95bf7","system_id":"levelo_inurba_marseille","lat":43.292644,"lon":5.384257,"is_reserved":false,"is_disabled":false,"rental_uris":{"android":"levelo://app?vid=c890f84f-8819-4fd3-aeb8-0e6dfdd95bf7","ios":"levelo://app?vid=c890f84f-8819-4fd3-aeb8-0e6dfdd95bf7"},"vehicle_type_id":"4","last_reported":1721491721,"current_range_meters":800,"station_id":"ce4bh692rcd13ifvqea0","pricing_plan_id":"cebpf4jnsgd1na2vs0mg"},{"bike_id":"12739031-6c2c-4aec-b4e3-e72873b20db3","system_id":"levelo_inurba_marseille","lat":43.290104,"lon":5.356111,"is_reserved":false,"is_disabled":false,"rental_uris":{"android":"levelo://app?vid=12739031-6c2c-4aec-b4e3-e72873b20db3","ios":"levelo://app?vid=12739031-6c2c-4aec-b4e3-e72873b20db3"},"vehicle_type_id":"4","last_reported":1721491721,"current_range_meters":6400,"station_id":"ce4bhb92rcd13ifvqen0","pricing_plan_id":"cebpf4jnsgd1na2vs0mg"},{"bike_id":"d90277cf-2b7e-49e7-8482-025bd5a7f5b8","system_id":"levelo_inurba_marseille","lat":43.290104,"lon":5.356111,"is_reserved":false,"is_disabled":false,"rental_uris":{"android":"levelo://app?vid=d90277cf-2b7e-49e7-8482-025bd5a7f5b8","ios":"levelo://app?vid=d90277cf-2b7e-49e7-8482-025bd5a7f5b8"},"vehicle_type_id":"4","last_reported":1721491721,"current_range_meters":0,"station_id":"ce4bhb92rcd13ifvqen0","pricing_plan_id":"cebpf4jnsgd1na2vs0mg"},{"bike_id":"aac89e9d-1f30-4542-8c3c-d4c37b183966","system_id":"levelo_inurba_marseille","lat":43.290104,"lon":5.356111,"is_reserved":false,"is_disabled":false,"rental_uris":{"android":"levelo://app?vid=aac89e9d-1f30-4542-8c3c-d4c37b183966","ios":"levelo://app?vid=aac89e9d-1f30-4542-8c3c-d4c37b183966"},"vehicle_type_id":"4","last_reported":1721491721,"current_range_meters":28400,"station_id":"ce4bhb92rcd13ifvqen0","pricing_plan_id":"cebpf4jnsgd1na2vs0mg"},{"bike_id":"7335b3a8-f3f1-43bd-a16b-3773e8d22f63","system_id":"levelo_inurba_marseille","lat":43.290103,"lon":5.356114,"is_reserved":false,"is_disabled":false,"rental_uris":{"android":"levelo://app?vid=7335b3a8-f3f1-43bd-a16b-3773e8d22f63","ios":"levelo://app?vid=7335b3a8-f3f1-43bd-a16b-3773e8d22f63"},"vehicle_type_id":"4","last_reported":1721491721,"current_range_meters":0,"station_id":"ce4bhb92rcd13ifvqen0","pricing_plan_id":"cebpf4jnsgd1na2vs0mg"},{"bike_id":"8a317dfe-2953-4f29-a439-fb3ec5b0ddbe","system_id":"levelo_inurba_marseille","lat":43.290104,"lon":5.356111,"is_reserved":false,"is_disabled":false,"rental_uris":{"android":"levelo://app?vid=8a317dfe-2953-4f29-a439-fb3ec5b0ddbe","ios":"levelo://app?vid=8a317dfe-2953-4f29-a439-fb3ec5b0ddbe"},"vehicle_type_id":"4","last_reported":1721491721,"current_range_meters":31200,"station_id":"ce4bhb92rcd13ifvqen0","pricing_plan_id":"cebpf4jnsgd1na2vs0mg"},{"bike_id":"0f432d7a-26f9-4e44-8506-1a7a1a810836","system_id":"levelo_inurba_marseille","lat":43.290103,"lon":5.356114,"is_reserved":false,"is_disabled":false,"rental_uris":{"android":"levelo://app?vid=0f432d7a-26f9-4e44-8506-1a7a1a810836","ios":"levelo://app?vid=0f432d7a-26f9-4e44-8506-1a7a1a810836"},"vehicle_type_id":"4","last_reported":1721491721,"current_range_meters":9200,"station_id":"ce4bhb92rcd13ifvqen0","pricing_plan_id":"cebpf4jnsgd1na2vs0mg"},{"bike_id":"4d8eac3c-8a13-457e-bb05-912549e26d95","system_id":"levelo_inurba_marseille","lat":43.290962,"lon":5.381312,"is_reserved":false,"is_disabled":false,"rental_uris":{"android":"levelo://app?vid=4d8eac3c-8a13-457e-bb05-912549e26d95","ios":"levelo://app?vid=4d8eac3c-8a13-457e-bb05-912549e26d95"},"vehicle_type_id":"4","last_reported":1721491721,"current_range_meters":6400,"station_id":"ce4bh512rcd13ifvqe2g","pricing_plan_id":"cebpf4jnsgd1na2vs0mg"},{"bike_id":"9eddcd7d-beda-4789-bcb1-53870ab49934","system_id":"levelo_inurba_marseille","lat":43.297807,"lon":5.393533,"is_reserved":false,"is_disabled":false,"rental_uris":{"android":"levelo://app?vid=9eddcd7d-beda-4789-bcb1-53870ab49934","ios":"levelo://app?vid=9eddcd7d-beda-4789-bcb1-53870ab49934"},"vehicle_type_id":"4","last_reported":1721491721,"current_range_meters":22000,"station_id":"chh1huq6cuj3fo74tm60","pricing_plan_id":"cebpf4jnsgd1na2vs0mg"},{"bike_id":"1ac21d27-d922-415a-9f50-1e327c0306d1","system_id":"levelo_inurba_marseille","lat":43.28978,"lon":5.37823,"is_reserved":false,"is_disabled":false,"rental_uris":{"android":"levelo://app?vid=1ac21d27-d922-415a-9f50-1e327c0306d1","ios":"levelo://app?vid=1ac21d27-d922-415a-9f50-1e327c0306d1"},"vehicle_type_id":"4","last_reported":1721491721,"current_range_meters":10800,"station_id":"ce4bh9p2rcd13ifvqed0","pricing_plan_id":"cebpf4jnsgd1na2vs0mg"},{"bike_id":"4ed04188-0f8a-48e9-a3d2-00c79e168996","system_id":"levelo_inurba_marseille","lat":43.330442,"lon":5.389148,"is_reserved":false,"is_disabled":false,"rental_uris":{"android":"levelo://app?vid=4ed04188-0f8a-48e9-a3d2-00c79e168996","ios":"levelo://app?vid=4ed04188-0f8a-48e9-a3d2-00c79e168996"},"vehicle_type_id":"4","last_reported":1721491721,"current_range_meters":27600,"station_id":"ce4bhr92rcd13ifvqhrg","pricing_plan_id":"cebpf4jnsgd1na2vs0mg"},{"bike_id":"55730650-8ca5-4a45-a179-add62c6b2568","system_id":"levelo_inurba_marseille","lat":43.290094,"lon":5.381264,"is_reserved":false,"is_disabled":false,"rental_uris":{"android":"levelo://app?vid=55730650-8ca5-4a45-a179-add62c6b2568","ios":"levelo://app?vid=55730650-8ca5-4a45-a179-add62c6b2568"},"vehicle_type_id":"4","last_reported":1721491721,"current_range_meters":24800,"station_id":"ce4bh4p2rcd13ifvqe1g","pricing_plan_id":"cebpf4jnsgd1na2vs0mg"},{"bike_id":"c1af56de-be73-4e36-97b2-97d715f9f6e1","system_id":"levelo_inurba_marseille","lat":43.28727,"lon":5.36078,"is_reserved":false,"is_disabled":false,"rental_uris":{"android":"levelo://app?vid=c1af56de-be73-4e36-97b2-97d715f9f6e1","ios":"levelo://app?vid=c1af56de-be73-4e36-97b2-97d715f9f6e1"},"vehicle_type_id":"4","last_reported":1721491721,"current_range_meters":0,"station_id":"cki0cbj6b192h4jlfktg","pricing_plan_id":"cebpf4jnsgd1na2vs0mg"},{"bike_id":"9b2fd6a7-d9ee-4b72-90ed-2f661e5b00c0","system_id":"levelo_inurba_marseille","lat":43.2901,"lon":5.381269,"is_reserved":false,"is_disabled":false,"rental_uris":{"android":"levelo://app?vid=9b2fd6a7-d9ee-4b72-90ed-2f661e5b00c0","ios":"levelo://app?vid=9b2fd6a7-d9ee-4b72-90ed-2f661e5b00c0"},"vehicle_type_id":"4","last_reported":1721491721,"current_range_meters":12800,"station_id":"ce4bh4p2rcd13ifvqe1g","pricing_plan_id":"cebpf4jnsgd1na2vs0mg"},{"bike_id":"1169a68f-5af1-4e39-bb74-2dcf404c65b1","system_id":"levelo_inurba_marseille","lat":43.309371,"lon":5.401449,"is_reserved":false,"is_disabled":false,"rental_uris":{"android":"levelo://app?vid=1169a68f-5af1-4e39-bb74-2dcf404c65b1","ios":"levelo://app?vid=1169a68f-5af1-4e39-bb74-2dcf404c65b1"},"vehicle_type_id":"4","last_reported":1721491721,"current_range_meters":10800,"station_id":"ce4bgvp2rcd13ifvqct0","pricing_plan_id":"cebpf4jnsgd1na2vs0mg"},{"bike_id":"3ef082f7-d79b-499a-a9a3-3bd935d4af2c","system_id":"levelo_inurba_marseille","lat":43.30931,"lon":5.40145,"is_reserved":false,"is_disabled":false,"rental_uris":{"android":"levelo://app?vid=3ef082f7-d79b-499a-a9a3-3bd935d4af2c","ios":"levelo://app?vid=3ef082f7-d79b-499a-a9a3-3bd935d4af2c"},"vehicle_type_id":"4","last_reported":1721491721,"current_range_meters":0,"station_id":"ce4bgvp2rcd13ifvqct0","pricing_plan_id":"cebpf4jnsgd1na2vs0mg"},{"bike_id":"da1ef795-4411-4787-a704-e9710fe27f7e","system_id":"levelo_inurba_marseille","lat":43.337472,"lon":5.374599,"is_reserved":false,"is_disabled":false,"rental_uris":{"android":"levelo://app?vid=da1ef795-4411-4787-a704-e9710fe27f7e","ios":"levelo://app?vid=da1ef795-4411-4787-a704-e9710fe27f7e"},"vehicle_type_id":"4","last_reported":1721491721,"current_range_meters":22400,"station_id":"","pricing_plan_id":"cebpf4jnsgd1na2vs0mg"},{"bike_id":"0ad3db73-21e8-41b5-aad3-7f410c37748d","system_id":"levelo_inurba_marseille","lat":43.33754,"lon":5.37454,"is_reserved":false,"is_disabled":false,"rental_uris":{"android":"levelo://app?vid=0ad3db73-21e8-41b5-aad3-7f410c37748d","ios":"levelo://app?vid=0ad3db73-21e8-41b5-aad3-7f410c37748d"},"vehicle_type_id":"4","last_reported":1721491721,"current_range_meters":13600,"station_id":"","pricing_plan_id":"cebpf4jnsgd1na2vs0mg"},{"bike_id":"9fd23b8b-c7c3-4b5a-b11d-8284b8e4dfa2","system_id":"levelo_inurba_marseille","lat":43.337578,"lon":5.374428,"is_reserved":false,"is_disabled":false,"rental_uris":{"android":"levelo://app?vid=9fd23b8b-c7c3-4b5a-b11d-8284b8e4dfa2","ios":"levelo://app?vid=9fd23b8b-c7c3-4b5a-b11d-8284b8e4dfa2"},"vehicle_type_id":"4","last_reported":1721491721,"current_range_meters":26000,"station_id":"","pricing_plan_id":"cebpf4jnsgd1na2vs0mg"},{"bike_id":"ac377a63-6a02-42fa-8a70-d5bb9b7546c9","system_id":"levelo_inurba_marseille","lat":43.337645,"lon":5.374265,"is_reserved":false,"is_disabled":false,"rental_uris":{"android":"levelo://app?vid=ac377a63-6a02-42fa-8a70-d5bb9b7546c9","ios":"levelo://app?vid=ac377a63-6a02-42fa-8a70-d5bb9b7546c9"},"vehicle_type_id":"4","last_reported":1721491721,"current_range_meters":20400,"station_id":"","pricing_plan_id":"cebpf4jnsgd1na2vs0mg"},{"bike_id":"d0723523-f35a-472e-b198-a5153fc33bb6","system_id":"levelo_inurba_marseille","lat":43.3376,"lon":5.37479,"is_reserved":false,"is_disabled":false,"rental_uris":{"android":"levelo://app?vid=d0723523-f35a-472e-b198-a5153fc33bb6","ios":"levelo://app?vid=d0723523-f35a-472e-b198-a5153fc33bb6"},"vehicle_type_id":"4","last_reported":1721491721,"current_range_meters":21600,"station_id":"","pricing_plan_id":"cebpf4jnsgd1na2vs0mg"},{"bike_id":"9458a255-a47a-41f1-849e-755dc4612ffe","system_id":"levelo_inurba_marseille","lat":43.337663,"lon":5.37469,"is_reserved":false,"is_disabled":false,"rental_uris":{"android":"levelo://app?vid=9458a255-a47a-41f1-849e-755dc4612ffe","ios":"levelo://app?vid=9458a255-a47a-41f1-849e-755dc4612ffe"},"vehicle_type_id":"4","last_reported":1721491721,"current_range_meters":21200,"station_id":"","pricing_plan_id":"cebpf4jnsgd1na2vs0mg"},{"bike_id":"758a043d-ddb2-4705-a998-0fa6f0df3851","system_id":"levelo_inurba_marseille","lat":43.28727,"lon":5.36078,"is_reserved":false,"is_disabled":false,"rental_uris":{"android":"levelo://app?vid=758a043d-ddb2-4705-a998-0fa6f0df3851","ios":"levelo://app?vid=758a043d-ddb2-4705-a998-0fa6f0df3851"},"vehicle_type_id":"4","last_reported":1721491721,"current_range_meters":29200,"station_id":"cki0cbj6b192h4jlfktg","pricing_plan_id":"cebpf4jnsgd1na2vs0mg"},{"bike_id":"3d3e3fdf-ea47-486b-9334-f44e329c634d","system_id":"levelo_inurba_marseille","lat":43.28727,"lon":5.36078,"is_reserved":false,"is_disabled":false,"rental_uris":{"android":"levelo://app?vid=3d3e3fdf-ea47-486b-9334-f44e329c634d","ios":"levelo://app?vid=3d3e3fdf-ea47-486b-9334-f44e329c634d"},"vehicle_type_id":"4","last_reported":1721491721,"current_range_meters":8000,"station_id":"cki0cbj6b192h4jlfktg","pricing_plan_id":"cebpf4jnsgd1na2vs0mg"},{"bike_id":"02232f11-4146-4319-80bc-7975e63a60b1","system_id":"levelo_inurba_marseille","lat":43.28727,"lon":5.36078,"is_reserved":false,"is_disabled":false,"rental_uris":{"android":"levelo://app?vid=02232f11-4146-4319-80bc-7975e63a60b1","ios":"levelo://app?vid=02232f11-4146-4319-80bc-7975e63a60b1"},"vehicle_type_id":"4","last_reported":1721491721,"current_range_meters":3200,"station_id":"cki0cbj6b192h4jlfktg","pricing_plan_id":"cebpf4jnsgd1na2vs0mg"},{"bike_id":"0bfc49e2-a456-4ba8-8f33-2b7847656cc2","system_id":"levelo_inurba_marseille","lat":43.289307,"lon":5.38406,"is_reserved":false,"is_disabled":false,"rental_uris":{"android":"levelo://app?vid=0bfc49e2-a456-4ba8-8f33-2b7847656cc2","ios":"levelo://app?vid=0bfc49e2-a456-4ba8-8f33-2b7847656cc2"},"vehicle_type_id":"4","last_reported":1721491721,"current_range_meters":9600,"station_id":"ce4bh612rcd13ifvqe6g","pricing_plan_id":"cebpf4jnsgd1na2vs0mg"},{"bike_id":"a8cb3bc8-804e-4f72-8d96-3c83c46cb078","system_id":"levelo_inurba_marseille","lat":43.32621,"lon":5.39841,"is_reserved":false,"is_disabled":false,"rental_uris":{"android":"levelo://app?vid=a8cb3bc8-804e-4f72-8d96-3c83c46cb078","ios":"levelo://app?vid=a8cb3bc8-804e-4f72-8d96-3c83c46cb078"},"vehicle_type_id":"4","last_reported":1721491721,"current_range_meters":29200,"station_id":"","pricing_plan_id":"cebpf4jnsgd1na2vs0mg"},{"bike_id":"61392830-fdda-493b-8e57-569bf7a1f277","system_id":"levelo_inurba_marseille","lat":43.316828,"lon":5.404723,"is_reserved":false,"is_disabled":false,"rental_uris":{"android":"levelo://app?vid=61392830-fdda-493b-8e57-569bf7a1f277","ios":"levelo://app?vid=61392830-fdda-493b-8e57-569bf7a1f277"},"vehicle_type_id":"4","last_reported":1721491721,"current_range_meters":24000,"station_id":"ce4bh012rcd13ifvqd00","pricing_plan_id":"cebpf4jnsgd1na2vs0mg"},{"bike_id":"45fdbc42-5cfe-44bd-ac34-4c88db18a7e6","system_id":"levelo_inurba_marseille","lat":43.287184,"lon":5.37937,"is_reserved":false,"is_disabled":false,"rental_uris":{"android":"levelo://app?vid=45fdbc42-5cfe-44bd-ac34-4c88db18a7e6","ios":"levelo://app?vid=45fdbc42-5cfe-44bd-ac34-4c88db18a7e6"},"vehicle_type_id":"4","last_reported":1721491721,"current_range_meters":18400,"station_id":"ce4bh9p2rcd13ifvqec0","pricing_plan_id":"cebpf4jnsgd1na2vs0mg"},{"bike_id":"af8c9f28-bfe5-43c7-b2cb-a840dc76a329","system_id":"levelo_inurba_marseille","lat":43.28725,"lon":5.37938,"is_reserved":false,"is_disabled":false,"rental_uris":{"android":"levelo://app?vid=af8c9f28-bfe5-43c7-b2cb-a840dc76a329","ios":"levelo://app?vid=af8c9f28-bfe5-43c7-b2cb-a840dc76a329"},"vehicle_type_id":"4","last_reported":1721491721,"current_range_meters":0,"station_id":"ce4bh9p2rcd13ifvqec0","pricing_plan_id":"cebpf4jnsgd1na2vs0mg"},{"bike_id":"c11ab82d-2135-462a-aeab-d224196e2b13","system_id":"levelo_inurba_marseille","lat":43.28724,"lon":5.37935,"is_reserved":false,"is_disabled":false,"rental_uris":{"android":"levelo://app?vid=c11ab82d-2135-462a-aeab-d224196e2b13","ios":"levelo://app?vid=c11ab82d-2135-462a-aeab-d224196e2b13"},"vehicle_type_id":"4","last_reported":1721491721,"current_range_meters":21200,"station_id":"ce4bh9p2rcd13ifvqec0","pricing_plan_id":"cebpf4jnsgd1na2vs0mg"},{"bike_id":"7de542f4-781e-4fe9-bd0b-c2f2dfc89fdf","system_id":"levelo_inurba_marseille","lat":43.316828,"lon":5.404723,"is_reserved":false,"is_disabled":false,"rental_uris":{"android":"levelo://app?vid=7de542f4-781e-4fe9-bd0b-c2f2dfc89fdf","ios":"levelo://app?vid=7de542f4-781e-4fe9-bd0b-c2f2dfc89fdf"},"vehicle_type_id":"4","last_reported":1721491721,"current_range_meters":9600,"station_id":"ce4bh012rcd13ifvqd00","pricing_plan_id":"cebpf4jnsgd1na2vs0mg"},{"bike_id":"baf6cf7e-2267-464b-8ddb-72ca883101ef","system_id":"levelo_inurba_marseille","lat":43.316821,"lon":5.404737,"is_reserved":false,"is_disabled":false,"rental_uris":{"android":"levelo://app?vid=baf6cf7e-2267-464b-8ddb-72ca883101ef","ios":"levelo://app?vid=baf6cf7e-2267-464b-8ddb-72ca883101ef"},"vehicle_type_id":"4","last_reported":1721491721,"current_range_meters":10800,"station_id":"ce4bh012rcd13ifvqd00","pricing_plan_id":"cebpf4jnsgd1na2vs0mg"},{"bike_id":"e70eb927-47db-4a67-9861-2078f5117f91","system_id":"levelo_inurba_marseille","lat":43.284538,"lon":5.358657,"is_reserved":false,"is_disabled":false,"rental_uris":{"android":"levelo://app?vid=e70eb927-47db-4a67-9861-2078f5117f91","ios":"levelo://app?vid=e70eb927-47db-4a67-9861-2078f5117f91"},"vehicle_type_id":"4","last_reported":1721491721,"current_range_meters":2400,"station_id":"ce4bhah2rcd13ifvqei0","pricing_plan_id":"cebpf4jnsgd1na2vs0mg"},{"bike_id":"8682f2f5-9d37-415a-917f-785b1294cdea","system_id":"levelo_inurba_marseille","lat":43.294314,"lon":5.397498,"is_reserved":false,"is_disabled":false,"rental_uris":{"android":"levelo://app?vid=8682f2f5-9d37-415a-917f-785b1294cdea","ios":"levelo://app?vid=8682f2f5-9d37-415a-917f-785b1294cdea"},"vehicle_type_id":"4","last_reported":1721491721,"current_range_meters":0,"station_id":"ce4bh3h2rcd13ifvqdo0","pricing_plan_id":"cebpf4jnsgd1na2vs0mg"},{"bike_id":"9c4350e7-d547-420d-8d40-caff418c3118","system_id":"levelo_inurba_marseille","lat":43.294314,"lon":5.397498,"is_reserved":false,"is_disabled":false,"rental_uris":{"android":"levelo://app?vid=9c4350e7-d547-420d-8d40-caff418c3118","ios":"levelo://app?vid=9c4350e7-d547-420d-8d40-caff418c3118"},"vehicle_type_id":"4","last_reported":1721491721,"current_range_meters":12400,"station_id":"ce4bh3h2rcd13ifvqdo0","pricing_plan_id":"cebpf4jnsgd1na2vs0mg"},{"bike_id":"f4aa435e-e60b-4e59-a469-4f24b32f0a4a","system_id":"levelo_inurba_marseille","lat":43.285848,"lon":5.350787,"is_reserved":false,"is_disabled":false,"rental_uris":{"android":"levelo://app?vid=f4aa435e-e60b-4e59-a469-4f24b32f0a4a","ios":"levelo://app?vid=f4aa435e-e60b-4e59-a469-4f24b32f0a4a"},"vehicle_type_id":"4","last_reported":1721491721,"current_range_meters":16400,"station_id":"ce4bhch2rcd13ifvqeug","pricing_plan_id":"cebpf4jnsgd1na2vs0mg"},{"bike_id":"ac475d23-05cb-4995-a955-1b95cfa71c12","system_id":"levelo_inurba_marseille","lat":43.28622,"lon":5.35109,"is_reserved":false,"is_disabled":false,"rental_uris":{"android":"levelo://app?vid=ac475d23-05cb-4995-a955-1b95cfa71c12","ios":"levelo://app?vid=ac475d23-05cb-4995-a955-1b95cfa71c12"},"vehicle_type_id":"4","last_reported":1721491721,"current_range_meters":4000,"station_id":"ce4bhch2rcd13ifvqeug","pricing_plan_id":"cebpf4jnsgd1na2vs0mg"},{"bike_id":"5299cc89-21c5-42c3-8f3e-8f9b2cd0bddf","system_id":"levelo_inurba_marseille","lat":43.285856,"lon":5.350771,"is_reserved":false,"is_disabled":false,"rental_uris":{"android":"levelo://app?vid=5299cc89-21c5-42c3-8f3e-8f9b2cd0bddf","ios":"levelo://app?vid=5299cc89-21c5-42c3-8f3e-8f9b2cd0bddf"},"vehicle_type_id":"4","last_reported":1721491721,"current_range_meters":1600,"station_id":"ce4bhch2rcd13ifvqeug","pricing_plan_id":"cebpf4jnsgd1na2vs0mg"},{"bike_id":"7afc494d-143a-4104-9cf9-c415b9a7a423","system_id":"levelo_inurba_marseille","lat":43.2862,"lon":5.35107,"is_reserved":false,"is_disabled":false,"rental_uris":{"android":"levelo://app?vid=7afc494d-143a-4104-9cf9-c415b9a7a423","ios":"levelo://app?vid=7afc494d-143a-4104-9cf9-c415b9a7a423"},"vehicle_type_id":"4","last_reported":1721491721,"current_range_meters":13200,"station_id":"ce4bhch2rcd13ifvqeug","pricing_plan_id":"cebpf4jnsgd1na2vs0mg"},{"bike_id":"845ce90b-5794-4a41-a868-1a0236e5a059","system_id":"levelo_inurba_marseille","lat":43.28619,"lon":5.35109,"is_reserved":false,"is_disabled":false,"rental_uris":{"android":"levelo://app?vid=845ce90b-5794-4a41-a868-1a0236e5a059","ios":"levelo://app?vid=845ce90b-5794-4a41-a868-1a0236e5a059"},"vehicle_type_id":"4","last_reported":1721491721,"current_range_meters":0,"station_id":"ce4bhch2rcd13ifvqeug","pricing_plan_id":"cebpf4jnsgd1na2vs0mg"},{"bike_id":"b90c1f25-3652-40ac-9fc5-da725c444db6","system_id":"levelo_inurba_marseille","lat":43.285856,"lon":5.350771,"is_reserved":false,"is_disabled":false,"rental_uris":{"android":"levelo://app?vid=b90c1f25-3652-40ac-9fc5-da725c444db6","ios":"levelo://app?vid=b90c1f25-3652-40ac-9fc5-da725c444db6"},"vehicle_type_id":"4","last_reported":1721491721,"current_range_meters":22000,"station_id":"ce4bhch2rcd13ifvqeug","pricing_plan_id":"cebpf4jnsgd1na2vs0mg"},{"bike_id":"d5352a62-2b30-446d-b5f8-feb8ae344e47","system_id":"levelo_inurba_marseille","lat":43.285856,"lon":5.350771,"is_reserved":false,"is_disabled":false,"rental_uris":{"android":"levelo://app?vid=d5352a62-2b30-446d-b5f8-feb8ae344e47","ios":"levelo://app?vid=d5352a62-2b30-446d-b5f8-feb8ae344e47"},"vehicle_type_id":"4","last_reported":1721491721,"current_range_meters":27600,"station_id":"ce4bhch2rcd13ifvqeug","pricing_plan_id":"cebpf4jnsgd1na2vs0mg"},{"bike_id":"d6bea9d5-619c-4f89-afa8-c1acd1e549c2","system_id":"levelo_inurba_marseille","lat":43.286192,"lon":5.351,"is_reserved":false,"is_disabled":false,"rental_uris":{"android":"levelo://app?vid=d6bea9d5-619c-4f89-afa8-c1acd1e549c2","ios":"levelo://app?vid=d6bea9d5-619c-4f89-afa8-c1acd1e549c2"},"vehicle_type_id":"4","last_reported":1721491721,"current_range_meters":10400,"station_id":"ce4bhch2rcd13ifvqeug","pricing_plan_id":"cebpf4jnsgd1na2vs0mg"},{"bike_id":"d42fb5ae-30de-4b2f-b450-7c6b84e963e8","system_id":"levelo_inurba_marseille","lat":43.28617,"lon":5.35104,"is_reserved":false,"is_disabled":false,"rental_uris":{"android":"levelo://app?vid=d42fb5ae-30de-4b2f-b450-7c6b84e963e8","ios":"levelo://app?vid=d42fb5ae-30de-4b2f-b450-7c6b84e963e8"},"vehicle_type_id":"4","last_reported":1721491721,"current_range_meters":20400,"station_id":"ce4bhch2rcd13ifvqeug","pricing_plan_id":"cebpf4jnsgd1na2vs0mg"},{"bike_id":"6c052909-67e3-4426-ab2c-118892457f01","system_id":"levelo_inurba_marseille","lat":43.28617,"lon":5.35104,"is_reserved":false,"is_disabled":false,"rental_uris":{"android":"levelo://app?vid=6c052909-67e3-4426-ab2c-118892457f01","ios":"levelo://app?vid=6c052909-67e3-4426-ab2c-118892457f01"},"vehicle_type_id":"4","last_reported":1721491721,"current_range_meters":6400,"station_id":"ce4bhch2rcd13ifvqeug","pricing_plan_id":"cebpf4jnsgd1na2vs0mg"},{"bike_id":"17fbad96-7af5-470a-90e0-e7550d06a653","system_id":"levelo_inurba_marseille","lat":43.28615,"lon":5.35106,"is_reserved":false,"is_disabled":false,"rental_uris":{"android":"levelo://app?vid=17fbad96-7af5-470a-90e0-e7550d06a653","ios":"levelo://app?vid=17fbad96-7af5-470a-90e0-e7550d06a653"},"vehicle_type_id":"4","last_reported":1721491721,"current_range_meters":0,"station_id":"ce4bhch2rcd13ifvqeug","pricing_plan_id":"cebpf4jnsgd1na2vs0mg"},{"bike_id":"97e97ee9-3801-42b6-9964-89f197375b55","system_id":"levelo_inurba_marseille","lat":43.290104,"lon":5.356111,"is_reserved":false,"is_disabled":false,"rental_uris":{"android":"levelo://app?vid=97e97ee9-3801-42b6-9964-89f197375b55","ios":"levelo://app?vid=97e97ee9-3801-42b6-9964-89f197375b55"},"vehicle_type_id":"4","last_reported":1721491721,"current_range_meters":23200,"station_id":"ce4bhb92rcd13ifvqen0","pricing_plan_id":"cebpf4jnsgd1na2vs0mg"},{"bike_id":"244c06e6-b40a-4606-9f00-74276befab60","system_id":"levelo_inurba_marseille","lat":43.286177,"lon":5.350973,"is_reserved":false,"is_disabled":false,"rental_uris":{"android":"levelo://app?vid=244c06e6-b40a-4606-9f00-74276befab60","ios":"levelo://app?vid=244c06e6-b40a-4606-9f00-74276befab60"},"vehicle_type_id":"4","last_reported":1721491721,"current_range_meters":0,"station_id":"ce4bhch2rcd13ifvqeug","pricing_plan_id":"cebpf4jnsgd1na2vs0mg"},{"bike_id":"076815e0-1e69-48e9-9b26-94cd7c2c55df","system_id":"levelo_inurba_marseille","lat":43.285848,"lon":5.350787,"is_reserved":false,"is_disabled":false,"rental_uris":{"android":"levelo://app?vid=076815e0-1e69-48e9-9b26-94cd7c2c55df","ios":"levelo://app?vid=076815e0-1e69-48e9-9b26-94cd7c2c55df"},"vehicle_type_id":"4","last_reported":1721491721,"current_range_meters":0,"station_id":"ce4bhch2rcd13ifvqeug","pricing_plan_id":"cebpf4jnsgd1na2vs0mg"},{"bike_id":"5fb16610-5eb9-420a-8a95-9d6a976e6d89","system_id":"levelo_inurba_marseille","lat":43.28614,"lon":5.35099,"is_reserved":false,"is_disabled":false,"rental_uris":{"android":"levelo://app?vid=5fb16610-5eb9-420a-8a95-9d6a976e6d89","ios":"levelo://app?vid=5fb16610-5eb9-420a-8a95-9d6a976e6d89"},"vehicle_type_id":"4","last_reported":1721491721,"current_range_meters":20000,"station_id":"ce4bhch2rcd13ifvqeug","pricing_plan_id":"cebpf4jnsgd1na2vs0mg"},{"bike_id":"401bdb59-1b52-416a-8d96-aa151bb02950","system_id":"levelo_inurba_marseille","lat":43.285856,"lon":5.350771,"is_reserved":false,"is_disabled":false,"rental_uris":{"android":"levelo://app?vid=401bdb59-1b52-416a-8d96-aa151bb02950","ios":"levelo://app?vid=401bdb59-1b52-416a-8d96-aa151bb02950"},"vehicle_type_id":"4","last_reported":1721491721,"current_range_meters":2400,"station_id":"ce4bhch2rcd13ifvqeug","pricing_plan_id":"cebpf4jnsgd1na2vs0mg"},{"bike_id":"7898cf88-af53-4bf1-a9d9-3f259e5f11c5","system_id":"levelo_inurba_marseille","lat":43.28611,"lon":5.35102,"is_reserved":false,"is_disabled":false,"rental_uris":{"android":"levelo://app?vid=7898cf88-af53-4bf1-a9d9-3f259e5f11c5","ios":"levelo://app?vid=7898cf88-af53-4bf1-a9d9-3f259e5f11c5"},"vehicle_type_id":"4","last_reported":1721491721,"current_range_meters":21600,"station_id":"ce4bhch2rcd13ifvqeug","pricing_plan_id":"cebpf4jnsgd1na2vs0mg"},{"bike_id":"7ca2d8bb-becb-40b3-8d52-72259a6612ef","system_id":"levelo_inurba_marseille","lat":43.287593,"lon":5.386917,"is_reserved":false,"is_disabled":false,"rental_uris":{"android":"levelo://app?vid=7ca2d8bb-becb-40b3-8d52-72259a6612ef","ios":"levelo://app?vid=7ca2d8bb-becb-40b3-8d52-72259a6612ef"},"vehicle_type_id":"4","last_reported":1721491721,"current_range_meters":14000,"station_id":"","pricing_plan_id":"cebpf4jnsgd1na2vs0mg"},{"bike_id":"9cf94f1d-5c8f-488d-86f2-19277e6f8fe0","system_id":"levelo_inurba_marseille","lat":43.285856,"lon":5.350771,"is_reserved":false,"is_disabled":false,"rental_uris":{"android":"levelo://app?vid=9cf94f1d-5c8f-488d-86f2-19277e6f8fe0","ios":"levelo://app?vid=9cf94f1d-5c8f-488d-86f2-19277e6f8fe0"},"vehicle_type_id":"4","last_reported":1721491721,"current_range_meters":12800,"station_id":"ce4bhch2rcd13ifvqeug","pricing_plan_id":"cebpf4jnsgd1na2vs0mg"},{"bike_id":"5b969f05-207e-4a19-ab66-f49b3b358a0f","system_id":"levelo_inurba_marseille","lat":43.295713,"lon":5.399639,"is_reserved":false,"is_disabled":false,"rental_uris":{"android":"levelo://app?vid=5b969f05-207e-4a19-ab66-f49b3b358a0f","ios":"levelo://app?vid=5b969f05-207e-4a19-ab66-f49b3b358a0f"},"vehicle_type_id":"4","last_reported":1721491721,"current_range_meters":15600,"station_id":"ce4bh312rcd13ifvqdj0","pricing_plan_id":"cebpf4jnsgd1na2vs0mg"},{"bike_id":"e4d6229d-ba6f-4870-9e19-a05183cf18a9","system_id":"levelo_inurba_marseille","lat":43.28411,"lon":5.37505,"is_reserved":false,"is_disabled":false,"rental_uris":{"android":"levelo://app?vid=e4d6229d-ba6f-4870-9e19-a05183cf18a9","ios":"levelo://app?vid=e4d6229d-ba6f-4870-9e19-a05183cf18a9"},"vehicle_type_id":"4","last_reported":1721491721,"current_range_meters":0,"station_id":"ce4bh412rcd13ifvqds0","pricing_plan_id":"cebpf4jnsgd1na2vs0mg"},{"bike_id":"4bf008c0-db72-4d97-9678-c0b41ae15885","system_id":"levelo_inurba_marseille","lat":43.28411,"lon":5.37513,"is_reserved":false,"is_disabled":false,"rental_uris":{"android":"levelo://app?vid=4bf008c0-db72-4d97-9678-c0b41ae15885","ios":"levelo://app?vid=4bf008c0-db72-4d97-9678-c0b41ae15885"},"vehicle_type_id":"4","last_reported":1721491721,"current_range_meters":12000,"station_id":"","pricing_plan_id":"cebpf4jnsgd1na2vs0mg"},{"bike_id":"fb2f170a-90d3-4d6a-8d29-c7ec894a8a21","system_id":"levelo_inurba_marseille","lat":43.283998,"lon":5.375062,"is_reserved":false,"is_disabled":false,"rental_uris":{"android":"levelo://app?vid=fb2f170a-90d3-4d6a-8d29-c7ec894a8a21","ios":"levelo://app?vid=fb2f170a-90d3-4d6a-8d29-c7ec894a8a21"},"vehicle_type_id":"4","last_reported":1721491721,"current_range_meters":0,"station_id":"ce4bh412rcd13ifvqds0","pricing_plan_id":"cebpf4jnsgd1na2vs0mg"},{"bike_id":"ae6b3b29-362d-40e7-a908-8d1aa5535f5e","system_id":"levelo_inurba_marseille","lat":43.295713,"lon":5.399639,"is_reserved":false,"is_disabled":false,"rental_uris":{"android":"levelo://app?vid=ae6b3b29-362d-40e7-a908-8d1aa5535f5e","ios":"levelo://app?vid=ae6b3b29-362d-40e7-a908-8d1aa5535f5e"},"vehicle_type_id":"4","last_reported":1721491721,"current_range_meters":6000,"station_id":"ce4bh312rcd13ifvqdj0","pricing_plan_id":"cebpf4jnsgd1na2vs0mg"},{"bike_id":"a87e7687-1318-425b-9e89-49531d8a77bd","system_id":"levelo_inurba_marseille","lat":43.295713,"lon":5.399639,"is_reserved":false,"is_disabled":false,"rental_uris":{"android":"levelo://app?vid=a87e7687-1318-425b-9e89-49531d8a77bd","ios":"levelo://app?vid=a87e7687-1318-425b-9e89-49531d8a77bd"},"vehicle_type_id":"4","last_reported":1721491721,"current_range_meters":8400,"station_id":"ce4bh312rcd13ifvqdj0","pricing_plan_id":"cebpf4jnsgd1na2vs0mg"},{"bike_id":"e0a6e7d5-8838-4df8-9aa9-036a229fcac3","system_id":"levelo_inurba_marseille","lat":43.295713,"lon":5.399639,"is_reserved":false,"is_disabled":false,"rental_uris":{"android":"levelo://app?vid=e0a6e7d5-8838-4df8-9aa9-036a229fcac3","ios":"levelo://app?vid=e0a6e7d5-8838-4df8-9aa9-036a229fcac3"},"vehicle_type_id":"4","last_reported":1721491721,"current_range_meters":15600,"station_id":"ce4bh312rcd13ifvqdj0","pricing_plan_id":"cebpf4jnsgd1na2vs0mg"},{"bike_id":"e402dc1b-e401-4803-b2a3-db1d26de4c10","system_id":"levelo_inurba_marseille","lat":43.283998,"lon":5.375062,"is_reserved":false,"is_disabled":false,"rental_uris":{"android":"levelo://app?vid=e402dc1b-e401-4803-b2a3-db1d26de4c10","ios":"levelo://app?vid=e402dc1b-e401-4803-b2a3-db1d26de4c10"},"vehicle_type_id":"4","last_reported":1721491721,"current_range_meters":5600,"station_id":"ce4bh412rcd13ifvqds0","pricing_plan_id":"cebpf4jnsgd1na2vs0mg"},{"bike_id":"b517262a-1eb0-43bc-93b1-615ca01f6b28","system_id":"levelo_inurba_marseille","lat":43.28685,"lon":5.38674,"is_reserved":false,"is_disabled":false,"rental_uris":{"android":"levelo://app?vid=b517262a-1eb0-43bc-93b1-615ca01f6b28","ios":"levelo://app?vid=b517262a-1eb0-43bc-93b1-615ca01f6b28"},"vehicle_type_id":"4","last_reported":1721491721,"current_range_meters":0,"station_id":"ce4bh492rcd13ifvqdug","pricing_plan_id":"cebpf4jnsgd1na2vs0mg"},{"bike_id":"d0107bf5-a9d4-43f4-a580-fce18f86ae99","system_id":"levelo_inurba_marseille","lat":43.337168,"lon":5.391825,"is_reserved":false,"is_disabled":false,"rental_uris":{"android":"levelo://app?vid=d0107bf5-a9d4-43f4-a580-fce18f86ae99","ios":"levelo://app?vid=d0107bf5-a9d4-43f4-a580-fce18f86ae99"},"vehicle_type_id":"4","last_reported":1721491721,"current_range_meters":18000,"station_id":"ce4bhr92rcd13ifvqhsg","pricing_plan_id":"cebpf4jnsgd1na2vs0mg"},{"bike_id":"ec235799-6669-479c-8706-11a9308baef0","system_id":"levelo_inurba_marseille","lat":43.323464,"lon":5.406297,"is_reserved":false,"is_disabled":false,"rental_uris":{"android":"levelo://app?vid=ec235799-6669-479c-8706-11a9308baef0","ios":"levelo://app?vid=ec235799-6669-479c-8706-11a9308baef0"},"vehicle_type_id":"4","last_reported":1721491721,"current_range_meters":6800,"station_id":"ce4bhq92rcd13ifvqhjg","pricing_plan_id":"cebpf4jnsgd1na2vs0mg"},{"bike_id":"71086ea9-c016-4ae1-88af-cda758842a85","system_id":"levelo_inurba_marseille","lat":43.28431,"lon":5.34991,"is_reserved":false,"is_disabled":false,"rental_uris":{"android":"levelo://app?vid=71086ea9-c016-4ae1-88af-cda758842a85","ios":"levelo://app?vid=71086ea9-c016-4ae1-88af-cda758842a85"},"vehicle_type_id":"4","last_reported":1721491721,"current_range_meters":18400,"station_id":"ce4bhbh2rcd13ifvqepg","pricing_plan_id":"cebpf4jnsgd1na2vs0mg"},{"bike_id":"a2f221a3-318b-41c6-a945-a896b25c3921","system_id":"levelo_inurba_marseille","lat":43.284776,"lon":5.385603,"is_reserved":false,"is_disabled":false,"rental_uris":{"android":"levelo://app?vid=a2f221a3-318b-41c6-a945-a896b25c3921","ios":"levelo://app?vid=a2f221a3-318b-41c6-a945-a896b25c3921"},"vehicle_type_id":"4","last_reported":1721491721,"current_range_meters":0,"station_id":"ce4bh8p2rcd13ifvqeb0","pricing_plan_id":"cebpf4jnsgd1na2vs0mg"},{"bike_id":"d6a286de-a7c3-4960-abd7-4524eeba0f15","system_id":"levelo_inurba_marseille","lat":43.2843,"lon":5.34989,"is_reserved":false,"is_disabled":false,"rental_uris":{"android":"levelo://app?vid=d6a286de-a7c3-4960-abd7-4524eeba0f15","ios":"levelo://app?vid=d6a286de-a7c3-4960-abd7-4524eeba0f15"},"vehicle_type_id":"4","last_reported":1721491721,"current_range_meters":31200,"station_id":"ce4bhbh2rcd13ifvqepg","pricing_plan_id":"cebpf4jnsgd1na2vs0mg"},{"bike_id":"d4c7898b-5a53-4244-a15b-ce838f0e8c77","system_id":"levelo_inurba_marseille","lat":43.284283,"lon":5.349873,"is_reserved":false,"is_disabled":false,"rental_uris":{"android":"levelo://app?vid=d4c7898b-5a53-4244-a15b-ce838f0e8c77","ios":"levelo://app?vid=d4c7898b-5a53-4244-a15b-ce838f0e8c77"},"vehicle_type_id":"4","last_reported":1721491721,"current_range_meters":9600,"station_id":"ce4bhbh2rcd13ifvqepg","pricing_plan_id":"cebpf4jnsgd1na2vs0mg"},{"bike_id":"5f02eccc-2a4b-4724-8f27-f28747f333a1","system_id":"levelo_inurba_marseille","lat":43.28426,"lon":5.34994,"is_reserved":false,"is_disabled":false,"rental_uris":{"android":"levelo://app?vid=5f02eccc-2a4b-4724-8f27-f28747f333a1","ios":"levelo://app?vid=5f02eccc-2a4b-4724-8f27-f28747f333a1"},"vehicle_type_id":"4","last_reported":1721491721,"current_range_meters":9200,"station_id":"ce4bhbh2rcd13ifvqepg","pricing_plan_id":"cebpf4jnsgd1na2vs0mg"},{"bike_id":"6f2e1312-dc44-42cc-a8cd-e3b8281589e4","system_id":"levelo_inurba_marseille","lat":43.28427,"lon":5.34989,"is_reserved":false,"is_disabled":false,"rental_uris":{"android":"levelo://app?vid=6f2e1312-dc44-42cc-a8cd-e3b8281589e4","ios":"levelo://app?vid=6f2e1312-dc44-42cc-a8cd-e3b8281589e4"},"vehicle_type_id":"4","last_reported":1721491721,"current_range_meters":22000,"station_id":"ce4bhbh2rcd13ifvqepg","pricing_plan_id":"cebpf4jnsgd1na2vs0mg"},{"bike_id":"6a0a4a90-4db4-4c26-ad3f-6778c207252a","system_id":"levelo_inurba_marseille","lat":43.284219,"lon":5.3497,"is_reserved":false,"is_disabled":false,"rental_uris":{"android":"levelo://app?vid=6a0a4a90-4db4-4c26-ad3f-6778c207252a","ios":"levelo://app?vid=6a0a4a90-4db4-4c26-ad3f-6778c207252a"},"vehicle_type_id":"4","last_reported":1721491721,"current_range_meters":30800,"station_id":"ce4bhbh2rcd13ifvqepg","pricing_plan_id":"cebpf4jnsgd1na2vs0mg"},{"bike_id":"7ec1fb0f-b7ed-44f5-a7f6-9ad5f7468140","system_id":"levelo_inurba_marseille","lat":43.284217,"lon":5.349697,"is_reserved":false,"is_disabled":false,"rental_uris":{"android":"levelo://app?vid=7ec1fb0f-b7ed-44f5-a7f6-9ad5f7468140","ios":"levelo://app?vid=7ec1fb0f-b7ed-44f5-a7f6-9ad5f7468140"},"vehicle_type_id":"4","last_reported":1721491721,"current_range_meters":7600,"station_id":"ce4bhbh2rcd13ifvqepg","pricing_plan_id":"cebpf4jnsgd1na2vs0mg"},{"bike_id":"c7980e6e-37e1-4933-aae8-ba982ffaca3e","system_id":"levelo_inurba_marseille","lat":43.28425,"lon":5.34987,"is_reserved":false,"is_disabled":false,"rental_uris":{"android":"levelo://app?vid=c7980e6e-37e1-4933-aae8-ba982ffaca3e","ios":"levelo://app?vid=c7980e6e-37e1-4933-aae8-ba982ffaca3e"},"vehicle_type_id":"4","last_reported":1721491721,"current_range_meters":0,"station_id":"ce4bhbh2rcd13ifvqepg","pricing_plan_id":"cebpf4jnsgd1na2vs0mg"},{"bike_id":"072c1bed-bcb7-4c8f-b061-a1bf0b1f4ce1","system_id":"levelo_inurba_marseille","lat":43.284219,"lon":5.3497,"is_reserved":false,"is_disabled":false,"rental_uris":{"android":"levelo://app?vid=072c1bed-bcb7-4c8f-b061-a1bf0b1f4ce1","ios":"levelo://app?vid=072c1bed-bcb7-4c8f-b061-a1bf0b1f4ce1"},"vehicle_type_id":"4","last_reported":1721491721,"current_range_meters":10400,"station_id":"ce4bhbh2rcd13ifvqepg","pricing_plan_id":"cebpf4jnsgd1na2vs0mg"},{"bike_id":"c23cc35c-6b8f-4081-9516-123e55d83826","system_id":"levelo_inurba_marseille","lat":43.284219,"lon":5.3497,"is_reserved":false,"is_disabled":false,"rental_uris":{"android":"levelo://app?vid=c23cc35c-6b8f-4081-9516-123e55d83826","ios":"levelo://app?vid=c23cc35c-6b8f-4081-9516-123e55d83826"},"vehicle_type_id":"4","last_reported":1721491721,"current_range_meters":28800,"station_id":"ce4bhbh2rcd13ifvqepg","pricing_plan_id":"cebpf4jnsgd1na2vs0mg"},{"bike_id":"6476bca7-0c7d-42f2-a802-7801b5d9529d","system_id":"levelo_inurba_marseille","lat":43.284219,"lon":5.3497,"is_reserved":false,"is_disabled":false,"rental_uris":{"android":"levelo://app?vid=6476bca7-0c7d-42f2-a802-7801b5d9529d","ios":"levelo://app?vid=6476bca7-0c7d-42f2-a802-7801b5d9529d"},"vehicle_type_id":"4","last_reported":1721491721,"current_range_meters":18800,"station_id":"ce4bhbh2rcd13ifvqepg","pricing_plan_id":"cebpf4jnsgd1na2vs0mg"},{"bike_id":"c0c38274-5e3e-45a4-bf8d-5735f01948f1","system_id":"levelo_inurba_marseille","lat":43.284217,"lon":5.349697,"is_reserved":false,"is_disabled":false,"rental_uris":{"android":"levelo://app?vid=c0c38274-5e3e-45a4-bf8d-5735f01948f1","ios":"levelo://app?vid=c0c38274-5e3e-45a4-bf8d-5735f01948f1"},"vehicle_type_id":"4","last_reported":1721491721,"current_range_meters":18000,"station_id":"ce4bhbh2rcd13ifvqepg","pricing_plan_id":"cebpf4jnsgd1na2vs0mg"},{"bike_id":"88be8769-29ed-4d63-9b1f-49c87e59743c","system_id":"levelo_inurba_marseille","lat":43.284213,"lon":5.349896,"is_reserved":false,"is_disabled":false,"rental_uris":{"android":"levelo://app?vid=88be8769-29ed-4d63-9b1f-49c87e59743c","ios":"levelo://app?vid=88be8769-29ed-4d63-9b1f-49c87e59743c"},"vehicle_type_id":"4","last_reported":1721491721,"current_range_meters":6800,"station_id":"","pricing_plan_id":"cebpf4jnsgd1na2vs0mg"},{"bike_id":"18114a27-01ef-4ec9-bc74-aa236687e817","system_id":"levelo_inurba_marseille","lat":43.28421,"lon":5.3499,"is_reserved":false,"is_disabled":false,"rental_uris":{"android":"levelo://app?vid=18114a27-01ef-4ec9-bc74-aa236687e817","ios":"levelo://app?vid=18114a27-01ef-4ec9-bc74-aa236687e817"},"vehicle_type_id":"4","last_reported":1721491721,"current_range_meters":17600,"station_id":"ce4bhbh2rcd13ifvqepg","pricing_plan_id":"cebpf4jnsgd1na2vs0mg"},{"bike_id":"b72a8623-1f43-4425-8f1d-cd1392586eff","system_id":"levelo_inurba_marseille","lat":43.284219,"lon":5.3497,"is_reserved":false,"is_disabled":false,"rental_uris":{"android":"levelo://app?vid=b72a8623-1f43-4425-8f1d-cd1392586eff","ios":"levelo://app?vid=b72a8623-1f43-4425-8f1d-cd1392586eff"},"vehicle_type_id":"4","last_reported":1721491721,"current_range_meters":9200,"station_id":"ce4bhbh2rcd13ifvqepg","pricing_plan_id":"cebpf4jnsgd1na2vs0mg"},{"bike_id":"2a161412-6cbc-42b0-b7c4-5a1b3ed23455","system_id":"levelo_inurba_marseille","lat":43.284219,"lon":5.3497,"is_reserved":false,"is_disabled":false,"rental_uris":{"android":"levelo://app?vid=2a161412-6cbc-42b0-b7c4-5a1b3ed23455","ios":"levelo://app?vid=2a161412-6cbc-42b0-b7c4-5a1b3ed23455"},"vehicle_type_id":"4","last_reported":1721491721,"current_range_meters":26800,"station_id":"ce4bhbh2rcd13ifvqepg","pricing_plan_id":"cebpf4jnsgd1na2vs0mg"},{"bike_id":"9dc9c6f5-7fec-45a0-a783-b7f117fde958","system_id":"levelo_inurba_marseille","lat":43.28419,"lon":5.34992,"is_reserved":false,"is_disabled":false,"rental_uris":{"android":"levelo://app?vid=9dc9c6f5-7fec-45a0-a783-b7f117fde958","ios":"levelo://app?vid=9dc9c6f5-7fec-45a0-a783-b7f117fde958"},"vehicle_type_id":"4","last_reported":1721491721,"current_range_meters":22400,"station_id":"ce4bhbh2rcd13ifvqepg","pricing_plan_id":"cebpf4jnsgd1na2vs0mg"},{"bike_id":"68227a07-a454-4c11-b102-de55354c8095","system_id":"levelo_inurba_marseille","lat":43.28421,"lon":5.34985,"is_reserved":false,"is_disabled":false,"rental_uris":{"android":"levelo://app?vid=68227a07-a454-4c11-b102-de55354c8095","ios":"levelo://app?vid=68227a07-a454-4c11-b102-de55354c8095"},"vehicle_type_id":"4","last_reported":1721491721,"current_range_meters":12000,"station_id":"ce4bhbh2rcd13ifvqepg","pricing_plan_id":"cebpf4jnsgd1na2vs0mg"},{"bike_id":"71ebfac9-3027-41c2-98fb-1a513de8d09d","system_id":"levelo_inurba_marseille","lat":43.284217,"lon":5.349697,"is_reserved":false,"is_disabled":false,"rental_uris":{"android":"levelo://app?vid=71ebfac9-3027-41c2-98fb-1a513de8d09d","ios":"levelo://app?vid=71ebfac9-3027-41c2-98fb-1a513de8d09d"},"vehicle_type_id":"4","last_reported":1721491721,"current_range_meters":32000,"station_id":"ce4bhbh2rcd13ifvqepg","pricing_plan_id":"cebpf4jnsgd1na2vs0mg"},{"bike_id":"79335ce3-4608-4c7e-8928-de9029daae97","system_id":"levelo_inurba_marseille","lat":43.28421,"lon":5.34981,"is_reserved":false,"is_disabled":false,"rental_uris":{"android":"levelo://app?vid=79335ce3-4608-4c7e-8928-de9029daae97","ios":"levelo://app?vid=79335ce3-4608-4c7e-8928-de9029daae97"},"vehicle_type_id":"4","last_reported":1721491721,"current_range_meters":0,"station_id":"ce4bhbh2rcd13ifvqepg","pricing_plan_id":"cebpf4jnsgd1na2vs0mg"},{"bike_id":"f809560b-fb65-4015-9e10-8591b87b95b2","system_id":"levelo_inurba_marseille","lat":43.284219,"lon":5.3497,"is_reserved":false,"is_disabled":false,"rental_uris":{"android":"levelo://app?vid=f809560b-fb65-4015-9e10-8591b87b95b2","ios":"levelo://app?vid=f809560b-fb65-4015-9e10-8591b87b95b2"},"vehicle_type_id":"4","last_reported":1721491721,"current_range_meters":28000,"station_id":"ce4bhbh2rcd13ifvqepg","pricing_plan_id":"cebpf4jnsgd1na2vs0mg"},{"bike_id":"e4ab1160-8d01-4874-98cf-ac28f851e419","system_id":"levelo_inurba_marseille","lat":43.28423,"lon":5.34974,"is_reserved":false,"is_disabled":false,"rental_uris":{"android":"levelo://app?vid=e4ab1160-8d01-4874-98cf-ac28f851e419","ios":"levelo://app?vid=e4ab1160-8d01-4874-98cf-ac28f851e419"},"vehicle_type_id":"4","last_reported":1721491721,"current_range_meters":10400,"station_id":"ce4bhbh2rcd13ifvqepg","pricing_plan_id":"cebpf4jnsgd1na2vs0mg"},{"bike_id":"96cef790-44b6-442f-9183-20b4541da7ef","system_id":"levelo_inurba_marseille","lat":43.284205,"lon":5.349811,"is_reserved":false,"is_disabled":false,"rental_uris":{"android":"levelo://app?vid=96cef790-44b6-442f-9183-20b4541da7ef","ios":"levelo://app?vid=96cef790-44b6-442f-9183-20b4541da7ef"},"vehicle_type_id":"4","last_reported":1721491721,"current_range_meters":0,"station_id":"ce4bhbh2rcd13ifvqepg","pricing_plan_id":"cebpf4jnsgd1na2vs0mg"},{"bike_id":"b1087de5-b140-4c08-88cd-beabdd84f9a9","system_id":"levelo_inurba_marseille","lat":43.2842,"lon":5.34982,"is_reserved":false,"is_disabled":false,"rental_uris":{"android":"levelo://app?vid=b1087de5-b140-4c08-88cd-beabdd84f9a9","ios":"levelo://app?vid=b1087de5-b140-4c08-88cd-beabdd84f9a9"},"vehicle_type_id":"4","last_reported":1721491721,"current_range_meters":16800,"station_id":"ce4bhbh2rcd13ifvqepg","pricing_plan_id":"cebpf4jnsgd1na2vs0mg"},{"bike_id":"e2ac0a54-973b-4802-9a8b-672c4f8eee49","system_id":"levelo_inurba_marseille","lat":43.284193,"lon":5.349829,"is_reserved":false,"is_disabled":false,"rental_uris":{"android":"levelo://app?vid=e2ac0a54-973b-4802-9a8b-672c4f8eee49","ios":"levelo://app?vid=e2ac0a54-973b-4802-9a8b-672c4f8eee49"},"vehicle_type_id":"4","last_reported":1721491721,"current_range_meters":16000,"station_id":"ce4bhbh2rcd13ifvqepg","pricing_plan_id":"cebpf4jnsgd1na2vs0mg"},{"bike_id":"6379f4b3-6e36-427e-8b0a-9cf7f8538ad5","system_id":"levelo_inurba_marseille","lat":43.28419,"lon":5.349833,"is_reserved":false,"is_disabled":false,"rental_uris":{"android":"levelo://app?vid=6379f4b3-6e36-427e-8b0a-9cf7f8538ad5","ios":"levelo://app?vid=6379f4b3-6e36-427e-8b0a-9cf7f8538ad5"},"vehicle_type_id":"4","last_reported":1721491721,"current_range_meters":31200,"station_id":"ce4bhbh2rcd13ifvqepg","pricing_plan_id":"cebpf4jnsgd1na2vs0mg"},{"bike_id":"68a259a8-31c6-4ee4-9149-29140eb72ad7","system_id":"levelo_inurba_marseille","lat":43.284217,"lon":5.349697,"is_reserved":false,"is_disabled":false,"rental_uris":{"android":"levelo://app?vid=68a259a8-31c6-4ee4-9149-29140eb72ad7","ios":"levelo://app?vid=68a259a8-31c6-4ee4-9149-29140eb72ad7"},"vehicle_type_id":"4","last_reported":1721491721,"current_range_meters":22000,"station_id":"ce4bhbh2rcd13ifvqepg","pricing_plan_id":"cebpf4jnsgd1na2vs0mg"},{"bike_id":"30022924-d539-46bc-9007-e6c2d21e813a","system_id":"levelo_inurba_marseille","lat":43.28416,"lon":5.34988,"is_reserved":false,"is_disabled":false,"rental_uris":{"android":"levelo://app?vid=30022924-d539-46bc-9007-e6c2d21e813a","ios":"levelo://app?vid=30022924-d539-46bc-9007-e6c2d21e813a"},"vehicle_type_id":"4","last_reported":1721491721,"current_range_meters":19200,"station_id":"ce4bhbh2rcd13ifvqepg","pricing_plan_id":"cebpf4jnsgd1na2vs0mg"},{"bike_id":"cd5c6a30-6408-422f-9bd7-331c5ca0ad45","system_id":"levelo_inurba_marseille","lat":43.284214,"lon":5.349706,"is_reserved":false,"is_disabled":false,"rental_uris":{"android":"levelo://app?vid=cd5c6a30-6408-422f-9bd7-331c5ca0ad45","ios":"levelo://app?vid=cd5c6a30-6408-422f-9bd7-331c5ca0ad45"},"vehicle_type_id":"4","last_reported":1721491721,"current_range_meters":12000,"station_id":"ce4bhbh2rcd13ifvqepg","pricing_plan_id":"cebpf4jnsgd1na2vs0mg"},{"bike_id":"1c07e0de-1732-4e72-abb4-20b9a609e379","system_id":"levelo_inurba_marseille","lat":43.28414,"lon":5.34984,"is_reserved":false,"is_disabled":false,"rental_uris":{"android":"levelo://app?vid=1c07e0de-1732-4e72-abb4-20b9a609e379","ios":"levelo://app?vid=1c07e0de-1732-4e72-abb4-20b9a609e379"},"vehicle_type_id":"4","last_reported":1721491721,"current_range_meters":16000,"station_id":"ce4bhbh2rcd13ifvqepg","pricing_plan_id":"cebpf4jnsgd1na2vs0mg"},{"bike_id":"b009a377-06b3-4915-8ff1-55ef41fe86b9","system_id":"levelo_inurba_marseille","lat":43.284214,"lon":5.349706,"is_reserved":false,"is_disabled":false,"rental_uris":{"android":"levelo://app?vid=b009a377-06b3-4915-8ff1-55ef41fe86b9","ios":"levelo://app?vid=b009a377-06b3-4915-8ff1-55ef41fe86b9"},"vehicle_type_id":"4","last_reported":1721491721,"current_range_meters":31200,"station_id":"ce4bhbh2rcd13ifvqepg","pricing_plan_id":"cebpf4jnsgd1na2vs0mg"},{"bike_id":"a71366e8-be96-41dc-8983-7b59301203ec","system_id":"levelo_inurba_marseille","lat":43.2841,"lon":5.34994,"is_reserved":false,"is_disabled":false,"rental_uris":{"android":"levelo://app?vid=a71366e8-be96-41dc-8983-7b59301203ec","ios":"levelo://app?vid=a71366e8-be96-41dc-8983-7b59301203ec"},"vehicle_type_id":"4","last_reported":1721491721,"current_range_meters":0,"station_id":"ce4bhbh2rcd13ifvqepg","pricing_plan_id":"cebpf4jnsgd1na2vs0mg"},{"bike_id":"05a3db44-636e-4f3a-91f4-4fa17ac26b0a","system_id":"levelo_inurba_marseille","lat":43.2841,"lon":5.34993,"is_reserved":false,"is_disabled":false,"rental_uris":{"android":"levelo://app?vid=05a3db44-636e-4f3a-91f4-4fa17ac26b0a","ios":"levelo://app?vid=05a3db44-636e-4f3a-91f4-4fa17ac26b0a"},"vehicle_type_id":"4","last_reported":1721491721,"current_range_meters":26400,"station_id":"ce4bhbh2rcd13ifvqepg","pricing_plan_id":"cebpf4jnsgd1na2vs0mg"},{"bike_id":"f28d2d68-a380-44c4-a92c-272e4ea74e56","system_id":"levelo_inurba_marseille","lat":43.284214,"lon":5.349706,"is_reserved":false,"is_disabled":false,"rental_uris":{"android":"levelo://app?vid=f28d2d68-a380-44c4-a92c-272e4ea74e56","ios":"levelo://app?vid=f28d2d68-a380-44c4-a92c-272e4ea74e56"},"vehicle_type_id":"4","last_reported":1721491721,"current_range_meters":20800,"station_id":"ce4bhbh2rcd13ifvqepg","pricing_plan_id":"cebpf4jnsgd1na2vs0mg"},{"bike_id":"0d66567f-80cc-48b6-885e-0d891682d7e8","system_id":"levelo_inurba_marseille","lat":43.28411,"lon":5.349837,"is_reserved":false,"is_disabled":false,"rental_uris":{"android":"levelo://app?vid=0d66567f-80cc-48b6-885e-0d891682d7e8","ios":"levelo://app?vid=0d66567f-80cc-48b6-885e-0d891682d7e8"},"vehicle_type_id":"4","last_reported":1721491721,"current_range_meters":20000,"station_id":"ce4bhbh2rcd13ifvqepg","pricing_plan_id":"cebpf4jnsgd1na2vs0mg"},{"bike_id":"7d890781-2f7e-4ac5-8513-f088bddd3026","system_id":"levelo_inurba_marseille","lat":43.284214,"lon":5.349706,"is_reserved":false,"is_disabled":false,"rental_uris":{"android":"levelo://app?vid=7d890781-2f7e-4ac5-8513-f088bddd3026","ios":"levelo://app?vid=7d890781-2f7e-4ac5-8513-f088bddd3026"},"vehicle_type_id":"4","last_reported":1721491721,"current_range_meters":25600,"station_id":"ce4bhbh2rcd13ifvqepg","pricing_plan_id":"cebpf4jnsgd1na2vs0mg"},{"bike_id":"50336615-cb40-4c20-90f6-0784dd991843","system_id":"levelo_inurba_marseille","lat":43.284214,"lon":5.349706,"is_reserved":false,"is_disabled":false,"rental_uris":{"android":"levelo://app?vid=50336615-cb40-4c20-90f6-0784dd991843","ios":"levelo://app?vid=50336615-cb40-4c20-90f6-0784dd991843"},"vehicle_type_id":"4","last_reported":1721491721,"current_range_meters":18400,"station_id":"ce4bhbh2rcd13ifvqepg","pricing_plan_id":"cebpf4jnsgd1na2vs0mg"},{"bike_id":"4b3d0945-3b6e-4a42-a4a6-79ec9911eba3","system_id":"levelo_inurba_marseille","lat":43.28411,"lon":5.34967,"is_reserved":false,"is_disabled":false,"rental_uris":{"android":"levelo://app?vid=4b3d0945-3b6e-4a42-a4a6-79ec9911eba3","ios":"levelo://app?vid=4b3d0945-3b6e-4a42-a4a6-79ec9911eba3"},"vehicle_type_id":"4","last_reported":1721491721,"current_range_meters":31200,"station_id":"ce4bhbh2rcd13ifvqepg","pricing_plan_id":"cebpf4jnsgd1na2vs0mg"},{"bike_id":"45a0d879-46b1-4d99-b200-bfdb067e502e","system_id":"levelo_inurba_marseille","lat":43.284067,"lon":5.3498,"is_reserved":false,"is_disabled":false,"rental_uris":{"android":"levelo://app?vid=45a0d879-46b1-4d99-b200-bfdb067e502e","ios":"levelo://app?vid=45a0d879-46b1-4d99-b200-bfdb067e502e"},"vehicle_type_id":"4","last_reported":1721491721,"current_range_meters":0,"station_id":"ce4bhbh2rcd13ifvqepg","pricing_plan_id":"cebpf4jnsgd1na2vs0mg"},{"bike_id":"6b1a9741-e438-4d4e-b574-438d4c35aed0","system_id":"levelo_inurba_marseille","lat":43.292644,"lon":5.384257,"is_reserved":false,"is_disabled":false,"rental_uris":{"android":"levelo://app?vid=6b1a9741-e438-4d4e-b574-438d4c35aed0","ios":"levelo://app?vid=6b1a9741-e438-4d4e-b574-438d4c35aed0"},"vehicle_type_id":"4","last_reported":1721491721,"current_range_meters":22000,"station_id":"ce4bh692rcd13ifvqea0","pricing_plan_id":"cebpf4jnsgd1na2vs0mg"},{"bike_id":"9b1d4fc4-1353-4495-9e86-f25a7a1925e3","system_id":"levelo_inurba_marseille","lat":43.292724,"lon":5.401131,"is_reserved":false,"is_disabled":false,"rental_uris":{"android":"levelo://app?vid=9b1d4fc4-1353-4495-9e86-f25a7a1925e3","ios":"levelo://app?vid=9b1d4fc4-1353-4495-9e86-f25a7a1925e3"},"vehicle_type_id":"4","last_reported":1721491721,"current_range_meters":2400,"station_id":"ce4bh312rcd13ifvqdk0","pricing_plan_id":"cebpf4jnsgd1na2vs0mg"},{"bike_id":"79970310-51f3-4974-9736-33226daebbc7","system_id":"levelo_inurba_marseille","lat":43.292724,"lon":5.401131,"is_reserved":false,"is_disabled":false,"rental_uris":{"android":"levelo://app?vid=79970310-51f3-4974-9736-33226daebbc7","ios":"levelo://app?vid=79970310-51f3-4974-9736-33226daebbc7"},"vehicle_type_id":"4","last_reported":1721491721,"current_range_meters":0,"station_id":"ce4bh312rcd13ifvqdk0","pricing_plan_id":"cebpf4jnsgd1na2vs0mg"},{"bike_id":"bb3ccf59-5e48-4e3d-b301-41a8b2888075","system_id":"levelo_inurba_marseille","lat":43.292724,"lon":5.401131,"is_reserved":false,"is_disabled":false,"rental_uris":{"android":"levelo://app?vid=bb3ccf59-5e48-4e3d-b301-41a8b2888075","ios":"levelo://app?vid=bb3ccf59-5e48-4e3d-b301-41a8b2888075"},"vehicle_type_id":"4","last_reported":1721491721,"current_range_meters":12400,"station_id":"ce4bh312rcd13ifvqdk0","pricing_plan_id":"cebpf4jnsgd1na2vs0mg"},{"bike_id":"491653d4-aedc-421b-9ab7-4ec3878490c6","system_id":"levelo_inurba_marseille","lat":43.282744,"lon":5.350533,"is_reserved":false,"is_disabled":false,"rental_uris":{"android":"levelo://app?vid=491653d4-aedc-421b-9ab7-4ec3878490c6","ios":"levelo://app?vid=491653d4-aedc-421b-9ab7-4ec3878490c6"},"vehicle_type_id":"4","last_reported":1721491721,"current_range_meters":12000,"station_id":"ce4bhbp2rcd13ifvqerg","pricing_plan_id":"cebpf4jnsgd1na2vs0mg"},{"bike_id":"f1d09fed-c9b8-40af-a494-3106e8d68899","system_id":"levelo_inurba_marseille","lat":43.28277,"lon":5.35086,"is_reserved":false,"is_disabled":false,"rental_uris":{"android":"levelo://app?vid=f1d09fed-c9b8-40af-a494-3106e8d68899","ios":"levelo://app?vid=f1d09fed-c9b8-40af-a494-3106e8d68899"},"vehicle_type_id":"4","last_reported":1721491721,"current_range_meters":4000,"station_id":"ce4bhbp2rcd13ifvqerg","pricing_plan_id":"cebpf4jnsgd1na2vs0mg"},{"bike_id":"bfd82aa6-aee3-4e00-89c7-c4e431c7f7a6","system_id":"levelo_inurba_marseille","lat":43.282728,"lon":5.350777,"is_reserved":false,"is_disabled":false,"rental_uris":{"android":"levelo://app?vid=bfd82aa6-aee3-4e00-89c7-c4e431c7f7a6","ios":"levelo://app?vid=bfd82aa6-aee3-4e00-89c7-c4e431c7f7a6"},"vehicle_type_id":"4","last_reported":1721491721,"current_range_meters":0,"station_id":"ce4bhbp2rcd13ifvqerg","pricing_plan_id":"cebpf4jnsgd1na2vs0mg"},{"bike_id":"97100034-ac94-45e8-bb20-2fd8968d28d9","system_id":"levelo_inurba_marseille","lat":43.282754,"lon":5.350519,"is_reserved":false,"is_disabled":false,"rental_uris":{"android":"levelo://app?vid=97100034-ac94-45e8-bb20-2fd8968d28d9","ios":"levelo://app?vid=97100034-ac94-45e8-bb20-2fd8968d28d9"},"vehicle_type_id":"4","last_reported":1721491721,"current_range_meters":15600,"station_id":"ce4bhbp2rcd13ifvqerg","pricing_plan_id":"cebpf4jnsgd1na2vs0mg"},{"bike_id":"d0ada120-e4eb-4e9a-90a7-3508c32083e7","system_id":"levelo_inurba_marseille","lat":43.28271,"lon":5.3507,"is_reserved":false,"is_disabled":false,"rental_uris":{"android":"levelo://app?vid=d0ada120-e4eb-4e9a-90a7-3508c32083e7","ios":"levelo://app?vid=d0ada120-e4eb-4e9a-90a7-3508c32083e7"},"vehicle_type_id":"4","last_reported":1721491721,"current_range_meters":31200,"station_id":"ce4bhbp2rcd13ifvqerg","pricing_plan_id":"cebpf4jnsgd1na2vs0mg"},{"bike_id":"59d9aae8-bee6-4a54-a159-cc0696a1fa85","system_id":"levelo_inurba_marseille","lat":43.28273,"lon":5.35062,"is_reserved":false,"is_disabled":false,"rental_uris":{"android":"levelo://app?vid=59d9aae8-bee6-4a54-a159-cc0696a1fa85","ios":"levelo://app?vid=59d9aae8-bee6-4a54-a159-cc0696a1fa85"},"vehicle_type_id":"4","last_reported":1721491721,"current_range_meters":14400,"station_id":"ce4bhbp2rcd13ifvqerg","pricing_plan_id":"cebpf4jnsgd1na2vs0mg"},{"bike_id":"927991d0-8e35-417f-8068-cb5bcbee5523","system_id":"levelo_inurba_marseille","lat":43.283502,"lon":5.386471,"is_reserved":false,"is_disabled":false,"rental_uris":{"android":"levelo://app?vid=927991d0-8e35-417f-8068-cb5bcbee5523","ios":"levelo://app?vid=927991d0-8e35-417f-8068-cb5bcbee5523"},"vehicle_type_id":"4","last_reported":1721491721,"current_range_meters":27200,"station_id":"ce4bh492rcd13ifvqdvg","pricing_plan_id":"cebpf4jnsgd1na2vs0mg"},{"bike_id":"d519fe70-ecbc-4fa8-bb73-da1e5b7de657","system_id":"levelo_inurba_marseille","lat":43.282754,"lon":5.350519,"is_reserved":false,"is_disabled":false,"rental_uris":{"android":"levelo://app?vid=d519fe70-ecbc-4fa8-bb73-da1e5b7de657","ios":"levelo://app?vid=d519fe70-ecbc-4fa8-bb73-da1e5b7de657"},"vehicle_type_id":"4","last_reported":1721491721,"current_range_meters":4400,"station_id":"ce4bhbp2rcd13ifvqerg","pricing_plan_id":"cebpf4jnsgd1na2vs0mg"},{"bike_id":"164fb1d7-577e-4232-89d4-77aadb05b665","system_id":"levelo_inurba_marseille","lat":43.28266,"lon":5.350703,"is_reserved":false,"is_disabled":false,"rental_uris":{"android":"levelo://app?vid=164fb1d7-577e-4232-89d4-77aadb05b665","ios":"levelo://app?vid=164fb1d7-577e-4232-89d4-77aadb05b665"},"vehicle_type_id":"4","last_reported":1721491721,"current_range_meters":0,"station_id":"ce4bhbp2rcd13ifvqerg","pricing_plan_id":"cebpf4jnsgd1na2vs0mg"},{"bike_id":"5e7fae91-8add-489d-b679-c925f19b3d23","system_id":"levelo_inurba_marseille","lat":43.282744,"lon":5.350533,"is_reserved":false,"is_disabled":false,"rental_uris":{"android":"levelo://app?vid=5e7fae91-8add-489d-b679-c925f19b3d23","ios":"levelo://app?vid=5e7fae91-8add-489d-b679-c925f19b3d23"},"vehicle_type_id":"4","last_reported":1721491721,"current_range_meters":0,"station_id":"ce4bhbp2rcd13ifvqerg","pricing_plan_id":"cebpf4jnsgd1na2vs0mg"},{"bike_id":"a5466000-c963-48a3-90bf-4776c36aab1d","system_id":"levelo_inurba_marseille","lat":43.282744,"lon":5.350533,"is_reserved":false,"is_disabled":false,"rental_uris":{"android":"levelo://app?vid=a5466000-c963-48a3-90bf-4776c36aab1d","ios":"levelo://app?vid=a5466000-c963-48a3-90bf-4776c36aab1d"},"vehicle_type_id":"4","last_reported":1721491721,"current_range_meters":10400,"station_id":"ce4bhbp2rcd13ifvqerg","pricing_plan_id":"cebpf4jnsgd1na2vs0mg"},{"bike_id":"3365df55-9f73-418f-941f-47d50e46217b","system_id":"levelo_inurba_marseille","lat":43.28039,"lon":5.369297,"is_reserved":false,"is_disabled":false,"rental_uris":{"android":"levelo://app?vid=3365df55-9f73-418f-941f-47d50e46217b","ios":"levelo://app?vid=3365df55-9f73-418f-941f-47d50e46217b"},"vehicle_type_id":"4","last_reported":1721491721,"current_range_meters":14000,"station_id":"ce4bha12rcd13ifvqef0","pricing_plan_id":"cebpf4jnsgd1na2vs0mg"},{"bike_id":"5317f4f3-805f-4eef-9449-cebf4751bd20","system_id":"levelo_inurba_marseille","lat":43.280382,"lon":5.369291,"is_reserved":false,"is_disabled":false,"rental_uris":{"android":"levelo://app?vid=5317f4f3-805f-4eef-9449-cebf4751bd20","ios":"levelo://app?vid=5317f4f3-805f-4eef-9449-cebf4751bd20"},"vehicle_type_id":"4","last_reported":1721491721,"current_range_meters":6800,"station_id":"ce4bha12rcd13ifvqef0","pricing_plan_id":"cebpf4jnsgd1na2vs0mg"},{"bike_id":"6c0e6a86-33a7-4ff4-b4b5-6cc19f5ea2dc","system_id":"levelo_inurba_marseille","lat":43.283502,"lon":5.386471,"is_reserved":false,"is_disabled":false,"rental_uris":{"android":"levelo://app?vid=6c0e6a86-33a7-4ff4-b4b5-6cc19f5ea2dc","ios":"levelo://app?vid=6c0e6a86-33a7-4ff4-b4b5-6cc19f5ea2dc"},"vehicle_type_id":"4","last_reported":1721491721,"current_range_meters":0,"station_id":"ce4bh492rcd13ifvqdvg","pricing_plan_id":"cebpf4jnsgd1na2vs0mg"},{"bike_id":"c3b636d5-29fe-4801-a56a-7044db31d2f0","system_id":"levelo_inurba_marseille","lat":43.280382,"lon":5.369291,"is_reserved":false,"is_disabled":false,"rental_uris":{"android":"levelo://app?vid=c3b636d5-29fe-4801-a56a-7044db31d2f0","ios":"levelo://app?vid=c3b636d5-29fe-4801-a56a-7044db31d2f0"},"vehicle_type_id":"4","last_reported":1721491721,"current_range_meters":13200,"station_id":"ce4bha12rcd13ifvqef0","pricing_plan_id":"cebpf4jnsgd1na2vs0mg"},{"bike_id":"72662be7-2752-48f5-8b1b-6cc128da4d51","system_id":"levelo_inurba_marseille","lat":43.280382,"lon":5.369291,"is_reserved":false,"is_disabled":false,"rental_uris":{"android":"levelo://app?vid=72662be7-2752-48f5-8b1b-6cc128da4d51","ios":"levelo://app?vid=72662be7-2752-48f5-8b1b-6cc128da4d51"},"vehicle_type_id":"4","last_reported":1721491721,"current_range_meters":20000,"station_id":"ce4bha12rcd13ifvqef0","pricing_plan_id":"cebpf4jnsgd1na2vs0mg"},{"bike_id":"a54c3814-5131-4cf2-aa7c-625a116f9e8b","system_id":"levelo_inurba_marseille","lat":43.283502,"lon":5.386471,"is_reserved":false,"is_disabled":false,"rental_uris":{"android":"levelo://app?vid=a54c3814-5131-4cf2-aa7c-625a116f9e8b","ios":"levelo://app?vid=a54c3814-5131-4cf2-aa7c-625a116f9e8b"},"vehicle_type_id":"4","last_reported":1721491721,"current_range_meters":1600,"station_id":"ce4bh492rcd13ifvqdvg","pricing_plan_id":"cebpf4jnsgd1na2vs0mg"},{"bike_id":"87b31392-aa03-4852-8483-daa21764663e","system_id":"levelo_inurba_marseille","lat":43.281044,"lon":5.378308,"is_reserved":false,"is_disabled":false,"rental_uris":{"android":"levelo://app?vid=87b31392-aa03-4852-8483-daa21764663e","ios":"levelo://app?vid=87b31392-aa03-4852-8483-daa21764663e"},"vehicle_type_id":"4","last_reported":1721491721,"current_range_meters":1200,"station_id":"ce4bha12rcd13ifvqee0","pricing_plan_id":"cebpf4jnsgd1na2vs0mg"},{"bike_id":"9775d06d-76a9-4ba7-b17c-fb6696ff887d","system_id":"levelo_inurba_marseille","lat":43.281044,"lon":5.378308,"is_reserved":false,"is_disabled":false,"rental_uris":{"android":"levelo://app?vid=9775d06d-76a9-4ba7-b17c-fb6696ff887d","ios":"levelo://app?vid=9775d06d-76a9-4ba7-b17c-fb6696ff887d"},"vehicle_type_id":"4","last_reported":1721491721,"current_range_meters":0,"station_id":"ce4bha12rcd13ifvqee0","pricing_plan_id":"cebpf4jnsgd1na2vs0mg"},{"bike_id":"982705c8-434b-4984-840a-d1e0da4b6124","system_id":"levelo_inurba_marseille","lat":43.340912,"lon":5.391123,"is_reserved":false,"is_disabled":false,"rental_uris":{"android":"levelo://app?vid=982705c8-434b-4984-840a-d1e0da4b6124","ios":"levelo://app?vid=982705c8-434b-4984-840a-d1e0da4b6124"},"vehicle_type_id":"4","last_reported":1721491721,"current_range_meters":21600,"station_id":"","pricing_plan_id":"cebpf4jnsgd1na2vs0mg"},{"bike_id":"260dcf75-e171-4d46-89b7-00c13fa510a5","system_id":"levelo_inurba_marseille","lat":43.30092,"lon":5.40973,"is_reserved":false,"is_disabled":false,"rental_uris":{"android":"levelo://app?vid=260dcf75-e171-4d46-89b7-00c13fa510a5","ios":"levelo://app?vid=260dcf75-e171-4d46-89b7-00c13fa510a5"},"vehicle_type_id":"4","last_reported":1721491721,"current_range_meters":23200,"station_id":"","pricing_plan_id":"cebpf4jnsgd1na2vs0mg"},{"bike_id":"a4e66a67-8fee-480f-bf74-cd07a2985eae","system_id":"levelo_inurba_marseille","lat":43.284462,"lon":5.392121,"is_reserved":false,"is_disabled":false,"rental_uris":{"android":"levelo://app?vid=a4e66a67-8fee-480f-bf74-cd07a2985eae","ios":"levelo://app?vid=a4e66a67-8fee-480f-bf74-cd07a2985eae"},"vehicle_type_id":"4","last_reported":1721491721,"current_range_meters":5200,"station_id":"ce4bhoh2rcd13ifvqh5g","pricing_plan_id":"cebpf4jnsgd1na2vs0mg"},{"bike_id":"12b8459a-6a87-4648-bb13-5fdd4422523f","system_id":"levelo_inurba_marseille","lat":43.285742,"lon":5.395004,"is_reserved":false,"is_disabled":false,"rental_uris":{"android":"levelo://app?vid=12b8459a-6a87-4648-bb13-5fdd4422523f","ios":"levelo://app?vid=12b8459a-6a87-4648-bb13-5fdd4422523f"},"vehicle_type_id":"4","last_reported":1721491721,"current_range_meters":17200,"station_id":"ce4bh292rcd13ifvqdg0","pricing_plan_id":"cebpf4jnsgd1na2vs0mg"},{"bike_id":"ed215fd3-ddb6-4283-8684-e722fb1aebe4","system_id":"levelo_inurba_marseille","lat":43.326605,"lon":5.409903,"is_reserved":false,"is_disabled":false,"rental_uris":{"android":"levelo://app?vid=ed215fd3-ddb6-4283-8684-e722fb1aebe4","ios":"levelo://app?vid=ed215fd3-ddb6-4283-8684-e722fb1aebe4"},"vehicle_type_id":"4","last_reported":1721491721,"current_range_meters":29600,"station_id":"ce4bhpp2rcd13ifvqhgg","pricing_plan_id":"cebpf4jnsgd1na2vs0mg"},{"bike_id":"b238e3e5-9d76-40cf-aa2a-7a67997b7447","system_id":"levelo_inurba_marseille","lat":43.28053,"lon":5.35085,"is_reserved":false,"is_disabled":false,"rental_uris":{"android":"levelo://app?vid=b238e3e5-9d76-40cf-aa2a-7a67997b7447","ios":"levelo://app?vid=b238e3e5-9d76-40cf-aa2a-7a67997b7447"},"vehicle_type_id":"4","last_reported":1721491721,"current_range_meters":24000,"station_id":"","pricing_plan_id":"cebpf4jnsgd1na2vs0mg"},{"bike_id":"b604bea7-36a3-4321-baa4-ebcca415d177","system_id":"levelo_inurba_marseille","lat":43.2806,"lon":5.34774,"is_reserved":false,"is_disabled":false,"rental_uris":{"android":"levelo://app?vid=b604bea7-36a3-4321-baa4-ebcca415d177","ios":"levelo://app?vid=b604bea7-36a3-4321-baa4-ebcca415d177"},"vehicle_type_id":"4","last_reported":1721491721,"current_range_meters":4800,"station_id":"","pricing_plan_id":"cebpf4jnsgd1na2vs0mg"},{"bike_id":"ca237951-2741-42fd-8ce6-5dc3bcde83b2","system_id":"levelo_inurba_marseille","lat":43.287154,"lon":5.399979,"is_reserved":false,"is_disabled":false,"rental_uris":{"android":"levelo://app?vid=ca237951-2741-42fd-8ce6-5dc3bcde83b2","ios":"levelo://app?vid=ca237951-2741-42fd-8ce6-5dc3bcde83b2"},"vehicle_type_id":"4","last_reported":1721491721,"current_range_meters":11600,"station_id":"ce4bho92rcd13ifvqh3g","pricing_plan_id":"cebpf4jnsgd1na2vs0mg"},{"bike_id":"ec79ee4d-d412-48a9-a728-7f9f10e9afe6","system_id":"levelo_inurba_marseille","lat":43.320045,"lon":5.415046,"is_reserved":false,"is_disabled":false,"rental_uris":{"android":"levelo://app?vid=ec79ee4d-d412-48a9-a728-7f9f10e9afe6","ios":"levelo://app?vid=ec79ee4d-d412-48a9-a728-7f9f10e9afe6"},"vehicle_type_id":"4","last_reported":1721491721,"current_range_meters":25600,"station_id":"ce4bhq92rcd13ifvqhkg","pricing_plan_id":"cebpf4jnsgd1na2vs0mg"},{"bike_id":"9952d50b-1c57-400c-be8d-07582e614445","system_id":"levelo_inurba_marseille","lat":43.320045,"lon":5.415046,"is_reserved":false,"is_disabled":false,"rental_uris":{"android":"levelo://app?vid=9952d50b-1c57-400c-be8d-07582e614445","ios":"levelo://app?vid=9952d50b-1c57-400c-be8d-07582e614445"},"vehicle_type_id":"4","last_reported":1721491721,"current_range_meters":31200,"station_id":"ce4bhq92rcd13ifvqhkg","pricing_plan_id":"cebpf4jnsgd1na2vs0mg"},{"bike_id":"8b1f23b7-4390-4445-860d-e12dc1b8eb22","system_id":"levelo_inurba_marseille","lat":43.299579,"lon":5.413255,"is_reserved":false,"is_disabled":false,"rental_uris":{"android":"levelo://app?vid=8b1f23b7-4390-4445-860d-e12dc1b8eb22","ios":"levelo://app?vid=8b1f23b7-4390-4445-860d-e12dc1b8eb22"},"vehicle_type_id":"4","last_reported":1721491721,"current_range_meters":30800,"station_id":"ce4bhp12rcd13ifvqh9g","pricing_plan_id":"cebpf4jnsgd1na2vs0mg"},{"bike_id":"cdfd1aba-fa4f-4e68-95b1-eb0b099508e3","system_id":"levelo_inurba_marseille","lat":43.32045,"lon":5.415557,"is_reserved":false,"is_disabled":false,"rental_uris":{"android":"levelo://app?vid=cdfd1aba-fa4f-4e68-95b1-eb0b099508e3","ios":"levelo://app?vid=cdfd1aba-fa4f-4e68-95b1-eb0b099508e3"},"vehicle_type_id":"4","last_reported":1721491721,"current_range_meters":2000,"station_id":"ce4bhq92rcd13ifvqhkg","pricing_plan_id":"cebpf4jnsgd1na2vs0mg"},{"bike_id":"8fd2fa3f-9eab-4dc9-a08d-f510420e871c","system_id":"levelo_inurba_marseille","lat":43.320045,"lon":5.415048,"is_reserved":false,"is_disabled":false,"rental_uris":{"android":"levelo://app?vid=8fd2fa3f-9eab-4dc9-a08d-f510420e871c","ios":"levelo://app?vid=8fd2fa3f-9eab-4dc9-a08d-f510420e871c"},"vehicle_type_id":"4","last_reported":1721491721,"current_range_meters":18400,"station_id":"ce4bhq92rcd13ifvqhkg","pricing_plan_id":"cebpf4jnsgd1na2vs0mg"},{"bike_id":"1be41768-0e3d-456e-bdb5-55fb185a8846","system_id":"levelo_inurba_marseille","lat":43.320045,"lon":5.415046,"is_reserved":false,"is_disabled":false,"rental_uris":{"android":"levelo://app?vid=1be41768-0e3d-456e-bdb5-55fb185a8846","ios":"levelo://app?vid=1be41768-0e3d-456e-bdb5-55fb185a8846"},"vehicle_type_id":"4","last_reported":1721491721,"current_range_meters":31200,"station_id":"ce4bhq92rcd13ifvqhkg","pricing_plan_id":"cebpf4jnsgd1na2vs0mg"},{"bike_id":"bf4d3cd6-6c52-436c-99d8-f452454ed284","system_id":"levelo_inurba_marseille","lat":43.320045,"lon":5.415046,"is_reserved":false,"is_disabled":false,"rental_uris":{"android":"levelo://app?vid=bf4d3cd6-6c52-436c-99d8-f452454ed284","ios":"levelo://app?vid=bf4d3cd6-6c52-436c-99d8-f452454ed284"},