{"last_updated":1774325288,"ttl":60,"version":"2.2","data":{"bikes":[{"bike_id":"e6d16333-aca6-4874-b7aa-5680ac1a37f3","system_id":"levelo_inurba_marseille","lat":43.27174,"lon":5.4098,"is_reserved":false,"is_disabled":false,"rental_uris":{"android":"levelo://app?vid=e6d16333-aca6-4874-b7aa-5680ac1a37f3","ios":"levelo://app?vid=e6d16333-aca6-4874-b7aa-5680ac1a37f3"},"vehicle_type_id":"4","last_reported":1774325288,"current_range_meters":2800,"station_id":"ce4bhl12rcd13ifvqgf0","pricing_plan_id":"cebpf4jnsgd1na2vs0mg"},{"bike_id":"b23e52e9-a876-459e-8724-e0215296ea00","system_id":"levelo_inurba_marseille","lat":43.28482,"lon":5.48393,"is_reserved":false,"is_disabled":true,"rental_uris":{"android":"levelo://app?vid=b23e52e9-a876-459e-8724-e0215296ea00","ios":"levelo://app?vid=b23e52e9-a876-459e-8724-e0215296ea00"},"vehicle_type_id":"4","last_reported":1774325288,"current_range_meters":2800,"station_id":"","pricing_plan_id":"cebpf4jnsgd1na2vs0mg"},{"bike_id":"5a3d3df4-d923-46fc-bdfe-9820e3b28092","system_id":"levelo_inurba_marseille","lat":43.27317,"lon":5.39077,"is_reserved":false,"is_disabled":true,"rental_uris":{"android":"levelo://app?vid=5a3d3df4-d923-46fc-bdfe-9820e3b28092","ios":"levelo://app?vid=5a3d3df4-d923-46fc-bdfe-9820e3b28092"},"vehicle_type_id":"4","last_reported":1774325288,"current_range_meters":2800,"station_id":"ce4bhgp2rcd13ifvqfe0","pricing_plan_id":"cebpf4jnsgd1na2vs0mg"},{"bike_id":"e4c9b34d-4ef0-40af-a53b-1d11841b4d3c","system_id":"levelo_inurba_marseille","lat":43.313269,"lon":5.396816,"is_reserved":false,"is_disabled":false,"rental_uris":{"android":"levelo://app?vid=e4c9b34d-4ef0-40af-a53b-1d11841b4d3c","ios":"levelo://app?vid=e4c9b34d-4ef0-40af-a53b-1d11841b4d3c"},"vehicle_type_id":"4","last_reported":1774325288,"current_range_meters":2800,"station_id":"ce4bgvp2rcd13ifvqcu0","pricing_plan_id":"cebpf4jnsgd1na2vs0mg"},{"bike_id":"182615ee-c22a-4d95-95bc-4cd04369bc65","system_id":"levelo_inurba_marseille","lat":43.31377,"lon":5.38514,"is_reserved":false,"is_disabled":false,"rental_uris":{"android":"levelo://app?vid=182615ee-c22a-4d95-95bc-4cd04369bc65","ios":"levelo://app?vid=182615ee-c22a-4d95-95bc-4cd04369bc65"},"vehicle_type_id":"4","last_reported":1774325288,"current_range_meters":2800,"station_id":"ce4bgt92rcd13ifvqcf0","pricing_plan_id":"cebpf4jnsgd1na2vs0mg"},{"bike_id":"abd3afb9-4326-45d9-8e47-0e339280e129","system_id":"levelo_inurba_marseille","lat":43.25331,"lon":5.42184,"is_reserved":false,"is_disabled":false,"rental_uris":{"android":"levelo://app?vid=abd3afb9-4326-45d9-8e47-0e339280e129","ios":"levelo://app?vid=abd3afb9-4326-45d9-8e47-0e339280e129"},"vehicle_type_id":"4","last_reported":1774325288,"current_range_meters":2800,"station_id":"st_d2m65c5bi1j21697t3ng","pricing_plan_id":"cebpf4jnsgd1na2vs0mg"},{"bike_id":"99a03861-9a9e-414e-8a7a-c47a2f9030be","system_id":"levelo_inurba_marseille","lat":43.292609,"lon":5.376234,"is_reserved":false,"is_disabled":false,"rental_uris":{"android":"levelo://app?vid=99a03861-9a9e-414e-8a7a-c47a2f9030be","ios":"levelo://app?vid=99a03861-9a9e-414e-8a7a-c47a2f9030be"},"vehicle_type_id":"4","last_reported":1774325288,"current_range_meters":3200,"station_id":"","pricing_plan_id":"cebpf4jnsgd1na2vs0mg"},{"bike_id":"94a50fcd-747b-421d-adc0-3cb94306e9db","system_id":"levelo_inurba_marseille","lat":43.27817,"lon":5.40726,"is_reserved":false,"is_disabled":false,"rental_uris":{"android":"levelo://app?vid=94a50fcd-747b-421d-adc0-3cb94306e9db","ios":"levelo://app?vid=94a50fcd-747b-421d-adc0-3cb94306e9db"},"vehicle_type_id":"4","last_reported":1774325288,"current_range_meters":3200,"station_id":"ce4bhnh2rcd13ifvqgtg","pricing_plan_id":"cebpf4jnsgd1na2vs0mg"},{"bike_id":"2c778cc4-029b-4096-919b-a2ad8483e38f","system_id":"levelo_inurba_marseille","lat":43.30192,"lon":5.36644,"is_reserved":false,"is_disabled":false,"rental_uris":{"android":"levelo://app?vid=2c778cc4-029b-4096-919b-a2ad8483e38f","ios":"levelo://app?vid=2c778cc4-029b-4096-919b-a2ad8483e38f"},"vehicle_type_id":"4","last_reported":1774325288,"current_range_meters":3200,"station_id":"ce4bgrh2rcd13ifvqc8g","pricing_plan_id":"cebpf4jnsgd1na2vs0mg"},{"bike_id":"d40d8eca-f119-4060-8aff-fc44cc2f2fee","system_id":"levelo_inurba_marseille","lat":43.25083,"lon":5.39521,"is_reserved":false,"is_disabled":false,"rental_uris":{"android":"levelo://app?vid=d40d8eca-f119-4060-8aff-fc44cc2f2fee","ios":"levelo://app?vid=d40d8eca-f119-4060-8aff-fc44cc2f2fee"},"vehicle_type_id":"4","last_reported":1774325288,"current_range_meters":3200,"station_id":"ce4bhm12rcd13ifvqgkg","pricing_plan_id":"cebpf4jnsgd1na2vs0mg"},{"bike_id":"f9c57d50-832a-477c-9c7f-1e7c12d972b0","system_id":"levelo_inurba_marseille","lat":43.25075,"lon":5.3951,"is_reserved":false,"is_disabled":true,"rental_uris":{"android":"levelo://app?vid=f9c57d50-832a-477c-9c7f-1e7c12d972b0","ios":"levelo://app?vid=f9c57d50-832a-477c-9c7f-1e7c12d972b0"},"vehicle_type_id":"4","last_reported":1774325288,"current_range_meters":3200,"station_id":"ce4bhm12rcd13ifvqgkg","pricing_plan_id":"cebpf4jnsgd1na2vs0mg"},{"bike_id":"851f7ed5-5327-45e5-a0df-365a30f7491a","system_id":"levelo_inurba_marseille","lat":43.2533,"lon":5.4218,"is_reserved":false,"is_disabled":false,"rental_uris":{"android":"levelo://app?vid=851f7ed5-5327-45e5-a0df-365a30f7491a","ios":"levelo://app?vid=851f7ed5-5327-45e5-a0df-365a30f7491a"},"vehicle_type_id":"4","last_reported":1774325288,"current_range_meters":3200,"station_id":"st_d2m65c5bi1j21697t3ng","pricing_plan_id":"cebpf4jnsgd1na2vs0mg"},{"bike_id":"3a227044-329d-4c94-8d26-b0c05aa71b94","system_id":"levelo_inurba_marseille","lat":43.27989,"lon":5.41661,"is_reserved":false,"is_disabled":false,"rental_uris":{"android":"levelo://app?vid=3a227044-329d-4c94-8d26-b0c05aa71b94","ios":"levelo://app?vid=3a227044-329d-4c94-8d26-b0c05aa71b94"},"vehicle_type_id":"4","last_reported":1774325288,"current_range_meters":3200,"station_id":"ce4bho12rcd13ifvqh1g","pricing_plan_id":"cebpf4jnsgd1na2vs0mg"},{"bike_id":"0b2a8f53-216b-49ee-81a4-c390a9502c6a","system_id":"levelo_inurba_marseille","lat":43.24804,"lon":5.3746,"is_reserved":false,"is_disabled":false,"rental_uris":{"android":"levelo://app?vid=0b2a8f53-216b-49ee-81a4-c390a9502c6a","ios":"levelo://app?vid=0b2a8f53-216b-49ee-81a4-c390a9502c6a"},"vehicle_type_id":"4","last_reported":1774325288,"current_range_meters":3200,"station_id":"ce4bhgh2rcd13ifvqfb0","pricing_plan_id":"cebpf4jnsgd1na2vs0mg"},{"bike_id":"ef8f663b-0075-416a-88fe-1fde798c71ff","system_id":"levelo_inurba_marseille","lat":43.23382,"lon":5.41253,"is_reserved":false,"is_disabled":false,"rental_uris":{"android":"levelo://app?vid=ef8f663b-0075-416a-88fe-1fde798c71ff","ios":"levelo://app?vid=ef8f663b-0075-416a-88fe-1fde798c71ff"},"vehicle_type_id":"4","last_reported":1774325288,"current_range_meters":3200,"station_id":"","pricing_plan_id":"cebpf4jnsgd1na2vs0mg"},{"bike_id":"85d6ab11-5518-4ccd-91e4-dbdc93e9ebe9","system_id":"levelo_inurba_marseille","lat":43.28536,"lon":5.44091,"is_reserved":false,"is_disabled":false,"rental_uris":{"android":"levelo://app?vid=85d6ab11-5518-4ccd-91e4-dbdc93e9ebe9","ios":"levelo://app?vid=85d6ab11-5518-4ccd-91e4-dbdc93e9ebe9"},"vehicle_type_id":"4","last_reported":1774325288,"current_range_meters":3200,"station_id":"st_d3j3df2ikq2c7380ej80","pricing_plan_id":"cebpf4jnsgd1na2vs0mg"},{"bike_id":"b7ba0e58-bef0-47a7-bd3b-64bf72ecf131","system_id":"levelo_inurba_marseille","lat":43.32958,"lon":5.3668,"is_reserved":false,"is_disabled":false,"rental_uris":{"android":"levelo://app?vid=b7ba0e58-bef0-47a7-bd3b-64bf72ecf131","ios":"levelo://app?vid=b7ba0e58-bef0-47a7-bd3b-64bf72ecf131"},"vehicle_type_id":"4","last_reported":1774325288,"current_range_meters":3200,"station_id":"","pricing_plan_id":"cebpf4jnsgd1na2vs0mg"},{"bike_id":"63d28ee7-f0d6-4baa-ad27-e80429fd4355","system_id":"levelo_inurba_marseille","lat":43.3095,"lon":5.39044,"is_reserved":false,"is_disabled":false,"rental_uris":{"android":"levelo://app?vid=63d28ee7-f0d6-4baa-ad27-e80429fd4355","ios":"levelo://app?vid=63d28ee7-f0d6-4baa-ad27-e80429fd4355"},"vehicle_type_id":"4","last_reported":1774325288,"current_range_meters":3600,"station_id":"ce4bgup2rcd13ifvqco0","pricing_plan_id":"cebpf4jnsgd1na2vs0mg"},{"bike_id":"9841420b-9d3f-4a1b-88ef-a3431bb43bf8","system_id":"levelo_inurba_marseille","lat":43.28406,"lon":5.34953,"is_reserved":false,"is_disabled":false,"rental_uris":{"android":"levelo://app?vid=9841420b-9d3f-4a1b-88ef-a3431bb43bf8","ios":"levelo://app?vid=9841420b-9d3f-4a1b-88ef-a3431bb43bf8"},"vehicle_type_id":"4","last_reported":1774325288,"current_range_meters":3600,"station_id":"ce4bhbh2rcd13ifvqepg","pricing_plan_id":"cebpf4jnsgd1na2vs0mg"},{"bike_id":"f5817187-44cb-46f8-92f4-6a1040ec1adf","system_id":"levelo_inurba_marseille","lat":43.26476,"lon":5.39545,"is_reserved":false,"is_disabled":false,"rental_uris":{"android":"levelo://app?vid=f5817187-44cb-46f8-92f4-6a1040ec1adf","ios":"levelo://app?vid=f5817187-44cb-46f8-92f4-6a1040ec1adf"},"vehicle_type_id":"4","last_reported":1774325288,"current_range_meters":3600,"station_id":"ce4bhi12rcd13ifvqfq0","pricing_plan_id":"cebpf4jnsgd1na2vs0mg"},{"bike_id":"013aa35c-12d0-4753-a8d0-1c28282ae10e","system_id":"levelo_inurba_marseille","lat":43.311168,"lon":5.377704,"is_reserved":false,"is_disabled":false,"rental_uris":{"android":"levelo://app?vid=013aa35c-12d0-4753-a8d0-1c28282ae10e","ios":"levelo://app?vid=013aa35c-12d0-4753-a8d0-1c28282ae10e"},"vehicle_type_id":"4","last_reported":1774325288,"current_range_meters":3600,"station_id":"ce4bgt92rcd13ifvqcg0","pricing_plan_id":"cebpf4jnsgd1na2vs0mg"},{"bike_id":"3c987473-5324-4ac6-8866-b554f8b2f580","system_id":"levelo_inurba_marseille","lat":43.28209,"lon":5.39059,"is_reserved":false,"is_disabled":false,"rental_uris":{"android":"levelo://app?vid=3c987473-5324-4ac6-8866-b554f8b2f580","ios":"levelo://app?vid=3c987473-5324-4ac6-8866-b554f8b2f580"},"vehicle_type_id":"4","last_reported":1774325288,"current_range_meters":3600,"station_id":"ce4bhn92rcd13ifvqgsg","pricing_plan_id":"cebpf4jnsgd1na2vs0mg"},{"bike_id":"de73c310-f5b2-40f5-b1ca-fa0887319316","system_id":"levelo_inurba_marseille","lat":43.32984,"lon":5.3903,"is_reserved":false,"is_disabled":false,"rental_uris":{"android":"levelo://app?vid=de73c310-f5b2-40f5-b1ca-fa0887319316","ios":"levelo://app?vid=de73c310-f5b2-40f5-b1ca-fa0887319316"},"vehicle_type_id":"4","last_reported":1774325288,"current_range_meters":3600,"station_id":"ce4bhr92rcd13ifvqhrg","pricing_plan_id":"cebpf4jnsgd1na2vs0mg"},{"bike_id":"a28c12fc-edef-4a9a-a72e-baf935345a4e","system_id":"levelo_inurba_marseille","lat":43.28685,"lon":5.37382,"is_reserved":false,"is_disabled":false,"rental_uris":{"android":"levelo://app?vid=a28c12fc-edef-4a9a-a72e-baf935345a4e","ios":"levelo://app?vid=a28c12fc-edef-4a9a-a72e-baf935345a4e"},"vehicle_type_id":"4","last_reported":1774325288,"current_range_meters":4000,"station_id":"ce4bh3p2rcd13ifvqdq0","pricing_plan_id":"cebpf4jnsgd1na2vs0mg"},{"bike_id":"9be35987-805d-4aab-a951-55292d8c9d92","system_id":"levelo_inurba_marseille","lat":43.3168,"lon":5.43734,"is_reserved":false,"is_disabled":false,"rental_uris":{"android":"levelo://app?vid=9be35987-805d-4aab-a951-55292d8c9d92","ios":"levelo://app?vid=9be35987-805d-4aab-a951-55292d8c9d92"},"vehicle_type_id":"4","last_reported":1774325288,"current_range_meters":4000,"station_id":"ce4bhp92rcd13ifvqhcg","pricing_plan_id":"cebpf4jnsgd1na2vs0mg"},{"bike_id":"85d0a95e-bc0b-4d36-bde7-fd46008d21e4","system_id":"levelo_inurba_marseille","lat":43.24665,"lon":5.38149,"is_reserved":false,"is_disabled":false,"rental_uris":{"android":"levelo://app?vid=85d0a95e-bc0b-4d36-bde7-fd46008d21e4","ios":"levelo://app?vid=85d0a95e-bc0b-4d36-bde7-fd46008d21e4"},"vehicle_type_id":"4","last_reported":1774325288,"current_range_meters":4000,"station_id":"ce4bhih2rcd13ifvqfr0","pricing_plan_id":"cebpf4jnsgd1na2vs0mg"},{"bike_id":"0f88d6b7-883f-4b13-98ff-b1b3b7d422a5","system_id":"levelo_inurba_marseille","lat":43.25916,"lon":5.40901,"is_reserved":false,"is_disabled":true,"rental_uris":{"android":"levelo://app?vid=0f88d6b7-883f-4b13-98ff-b1b3b7d422a5","ios":"levelo://app?vid=0f88d6b7-883f-4b13-98ff-b1b3b7d422a5"},"vehicle_type_id":"4","last_reported":1774325288,"current_range_meters":4000,"station_id":"ce4bhm92rcd13ifvqglg","pricing_plan_id":"cebpf4jnsgd1na2vs0mg"},{"bike_id":"2c178cf5-95b4-4311-9bf9-5f7faadcc50e","system_id":"levelo_inurba_marseille","lat":43.25328,"lon":5.42176,"is_reserved":false,"is_disabled":false,"rental_uris":{"android":"levelo://app?vid=2c178cf5-95b4-4311-9bf9-5f7faadcc50e","ios":"levelo://app?vid=2c178cf5-95b4-4311-9bf9-5f7faadcc50e"},"vehicle_type_id":"4","last_reported":1774325288,"current_range_meters":4000,"station_id":"st_d2m65c5bi1j21697t3ng","pricing_plan_id":"cebpf4jnsgd1na2vs0mg"},{"bike_id":"c3f3c8ac-b6d1-4026-a061-65e7cfa764fe","system_id":"levelo_inurba_marseille","lat":43.28484,"lon":5.48411,"is_reserved":false,"is_disabled":false,"rental_uris":{"android":"levelo://app?vid=c3f3c8ac-b6d1-4026-a061-65e7cfa764fe","ios":"levelo://app?vid=c3f3c8ac-b6d1-4026-a061-65e7cfa764fe"},"vehicle_type_id":"4","last_reported":1774325288,"current_range_meters":4000,"station_id":"","pricing_plan_id":"cebpf4jnsgd1na2vs0mg"},{"bike_id":"7d0e7181-3a70-4370-9354-bef3948a92c8","system_id":"levelo_inurba_marseille","lat":43.29959,"lon":5.41327,"is_reserved":false,"is_disabled":false,"rental_uris":{"android":"levelo://app?vid=7d0e7181-3a70-4370-9354-bef3948a92c8","ios":"levelo://app?vid=7d0e7181-3a70-4370-9354-bef3948a92c8"},"vehicle_type_id":"4","last_reported":1774325288,"current_range_meters":4400,"station_id":"ce4bhp12rcd13ifvqh9g","pricing_plan_id":"cebpf4jnsgd1na2vs0mg"},{"bike_id":"7ad237fb-5247-429e-9962-4e78a8ebe8b3","system_id":"levelo_inurba_marseille","lat":43.28847,"lon":5.39345,"is_reserved":false,"is_disabled":false,"rental_uris":{"android":"levelo://app?vid=7ad237fb-5247-429e-9962-4e78a8ebe8b3","ios":"levelo://app?vid=7ad237fb-5247-429e-9962-4e78a8ebe8b3"},"vehicle_type_id":"4","last_reported":1774325288,"current_range_meters":4400,"station_id":"ce4bh2p2rcd13ifvqdi0","pricing_plan_id":"cebpf4jnsgd1na2vs0mg"},{"bike_id":"1206f535-c46b-49e4-b78b-5079be386ea6","system_id":"levelo_inurba_marseille","lat":43.31176,"lon":5.38717,"is_reserved":false,"is_disabled":false,"rental_uris":{"android":"levelo://app?vid=1206f535-c46b-49e4-b78b-5079be386ea6","ios":"levelo://app?vid=1206f535-c46b-49e4-b78b-5079be386ea6"},"vehicle_type_id":"4","last_reported":1774325288,"current_range_meters":4400,"station_id":"ce4bgv12rcd13ifvqcp0","pricing_plan_id":"cebpf4jnsgd1na2vs0mg"},{"bike_id":"98ffa150-e68d-4dcd-bc1f-02394fa2914a","system_id":"levelo_inurba_marseille","lat":43.28522,"lon":5.39446,"is_reserved":false,"is_disabled":false,"rental_uris":{"android":"levelo://app?vid=98ffa150-e68d-4dcd-bc1f-02394fa2914a","ios":"levelo://app?vid=98ffa150-e68d-4dcd-bc1f-02394fa2914a"},"vehicle_type_id":"4","last_reported":1774325288,"current_range_meters":4400,"station_id":"","pricing_plan_id":"cebpf4jnsgd1na2vs0mg"},{"bike_id":"ce5f1694-8890-4ad5-ad5a-a46e6229fc4c","system_id":"levelo_inurba_marseille","lat":43.29891,"lon":5.3974,"is_reserved":false,"is_disabled":false,"rental_uris":{"android":"levelo://app?vid=ce5f1694-8890-4ad5-ad5a-a46e6229fc4c","ios":"levelo://app?vid=ce5f1694-8890-4ad5-ad5a-a46e6229fc4c"},"vehicle_type_id":"4","last_reported":1774325288,"current_range_meters":4400,"station_id":"ce4bh0h2rcd13ifvqd50","pricing_plan_id":"cebpf4jnsgd1na2vs0mg"},{"bike_id":"6f3fdbf9-917f-421d-aa86-02187d7ba65c","system_id":"levelo_inurba_marseille","lat":43.28479,"lon":5.48391,"is_reserved":false,"is_disabled":false,"rental_uris":{"android":"levelo://app?vid=6f3fdbf9-917f-421d-aa86-02187d7ba65c","ios":"levelo://app?vid=6f3fdbf9-917f-421d-aa86-02187d7ba65c"},"vehicle_type_id":"4","last_reported":1774325288,"current_range_meters":4400,"station_id":"st_d3svhcjqgbts73a3dn0g","pricing_plan_id":"cebpf4jnsgd1na2vs0mg"},{"bike_id":"54517c99-45a6-4f25-84fa-a9b36f295fc3","system_id":"levelo_inurba_marseille","lat":43.30136,"lon":5.38832,"is_reserved":false,"is_disabled":false,"rental_uris":{"android":"levelo://app?vid=54517c99-45a6-4f25-84fa-a9b36f295fc3","ios":"levelo://app?vid=54517c99-45a6-4f25-84fa-a9b36f295fc3"},"vehicle_type_id":"4","last_reported":1774325288,"current_range_meters":4400,"station_id":"ce4bghh2rcd13ifvqb60","pricing_plan_id":"cebpf4jnsgd1na2vs0mg"},{"bike_id":"b11cd7e1-c2ad-4e3b-9c16-6bd7caa9bc6b","system_id":"levelo_inurba_marseille","lat":43.28726,"lon":5.36095,"is_reserved":false,"is_disabled":false,"rental_uris":{"android":"levelo://app?vid=b11cd7e1-c2ad-4e3b-9c16-6bd7caa9bc6b","ios":"levelo://app?vid=b11cd7e1-c2ad-4e3b-9c16-6bd7caa9bc6b"},"vehicle_type_id":"4","last_reported":1774325288,"current_range_meters":4800,"station_id":"cki0cbj6b192h4jlfktg","pricing_plan_id":"cebpf4jnsgd1na2vs0mg"},{"bike_id":"19816687-f443-4a5d-b7aa-e3cfd2cb0259","system_id":"levelo_inurba_marseille","lat":43.31451,"lon":5.44542,"is_reserved":false,"is_disabled":false,"rental_uris":{"android":"levelo://app?vid=19816687-f443-4a5d-b7aa-e3cfd2cb0259","ios":"levelo://app?vid=19816687-f443-4a5d-b7aa-e3cfd2cb0259"},"vehicle_type_id":"4","last_reported":1774325288,"current_range_meters":4800,"station_id":"","pricing_plan_id":"cebpf4jnsgd1na2vs0mg"},{"bike_id":"4bc91efc-5348-4dd5-84c0-807354869870","system_id":"levelo_inurba_marseille","lat":43.2779,"lon":5.40783,"is_reserved":false,"is_disabled":false,"rental_uris":{"android":"levelo://app?vid=4bc91efc-5348-4dd5-84c0-807354869870","ios":"levelo://app?vid=4bc91efc-5348-4dd5-84c0-807354869870"},"vehicle_type_id":"4","last_reported":1774325288,"current_range_meters":4800,"station_id":"","pricing_plan_id":"cebpf4jnsgd1na2vs0mg"},{"bike_id":"6d8d09fd-043e-40dd-92de-c6d036fa5ea9","system_id":"levelo_inurba_marseille","lat":43.28902,"lon":5.38396,"is_reserved":false,"is_disabled":true,"rental_uris":{"android":"levelo://app?vid=6d8d09fd-043e-40dd-92de-c6d036fa5ea9","ios":"levelo://app?vid=6d8d09fd-043e-40dd-92de-c6d036fa5ea9"},"vehicle_type_id":"4","last_reported":1774325288,"current_range_meters":4800,"station_id":"ce4bh612rcd13ifvqe6g","pricing_plan_id":"cebpf4jnsgd1na2vs0mg"},{"bike_id":"6b6fe06c-eb93-4835-8626-6f397ab2f5cf","system_id":"levelo_inurba_marseille","lat":43.31185,"lon":5.38753,"is_reserved":false,"is_disabled":false,"rental_uris":{"android":"levelo://app?vid=6b6fe06c-eb93-4835-8626-6f397ab2f5cf","ios":"levelo://app?vid=6b6fe06c-eb93-4835-8626-6f397ab2f5cf"},"vehicle_type_id":"4","last_reported":1774325288,"current_range_meters":4800,"station_id":"ce4bgv12rcd13ifvqcp0","pricing_plan_id":"cebpf4jnsgd1na2vs0mg"},{"bike_id":"63fb6336-17f6-4435-9585-e8e9f8fc71fb","system_id":"levelo_inurba_marseille","lat":43.23162,"lon":5.43716,"is_reserved":false,"is_disabled":false,"rental_uris":{"android":"levelo://app?vid=63fb6336-17f6-4435-9585-e8e9f8fc71fb","ios":"levelo://app?vid=63fb6336-17f6-4435-9585-e8e9f8fc71fb"},"vehicle_type_id":"4","last_reported":1774325288,"current_range_meters":4800,"station_id":"ce4bhmp2rcd13ifvqgog","pricing_plan_id":"cebpf4jnsgd1na2vs0mg"},{"bike_id":"ffb98fb8-da98-43fb-9eac-ddb2ee1141c2","system_id":"levelo_inurba_marseille","lat":43.2463,"lon":5.41671,"is_reserved":false,"is_disabled":false,"rental_uris":{"android":"levelo://app?vid=ffb98fb8-da98-43fb-9eac-ddb2ee1141c2","ios":"levelo://app?vid=ffb98fb8-da98-43fb-9eac-ddb2ee1141c2"},"vehicle_type_id":"4","last_reported":1774325288,"current_range_meters":4800,"station_id":"","pricing_plan_id":"cebpf4jnsgd1na2vs0mg"},{"bike_id":"f554888c-9515-430c-b3e9-327a4cc15db0","system_id":"levelo_inurba_marseille","lat":43.2964,"lon":5.42423,"is_reserved":false,"is_disabled":false,"rental_uris":{"android":"levelo://app?vid=f554888c-9515-430c-b3e9-327a4cc15db0","ios":"levelo://app?vid=f554888c-9515-430c-b3e9-327a4cc15db0"},"vehicle_type_id":"4","last_reported":1774325288,"current_range_meters":4800,"station_id":"","pricing_plan_id":"cebpf4jnsgd1na2vs0mg"},{"bike_id":"6c544108-dcdf-4d4d-a2b0-9600fafbc564","system_id":"levelo_inurba_marseille","lat":43.29736,"lon":5.37717,"is_reserved":false,"is_disabled":false,"rental_uris":{"android":"levelo://app?vid=6c544108-dcdf-4d4d-a2b0-9600fafbc564","ios":"levelo://app?vid=6c544108-dcdf-4d4d-a2b0-9600fafbc564"},"vehicle_type_id":"4","last_reported":1774325288,"current_range_meters":4800,"station_id":"ce4bgkh2rcd13ifvqbl0","pricing_plan_id":"cebpf4jnsgd1na2vs0mg"},{"bike_id":"b207dab1-3250-4004-981c-5514248a7bc0","system_id":"levelo_inurba_marseille","lat":43.24216,"lon":5.41155,"is_reserved":false,"is_disabled":false,"rental_uris":{"android":"levelo://app?vid=b207dab1-3250-4004-981c-5514248a7bc0","ios":"levelo://app?vid=b207dab1-3250-4004-981c-5514248a7bc0"},"vehicle_type_id":"4","last_reported":1774325288,"current_range_meters":4800,"station_id":"","pricing_plan_id":"cebpf4jnsgd1na2vs0mg"},{"bike_id":"134ec09b-de3e-41f0-93c9-aa86737c6894","system_id":"levelo_inurba_marseille","lat":43.32475,"lon":5.38268,"is_reserved":false,"is_disabled":false,"rental_uris":{"android":"levelo://app?vid=134ec09b-de3e-41f0-93c9-aa86737c6894","ios":"levelo://app?vid=134ec09b-de3e-41f0-93c9-aa86737c6894"},"vehicle_type_id":"4","last_reported":1774325288,"current_range_meters":5600,"station_id":"st_d4asgbiv49dc73anf9m0","pricing_plan_id":"cebpf4jnsgd1na2vs0mg"},{"bike_id":"f88785b3-6943-4637-92b7-314729fe3c58","system_id":"levelo_inurba_marseille","lat":43.30832,"lon":5.38287,"is_reserved":false,"is_disabled":false,"rental_uris":{"android":"levelo://app?vid=f88785b3-6943-4637-92b7-314729fe3c58","ios":"levelo://app?vid=f88785b3-6943-4637-92b7-314729fe3c58"},"vehicle_type_id":"4","last_reported":1774325288,"current_range_meters":5600,"station_id":"","pricing_plan_id":"cebpf4jnsgd1na2vs0mg"},{"bike_id":"2a9e59e0-4a8c-4fc5-8d11-0960cd0f4900","system_id":"levelo_inurba_marseille","lat":43.24671,"lon":5.38174,"is_reserved":false,"is_disabled":false,"rental_uris":{"android":"levelo://app?vid=2a9e59e0-4a8c-4fc5-8d11-0960cd0f4900","ios":"levelo://app?vid=2a9e59e0-4a8c-4fc5-8d11-0960cd0f4900"},"vehicle_type_id":"4","last_reported":1774325288,"current_range_meters":5600,"station_id":"ce4bhih2rcd13ifvqfr0","pricing_plan_id":"cebpf4jnsgd1na2vs0mg"},{"bike_id":"821edef9-fc77-4cf7-b7f6-468f7d3d1849","system_id":"levelo_inurba_marseille","lat":43.2901,"lon":5.38151,"is_reserved":false,"is_disabled":false,"rental_uris":{"android":"levelo://app?vid=821edef9-fc77-4cf7-b7f6-468f7d3d1849","ios":"levelo://app?vid=821edef9-fc77-4cf7-b7f6-468f7d3d1849"},"vehicle_type_id":"4","last_reported":1774325288,"current_range_meters":5600,"station_id":"ce4bh4p2rcd13ifvqe1g","pricing_plan_id":"cebpf4jnsgd1na2vs0mg"},{"bike_id":"4d88734a-162e-4307-92a3-61e5ee7aa63f","system_id":"levelo_inurba_marseille","lat":43.29205,"lon":5.42586,"is_reserved":false,"is_disabled":true,"rental_uris":{"android":"levelo://app?vid=4d88734a-162e-4307-92a3-61e5ee7aa63f","ios":"levelo://app?vid=4d88734a-162e-4307-92a3-61e5ee7aa63f"},"vehicle_type_id":"4","last_reported":1774325288,"current_range_meters":5600,"station_id":"","pricing_plan_id":"cebpf4jnsgd1na2vs0mg"},{"bike_id":"0498666e-1c8a-4e64-b9a9-555c03d4c7a3","system_id":"levelo_inurba_marseille","lat":43.24117,"lon":5.37746,"is_reserved":false,"is_disabled":false,"rental_uris":{"android":"levelo://app?vid=0498666e-1c8a-4e64-b9a9-555c03d4c7a3","ios":"levelo://app?vid=0498666e-1c8a-4e64-b9a9-555c03d4c7a3"},"vehicle_type_id":"4","last_reported":1774325288,"current_range_meters":5600,"station_id":"ce4bhnp2rcd13ifvqgvg","pricing_plan_id":"cebpf4jnsgd1na2vs0mg"},{"bike_id":"c1af2eca-cb1d-451f-a2e9-025bc5e4557d","system_id":"levelo_inurba_marseille","lat":43.302,"lon":5.366,"is_reserved":false,"is_disabled":false,"rental_uris":{"android":"levelo://app?vid=c1af2eca-cb1d-451f-a2e9-025bc5e4557d","ios":"levelo://app?vid=c1af2eca-cb1d-451f-a2e9-025bc5e4557d"},"vehicle_type_id":"4","last_reported":1774325288,"current_range_meters":5600,"station_id":"ce4bgrh2rcd13ifvqc8g","pricing_plan_id":"cebpf4jnsgd1na2vs0mg"},{"bike_id":"6a361988-483c-4fea-b668-fae45fefb959","system_id":"levelo_inurba_marseille","lat":43.3213,"lon":5.36806,"is_reserved":false,"is_disabled":false,"rental_uris":{"android":"levelo://app?vid=6a361988-483c-4fea-b668-fae45fefb959","ios":"levelo://app?vid=6a361988-483c-4fea-b668-fae45fefb959"},"vehicle_type_id":"4","last_reported":1774325288,"current_range_meters":6000,"station_id":"","pricing_plan_id":"cebpf4jnsgd1na2vs0mg"},{"bike_id":"8d261618-9edd-4288-9d3a-3da9cd55b40c","system_id":"levelo_inurba_marseille","lat":43.28847,"lon":5.39327,"is_reserved":false,"is_disabled":false,"rental_uris":{"android":"levelo://app?vid=8d261618-9edd-4288-9d3a-3da9cd55b40c","ios":"levelo://app?vid=8d261618-9edd-4288-9d3a-3da9cd55b40c"},"vehicle_type_id":"4","last_reported":1774325288,"current_range_meters":6000,"station_id":"ce4bh2p2rcd13ifvqdi0","pricing_plan_id":"cebpf4jnsgd1na2vs0mg"},{"bike_id":"b27bd564-b966-4fad-baab-5d269eba48d9","system_id":"levelo_inurba_marseille","lat":43.30297,"lon":5.36912,"is_reserved":false,"is_disabled":false,"rental_uris":{"android":"levelo://app?vid=b27bd564-b966-4fad-baab-5d269eba48d9","ios":"levelo://app?vid=b27bd564-b966-4fad-baab-5d269eba48d9"},"vehicle_type_id":"4","last_reported":1774325288,"current_range_meters":6000,"station_id":"ce4bgqh2rcd13ifvqc5g","pricing_plan_id":"cebpf4jnsgd1na2vs0mg"},{"bike_id":"9ae0be53-f97e-47d3-ad7a-93c55e7f160f","system_id":"levelo_inurba_marseille","lat":43.30889,"lon":5.39638,"is_reserved":false,"is_disabled":false,"rental_uris":{"android":"levelo://app?vid=9ae0be53-f97e-47d3-ad7a-93c55e7f160f","ios":"levelo://app?vid=9ae0be53-f97e-47d3-ad7a-93c55e7f160f"},"vehicle_type_id":"4","last_reported":1774325288,"current_range_meters":6000,"station_id":"ce4bh012rcd13ifvqcv0","pricing_plan_id":"cebpf4jnsgd1na2vs0mg"},{"bike_id":"c0ede030-ab9a-4615-a9c7-01479ac5ac50","system_id":"levelo_inurba_marseille","lat":43.2666,"lon":5.38338,"is_reserved":false,"is_disabled":false,"rental_uris":{"android":"levelo://app?vid=c0ede030-ab9a-4615-a9c7-01479ac5ac50","ios":"levelo://app?vid=c0ede030-ab9a-4615-a9c7-01479ac5ac50"},"vehicle_type_id":"4","last_reported":1774325288,"current_range_meters":6000,"station_id":"ce4bhg92rcd13ifvqf90","pricing_plan_id":"cebpf4jnsgd1na2vs0mg"},{"bike_id":"1a5169b9-84ad-4dd4-9ce6-e4c8c83fc75e","system_id":"levelo_inurba_marseille","lat":43.29879,"lon":5.39753,"is_reserved":false,"is_disabled":false,"rental_uris":{"android":"levelo://app?vid=1a5169b9-84ad-4dd4-9ce6-e4c8c83fc75e","ios":"levelo://app?vid=1a5169b9-84ad-4dd4-9ce6-e4c8c83fc75e"},"vehicle_type_id":"4","last_reported":1774325288,"current_range_meters":6000,"station_id":"ce4bh0h2rcd13ifvqd50","pricing_plan_id":"cebpf4jnsgd1na2vs0mg"},{"bike_id":"1d696319-c208-4ca3-ad10-486adc2a37c9","system_id":"levelo_inurba_marseille","lat":43.27561,"lon":5.38424,"is_reserved":false,"is_disabled":false,"rental_uris":{"android":"levelo://app?vid=1d696319-c208-4ca3-ad10-486adc2a37c9","ios":"levelo://app?vid=1d696319-c208-4ca3-ad10-486adc2a37c9"},"vehicle_type_id":"4","last_reported":1774325288,"current_range_meters":6400,"station_id":"ce4bhh92rcd13ifvqfi0","pricing_plan_id":"cebpf4jnsgd1na2vs0mg"},{"bike_id":"bbb20be4-a4e3-4756-bf9e-de6efa0abbb9","system_id":"levelo_inurba_marseille","lat":43.29196,"lon":5.42597,"is_reserved":false,"is_disabled":false,"rental_uris":{"android":"levelo://app?vid=bbb20be4-a4e3-4756-bf9e-de6efa0abbb9","ios":"levelo://app?vid=bbb20be4-a4e3-4756-bf9e-de6efa0abbb9"},"vehicle_type_id":"4","last_reported":1774325288,"current_range_meters":6400,"station_id":"","pricing_plan_id":"cebpf4jnsgd1na2vs0mg"},{"bike_id":"87cab354-e36c-4dc9-949d-1832434988fa","system_id":"levelo_inurba_marseille","lat":43.3129,"lon":5.38439,"is_reserved":false,"is_disabled":false,"rental_uris":{"android":"levelo://app?vid=87cab354-e36c-4dc9-949d-1832434988fa","ios":"levelo://app?vid=87cab354-e36c-4dc9-949d-1832434988fa"},"vehicle_type_id":"4","last_reported":1774325288,"current_range_meters":6400,"station_id":"","pricing_plan_id":"cebpf4jnsgd1na2vs0mg"},{"bike_id":"c971e977-c921-4e3a-932b-ffbeb2790354","system_id":"levelo_inurba_marseille","lat":43.29787,"lon":5.39322,"is_reserved":false,"is_disabled":false,"rental_uris":{"android":"levelo://app?vid=c971e977-c921-4e3a-932b-ffbeb2790354","ios":"levelo://app?vid=c971e977-c921-4e3a-932b-ffbeb2790354"},"vehicle_type_id":"4","last_reported":1774325288,"current_range_meters":6800,"station_id":"chh1huq6cuj3fo74tm60","pricing_plan_id":"cebpf4jnsgd1na2vs0mg"},{"bike_id":"a927fe45-aabd-421f-b607-c6c156dce4f2","system_id":"levelo_inurba_marseille","lat":43.27981,"lon":5.41655,"is_reserved":false,"is_disabled":false,"rental_uris":{"android":"levelo://app?vid=a927fe45-aabd-421f-b607-c6c156dce4f2","ios":"levelo://app?vid=a927fe45-aabd-421f-b607-c6c156dce4f2"},"vehicle_type_id":"4","last_reported":1774325288,"current_range_meters":6800,"station_id":"ce4bho12rcd13ifvqh1g","pricing_plan_id":"cebpf4jnsgd1na2vs0mg"},{"bike_id":"cb640083-f3ae-4fec-ae01-ff6290501ae6","system_id":"levelo_inurba_marseille","lat":43.29874,"lon":5.38908,"is_reserved":false,"is_disabled":false,"rental_uris":{"android":"levelo://app?vid=cb640083-f3ae-4fec-ae01-ff6290501ae6","ios":"levelo://app?vid=cb640083-f3ae-4fec-ae01-ff6290501ae6"},"vehicle_type_id":"4","last_reported":1774325288,"current_range_meters":6800,"station_id":"ce4bh392rcd13ifvqdl0","pricing_plan_id":"cebpf4jnsgd1na2vs0mg"},{"bike_id":"62c91179-5440-4532-812c-52926c059e06","system_id":"levelo_inurba_marseille","lat":43.25486,"lon":5.37666,"is_reserved":false,"is_disabled":false,"rental_uris":{"android":"levelo://app?vid=62c91179-5440-4532-812c-52926c059e06","ios":"levelo://app?vid=62c91179-5440-4532-812c-52926c059e06"},"vehicle_type_id":"4","last_reported":1774325288,"current_range_meters":6800,"station_id":"ce4bhh12rcd13ifvqff0","pricing_plan_id":"cebpf4jnsgd1na2vs0mg"},{"bike_id":"3d6ac86e-cc2a-4a36-8e80-b677faeb9fb6","system_id":"levelo_inurba_marseille","lat":43.29739,"lon":5.37658,"is_reserved":false,"is_disabled":false,"rental_uris":{"android":"levelo://app?vid=3d6ac86e-cc2a-4a36-8e80-b677faeb9fb6","ios":"levelo://app?vid=3d6ac86e-cc2a-4a36-8e80-b677faeb9fb6"},"vehicle_type_id":"4","last_reported":1774325288,"current_range_meters":6800,"station_id":"ce4bgkh2rcd13ifvqbl0","pricing_plan_id":"cebpf4jnsgd1na2vs0mg"},{"bike_id":"28ba1567-355f-4bbd-8b50-e427d2e3b48e","system_id":"levelo_inurba_marseille","lat":43.28455,"lon":5.35886,"is_reserved":false,"is_disabled":false,"rental_uris":{"android":"levelo://app?vid=28ba1567-355f-4bbd-8b50-e427d2e3b48e","ios":"levelo://app?vid=28ba1567-355f-4bbd-8b50-e427d2e3b48e"},"vehicle_type_id":"4","last_reported":1774325288,"current_range_meters":6800,"station_id":"ce4bhah2rcd13ifvqei0","pricing_plan_id":"cebpf4jnsgd1na2vs0mg"},{"bike_id":"c01fa495-a81b-4535-b33d-d318d11ec18e","system_id":"levelo_inurba_marseille","lat":43.29712,"lon":5.37365,"is_reserved":false,"is_disabled":false,"rental_uris":{"android":"levelo://app?vid=c01fa495-a81b-4535-b33d-d318d11ec18e","ios":"levelo://app?vid=c01fa495-a81b-4535-b33d-d318d11ec18e"},"vehicle_type_id":"4","last_reported":1774325288,"current_range_meters":6800,"station_id":"","pricing_plan_id":"cebpf4jnsgd1na2vs0mg"},{"bike_id":"865b96b6-e98e-46e0-b54c-50dfe88286fd","system_id":"levelo_inurba_marseille","lat":43.25331,"lon":5.42162,"is_reserved":false,"is_disabled":false,"rental_uris":{"android":"levelo://app?vid=865b96b6-e98e-46e0-b54c-50dfe88286fd","ios":"levelo://app?vid=865b96b6-e98e-46e0-b54c-50dfe88286fd"},"vehicle_type_id":"4","last_reported":1774325288,"current_range_meters":6800,"station_id":"st_d2m65c5bi1j21697t3ng","pricing_plan_id":"cebpf4jnsgd1na2vs0mg"},{"bike_id":"d2260517-36eb-498b-95a6-a249410b03cf","system_id":"levelo_inurba_marseille","lat":43.26559,"lon":5.39798,"is_reserved":false,"is_disabled":false,"rental_uris":{"android":"levelo://app?vid=d2260517-36eb-498b-95a6-a249410b03cf","ios":"levelo://app?vid=d2260517-36eb-498b-95a6-a249410b03cf"},"vehicle_type_id":"4","last_reported":1774325288,"current_range_meters":6800,"station_id":"","pricing_plan_id":"cebpf4jnsgd1na2vs0mg"},{"bike_id":"c40151c1-fd25-4747-aa9f-2b3315c2576f","system_id":"levelo_inurba_marseille","lat":43.30932,"lon":5.40154,"is_reserved":false,"is_disabled":false,"rental_uris":{"android":"levelo://app?vid=c40151c1-fd25-4747-aa9f-2b3315c2576f","ios":"levelo://app?vid=c40151c1-fd25-4747-aa9f-2b3315c2576f"},"vehicle_type_id":"4","last_reported":1774325288,"current_range_meters":6800,"station_id":"ce4bgvp2rcd13ifvqct0","pricing_plan_id":"cebpf4jnsgd1na2vs0mg"},{"bike_id":"df0e872e-7823-4be5-8eef-e6b05d80e3e1","system_id":"levelo_inurba_marseille","lat":43.27833,"lon":5.39215,"is_reserved":false,"is_disabled":false,"rental_uris":{"android":"levelo://app?vid=df0e872e-7823-4be5-8eef-e6b05d80e3e1","ios":"levelo://app?vid=df0e872e-7823-4be5-8eef-e6b05d80e3e1"},"vehicle_type_id":"4","last_reported":1774325288,"current_range_meters":6800,"station_id":"ce4bhjp2rcd13ifvqga0","pricing_plan_id":"cebpf4jnsgd1na2vs0mg"},{"bike_id":"2f19aac5-6fa8-4c35-bc0a-d8cdfbd988e3","system_id":"levelo_inurba_marseille","lat":43.29572,"lon":5.39982,"is_reserved":false,"is_disabled":false,"rental_uris":{"android":"levelo://app?vid=2f19aac5-6fa8-4c35-bc0a-d8cdfbd988e3","ios":"levelo://app?vid=2f19aac5-6fa8-4c35-bc0a-d8cdfbd988e3"},"vehicle_type_id":"4","last_reported":1774325288,"current_range_meters":6800,"station_id":"ce4bh312rcd13ifvqdj0","pricing_plan_id":"cebpf4jnsgd1na2vs0mg"},{"bike_id":"bbcec521-b2cb-4752-a30b-3cc813f9ce07","system_id":"levelo_inurba_marseille","lat":43.28756,"lon":5.44818,"is_reserved":false,"is_disabled":false,"rental_uris":{"android":"levelo://app?vid=bbcec521-b2cb-4752-a30b-3cc813f9ce07","ios":"levelo://app?vid=bbcec521-b2cb-4752-a30b-3cc813f9ce07"},"vehicle_type_id":"4","last_reported":1774325288,"current_range_meters":6800,"station_id":"","pricing_plan_id":"cebpf4jnsgd1na2vs0mg"},{"bike_id":"59320224-03ff-4fa2-8a28-3304debe9556","system_id":"levelo_inurba_marseille","lat":43.28424,"lon":5.3499,"is_reserved":false,"is_disabled":false,"rental_uris":{"android":"levelo://app?vid=59320224-03ff-4fa2-8a28-3304debe9556","ios":"levelo://app?vid=59320224-03ff-4fa2-8a28-3304debe9556"},"vehicle_type_id":"4","last_reported":1774325288,"current_range_meters":6800,"station_id":"ce4bhbh2rcd13ifvqepg","pricing_plan_id":"cebpf4jnsgd1na2vs0mg"},{"bike_id":"9ee9e783-2c85-4849-91db-12992211c84e","system_id":"levelo_inurba_marseille","lat":43.23144,"lon":5.43716,"is_reserved":false,"is_disabled":false,"rental_uris":{"android":"levelo://app?vid=9ee9e783-2c85-4849-91db-12992211c84e","ios":"levelo://app?vid=9ee9e783-2c85-4849-91db-12992211c84e"},"vehicle_type_id":"4","last_reported":1774325288,"current_range_meters":7200,"station_id":"ce4bhmp2rcd13ifvqgog","pricing_plan_id":"cebpf4jnsgd1na2vs0mg"},{"bike_id":"a2fabdf4-bd61-4352-82b4-201f5349c59d","system_id":"levelo_inurba_marseille","lat":43.26559,"lon":5.39015,"is_reserved":false,"is_disabled":true,"rental_uris":{"android":"levelo://app?vid=a2fabdf4-bd61-4352-82b4-201f5349c59d","ios":"levelo://app?vid=a2fabdf4-bd61-4352-82b4-201f5349c59d"},"vehicle_type_id":"4","last_reported":1774325288,"current_range_meters":7200,"station_id":"ce4bhe12rcd13ifvqf30","pricing_plan_id":"cebpf4jnsgd1na2vs0mg"},{"bike_id":"e41c893a-4032-48f3-bf3a-8efcbfe1465c","system_id":"levelo_inurba_marseille","lat":43.25829,"lon":5.39448,"is_reserved":false,"is_disabled":true,"rental_uris":{"android":"levelo://app?vid=e41c893a-4032-48f3-bf3a-8efcbfe1465c","ios":"levelo://app?vid=e41c893a-4032-48f3-bf3a-8efcbfe1465c"},"vehicle_type_id":"4","last_reported":1774325288,"current_range_meters":7200,"station_id":"ce4bhip2rcd13ifvqft0","pricing_plan_id":"cebpf4jnsgd1na2vs0mg"},{"bike_id":"80322e6f-586a-421f-ad90-23d802ed8962","system_id":"levelo_inurba_marseille","lat":43.24052,"lon":5.37763,"is_reserved":false,"is_disabled":false,"rental_uris":{"android":"levelo://app?vid=80322e6f-586a-421f-ad90-23d802ed8962","ios":"levelo://app?vid=80322e6f-586a-421f-ad90-23d802ed8962"},"vehicle_type_id":"4","last_reported":1774325288,"current_range_meters":7200,"station_id":"ce4bhnp2rcd13ifvqgvg","pricing_plan_id":"cebpf4jnsgd1na2vs0mg"},{"bike_id":"bf5af6f8-69a5-4b76-be3f-994c76781739","system_id":"levelo_inurba_marseille","lat":43.2656,"lon":5.38994,"is_reserved":false,"is_disabled":true,"rental_uris":{"android":"levelo://app?vid=bf5af6f8-69a5-4b76-be3f-994c76781739","ios":"levelo://app?vid=bf5af6f8-69a5-4b76-be3f-994c76781739"},"vehicle_type_id":"4","last_reported":1774325288,"current_range_meters":7200,"station_id":"ce4bhe12rcd13ifvqf30","pricing_plan_id":"cebpf4jnsgd1na2vs0mg"},{"bike_id":"a9fcd02c-7b6b-4ad8-a39d-d88606ee3ac0","system_id":"levelo_inurba_marseille","lat":43.25003,"lon":5.38928,"is_reserved":false,"is_disabled":true,"rental_uris":{"android":"levelo://app?vid=a9fcd02c-7b6b-4ad8-a39d-d88606ee3ac0","ios":"levelo://app?vid=a9fcd02c-7b6b-4ad8-a39d-d88606ee3ac0"},"vehicle_type_id":"4","last_reported":1774325288,"current_range_meters":7200,"station_id":"ce4bhgp2rcd13ifvqfd0","pricing_plan_id":"cebpf4jnsgd1na2vs0mg"},{"bike_id":"1d0f3067-7ca2-4fbd-8b40-b921c6748a4a","system_id":"levelo_inurba_marseille","lat":43.2847,"lon":5.48385,"is_reserved":false,"is_disabled":false,"rental_uris":{"android":"levelo://app?vid=1d0f3067-7ca2-4fbd-8b40-b921c6748a4a","ios":"levelo://app?vid=1d0f3067-7ca2-4fbd-8b40-b921c6748a4a"},"vehicle_type_id":"4","last_reported":1774325288,"current_range_meters":7200,"station_id":"","pricing_plan_id":"cebpf4jnsgd1na2vs0mg"},{"bike_id":"07906a38-5792-4531-97b5-a5ae0ec09a66","system_id":"levelo_inurba_marseille","lat":43.31355,"lon":5.38503,"is_reserved":false,"is_disabled":false,"rental_uris":{"android":"levelo://app?vid=07906a38-5792-4531-97b5-a5ae0ec09a66","ios":"levelo://app?vid=07906a38-5792-4531-97b5-a5ae0ec09a66"},"vehicle_type_id":"4","last_reported":1774325288,"current_range_meters":7200,"station_id":"ce4bgt92rcd13ifvqcf0","pricing_plan_id":"cebpf4jnsgd1na2vs0mg"},{"bike_id":"ee698121-d38a-42d7-b2ad-b69bddb1a86c","system_id":"levelo_inurba_marseille","lat":43.28396,"lon":5.34988,"is_reserved":false,"is_disabled":false,"rental_uris":{"android":"levelo://app?vid=ee698121-d38a-42d7-b2ad-b69bddb1a86c","ios":"levelo://app?vid=ee698121-d38a-42d7-b2ad-b69bddb1a86c"},"vehicle_type_id":"4","last_reported":1774325288,"current_range_meters":7200,"station_id":"ce4bhbh2rcd13ifvqepg","pricing_plan_id":"cebpf4jnsgd1na2vs0mg"},{"bike_id":"54a63793-7631-4bde-a8f4-6d0605a28852","system_id":"levelo_inurba_marseille","lat":43.28854,"lon":5.39335,"is_reserved":false,"is_disabled":false,"rental_uris":{"android":"levelo://app?vid=54a63793-7631-4bde-a8f4-6d0605a28852","ios":"levelo://app?vid=54a63793-7631-4bde-a8f4-6d0605a28852"},"vehicle_type_id":"4","last_reported":1774325288,"current_range_meters":7200,"station_id":"ce4bh2p2rcd13ifvqdi0","pricing_plan_id":"cebpf4jnsgd1na2vs0mg"},{"bike_id":"67fa727b-a75e-43f5-8f7f-0420dd73f369","system_id":"levelo_inurba_marseille","lat":43.3149,"lon":5.37289,"is_reserved":false,"is_disabled":false,"rental_uris":{"android":"levelo://app?vid=67fa727b-a75e-43f5-8f7f-0420dd73f369","ios":"levelo://app?vid=67fa727b-a75e-43f5-8f7f-0420dd73f369"},"vehicle_type_id":"4","last_reported":1774325288,"current_range_meters":7200,"station_id":"ce4bgt12rcd13ifvqcd0","pricing_plan_id":"cebpf4jnsgd1na2vs0mg"},{"bike_id":"ab64201a-d69c-4a4a-9942-16f377de3b48","system_id":"levelo_inurba_marseille","lat":43.2989,"lon":5.39731,"is_reserved":false,"is_disabled":false,"rental_uris":{"android":"levelo://app?vid=ab64201a-d69c-4a4a-9942-16f377de3b48","ios":"levelo://app?vid=ab64201a-d69c-4a4a-9942-16f377de3b48"},"vehicle_type_id":"4","last_reported":1774325288,"current_range_meters":7200,"station_id":"ce4bh0h2rcd13ifvqd50","pricing_plan_id":"cebpf4jnsgd1na2vs0mg"},{"bike_id":"72999db3-62c4-4d6b-9c7f-3129997c7dc6","system_id":"levelo_inurba_marseille","lat":43.28132,"lon":5.40948,"is_reserved":false,"is_disabled":false,"rental_uris":{"android":"levelo://app?vid=72999db3-62c4-4d6b-9c7f-3129997c7dc6","ios":"levelo://app?vid=72999db3-62c4-4d6b-9c7f-3129997c7dc6"},"vehicle_type_id":"4","last_reported":1774325288,"current_range_meters":7200,"station_id":"","pricing_plan_id":"cebpf4jnsgd1na2vs0mg"},{"bike_id":"5a8bd1b9-5014-4460-adf8-5a023fb4e50b","system_id":"levelo_inurba_marseille","lat":43.29859,"lon":5.39736,"is_reserved":false,"is_disabled":false,"rental_uris":{"android":"levelo://app?vid=5a8bd1b9-5014-4460-adf8-5a023fb4e50b","ios":"levelo://app?vid=5a8bd1b9-5014-4460-adf8-5a023fb4e50b"},"vehicle_type_id":"4","last_reported":1774325288,"current_range_meters":7200,"station_id":"ce4bh0h2rcd13ifvqd50","pricing_plan_id":"cebpf4jnsgd1na2vs0mg"},{"bike_id":"ddd19851-2813-4f37-ad2a-16ff941ac458","system_id":"levelo_inurba_marseille","lat":43.26923,"lon":5.40249,"is_reserved":false,"is_disabled":false,"rental_uris":{"android":"levelo://app?vid=ddd19851-2813-4f37-ad2a-16ff941ac458","ios":"levelo://app?vid=ddd19851-2813-4f37-ad2a-16ff941ac458"},"vehicle_type_id":"4","last_reported":1774325288,"current_range_meters":7200,"station_id":"cjm6bp8fraef2m0cb0m0","pricing_plan_id":"cebpf4jnsgd1na2vs0mg"},{"bike_id":"090fd9bb-ef90-41a1-8cdf-0ed7c29cb81a","system_id":"levelo_inurba_marseille","lat":43.24683,"lon":5.38299,"is_reserved":false,"is_disabled":false,"rental_uris":{"android":"levelo://app?vid=090fd9bb-ef90-41a1-8cdf-0ed7c29cb81a","ios":"levelo://app?vid=090fd9bb-ef90-41a1-8cdf-0ed7c29cb81a"},"vehicle_type_id":"4","last_reported":1774325288,"current_range_meters":7200,"station_id":"ce4bhih2rcd13ifvqfr0","pricing_plan_id":"cebpf4jnsgd1na2vs0mg"},{"bike_id":"61e356eb-7886-4129-a80e-fa8c71c88763","system_id":"levelo_inurba_marseille","lat":43.28581,"lon":5.37454,"is_reserved":false,"is_disabled":false,"rental_uris":{"android":"levelo://app?vid=61e356eb-7886-4129-a80e-fa8c71c88763","ios":"levelo://app?vid=61e356eb-7886-4129-a80e-fa8c71c88763"},"vehicle_type_id":"4","last_reported":1774325288,"current_range_meters":7200,"station_id":"","pricing_plan_id":"cebpf4jnsgd1na2vs0mg"},{"bike_id":"8b3b5143-9318-45ef-8c15-1a5e26dfeb39","system_id":"levelo_inurba_marseille","lat":43.28856,"lon":5.35825,"is_reserved":false,"is_disabled":false,"rental_uris":{"android":"levelo://app?vid=8b3b5143-9318-45ef-8c15-1a5e26dfeb39","ios":"levelo://app?vid=8b3b5143-9318-45ef-8c15-1a5e26dfeb39"},"vehicle_type_id":"4","last_reported":1774325288,"current_range_meters":7200,"station_id":"ce4bhb12rcd13ifvqem0","pricing_plan_id":"cebpf4jnsgd1na2vs0mg"},{"bike_id":"d89b1915-483d-4d09-b44a-47b8df915eef","system_id":"levelo_inurba_marseille","lat":43.23083,"lon":5.35487,"is_reserved":false,"is_disabled":false,"rental_uris":{"android":"levelo://app?vid=d89b1915-483d-4d09-b44a-47b8df915eef","ios":"levelo://app?vid=d89b1915-483d-4d09-b44a-47b8df915eef"},"vehicle_type_id":"4","last_reported":1774325288,"current_range_meters":7200,"station_id":"cpo3342slgdg3j2ifvpg","pricing_plan_id":"cebpf4jnsgd1na2vs0mg"},{"bike_id":"40906df4-17dd-4d9f-ac1f-0880c5eb117e","system_id":"levelo_inurba_marseille","lat":43.32345,"lon":5.36728,"is_reserved":false,"is_disabled":false,"rental_uris":{"android":"levelo://app?vid=40906df4-17dd-4d9f-ac1f-0880c5eb117e","ios":"levelo://app?vid=40906df4-17dd-4d9f-ac1f-0880c5eb117e"},"vehicle_type_id":"4","last_reported":1774325288,"current_range_meters":8000,"station_id":"ce4bhsh2rcd13ifvqi2g","pricing_plan_id":"cebpf4jnsgd1na2vs0mg"},{"bike_id":"77deb619-deef-42c1-ade2-8dca83a843fb","system_id":"levelo_inurba_marseille","lat":43.29489,"lon":5.43304,"is_reserved":false,"is_disabled":false,"rental_uris":{"android":"levelo://app?vid=77deb619-deef-42c1-ade2-8dca83a843fb","ios":"levelo://app?vid=77deb619-deef-42c1-ade2-8dca83a843fb"},"vehicle_type_id":"4","last_reported":1774325288,"current_range_meters":8000,"station_id":"st_d3j5ugp08ojc73fj9d10","pricing_plan_id":"cebpf4jnsgd1na2vs0mg"},{"bike_id":"aaa2a7c9-9605-4ee1-9de0-555cf66acf63","system_id":"levelo_inurba_marseille","lat":43.29877,"lon":5.39741,"is_reserved":false,"is_disabled":false,"rental_uris":{"android":"levelo://app?vid=aaa2a7c9-9605-4ee1-9de0-555cf66acf63","ios":"levelo://app?vid=aaa2a7c9-9605-4ee1-9de0-555cf66acf63"},"vehicle_type_id":"4","last_reported":1774325288,"current_range_meters":8000,"station_id":"ce4bh0h2rcd13ifvqd50","pricing_plan_id":"cebpf4jnsgd1na2vs0mg"},{"bike_id":"f910acab-e234-4475-91c9-ec3fea6d1bf3","system_id":"levelo_inurba_marseille","lat":43.29896,"lon":5.43657,"is_reserved":false,"is_disabled":false,"rental_uris":{"android":"levelo://app?vid=f910acab-e234-4475-91c9-ec3fea6d1bf3","ios":"levelo://app?vid=f910acab-e234-4475-91c9-ec3fea6d1bf3"},"vehicle_type_id":"4","last_reported":1774325288,"current_range_meters":8000,"station_id":"ce4bhpp2rcd13ifvqhfg","pricing_plan_id":"cebpf4jnsgd1na2vs0mg"},{"bike_id":"cd0735fe-704a-44cd-ac85-6b563bbd6b48","system_id":"levelo_inurba_marseille","lat":43.28959,"lon":5.36629,"is_reserved":false,"is_disabled":false,"rental_uris":{"android":"levelo://app?vid=cd0735fe-704a-44cd-ac85-6b563bbd6b48","ios":"levelo://app?vid=cd0735fe-704a-44cd-ac85-6b563bbd6b48"},"vehicle_type_id":"4","last_reported":1774325288,"current_range_meters":8000,"station_id":"ce4bhap2rcd13ifvqek0","pricing_plan_id":"cebpf4jnsgd1na2vs0mg"},{"bike_id":"e777dc2e-9308-43c6-a6be-09685ee35cc2","system_id":"levelo_inurba_marseille","lat":43.28536,"lon":5.44117,"is_reserved":false,"is_disabled":false,"rental_uris":{"android":"levelo://app?vid=e777dc2e-9308-43c6-a6be-09685ee35cc2","ios":"levelo://app?vid=e777dc2e-9308-43c6-a6be-09685ee35cc2"},"vehicle_type_id":"4","last_reported":1774325288,"current_range_meters":8000,"station_id":"st_d3j3df2ikq2c7380ej80","pricing_plan_id":"cebpf4jnsgd1na2vs0mg"},{"bike_id":"bf304e04-5a98-4662-b727-cb0195581c24","system_id":"levelo_inurba_marseille","lat":43.24801,"lon":5.37457,"is_reserved":false,"is_disabled":false,"rental_uris":{"android":"levelo://app?vid=bf304e04-5a98-4662-b727-cb0195581c24","ios":"levelo://app?vid=bf304e04-5a98-4662-b727-cb0195581c24"},"vehicle_type_id":"4","last_reported":1774325288,"current_range_meters":8000,"station_id":"ce4bhgh2rcd13ifvqfb0","pricing_plan_id":"cebpf4jnsgd1na2vs0mg"},{"bike_id":"5cca4b32-612b-471f-a02d-66912cbe70ff","system_id":"levelo_inurba_marseille","lat":43.21187,"lon":5.35075,"is_reserved":false,"is_disabled":true,"rental_uris":{"android":"levelo://app?vid=5cca4b32-612b-471f-a02d-66912cbe70ff","ios":"levelo://app?vid=5cca4b32-612b-471f-a02d-66912cbe70ff"},"vehicle_type_id":"4","last_reported":1774325288,"current_range_meters":8000,"station_id":"st_cvj6sg6p6f1abm77japg","pricing_plan_id":"cebpf4jnsgd1na2vs0mg"},{"bike_id":"aa929685-e4dd-4a31-a1c6-979463fa81a3","system_id":"levelo_inurba_marseille","lat":43.28472,"lon":5.48393,"is_reserved":false,"is_disabled":false,"rental_uris":{"android":"levelo://app?vid=aa929685-e4dd-4a31-a1c6-979463fa81a3","ios":"levelo://app?vid=aa929685-e4dd-4a31-a1c6-979463fa81a3"},"vehicle_type_id":"4","last_reported":1774325288,"current_range_meters":8000,"station_id":"st_d3svhcjqgbts73a3dn0g","pricing_plan_id":"cebpf4jnsgd1na2vs0mg"},{"bike_id":"de080062-3a9b-4bf2-bc8f-71e6332f2301","system_id":"levelo_inurba_marseille","lat":43.2174,"lon":5.34631,"is_reserved":false,"is_disabled":false,"rental_uris":{"android":"levelo://app?vid=de080062-3a9b-4bf2-bc8f-71e6332f2301","ios":"levelo://app?vid=de080062-3a9b-4bf2-bc8f-71e6332f2301"},"vehicle_type_id":"4","last_reported":1774325288,"current_range_meters":8000,"station_id":"st_cvj6r9ubvosntc0bgbag","pricing_plan_id":"cebpf4jnsgd1na2vs0mg"},{"bike_id":"8a9f554f-d70a-4d04-b300-264e4474aeea","system_id":"levelo_inurba_marseille","lat":43.29227,"lon":5.3844,"is_reserved":false,"is_disabled":false,"rental_uris":{"android":"levelo://app?vid=8a9f554f-d70a-4d04-b300-264e4474aeea","ios":"levelo://app?vid=8a9f554f-d70a-4d04-b300-264e4474aeea"},"vehicle_type_id":"4","last_reported":1774325288,"current_range_meters":8000,"station_id":"ce4bh692rcd13ifvqea0","pricing_plan_id":"cebpf4jnsgd1na2vs0mg"},{"bike_id":"4ce98637-072f-4197-bd69-11f207a88eab","system_id":"levelo_inurba_marseille","lat":43.28496,"lon":5.47279,"is_reserved":false,"is_disabled":false,"rental_uris":{"android":"levelo://app?vid=4ce98637-072f-4197-bd69-11f207a88eab","ios":"levelo://app?vid=4ce98637-072f-4197-bd69-11f207a88eab"},"vehicle_type_id":"4","last_reported":1774325288,"current_range_meters":8000,"station_id":"","pricing_plan_id":"cebpf4jnsgd1na2vs0mg"},{"bike_id":"3f30f2ff-40f2-4f9d-996a-0de8bac95dfa","system_id":"levelo_inurba_marseille","lat":43.26569,"lon":5.37309,"is_reserved":false,"is_disabled":false,"rental_uris":{"android":"levelo://app?vid=3f30f2ff-40f2-4f9d-996a-0de8bac95dfa","ios":"levelo://app?vid=3f30f2ff-40f2-4f9d-996a-0de8bac95dfa"},"vehicle_type_id":"4","last_reported":1774325288,"current_range_meters":8000,"station_id":"ce4bhg12rcd13ifvqf70","pricing_plan_id":"cebpf4jnsgd1na2vs0mg"},{"bike_id":"0b786319-6d9f-4d1c-890a-5150198e272a","system_id":"levelo_inurba_marseille","lat":43.28481,"lon":5.484,"is_reserved":false,"is_disabled":false,"rental_uris":{"android":"levelo://app?vid=0b786319-6d9f-4d1c-890a-5150198e272a","ios":"levelo://app?vid=0b786319-6d9f-4d1c-890a-5150198e272a"},"vehicle_type_id":"4","last_reported":1774325288,"current_range_meters":8000,"station_id":"st_d3svhcjqgbts73a3dn0g","pricing_plan_id":"cebpf4jnsgd1na2vs0mg"},{"bike_id":"72c8e3c0-52d4-49e1-9aa9-201dd7c27a60","system_id":"levelo_inurba_marseille","lat":43.31123,"lon":5.37807,"is_reserved":false,"is_disabled":true,"rental_uris":{"android":"levelo://app?vid=72c8e3c0-52d4-49e1-9aa9-201dd7c27a60","ios":"levelo://app?vid=72c8e3c0-52d4-49e1-9aa9-201dd7c27a60"},"vehicle_type_id":"4","last_reported":1774325288,"current_range_meters":8000,"station_id":"ce4bgt92rcd13ifvqcg0","pricing_plan_id":"cebpf4jnsgd1na2vs0mg"},{"bike_id":"f35a9644-f102-427c-8b00-579a35988db3","system_id":"levelo_inurba_marseille","lat":43.21181,"lon":5.35062,"is_reserved":false,"is_disabled":false,"rental_uris":{"android":"levelo://app?vid=f35a9644-f102-427c-8b00-579a35988db3","ios":"levelo://app?vid=f35a9644-f102-427c-8b00-579a35988db3"},"vehicle_type_id":"4","last_reported":1774325288,"current_range_meters":8000,"station_id":"st_cvj6sg6p6f1abm77japg","pricing_plan_id":"cebpf4jnsgd1na2vs0mg"},{"bike_id":"69a34fac-fc80-43dc-bb66-91eee3bdfb90","system_id":"levelo_inurba_marseille","lat":43.28775,"lon":5.35369,"is_reserved":false,"is_disabled":false,"rental_uris":{"android":"levelo://app?vid=69a34fac-fc80-43dc-bb66-91eee3bdfb90","ios":"levelo://app?vid=69a34fac-fc80-43dc-bb66-91eee3bdfb90"},"vehicle_type_id":"4","last_reported":1774325288,"current_range_meters":8000,"station_id":"","pricing_plan_id":"cebpf4jnsgd1na2vs0mg"},{"bike_id":"17c1f954-7ef7-4a5f-844e-17131e305a89","system_id":"levelo_inurba_marseille","lat":43.23883,"lon":5.37465,"is_reserved":false,"is_disabled":false,"rental_uris":{"android":"levelo://app?vid=17c1f954-7ef7-4a5f-844e-17131e305a89","ios":"levelo://app?vid=17c1f954-7ef7-4a5f-844e-17131e305a89"},"vehicle_type_id":"4","last_reported":1774325288,"current_range_meters":8000,"station_id":"st_d6sm7csbq4hs73f8fpjg","pricing_plan_id":"cebpf4jnsgd1na2vs0mg"},{"bike_id":"04e42d2b-817b-4033-8935-148ae7f53cb4","system_id":"levelo_inurba_marseille","lat":43.28178,"lon":5.39066,"is_reserved":false,"is_disabled":true,"rental_uris":{"android":"levelo://app?vid=04e42d2b-817b-4033-8935-148ae7f53cb4","ios":"levelo://app?vid=04e42d2b-817b-4033-8935-148ae7f53cb4"},"vehicle_type_id":"4","last_reported":1774325288,"current_range_meters":8000,"station_id":"","pricing_plan_id":"cebpf4jnsgd1na2vs0mg"},{"bike_id":"2caf2a89-9373-4d8e-ad99-93761ad184e5","system_id":"levelo_inurba_marseille","lat":43.28064,"lon":5.39638,"is_reserved":false,"is_disabled":false,"rental_uris":{"android":"levelo://app?vid=2caf2a89-9373-4d8e-ad99-93761ad184e5","ios":"levelo://app?vid=2caf2a89-9373-4d8e-ad99-93761ad184e5"},"vehicle_type_id":"4","last_reported":1774325288,"current_range_meters":8000,"station_id":"ce4bho12rcd13ifvqh2g","pricing_plan_id":"cebpf4jnsgd1na2vs0mg"},{"bike_id":"10fd2269-34bf-4b8a-a12a-74a968419364","system_id":"levelo_inurba_marseille","lat":43.27323,"lon":5.39079,"is_reserved":false,"is_disabled":false,"rental_uris":{"android":"levelo://app?vid=10fd2269-34bf-4b8a-a12a-74a968419364","ios":"levelo://app?vid=10fd2269-34bf-4b8a-a12a-74a968419364"},"vehicle_type_id":"4","last_reported":1774325288,"current_range_meters":8000,"station_id":"ce4bhgp2rcd13ifvqfe0","pricing_plan_id":"cebpf4jnsgd1na2vs0mg"},{"bike_id":"611222f5-c031-46e2-a628-0f98cf0b2992","system_id":"levelo_inurba_marseille","lat":43.30441,"lon":5.38923,"is_reserved":false,"is_disabled":false,"rental_uris":{"android":"levelo://app?vid=611222f5-c031-46e2-a628-0f98cf0b2992","ios":"levelo://app?vid=611222f5-c031-46e2-a628-0f98cf0b2992"},"vehicle_type_id":"4","last_reported":1774325288,"current_range_meters":8400,"station_id":"ce4bgk12rcd13ifvqbi0","pricing_plan_id":"cebpf4jnsgd1na2vs0mg"},{"bike_id":"2f5b6265-483e-47d4-831c-32860cec290b","system_id":"levelo_inurba_marseille","lat":43.29572,"lon":5.42278,"is_reserved":false,"is_disabled":false,"rental_uris":{"android":"levelo://app?vid=2f5b6265-483e-47d4-831c-32860cec290b","ios":"levelo://app?vid=2f5b6265-483e-47d4-831c-32860cec290b"},"vehicle_type_id":"4","last_reported":1774325288,"current_range_meters":8400,"station_id":"ce4bhph2rcd13ifvqhdg","pricing_plan_id":"cebpf4jnsgd1na2vs0mg"},{"bike_id":"9cedd85d-97b8-45f3-adc1-43327d4c62ed","system_id":"levelo_inurba_marseille","lat":43.28631,"lon":5.3513,"is_reserved":false,"is_disabled":false,"rental_uris":{"android":"levelo://app?vid=9cedd85d-97b8-45f3-adc1-43327d4c62ed","ios":"levelo://app?vid=9cedd85d-97b8-45f3-adc1-43327d4c62ed"},"vehicle_type_id":"4","last_reported":1774325288,"current_range_meters":8400,"station_id":"ce4bhch2rcd13ifvqeug","pricing_plan_id":"cebpf4jnsgd1na2vs0mg"},{"bike_id":"f329e31a-d145-44dd-a6c7-77d893fce1d9","system_id":"levelo_inurba_marseille","lat":43.25335,"lon":5.42186,"is_reserved":false,"is_disabled":false,"rental_uris":{"android":"levelo://app?vid=f329e31a-d145-44dd-a6c7-77d893fce1d9","ios":"levelo://app?vid=f329e31a-d145-44dd-a6c7-77d893fce1d9"},"vehicle_type_id":"4","last_reported":1774325288,"current_range_meters":8400,"station_id":"st_d2m65c5bi1j21697t3ng","pricing_plan_id":"cebpf4jnsgd1na2vs0mg"},{"bike_id":"e1ce74bf-4ae3-4802-a3a3-0f5ea1b8999a","system_id":"levelo_inurba_marseille","lat":43.29569,"lon":5.39983,"is_reserved":false,"is_disabled":false,"rental_uris":{"android":"levelo://app?vid=e1ce74bf-4ae3-4802-a3a3-0f5ea1b8999a","ios":"levelo://app?vid=e1ce74bf-4ae3-4802-a3a3-0f5ea1b8999a"},"vehicle_type_id":"4","last_reported":1774325288,"current_range_meters":8400,"station_id":"ce4bh312rcd13ifvqdj0","pricing_plan_id":"cebpf4jnsgd1na2vs0mg"},{"bike_id":"8ec5614e-210b-4df6-a3c8-4cb8aebb2322","system_id":"levelo_inurba_marseille","lat":43.28199,"lon":5.39043,"is_reserved":false,"is_disabled":false,"rental_uris":{"android":"levelo://app?vid=8ec5614e-210b-4df6-a3c8-4cb8aebb2322","ios":"levelo://app?vid=8ec5614e-210b-4df6-a3c8-4cb8aebb2322"},"vehicle_type_id":"4","last_reported":1774325288,"current_range_meters":8400,"station_id":"ce4bhn92rcd13ifvqgsg","pricing_plan_id":"cebpf4jnsgd1na2vs0mg"},{"bike_id":"599f0d21-9b9b-4762-92ac-f5d6b945f516","system_id":"levelo_inurba_marseille","lat":43.30548,"lon":5.38441,"is_reserved":false,"is_disabled":false,"rental_uris":{"android":"levelo://app?vid=599f0d21-9b9b-4762-92ac-f5d6b945f516","ios":"levelo://app?vid=599f0d21-9b9b-4762-92ac-f5d6b945f516"},"vehicle_type_id":"4","last_reported":1774325288,"current_range_meters":8400,"station_id":"ce4bgg92rcd13ifvqb30","pricing_plan_id":"cebpf4jnsgd1na2vs0mg"},{"bike_id":"a96f929b-93b0-4a52-b67b-918973c7d411","system_id":"levelo_inurba_marseille","lat":43.2466,"lon":5.38132,"is_reserved":false,"is_disabled":false,"rental_uris":{"android":"levelo://app?vid=a96f929b-93b0-4a52-b67b-918973c7d411","ios":"levelo://app?vid=a96f929b-93b0-4a52-b67b-918973c7d411"},"vehicle_type_id":"4","last_reported":1774325288,"current_range_meters":8400,"station_id":"ce4bhih2rcd13ifvqfr0","pricing_plan_id":"cebpf4jnsgd1na2vs0mg"},{"bike_id":"a5a9cf3a-6487-4eff-8fad-c46d442af009","system_id":"levelo_inurba_marseille","lat":43.28695,"lon":5.3738,"is_reserved":false,"is_disabled":false,"rental_uris":{"android":"levelo://app?vid=a5a9cf3a-6487-4eff-8fad-c46d442af009","ios":"levelo://app?vid=a5a9cf3a-6487-4eff-8fad-c46d442af009"},"vehicle_type_id":"4","last_reported":1774325288,"current_range_meters":8400,"station_id":"ce4bh3p2rcd13ifvqdq0","pricing_plan_id":"cebpf4jnsgd1na2vs0mg"},{"bike_id":"7b45e91f-c3c9-4ba9-87db-c8c6037a7491","system_id":"levelo_inurba_marseille","lat":43.31319,"lon":5.39716,"is_reserved":false,"is_disabled":false,"rental_uris":{"android":"levelo://app?vid=7b45e91f-c3c9-4ba9-87db-c8c6037a7491","ios":"levelo://app?vid=7b45e91f-c3c9-4ba9-87db-c8c6037a7491"},"vehicle_type_id":"4","last_reported":1774325288,"current_range_meters":8400,"station_id":"ce4bgvp2rcd13ifvqcu0","pricing_plan_id":"cebpf4jnsgd1na2vs0mg"},{"bike_id":"eb985356-a5f9-4c87-9e19-2b3bf1aa00a1","system_id":"levelo_inurba_marseille","lat":43.28397,"lon":5.37537,"is_reserved":false,"is_disabled":false,"rental_uris":{"android":"levelo://app?vid=eb985356-a5f9-4c87-9e19-2b3bf1aa00a1","ios":"levelo://app?vid=eb985356-a5f9-4c87-9e19-2b3bf1aa00a1"},"vehicle_type_id":"4","last_reported":1774325288,"current_range_meters":8400,"station_id":"ce4bh412rcd13ifvqds0","pricing_plan_id":"cebpf4jnsgd1na2vs0mg"},{"bike_id":"bbf06f99-10eb-4743-9c34-2b5936013bcc","system_id":"levelo_inurba_marseille","lat":43.23778,"lon":5.3663,"is_reserved":false,"is_disabled":false,"rental_uris":{"android":"levelo://app?vid=bbf06f99-10eb-4743-9c34-2b5936013bcc","ios":"levelo://app?vid=bbf06f99-10eb-4743-9c34-2b5936013bcc"},"vehicle_type_id":"4","last_reported":1774325288,"current_range_meters":8400,"station_id":"st_d3nk18o9ro0c73en2l3g","pricing_plan_id":"cebpf4jnsgd1na2vs0mg"},{"bike_id":"7e03e45c-d69c-4371-8267-aa26cde43729","system_id":"levelo_inurba_marseille","lat":43.25565,"lon":5.38239,"is_reserved":false,"is_disabled":true,"rental_uris":{"android":"levelo://app?vid=7e03e45c-d69c-4371-8267-aa26cde43729","ios":"levelo://app?vid=7e03e45c-d69c-4371-8267-aa26cde43729"},"vehicle_type_id":"4","last_reported":1774325288,"current_range_meters":8400,"station_id":"ce4bhih2rcd13ifvqfs0","pricing_plan_id":"cebpf4jnsgd1na2vs0mg"},{"bike_id":"92ee54a6-63c9-4c33-8048-d4e5a1dc1020","system_id":"levelo_inurba_marseille","lat":43.33766,"lon":5.40998,"is_reserved":false,"is_disabled":false,"rental_uris":{"android":"levelo://app?vid=92ee54a6-63c9-4c33-8048-d4e5a1dc1020","ios":"levelo://app?vid=92ee54a6-63c9-4c33-8048-d4e5a1dc1020"},"vehicle_type_id":"4","last_reported":1774325288,"current_range_meters":8400,"station_id":"","pricing_plan_id":"cebpf4jnsgd1na2vs0mg"},{"bike_id":"1823341f-1aed-47f2-b2e6-385176535c31","system_id":"levelo_inurba_marseille","lat":43.31331,"lon":5.39686,"is_reserved":false,"is_disabled":false,"rental_uris":{"android":"levelo://app?vid=1823341f-1aed-47f2-b2e6-385176535c31","ios":"levelo://app?vid=1823341f-1aed-47f2-b2e6-385176535c31"},"vehicle_type_id":"4","last_reported":1774325288,"current_range_meters":8400,"station_id":"ce4bgvp2rcd13ifvqcu0","pricing_plan_id":"cebpf4jnsgd1na2vs0mg"},{"bike_id":"dc6b5f99-fae1-4f22-a1a9-6f28e41db96e","system_id":"levelo_inurba_marseille","lat":43.31466,"lon":5.371,"is_reserved":false,"is_disabled":false,"rental_uris":{"android":"levelo://app?vid=dc6b5f99-fae1-4f22-a1a9-6f28e41db96e","ios":"levelo://app?vid=dc6b5f99-fae1-4f22-a1a9-6f28e41db96e"},"vehicle_type_id":"4","last_reported":1774325288,"current_range_meters":8400,"station_id":"ce4bgt12rcd13ifvqcd0","pricing_plan_id":"cebpf4jnsgd1na2vs0mg"},{"bike_id":"0e2f4137-e82a-401c-945f-6a1c7c098239","system_id":"levelo_inurba_marseille","lat":43.29618,"lon":5.37142,"is_reserved":false,"is_disabled":false,"rental_uris":{"android":"levelo://app?vid=0e2f4137-e82a-401c-945f-6a1c7c098239","ios":"levelo://app?vid=0e2f4137-e82a-401c-945f-6a1c7c098239"},"vehicle_type_id":"4","last_reported":1774325288,"current_range_meters":8800,"station_id":"ce4bgnh2rcd13ifvqc0g","pricing_plan_id":"cebpf4jnsgd1na2vs0mg"},{"bike_id":"a0cd466d-85fa-4493-8548-74232b344d34","system_id":"levelo_inurba_marseille","lat":43.27891,"lon":5.38017,"is_reserved":false,"is_disabled":false,"rental_uris":{"android":"levelo://app?vid=a0cd466d-85fa-4493-8548-74232b344d34","ios":"levelo://app?vid=a0cd466d-85fa-4493-8548-74232b344d34"},"vehicle_type_id":"4","last_reported":1774325288,"current_range_meters":8800,"station_id":"ce4bhf92rcd13ifvqf50","pricing_plan_id":"cebpf4jnsgd1na2vs0mg"},{"bike_id":"b75036ac-d81d-4bfd-a9c8-a051a6ff39fe","system_id":"levelo_inurba_marseille","lat":43.28529,"lon":5.44126,"is_reserved":false,"is_disabled":false,"rental_uris":{"android":"levelo://app?vid=b75036ac-d81d-4bfd-a9c8-a051a6ff39fe","ios":"levelo://app?vid=b75036ac-d81d-4bfd-a9c8-a051a6ff39fe"},"vehicle_type_id":"4","last_reported":1774325288,"current_range_meters":8800,"station_id":"st_d3j3df2ikq2c7380ej80","pricing_plan_id":"cebpf4jnsgd1na2vs0mg"},{"bike_id":"a14d2edd-85c5-4116-8db5-355e3fb2ddbe","system_id":"levelo_inurba_marseille","lat":43.33533,"lon":5.37467,"is_reserved":false,"is_disabled":false,"rental_uris":{"android":"levelo://app?vid=a14d2edd-85c5-4116-8db5-355e3fb2ddbe","ios":"levelo://app?vid=a14d2edd-85c5-4116-8db5-355e3fb2ddbe"},"vehicle_type_id":"4","last_reported":1774325288,"current_range_meters":8800,"station_id":"st_d46tts09ee8s73dlu43g","pricing_plan_id":"cebpf4jnsgd1na2vs0mg"},{"bike_id":"edda675a-b62b-421d-aa8f-95ea6d9ae219","system_id":"levelo_inurba_marseille","lat":43.31498,"lon":5.37278,"is_reserved":false,"is_disabled":false,"rental_uris":{"android":"levelo://app?vid=edda675a-b62b-421d-aa8f-95ea6d9ae219","ios":"levelo://app?vid=edda675a-b62b-421d-aa8f-95ea6d9ae219"},"vehicle_type_id":"4","last_reported":1774325288,"current_range_meters":8800,"station_id":"ce4bgt12rcd13ifvqcd0","pricing_plan_id":"cebpf4jnsgd1na2vs0mg"},{"bike_id":"f1c771f1-41f5-4f91-9181-5190a1935200","system_id":"levelo_inurba_marseille","lat":43.26548,"lon":5.37274,"is_reserved":false,"is_disabled":false,"rental_uris":{"android":"levelo://app?vid=f1c771f1-41f5-4f91-9181-5190a1935200","ios":"levelo://app?vid=f1c771f1-41f5-4f91-9181-5190a1935200"},"vehicle_type_id":"4","last_reported":1774325288,"current_range_meters":8800,"station_id":"ce4bhg12rcd13ifvqf70","pricing_plan_id":"cebpf4jnsgd1na2vs0mg"},{"bike_id":"39c70932-630b-465a-a0ce-82a1b8882d58","system_id":"levelo_inurba_marseille","lat":43.28401,"lon":5.37511,"is_reserved":false,"is_disabled":false,"rental_uris":{"android":"levelo://app?vid=39c70932-630b-465a-a0ce-82a1b8882d58","ios":"levelo://app?vid=39c70932-630b-465a-a0ce-82a1b8882d58"},"vehicle_type_id":"4","last_reported":1774325288,"current_range_meters":8800,"station_id":"ce4bh412rcd13ifvqds0","pricing_plan_id":"cebpf4jnsgd1na2vs0mg"},{"bike_id":"da6972b3-b161-480b-8ef0-1ff556fc7299","system_id":"levelo_inurba_marseille","lat":43.23809,"lon":5.36685,"is_reserved":false,"is_disabled":false,"rental_uris":{"android":"levelo://app?vid=da6972b3-b161-480b-8ef0-1ff556fc7299","ios":"levelo://app?vid=da6972b3-b161-480b-8ef0-1ff556fc7299"},"vehicle_type_id":"4","last_reported":1774325288,"current_range_meters":8800,"station_id":"","pricing_plan_id":"cebpf4jnsgd1na2vs0mg"},{"bike_id":"8e331d09-f777-47e4-a327-164db2e188a9","system_id":"levelo_inurba_marseille","lat":43.2656,"lon":5.40332,"is_reserved":false,"is_disabled":true,"rental_uris":{"android":"levelo://app?vid=8e331d09-f777-47e4-a327-164db2e188a9","ios":"levelo://app?vid=8e331d09-f777-47e4-a327-164db2e188a9"},"vehicle_type_id":"4","last_reported":1774325288,"current_range_meters":8800,"station_id":"ce4bhmp2rcd13ifvqgng","pricing_plan_id":"cebpf4jnsgd1na2vs0mg"},{"bike_id":"2779071a-0999-4fcb-9b6a-6e3704ed8d45","system_id":"levelo_inurba_marseille","lat":43.27808,"lon":5.40729,"is_reserved":false,"is_disabled":false,"rental_uris":{"android":"levelo://app?vid=2779071a-0999-4fcb-9b6a-6e3704ed8d45","ios":"levelo://app?vid=2779071a-0999-4fcb-9b6a-6e3704ed8d45"},"vehicle_type_id":"4","last_reported":1774325288,"current_range_meters":8800,"station_id":"ce4bhnh2rcd13ifvqgtg","pricing_plan_id":"cebpf4jnsgd1na2vs0mg"},{"bike_id":"29f49a32-ba08-40ef-839e-89650b416d04","system_id":"levelo_inurba_marseille","lat":43.31037,"lon":5.3793,"is_reserved":false,"is_disabled":false,"rental_uris":{"android":"levelo://app?vid=29f49a32-ba08-40ef-839e-89650b416d04","ios":"levelo://app?vid=29f49a32-ba08-40ef-839e-89650b416d04"},"vehicle_type_id":"4","last_reported":1774325288,"current_range_meters":8800,"station_id":"","pricing_plan_id":"cebpf4jnsgd1na2vs0mg"},{"bike_id":"4393c5a5-c935-4322-8492-c2673eda0a2d","system_id":"levelo_inurba_marseille","lat":43.28408,"lon":5.37518,"is_reserved":false,"is_disabled":false,"rental_uris":{"android":"levelo://app?vid=4393c5a5-c935-4322-8492-c2673eda0a2d","ios":"levelo://app?vid=4393c5a5-c935-4322-8492-c2673eda0a2d"},"vehicle_type_id":"4","last_reported":1774325288,"current_range_meters":8800,"station_id":"ce4bh412rcd13ifvqds0","pricing_plan_id":"cebpf4jnsgd1na2vs0mg"},{"bike_id":"43dd9fc4-daa0-4ea2-8734-33577e1b27e7","system_id":"levelo_inurba_marseille","lat":43.28686,"lon":5.38714,"is_reserved":false,"is_disabled":false,"rental_uris":{"android":"levelo://app?vid=43dd9fc4-daa0-4ea2-8734-33577e1b27e7","ios":"levelo://app?vid=43dd9fc4-daa0-4ea2-8734-33577e1b27e7"},"vehicle_type_id":"4","last_reported":1774325288,"current_range_meters":8800,"station_id":"ce4bh492rcd13ifvqdug","pricing_plan_id":"cebpf4jnsgd1na2vs0mg"},{"bike_id":"b06ca3aa-4115-4d3b-82de-a3ec0b6205c3","system_id":"levelo_inurba_marseille","lat":43.30592,"lon":5.37221,"is_reserved":false,"is_disabled":true,"rental_uris":{"android":"levelo://app?vid=b06ca3aa-4115-4d3b-82de-a3ec0b6205c3","ios":"levelo://app?vid=b06ca3aa-4115-4d3b-82de-a3ec0b6205c3"},"vehicle_type_id":"4","last_reported":1774325288,"current_range_meters":8800,"station_id":"ce4bgqh2rcd13ifvqc4g","pricing_plan_id":"cebpf4jnsgd1na2vs0mg"},{"bike_id":"2e4408b1-4f10-4104-87c2-00f9c6cc7b1b","system_id":"levelo_inurba_marseille","lat":43.30111,"lon":5.43127,"is_reserved":false,"is_disabled":false,"rental_uris":{"android":"levelo://app?vid=2e4408b1-4f10-4104-87c2-00f9c6cc7b1b","ios":"levelo://app?vid=2e4408b1-4f10-4104-87c2-00f9c6cc7b1b"},"vehicle_type_id":"4","last_reported":1774325288,"current_range_meters":8800,"station_id":"st_d3js3co5814s73ftftug","pricing_plan_id":"cebpf4jnsgd1na2vs0mg"},{"bike_id":"b7bad717-6366-49d7-af06-b6825d82e0b2","system_id":"levelo_inurba_marseille","lat":43.30837,"lon":5.39565,"is_reserved":false,"is_disabled":false,"rental_uris":{"android":"levelo://app?vid=b7bad717-6366-49d7-af06-b6825d82e0b2","ios":"levelo://app?vid=b7bad717-6366-49d7-af06-b6825d82e0b2"},"vehicle_type_id":"4","last_reported":1774325288,"current_range_meters":8800,"station_id":"","pricing_plan_id":"cebpf4jnsgd1na2vs0mg"},{"bike_id":"6909d962-385b-41c2-95d4-99aec9ecf660","system_id":"levelo_inurba_marseille","lat":43.30297,"lon":5.3921,"is_reserved":false,"is_disabled":false,"rental_uris":{"android":"levelo://app?vid=6909d962-385b-41c2-95d4-99aec9ecf660","ios":"levelo://app?vid=6909d962-385b-41c2-95d4-99aec9ecf660"},"vehicle_type_id":"4","last_reported":1774325288,"current_range_meters":8800,"station_id":"ce4bgkh2rcd13ifvqbk0","pricing_plan_id":"cebpf4jnsgd1na2vs0mg"},{"bike_id":"19f1add8-fb4d-4df2-9f34-3abb6a2112fe","system_id":"levelo_inurba_marseille","lat":43.21191,"lon":5.3509,"is_reserved":false,"is_disabled":false,"rental_uris":{"android":"levelo://app?vid=19f1add8-fb4d-4df2-9f34-3abb6a2112fe","ios":"levelo://app?vid=19f1add8-fb4d-4df2-9f34-3abb6a2112fe"},"vehicle_type_id":"4","last_reported":1774325288,"current_range_meters":8800,"station_id":"st_cvj6sg6p6f1abm77japg","pricing_plan_id":"cebpf4jnsgd1na2vs0mg"},{"bike_id":"6711ca2b-9a4e-46b1-892e-1007cc2a656e","system_id":"levelo_inurba_marseille","lat":43.28554,"lon":5.44128,"is_reserved":false,"is_disabled":false,"rental_uris":{"android":"levelo://app?vid=6711ca2b-9a4e-46b1-892e-1007cc2a656e","ios":"levelo://app?vid=6711ca2b-9a4e-46b1-892e-1007cc2a656e"},"vehicle_type_id":"4","last_reported":1774325288,"current_range_meters":8800,"station_id":"st_d3j3df2ikq2c7380ej80","pricing_plan_id":"cebpf4jnsgd1na2vs0mg"},{"bike_id":"3231dbcc-23be-407a-bb03-c30aef6350a1","system_id":"levelo_inurba_marseille","lat":43.27557,"lon":5.38406,"is_reserved":false,"is_disabled":false,"rental_uris":{"android":"levelo://app?vid=3231dbcc-23be-407a-bb03-c30aef6350a1","ios":"levelo://app?vid=3231dbcc-23be-407a-bb03-c30aef6350a1"},"vehicle_type_id":"4","last_reported":1774325288,"current_range_meters":8800,"station_id":"ce4bhh92rcd13ifvqfi0","pricing_plan_id":"cebpf4jnsgd1na2vs0mg"},{"bike_id":"f3dccb27-25f8-415f-8a8c-207408b72398","system_id":"levelo_inurba_marseille","lat":43.32051,"lon":5.3676,"is_reserved":false,"is_disabled":false,"rental_uris":{"android":"levelo://app?vid=f3dccb27-25f8-415f-8a8c-207408b72398","ios":"levelo://app?vid=f3dccb27-25f8-415f-8a8c-207408b72398"},"vehicle_type_id":"4","last_reported":1774325288,"current_range_meters":8800,"station_id":"ce4bhrh2rcd13ifvqhug","pricing_plan_id":"cebpf4jnsgd1na2vs0mg"},{"bike_id":"a35cd57a-a85a-4199-af90-0e8344d73999","system_id":"levelo_inurba_marseille","lat":43.24652,"lon":5.38893,"is_reserved":false,"is_disabled":false,"rental_uris":{"android":"levelo://app?vid=a35cd57a-a85a-4199-af90-0e8344d73999","ios":"levelo://app?vid=a35cd57a-a85a-4199-af90-0e8344d73999"},"vehicle_type_id":"4","last_reported":1774325288,"current_range_meters":8800,"station_id":"ce4bhg12rcd13ifvqf60","pricing_plan_id":"cebpf4jnsgd1na2vs0mg"},{"bike_id":"5208ee98-7e4f-445b-9dbc-5d8fbec80d74","system_id":"levelo_inurba_marseille","lat":43.23377,"lon":5.41234,"is_reserved":false,"is_disabled":false,"rental_uris":{"android":"levelo://app?vid=5208ee98-7e4f-445b-9dbc-5d8fbec80d74","ios":"levelo://app?vid=5208ee98-7e4f-445b-9dbc-5d8fbec80d74"},"vehicle_type_id":"4","last_reported":1774325288,"current_range_meters":8800,"station_id":"","pricing_plan_id":"cebpf4jnsgd1na2vs0mg"},{"bike_id":"76939df3-4cd3-4b96-8c01-b3937d373408","system_id":"levelo_inurba_marseille","lat":43.30875,"lon":5.37207,"is_reserved":false,"is_disabled":false,"rental_uris":{"android":"levelo://app?vid=76939df3-4cd3-4b96-8c01-b3937d373408","ios":"levelo://app?vid=76939df3-4cd3-4b96-8c01-b3937d373408"},"vehicle_type_id":"4","last_reported":1774325288,"current_range_meters":8800,"station_id":"ce4bguh2rcd13ifvqckg","pricing_plan_id":"cebpf4jnsgd1na2vs0mg"},{"bike_id":"5ecae002-d94a-48c0-9c56-03698e32a88c","system_id":"levelo_inurba_marseille","lat":43.23877,"lon":5.37505,"is_reserved":false,"is_disabled":false,"rental_uris":{"android":"levelo://app?vid=5ecae002-d94a-48c0-9c56-03698e32a88c","ios":"levelo://app?vid=5ecae002-d94a-48c0-9c56-03698e32a88c"},"vehicle_type_id":"4","last_reported":1774325288,"current_range_meters":8800,"station_id":"st_d6sm7csbq4hs73f8fpjg","pricing_plan_id":"cebpf4jnsgd1na2vs0mg"},{"bike_id":"9d6f5f57-8213-4bce-8c76-fc093219a2d1","system_id":"levelo_inurba_marseille","lat":43.29441,"lon":5.39805,"is_reserved":false,"is_disabled":false,"rental_uris":{"android":"levelo://app?vid=9d6f5f57-8213-4bce-8c76-fc093219a2d1","ios":"levelo://app?vid=9d6f5f57-8213-4bce-8c76-fc093219a2d1"},"vehicle_type_id":"4","last_reported":1774325288,"current_range_meters":8800,"station_id":"ce4bh3h2rcd13ifvqdo0","pricing_plan_id":"cebpf4jnsgd1na2vs0mg"},{"bike_id":"1ed2b2c4-6179-4c99-b499-b89d69ebdede","system_id":"levelo_inurba_marseille","lat":43.30415,"lon":5.41296,"is_reserved":false,"is_disabled":false,"rental_uris":{"android":"levelo://app?vid=1ed2b2c4-6179-4c99-b499-b89d69ebdede","ios":"levelo://app?vid=1ed2b2c4-6179-4c99-b499-b89d69ebdede"},"vehicle_type_id":"4","last_reported":1774325288,"current_range_meters":8800,"station_id":"ce4bhop2rcd13ifvqh8g","pricing_plan_id":"cebpf4jnsgd1na2vs0mg"},{"bike_id":"c5992ec3-630b-46b2-a621-780a67447fb5","system_id":"levelo_inurba_marseille","lat":43.31698,"lon":5.40463,"is_reserved":false,"is_disabled":false,"rental_uris":{"android":"levelo://app?vid=c5992ec3-630b-46b2-a621-780a67447fb5","ios":"levelo://app?vid=c5992ec3-630b-46b2-a621-780a67447fb5"},"vehicle_type_id":"4","last_reported":1774325288,"current_range_meters":9200,"station_id":"ce4bh012rcd13ifvqd00","pricing_plan_id":"cebpf4jnsgd1na2vs0mg"},{"bike_id":"445a363e-6635-4c6f-9d9b-6ed1d223c4e8","system_id":"levelo_inurba_marseille","lat":43.29536,"lon":5.43892,"is_reserved":false,"is_disabled":false,"rental_uris":{"android":"levelo://app?vid=445a363e-6635-4c6f-9d9b-6ed1d223c4e8","ios":"levelo://app?vid=445a363e-6635-4c6f-9d9b-6ed1d223c4e8"},"vehicle_type_id":"4","last_reported":1774325288,"current_range_meters":9200,"station_id":"","pricing_plan_id":"cebpf4jnsgd1na2vs0mg"},{"bike_id":"253bfbd1-c3f6-4b72-a716-55890f3b4db7","system_id":"levelo_inurba_marseille","lat":43.28474,"lon":5.48401,"is_reserved":false,"is_disabled":false,"rental_uris":{"android":"levelo://app?vid=253bfbd1-c3f6-4b72-a716-55890f3b4db7","ios":"levelo://app?vid=253bfbd1-c3f6-4b72-a716-55890f3b4db7"},"vehicle_type_id":"4","last_reported":1774325288,"current_range_meters":9200,"station_id":"","pricing_plan_id":"cebpf4jnsgd1na2vs0mg"},{"bike_id":"69a640c4-8304-4f5d-837e-63509d11a942","system_id":"levelo_inurba_marseille","lat":43.308,"lon":5.38156,"is_reserved":false,"is_disabled":false,"rental_uris":{"android":"levelo://app?vid=69a640c4-8304-4f5d-837e-63509d11a942","ios":"levelo://app?vid=69a640c4-8304-4f5d-837e-63509d11a942"},"vehicle_type_id":"4","last_reported":1774325288,"current_range_meters":9200,"station_id":"ce4bgt12rcd13ifvqce0","pricing_plan_id":"cebpf4jnsgd1na2vs0mg"},{"bike_id":"82fe04f2-4c2d-4880-83f7-41b5f33b5045","system_id":"levelo_inurba_marseille","lat":43.30956,"lon":5.39027,"is_reserved":false,"is_disabled":true,"rental_uris":{"android":"levelo://app?vid=82fe04f2-4c2d-4880-83f7-41b5f33b5045","ios":"levelo://app?vid=82fe04f2-4c2d-4880-83f7-41b5f33b5045"},"vehicle_type_id":"4","last_reported":1774325288,"current_range_meters":9200,"station_id":"ce4bgup2rcd13ifvqco0","pricing_plan_id":"cebpf4jnsgd1na2vs0mg"},{"bike_id":"540a0c4e-2ba0-4b45-94f3-8f52eda68e3e","system_id":"levelo_inurba_marseille","lat":43.28936,"lon":5.36629,"is_reserved":false,"is_disabled":false,"rental_uris":{"android":"levelo://app?vid=540a0c4e-2ba0-4b45-94f3-8f52eda68e3e","ios":"levelo://app?vid=540a0c4e-2ba0-4b45-94f3-8f52eda68e3e"},"vehicle_type_id":"4","last_reported":1774325288,"current_range_meters":9200,"station_id":"ce4bhap2rcd13ifvqek0","pricing_plan_id":"cebpf4jnsgd1na2vs0mg"},{"bike_id":"37a2f2bb-59a1-4406-a161-2a8b323760c1","system_id":"levelo_inurba_marseille","lat":43.2533,"lon":5.42178,"is_reserved":false,"is_disabled":false,"rental_uris":{"android":"levelo://app?vid=37a2f2bb-59a1-4406-a161-2a8b323760c1","ios":"levelo://app?vid=37a2f2bb-59a1-4406-a161-2a8b323760c1"},"vehicle_type_id":"4","last_reported":1774325288,"current_range_meters":9200,"station_id":"st_d2m65c5bi1j21697t3ng","pricing_plan_id":"cebpf4jnsgd1na2vs0mg"},{"bike_id":"11671389-f032-4f03-afee-3773f4418f76","system_id":"levelo_inurba_marseille","lat":43.29048,"lon":5.35903,"is_reserved":false,"is_disabled":false,"rental_uris":{"android":"levelo://app?vid=11671389-f032-4f03-afee-3773f4418f76","ios":"levelo://app?vid=11671389-f032-4f03-afee-3773f4418f76"},"vehicle_type_id":"4","last_reported":1774325288,"current_range_meters":9200,"station_id":"ce4bha92rcd13ifvqeg0","pricing_plan_id":"cebpf4jnsgd1na2vs0mg"},{"bike_id":"7c59c074-6646-4968-803b-ea035a59d3f4","system_id":"levelo_inurba_marseille","lat":43.23784,"lon":5.36634,"is_reserved":false,"is_disabled":false,"rental_uris":{"android":"levelo://app?vid=7c59c074-6646-4968-803b-ea035a59d3f4","ios":"levelo://app?vid=7c59c074-6646-4968-803b-ea035a59d3f4"},"vehicle_type_id":"4","last_reported":1774325288,"current_range_meters":9200,"station_id":"st_d3nk18o9ro0c73en2l3g","pricing_plan_id":"cebpf4jnsgd1na2vs0mg"},{"bike_id":"e7af9571-85f2-4d04-a90b-8ea65f35209b","system_id":"levelo_inurba_marseille","lat":43.29616,"lon":5.37741,"is_reserved":false,"is_disabled":false,"rental_uris":{"android":"levelo://app?vid=e7af9571-85f2-4d04-a90b-8ea65f35209b","ios":"levelo://app?vid=e7af9571-85f2-4d04-a90b-8ea65f35209b"},"vehicle_type_id":"4","last_reported":1774325288,"current_range_meters":9200,"station_id":"ce4bgi92rcd13ifvqb90","pricing_plan_id":"cebpf4jnsgd1na2vs0mg"},{"bike_id":"60e39849-1d32-4745-8764-0eb454d04c5f","system_id":"levelo_inurba_marseille","lat":43.2956,"lon":5.42268,"is_reserved":false,"is_disabled":true,"rental_uris":{"android":"levelo://app?vid=60e39849-1d32-4745-8764-0eb454d04c5f","ios":"levelo://app?vid=60e39849-1d32-4745-8764-0eb454d04c5f"},"vehicle_type_id":"4","last_reported":1774325288,"current_range_meters":9200,"station_id":"ce4bhph2rcd13ifvqhdg","pricing_plan_id":"cebpf4jnsgd1na2vs0mg"},{"bike_id":"231c5d4f-3812-4c4f-a07e-3c03344a3bdc","system_id":"levelo_inurba_marseille","lat":43.28614,"lon":5.39898,"is_reserved":false,"is_disabled":false,"rental_uris":{"android":"levelo://app?vid=231c5d4f-3812-4c4f-a07e-3c03344a3bdc","ios":"levelo://app?vid=231c5d4f-3812-4c4f-a07e-3c03344a3bdc"},"vehicle_type_id":"4","last_reported":1774325288,"current_range_meters":9200,"station_id":"st_d4a7ka997mjs738ck50g","pricing_plan_id":"cebpf4jnsgd1na2vs0mg"},{"bike_id":"84cae0ed-a13c-4cbe-a11d-9976da4d1bb2","system_id":"levelo_inurba_marseille","lat":43.28954,"lon":5.3641,"is_reserved":false,"is_disabled":false,"rental_uris":{"android":"levelo://app?vid=84cae0ed-a13c-4cbe-a11d-9976da4d1bb2","ios":"levelo://app?vid=84cae0ed-a13c-4cbe-a11d-9976da4d1bb2"},"vehicle_type_id":"4","last_reported":1774325288,"current_range_meters":9200,"station_id":"ce4bhc92rcd13ifvqetg","pricing_plan_id":"cebpf4jnsgd1na2vs0mg"},{"bike_id":"84fc249e-2ac6-4c88-9adb-5f81a8024813","system_id":"levelo_inurba_marseille","lat":43.3093,"lon":5.40161,"is_reserved":false,"is_disabled":false,"rental_uris":{"android":"levelo://app?vid=84fc249e-2ac6-4c88-9adb-5f81a8024813","ios":"levelo://app?vid=84fc249e-2ac6-4c88-9adb-5f81a8024813"},"vehicle_type_id":"4","last_reported":1774325288,"current_range_meters":9200,"station_id":"ce4bgvp2rcd13ifvqct0","pricing_plan_id":"cebpf4jnsgd1na2vs0mg"},{"bike_id":"8d8566de-f03a-4e5e-aa8c-ad2e3c17ab03","system_id":"levelo_inurba_marseille","lat":43.31533,"lon":5.3731,"is_reserved":false,"is_disabled":false,"rental_uris":{"android":"levelo://app?vid=8d8566de-f03a-4e5e-aa8c-ad2e3c17ab03","ios":"levelo://app?vid=8d8566de-f03a-4e5e-aa8c-ad2e3c17ab03"},"vehicle_type_id":"4","last_reported":1774325288,"current_range_meters":9200,"station_id":"","pricing_plan_id":"cebpf4jnsgd1na2vs0mg"},{"bike_id":"79d1a151-ed74-4ea2-b9f1-d1659d9d4d68","system_id":"levelo_inurba_marseille","lat":43.29528,"lon":5.39065,"is_reserved":false,"is_disabled":false,"rental_uris":{"android":"levelo://app?vid=79d1a151-ed74-4ea2-b9f1-d1659d9d4d68","ios":"levelo://app?vid=79d1a151-ed74-4ea2-b9f1-d1659d9d4d68"},"vehicle_type_id":"4","last_reported":1774325288,"current_range_meters":9200,"station_id":"ce4bh3p2rcd13ifvqdp0","pricing_plan_id":"cebpf4jnsgd1na2vs0mg"},{"bike_id":"b9d157e4-adb0-4d64-b93d-349f42c39fcf","system_id":"levelo_inurba_marseille","lat":43.31889,"lon":5.36813,"is_reserved":false,"is_disabled":false,"rental_uris":{"android":"levelo://app?vid=b9d157e4-adb0-4d64-b93d-349f42c39fcf","ios":"levelo://app?vid=b9d157e4-adb0-4d64-b93d-349f42c39fcf"},"vehicle_type_id":"4","last_reported":1774325288,"current_range_meters":9200,"station_id":"st_d6o2h0d0559c73evc1b0","pricing_plan_id":"cebpf4jnsgd1na2vs0mg"},{"bike_id":"1206b80d-08df-4dbc-999c-48aabe775d89","system_id":"levelo_inurba_marseille","lat":43.30282,"lon":5.44963,"is_reserved":false,"is_disabled":false,"rental_uris":{"android":"levelo://app?vid=1206b80d-08df-4dbc-999c-48aabe775d89","ios":"levelo://app?vid=1206b80d-08df-4dbc-999c-48aabe775d89"},"vehicle_type_id":"4","last_reported":1774325288,"current_range_meters":9200,"station_id":"","pricing_plan_id":"cebpf4jnsgd1na2vs0mg"},{"bike_id":"aac16f30-8732-48f4-bb17-1bd0acbb479e","system_id":"levelo_inurba_marseille","lat":43.26548,"lon":5.37314,"is_reserved":false,"is_disabled":false,"rental_uris":{"android":"levelo://app?vid=aac16f30-8732-48f4-bb17-1bd0acbb479e","ios":"levelo://app?vid=aac16f30-8732-48f4-bb17-1bd0acbb479e"},"vehicle_type_id":"4","last_reported":1774325288,"current_range_meters":9600,"station_id":"ce4bhg12rcd13ifvqf70","pricing_plan_id":"cebpf4jnsgd1na2vs0mg"},{"bike_id":"0319e047-6101-4542-93b7-8f4cdfbd958b","system_id":"levelo_inurba_marseille","lat":43.30419,"lon":5.41276,"is_reserved":false,"is_disabled":false,"rental_uris":{"android":"levelo://app?vid=0319e047-6101-4542-93b7-8f4cdfbd958b","ios":"levelo://app?vid=0319e047-6101-4542-93b7-8f4cdfbd958b"},"vehicle_type_id":"4","last_reported":1774325288,"current_range_meters":9600,"station_id":"ce4bhop2rcd13ifvqh8g","pricing_plan_id":"cebpf4jnsgd1na2vs0mg"},{"bike_id":"4078e5c4-b784-4a81-827e-b1a58b5db34d","system_id":"levelo_inurba_marseille","lat":43.3053,"lon":5.36541,"is_reserved":false,"is_disabled":false,"rental_uris":{"android":"levelo://app?vid=4078e5c4-b784-4a81-827e-b1a58b5db34d","ios":"levelo://app?vid=4078e5c4-b784-4a81-827e-b1a58b5db34d"},"vehicle_type_id":"4","last_reported":1774325288,"current_range_meters":9600,"station_id":"ce4bgs12rcd13ifvqcag","pricing_plan_id":"cebpf4jnsgd1na2vs0mg"},{"bike_id":"216a36cb-da75-46cc-8839-bb6497a8217f","system_id":"levelo_inurba_marseille","lat":43.29213,"lon":5.36077,"is_reserved":false,"is_disabled":false,"rental_uris":{"android":"levelo://app?vid=216a36cb-da75-46cc-8839-bb6497a8217f","ios":"levelo://app?vid=216a36cb-da75-46cc-8839-bb6497a8217f"},"vehicle_type_id":"4","last_reported":1774325288,"current_range_meters":9600,"station_id":"ce4bhbh2rcd13ifvqeqg","pricing_plan_id":"cebpf4jnsgd1na2vs0mg"},{"bike_id":"66a43d55-32c7-48fb-b013-3d7574d12857","system_id":"levelo_inurba_marseille","lat":43.25,"lon":5.38911,"is_reserved":false,"is_disabled":true,"rental_uris":{"android":"levelo://app?vid=66a43d55-32c7-48fb-b013-3d7574d12857","ios":"levelo://app?vid=66a43d55-32c7-48fb-b013-3d7574d12857"},"vehicle_type_id":"4","last_reported":1774325288,"current_range_meters":9600,"station_id":"ce4bhgp2rcd13ifvqfd0","pricing_plan_id":"cebpf4jnsgd1na2vs0mg"},{"bike_id":"5016f481-c4f2-49ee-b195-5a686f3fce52","system_id":"levelo_inurba_marseille","lat":43.288522,"lon":5.358479,"is_reserved":false,"is_disabled":true,"rental_uris":{"android":"levelo://app?vid=5016f481-c4f2-49ee-b195-5a686f3fce52","ios":"levelo://app?vid=5016f481-c4f2-49ee-b195-5a686f3fce52"},"vehicle_type_id":"4","last_reported":1774325288,"current_range_meters":9600,"station_id":"","pricing_plan_id":"cebpf4jnsgd1na2vs0mg"},{"bike_id":"22a24422-8367-44e3-afc2-fd1672c2c7f5","system_id":"levelo_inurba_marseille","lat":43.28488,"lon":5.48424,"is_reserved":false,"is_disabled":false,"rental_uris":{"android":"levelo://app?vid=22a24422-8367-44e3-afc2-fd1672c2c7f5","ios":"levelo://app?vid=22a24422-8367-44e3-afc2-fd1672c2c7f5"},"vehicle_type_id":"4","last_reported":1774325288,"current_range_meters":9600,"station_id":"","pricing_plan_id":"cebpf4jnsgd1na2vs0mg"},{"bike_id":"066cfe81-714d-4a28-ba8d-e13baf5bbb1b","system_id":"levelo_inurba_marseille","lat":43.27266,"lon":5.41147,"is_reserved":false,"is_disabled":false,"rental_uris":{"android":"levelo://app?vid=066cfe81-714d-4a28-ba8d-e13baf5bbb1b","ios":"levelo://app?vid=066cfe81-714d-4a28-ba8d-e13baf5bbb1b"},"vehicle_type_id":"4","last_reported":1774325288,"current_range_meters":9600,"station_id":"","pricing_plan_id":"cebpf4jnsgd1na2vs0mg"},{"bike_id":"8be5128a-491b-4b91-b30f-b9014be3de35","system_id":"levelo_inurba_marseille","lat":43.28405,"lon":5.37541,"is_reserved":false,"is_disabled":false,"rental_uris":{"android":"levelo://app?vid=8be5128a-491b-4b91-b30f-b9014be3de35","ios":"levelo://app?vid=8be5128a-491b-4b91-b30f-b9014be3de35"},"vehicle_type_id":"4","last_reported":1774325288,"current_range_meters":9600,"station_id":"ce4bh412rcd13ifvqds0","pricing_plan_id":"cebpf4jnsgd1na2vs0mg"},{"bike_id":"888f8c5e-d5a7-4073-8aa6-ef58e74770c0","system_id":"levelo_inurba_marseille","lat":43.31317,"lon":5.39699,"is_reserved":false,"is_disabled":false,"rental_uris":{"android":"levelo://app?vid=888f8c5e-d5a7-4073-8aa6-ef58e74770c0","ios":"levelo://app?vid=888f8c5e-d5a7-4073-8aa6-ef58e74770c0"},"vehicle_type_id":"4","last_reported":1774325288,"current_range_meters":9600,"station_id":"ce4bgvp2rcd13ifvqcu0","pricing_plan_id":"cebpf4jnsgd1na2vs0mg"},{"bike_id":"0082d248-ef3e-4bc5-b48e-da79ab5469a5","system_id":"levelo_inurba_marseille","lat":43.27546,"lon":5.38374,"is_reserved":false,"is_disabled":false,"rental_uris":{"android":"levelo://app?vid=0082d248-ef3e-4bc5-b48e-da79ab5469a5","ios":"levelo://app?vid=0082d248-ef3e-4bc5-b48e-da79ab5469a5"},"vehicle_type_id":"4","last_reported":1774325288,"current_range_meters":9600,"station_id":"","pricing_plan_id":"cebpf4jnsgd1na2vs0mg"},{"bike_id":"8491e627-6c18-4c5a-8a14-582991796dbd","system_id":"levelo_inurba_marseille","lat":43.28426,"lon":5.39207,"is_reserved":false,"is_disabled":false,"rental_uris":{"android":"levelo://app?vid=8491e627-6c18-4c5a-8a14-582991796dbd","ios":"levelo://app?vid=8491e627-6c18-4c5a-8a14-582991796dbd"},"vehicle_type_id":"4","last_reported":1774325288,"current_range_meters":9600,"station_id":"ce4bhoh2rcd13ifvqh5g","pricing_plan_id":"cebpf4jnsgd1na2vs0mg"},{"bike_id":"087ae484-a014-4feb-b455-9332febb4b58","system_id":"levelo_inurba_marseille","lat":43.28944,"lon":5.36407,"is_reserved":false,"is_disabled":false,"rental_uris":{"android":"levelo://app?vid=087ae484-a014-4feb-b455-9332febb4b58","ios":"levelo://app?vid=087ae484-a014-4feb-b455-9332febb4b58"},"vehicle_type_id":"4","last_reported":1774325288,"current_range_meters":9600,"station_id":"ce4bhc92rcd13ifvqetg","pricing_plan_id":"cebpf4jnsgd1na2vs0mg"},{"bike_id":"a59ca59c-c736-46b2-ac2e-f1ec7b640daf","system_id":"levelo_inurba_marseille","lat":43.27984,"lon":5.40014,"is_reserved":false,"is_disabled":false,"rental_uris":{"android":"levelo://app?vid=a59ca59c-c736-46b2-ac2e-f1ec7b640daf","ios":"levelo://app?vid=a59ca59c-c736-46b2-ac2e-f1ec7b640daf"},"vehicle_type_id":"4","last_reported":1774325288,"current_range_meters":9600,"station_id":"ce4bho92rcd13ifvqh4g","pricing_plan_id":"cebpf4jnsgd1na2vs0mg"},{"bike_id":"e6349eb3-2730-461c-ae14-f386689052fa","system_id":"levelo_inurba_marseille","lat":43.31693,"lon":5.3776,"is_reserved":false,"is_disabled":false,"rental_uris":{"android":"levelo://app?vid=e6349eb3-2730-461c-ae14-f386689052fa","ios":"levelo://app?vid=e6349eb3-2730-461c-ae14-f386689052fa"},"vehicle_type_id":"4","last_reported":1774325288,"current_range_meters":9600,"station_id":"ce4bgth2rcd13ifvqch0","pricing_plan_id":"cebpf4jnsgd1na2vs0mg"},{"bike_id":"53de15c7-c5cc-4123-942d-2163df33f949","system_id":"levelo_inurba_marseille","lat":43.29797,"lon":5.39374,"is_reserved":false,"is_disabled":false,"rental_uris":{"android":"levelo://app?vid=53de15c7-c5cc-4123-942d-2163df33f949","ios":"levelo://app?vid=53de15c7-c5cc-4123-942d-2163df33f949"},"vehicle_type_id":"4","last_reported":1774325288,"current_range_meters":9600,"station_id":"chh1huq6cuj3fo74tm60","pricing_plan_id":"cebpf4jnsgd1na2vs0mg"},{"bike_id":"962f7017-dbf8-45a4-9f5e-86820cef34f9","system_id":"levelo_inurba_marseille","lat":43.29889,"lon":5.39764,"is_reserved":false,"is_disabled":false,"rental_uris":{"android":"levelo://app?vid=962f7017-dbf8-45a4-9f5e-86820cef34f9","ios":"levelo://app?vid=962f7017-dbf8-45a4-9f5e-86820cef34f9"},"vehicle_type_id":"4","last_reported":1774325288,"current_range_meters":9600,"station_id":"ce4bh0h2rcd13ifvqd50","pricing_plan_id":"cebpf4jnsgd1na2vs0mg"},{"bike_id":"cbe143e8-3e8d-46c8-8239-3389a4661d28","system_id":"levelo_inurba_marseille","lat":43.30289,"lon":5.36935,"is_reserved":false,"is_disabled":false,"rental_uris":{"android":"levelo://app?vid=cbe143e8-3e8d-46c8-8239-3389a4661d28","ios":"levelo://app?vid=cbe143e8-3e8d-46c8-8239-3389a4661d28"},"vehicle_type_id":"4","last_reported":1774325288,"current_range_meters":9600,"station_id":"ce4bgqh2rcd13ifvqc5g","pricing_plan_id":"cebpf4jnsgd1na2vs0mg"},{"bike_id":"e6e85dde-8391-46f0-b3b3-116c83f0394c","system_id":"levelo_inurba_marseille","lat":43.28344,"lon":5.38128,"is_reserved":false,"is_disabled":false,"rental_uris":{"android":"levelo://app?vid=e6e85dde-8391-46f0-b3b3-116c83f0394c","ios":"levelo://app?vid=e6e85dde-8391-46f0-b3b3-116c83f0394c"},"vehicle_type_id":"4","last_reported":1774325288,"current_range_meters":9600,"station_id":"ce4bh412rcd13ifvqdr0","pricing_plan_id":"cebpf4jnsgd1na2vs0mg"},{"bike_id":"9129d30f-eeb7-4ef0-aa07-4afc52859bef","system_id":"levelo_inurba_marseille","lat":43.28683,"lon":5.36365,"is_reserved":false,"is_disabled":false,"rental_uris":{"android":"levelo://app?vid=9129d30f-eeb7-4ef0-aa07-4afc52859bef","ios":"levelo://app?vid=9129d30f-eeb7-4ef0-aa07-4afc52859bef"},"vehicle_type_id":"4","last_reported":1774325288,"current_range_meters":9600,"station_id":"ce4bhah2rcd13ifvqej0","pricing_plan_id":"cebpf4jnsgd1na2vs0mg"},{"bike_id":"013a41e2-28cd-48a3-a642-1c59e9148541","system_id":"levelo_inurba_marseille","lat":43.30796,"lon":5.38166,"is_reserved":false,"is_disabled":false,"rental_uris":{"android":"levelo://app?vid=013a41e2-28cd-48a3-a642-1c59e9148541","ios":"levelo://app?vid=013a41e2-28cd-48a3-a642-1c59e9148541"},"vehicle_type_id":"4","last_reported":1774325288,"current_range_meters":9600,"station_id":"ce4bgt12rcd13ifvqce0","pricing_plan_id":"cebpf4jnsgd1na2vs0mg"},{"bike_id":"27261337-2517-4c6f-9b67-5b97b314f8e8","system_id":"levelo_inurba_marseille","lat":43.29057,"lon":5.37175,"is_reserved":false,"is_disabled":false,"rental_uris":{"android":"levelo://app?vid=27261337-2517-4c6f-9b67-5b97b314f8e8","ios":"levelo://app?vid=27261337-2517-4c6f-9b67-5b97b314f8e8"},"vehicle_type_id":"4","last_reported":1774325288,"current_range_meters":10000,"station_id":"ce4bh5p2rcd13ifvqe4g","pricing_plan_id":"cebpf4jnsgd1na2vs0mg"},{"bike_id":"b872fb5f-fc40-4ebb-9848-afbea986f7ed","system_id":"levelo_inurba_marseille","lat":43.28342,"lon":5.36056,"is_reserved":false,"is_disabled":false,"rental_uris":{"android":"levelo://app?vid=b872fb5f-fc40-4ebb-9848-afbea986f7ed","ios":"levelo://app?vid=b872fb5f-fc40-4ebb-9848-afbea986f7ed"},"vehicle_type_id":"4","last_reported":1774325288,"current_range_meters":10000,"station_id":"","pricing_plan_id":"cebpf4jnsgd1na2vs0mg"},{"bike_id":"5d52095a-15f8-48f8-895a-5e55405e2309","system_id":"levelo_inurba_marseille","lat":43.28664,"lon":5.36341,"is_reserved":false,"is_disabled":false,"rental_uris":{"android":"levelo://app?vid=5d52095a-15f8-48f8-895a-5e55405e2309","ios":"levelo://app?vid=5d52095a-15f8-48f8-895a-5e55405e2309"},"vehicle_type_id":"4","last_reported":1774325288,"current_range_meters":10000,"station_id":"ce4bhah2rcd13ifvqej0","pricing_plan_id":"cebpf4jnsgd1na2vs0mg"},{"bike_id":"a9abd8af-8bd4-41e9-9b12-068972ec99fa","system_id":"levelo_inurba_marseille","lat":43.33543,"lon":5.37494,"is_reserved":false,"is_disabled":false,"rental_uris":{"android":"levelo://app?vid=a9abd8af-8bd4-41e9-9b12-068972ec99fa","ios":"levelo://app?vid=a9abd8af-8bd4-41e9-9b12-068972ec99fa"},"vehicle_type_id":"4","last_reported":1774325288,"current_range_meters":10000,"station_id":"st_d46tts09ee8s73dlu43g","pricing_plan_id":"cebpf4jnsgd1na2vs0mg"},{"bike_id":"992d461f-8839-4086-b27a-9edc1d38b03d","system_id":"levelo_inurba_marseille","lat":43.33545,"lon":5.37448,"is_reserved":false,"is_disabled":false,"rental_uris":{"android":"levelo://app?vid=992d461f-8839-4086-b27a-9edc1d38b03d","ios":"levelo://app?vid=992d461f-8839-4086-b27a-9edc1d38b03d"},"vehicle_type_id":"4","last_reported":1774325288,"current_range_meters":10000,"station_id":"st_d46tts09ee8s73dlu43g","pricing_plan_id":"cebpf4jnsgd1na2vs0mg"},{"bike_id":"b8d7a02a-f8e6-461d-88a3-e73fba899271","system_id":"levelo_inurba_marseille","lat":43.2174,"lon":5.34602,"is_reserved":false,"is_disabled":true,"rental_uris":{"android":"levelo://app?vid=b8d7a02a-f8e6-461d-88a3-e73fba899271","ios":"levelo://app?vid=b8d7a02a-f8e6-461d-88a3-e73fba899271"},"vehicle_type_id":"4","last_reported":1774325288,"current_range_meters":10000,"station_id":"st_cvj6r9ubvosntc0bgbag","pricing_plan_id":"cebpf4jnsgd1na2vs0mg"},{"bike_id":"b43a9501-9e05-4c69-9046-f6c9d4e401c6","system_id":"levelo_inurba_marseille","lat":43.28334,"lon":5.38102,"is_reserved":false,"is_disabled":false,"rental_uris":{"android":"levelo://app?vid=b43a9501-9e05-4c69-9046-f6c9d4e401c6","ios":"levelo://app?vid=b43a9501-9e05-4c69-9046-f6c9d4e401c6"},"vehicle_type_id":"4","last_reported":1774325288,"current_range_meters":10000,"station_id":"ce4bh412rcd13ifvqdr0","pricing_plan_id":"cebpf4jnsgd1na2vs0mg"},{"bike_id":"6b8acac9-ccf3-4647-89ff-89fbb46b6df8","system_id":"levelo_inurba_marseille","lat":43.30323,"lon":5.45046,"is_reserved":false,"is_disabled":false,"rental_uris":{"android":"levelo://app?vid=6b8acac9-ccf3-4647-89ff-89fbb46b6df8","ios":"levelo://app?vid=6b8acac9-ccf3-4647-89ff-89fbb46b6df8"},"vehicle_type_id":"4","last_reported":1774325288,"current_range_meters":10000,"station_id":"","pricing_plan_id":"cebpf4jnsgd1na2vs0mg"},{"bike_id":"6687add9-474b-44ea-9a06-40f25b326304","system_id":"levelo_inurba_marseille","lat":43.26554,"lon":5.40346,"is_reserved":false,"is_disabled":false,"rental_uris":{"android":"levelo://app?vid=6687add9-474b-44ea-9a06-40f25b326304","ios":"levelo://app?vid=6687add9-474b-44ea-9a06-40f25b326304"},"vehicle_type_id":"4","last_reported":1774325288,"current_range_meters":10000,"station_id":"ce4bhmp2rcd13ifvqgng","pricing_plan_id":"cebpf4jnsgd1na2vs0mg"},{"bike_id":"62c0eda8-c666-40c1-b62d-71242266f316","system_id":"levelo_inurba_marseille","lat":43.28471,"lon":5.3925,"is_reserved":false,"is_disabled":true,"rental_uris":{"android":"levelo://app?vid=62c0eda8-c666-40c1-b62d-71242266f316","ios":"levelo://app?vid=62c0eda8-c666-40c1-b62d-71242266f316"},"vehicle_type_id":"4","last_reported":1774325288,"current_range_meters":10000,"station_id":"ce4bhoh2rcd13ifvqh5g","pricing_plan_id":"cebpf4jnsgd1na2vs0mg"},{"bike_id":"022369b7-d0ac-45d7-b6d7-0c20b9ca63c6","system_id":"levelo_inurba_marseille","lat":43.28925,"lon":5.36629,"is_reserved":false,"is_disabled":false,"rental_uris":{"android":"levelo://app?vid=022369b7-d0ac-45d7-b6d7-0c20b9ca63c6","ios":"levelo://app?vid=022369b7-d0ac-45d7-b6d7-0c20b9ca63c6"},"vehicle_type_id":"4","last_reported":1774325288,"current_range_meters":10000,"station_id":"ce4bhap2rcd13ifvqek0","pricing_plan_id":"cebpf4jnsgd1na2vs0mg"},{"bike_id":"f33bb1d7-ad3b-4932-86c8-ba566129382f","system_id":"levelo_inurba_marseille","lat":43.29253,"lon":5.3609,"is_reserved":false,"is_disabled":false,"rental_uris":{"android":"levelo://app?vid=f33bb1d7-ad3b-4932-86c8-ba566129382f","ios":"levelo://app?vid=f33bb1d7-ad3b-4932-86c8-ba566129382f"},"vehicle_type_id":"4","last_reported":1774325288,"current_range_meters":10000,"station_id":"ce4bhbh2rcd13ifvqeqg","pricing_plan_id":"cebpf4jnsgd1na2vs0mg"},{"bike_id":"92e81b3d-98ad-4c67-9ba1-a98d454e4630","system_id":"levelo_inurba_marseille","lat":43.31486,"lon":5.37281,"is_reserved":false,"is_disabled":false,"rental_uris":{"android":"levelo://app?vid=92e81b3d-98ad-4c67-9ba1-a98d454e4630","ios":"levelo://app?vid=92e81b3d-98ad-4c67-9ba1-a98d454e4630"},"vehicle_type_id":"4","last_reported":1774325288,"current_range_meters":10000,"station_id":"ce4bgt12rcd13ifvqcd0","pricing_plan_id":"cebpf4jnsgd1na2vs0mg"},{"bike_id":"489b1f47-9bf9-4f10-90f5-3b4dff230700","system_id":"levelo_inurba_marseille","lat":43.23774,"lon":5.36636,"is_reserved":false,"is_disabled":false,"rental_uris":{"android":"levelo://app?vid=489b1f47-9bf9-4f10-90f5-3b4dff230700","ios":"levelo://app?vid=489b1f47-9bf9-4f10-90f5-3b4dff230700"},"vehicle_type_id":"4","last_reported":1774325288,"current_range_meters":10000,"station_id":"st_d3nk18o9ro0c73en2l3g","pricing_plan_id":"cebpf4jnsgd1na2vs0mg"},{"bike_id":"a2e8686d-a0b7-46a8-89b3-435376b5bb2c","system_id":"levelo_inurba_marseille","lat":43.30773,"lon":5.37662,"is_reserved":false,"is_disabled":false,"rental_uris":{"android":"levelo://app?vid=a2e8686d-a0b7-46a8-89b3-435376b5bb2c","ios":"levelo://app?vid=a2e8686d-a0b7-46a8-89b3-435376b5bb2c"},"vehicle_type_id":"4","last_reported":1774325288,"current_range_meters":10000,"station_id":"ce4bgv92rcd13ifvqcq0","pricing_plan_id":"cebpf4jnsgd1na2vs0mg"},{"bike_id":"fc0135e8-ba0d-4e38-ada4-1d8ab599703a","system_id":"levelo_inurba_marseille","lat":43.29873,"lon":5.39758,"is_reserved":false,"is_disabled":false,"rental_uris":{"android":"levelo://app?vid=fc0135e8-ba0d-4e38-ada4-1d8ab599703a","ios":"levelo://app?vid=fc0135e8-ba0d-4e38-ada4-1d8ab599703a"},"vehicle_type_id":"4","last_reported":1774325288,"current_range_meters":10000,"station_id":"ce4bh0h2rcd13ifvqd50","pricing_plan_id":"cebpf4jnsgd1na2vs0mg"},{"bike_id":"a10259f9-c42a-42cb-9048-10cc0142554a","system_id":"levelo_inurba_marseille","lat":43.2868,"lon":5.37424,"is_reserved":false,"is_disabled":false,"rental_uris":{"android":"levelo://app?vid=a10259f9-c42a-42cb-9048-10cc0142554a","ios":"levelo://app?vid=a10259f9-c42a-42cb-9048-10cc0142554a"},"vehicle_type_id":"4","last_reported":1774325288,"current_range_meters":10000,"station_id":"ce4bh3p2rcd13ifvqdq0","pricing_plan_id":"cebpf4jnsgd1na2vs0mg"},{"bike_id":"81cf727e-bec8-439c-90d1-a81bccc4683f","system_id":"levelo_inurba_marseille","lat":43.29505,"lon":5.39426,"is_reserved":false,"is_disabled":false,"rental_uris":{"android":"levelo://app?vid=81cf727e-bec8-439c-90d1-a81bccc4683f","ios":"levelo://app?vid=81cf727e-bec8-439c-90d1-a81bccc4683f"},"vehicle_type_id":"4","last_reported":1774325288,"current_range_meters":10000,"station_id":"ce4bh292rcd13ifvqdf0","pricing_plan_id":"cebpf4jnsgd1na2vs0mg"},{"bike_id":"df98898b-c83c-4f80-be16-f04ebf6b0c77","system_id":"levelo_inurba_marseille","lat":43.32104,"lon":5.36764,"is_reserved":false,"is_disabled":false,"rental_uris":{"android":"levelo://app?vid=df98898b-c83c-4f80-be16-f04ebf6b0c77","ios":"levelo://app?vid=df98898b-c83c-4f80-be16-f04ebf6b0c77"},"vehicle_type_id":"4","last_reported":1774325288,"current_range_meters":10000,"station_id":"ce4bhrh2rcd13ifvqhug","pricing_plan_id":"cebpf4jnsgd1na2vs0mg"},{"bike_id":"fe3d0468-979f-44e9-abdb-790b4d2d3e25","system_id":"levelo_inurba_marseille","lat":43.28705,"lon":5.39995,"is_reserved":false,"is_disabled":false,"rental_uris":{"android":"levelo://app?vid=fe3d0468-979f-44e9-abdb-790b4d2d3e25","ios":"levelo://app?vid=fe3d0468-979f-44e9-abdb-790b4d2d3e25"},"vehicle_type_id":"4","last_reported":1774325288,"current_range_meters":10000,"station_id":"ce4bho92rcd13ifvqh3g","pricing_plan_id":"cebpf4jnsgd1na2vs0mg"},{"bike_id":"4a9c9fe8-462b-44f7-888a-f1125872da3d","system_id":"levelo_inurba_marseille","lat":43.26541,"lon":5.37286,"is_reserved":false,"is_disabled":false,"rental_uris":{"android":"levelo://app?vid=4a9c9fe8-462b-44f7-888a-f1125872da3d","ios":"levelo://app?vid=4a9c9fe8-462b-44f7-888a-f1125872da3d"},"vehicle_type_id":"4","last_reported":1774325288,"current_range_meters":10000,"station_id":"ce4bhg12rcd13ifvqf70","pricing_plan_id":"cebpf4jnsgd1na2vs0mg"},{"bike_id":"caf6a1c6-a418-4bd6-95d2-ae662fbdadd2","system_id":"levelo_inurba_marseille","lat":43.29563,"lon":5.3753,"is_reserved":false,"is_disabled":false,"rental_uris":{"android":"levelo://app?vid=caf6a1c6-a418-4bd6-95d2-ae662fbdadd2","ios":"levelo://app?vid=caf6a1c6-a418-4bd6-95d2-ae662fbdadd2"},"vehicle_type_id":"4","last_reported":1774325288,"current_range_meters":10800,"station_id":"ce4bgh92rcd13ifvqb50","pricing_plan_id":"cebpf4jnsgd1na2vs0mg"},{"bike_id":"3e75b9d7-a90e-433d-8c78-f34c56c26406","system_id":"levelo_inurba_marseille","lat":43.31754,"lon":5.39031,"is_reserved":false,"is_disabled":false,"rental_uris":{"android":"levelo://app?vid=3e75b9d7-a90e-433d-8c78-f34c56c26406","ios":"levelo://app?vid=3e75b9d7-a90e-433d-8c78-f34c56c26406"},