{"last_updated":1769544766,"ttl":60,"version":"2.2","data":{"bikes":[{"bike_id":"539af392-7350-492a-86ff-031e626096d7","system_id":"levelo_inurba_marseille","lat":43.32362,"lon":5.367,"is_reserved":false,"is_disabled":false,"rental_uris":{"android":"levelo://app?vid=539af392-7350-492a-86ff-031e626096d7","ios":"levelo://app?vid=539af392-7350-492a-86ff-031e626096d7"},"vehicle_type_id":"4","last_reported":1769544766,"current_range_meters":2800,"station_id":"","pricing_plan_id":"cebpf4jnsgd1na2vs0mg"},{"bike_id":"136c3499-5827-4761-a702-ff615d580863","system_id":"levelo_inurba_marseille","lat":43.312739,"lon":5.401669,"is_reserved":false,"is_disabled":false,"rental_uris":{"android":"levelo://app?vid=136c3499-5827-4761-a702-ff615d580863","ios":"levelo://app?vid=136c3499-5827-4761-a702-ff615d580863"},"vehicle_type_id":"4","last_reported":1769544766,"current_range_meters":2800,"station_id":"ce4bh092rcd13ifvqd30","pricing_plan_id":"cebpf4jnsgd1na2vs0mg"},{"bike_id":"ffd110f5-c7f0-4dd9-9e90-3dfe24e43967","system_id":"levelo_inurba_marseille","lat":43.29791,"lon":5.38098,"is_reserved":false,"is_disabled":false,"rental_uris":{"android":"levelo://app?vid=ffd110f5-c7f0-4dd9-9e90-3dfe24e43967","ios":"levelo://app?vid=ffd110f5-c7f0-4dd9-9e90-3dfe24e43967"},"vehicle_type_id":"4","last_reported":1769544766,"current_range_meters":2800,"station_id":"ce4bgip2rcd13ifvqbb0","pricing_plan_id":"cebpf4jnsgd1na2vs0mg"},{"bike_id":"cfb67ada-34b1-419c-91f0-868c9be1a48b","system_id":"levelo_inurba_marseille","lat":43.24164,"lon":5.364,"is_reserved":false,"is_disabled":false,"rental_uris":{"android":"levelo://app?vid=cfb67ada-34b1-419c-91f0-868c9be1a48b","ios":"levelo://app?vid=cfb67ada-34b1-419c-91f0-868c9be1a48b"},"vehicle_type_id":"4","last_reported":1769544766,"current_range_meters":2800,"station_id":"cpo36qri1sfpv3e86is0","pricing_plan_id":"cebpf4jnsgd1na2vs0mg"},{"bike_id":"db9c03c2-9b01-4225-936a-49087960dd5e","system_id":"levelo_inurba_marseille","lat":43.2949,"lon":5.4333,"is_reserved":false,"is_disabled":false,"rental_uris":{"android":"levelo://app?vid=db9c03c2-9b01-4225-936a-49087960dd5e","ios":"levelo://app?vid=db9c03c2-9b01-4225-936a-49087960dd5e"},"vehicle_type_id":"4","last_reported":1769544766,"current_range_meters":2800,"station_id":"st_d3j5ugp08ojc73fj9d10","pricing_plan_id":"cebpf4jnsgd1na2vs0mg"},{"bike_id":"6650f9ee-6736-4fbe-a9a5-4b8bbaf5c6d5","system_id":"levelo_inurba_marseille","lat":43.2533,"lon":5.42165,"is_reserved":false,"is_disabled":false,"rental_uris":{"android":"levelo://app?vid=6650f9ee-6736-4fbe-a9a5-4b8bbaf5c6d5","ios":"levelo://app?vid=6650f9ee-6736-4fbe-a9a5-4b8bbaf5c6d5"},"vehicle_type_id":"4","last_reported":1769544766,"current_range_meters":2800,"station_id":"st_d2m65c5bi1j21697t3ng","pricing_plan_id":"cebpf4jnsgd1na2vs0mg"},{"bike_id":"f90a7cba-5743-45de-a991-86993c3511a7","system_id":"levelo_inurba_marseille","lat":43.32363,"lon":5.36731,"is_reserved":false,"is_disabled":false,"rental_uris":{"android":"levelo://app?vid=f90a7cba-5743-45de-a991-86993c3511a7","ios":"levelo://app?vid=f90a7cba-5743-45de-a991-86993c3511a7"},"vehicle_type_id":"4","last_reported":1769544766,"current_range_meters":2800,"station_id":"ce4bhsh2rcd13ifvqi2g","pricing_plan_id":"cebpf4jnsgd1na2vs0mg"},{"bike_id":"85253dcb-da90-45f8-b5aa-445048164b0d","system_id":"levelo_inurba_marseille","lat":43.33548,"lon":5.3747,"is_reserved":false,"is_disabled":false,"rental_uris":{"android":"levelo://app?vid=85253dcb-da90-45f8-b5aa-445048164b0d","ios":"levelo://app?vid=85253dcb-da90-45f8-b5aa-445048164b0d"},"vehicle_type_id":"4","last_reported":1769544766,"current_range_meters":2800,"station_id":"st_d46tts09ee8s73dlu43g","pricing_plan_id":"cebpf4jnsgd1na2vs0mg"},{"bike_id":"6c56f57b-b120-4044-b02d-51bd58b14a3c","system_id":"levelo_inurba_marseille","lat":43.306026,"lon":5.372231,"is_reserved":false,"is_disabled":false,"rental_uris":{"android":"levelo://app?vid=6c56f57b-b120-4044-b02d-51bd58b14a3c","ios":"levelo://app?vid=6c56f57b-b120-4044-b02d-51bd58b14a3c"},"vehicle_type_id":"4","last_reported":1769544766,"current_range_meters":2800,"station_id":"ce4bgqh2rcd13ifvqc4g","pricing_plan_id":"cebpf4jnsgd1na2vs0mg"},{"bike_id":"ddac16df-da7b-4c1e-8c96-25bd2dbc1226","system_id":"levelo_inurba_marseille","lat":43.3234,"lon":5.3672,"is_reserved":false,"is_disabled":false,"rental_uris":{"android":"levelo://app?vid=ddac16df-da7b-4c1e-8c96-25bd2dbc1226","ios":"levelo://app?vid=ddac16df-da7b-4c1e-8c96-25bd2dbc1226"},"vehicle_type_id":"4","last_reported":1769544766,"current_range_meters":2800,"station_id":"ce4bhsh2rcd13ifvqi2g","pricing_plan_id":"cebpf4jnsgd1na2vs0mg"},{"bike_id":"a240423c-4d7e-41a8-a549-8c46c4bdd550","system_id":"levelo_inurba_marseille","lat":43.24806,"lon":5.3748,"is_reserved":false,"is_disabled":false,"rental_uris":{"android":"levelo://app?vid=a240423c-4d7e-41a8-a549-8c46c4bdd550","ios":"levelo://app?vid=a240423c-4d7e-41a8-a549-8c46c4bdd550"},"vehicle_type_id":"4","last_reported":1769544766,"current_range_meters":2800,"station_id":"ce4bhgh2rcd13ifvqfb0","pricing_plan_id":"cebpf4jnsgd1na2vs0mg"},{"bike_id":"79b6158d-49ea-4914-8da1-643529c2d44f","system_id":"levelo_inurba_marseille","lat":43.24641,"lon":5.38911,"is_reserved":false,"is_disabled":false,"rental_uris":{"android":"levelo://app?vid=79b6158d-49ea-4914-8da1-643529c2d44f","ios":"levelo://app?vid=79b6158d-49ea-4914-8da1-643529c2d44f"},"vehicle_type_id":"4","last_reported":1769544766,"current_range_meters":3200,"station_id":"ce4bhg12rcd13ifvqf60","pricing_plan_id":"cebpf4jnsgd1na2vs0mg"},{"bike_id":"dc57e00a-9c9f-4c75-8a76-19d3ccd6cb58","system_id":"levelo_inurba_marseille","lat":43.23963,"lon":5.36626,"is_reserved":false,"is_disabled":false,"rental_uris":{"android":"levelo://app?vid=dc57e00a-9c9f-4c75-8a76-19d3ccd6cb58","ios":"levelo://app?vid=dc57e00a-9c9f-4c75-8a76-19d3ccd6cb58"},"vehicle_type_id":"4","last_reported":1769544766,"current_range_meters":3200,"station_id":"ce4bhi12rcd13ifvqfp0","pricing_plan_id":"cebpf4jnsgd1na2vs0mg"},{"bike_id":"74975ee5-cc21-4f8d-8ef0-3c4b42557576","system_id":"levelo_inurba_marseille","lat":43.32102,"lon":5.36806,"is_reserved":false,"is_disabled":false,"rental_uris":{"android":"levelo://app?vid=74975ee5-cc21-4f8d-8ef0-3c4b42557576","ios":"levelo://app?vid=74975ee5-cc21-4f8d-8ef0-3c4b42557576"},"vehicle_type_id":"4","last_reported":1769544766,"current_range_meters":3200,"station_id":"ce4bhrh2rcd13ifvqhug","pricing_plan_id":"cebpf4jnsgd1na2vs0mg"},{"bike_id":"a38de48c-e709-4cfe-a1c9-4a664a8f58ca","system_id":"levelo_inurba_marseille","lat":43.29445,"lon":5.39749,"is_reserved":false,"is_disabled":false,"rental_uris":{"android":"levelo://app?vid=a38de48c-e709-4cfe-a1c9-4a664a8f58ca","ios":"levelo://app?vid=a38de48c-e709-4cfe-a1c9-4a664a8f58ca"},"vehicle_type_id":"4","last_reported":1769544766,"current_range_meters":3200,"station_id":"ce4bh3h2rcd13ifvqdo0","pricing_plan_id":"cebpf4jnsgd1na2vs0mg"},{"bike_id":"778dcf08-aa36-46f3-b83e-18c8eeac5204","system_id":"levelo_inurba_marseille","lat":43.275701,"lon":5.384226,"is_reserved":false,"is_disabled":false,"rental_uris":{"android":"levelo://app?vid=778dcf08-aa36-46f3-b83e-18c8eeac5204","ios":"levelo://app?vid=778dcf08-aa36-46f3-b83e-18c8eeac5204"},"vehicle_type_id":"4","last_reported":1769544766,"current_range_meters":3200,"station_id":"","pricing_plan_id":"cebpf4jnsgd1na2vs0mg"},{"bike_id":"62689e11-30b2-4cf7-a0a0-b39283952b26","system_id":"levelo_inurba_marseille","lat":43.244648,"lon":5.425265,"is_reserved":false,"is_disabled":false,"rental_uris":{"android":"levelo://app?vid=62689e11-30b2-4cf7-a0a0-b39283952b26","ios":"levelo://app?vid=62689e11-30b2-4cf7-a0a0-b39283952b26"},"vehicle_type_id":"4","last_reported":1769544766,"current_range_meters":3200,"station_id":"st_d4a3vfp97mjs738cd8kg","pricing_plan_id":"cebpf4jnsgd1na2vs0mg"},{"bike_id":"025fc0e1-bfcf-4a9d-bb30-c650787e1da5","system_id":"levelo_inurba_marseille","lat":43.29038,"lon":5.37561,"is_reserved":false,"is_disabled":false,"rental_uris":{"android":"levelo://app?vid=025fc0e1-bfcf-4a9d-bb30-c650787e1da5","ios":"levelo://app?vid=025fc0e1-bfcf-4a9d-bb30-c650787e1da5"},"vehicle_type_id":"4","last_reported":1769544766,"current_range_meters":3200,"station_id":"ce4bh692rcd13ifvqe90","pricing_plan_id":"cebpf4jnsgd1na2vs0mg"},{"bike_id":"898169fa-29c0-4349-a185-41ab96475b8a","system_id":"levelo_inurba_marseille","lat":43.25005,"lon":5.38912,"is_reserved":false,"is_disabled":false,"rental_uris":{"android":"levelo://app?vid=898169fa-29c0-4349-a185-41ab96475b8a","ios":"levelo://app?vid=898169fa-29c0-4349-a185-41ab96475b8a"},"vehicle_type_id":"4","last_reported":1769544766,"current_range_meters":3200,"station_id":"ce4bhgp2rcd13ifvqfd0","pricing_plan_id":"cebpf4jnsgd1na2vs0mg"},{"bike_id":"ccf326ac-ae0a-4ffb-a071-520b4c6f402c","system_id":"levelo_inurba_marseille","lat":43.33283,"lon":5.3796,"is_reserved":false,"is_disabled":false,"rental_uris":{"android":"levelo://app?vid=ccf326ac-ae0a-4ffb-a071-520b4c6f402c","ios":"levelo://app?vid=ccf326ac-ae0a-4ffb-a071-520b4c6f402c"},"vehicle_type_id":"4","last_reported":1769544766,"current_range_meters":3200,"station_id":"","pricing_plan_id":"cebpf4jnsgd1na2vs0mg"},{"bike_id":"49ed29fb-b0de-4f19-8a64-6fe65505aab2","system_id":"levelo_inurba_marseille","lat":43.29877,"lon":5.3893,"is_reserved":false,"is_disabled":false,"rental_uris":{"android":"levelo://app?vid=49ed29fb-b0de-4f19-8a64-6fe65505aab2","ios":"levelo://app?vid=49ed29fb-b0de-4f19-8a64-6fe65505aab2"},"vehicle_type_id":"4","last_reported":1769544766,"current_range_meters":3200,"station_id":"ce4bh392rcd13ifvqdl0","pricing_plan_id":"cebpf4jnsgd1na2vs0mg"},{"bike_id":"8239e3f4-f4e7-48d6-8734-705eae4bb8ca","system_id":"levelo_inurba_marseille","lat":43.2707,"lon":5.39284,"is_reserved":false,"is_disabled":false,"rental_uris":{"android":"levelo://app?vid=8239e3f4-f4e7-48d6-8734-705eae4bb8ca","ios":"levelo://app?vid=8239e3f4-f4e7-48d6-8734-705eae4bb8ca"},"vehicle_type_id":"4","last_reported":1769544766,"current_range_meters":3600,"station_id":"","pricing_plan_id":"cebpf4jnsgd1na2vs0mg"},{"bike_id":"56076317-b66a-45ba-b3b6-c261c650aa84","system_id":"levelo_inurba_marseille","lat":43.29648,"lon":5.37801,"is_reserved":false,"is_disabled":false,"rental_uris":{"android":"levelo://app?vid=56076317-b66a-45ba-b3b6-c261c650aa84","ios":"levelo://app?vid=56076317-b66a-45ba-b3b6-c261c650aa84"},"vehicle_type_id":"4","last_reported":1769544766,"current_range_meters":3600,"station_id":"","pricing_plan_id":"cebpf4jnsgd1na2vs0mg"},{"bike_id":"cc827cf5-4f3f-4ac3-aba7-6f8c4601f689","system_id":"levelo_inurba_marseille","lat":43.24185,"lon":5.36396,"is_reserved":false,"is_disabled":false,"rental_uris":{"android":"levelo://app?vid=cc827cf5-4f3f-4ac3-aba7-6f8c4601f689","ios":"levelo://app?vid=cc827cf5-4f3f-4ac3-aba7-6f8c4601f689"},"vehicle_type_id":"4","last_reported":1769544766,"current_range_meters":3600,"station_id":"cpo36qri1sfpv3e86is0","pricing_plan_id":"cebpf4jnsgd1na2vs0mg"},{"bike_id":"ddf0627f-8ae1-4070-900d-7896689996f7","system_id":"levelo_inurba_marseille","lat":43.2501,"lon":5.38917,"is_reserved":false,"is_disabled":false,"rental_uris":{"android":"levelo://app?vid=ddf0627f-8ae1-4070-900d-7896689996f7","ios":"levelo://app?vid=ddf0627f-8ae1-4070-900d-7896689996f7"},"vehicle_type_id":"4","last_reported":1769544766,"current_range_meters":3600,"station_id":"ce4bhgp2rcd13ifvqfd0","pricing_plan_id":"cebpf4jnsgd1na2vs0mg"},{"bike_id":"0bd3fd33-ca42-4b1b-b0cd-6ec4b1ecd569","system_id":"levelo_inurba_marseille","lat":43.32595,"lon":5.37802,"is_reserved":false,"is_disabled":false,"rental_uris":{"android":"levelo://app?vid=0bd3fd33-ca42-4b1b-b0cd-6ec4b1ecd569","ios":"levelo://app?vid=0bd3fd33-ca42-4b1b-b0cd-6ec4b1ecd569"},"vehicle_type_id":"4","last_reported":1769544766,"current_range_meters":3600,"station_id":"","pricing_plan_id":"cebpf4jnsgd1na2vs0mg"},{"bike_id":"75187644-40dc-4ee3-bf2b-301af78a34ee","system_id":"levelo_inurba_marseille","lat":43.29306,"lon":5.37163,"is_reserved":false,"is_disabled":false,"rental_uris":{"android":"levelo://app?vid=75187644-40dc-4ee3-bf2b-301af78a34ee","ios":"levelo://app?vid=75187644-40dc-4ee3-bf2b-301af78a34ee"},"vehicle_type_id":"4","last_reported":1769544766,"current_range_meters":3600,"station_id":"ce4bgh92rcd13ifvqb40","pricing_plan_id":"cebpf4jnsgd1na2vs0mg"},{"bike_id":"4c5e84a3-878b-4e80-a848-d4891b4199bc","system_id":"levelo_inurba_marseille","lat":43.32341,"lon":5.36743,"is_reserved":false,"is_disabled":false,"rental_uris":{"android":"levelo://app?vid=4c5e84a3-878b-4e80-a848-d4891b4199bc","ios":"levelo://app?vid=4c5e84a3-878b-4e80-a848-d4891b4199bc"},"vehicle_type_id":"4","last_reported":1769544766,"current_range_meters":3600,"station_id":"ce4bhsh2rcd13ifvqi2g","pricing_plan_id":"cebpf4jnsgd1na2vs0mg"},{"bike_id":"58c8c733-b47f-4822-96de-00b73f6760b8","system_id":"levelo_inurba_marseille","lat":43.28105,"lon":5.37842,"is_reserved":false,"is_disabled":false,"rental_uris":{"android":"levelo://app?vid=58c8c733-b47f-4822-96de-00b73f6760b8","ios":"levelo://app?vid=58c8c733-b47f-4822-96de-00b73f6760b8"},"vehicle_type_id":"4","last_reported":1769544766,"current_range_meters":3600,"station_id":"ce4bha12rcd13ifvqee0","pricing_plan_id":"cebpf4jnsgd1na2vs0mg"},{"bike_id":"88ffd3a2-1506-480b-abc1-f9282e869380","system_id":"levelo_inurba_marseille","lat":43.25093,"lon":5.39514,"is_reserved":false,"is_disabled":false,"rental_uris":{"android":"levelo://app?vid=88ffd3a2-1506-480b-abc1-f9282e869380","ios":"levelo://app?vid=88ffd3a2-1506-480b-abc1-f9282e869380"},"vehicle_type_id":"4","last_reported":1769544766,"current_range_meters":3600,"station_id":"ce4bhm12rcd13ifvqgkg","pricing_plan_id":"cebpf4jnsgd1na2vs0mg"},{"bike_id":"61f9b512-dfe2-4c6f-b9eb-0a539aacc6ab","system_id":"levelo_inurba_marseille","lat":43.29906,"lon":5.43672,"is_reserved":false,"is_disabled":false,"rental_uris":{"android":"levelo://app?vid=61f9b512-dfe2-4c6f-b9eb-0a539aacc6ab","ios":"levelo://app?vid=61f9b512-dfe2-4c6f-b9eb-0a539aacc6ab"},"vehicle_type_id":"4","last_reported":1769544766,"current_range_meters":3600,"station_id":"ce4bhpp2rcd13ifvqhfg","pricing_plan_id":"cebpf4jnsgd1na2vs0mg"},{"bike_id":"376d69a1-6c6a-4847-9e8d-b0a51343ba06","system_id":"levelo_inurba_marseille","lat":43.29598,"lon":5.37983,"is_reserved":false,"is_disabled":false,"rental_uris":{"android":"levelo://app?vid=376d69a1-6c6a-4847-9e8d-b0a51343ba06","ios":"levelo://app?vid=376d69a1-6c6a-4847-9e8d-b0a51343ba06"},"vehicle_type_id":"4","last_reported":1769544766,"current_range_meters":3600,"station_id":"","pricing_plan_id":"cebpf4jnsgd1na2vs0mg"},{"bike_id":"8876f0f8-be82-4349-b1d3-1064b60441e2","system_id":"levelo_inurba_marseille","lat":43.2316,"lon":5.43718,"is_reserved":false,"is_disabled":false,"rental_uris":{"android":"levelo://app?vid=8876f0f8-be82-4349-b1d3-1064b60441e2","ios":"levelo://app?vid=8876f0f8-be82-4349-b1d3-1064b60441e2"},"vehicle_type_id":"4","last_reported":1769544766,"current_range_meters":3600,"station_id":"ce4bhmp2rcd13ifvqgog","pricing_plan_id":"cebpf4jnsgd1na2vs0mg"},{"bike_id":"41c0beb3-4b70-47ff-875e-a543545cf8c9","system_id":"levelo_inurba_marseille","lat":43.24169,"lon":5.39731,"is_reserved":false,"is_disabled":false,"rental_uris":{"android":"levelo://app?vid=41c0beb3-4b70-47ff-875e-a543545cf8c9","ios":"levelo://app?vid=41c0beb3-4b70-47ff-875e-a543545cf8c9"},"vehicle_type_id":"4","last_reported":1769544766,"current_range_meters":3600,"station_id":"ce4bhn12rcd13ifvqgpg","pricing_plan_id":"cebpf4jnsgd1na2vs0mg"},{"bike_id":"5c18bca9-46cd-42a4-bd07-ba7493ce75f5","system_id":"levelo_inurba_marseille","lat":43.24673,"lon":5.43144,"is_reserved":false,"is_disabled":false,"rental_uris":{"android":"levelo://app?vid=5c18bca9-46cd-42a4-bd07-ba7493ce75f5","ios":"levelo://app?vid=5c18bca9-46cd-42a4-bd07-ba7493ce75f5"},"vehicle_type_id":"4","last_reported":1769544766,"current_range_meters":3600,"station_id":"st_d2m6c4gdas8pm72e190g","pricing_plan_id":"cebpf4jnsgd1na2vs0mg"},{"bike_id":"34e8b9e4-4b8f-4716-833f-496709e54c3c","system_id":"levelo_inurba_marseille","lat":43.31277,"lon":5.40163,"is_reserved":false,"is_disabled":false,"rental_uris":{"android":"levelo://app?vid=34e8b9e4-4b8f-4716-833f-496709e54c3c","ios":"levelo://app?vid=34e8b9e4-4b8f-4716-833f-496709e54c3c"},"vehicle_type_id":"4","last_reported":1769544766,"current_range_meters":4000,"station_id":"ce4bh092rcd13ifvqd30","pricing_plan_id":"cebpf4jnsgd1na2vs0mg"},{"bike_id":"f845e441-1ca1-4fde-889e-45a681c017c7","system_id":"levelo_inurba_marseille","lat":43.24546,"lon":5.39522,"is_reserved":false,"is_disabled":false,"rental_uris":{"android":"levelo://app?vid=f845e441-1ca1-4fde-889e-45a681c017c7","ios":"levelo://app?vid=f845e441-1ca1-4fde-889e-45a681c017c7"},"vehicle_type_id":"4","last_reported":1769544766,"current_range_meters":4000,"station_id":"ce4bhlp2rcd13ifvqgjg","pricing_plan_id":"cebpf4jnsgd1na2vs0mg"},{"bike_id":"57b1c7f1-5a72-489d-b314-69a87f30e1ce","system_id":"levelo_inurba_marseille","lat":43.30424,"lon":5.41291,"is_reserved":false,"is_disabled":false,"rental_uris":{"android":"levelo://app?vid=57b1c7f1-5a72-489d-b314-69a87f30e1ce","ios":"levelo://app?vid=57b1c7f1-5a72-489d-b314-69a87f30e1ce"},"vehicle_type_id":"4","last_reported":1769544766,"current_range_meters":4000,"station_id":"ce4bhop2rcd13ifvqh8g","pricing_plan_id":"cebpf4jnsgd1na2vs0mg"},{"bike_id":"cd32b736-566b-4d35-8940-26c8819f750b","system_id":"levelo_inurba_marseille","lat":43.25051,"lon":5.38907,"is_reserved":false,"is_disabled":false,"rental_uris":{"android":"levelo://app?vid=cd32b736-566b-4d35-8940-26c8819f750b","ios":"levelo://app?vid=cd32b736-566b-4d35-8940-26c8819f750b"},"vehicle_type_id":"4","last_reported":1769544766,"current_range_meters":4000,"station_id":"","pricing_plan_id":"cebpf4jnsgd1na2vs0mg"},{"bike_id":"fad92c36-bc8c-4896-a406-e5054c5b1a3e","system_id":"levelo_inurba_marseille","lat":43.26577,"lon":5.39005,"is_reserved":false,"is_disabled":false,"rental_uris":{"android":"levelo://app?vid=fad92c36-bc8c-4896-a406-e5054c5b1a3e","ios":"levelo://app?vid=fad92c36-bc8c-4896-a406-e5054c5b1a3e"},"vehicle_type_id":"4","last_reported":1769544766,"current_range_meters":4000,"station_id":"ce4bhe12rcd13ifvqf30","pricing_plan_id":"cebpf4jnsgd1na2vs0mg"},{"bike_id":"aaf68de7-a8ba-4f2c-b543-643a8694a695","system_id":"levelo_inurba_marseille","lat":43.24813,"lon":5.37465,"is_reserved":false,"is_disabled":false,"rental_uris":{"android":"levelo://app?vid=aaf68de7-a8ba-4f2c-b543-643a8694a695","ios":"levelo://app?vid=aaf68de7-a8ba-4f2c-b543-643a8694a695"},"vehicle_type_id":"4","last_reported":1769544766,"current_range_meters":4000,"station_id":"ce4bhgh2rcd13ifvqfb0","pricing_plan_id":"cebpf4jnsgd1na2vs0mg"},{"bike_id":"780f37c1-f90d-49a0-a2ac-cb1a69ad708a","system_id":"levelo_inurba_marseille","lat":43.25935,"lon":5.40911,"is_reserved":false,"is_disabled":false,"rental_uris":{"android":"levelo://app?vid=780f37c1-f90d-49a0-a2ac-cb1a69ad708a","ios":"levelo://app?vid=780f37c1-f90d-49a0-a2ac-cb1a69ad708a"},"vehicle_type_id":"4","last_reported":1769544766,"current_range_meters":4000,"station_id":"ce4bhm92rcd13ifvqglg","pricing_plan_id":"cebpf4jnsgd1na2vs0mg"},{"bike_id":"a82cd298-4f85-419e-8ffc-45a44121e1e4","system_id":"levelo_inurba_marseille","lat":43.23182,"lon":5.39988,"is_reserved":false,"is_disabled":false,"rental_uris":{"android":"levelo://app?vid=a82cd298-4f85-419e-8ffc-45a44121e1e4","ios":"levelo://app?vid=a82cd298-4f85-419e-8ffc-45a44121e1e4"},"vehicle_type_id":"4","last_reported":1769544766,"current_range_meters":4000,"station_id":"ce4bhn12rcd13ifvqgqg","pricing_plan_id":"cebpf4jnsgd1na2vs0mg"},{"bike_id":"628d1d29-948b-4815-bc3f-a0ef2ac1c781","system_id":"levelo_inurba_marseille","lat":43.24165,"lon":5.36411,"is_reserved":false,"is_disabled":false,"rental_uris":{"android":"levelo://app?vid=628d1d29-948b-4815-bc3f-a0ef2ac1c781","ios":"levelo://app?vid=628d1d29-948b-4815-bc3f-a0ef2ac1c781"},"vehicle_type_id":"4","last_reported":1769544766,"current_range_meters":4000,"station_id":"cpo36qri1sfpv3e86is0","pricing_plan_id":"cebpf4jnsgd1na2vs0mg"},{"bike_id":"39c45b00-edbc-4039-9410-db409ff71c29","system_id":"levelo_inurba_marseille","lat":43.30472,"lon":5.37264,"is_reserved":false,"is_disabled":false,"rental_uris":{"android":"levelo://app?vid=39c45b00-edbc-4039-9410-db409ff71c29","ios":"levelo://app?vid=39c45b00-edbc-4039-9410-db409ff71c29"},"vehicle_type_id":"4","last_reported":1769544766,"current_range_meters":4000,"station_id":"","pricing_plan_id":"cebpf4jnsgd1na2vs0mg"},{"bike_id":"329ffe7c-faeb-4049-88c1-e81cdc8e09f9","system_id":"levelo_inurba_marseille","lat":43.23809,"lon":5.36624,"is_reserved":false,"is_disabled":false,"rental_uris":{"android":"levelo://app?vid=329ffe7c-faeb-4049-88c1-e81cdc8e09f9","ios":"levelo://app?vid=329ffe7c-faeb-4049-88c1-e81cdc8e09f9"},"vehicle_type_id":"4","last_reported":1769544766,"current_range_meters":4000,"station_id":"st_d3nk18o9ro0c73en2l3g","pricing_plan_id":"cebpf4jnsgd1na2vs0mg"},{"bike_id":"80ab5f64-b772-4b29-9967-a7df2204ed6f","system_id":"levelo_inurba_marseille","lat":43.28864,"lon":5.42516,"is_reserved":false,"is_disabled":false,"rental_uris":{"android":"levelo://app?vid=80ab5f64-b772-4b29-9967-a7df2204ed6f","ios":"levelo://app?vid=80ab5f64-b772-4b29-9967-a7df2204ed6f"},"vehicle_type_id":"4","last_reported":1769544766,"current_range_meters":4000,"station_id":"st_d3b462108ojc7389ooeg","pricing_plan_id":"cebpf4jnsgd1na2vs0mg"},{"bike_id":"964fbebd-3c83-4241-9364-20748ed47a32","system_id":"levelo_inurba_marseille","lat":43.26214,"lon":5.40448,"is_reserved":false,"is_disabled":false,"rental_uris":{"android":"levelo://app?vid=964fbebd-3c83-4241-9364-20748ed47a32","ios":"levelo://app?vid=964fbebd-3c83-4241-9364-20748ed47a32"},"vehicle_type_id":"4","last_reported":1769544766,"current_range_meters":4000,"station_id":"ce4bhmh2rcd13ifvqgmg","pricing_plan_id":"cebpf4jnsgd1na2vs0mg"},{"bike_id":"408d21a9-18be-446d-8978-68e9860375d4","system_id":"levelo_inurba_marseille","lat":43.24986,"lon":5.40488,"is_reserved":false,"is_disabled":false,"rental_uris":{"android":"levelo://app?vid=408d21a9-18be-446d-8978-68e9860375d4","ios":"levelo://app?vid=408d21a9-18be-446d-8978-68e9860375d4"},"vehicle_type_id":"4","last_reported":1769544766,"current_range_meters":4000,"station_id":"st_d2ngiaodas8pm72gd1h0","pricing_plan_id":"cebpf4jnsgd1na2vs0mg"},{"bike_id":"1b26e38f-d77a-41b0-93f4-12776fa12921","system_id":"levelo_inurba_marseille","lat":43.2315,"lon":5.43723,"is_reserved":false,"is_disabled":false,"rental_uris":{"android":"levelo://app?vid=1b26e38f-d77a-41b0-93f4-12776fa12921","ios":"levelo://app?vid=1b26e38f-d77a-41b0-93f4-12776fa12921"},"vehicle_type_id":"4","last_reported":1769544766,"current_range_meters":4400,"station_id":"ce4bhmp2rcd13ifvqgog","pricing_plan_id":"cebpf4jnsgd1na2vs0mg"},{"bike_id":"4f438dad-01fc-4a34-afef-9521fac04b4f","system_id":"levelo_inurba_marseille","lat":43.32331,"lon":5.36719,"is_reserved":false,"is_disabled":false,"rental_uris":{"android":"levelo://app?vid=4f438dad-01fc-4a34-afef-9521fac04b4f","ios":"levelo://app?vid=4f438dad-01fc-4a34-afef-9521fac04b4f"},"vehicle_type_id":"4","last_reported":1769544766,"current_range_meters":4400,"station_id":"ce4bhsh2rcd13ifvqi2g","pricing_plan_id":"cebpf4jnsgd1na2vs0mg"},{"bike_id":"c0661c52-37c2-4e1a-b1cc-0fc81af3c2d4","system_id":"levelo_inurba_marseille","lat":43.2959,"lon":5.36749,"is_reserved":false,"is_disabled":false,"rental_uris":{"android":"levelo://app?vid=c0661c52-37c2-4e1a-b1cc-0fc81af3c2d4","ios":"levelo://app?vid=c0661c52-37c2-4e1a-b1cc-0fc81af3c2d4"},"vehicle_type_id":"4","last_reported":1769544766,"current_range_meters":4400,"station_id":"ce4bgph2rcd13ifvqc2g","pricing_plan_id":"cebpf4jnsgd1na2vs0mg"},{"bike_id":"f829841e-8c84-4b79-b50e-a86188feb2b5","system_id":"levelo_inurba_marseille","lat":43.31524,"lon":5.38037,"is_reserved":false,"is_disabled":false,"rental_uris":{"android":"levelo://app?vid=f829841e-8c84-4b79-b50e-a86188feb2b5","ios":"levelo://app?vid=f829841e-8c84-4b79-b50e-a86188feb2b5"},"vehicle_type_id":"4","last_reported":1769544766,"current_range_meters":4400,"station_id":"ce4bhsp2rcd13ifvqi50","pricing_plan_id":"cebpf4jnsgd1na2vs0mg"},{"bike_id":"15ffb544-9cf9-4c83-98f5-22f43ecc1d4c","system_id":"levelo_inurba_marseille","lat":43.3081,"lon":5.40477,"is_reserved":false,"is_disabled":false,"rental_uris":{"android":"levelo://app?vid=15ffb544-9cf9-4c83-98f5-22f43ecc1d4c","ios":"levelo://app?vid=15ffb544-9cf9-4c83-98f5-22f43ecc1d4c"},"vehicle_type_id":"4","last_reported":1769544766,"current_range_meters":4400,"station_id":"","pricing_plan_id":"cebpf4jnsgd1na2vs0mg"},{"bike_id":"32cefc29-005f-4ba4-875f-a00f03204d66","system_id":"levelo_inurba_marseille","lat":43.279934,"lon":5.4165,"is_reserved":false,"is_disabled":false,"rental_uris":{"android":"levelo://app?vid=32cefc29-005f-4ba4-875f-a00f03204d66","ios":"levelo://app?vid=32cefc29-005f-4ba4-875f-a00f03204d66"},"vehicle_type_id":"4","last_reported":1769544766,"current_range_meters":4400,"station_id":"ce4bho12rcd13ifvqh1g","pricing_plan_id":"cebpf4jnsgd1na2vs0mg"},{"bike_id":"c8bb2a08-170b-4c3f-9a7c-8d580e9bd3cc","system_id":"levelo_inurba_marseille","lat":43.24465,"lon":5.42519,"is_reserved":false,"is_disabled":false,"rental_uris":{"android":"levelo://app?vid=c8bb2a08-170b-4c3f-9a7c-8d580e9bd3cc","ios":"levelo://app?vid=c8bb2a08-170b-4c3f-9a7c-8d580e9bd3cc"},"vehicle_type_id":"4","last_reported":1769544766,"current_range_meters":4400,"station_id":"st_d4a3vfp97mjs738cd8kg","pricing_plan_id":"cebpf4jnsgd1na2vs0mg"},{"bike_id":"c9c2dc9f-4c9a-4324-a7a9-161b3f854066","system_id":"levelo_inurba_marseille","lat":43.24806,"lon":5.37458,"is_reserved":false,"is_disabled":false,"rental_uris":{"android":"levelo://app?vid=c9c2dc9f-4c9a-4324-a7a9-161b3f854066","ios":"levelo://app?vid=c9c2dc9f-4c9a-4324-a7a9-161b3f854066"},"vehicle_type_id":"4","last_reported":1769544766,"current_range_meters":4800,"station_id":"ce4bhgh2rcd13ifvqfb0","pricing_plan_id":"cebpf4jnsgd1na2vs0mg"},{"bike_id":"dbd55929-ea59-497f-a8ba-15ae846074c8","system_id":"levelo_inurba_marseille","lat":43.29246,"lon":5.38445,"is_reserved":false,"is_disabled":false,"rental_uris":{"android":"levelo://app?vid=dbd55929-ea59-497f-a8ba-15ae846074c8","ios":"levelo://app?vid=dbd55929-ea59-497f-a8ba-15ae846074c8"},"vehicle_type_id":"4","last_reported":1769544766,"current_range_meters":4800,"station_id":"ce4bh692rcd13ifvqea0","pricing_plan_id":"cebpf4jnsgd1na2vs0mg"},{"bike_id":"4982447f-e072-41ab-8515-f50997651ddc","system_id":"levelo_inurba_marseille","lat":43.23057,"lon":5.35485,"is_reserved":false,"is_disabled":false,"rental_uris":{"android":"levelo://app?vid=4982447f-e072-41ab-8515-f50997651ddc","ios":"levelo://app?vid=4982447f-e072-41ab-8515-f50997651ddc"},"vehicle_type_id":"4","last_reported":1769544766,"current_range_meters":4800,"station_id":"cpo3342slgdg3j2ifvpg","pricing_plan_id":"cebpf4jnsgd1na2vs0mg"},{"bike_id":"b778e9ae-9e5d-422f-9aa0-c2aebe5892bf","system_id":"levelo_inurba_marseille","lat":43.32354,"lon":5.36741,"is_reserved":false,"is_disabled":false,"rental_uris":{"android":"levelo://app?vid=b778e9ae-9e5d-422f-9aa0-c2aebe5892bf","ios":"levelo://app?vid=b778e9ae-9e5d-422f-9aa0-c2aebe5892bf"},"vehicle_type_id":"4","last_reported":1769544766,"current_range_meters":4800,"station_id":"ce4bhsh2rcd13ifvqi2g","pricing_plan_id":"cebpf4jnsgd1na2vs0mg"},{"bike_id":"5073c588-fd69-4546-b19e-c25ee2532fa0","system_id":"levelo_inurba_marseille","lat":43.32487,"lon":5.36567,"is_reserved":false,"is_disabled":false,"rental_uris":{"android":"levelo://app?vid=5073c588-fd69-4546-b19e-c25ee2532fa0","ios":"levelo://app?vid=5073c588-fd69-4546-b19e-c25ee2532fa0"},"vehicle_type_id":"4","last_reported":1769544766,"current_range_meters":4800,"station_id":"ce4bhs12rcd13ifvqhvg","pricing_plan_id":"cebpf4jnsgd1na2vs0mg"},{"bike_id":"2e7dad9e-9695-44d6-bc96-ef3eee5dfbfa","system_id":"levelo_inurba_marseille","lat":43.313586,"lon":5.36695,"is_reserved":false,"is_disabled":false,"rental_uris":{"android":"levelo://app?vid=2e7dad9e-9695-44d6-bc96-ef3eee5dfbfa","ios":"levelo://app?vid=2e7dad9e-9695-44d6-bc96-ef3eee5dfbfa"},"vehicle_type_id":"4","last_reported":1769544766,"current_range_meters":4800,"station_id":"ce4bgr92rcd13ifvqc6g","pricing_plan_id":"cebpf4jnsgd1na2vs0mg"},{"bike_id":"ea7ff46f-6c46-44ac-a7b9-2d726e676df5","system_id":"levelo_inurba_marseille","lat":43.29635,"lon":5.40606,"is_reserved":false,"is_disabled":false,"rental_uris":{"android":"levelo://app?vid=ea7ff46f-6c46-44ac-a7b9-2d726e676df5","ios":"levelo://app?vid=ea7ff46f-6c46-44ac-a7b9-2d726e676df5"},"vehicle_type_id":"4","last_reported":1769544766,"current_range_meters":4800,"station_id":"ce4bh0h2rcd13ifvqd60","pricing_plan_id":"cebpf4jnsgd1na2vs0mg"},{"bike_id":"fb8934f6-9dab-439c-acce-05fcdc10c589","system_id":"levelo_inurba_marseille","lat":43.24958,"lon":5.40493,"is_reserved":false,"is_disabled":false,"rental_uris":{"android":"levelo://app?vid=fb8934f6-9dab-439c-acce-05fcdc10c589","ios":"levelo://app?vid=fb8934f6-9dab-439c-acce-05fcdc10c589"},"vehicle_type_id":"4","last_reported":1769544766,"current_range_meters":4800,"station_id":"st_d2ngiaodas8pm72gd1h0","pricing_plan_id":"cebpf4jnsgd1na2vs0mg"},{"bike_id":"10ed2664-109e-43f4-9dbd-256742a1695f","system_id":"levelo_inurba_marseille","lat":43.30176,"lon":5.3662,"is_reserved":false,"is_disabled":false,"rental_uris":{"android":"levelo://app?vid=10ed2664-109e-43f4-9dbd-256742a1695f","ios":"levelo://app?vid=10ed2664-109e-43f4-9dbd-256742a1695f"},"vehicle_type_id":"4","last_reported":1769544766,"current_range_meters":4800,"station_id":"ce4bgrh2rcd13ifvqc8g","pricing_plan_id":"cebpf4jnsgd1na2vs0mg"},{"bike_id":"8305b103-08ce-4280-a68c-92de037dd5d6","system_id":"levelo_inurba_marseille","lat":43.2952,"lon":5.390444,"is_reserved":false,"is_disabled":false,"rental_uris":{"android":"levelo://app?vid=8305b103-08ce-4280-a68c-92de037dd5d6","ios":"levelo://app?vid=8305b103-08ce-4280-a68c-92de037dd5d6"},"vehicle_type_id":"4","last_reported":1769544766,"current_range_meters":5600,"station_id":"ce4bh3p2rcd13ifvqdp0","pricing_plan_id":"cebpf4jnsgd1na2vs0mg"},{"bike_id":"c1d76fe7-8229-49b0-8dae-038c2bf0b5b7","system_id":"levelo_inurba_marseille","lat":43.30906,"lon":5.40338,"is_reserved":false,"is_disabled":false,"rental_uris":{"android":"levelo://app?vid=c1d76fe7-8229-49b0-8dae-038c2bf0b5b7","ios":"levelo://app?vid=c1d76fe7-8229-49b0-8dae-038c2bf0b5b7"},"vehicle_type_id":"4","last_reported":1769544766,"current_range_meters":5600,"station_id":"","pricing_plan_id":"cebpf4jnsgd1na2vs0mg"},{"bike_id":"054e163b-1e47-4a0a-a038-a7939885860e","system_id":"levelo_inurba_marseille","lat":43.323503,"lon":5.367325,"is_reserved":false,"is_disabled":false,"rental_uris":{"android":"levelo://app?vid=054e163b-1e47-4a0a-a038-a7939885860e","ios":"levelo://app?vid=054e163b-1e47-4a0a-a038-a7939885860e"},"vehicle_type_id":"4","last_reported":1769544766,"current_range_meters":5600,"station_id":"ce4bhsh2rcd13ifvqi2g","pricing_plan_id":"cebpf4jnsgd1na2vs0mg"},{"bike_id":"8dc1c371-7a8b-4d40-96de-5f21b3f68e5e","system_id":"levelo_inurba_marseille","lat":43.29922,"lon":5.37487,"is_reserved":false,"is_disabled":false,"rental_uris":{"android":"levelo://app?vid=8dc1c371-7a8b-4d40-96de-5f21b3f68e5e","ios":"levelo://app?vid=8dc1c371-7a8b-4d40-96de-5f21b3f68e5e"},"vehicle_type_id":"4","last_reported":1769544766,"current_range_meters":5600,"station_id":"ce4bgjh2rcd13ifvqbg0","pricing_plan_id":"cebpf4jnsgd1na2vs0mg"},{"bike_id":"1e6ae573-7b0d-4ca7-8d21-23950df7df4a","system_id":"levelo_inurba_marseille","lat":43.33563,"lon":5.3746,"is_reserved":false,"is_disabled":false,"rental_uris":{"android":"levelo://app?vid=1e6ae573-7b0d-4ca7-8d21-23950df7df4a","ios":"levelo://app?vid=1e6ae573-7b0d-4ca7-8d21-23950df7df4a"},"vehicle_type_id":"4","last_reported":1769544766,"current_range_meters":5600,"station_id":"st_d46tts09ee8s73dlu43g","pricing_plan_id":"cebpf4jnsgd1na2vs0mg"},{"bike_id":"cec4a77a-f4a0-4990-a703-2d81506ed66f","system_id":"levelo_inurba_marseille","lat":43.25336,"lon":5.42173,"is_reserved":false,"is_disabled":false,"rental_uris":{"android":"levelo://app?vid=cec4a77a-f4a0-4990-a703-2d81506ed66f","ios":"levelo://app?vid=cec4a77a-f4a0-4990-a703-2d81506ed66f"},"vehicle_type_id":"4","last_reported":1769544766,"current_range_meters":5600,"station_id":"st_d2m65c5bi1j21697t3ng","pricing_plan_id":"cebpf4jnsgd1na2vs0mg"},{"bike_id":"20aa12dc-f764-4df4-9849-0e6572012126","system_id":"levelo_inurba_marseille","lat":43.26398,"lon":5.41054,"is_reserved":false,"is_disabled":false,"rental_uris":{"android":"levelo://app?vid=20aa12dc-f764-4df4-9849-0e6572012126","ios":"levelo://app?vid=20aa12dc-f764-4df4-9849-0e6572012126"},"vehicle_type_id":"4","last_reported":1769544766,"current_range_meters":6000,"station_id":"st_d4e5ca6na9uc73bfl5fg","pricing_plan_id":"cebpf4jnsgd1na2vs0mg"},{"bike_id":"6ac15107-8d5a-4bc5-aef3-ea3f593e80d3","system_id":"levelo_inurba_marseille","lat":43.31141,"lon":5.369,"is_reserved":false,"is_disabled":false,"rental_uris":{"android":"levelo://app?vid=6ac15107-8d5a-4bc5-aef3-ea3f593e80d3","ios":"levelo://app?vid=6ac15107-8d5a-4bc5-aef3-ea3f593e80d3"},"vehicle_type_id":"4","last_reported":1769544766,"current_range_meters":6000,"station_id":"","pricing_plan_id":"cebpf4jnsgd1na2vs0mg"},{"bike_id":"e1b65952-cf23-4d4c-bb61-476f12fae8d2","system_id":"levelo_inurba_marseille","lat":43.23183,"lon":5.35573,"is_reserved":false,"is_disabled":false,"rental_uris":{"android":"levelo://app?vid=e1b65952-cf23-4d4c-bb61-476f12fae8d2","ios":"levelo://app?vid=e1b65952-cf23-4d4c-bb61-476f12fae8d2"},"vehicle_type_id":"4","last_reported":1769544766,"current_range_meters":6000,"station_id":"ce4bhu92rcd13ifvqi70","pricing_plan_id":"cebpf4jnsgd1na2vs0mg"},{"bike_id":"c91f91f3-98b3-4fcf-bd93-581840c2823a","system_id":"levelo_inurba_marseille","lat":43.28437,"lon":5.39199,"is_reserved":false,"is_disabled":false,"rental_uris":{"android":"levelo://app?vid=c91f91f3-98b3-4fcf-bd93-581840c2823a","ios":"levelo://app?vid=c91f91f3-98b3-4fcf-bd93-581840c2823a"},"vehicle_type_id":"4","last_reported":1769544766,"current_range_meters":6000,"station_id":"ce4bhoh2rcd13ifvqh5g","pricing_plan_id":"cebpf4jnsgd1na2vs0mg"},{"bike_id":"86ae450c-deaa-48cb-8992-fbab8764cfa4","system_id":"levelo_inurba_marseille","lat":43.29019,"lon":5.37568,"is_reserved":false,"is_disabled":false,"rental_uris":{"android":"levelo://app?vid=86ae450c-deaa-48cb-8992-fbab8764cfa4","ios":"levelo://app?vid=86ae450c-deaa-48cb-8992-fbab8764cfa4"},"vehicle_type_id":"4","last_reported":1769544766,"current_range_meters":6000,"station_id":"ce4bh692rcd13ifvqe90","pricing_plan_id":"cebpf4jnsgd1na2vs0mg"},{"bike_id":"39bceb37-1133-47a7-8f28-61021ec883b3","system_id":"levelo_inurba_marseille","lat":43.26546,"lon":5.37277,"is_reserved":false,"is_disabled":false,"rental_uris":{"android":"levelo://app?vid=39bceb37-1133-47a7-8f28-61021ec883b3","ios":"levelo://app?vid=39bceb37-1133-47a7-8f28-61021ec883b3"},"vehicle_type_id":"4","last_reported":1769544766,"current_range_meters":6000,"station_id":"ce4bhg12rcd13ifvqf70","pricing_plan_id":"cebpf4jnsgd1na2vs0mg"},{"bike_id":"04ddf445-c90e-4eb2-b7e0-2646a674cd14","system_id":"levelo_inurba_marseille","lat":43.24812,"lon":5.37454,"is_reserved":false,"is_disabled":false,"rental_uris":{"android":"levelo://app?vid=04ddf445-c90e-4eb2-b7e0-2646a674cd14","ios":"levelo://app?vid=04ddf445-c90e-4eb2-b7e0-2646a674cd14"},"vehicle_type_id":"4","last_reported":1769544766,"current_range_meters":6000,"station_id":"ce4bhgh2rcd13ifvqfb0","pricing_plan_id":"cebpf4jnsgd1na2vs0mg"},{"bike_id":"8631421d-21a9-439a-82c3-3764ee3e564c","system_id":"levelo_inurba_marseille","lat":43.27179,"lon":5.41008,"is_reserved":false,"is_disabled":false,"rental_uris":{"android":"levelo://app?vid=8631421d-21a9-439a-82c3-3764ee3e564c","ios":"levelo://app?vid=8631421d-21a9-439a-82c3-3764ee3e564c"},"vehicle_type_id":"4","last_reported":1769544766,"current_range_meters":6000,"station_id":"ce4bhl12rcd13ifvqgf0","pricing_plan_id":"cebpf4jnsgd1na2vs0mg"},{"bike_id":"2abdbc45-a66e-4faf-971c-b57d8f806d8d","system_id":"levelo_inurba_marseille","lat":43.28486,"lon":5.48421,"is_reserved":false,"is_disabled":false,"rental_uris":{"android":"levelo://app?vid=2abdbc45-a66e-4faf-971c-b57d8f806d8d","ios":"levelo://app?vid=2abdbc45-a66e-4faf-971c-b57d8f806d8d"},"vehicle_type_id":"4","last_reported":1769544766,"current_range_meters":6000,"station_id":"st_d3svhcjqgbts73a3dn0g","pricing_plan_id":"cebpf4jnsgd1na2vs0mg"},{"bike_id":"c3616682-88ec-472f-b28b-1fbb837fa9d1","system_id":"levelo_inurba_marseille","lat":43.24174,"lon":5.3638,"is_reserved":false,"is_disabled":false,"rental_uris":{"android":"levelo://app?vid=c3616682-88ec-472f-b28b-1fbb837fa9d1","ios":"levelo://app?vid=c3616682-88ec-472f-b28b-1fbb837fa9d1"},"vehicle_type_id":"4","last_reported":1769544766,"current_range_meters":6000,"station_id":"cpo36qri1sfpv3e86is0","pricing_plan_id":"cebpf4jnsgd1na2vs0mg"},{"bike_id":"3502fe63-e82b-42dd-b76c-251185f6362e","system_id":"levelo_inurba_marseille","lat":43.290022,"lon":5.356166,"is_reserved":false,"is_disabled":false,"rental_uris":{"android":"levelo://app?vid=3502fe63-e82b-42dd-b76c-251185f6362e","ios":"levelo://app?vid=3502fe63-e82b-42dd-b76c-251185f6362e"},"vehicle_type_id":"4","last_reported":1769544766,"current_range_meters":6000,"station_id":"ce4bhb92rcd13ifvqen0","pricing_plan_id":"cebpf4jnsgd1na2vs0mg"},{"bike_id":"97d1eda0-a9af-4c4a-9c8b-3b1301d74ec8","system_id":"levelo_inurba_marseille","lat":43.22926,"lon":5.35399,"is_reserved":false,"is_disabled":false,"rental_uris":{"android":"levelo://app?vid=97d1eda0-a9af-4c4a-9c8b-3b1301d74ec8","ios":"levelo://app?vid=97d1eda0-a9af-4c4a-9c8b-3b1301d74ec8"},"vehicle_type_id":"4","last_reported":1769544766,"current_range_meters":6400,"station_id":"cpo3532slgdg3j2ikp40","pricing_plan_id":"cebpf4jnsgd1na2vs0mg"},{"bike_id":"4ae41ba3-a1e3-40be-9ea3-b6ff0399ba40","system_id":"levelo_inurba_marseille","lat":43.24125,"lon":5.37677,"is_reserved":false,"is_disabled":false,"rental_uris":{"android":"levelo://app?vid=4ae41ba3-a1e3-40be-9ea3-b6ff0399ba40","ios":"levelo://app?vid=4ae41ba3-a1e3-40be-9ea3-b6ff0399ba40"},"vehicle_type_id":"4","last_reported":1769544766,"current_range_meters":6400,"station_id":"ce4bhnp2rcd13ifvqgvg","pricing_plan_id":"cebpf4jnsgd1na2vs0mg"},{"bike_id":"a25d6579-8a29-4988-93ae-ba28f041dda1","system_id":"levelo_inurba_marseille","lat":43.2901,"lon":5.38112,"is_reserved":false,"is_disabled":false,"rental_uris":{"android":"levelo://app?vid=a25d6579-8a29-4988-93ae-ba28f041dda1","ios":"levelo://app?vid=a25d6579-8a29-4988-93ae-ba28f041dda1"},"vehicle_type_id":"4","last_reported":1769544766,"current_range_meters":6400,"station_id":"ce4bh4p2rcd13ifvqe1g","pricing_plan_id":"cebpf4jnsgd1na2vs0mg"},{"bike_id":"393e8843-79b1-4160-ba67-99b8fb174133","system_id":"levelo_inurba_marseille","lat":43.2463,"lon":5.43143,"is_reserved":false,"is_disabled":false,"rental_uris":{"android":"levelo://app?vid=393e8843-79b1-4160-ba67-99b8fb174133","ios":"levelo://app?vid=393e8843-79b1-4160-ba67-99b8fb174133"},"vehicle_type_id":"4","last_reported":1769544766,"current_range_meters":6400,"station_id":"st_d2m6c4gdas8pm72e190g","pricing_plan_id":"cebpf4jnsgd1na2vs0mg"},{"bike_id":"2042b4d1-4e53-4755-aaf3-74ab0eb44dd8","system_id":"levelo_inurba_marseille","lat":43.30795,"lon":5.38158,"is_reserved":false,"is_disabled":false,"rental_uris":{"android":"levelo://app?vid=2042b4d1-4e53-4755-aaf3-74ab0eb44dd8","ios":"levelo://app?vid=2042b4d1-4e53-4755-aaf3-74ab0eb44dd8"},"vehicle_type_id":"4","last_reported":1769544766,"current_range_meters":6400,"station_id":"ce4bgt12rcd13ifvqce0","pricing_plan_id":"cebpf4jnsgd1na2vs0mg"},{"bike_id":"6403e3cb-b3e3-41e8-bf9f-1d4a6c92aa6b","system_id":"levelo_inurba_marseille","lat":43.29595,"lon":5.39265,"is_reserved":false,"is_disabled":false,"rental_uris":{"android":"levelo://app?vid=6403e3cb-b3e3-41e8-bf9f-1d4a6c92aa6b","ios":"levelo://app?vid=6403e3cb-b3e3-41e8-bf9f-1d4a6c92aa6b"},"vehicle_type_id":"4","last_reported":1769544766,"current_range_meters":6400,"station_id":"","pricing_plan_id":"cebpf4jnsgd1na2vs0mg"},{"bike_id":"91b17bad-8088-43ad-8719-6174e3db191c","system_id":"levelo_inurba_marseille","lat":43.28405,"lon":5.37506,"is_reserved":false,"is_disabled":false,"rental_uris":{"android":"levelo://app?vid=91b17bad-8088-43ad-8719-6174e3db191c","ios":"levelo://app?vid=91b17bad-8088-43ad-8719-6174e3db191c"},"vehicle_type_id":"4","last_reported":1769544766,"current_range_meters":6800,"station_id":"ce4bh412rcd13ifvqds0","pricing_plan_id":"cebpf4jnsgd1na2vs0mg"},{"bike_id":"613783a7-3375-47a3-8806-3460e4a447cb","system_id":"levelo_inurba_marseille","lat":43.2756,"lon":5.38407,"is_reserved":false,"is_disabled":false,"rental_uris":{"android":"levelo://app?vid=613783a7-3375-47a3-8806-3460e4a447cb","ios":"levelo://app?vid=613783a7-3375-47a3-8806-3460e4a447cb"},"vehicle_type_id":"4","last_reported":1769544766,"current_range_meters":6800,"station_id":"ce4bhh92rcd13ifvqfi0","pricing_plan_id":"cebpf4jnsgd1na2vs0mg"},{"bike_id":"d8fe5977-167d-4d79-bb8d-a90abddb5736","system_id":"levelo_inurba_marseille","lat":43.24805,"lon":5.3739,"is_reserved":false,"is_disabled":false,"rental_uris":{"android":"levelo://app?vid=d8fe5977-167d-4d79-bb8d-a90abddb5736","ios":"levelo://app?vid=d8fe5977-167d-4d79-bb8d-a90abddb5736"},"vehicle_type_id":"4","last_reported":1769544766,"current_range_meters":6800,"station_id":"ce4bhgh2rcd13ifvqfb0","pricing_plan_id":"cebpf4jnsgd1na2vs0mg"},{"bike_id":"85026117-c550-455d-8a08-7af3c98aaf36","system_id":"levelo_inurba_marseille","lat":43.23188,"lon":5.35563,"is_reserved":false,"is_disabled":false,"rental_uris":{"android":"levelo://app?vid=85026117-c550-455d-8a08-7af3c98aaf36","ios":"levelo://app?vid=85026117-c550-455d-8a08-7af3c98aaf36"},"vehicle_type_id":"4","last_reported":1769544766,"current_range_meters":6800,"station_id":"ce4bhu92rcd13ifvqi70","pricing_plan_id":"cebpf4jnsgd1na2vs0mg"},{"bike_id":"ccb8f850-15c8-4a47-a07e-b172230b2bf2","system_id":"levelo_inurba_marseille","lat":43.244692,"lon":5.425344,"is_reserved":false,"is_disabled":false,"rental_uris":{"android":"levelo://app?vid=ccb8f850-15c8-4a47-a07e-b172230b2bf2","ios":"levelo://app?vid=ccb8f850-15c8-4a47-a07e-b172230b2bf2"},"vehicle_type_id":"4","last_reported":1769544766,"current_range_meters":6800,"station_id":"st_d4a3vfp97mjs738cd8kg","pricing_plan_id":"cebpf4jnsgd1na2vs0mg"},{"bike_id":"dd17e14d-0564-4393-a6fd-cb7a120675c0","system_id":"levelo_inurba_marseille","lat":43.24472,"lon":5.42532,"is_reserved":false,"is_disabled":false,"rental_uris":{"android":"levelo://app?vid=dd17e14d-0564-4393-a6fd-cb7a120675c0","ios":"levelo://app?vid=dd17e14d-0564-4393-a6fd-cb7a120675c0"},"vehicle_type_id":"4","last_reported":1769544766,"current_range_meters":6800,"station_id":"st_d4a3vfp97mjs738cd8kg","pricing_plan_id":"cebpf4jnsgd1na2vs0mg"},{"bike_id":"d1c43644-7810-4148-a97a-875d3c52e1cb","system_id":"levelo_inurba_marseille","lat":43.22565,"lon":5.41623,"is_reserved":false,"is_disabled":false,"rental_uris":{"android":"levelo://app?vid=d1c43644-7810-4148-a97a-875d3c52e1cb","ios":"levelo://app?vid=d1c43644-7810-4148-a97a-875d3c52e1cb"},"vehicle_type_id":"4","last_reported":1769544766,"current_range_meters":6800,"station_id":"st_d2o4gvlbi1j2169b742g","pricing_plan_id":"cebpf4jnsgd1na2vs0mg"},{"bike_id":"1594e14a-8be7-41b0-904e-fc271068c4fd","system_id":"levelo_inurba_marseille","lat":43.26093,"lon":5.39413,"is_reserved":false,"is_disabled":false,"rental_uris":{"android":"levelo://app?vid=1594e14a-8be7-41b0-904e-fc271068c4fd","ios":"levelo://app?vid=1594e14a-8be7-41b0-904e-fc271068c4fd"},"vehicle_type_id":"4","last_reported":1769544766,"current_range_meters":6800,"station_id":"ce4bhh92rcd13ifvqfj0","pricing_plan_id":"cebpf4jnsgd1na2vs0mg"},{"bike_id":"a2440d1b-a3a8-413d-afc2-b2eb2991ca06","system_id":"levelo_inurba_marseille","lat":43.33158,"lon":5.37706,"is_reserved":false,"is_disabled":false,"rental_uris":{"android":"levelo://app?vid=a2440d1b-a3a8-413d-afc2-b2eb2991ca06","ios":"levelo://app?vid=a2440d1b-a3a8-413d-afc2-b2eb2991ca06"},"vehicle_type_id":"4","last_reported":1769544766,"current_range_meters":6800,"station_id":"st_d46cu089ee8s73dldbu0","pricing_plan_id":"cebpf4jnsgd1na2vs0mg"},{"bike_id":"80bfe7d7-dc03-49e7-b0e2-738768656a80","system_id":"levelo_inurba_marseille","lat":43.33158,"lon":5.37693,"is_reserved":false,"is_disabled":false,"rental_uris":{"android":"levelo://app?vid=80bfe7d7-dc03-49e7-b0e2-738768656a80","ios":"levelo://app?vid=80bfe7d7-dc03-49e7-b0e2-738768656a80"},"vehicle_type_id":"4","last_reported":1769544766,"current_range_meters":6800,"station_id":"st_d46cu089ee8s73dldbu0","pricing_plan_id":"cebpf4jnsgd1na2vs0mg"},{"bike_id":"e87551f7-d06a-4b80-aa7a-e3b2490a54b4","system_id":"levelo_inurba_marseille","lat":43.25584,"lon":5.38232,"is_reserved":false,"is_disabled":false,"rental_uris":{"android":"levelo://app?vid=e87551f7-d06a-4b80-aa7a-e3b2490a54b4","ios":"levelo://app?vid=e87551f7-d06a-4b80-aa7a-e3b2490a54b4"},"vehicle_type_id":"4","last_reported":1769544766,"current_range_meters":6800,"station_id":"ce4bhih2rcd13ifvqfs0","pricing_plan_id":"cebpf4jnsgd1na2vs0mg"},{"bike_id":"86ab6ff6-5d09-46d9-8fb7-9ea6cfb6987e","system_id":"levelo_inurba_marseille","lat":43.28493,"lon":5.38435,"is_reserved":false,"is_disabled":false,"rental_uris":{"android":"levelo://app?vid=86ab6ff6-5d09-46d9-8fb7-9ea6cfb6987e","ios":"levelo://app?vid=86ab6ff6-5d09-46d9-8fb7-9ea6cfb6987e"},"vehicle_type_id":"4","last_reported":1769544766,"current_range_meters":6800,"station_id":"ce4bh512rcd13ifvqe3g","pricing_plan_id":"cebpf4jnsgd1na2vs0mg"},{"bike_id":"6d06c21c-b3a0-4a4c-b24e-191f22182658","system_id":"levelo_inurba_marseille","lat":43.24631,"lon":5.43145,"is_reserved":false,"is_disabled":false,"rental_uris":{"android":"levelo://app?vid=6d06c21c-b3a0-4a4c-b24e-191f22182658","ios":"levelo://app?vid=6d06c21c-b3a0-4a4c-b24e-191f22182658"},"vehicle_type_id":"4","last_reported":1769544766,"current_range_meters":6800,"station_id":"st_d2m6c4gdas8pm72e190g","pricing_plan_id":"cebpf4jnsgd1na2vs0mg"},{"bike_id":"1bd44af8-a399-4717-b391-e0e7ede0d4bc","system_id":"levelo_inurba_marseille","lat":43.28859,"lon":5.42512,"is_reserved":false,"is_disabled":false,"rental_uris":{"android":"levelo://app?vid=1bd44af8-a399-4717-b391-e0e7ede0d4bc","ios":"levelo://app?vid=1bd44af8-a399-4717-b391-e0e7ede0d4bc"},"vehicle_type_id":"4","last_reported":1769544766,"current_range_meters":6800,"station_id":"st_d3b462108ojc7389ooeg","pricing_plan_id":"cebpf4jnsgd1na2vs0mg"},{"bike_id":"5dd5ba8e-7633-431d-bd88-a61b8dc43eb8","system_id":"levelo_inurba_marseille","lat":43.26674,"lon":5.38282,"is_reserved":false,"is_disabled":false,"rental_uris":{"android":"levelo://app?vid=5dd5ba8e-7633-431d-bd88-a61b8dc43eb8","ios":"levelo://app?vid=5dd5ba8e-7633-431d-bd88-a61b8dc43eb8"},"vehicle_type_id":"4","last_reported":1769544766,"current_range_meters":6800,"station_id":"ce4bhg92rcd13ifvqf90","pricing_plan_id":"cebpf4jnsgd1na2vs0mg"},{"bike_id":"3db1349f-0990-4ada-9737-c32a99d9f162","system_id":"levelo_inurba_marseille","lat":43.29982,"lon":5.37175,"is_reserved":false,"is_disabled":false,"rental_uris":{"android":"levelo://app?vid=3db1349f-0990-4ada-9737-c32a99d9f162","ios":"levelo://app?vid=3db1349f-0990-4ada-9737-c32a99d9f162"},"vehicle_type_id":"4","last_reported":1769544766,"current_range_meters":6800,"station_id":"ce4bgr92rcd13ifvqc7g","pricing_plan_id":"cebpf4jnsgd1na2vs0mg"},{"bike_id":"d48cb725-0cda-4b3c-925c-5178792aff67","system_id":"levelo_inurba_marseille","lat":43.27561,"lon":5.4343,"is_reserved":false,"is_disabled":false,"rental_uris":{"android":"levelo://app?vid=d48cb725-0cda-4b3c-925c-5178792aff67","ios":"levelo://app?vid=d48cb725-0cda-4b3c-925c-5178792aff67"},"vehicle_type_id":"4","last_reported":1769544766,"current_range_meters":6800,"station_id":"","pricing_plan_id":"cebpf4jnsgd1na2vs0mg"},{"bike_id":"25eaa446-e859-4ae0-969e-813719c1eb78","system_id":"levelo_inurba_marseille","lat":43.2318,"lon":5.39973,"is_reserved":false,"is_disabled":false,"rental_uris":{"android":"levelo://app?vid=25eaa446-e859-4ae0-969e-813719c1eb78","ios":"levelo://app?vid=25eaa446-e859-4ae0-969e-813719c1eb78"},"vehicle_type_id":"4","last_reported":1769544766,"current_range_meters":6800,"station_id":"ce4bhn12rcd13ifvqgqg","pricing_plan_id":"cebpf4jnsgd1na2vs0mg"},{"bike_id":"3bff5cec-8847-4371-9dcf-08e0ac5a358c","system_id":"levelo_inurba_marseille","lat":43.25009,"lon":5.38914,"is_reserved":false,"is_disabled":false,"rental_uris":{"android":"levelo://app?vid=3bff5cec-8847-4371-9dcf-08e0ac5a358c","ios":"levelo://app?vid=3bff5cec-8847-4371-9dcf-08e0ac5a358c"},"vehicle_type_id":"4","last_reported":1769544766,"current_range_meters":6800,"station_id":"ce4bhgp2rcd13ifvqfd0","pricing_plan_id":"cebpf4jnsgd1na2vs0mg"},{"bike_id":"6b4c2cb5-5f9e-4113-aa57-12bc075351c0","system_id":"levelo_inurba_marseille","lat":43.29955,"lon":5.36478,"is_reserved":false,"is_disabled":false,"rental_uris":{"android":"levelo://app?vid=6b4c2cb5-5f9e-4113-aa57-12bc075351c0","ios":"levelo://app?vid=6b4c2cb5-5f9e-4113-aa57-12bc075351c0"},"vehicle_type_id":"4","last_reported":1769544766,"current_range_meters":7200,"station_id":"ce4bgm92rcd13ifvqbr0","pricing_plan_id":"cebpf4jnsgd1na2vs0mg"},{"bike_id":"7d6a87cd-873d-44b2-a109-0e549332afd0","system_id":"levelo_inurba_marseille","lat":43.30318,"lon":5.36909,"is_reserved":false,"is_disabled":false,"rental_uris":{"android":"levelo://app?vid=7d6a87cd-873d-44b2-a109-0e549332afd0","ios":"levelo://app?vid=7d6a87cd-873d-44b2-a109-0e549332afd0"},"vehicle_type_id":"4","last_reported":1769544766,"current_range_meters":7200,"station_id":"ce4bgqh2rcd13ifvqc5g","pricing_plan_id":"cebpf4jnsgd1na2vs0mg"},{"bike_id":"ab07878c-3fd6-4221-9e00-2f6cd863cf94","system_id":"levelo_inurba_marseille","lat":43.31278,"lon":5.40171,"is_reserved":false,"is_disabled":false,"rental_uris":{"android":"levelo://app?vid=ab07878c-3fd6-4221-9e00-2f6cd863cf94","ios":"levelo://app?vid=ab07878c-3fd6-4221-9e00-2f6cd863cf94"},"vehicle_type_id":"4","last_reported":1769544766,"current_range_meters":7200,"station_id":"ce4bh092rcd13ifvqd30","pricing_plan_id":"cebpf4jnsgd1na2vs0mg"},{"bike_id":"00dfcad3-8e11-4382-a88b-9b861c96f8a0","system_id":"levelo_inurba_marseille","lat":43.23781,"lon":5.36627,"is_reserved":false,"is_disabled":false,"rental_uris":{"android":"levelo://app?vid=00dfcad3-8e11-4382-a88b-9b861c96f8a0","ios":"levelo://app?vid=00dfcad3-8e11-4382-a88b-9b861c96f8a0"},"vehicle_type_id":"4","last_reported":1769544766,"current_range_meters":7200,"station_id":"st_d3nk18o9ro0c73en2l3g","pricing_plan_id":"cebpf4jnsgd1na2vs0mg"},{"bike_id":"db5a8d9b-1501-4619-9180-f11f5d197c99","system_id":"levelo_inurba_marseille","lat":43.25932,"lon":5.40893,"is_reserved":false,"is_disabled":false,"rental_uris":{"android":"levelo://app?vid=db5a8d9b-1501-4619-9180-f11f5d197c99","ios":"levelo://app?vid=db5a8d9b-1501-4619-9180-f11f5d197c99"},"vehicle_type_id":"4","last_reported":1769544766,"current_range_meters":7200,"station_id":"ce4bhm92rcd13ifvqglg","pricing_plan_id":"cebpf4jnsgd1na2vs0mg"},{"bike_id":"6f675b93-8c4a-4412-9c47-6a896314111b","system_id":"levelo_inurba_marseille","lat":43.2861,"lon":5.35102,"is_reserved":false,"is_disabled":false,"rental_uris":{"android":"levelo://app?vid=6f675b93-8c4a-4412-9c47-6a896314111b","ios":"levelo://app?vid=6f675b93-8c4a-4412-9c47-6a896314111b"},"vehicle_type_id":"4","last_reported":1769544766,"current_range_meters":7200,"station_id":"ce4bhch2rcd13ifvqeug","pricing_plan_id":"cebpf4jnsgd1na2vs0mg"},{"bike_id":"89c29c4f-0bcf-4532-b459-dfc8b156b71a","system_id":"levelo_inurba_marseille","lat":43.25674,"lon":5.41761,"is_reserved":false,"is_disabled":false,"rental_uris":{"android":"levelo://app?vid=89c29c4f-0bcf-4532-b459-dfc8b156b71a","ios":"levelo://app?vid=89c29c4f-0bcf-4532-b459-dfc8b156b71a"},"vehicle_type_id":"4","last_reported":1769544766,"current_range_meters":7200,"station_id":"","pricing_plan_id":"cebpf4jnsgd1na2vs0mg"},{"bike_id":"32e2d764-065b-45a8-80b2-1379d8e2ed5a","system_id":"levelo_inurba_marseille","lat":43.23143,"lon":5.43713,"is_reserved":false,"is_disabled":false,"rental_uris":{"android":"levelo://app?vid=32e2d764-065b-45a8-80b2-1379d8e2ed5a","ios":"levelo://app?vid=32e2d764-065b-45a8-80b2-1379d8e2ed5a"},"vehicle_type_id":"4","last_reported":1769544766,"current_range_meters":7200,"station_id":"ce4bhmp2rcd13ifvqgog","pricing_plan_id":"cebpf4jnsgd1na2vs0mg"},{"bike_id":"5e3c74ca-7e6d-42d3-9203-ff9b02fabff3","system_id":"levelo_inurba_marseille","lat":43.299412,"lon":5.365356,"is_reserved":false,"is_disabled":false,"rental_uris":{"android":"levelo://app?vid=5e3c74ca-7e6d-42d3-9203-ff9b02fabff3","ios":"levelo://app?vid=5e3c74ca-7e6d-42d3-9203-ff9b02fabff3"},"vehicle_type_id":"4","last_reported":1769544766,"current_range_meters":7200,"station_id":"ce4bgm92rcd13ifvqbr0","pricing_plan_id":"cebpf4jnsgd1na2vs0mg"},{"bike_id":"22d5e9c9-eead-4e62-b481-d37a79966c48","system_id":"levelo_inurba_marseille","lat":43.30771,"lon":5.37679,"is_reserved":false,"is_disabled":false,"rental_uris":{"android":"levelo://app?vid=22d5e9c9-eead-4e62-b481-d37a79966c48","ios":"levelo://app?vid=22d5e9c9-eead-4e62-b481-d37a79966c48"},"vehicle_type_id":"4","last_reported":1769544766,"current_range_meters":7200,"station_id":"ce4bgv92rcd13ifvqcq0","pricing_plan_id":"cebpf4jnsgd1na2vs0mg"},{"bike_id":"4650190a-933d-482e-9095-ddf2c95584eb","system_id":"levelo_inurba_marseille","lat":43.23148,"lon":5.43667,"is_reserved":false,"is_disabled":false,"rental_uris":{"android":"levelo://app?vid=4650190a-933d-482e-9095-ddf2c95584eb","ios":"levelo://app?vid=4650190a-933d-482e-9095-ddf2c95584eb"},"vehicle_type_id":"4","last_reported":1769544766,"current_range_meters":7200,"station_id":"ce4bhmp2rcd13ifvqgog","pricing_plan_id":"cebpf4jnsgd1na2vs0mg"},{"bike_id":"67adc721-2cb9-4caa-9609-4c153adea1ac","system_id":"levelo_inurba_marseille","lat":43.28347,"lon":5.38104,"is_reserved":false,"is_disabled":false,"rental_uris":{"android":"levelo://app?vid=67adc721-2cb9-4caa-9609-4c153adea1ac","ios":"levelo://app?vid=67adc721-2cb9-4caa-9609-4c153adea1ac"},"vehicle_type_id":"4","last_reported":1769544766,"current_range_meters":7200,"station_id":"ce4bh412rcd13ifvqdr0","pricing_plan_id":"cebpf4jnsgd1na2vs0mg"},{"bike_id":"73fc0ed2-33b8-469f-9d74-8809de49ae7e","system_id":"levelo_inurba_marseille","lat":43.26061,"lon":5.3937,"is_reserved":false,"is_disabled":false,"rental_uris":{"android":"levelo://app?vid=73fc0ed2-33b8-469f-9d74-8809de49ae7e","ios":"levelo://app?vid=73fc0ed2-33b8-469f-9d74-8809de49ae7e"},"vehicle_type_id":"4","last_reported":1769544766,"current_range_meters":7200,"station_id":"ce4bhh92rcd13ifvqfj0","pricing_plan_id":"cebpf4jnsgd1na2vs0mg"},{"bike_id":"afd92fd0-2da5-4746-b0bc-55b9b0af3bfd","system_id":"levelo_inurba_marseille","lat":43.3009,"lon":5.39084,"is_reserved":false,"is_disabled":false,"rental_uris":{"android":"levelo://app?vid=afd92fd0-2da5-4746-b0bc-55b9b0af3bfd","ios":"levelo://app?vid=afd92fd0-2da5-4746-b0bc-55b9b0af3bfd"},"vehicle_type_id":"4","last_reported":1769544766,"current_range_meters":7200,"station_id":"ce4bh192rcd13ifvqdb0","pricing_plan_id":"cebpf4jnsgd1na2vs0mg"},{"bike_id":"0203e770-d373-420b-85b8-65d0c6c770c2","system_id":"levelo_inurba_marseille","lat":43.28422,"lon":5.37513,"is_reserved":false,"is_disabled":false,"rental_uris":{"android":"levelo://app?vid=0203e770-d373-420b-85b8-65d0c6c770c2","ios":"levelo://app?vid=0203e770-d373-420b-85b8-65d0c6c770c2"},"vehicle_type_id":"4","last_reported":1769544766,"current_range_meters":7200,"station_id":"ce4bh412rcd13ifvqds0","pricing_plan_id":"cebpf4jnsgd1na2vs0mg"},{"bike_id":"34d50b3c-5ce8-4f73-8561-7d8c5e669e11","system_id":"levelo_inurba_marseille","lat":43.30517,"lon":5.3671,"is_reserved":false,"is_disabled":false,"rental_uris":{"android":"levelo://app?vid=34d50b3c-5ce8-4f73-8561-7d8c5e669e11","ios":"levelo://app?vid=34d50b3c-5ce8-4f73-8561-7d8c5e669e11"},"vehicle_type_id":"4","last_reported":1769544766,"current_range_meters":7200,"station_id":"ce4bgrp2rcd13ifvqc9g","pricing_plan_id":"cebpf4jnsgd1na2vs0mg"},{"bike_id":"eb0bf08a-b6cc-4ac8-8e1f-c82dd2a6df2f","system_id":"levelo_inurba_marseille","lat":43.32349,"lon":5.36742,"is_reserved":false,"is_disabled":false,"rental_uris":{"android":"levelo://app?vid=eb0bf08a-b6cc-4ac8-8e1f-c82dd2a6df2f","ios":"levelo://app?vid=eb0bf08a-b6cc-4ac8-8e1f-c82dd2a6df2f"},"vehicle_type_id":"4","last_reported":1769544766,"current_range_meters":7200,"station_id":"ce4bhsh2rcd13ifvqi2g","pricing_plan_id":"cebpf4jnsgd1na2vs0mg"},{"bike_id":"449affbd-aaf8-41d6-bed7-0d41a00c111d","system_id":"levelo_inurba_marseille","lat":43.33248,"lon":5.36644,"is_reserved":false,"is_disabled":false,"rental_uris":{"android":"levelo://app?vid=449affbd-aaf8-41d6-bed7-0d41a00c111d","ios":"levelo://app?vid=449affbd-aaf8-41d6-bed7-0d41a00c111d"},"vehicle_type_id":"4","last_reported":1769544766,"current_range_meters":7200,"station_id":"","pricing_plan_id":"cebpf4jnsgd1na2vs0mg"},{"bike_id":"914cff6c-955b-4687-b2a7-caa24536f853","system_id":"levelo_inurba_marseille","lat":43.30945,"lon":5.39044,"is_reserved":false,"is_disabled":true,"rental_uris":{"android":"levelo://app?vid=914cff6c-955b-4687-b2a7-caa24536f853","ios":"levelo://app?vid=914cff6c-955b-4687-b2a7-caa24536f853"},"vehicle_type_id":"4","last_reported":1769544766,"current_range_meters":7200,"station_id":"ce4bgup2rcd13ifvqco0","pricing_plan_id":"cebpf4jnsgd1na2vs0mg"},{"bike_id":"e1d814f1-8a4b-47bd-b805-780af94a9b38","system_id":"levelo_inurba_marseille","lat":43.30653,"lon":5.43156,"is_reserved":false,"is_disabled":false,"rental_uris":{"android":"levelo://app?vid=e1d814f1-8a4b-47bd-b805-780af94a9b38","ios":"levelo://app?vid=e1d814f1-8a4b-47bd-b805-780af94a9b38"},"vehicle_type_id":"4","last_reported":1769544766,"current_range_meters":7200,"station_id":"","pricing_plan_id":"cebpf4jnsgd1na2vs0mg"},{"bike_id":"fcafcdfb-17c4-45e9-9e61-5cf1e3584f8e","system_id":"levelo_inurba_marseille","lat":43.25823,"lon":5.39436,"is_reserved":false,"is_disabled":false,"rental_uris":{"android":"levelo://app?vid=fcafcdfb-17c4-45e9-9e61-5cf1e3584f8e","ios":"levelo://app?vid=fcafcdfb-17c4-45e9-9e61-5cf1e3584f8e"},"vehicle_type_id":"4","last_reported":1769544766,"current_range_meters":7200,"station_id":"ce4bhip2rcd13ifvqft0","pricing_plan_id":"cebpf4jnsgd1na2vs0mg"},{"bike_id":"b17b5124-beec-4a5a-bebf-2b8f718a1349","system_id":"levelo_inurba_marseille","lat":43.232,"lon":5.35545,"is_reserved":false,"is_disabled":false,"rental_uris":{"android":"levelo://app?vid=b17b5124-beec-4a5a-bebf-2b8f718a1349","ios":"levelo://app?vid=b17b5124-beec-4a5a-bebf-2b8f718a1349"},"vehicle_type_id":"4","last_reported":1769544766,"current_range_meters":7200,"station_id":"ce4bhu92rcd13ifvqi70","pricing_plan_id":"cebpf4jnsgd1na2vs0mg"},{"bike_id":"0ea3d740-957a-41cd-8123-81078ac58473","system_id":"levelo_inurba_marseille","lat":43.28415,"lon":5.34994,"is_reserved":false,"is_disabled":false,"rental_uris":{"android":"levelo://app?vid=0ea3d740-957a-41cd-8123-81078ac58473","ios":"levelo://app?vid=0ea3d740-957a-41cd-8123-81078ac58473"},"vehicle_type_id":"4","last_reported":1769544766,"current_range_meters":7200,"station_id":"ce4bhbh2rcd13ifvqepg","pricing_plan_id":"cebpf4jnsgd1na2vs0mg"},{"bike_id":"08f2d201-5407-499e-bdd3-8c2833a13fc2","system_id":"levelo_inurba_marseille","lat":43.30205,"lon":5.39458,"is_reserved":false,"is_disabled":false,"rental_uris":{"android":"levelo://app?vid=08f2d201-5407-499e-bdd3-8c2833a13fc2","ios":"levelo://app?vid=08f2d201-5407-499e-bdd3-8c2833a13fc2"},"vehicle_type_id":"4","last_reported":1769544766,"current_range_meters":8000,"station_id":"ce4bh0p2rcd13ifvqd70","pricing_plan_id":"cebpf4jnsgd1na2vs0mg"},{"bike_id":"de0a745b-ff98-4422-bea1-113796d1108a","system_id":"levelo_inurba_marseille","lat":43.24643,"lon":5.38183,"is_reserved":false,"is_disabled":false,"rental_uris":{"android":"levelo://app?vid=de0a745b-ff98-4422-bea1-113796d1108a","ios":"levelo://app?vid=de0a745b-ff98-4422-bea1-113796d1108a"},"vehicle_type_id":"4","last_reported":1769544766,"current_range_meters":8000,"station_id":"ce4bhih2rcd13ifvqfr0","pricing_plan_id":"cebpf4jnsgd1na2vs0mg"},{"bike_id":"875f91c4-5f67-4236-be02-ac63b07c8434","system_id":"levelo_inurba_marseille","lat":43.31072,"lon":5.38736,"is_reserved":false,"is_disabled":false,"rental_uris":{"android":"levelo://app?vid=875f91c4-5f67-4236-be02-ac63b07c8434","ios":"levelo://app?vid=875f91c4-5f67-4236-be02-ac63b07c8434"},"vehicle_type_id":"4","last_reported":1769544766,"current_range_meters":8000,"station_id":"","pricing_plan_id":"cebpf4jnsgd1na2vs0mg"},{"bike_id":"66d53e2f-2a0c-4a26-af49-177c6a70a302","system_id":"levelo_inurba_marseille","lat":43.25423,"lon":5.39571,"is_reserved":false,"is_disabled":false,"rental_uris":{"android":"levelo://app?vid=66d53e2f-2a0c-4a26-af49-177c6a70a302","ios":"levelo://app?vid=66d53e2f-2a0c-4a26-af49-177c6a70a302"},"vehicle_type_id":"4","last_reported":1769544766,"current_range_meters":8000,"station_id":"","pricing_plan_id":"cebpf4jnsgd1na2vs0mg"},{"bike_id":"a3fee5ab-2852-4a46-a8b7-b50a83c7086a","system_id":"levelo_inurba_marseille","lat":43.26577,"lon":5.40326,"is_reserved":false,"is_disabled":false,"rental_uris":{"android":"levelo://app?vid=a3fee5ab-2852-4a46-a8b7-b50a83c7086a","ios":"levelo://app?vid=a3fee5ab-2852-4a46-a8b7-b50a83c7086a"},"vehicle_type_id":"4","last_reported":1769544766,"current_range_meters":8000,"station_id":"ce4bhmp2rcd13ifvqgng","pricing_plan_id":"cebpf4jnsgd1na2vs0mg"},{"bike_id":"60be3aa0-4d6c-4509-a452-f86f9a49d14c","system_id":"levelo_inurba_marseille","lat":43.29799,"lon":5.3936,"is_reserved":false,"is_disabled":false,"rental_uris":{"android":"levelo://app?vid=60be3aa0-4d6c-4509-a452-f86f9a49d14c","ios":"levelo://app?vid=60be3aa0-4d6c-4509-a452-f86f9a49d14c"},"vehicle_type_id":"4","last_reported":1769544766,"current_range_meters":8000,"station_id":"chh1huq6cuj3fo74tm60","pricing_plan_id":"cebpf4jnsgd1na2vs0mg"},{"bike_id":"46af53da-bab2-42a4-972d-fcac99703977","system_id":"levelo_inurba_marseille","lat":43.30299,"lon":5.39218,"is_reserved":false,"is_disabled":false,"rental_uris":{"android":"levelo://app?vid=46af53da-bab2-42a4-972d-fcac99703977","ios":"levelo://app?vid=46af53da-bab2-42a4-972d-fcac99703977"},"vehicle_type_id":"4","last_reported":1769544766,"current_range_meters":8000,"station_id":"ce4bgkh2rcd13ifvqbk0","pricing_plan_id":"cebpf4jnsgd1na2vs0mg"},{"bike_id":"dbf2d5fa-0067-4d78-8d50-7328128e1b0e","system_id":"levelo_inurba_marseille","lat":43.25831,"lon":5.39436,"is_reserved":false,"is_disabled":false,"rental_uris":{"android":"levelo://app?vid=dbf2d5fa-0067-4d78-8d50-7328128e1b0e","ios":"levelo://app?vid=dbf2d5fa-0067-4d78-8d50-7328128e1b0e"},"vehicle_type_id":"4","last_reported":1769544766,"current_range_meters":8000,"station_id":"ce4bhip2rcd13ifvqft0","pricing_plan_id":"cebpf4jnsgd1na2vs0mg"},{"bike_id":"6486cff7-cfc1-4dca-901e-7bdd8dbcdbcf","system_id":"levelo_inurba_marseille","lat":43.28805,"lon":5.376641,"is_reserved":false,"is_disabled":false,"rental_uris":{"android":"levelo://app?vid=6486cff7-cfc1-4dca-901e-7bdd8dbcdbcf","ios":"levelo://app?vid=6486cff7-cfc1-4dca-901e-7bdd8dbcdbcf"},"vehicle_type_id":"4","last_reported":1769544766,"current_range_meters":8000,"station_id":"","pricing_plan_id":"cebpf4jnsgd1na2vs0mg"},{"bike_id":"c82e45b5-bebb-4de2-9566-137fbc3cf4a5","system_id":"levelo_inurba_marseille","lat":43.23781,"lon":5.36628,"is_reserved":false,"is_disabled":false,"rental_uris":{"android":"levelo://app?vid=c82e45b5-bebb-4de2-9566-137fbc3cf4a5","ios":"levelo://app?vid=c82e45b5-bebb-4de2-9566-137fbc3cf4a5"},"vehicle_type_id":"4","last_reported":1769544766,"current_range_meters":8000,"station_id":"st_d3nk18o9ro0c73en2l3g","pricing_plan_id":"cebpf4jnsgd1na2vs0mg"},{"bike_id":"d815de99-dc62-4dc1-9b11-2df23d3fe849","system_id":"levelo_inurba_marseille","lat":43.2409,"lon":5.37738,"is_reserved":false,"is_disabled":true,"rental_uris":{"android":"levelo://app?vid=d815de99-dc62-4dc1-9b11-2df23d3fe849","ios":"levelo://app?vid=d815de99-dc62-4dc1-9b11-2df23d3fe849"},"vehicle_type_id":"4","last_reported":1769544766,"current_range_meters":8000,"station_id":"ce4bhnp2rcd13ifvqgvg","pricing_plan_id":"cebpf4jnsgd1na2vs0mg"},{"bike_id":"55fc4481-fb28-48c3-861a-dcb0bdadbf4b","system_id":"levelo_inurba_marseille","lat":43.25928,"lon":5.40921,"is_reserved":false,"is_disabled":false,"rental_uris":{"android":"levelo://app?vid=55fc4481-fb28-48c3-861a-dcb0bdadbf4b","ios":"levelo://app?vid=55fc4481-fb28-48c3-861a-dcb0bdadbf4b"},"vehicle_type_id":"4","last_reported":1769544766,"current_range_meters":8000,"station_id":"ce4bhm92rcd13ifvqglg","pricing_plan_id":"cebpf4jnsgd1na2vs0mg"},{"bike_id":"44d0616f-fc20-438d-9b08-1efcaa3d0a1f","system_id":"levelo_inurba_marseille","lat":43.30542,"lon":5.36547,"is_reserved":false,"is_disabled":false,"rental_uris":{"android":"levelo://app?vid=44d0616f-fc20-438d-9b08-1efcaa3d0a1f","ios":"levelo://app?vid=44d0616f-fc20-438d-9b08-1efcaa3d0a1f"},"vehicle_type_id":"4","last_reported":1769544766,"current_range_meters":8000,"station_id":"ce4bgs12rcd13ifvqcag","pricing_plan_id":"cebpf4jnsgd1na2vs0mg"},{"bike_id":"71fea5dc-d0de-4a78-a167-9b14189de85c","system_id":"levelo_inurba_marseille","lat":43.28386,"lon":5.35041,"is_reserved":false,"is_disabled":false,"rental_uris":{"android":"levelo://app?vid=71fea5dc-d0de-4a78-a167-9b14189de85c","ios":"levelo://app?vid=71fea5dc-d0de-4a78-a167-9b14189de85c"},"vehicle_type_id":"4","last_reported":1769544766,"current_range_meters":8000,"station_id":"","pricing_plan_id":"cebpf4jnsgd1na2vs0mg"},{"bike_id":"932f24ce-afa3-48f4-a501-0bac81547b63","system_id":"levelo_inurba_marseille","lat":43.28266,"lon":5.35052,"is_reserved":false,"is_disabled":false,"rental_uris":{"android":"levelo://app?vid=932f24ce-afa3-48f4-a501-0bac81547b63","ios":"levelo://app?vid=932f24ce-afa3-48f4-a501-0bac81547b63"},"vehicle_type_id":"4","last_reported":1769544766,"current_range_meters":8000,"station_id":"ce4bhbp2rcd13ifvqerg","pricing_plan_id":"cebpf4jnsgd1na2vs0mg"},{"bike_id":"2a29d217-fe6c-4d71-8171-bbfb86d828ae","system_id":"levelo_inurba_marseille","lat":43.23154,"lon":5.43727,"is_reserved":false,"is_disabled":false,"rental_uris":{"android":"levelo://app?vid=2a29d217-fe6c-4d71-8171-bbfb86d828ae","ios":"levelo://app?vid=2a29d217-fe6c-4d71-8171-bbfb86d828ae"},"vehicle_type_id":"4","last_reported":1769544766,"current_range_meters":8000,"station_id":"ce4bhmp2rcd13ifvqgog","pricing_plan_id":"cebpf4jnsgd1na2vs0mg"},{"bike_id":"f1e7e3bc-6861-47bf-b419-ff6bf71475d2","system_id":"levelo_inurba_marseille","lat":43.29507,"lon":5.37494,"is_reserved":false,"is_disabled":false,"rental_uris":{"android":"levelo://app?vid=f1e7e3bc-6861-47bf-b419-ff6bf71475d2","ios":"levelo://app?vid=f1e7e3bc-6861-47bf-b419-ff6bf71475d2"},"vehicle_type_id":"4","last_reported":1769544766,"current_range_meters":8000,"station_id":"ce4bgkp2rcd13ifvqbmg","pricing_plan_id":"cebpf4jnsgd1na2vs0mg"},{"bike_id":"10ac5e48-26c5-4220-8176-bfc3c32dca81","system_id":"levelo_inurba_marseille","lat":43.29974,"lon":5.38515,"is_reserved":false,"is_disabled":false,"rental_uris":{"android":"levelo://app?vid=10ac5e48-26c5-4220-8176-bfc3c32dca81","ios":"levelo://app?vid=10ac5e48-26c5-4220-8176-bfc3c32dca81"},"vehicle_type_id":"4","last_reported":1769544766,"current_range_meters":8000,"station_id":"ce4bgj92rcd13ifvqbd0","pricing_plan_id":"cebpf4jnsgd1na2vs0mg"},{"bike_id":"e97d0a7c-09a0-4de9-8b12-4f01b9fc223b","system_id":"levelo_inurba_marseille","lat":43.29779,"lon":5.38031,"is_reserved":false,"is_disabled":false,"rental_uris":{"android":"levelo://app?vid=e97d0a7c-09a0-4de9-8b12-4f01b9fc223b","ios":"levelo://app?vid=e97d0a7c-09a0-4de9-8b12-4f01b9fc223b"},"vehicle_type_id":"4","last_reported":1769544766,"current_range_meters":8400,"station_id":"","pricing_plan_id":"cebpf4jnsgd1na2vs0mg"},{"bike_id":"b7368e81-ae0b-4a3c-871f-8aca9b722b23","system_id":"levelo_inurba_marseille","lat":43.29255,"lon":5.40918,"is_reserved":false,"is_disabled":false,"rental_uris":{"android":"levelo://app?vid=b7368e81-ae0b-4a3c-871f-8aca9b722b23","ios":"levelo://app?vid=b7368e81-ae0b-4a3c-871f-8aca9b722b23"},"vehicle_type_id":"4","last_reported":1769544766,"current_range_meters":8400,"station_id":"ce4bh192rcd13ifvqdc0","pricing_plan_id":"cebpf4jnsgd1na2vs0mg"},{"bike_id":"17d0da9e-547a-45ca-95c3-6403ee386620","system_id":"levelo_inurba_marseille","lat":43.30279,"lon":5.36888,"is_reserved":false,"is_disabled":false,"rental_uris":{"android":"levelo://app?vid=17d0da9e-547a-45ca-95c3-6403ee386620","ios":"levelo://app?vid=17d0da9e-547a-45ca-95c3-6403ee386620"},"vehicle_type_id":"4","last_reported":1769544766,"current_range_meters":8400,"station_id":"ce4bgqh2rcd13ifvqc5g","pricing_plan_id":"cebpf4jnsgd1na2vs0mg"},{"bike_id":"48f2548f-38ea-4648-81ab-19c12b52d664","system_id":"levelo_inurba_marseille","lat":43.24078,"lon":5.37773,"is_reserved":false,"is_disabled":false,"rental_uris":{"android":"levelo://app?vid=48f2548f-38ea-4648-81ab-19c12b52d664","ios":"levelo://app?vid=48f2548f-38ea-4648-81ab-19c12b52d664"},"vehicle_type_id":"4","last_reported":1769544766,"current_range_meters":8400,"station_id":"ce4bhnp2rcd13ifvqgvg","pricing_plan_id":"cebpf4jnsgd1na2vs0mg"},{"bike_id":"665f09a0-86f3-41fb-ba25-528fda59e6d0","system_id":"levelo_inurba_marseille","lat":43.2861,"lon":5.39871,"is_reserved":false,"is_disabled":false,"rental_uris":{"android":"levelo://app?vid=665f09a0-86f3-41fb-ba25-528fda59e6d0","ios":"levelo://app?vid=665f09a0-86f3-41fb-ba25-528fda59e6d0"},"vehicle_type_id":"4","last_reported":1769544766,"current_range_meters":8400,"station_id":"st_d4a7ka997mjs738ck50g","pricing_plan_id":"cebpf4jnsgd1na2vs0mg"},{"bike_id":"273d40a6-2ab9-4759-8d6f-85cf4efa9282","system_id":"levelo_inurba_marseille","lat":43.26942,"lon":5.402417,"is_reserved":false,"is_disabled":false,"rental_uris":{"android":"levelo://app?vid=273d40a6-2ab9-4759-8d6f-85cf4efa9282","ios":"levelo://app?vid=273d40a6-2ab9-4759-8d6f-85cf4efa9282"},"vehicle_type_id":"4","last_reported":1769544766,"current_range_meters":8400,"station_id":"cjm6bp8fraef2m0cb0m0","pricing_plan_id":"cebpf4jnsgd1na2vs0mg"},{"bike_id":"6c94e80c-39f0-4962-a8f5-d29e97283865","system_id":"levelo_inurba_marseille","lat":43.30894,"lon":5.37197,"is_reserved":false,"is_disabled":false,"rental_uris":{"android":"levelo://app?vid=6c94e80c-39f0-4962-a8f5-d29e97283865","ios":"levelo://app?vid=6c94e80c-39f0-4962-a8f5-d29e97283865"},"vehicle_type_id":"4","last_reported":1769544766,"current_range_meters":8400,"station_id":"ce4bguh2rcd13ifvqckg","pricing_plan_id":"cebpf4jnsgd1na2vs0mg"},{"bike_id":"99e0be38-9f15-41fd-b533-c90104c16216","system_id":"levelo_inurba_marseille","lat":43.24546,"lon":5.39521,"is_reserved":false,"is_disabled":false,"rental_uris":{"android":"levelo://app?vid=99e0be38-9f15-41fd-b533-c90104c16216","ios":"levelo://app?vid=99e0be38-9f15-41fd-b533-c90104c16216"},"vehicle_type_id":"4","last_reported":1769544766,"current_range_meters":8400,"station_id":"ce4bhlp2rcd13ifvqgjg","pricing_plan_id":"cebpf4jnsgd1na2vs0mg"},{"bike_id":"7470f503-1e5e-4a27-b18f-80d5378c7f3a","system_id":"levelo_inurba_marseille","lat":43.28488,"lon":5.3847,"is_reserved":false,"is_disabled":false,"rental_uris":{"android":"levelo://app?vid=7470f503-1e5e-4a27-b18f-80d5378c7f3a","ios":"levelo://app?vid=7470f503-1e5e-4a27-b18f-80d5378c7f3a"},"vehicle_type_id":"4","last_reported":1769544766,"current_range_meters":8400,"station_id":"ce4bh512rcd13ifvqe3g","pricing_plan_id":"cebpf4jnsgd1na2vs0mg"},{"bike_id":"848669d4-ad59-4fe2-958b-7a3e79fc1a89","system_id":"levelo_inurba_marseille","lat":43.28723,"lon":5.36088,"is_reserved":false,"is_disabled":false,"rental_uris":{"android":"levelo://app?vid=848669d4-ad59-4fe2-958b-7a3e79fc1a89","ios":"levelo://app?vid=848669d4-ad59-4fe2-958b-7a3e79fc1a89"},"vehicle_type_id":"4","last_reported":1769544766,"current_range_meters":8400,"station_id":"cki0cbj6b192h4jlfktg","pricing_plan_id":"cebpf4jnsgd1na2vs0mg"},{"bike_id":"bd6ac193-2cd0-45a9-9b54-fbb52ad3b5af","system_id":"levelo_inurba_marseille","lat":43.28613,"lon":5.39871,"is_reserved":false,"is_disabled":true,"rental_uris":{"android":"levelo://app?vid=bd6ac193-2cd0-45a9-9b54-fbb52ad3b5af","ios":"levelo://app?vid=bd6ac193-2cd0-45a9-9b54-fbb52ad3b5af"},"vehicle_type_id":"4","last_reported":1769544766,"current_range_meters":8400,"station_id":"st_d4a7ka997mjs738ck50g","pricing_plan_id":"cebpf4jnsgd1na2vs0mg"},{"bike_id":"48fc7424-9f8b-452e-b985-2922c5d3a016","system_id":"levelo_inurba_marseille","lat":43.23141,"lon":5.43709,"is_reserved":false,"is_disabled":false,"rental_uris":{"android":"levelo://app?vid=48fc7424-9f8b-452e-b985-2922c5d3a016","ios":"levelo://app?vid=48fc7424-9f8b-452e-b985-2922c5d3a016"},"vehicle_type_id":"4","last_reported":1769544766,"current_range_meters":8400,"station_id":"ce4bhmp2rcd13ifvqgog","pricing_plan_id":"cebpf4jnsgd1na2vs0mg"},{"bike_id":"cb8cde94-651e-4099-b2de-f4490841b080","system_id":"levelo_inurba_marseille","lat":43.24165,"lon":5.3642,"is_reserved":false,"is_disabled":false,"rental_uris":{"android":"levelo://app?vid=cb8cde94-651e-4099-b2de-f4490841b080","ios":"levelo://app?vid=cb8cde94-651e-4099-b2de-f4490841b080"},"vehicle_type_id":"4","last_reported":1769544766,"current_range_meters":8400,"station_id":"cpo36qri1sfpv3e86is0","pricing_plan_id":"cebpf4jnsgd1na2vs0mg"},{"bike_id":"c374f934-2343-45fe-915c-3742e9e5b0c9","system_id":"levelo_inurba_marseille","lat":43.30218,"lon":5.39461,"is_reserved":false,"is_disabled":false,"rental_uris":{"android":"levelo://app?vid=c374f934-2343-45fe-915c-3742e9e5b0c9","ios":"levelo://app?vid=c374f934-2343-45fe-915c-3742e9e5b0c9"},"vehicle_type_id":"4","last_reported":1769544766,"current_range_meters":8400,"station_id":"ce4bh0p2rcd13ifvqd70","pricing_plan_id":"cebpf4jnsgd1na2vs0mg"},{"bike_id":"8f80517a-73c8-49a4-adb5-99a0c9b94fcb","system_id":"levelo_inurba_marseille","lat":43.25577,"lon":5.38239,"is_reserved":false,"is_disabled":false,"rental_uris":{"android":"levelo://app?vid=8f80517a-73c8-49a4-adb5-99a0c9b94fcb","ios":"levelo://app?vid=8f80517a-73c8-49a4-adb5-99a0c9b94fcb"},"vehicle_type_id":"4","last_reported":1769544766,"current_range_meters":8400,"station_id":"ce4bhih2rcd13ifvqfs0","pricing_plan_id":"cebpf4jnsgd1na2vs0mg"},{"bike_id":"d77cb211-9c8d-4f08-962c-633cacaa4f89","system_id":"levelo_inurba_marseille","lat":43.306403,"lon":5.400717,"is_reserved":false,"is_disabled":false,"rental_uris":{"android":"levelo://app?vid=d77cb211-9c8d-4f08-962c-633cacaa4f89","ios":"levelo://app?vid=d77cb211-9c8d-4f08-962c-633cacaa4f89"},"vehicle_type_id":"4","last_reported":1769544766,"current_range_meters":8400,"station_id":"ce4bh112rcd13ifvqda0","pricing_plan_id":"cebpf4jnsgd1na2vs0mg"},{"bike_id":"251c6636-c3b2-4340-96b5-5a9ec4418378","system_id":"levelo_inurba_marseille","lat":43.23149,"lon":5.43721,"is_reserved":false,"is_disabled":false,"rental_uris":{"android":"levelo://app?vid=251c6636-c3b2-4340-96b5-5a9ec4418378","ios":"levelo://app?vid=251c6636-c3b2-4340-96b5-5a9ec4418378"},"vehicle_type_id":"4","last_reported":1769544766,"current_range_meters":8400,"station_id":"ce4bhmp2rcd13ifvqgog","pricing_plan_id":"cebpf4jnsgd1na2vs0mg"},{"bike_id":"9a8ad0af-897e-45a4-9788-4bc766c7219b","system_id":"levelo_inurba_marseille","lat":43.27611,"lon":5.36112,"is_reserved":false,"is_disabled":false,"rental_uris":{"android":"levelo://app?vid=9a8ad0af-897e-45a4-9788-4bc766c7219b","ios":"levelo://app?vid=9a8ad0af-897e-45a4-9788-4bc766c7219b"},"vehicle_type_id":"4","last_reported":1769544766,"current_range_meters":8800,"station_id":"ce4bgj92rcd13ifvqbe0","pricing_plan_id":"cebpf4jnsgd1na2vs0mg"},{"bike_id":"48ac7849-98f4-4e69-b9f0-0586eb7d8ef9","system_id":"levelo_inurba_marseille","lat":43.29808,"lon":5.44065,"is_reserved":false,"is_disabled":false,"rental_uris":{"android":"levelo://app?vid=48ac7849-98f4-4e69-b9f0-0586eb7d8ef9","ios":"levelo://app?vid=48ac7849-98f4-4e69-b9f0-0586eb7d8ef9"},"vehicle_type_id":"4","last_reported":1769544766,"current_range_meters":8800,"station_id":"st_d3jp68qikq2c7381ktn0","pricing_plan_id":"cebpf4jnsgd1na2vs0mg"},{"bike_id":"4c3ee580-76cd-41db-ab53-f7d8d1ee494a","system_id":"levelo_inurba_marseille","lat":43.301229,"lon":5.431134,"is_reserved":false,"is_disabled":false,"rental_uris":{"android":"levelo://app?vid=4c3ee580-76cd-41db-ab53-f7d8d1ee494a","ios":"levelo://app?vid=4c3ee580-76cd-41db-ab53-f7d8d1ee494a"},"vehicle_type_id":"4","last_reported":1769544766,"current_range_meters":8800,"station_id":"st_d3js3co5814s73ftftug","pricing_plan_id":"cebpf4jnsgd1na2vs0mg"},{"bike_id":"f6e405d3-8a9d-4261-8d95-49e5d5fcb5c0","system_id":"levelo_inurba_marseille","lat":43.3248,"lon":5.36547,"is_reserved":false,"is_disabled":false,"rental_uris":{"android":"levelo://app?vid=f6e405d3-8a9d-4261-8d95-49e5d5fcb5c0","ios":"levelo://app?vid=f6e405d3-8a9d-4261-8d95-49e5d5fcb5c0"},"vehicle_type_id":"4","last_reported":1769544766,"current_range_meters":8800,"station_id":"ce4bhs12rcd13ifvqhvg","pricing_plan_id":"cebpf4jnsgd1na2vs0mg"},{"bike_id":"3a3f580b-c7a7-49c4-966b-8c2f5e987e43","system_id":"levelo_inurba_marseille","lat":43.281084,"lon":5.378366,"is_reserved":false,"is_disabled":false,"rental_uris":{"android":"levelo://app?vid=3a3f580b-c7a7-49c4-966b-8c2f5e987e43","ios":"levelo://app?vid=3a3f580b-c7a7-49c4-966b-8c2f5e987e43"},"vehicle_type_id":"4","last_reported":1769544766,"current_range_meters":8800,"station_id":"ce4bha12rcd13ifvqee0","pricing_plan_id":"cebpf4jnsgd1na2vs0mg"},{"bike_id":"1a56152d-f93b-4ba8-94fe-9709967df90d","system_id":"levelo_inurba_marseille","lat":43.23962,"lon":5.366219,"is_reserved":false,"is_disabled":false,"rental_uris":{"android":"levelo://app?vid=1a56152d-f93b-4ba8-94fe-9709967df90d","ios":"levelo://app?vid=1a56152d-f93b-4ba8-94fe-9709967df90d"},"vehicle_type_id":"4","last_reported":1769544766,"current_range_meters":8800,"station_id":"ce4bhi12rcd13ifvqfp0","pricing_plan_id":"cebpf4jnsgd1na2vs0mg"},{"bike_id":"8095c660-c743-4e3e-8e7e-ac595ed8e144","system_id":"levelo_inurba_marseille","lat":43.29708,"lon":5.37721,"is_reserved":false,"is_disabled":false,"rental_uris":{"android":"levelo://app?vid=8095c660-c743-4e3e-8e7e-ac595ed8e144","ios":"levelo://app?vid=8095c660-c743-4e3e-8e7e-ac595ed8e144"},"vehicle_type_id":"4","last_reported":1769544766,"current_range_meters":8800,"station_id":"ce4bgkh2rcd13ifvqbl0","pricing_plan_id":"cebpf4jnsgd1na2vs0mg"},{"bike_id":"e93193ad-4e10-4fde-b0f5-3507ab09bfe1","system_id":"levelo_inurba_marseille","lat":43.33164,"lon":5.37679,"is_reserved":false,"is_disabled":false,"rental_uris":{"android":"levelo://app?vid=e93193ad-4e10-4fde-b0f5-3507ab09bfe1","ios":"levelo://app?vid=e93193ad-4e10-4fde-b0f5-3507ab09bfe1"},"vehicle_type_id":"4","last_reported":1769544766,"current_range_meters":8800,"station_id":"st_d46cu089ee8s73dldbu0","pricing_plan_id":"cebpf4jnsgd1na2vs0mg"},{"bike_id":"799847f3-00d6-4dac-8773-c8f7acf031bb","system_id":"levelo_inurba_marseille","lat":43.31497,"lon":5.37225,"is_reserved":false,"is_disabled":false,"rental_uris":{"android":"levelo://app?vid=799847f3-00d6-4dac-8773-c8f7acf031bb","ios":"levelo://app?vid=799847f3-00d6-4dac-8773-c8f7acf031bb"},"vehicle_type_id":"4","last_reported":1769544766,"current_range_meters":8800,"station_id":"","pricing_plan_id":"cebpf4jnsgd1na2vs0mg"},{"bike_id":"ca66d378-9d1e-4b95-930f-e2b25ff469f9","system_id":"levelo_inurba_marseille","lat":43.33152,"lon":5.37714,"is_reserved":false,"is_disabled":false,"rental_uris":{"android":"levelo://app?vid=ca66d378-9d1e-4b95-930f-e2b25ff469f9","ios":"levelo://app?vid=ca66d378-9d1e-4b95-930f-e2b25ff469f9"},"vehicle_type_id":"4","last_reported":1769544766,"current_range_meters":8800,"station_id":"st_d46cu089ee8s73dldbu0","pricing_plan_id":"cebpf4jnsgd1na2vs0mg"},{"bike_id":"d46471ec-377c-410e-b3fb-8093e216c936","system_id":"levelo_inurba_marseille","lat":43.33143,"lon":5.37709,"is_reserved":false,"is_disabled":false,"rental_uris":{"android":"levelo://app?vid=d46471ec-377c-410e-b3fb-8093e216c936","ios":"levelo://app?vid=d46471ec-377c-410e-b3fb-8093e216c936"},"vehicle_type_id":"4","last_reported":1769544766,"current_range_meters":8800,"station_id":"st_d46cu089ee8s73dldbu0","pricing_plan_id":"cebpf4jnsgd1na2vs0mg"},{"bike_id":"b7ba63ef-8d28-4c2f-985f-557a01349fd8","system_id":"levelo_inurba_marseille","lat":43.27202,"lon":5.4101,"is_reserved":false,"is_disabled":false,"rental_uris":{"android":"levelo://app?vid=b7ba63ef-8d28-4c2f-985f-557a01349fd8","ios":"levelo://app?vid=b7ba63ef-8d28-4c2f-985f-557a01349fd8"},"vehicle_type_id":"4","last_reported":1769544766,"current_range_meters":8800,"station_id":"ce4bhl12rcd13ifvqgf0","pricing_plan_id":"cebpf4jnsgd1na2vs0mg"},{"bike_id":"9fd72da4-67fe-4f28-a93f-5818f963e85b","system_id":"levelo_inurba_marseille","lat":43.25085,"lon":5.3945,"is_reserved":false,"is_disabled":false,"rental_uris":{"android":"levelo://app?vid=9fd72da4-67fe-4f28-a93f-5818f963e85b","ios":"levelo://app?vid=9fd72da4-67fe-4f28-a93f-5818f963e85b"},"vehicle_type_id":"4","last_reported":1769544766,"current_range_meters":9200,"station_id":"ce4bhm12rcd13ifvqgkg","pricing_plan_id":"cebpf4jnsgd1na2vs0mg"},{"bike_id":"bc6c800a-6928-4bf7-8745-f31ca6747acf","system_id":"levelo_inurba_marseille","lat":43.323483,"lon":5.367379,"is_reserved":false,"is_disabled":false,"rental_uris":{"android":"levelo://app?vid=bc6c800a-6928-4bf7-8745-f31ca6747acf","ios":"levelo://app?vid=bc6c800a-6928-4bf7-8745-f31ca6747acf"},"vehicle_type_id":"4","last_reported":1769544766,"current_range_meters":9200,"station_id":"","pricing_plan_id":"cebpf4jnsgd1na2vs0mg"},{"bike_id":"0db07c39-2b1e-4996-880c-f2284f53d2a9","system_id":"levelo_inurba_marseille","lat":43.297341,"lon":5.376807,"is_reserved":false,"is_disabled":true,"rental_uris":{"android":"levelo://app?vid=0db07c39-2b1e-4996-880c-f2284f53d2a9","ios":"levelo://app?vid=0db07c39-2b1e-4996-880c-f2284f53d2a9"},"vehicle_type_id":"4","last_reported":1769544766,"current_range_meters":9200,"station_id":"ce4bgkh2rcd13ifvqbl0","pricing_plan_id":"cebpf4jnsgd1na2vs0mg"},{"bike_id":"70ec508d-3f9e-4b0f-98c2-2cf59fc1b6c5","system_id":"levelo_inurba_marseille","lat":43.29543,"lon":5.38542,"is_reserved":false,"is_disabled":false,"rental_uris":{"android":"levelo://app?vid=70ec508d-3f9e-4b0f-98c2-2cf59fc1b6c5","ios":"levelo://app?vid=70ec508d-3f9e-4b0f-98c2-2cf59fc1b6c5"},"vehicle_type_id":"4","last_reported":1769544766,"current_range_meters":9200,"station_id":"ce4bgih2rcd13ifvqba0","pricing_plan_id":"cebpf4jnsgd1na2vs0mg"},{"bike_id":"d68d3a47-3dd3-413e-831e-45376bb38a95","system_id":"levelo_inurba_marseille","lat":43.28996,"lon":5.35586,"is_reserved":false,"is_disabled":false,"rental_uris":{"android":"levelo://app?vid=d68d3a47-3dd3-413e-831e-45376bb38a95","ios":"levelo://app?vid=d68d3a47-3dd3-413e-831e-45376bb38a95"},"vehicle_type_id":"4","last_reported":1769544766,"current_range_meters":9200,"station_id":"ce4bhb92rcd13ifvqen0","pricing_plan_id":"cebpf4jnsgd1na2vs0mg"},{"bike_id":"e72aee08-895a-44e0-8845-b04eb80d5459","system_id":"levelo_inurba_marseille","lat":43.29288,"lon":5.38458,"is_reserved":false,"is_disabled":false,"rental_uris":{"android":"levelo://app?vid=e72aee08-895a-44e0-8845-b04eb80d5459","ios":"levelo://app?vid=e72aee08-895a-44e0-8845-b04eb80d5459"},"vehicle_type_id":"4","last_reported":1769544766,"current_range_meters":9200,"station_id":"ce4bh692rcd13ifvqea0","pricing_plan_id":"cebpf4jnsgd1na2vs0mg"},{"bike_id":"f401d2b0-dab9-491f-a072-c16620d50f40","system_id":"levelo_inurba_marseille","lat":43.25569,"lon":5.38243,"is_reserved":false,"is_disabled":false,"rental_uris":{"android":"levelo://app?vid=f401d2b0-dab9-491f-a072-c16620d50f40","ios":"levelo://app?vid=f401d2b0-dab9-491f-a072-c16620d50f40"},"vehicle_type_id":"4","last_reported":1769544766,"current_range_meters":9200,"station_id":"ce4bhih2rcd13ifvqfs0","pricing_plan_id":"cebpf4jnsgd1na2vs0mg"},{"bike_id":"86d0f98f-2e11-4d7f-bde0-3f01c405b82b","system_id":"levelo_inurba_marseille","lat":43.2495,"lon":5.40487,"is_reserved":false,"is_disabled":false,"rental_uris":{"android":"levelo://app?vid=86d0f98f-2e11-4d7f-bde0-3f01c405b82b","ios":"levelo://app?vid=86d0f98f-2e11-4d7f-bde0-3f01c405b82b"},"vehicle_type_id":"4","last_reported":1769544766,"current_range_meters":9200,"station_id":"st_d2ngiaodas8pm72gd1h0","pricing_plan_id":"cebpf4jnsgd1na2vs0mg"},{"bike_id":"74c28a43-d7ab-4581-a3ab-07d6c3ed4f0c","system_id":"levelo_inurba_marseille","lat":43.26596,"lon":5.37508,"is_reserved":false,"is_disabled":false,"rental_uris":{"android":"levelo://app?vid=74c28a43-d7ab-4581-a3ab-07d6c3ed4f0c","ios":"levelo://app?vid=74c28a43-d7ab-4581-a3ab-07d6c3ed4f0c"},"vehicle_type_id":"4","last_reported":1769544766,"current_range_meters":9200,"station_id":"","pricing_plan_id":"cebpf4jnsgd1na2vs0mg"},{"bike_id":"950cf626-ec25-4b6c-a470-e9c62f492129","system_id":"levelo_inurba_marseille","lat":43.30083,"lon":5.39076,"is_reserved":false,"is_disabled":false,"rental_uris":{"android":"levelo://app?vid=950cf626-ec25-4b6c-a470-e9c62f492129","ios":"levelo://app?vid=950cf626-ec25-4b6c-a470-e9c62f492129"},"vehicle_type_id":"4","last_reported":1769544766,"current_range_meters":9200,"station_id":"ce4bh192rcd13ifvqdb0","pricing_plan_id":"cebpf4jnsgd1na2vs0mg"},{"bike_id":"8adf422e-1d31-4a04-96dd-dc48c4174bee","system_id":"levelo_inurba_marseille","lat":43.25511,"lon":5.37644,"is_reserved":false,"is_disabled":false,"rental_uris":{"android":"levelo://app?vid=8adf422e-1d31-4a04-96dd-dc48c4174bee","ios":"levelo://app?vid=8adf422e-1d31-4a04-96dd-dc48c4174bee"},"vehicle_type_id":"4","last_reported":1769544766,"current_range_meters":9200,"station_id":"ce4bhh12rcd13ifvqff0","pricing_plan_id":"cebpf4jnsgd1na2vs0mg"},{"bike_id":"86aa08dc-5055-4da8-946d-24be161b4d67","system_id":"levelo_inurba_marseille","lat":43.284539,"lon":5.392057,"is_reserved":false,"is_disabled":false,"rental_uris":{"android":"levelo://app?vid=86aa08dc-5055-4da8-946d-24be161b4d67","ios":"levelo://app?vid=86aa08dc-5055-4da8-946d-24be161b4d67"},"vehicle_type_id":"4","last_reported":1769544766,"current_range_meters":9200,"station_id":"ce4bhoh2rcd13ifvqh5g","pricing_plan_id":"cebpf4jnsgd1na2vs0mg"},{"bike_id":"2cd99afc-b1ce-4558-bc1d-0f1f19a65a22","system_id":"levelo_inurba_marseille","lat":43.29627,"lon":5.37716,"is_reserved":false,"is_disabled":false,"rental_uris":{"android":"levelo://app?vid=2cd99afc-b1ce-4558-bc1d-0f1f19a65a22","ios":"levelo://app?vid=2cd99afc-b1ce-4558-bc1d-0f1f19a65a22"},"vehicle_type_id":"4","last_reported":1769544766,"current_range_meters":9200,"station_id":"ce4bgi92rcd13ifvqb90","pricing_plan_id":"cebpf4jnsgd1na2vs0mg"},{"bike_id":"61aa552d-3cbe-40f0-be7a-149354466a30","system_id":"levelo_inurba_marseille","lat":43.33536,"lon":5.37472,"is_reserved":false,"is_disabled":false,"rental_uris":{"android":"levelo://app?vid=61aa552d-3cbe-40f0-be7a-149354466a30","ios":"levelo://app?vid=61aa552d-3cbe-40f0-be7a-149354466a30"},"vehicle_type_id":"4","last_reported":1769544766,"current_range_meters":9200,"station_id":"","pricing_plan_id":"cebpf4jnsgd1na2vs0mg"},{"bike_id":"e797e4a4-dfef-4c46-bca3-52babfee6cda","system_id":"levelo_inurba_marseille","lat":43.24489,"lon":5.42548,"is_reserved":false,"is_disabled":false,"rental_uris":{"android":"levelo://app?vid=e797e4a4-dfef-4c46-bca3-52babfee6cda","ios":"levelo://app?vid=e797e4a4-dfef-4c46-bca3-52babfee6cda"},"vehicle_type_id":"4","last_reported":1769544766,"current_range_meters":9200,"station_id":"st_d4a3vfp97mjs738cd8kg","pricing_plan_id":"cebpf4jnsgd1na2vs0mg"},{"bike_id":"64041536-b016-4080-ba5c-af15e6b6442e","system_id":"levelo_inurba_marseille","lat":43.25333,"lon":5.42171,"is_reserved":false,"is_disabled":false,"rental_uris":{"android":"levelo://app?vid=64041536-b016-4080-ba5c-af15e6b6442e","ios":"levelo://app?vid=64041536-b016-4080-ba5c-af15e6b6442e"},"vehicle_type_id":"4","last_reported":1769544766,"current_range_meters":9600,"station_id":"st_d2m65c5bi1j21697t3ng","pricing_plan_id":"cebpf4jnsgd1na2vs0mg"},{"bike_id":"fe18431d-53df-4614-883d-fffa52f224b1","system_id":"levelo_inurba_marseille","lat":43.332042,"lon":5.402287,"is_reserved":false,"is_disabled":false,"rental_uris":{"android":"levelo://app?vid=fe18431d-53df-4614-883d-fffa52f224b1","ios":"levelo://app?vid=fe18431d-53df-4614-883d-fffa52f224b1"},"vehicle_type_id":"4","last_reported":1769544766,"current_range_meters":9600,"station_id":"","pricing_plan_id":"cebpf4jnsgd1na2vs0mg"},{"bike_id":"2b21e1a0-32f5-4035-939e-22df6a9ced3b","system_id":"levelo_inurba_marseille","lat":43.27992,"lon":5.40023,"is_reserved":false,"is_disabled":false,"rental_uris":{"android":"levelo://app?vid=2b21e1a0-32f5-4035-939e-22df6a9ced3b","ios":"levelo://app?vid=2b21e1a0-32f5-4035-939e-22df6a9ced3b"},"vehicle_type_id":"4","last_reported":1769544766,"current_range_meters":9600,"station_id":"ce4bho92rcd13ifvqh4g","pricing_plan_id":"cebpf4jnsgd1na2vs0mg"},{"bike_id":"9a9d6dd8-33fe-4922-8e3a-a809d2e9dce9","system_id":"levelo_inurba_marseille","lat":43.30895,"lon":5.39647,"is_reserved":false,"is_disabled":false,"rental_uris":{"android":"levelo://app?vid=9a9d6dd8-33fe-4922-8e3a-a809d2e9dce9","ios":"levelo://app?vid=9a9d6dd8-33fe-4922-8e3a-a809d2e9dce9"},"vehicle_type_id":"4","last_reported":1769544766,"current_range_meters":9600,"station_id":"ce4bh012rcd13ifvqcv0","pricing_plan_id":"cebpf4jnsgd1na2vs0mg"},{"bike_id":"6e8ca7e0-b9d2-4dd8-a49c-594aebdeffb7","system_id":"levelo_inurba_marseille","lat":43.246822,"lon":5.381434,"is_reserved":false,"is_disabled":false,"rental_uris":{"android":"levelo://app?vid=6e8ca7e0-b9d2-4dd8-a49c-594aebdeffb7","ios":"levelo://app?vid=6e8ca7e0-b9d2-4dd8-a49c-594aebdeffb7"},"vehicle_type_id":"4","last_reported":1769544766,"current_range_meters":9600,"station_id":"ce4bhih2rcd13ifvqfr0","pricing_plan_id":"cebpf4jnsgd1na2vs0mg"},{"bike_id":"690311ac-da8d-43f3-b9e5-4e7d467ee486","system_id":"levelo_inurba_marseille","lat":43.32355,"lon":5.36766,"is_reserved":false,"is_disabled":false,"rental_uris":{"android":"levelo://app?vid=690311ac-da8d-43f3-b9e5-4e7d467ee486","ios":"levelo://app?vid=690311ac-da8d-43f3-b9e5-4e7d467ee486"},"vehicle_type_id":"4","last_reported":1769544766,"current_range_meters":9600,"station_id":"ce4bhsh2rcd13ifvqi2g","pricing_plan_id":"cebpf4jnsgd1na2vs0mg"},{"bike_id":"e6a5661d-144e-4a59-aee1-bebd9c95c655","system_id":"levelo_inurba_marseille","lat":43.25013,"lon":5.38912,"is_reserved":false,"is_disabled":false,"rental_uris":{"android":"levelo://app?vid=e6a5661d-144e-4a59-aee1-bebd9c95c655","ios":"levelo://app?vid=e6a5661d-144e-4a59-aee1-bebd9c95c655"},"vehicle_type_id":"4","last_reported":1769544766,"current_range_meters":9600,"station_id":"ce4bhgp2rcd13ifvqfd0","pricing_plan_id":"cebpf4jnsgd1na2vs0mg"},{"bike_id":"762080ff-9460-4403-b5cb-9005c9f445ba","system_id":"levelo_inurba_marseille","lat":43.24819,"lon":5.37467,"is_reserved":false,"is_disabled":false,"rental_uris":{"android":"levelo://app?vid=762080ff-9460-4403-b5cb-9005c9f445ba","ios":"levelo://app?vid=762080ff-9460-4403-b5cb-9005c9f445ba"},"vehicle_type_id":"4","last_reported":1769544766,"current_range_meters":9600,"station_id":"ce4bhgh2rcd13ifvqfb0","pricing_plan_id":"cebpf4jnsgd1na2vs0mg"},{"bike_id":"8e883c12-270c-4c5a-a721-036a9806a728","system_id":"levelo_inurba_marseille","lat":43.29588,"lon":5.37496,"is_reserved":false,"is_disabled":false,"rental_uris":{"android":"levelo://app?vid=8e883c12-270c-4c5a-a721-036a9806a728","ios":"levelo://app?vid=8e883c12-270c-4c5a-a721-036a9806a728"},"vehicle_type_id":"4","last_reported":1769544766,"current_range_meters":9600,"station_id":"ce4bgh92rcd13ifvqb50","pricing_plan_id":"cebpf4jnsgd1na2vs0mg"},{"bike_id":"c4022380-aeb3-4eb7-aebb-d6d5d62ffff3","system_id":"levelo_inurba_marseille","lat":43.246341,"lon":5.431402,"is_reserved":false,"is_disabled":false,"rental_uris":{"android":"levelo://app?vid=c4022380-aeb3-4eb7-aebb-d6d5d62ffff3","ios":"levelo://app?vid=c4022380-aeb3-4eb7-aebb-d6d5d62ffff3"},"vehicle_type_id":"4","last_reported":1769544766,"current_range_meters":9600,"station_id":"st_d2m6c4gdas8pm72e190g","pricing_plan_id":"cebpf4jnsgd1na2vs0mg"},{"bike_id":"093c02d3-ac86-44c3-92ca-1078c45c09d4","system_id":"levelo_inurba_marseille","lat":43.27805,"lon":5.40721,"is_reserved":false,"is_disabled":false,"rental_uris":{"android":"levelo://app?vid=093c02d3-ac86-44c3-92ca-1078c45c09d4","ios":"levelo://app?vid=093c02d3-ac86-44c3-92ca-1078c45c09d4"},"vehicle_type_id":"4","last_reported":1769544766,"current_range_meters":10000,"station_id":"ce4bhnh2rcd13ifvqgtg","pricing_plan_id":"cebpf4jnsgd1na2vs0mg"},{"bike_id":"649e619e-8b9c-4823-ac33-bdbccaa2eab3","system_id":"levelo_inurba_marseille","lat":43.25114,"lon":5.40319,"is_reserved":false,"is_disabled":false,"rental_uris":{"android":"levelo://app?vid=649e619e-8b9c-4823-ac33-bdbccaa2eab3","ios":"levelo://app?vid=649e619e-8b9c-4823-ac33-bdbccaa2eab3"},"vehicle_type_id":"4","last_reported":1769544766,"current_range_meters":10000,"station_id":"ce4bhlh2rcd13ifvqgig","pricing_plan_id":"cebpf4jnsgd1na2vs0mg"},{"bike_id":"c83397dc-af34-4aa3-b04b-bfdefb9be244","system_id":"levelo_inurba_marseille","lat":43.30122,"lon":5.43098,"is_reserved":false,"is_disabled":false,"rental_uris":{"android":"levelo://app?vid=c83397dc-af34-4aa3-b04b-bfdefb9be244","ios":"levelo://app?vid=c83397dc-af34-4aa3-b04b-bfdefb9be244"},"vehicle_type_id":"4","last_reported":1769544766,"current_range_meters":10000,"station_id":"st_d3js3co5814s73ftftug","pricing_plan_id":"cebpf4jnsgd1na2vs0mg"},{"bike_id":"bb41f49a-66dc-429a-8df9-1daba190f036","system_id":"levelo_inurba_marseille","lat":43.28418,"lon":5.34979,"is_reserved":false,"is_disabled":false,"rental_uris":{"android":"levelo://app?vid=bb41f49a-66dc-429a-8df9-1daba190f036","ios":"levelo://app?vid=bb41f49a-66dc-429a-8df9-1daba190f036"},"vehicle_type_id":"4","last_reported":1769544766,"current_range_meters":10000,"station_id":"ce4bhbh2rcd13ifvqepg","pricing_plan_id":"cebpf4jnsgd1na2vs0mg"},{"bike_id":"3255c3b2-2452-488a-8e43-3a5076fdc8d6","system_id":"levelo_inurba_marseille","lat":43.30313,"lon":5.36904,"is_reserved":false,"is_disabled":false,"rental_uris":{"android":"levelo://app?vid=3255c3b2-2452-488a-8e43-3a5076fdc8d6","ios":"levelo://app?vid=3255c3b2-2452-488a-8e43-3a5076fdc8d6"},"vehicle_type_id":"4","last_reported":1769544766,"current_range_meters":10000,"station_id":"ce4bgqh2rcd13ifvqc5g","pricing_plan_id":"cebpf4jnsgd1na2vs0mg"},{"bike_id":"d9f56a61-1a13-4a92-b34c-7b199d4cd125","system_id":"levelo_inurba_marseille","lat":43.27965,"lon":5.41008,"is_reserved":false,"is_disabled":true,"rental_uris":{"android":"levelo://app?vid=d9f56a61-1a13-4a92-b34c-7b199d4cd125","ios":"levelo://app?vid=d9f56a61-1a13-4a92-b34c-7b199d4cd125"},"vehicle_type_id":"4","last_reported":1769544766,"current_range_meters":10000,"station_id":"ce4bhnp2rcd13ifvqh0g","pricing_plan_id":"cebpf4jnsgd1na2vs0mg"},{"bike_id":"02036545-e9e0-4ebe-9553-6ea94a3cac62","system_id":"levelo_inurba_marseille","lat":43.231928,"lon":5.355678,"is_reserved":false,"is_disabled":false,"rental_uris":{"android":"levelo://app?vid=02036545-e9e0-4ebe-9553-6ea94a3cac62","ios":"levelo://app?vid=02036545-e9e0-4ebe-9553-6ea94a3cac62"},"vehicle_type_id":"4","last_reported":1769544766,"current_range_meters":10000,"station_id":"ce4bhu92rcd13ifvqi70","pricing_plan_id":"cebpf4jnsgd1na2vs0mg"},{"bike_id":"371a1383-3577-4384-a959-8ae488ea2660","system_id":"levelo_inurba_marseille","lat":43.266697,"lon":5.395679,"is_reserved":false,"is_disabled":false,"rental_uris":{"android":"levelo://app?vid=371a1383-3577-4384-a959-8ae488ea2660","ios":"levelo://app?vid=371a1383-3577-4384-a959-8ae488ea2660"},"vehicle_type_id":"4","last_reported":1769544766,"current_range_meters":10000,"station_id":"","pricing_plan_id":"cebpf4jnsgd1na2vs0mg"},{"bike_id":"ea586091-fba5-4a80-8523-eb3e75a36c7a","system_id":"levelo_inurba_marseille","lat":43.25734,"lon":5.41125,"is_reserved":false,"is_disabled":false,"rental_uris":{"android":"levelo://app?vid=ea586091-fba5-4a80-8523-eb3e75a36c7a","ios":"levelo://app?vid=ea586091-fba5-4a80-8523-eb3e75a36c7a"},"vehicle_type_id":"4","last_reported":1769544766,"current_range_meters":10000,"station_id":"ce4bhkp2rcd13ifvqgd0","pricing_plan_id":"cebpf4jnsgd1na2vs0mg"},{"bike_id":"49eecfcc-88fe-49c9-b7fd-d5db37cde1c9","system_id":"levelo_inurba_marseille","lat":43.27997,"lon":5.40011,"is_reserved":false,"is_disabled":false,"rental_uris":{"android":"levelo://app?vid=49eecfcc-88fe-49c9-b7fd-d5db37cde1c9","ios":"levelo://app?vid=49eecfcc-88fe-49c9-b7fd-d5db37cde1c9"},"vehicle_type_id":"4","last_reported":1769544766,"current_range_meters":10000,"station_id":"ce4bho92rcd13ifvqh4g","pricing_plan_id":"cebpf4jnsgd1na2vs0mg"},{"bike_id":"35df44bc-9fa4-4e5b-b183-060ff9e5f984","system_id":"levelo_inurba_marseille","lat":43.337682,"lon":5.374371,"is_reserved":false,"is_disabled":false,"rental_uris":{"android":"levelo://app?vid=35df44bc-9fa4-4e5b-b183-060ff9e5f984","ios":"levelo://app?vid=35df44bc-9fa4-4e5b-b183-060ff9e5f984"},"vehicle_type_id":"4","last_reported":1769544766,"current_range_meters":10000,"station_id":"","pricing_plan_id":"cebpf4jnsgd1na2vs0mg"},{"bike_id":"1ceb9424-08d1-40dc-9c51-717648313c60","system_id":"levelo_inurba_marseille","lat":43.284235,"lon":5.375057,"is_reserved":false,"is_disabled":false,"rental_uris":{"android":"levelo://app?vid=1ceb9424-08d1-40dc-9c51-717648313c60","ios":"levelo://app?vid=1ceb9424-08d1-40dc-9c51-717648313c60"},"vehicle_type_id":"4","last_reported":1769544766,"current_range_meters":10000,"station_id":"ce4bh412rcd13ifvqds0","pricing_plan_id":"cebpf4jnsgd1na2vs0mg"},{"bike_id":"2f009252-5cac-49b2-9dc5-1adbfea4044c","system_id":"levelo_inurba_marseille","lat":43.26193,"lon":5.37447,"is_reserved":false,"is_disabled":false,"rental_uris":{"android":"levelo://app?vid=2f009252-5cac-49b2-9dc5-1adbfea4044c","ios":"levelo://app?vid=2f009252-5cac-49b2-9dc5-1adbfea4044c"},"vehicle_type_id":"4","last_reported":1769544766,"current_range_meters":10000,"station_id":"ce4bhgp2rcd13ifvqfc0","pricing_plan_id":"cebpf4jnsgd1na2vs0mg"},{"bike_id":"ae6c24c7-c77c-415a-8f70-43ffc1d1fa8e","system_id":"levelo_inurba_marseille","lat":43.29265,"lon":5.38446,"is_reserved":false,"is_disabled":false,"rental_uris":{"android":"levelo://app?vid=ae6c24c7-c77c-415a-8f70-43ffc1d1fa8e","ios":"levelo://app?vid=ae6c24c7-c77c-415a-8f70-43ffc1d1fa8e"},"vehicle_type_id":"4","last_reported":1769544766,"current_range_meters":10800,"station_id":"ce4bh692rcd13ifvqea0","pricing_plan_id":"cebpf4jnsgd1na2vs0mg"},{"bike_id":"340a902a-bb73-4f33-bad0-4d1064bcd831","system_id":"levelo_inurba_marseille","lat":43.22556,"lon":5.41634,"is_reserved":false,"is_disabled":false,"rental_uris":{"android":"levelo://app?vid=340a902a-bb73-4f33-bad0-4d1064bcd831","ios":"levelo://app?vid=340a902a-bb73-4f33-bad0-4d1064bcd831"},"vehicle_type_id":"4","last_reported":1769544766,"current_range_meters":10800,"station_id":"st_d2o4gvlbi1j2169b742g","pricing_plan_id":"cebpf4jnsgd1na2vs0mg"},{"bike_id":"7c66275e-093d-4836-ad33-ee219cef4661","system_id":"levelo_inurba_marseille","lat":43.29737,"lon":5.37712,"is_reserved":false,"is_disabled":false,"rental_uris":{"android":"levelo://app?vid=7c66275e-093d-4836-ad33-ee219cef4661","ios":"levelo://app?vid=7c66275e-093d-4836-ad33-ee219cef4661"},"vehicle_type_id":"4","last_reported":1769544766,"current_range_meters":10800,"station_id":"ce4bgkh2rcd13ifvqbl0","pricing_plan_id":"cebpf4jnsgd1na2vs0mg"},{"bike_id":"f50bea40-ed6e-4092-a267-15c6a4bc8998","system_id":"levelo_inurba_marseille","lat":43.33545,"lon":5.37477,"is_reserved":false,"is_disabled":false,"rental_uris":{"android":"levelo://app?vid=f50bea40-ed6e-4092-a267-15c6a4bc8998","ios":"levelo://app?vid=f50bea40-ed6e-4092-a267-15c6a4bc8998"},"vehicle_type_id":"4","last_reported":1769544766,"current_range_meters":10800,"station_id":"st_d46tts09ee8s73dlu43g","pricing_plan_id":"cebpf4jnsgd1na2vs0mg"},{"bike_id":"72724336-6e68-40b9-93ca-8d6901680b91","system_id":"levelo_inurba_marseille","lat":43.24982,"lon":5.38915,"is_reserved":false,"is_disabled":false,"rental_uris":{"android":"levelo://app?vid=72724336-6e68-40b9-93ca-8d6901680b91","ios":"levelo://app?vid=72724336-6e68-40b9-93ca-8d6901680b91"},"vehicle_type_id":"4","last_reported":1769544766,"current_range_meters":10800,"station_id":"ce4bhgp2rcd13ifvqfd0","pricing_plan_id":"cebpf4jnsgd1na2vs0mg"},