{"last_updated":1719601588,"ttl":30,"version":"2.2","data":{"bikes":[{"bike_id":"72163487-b676-4e6c-b249-bea43d1e7127","system_id":"levelo_inurba_marseille","lat":43.312239,"lon":5.368562,"is_reserved":false,"is_disabled":false,"rental_uris":{"android":"levelo://app?vid=72163487-b676-4e6c-b249-bea43d1e7127","ios":"levelo://app?vid=72163487-b676-4e6c-b249-bea43d1e7127"},"vehicle_type_id":"4","last_reported":1719601588,"current_range_meters":5600,"station_id":"ce4bgl92rcd13ifvqbq0","pricing_plan_id":"cebpf4jnsgd1na2vs0mg"},{"bike_id":"d7c15aac-d5f4-414f-8d1e-d7a280624b2a","system_id":"levelo_inurba_marseille","lat":43.310937,"lon":5.36935,"is_reserved":false,"is_disabled":false,"rental_uris":{"android":"levelo://app?vid=d7c15aac-d5f4-414f-8d1e-d7a280624b2a","ios":"levelo://app?vid=d7c15aac-d5f4-414f-8d1e-d7a280624b2a"},"vehicle_type_id":"4","last_reported":1719601588,"current_range_meters":18000,"station_id":"","pricing_plan_id":"cebpf4jnsgd1na2vs0mg"},{"bike_id":"4a94410f-4cd0-41af-95cb-4edeba7e486c","system_id":"levelo_inurba_marseille","lat":43.31105,"lon":5.370523,"is_reserved":false,"is_disabled":false,"rental_uris":{"android":"levelo://app?vid=4a94410f-4cd0-41af-95cb-4edeba7e486c","ios":"levelo://app?vid=4a94410f-4cd0-41af-95cb-4edeba7e486c"},"vehicle_type_id":"4","last_reported":1719601588,"current_range_meters":30000,"station_id":"","pricing_plan_id":"cebpf4jnsgd1na2vs0mg"},{"bike_id":"8529b21e-6017-4991-9723-ef42efa47645","system_id":"levelo_inurba_marseille","lat":43.31489,"lon":5.37307,"is_reserved":false,"is_disabled":false,"rental_uris":{"android":"levelo://app?vid=8529b21e-6017-4991-9723-ef42efa47645","ios":"levelo://app?vid=8529b21e-6017-4991-9723-ef42efa47645"},"vehicle_type_id":"4","last_reported":1719601588,"current_range_meters":14000,"station_id":"ce4bgt12rcd13ifvqcd0","pricing_plan_id":"cebpf4jnsgd1na2vs0mg"},{"bike_id":"38fdd438-dab6-445a-88ee-7a1fc219c6d6","system_id":"levelo_inurba_marseille","lat":43.314811,"lon":5.373103,"is_reserved":false,"is_disabled":false,"rental_uris":{"android":"levelo://app?vid=38fdd438-dab6-445a-88ee-7a1fc219c6d6","ios":"levelo://app?vid=38fdd438-dab6-445a-88ee-7a1fc219c6d6"},"vehicle_type_id":"4","last_reported":1719601588,"current_range_meters":5600,"station_id":"ce4bgt12rcd13ifvqcd0","pricing_plan_id":"cebpf4jnsgd1na2vs0mg"},{"bike_id":"57109708-ab2b-4c3e-818c-47dfd28fc037","system_id":"levelo_inurba_marseille","lat":43.314811,"lon":5.373103,"is_reserved":false,"is_disabled":false,"rental_uris":{"android":"levelo://app?vid=57109708-ab2b-4c3e-818c-47dfd28fc037","ios":"levelo://app?vid=57109708-ab2b-4c3e-818c-47dfd28fc037"},"vehicle_type_id":"4","last_reported":1719601588,"current_range_meters":1600,"station_id":"ce4bgt12rcd13ifvqcd0","pricing_plan_id":"cebpf4jnsgd1na2vs0mg"},{"bike_id":"cb11e246-ddbf-438c-b229-22786e15194a","system_id":"levelo_inurba_marseille","lat":43.309039,"lon":5.371797,"is_reserved":false,"is_disabled":false,"rental_uris":{"android":"levelo://app?vid=cb11e246-ddbf-438c-b229-22786e15194a","ios":"levelo://app?vid=cb11e246-ddbf-438c-b229-22786e15194a"},"vehicle_type_id":"4","last_reported":1719601588,"current_range_meters":3600,"station_id":"ce4bguh2rcd13ifvqckg","pricing_plan_id":"cebpf4jnsgd1na2vs0mg"},{"bike_id":"3943897b-237c-4941-8f36-20e7f7f5fee6","system_id":"levelo_inurba_marseille","lat":43.314263,"lon":5.37545,"is_reserved":false,"is_disabled":false,"rental_uris":{"android":"levelo://app?vid=3943897b-237c-4941-8f36-20e7f7f5fee6","ios":"levelo://app?vid=3943897b-237c-4941-8f36-20e7f7f5fee6"},"vehicle_type_id":"4","last_reported":1719601588,"current_range_meters":26400,"station_id":"","pricing_plan_id":"cebpf4jnsgd1na2vs0mg"},{"bike_id":"6d4b91a7-8c12-430c-885e-9db29307fac7","system_id":"levelo_inurba_marseille","lat":43.30546,"lon":5.36656,"is_reserved":false,"is_disabled":false,"rental_uris":{"android":"levelo://app?vid=6d4b91a7-8c12-430c-885e-9db29307fac7","ios":"levelo://app?vid=6d4b91a7-8c12-430c-885e-9db29307fac7"},"vehicle_type_id":"4","last_reported":1719601588,"current_range_meters":24800,"station_id":"","pricing_plan_id":"cebpf4jnsgd1na2vs0mg"},{"bike_id":"5db1d157-f1bb-4076-8162-a63ddafa428e","system_id":"levelo_inurba_marseille","lat":43.305712,"lon":5.365641,"is_reserved":false,"is_disabled":false,"rental_uris":{"android":"levelo://app?vid=5db1d157-f1bb-4076-8162-a63ddafa428e","ios":"levelo://app?vid=5db1d157-f1bb-4076-8162-a63ddafa428e"},"vehicle_type_id":"4","last_reported":1719601588,"current_range_meters":2800,"station_id":"ce4bgs12rcd13ifvqcag","pricing_plan_id":"cebpf4jnsgd1na2vs0mg"},{"bike_id":"35b161d5-885a-4454-ae8a-5457420586b8","system_id":"levelo_inurba_marseille","lat":43.305712,"lon":5.365641,"is_reserved":false,"is_disabled":false,"rental_uris":{"android":"levelo://app?vid=35b161d5-885a-4454-ae8a-5457420586b8","ios":"levelo://app?vid=35b161d5-885a-4454-ae8a-5457420586b8"},"vehicle_type_id":"4","last_reported":1719601588,"current_range_meters":0,"station_id":"ce4bgs12rcd13ifvqcag","pricing_plan_id":"cebpf4jnsgd1na2vs0mg"},{"bike_id":"6987f6f8-5760-4f02-83cc-d3500ae564f9","system_id":"levelo_inurba_marseille","lat":43.305706,"lon":5.365654,"is_reserved":false,"is_disabled":false,"rental_uris":{"android":"levelo://app?vid=6987f6f8-5760-4f02-83cc-d3500ae564f9","ios":"levelo://app?vid=6987f6f8-5760-4f02-83cc-d3500ae564f9"},"vehicle_type_id":"4","last_reported":1719601588,"current_range_meters":6800,"station_id":"ce4bgs12rcd13ifvqcag","pricing_plan_id":"cebpf4jnsgd1na2vs0mg"},{"bike_id":"0cf66932-6174-47c9-9170-c36c68439386","system_id":"levelo_inurba_marseille","lat":43.305989,"lon":5.37225,"is_reserved":false,"is_disabled":false,"rental_uris":{"android":"levelo://app?vid=0cf66932-6174-47c9-9170-c36c68439386","ios":"levelo://app?vid=0cf66932-6174-47c9-9170-c36c68439386"},"vehicle_type_id":"4","last_reported":1719601588,"current_range_meters":5200,"station_id":"ce4bgqh2rcd13ifvqc4g","pricing_plan_id":"cebpf4jnsgd1na2vs0mg"},{"bike_id":"3c2f6aba-b088-498c-8a97-24d31accb273","system_id":"levelo_inurba_marseille","lat":43.305989,"lon":5.37225,"is_reserved":false,"is_disabled":false,"rental_uris":{"android":"levelo://app?vid=3c2f6aba-b088-498c-8a97-24d31accb273","ios":"levelo://app?vid=3c2f6aba-b088-498c-8a97-24d31accb273"},"vehicle_type_id":"4","last_reported":1719601588,"current_range_meters":5200,"station_id":"ce4bgqh2rcd13ifvqc4g","pricing_plan_id":"cebpf4jnsgd1na2vs0mg"},{"bike_id":"2c93a3cb-4dc8-41da-8b98-a7200e1eef67","system_id":"levelo_inurba_marseille","lat":43.311125,"lon":5.377624,"is_reserved":false,"is_disabled":false,"rental_uris":{"android":"levelo://app?vid=2c93a3cb-4dc8-41da-8b98-a7200e1eef67","ios":"levelo://app?vid=2c93a3cb-4dc8-41da-8b98-a7200e1eef67"},"vehicle_type_id":"4","last_reported":1719601588,"current_range_meters":31200,"station_id":"ce4bgt92rcd13ifvqcg0","pricing_plan_id":"cebpf4jnsgd1na2vs0mg"},{"bike_id":"a3f3bc72-061e-4ad9-b48d-772f399df3d3","system_id":"levelo_inurba_marseille","lat":43.307945,"lon":5.376487,"is_reserved":false,"is_disabled":false,"rental_uris":{"android":"levelo://app?vid=a3f3bc72-061e-4ad9-b48d-772f399df3d3","ios":"levelo://app?vid=a3f3bc72-061e-4ad9-b48d-772f399df3d3"},"vehicle_type_id":"4","last_reported":1719601588,"current_range_meters":22400,"station_id":"ce4bgv92rcd13ifvqcq0","pricing_plan_id":"cebpf4jnsgd1na2vs0mg"},{"bike_id":"dc020fc6-9b73-4367-a059-f5d000ea4fed","system_id":"levelo_inurba_marseille","lat":43.307945,"lon":5.376487,"is_reserved":false,"is_disabled":false,"rental_uris":{"android":"levelo://app?vid=dc020fc6-9b73-4367-a059-f5d000ea4fed","ios":"levelo://app?vid=dc020fc6-9b73-4367-a059-f5d000ea4fed"},"vehicle_type_id":"4","last_reported":1719601588,"current_range_meters":0,"station_id":"ce4bgv92rcd13ifvqcq0","pricing_plan_id":"cebpf4jnsgd1na2vs0mg"},{"bike_id":"0b579ad7-82fa-4311-9b37-fd4020a01d1d","system_id":"levelo_inurba_marseille","lat":43.303046,"lon":5.368981,"is_reserved":false,"is_disabled":false,"rental_uris":{"android":"levelo://app?vid=0b579ad7-82fa-4311-9b37-fd4020a01d1d","ios":"levelo://app?vid=0b579ad7-82fa-4311-9b37-fd4020a01d1d"},"vehicle_type_id":"4","last_reported":1719601588,"current_range_meters":0,"station_id":"ce4bgqh2rcd13ifvqc5g","pricing_plan_id":"cebpf4jnsgd1na2vs0mg"},{"bike_id":"ab5470a8-8734-4e88-bdea-a0a3a6fcb207","system_id":"levelo_inurba_marseille","lat":43.303046,"lon":5.368981,"is_reserved":false,"is_disabled":false,"rental_uris":{"android":"levelo://app?vid=ab5470a8-8734-4e88-bdea-a0a3a6fcb207","ios":"levelo://app?vid=ab5470a8-8734-4e88-bdea-a0a3a6fcb207"},"vehicle_type_id":"4","last_reported":1719601588,"current_range_meters":0,"station_id":"ce4bgqh2rcd13ifvqc5g","pricing_plan_id":"cebpf4jnsgd1na2vs0mg"},{"bike_id":"13672c71-70c5-44a2-bdbc-4fe60683fbac","system_id":"levelo_inurba_marseille","lat":43.315289,"lon":5.380349,"is_reserved":false,"is_disabled":false,"rental_uris":{"android":"levelo://app?vid=13672c71-70c5-44a2-bdbc-4fe60683fbac","ios":"levelo://app?vid=13672c71-70c5-44a2-bdbc-4fe60683fbac"},"vehicle_type_id":"4","last_reported":1719601588,"current_range_meters":800,"station_id":"ce4bhsp2rcd13ifvqi50","pricing_plan_id":"cebpf4jnsgd1na2vs0mg"},{"bike_id":"1d015597-8942-4dc3-9efe-a118011efd86","system_id":"levelo_inurba_marseille","lat":43.30801,"lon":5.38155,"is_reserved":false,"is_disabled":false,"rental_uris":{"android":"levelo://app?vid=1d015597-8942-4dc3-9efe-a118011efd86","ios":"levelo://app?vid=1d015597-8942-4dc3-9efe-a118011efd86"},"vehicle_type_id":"4","last_reported":1719601588,"current_range_meters":0,"station_id":"ce4bgt12rcd13ifvqce0","pricing_plan_id":"cebpf4jnsgd1na2vs0mg"},{"bike_id":"bfeb3d11-d517-4d7f-84b3-a6799f58c3bd","system_id":"levelo_inurba_marseille","lat":43.308012,"lon":5.381511,"is_reserved":false,"is_disabled":false,"rental_uris":{"android":"levelo://app?vid=bfeb3d11-d517-4d7f-84b3-a6799f58c3bd","ios":"levelo://app?vid=bfeb3d11-d517-4d7f-84b3-a6799f58c3bd"},"vehicle_type_id":"4","last_reported":1719601588,"current_range_meters":0,"station_id":"ce4bgt12rcd13ifvqce0","pricing_plan_id":"cebpf4jnsgd1na2vs0mg"},{"bike_id":"21c743a8-6545-4a65-91e4-0e505d55f5a9","system_id":"levelo_inurba_marseille","lat":43.30234,"lon":5.37481,"is_reserved":false,"is_disabled":false,"rental_uris":{"android":"levelo://app?vid=21c743a8-6545-4a65-91e4-0e505d55f5a9","ios":"levelo://app?vid=21c743a8-6545-4a65-91e4-0e505d55f5a9"},"vehicle_type_id":"4","last_reported":1719601588,"current_range_meters":12000,"station_id":"","pricing_plan_id":"cebpf4jnsgd1na2vs0mg"},{"bike_id":"9320cbb4-380c-47de-a3e1-1c50b7190ba8","system_id":"levelo_inurba_marseille","lat":43.30419,"lon":5.37832,"is_reserved":false,"is_disabled":false,"rental_uris":{"android":"levelo://app?vid=9320cbb4-380c-47de-a3e1-1c50b7190ba8","ios":"levelo://app?vid=9320cbb4-380c-47de-a3e1-1c50b7190ba8"},"vehicle_type_id":"4","last_reported":1719601588,"current_range_meters":5200,"station_id":"","pricing_plan_id":"cebpf4jnsgd1na2vs0mg"},{"bike_id":"f7ef6145-2317-4e77-9867-23add156772a","system_id":"levelo_inurba_marseille","lat":43.304606,"lon":5.379026,"is_reserved":false,"is_disabled":false,"rental_uris":{"android":"levelo://app?vid=f7ef6145-2317-4e77-9867-23add156772a","ios":"levelo://app?vid=f7ef6145-2317-4e77-9867-23add156772a"},"vehicle_type_id":"4","last_reported":1719601588,"current_range_meters":18400,"station_id":"ce4bgup2rcd13ifvqcn0","pricing_plan_id":"cebpf4jnsgd1na2vs0mg"},{"bike_id":"6e1f89b3-8dfb-4996-8a99-7954a23fd113","system_id":"levelo_inurba_marseille","lat":43.304606,"lon":5.379026,"is_reserved":false,"is_disabled":false,"rental_uris":{"android":"levelo://app?vid=6e1f89b3-8dfb-4996-8a99-7954a23fd113","ios":"levelo://app?vid=6e1f89b3-8dfb-4996-8a99-7954a23fd113"},"vehicle_type_id":"4","last_reported":1719601588,"current_range_meters":14800,"station_id":"ce4bgup2rcd13ifvqcn0","pricing_plan_id":"cebpf4jnsgd1na2vs0mg"},{"bike_id":"374f749d-9867-43b5-a4a3-94de75209e03","system_id":"levelo_inurba_marseille","lat":43.324771,"lon":5.36557,"is_reserved":false,"is_disabled":false,"rental_uris":{"android":"levelo://app?vid=374f749d-9867-43b5-a4a3-94de75209e03","ios":"levelo://app?vid=374f749d-9867-43b5-a4a3-94de75209e03"},"vehicle_type_id":"4","last_reported":1719601588,"current_range_meters":4800,"station_id":"ce4bhs12rcd13ifvqhvg","pricing_plan_id":"cebpf4jnsgd1na2vs0mg"},{"bike_id":"d5531a6e-c1ca-466e-bac2-6f3d9db38026","system_id":"levelo_inurba_marseille","lat":43.324771,"lon":5.36557,"is_reserved":false,"is_disabled":false,"rental_uris":{"android":"levelo://app?vid=d5531a6e-c1ca-466e-bac2-6f3d9db38026","ios":"levelo://app?vid=d5531a6e-c1ca-466e-bac2-6f3d9db38026"},"vehicle_type_id":"4","last_reported":1719601588,"current_range_meters":0,"station_id":"ce4bhs12rcd13ifvqhvg","pricing_plan_id":"cebpf4jnsgd1na2vs0mg"},{"bike_id":"3780c921-959d-43ab-8b04-202567f2f836","system_id":"levelo_inurba_marseille","lat":43.324771,"lon":5.36557,"is_reserved":false,"is_disabled":false,"rental_uris":{"android":"levelo://app?vid=3780c921-959d-43ab-8b04-202567f2f836","ios":"levelo://app?vid=3780c921-959d-43ab-8b04-202567f2f836"},"vehicle_type_id":"4","last_reported":1719601588,"current_range_meters":2000,"station_id":"ce4bhs12rcd13ifvqhvg","pricing_plan_id":"cebpf4jnsgd1na2vs0mg"},{"bike_id":"646c0cef-a11d-4df7-bca3-9181aa93ba7e","system_id":"levelo_inurba_marseille","lat":43.324771,"lon":5.36557,"is_reserved":false,"is_disabled":false,"rental_uris":{"android":"levelo://app?vid=646c0cef-a11d-4df7-bca3-9181aa93ba7e","ios":"levelo://app?vid=646c0cef-a11d-4df7-bca3-9181aa93ba7e"},"vehicle_type_id":"4","last_reported":1719601588,"current_range_meters":18400,"station_id":"ce4bhs12rcd13ifvqhvg","pricing_plan_id":"cebpf4jnsgd1na2vs0mg"},{"bike_id":"2cc3aaa2-b89e-40fd-ba02-1441b6bb0e06","system_id":"levelo_inurba_marseille","lat":43.324771,"lon":5.36557,"is_reserved":false,"is_disabled":false,"rental_uris":{"android":"levelo://app?vid=2cc3aaa2-b89e-40fd-ba02-1441b6bb0e06","ios":"levelo://app?vid=2cc3aaa2-b89e-40fd-ba02-1441b6bb0e06"},"vehicle_type_id":"4","last_reported":1719601588,"current_range_meters":5600,"station_id":"ce4bhs12rcd13ifvqhvg","pricing_plan_id":"cebpf4jnsgd1na2vs0mg"},{"bike_id":"0bd61cf1-d2f7-4ff8-8f6f-d85f8b721542","system_id":"levelo_inurba_marseille","lat":43.324771,"lon":5.36557,"is_reserved":false,"is_disabled":false,"rental_uris":{"android":"levelo://app?vid=0bd61cf1-d2f7-4ff8-8f6f-d85f8b721542","ios":"levelo://app?vid=0bd61cf1-d2f7-4ff8-8f6f-d85f8b721542"},"vehicle_type_id":"4","last_reported":1719601588,"current_range_meters":5600,"station_id":"ce4bhs12rcd13ifvqhvg","pricing_plan_id":"cebpf4jnsgd1na2vs0mg"},{"bike_id":"5e82fb44-853b-46eb-a806-cb49946c0bfa","system_id":"levelo_inurba_marseille","lat":43.310804,"lon":5.38359,"is_reserved":false,"is_disabled":false,"rental_uris":{"android":"levelo://app?vid=5e82fb44-853b-46eb-a806-cb49946c0bfa","ios":"levelo://app?vid=5e82fb44-853b-46eb-a806-cb49946c0bfa"},"vehicle_type_id":"4","last_reported":1719601588,"current_range_meters":0,"station_id":"ce4bgv92rcd13ifvqcr0","pricing_plan_id":"cebpf4jnsgd1na2vs0mg"},{"bike_id":"0733c793-52c3-4d90-abca-7cf7e9ce384e","system_id":"levelo_inurba_marseille","lat":43.310804,"lon":5.38359,"is_reserved":false,"is_disabled":false,"rental_uris":{"android":"levelo://app?vid=0733c793-52c3-4d90-abca-7cf7e9ce384e","ios":"levelo://app?vid=0733c793-52c3-4d90-abca-7cf7e9ce384e"},"vehicle_type_id":"4","last_reported":1719601588,"current_range_meters":0,"station_id":"ce4bgv92rcd13ifvqcr0","pricing_plan_id":"cebpf4jnsgd1na2vs0mg"},{"bike_id":"94521822-821a-4ee8-86c8-164cd394453d","system_id":"levelo_inurba_marseille","lat":43.310804,"lon":5.38359,"is_reserved":false,"is_disabled":false,"rental_uris":{"android":"levelo://app?vid=94521822-821a-4ee8-86c8-164cd394453d","ios":"levelo://app?vid=94521822-821a-4ee8-86c8-164cd394453d"},"vehicle_type_id":"4","last_reported":1719601588,"current_range_meters":3600,"station_id":"ce4bgv92rcd13ifvqcr0","pricing_plan_id":"cebpf4jnsgd1na2vs0mg"},{"bike_id":"905387bb-c17f-444b-ae1c-10f792553a59","system_id":"levelo_inurba_marseille","lat":43.310804,"lon":5.38359,"is_reserved":false,"is_disabled":false,"rental_uris":{"android":"levelo://app?vid=905387bb-c17f-444b-ae1c-10f792553a59","ios":"levelo://app?vid=905387bb-c17f-444b-ae1c-10f792553a59"},"vehicle_type_id":"4","last_reported":1719601588,"current_range_meters":13600,"station_id":"ce4bgv92rcd13ifvqcr0","pricing_plan_id":"cebpf4jnsgd1na2vs0mg"},{"bike_id":"efa62612-7897-4cf4-ac18-717c3a2a42f8","system_id":"levelo_inurba_marseille","lat":43.301429,"lon":5.37413,"is_reserved":false,"is_disabled":false,"rental_uris":{"android":"levelo://app?vid=efa62612-7897-4cf4-ac18-717c3a2a42f8","ios":"levelo://app?vid=efa62612-7897-4cf4-ac18-717c3a2a42f8"},"vehicle_type_id":"4","last_reported":1719601588,"current_range_meters":13200,"station_id":"ce4bgs92rcd13ifvqcc0","pricing_plan_id":"cebpf4jnsgd1na2vs0mg"},{"bike_id":"7fbedb87-5b4d-4714-9867-b9ee761c300e","system_id":"levelo_inurba_marseille","lat":43.319935,"lon":5.381699,"is_reserved":false,"is_disabled":false,"rental_uris":{"android":"levelo://app?vid=7fbedb87-5b4d-4714-9867-b9ee761c300e","ios":"levelo://app?vid=7fbedb87-5b4d-4714-9867-b9ee761c300e"},"vehicle_type_id":"4","last_reported":1719601588,"current_range_meters":8800,"station_id":"ce4bhr12rcd13ifvqhpg","pricing_plan_id":"cebpf4jnsgd1na2vs0mg"},{"bike_id":"6c2a0b49-fde4-42e0-9bf1-d19dec235569","system_id":"levelo_inurba_marseille","lat":43.319935,"lon":5.381699,"is_reserved":false,"is_disabled":false,"rental_uris":{"android":"levelo://app?vid=6c2a0b49-fde4-42e0-9bf1-d19dec235569","ios":"levelo://app?vid=6c2a0b49-fde4-42e0-9bf1-d19dec235569"},"vehicle_type_id":"4","last_reported":1719601588,"current_range_meters":1200,"station_id":"ce4bhr12rcd13ifvqhpg","pricing_plan_id":"cebpf4jnsgd1na2vs0mg"},{"bike_id":"cdff3609-95bc-4e87-9301-15974eb9376b","system_id":"levelo_inurba_marseille","lat":43.319935,"lon":5.381699,"is_reserved":false,"is_disabled":false,"rental_uris":{"android":"levelo://app?vid=cdff3609-95bc-4e87-9301-15974eb9376b","ios":"levelo://app?vid=cdff3609-95bc-4e87-9301-15974eb9376b"},"vehicle_type_id":"4","last_reported":1719601588,"current_range_meters":22400,"station_id":"ce4bhr12rcd13ifvqhpg","pricing_plan_id":"cebpf4jnsgd1na2vs0mg"},{"bike_id":"e219a01a-04fa-4579-bbb6-c1ee7149fe2b","system_id":"levelo_inurba_marseille","lat":43.319935,"lon":5.381699,"is_reserved":false,"is_disabled":false,"rental_uris":{"android":"levelo://app?vid=e219a01a-04fa-4579-bbb6-c1ee7149fe2b","ios":"levelo://app?vid=e219a01a-04fa-4579-bbb6-c1ee7149fe2b"},"vehicle_type_id":"4","last_reported":1719601588,"current_range_meters":20800,"station_id":"ce4bhr12rcd13ifvqhpg","pricing_plan_id":"cebpf4jnsgd1na2vs0mg"},{"bike_id":"3c82aa2a-6afb-4dd4-bd8e-ca03455dc14e","system_id":"levelo_inurba_marseille","lat":43.313571,"lon":5.384829,"is_reserved":false,"is_disabled":false,"rental_uris":{"android":"levelo://app?vid=3c82aa2a-6afb-4dd4-bd8e-ca03455dc14e","ios":"levelo://app?vid=3c82aa2a-6afb-4dd4-bd8e-ca03455dc14e"},"vehicle_type_id":"4","last_reported":1719601588,"current_range_meters":2400,"station_id":"ce4bgt92rcd13ifvqcf0","pricing_plan_id":"cebpf4jnsgd1na2vs0mg"},{"bike_id":"a50bf875-54f3-439d-b091-86b07f2ab523","system_id":"levelo_inurba_marseille","lat":43.313571,"lon":5.384829,"is_reserved":false,"is_disabled":false,"rental_uris":{"android":"levelo://app?vid=a50bf875-54f3-439d-b091-86b07f2ab523","ios":"levelo://app?vid=a50bf875-54f3-439d-b091-86b07f2ab523"},"vehicle_type_id":"4","last_reported":1719601588,"current_range_meters":18000,"station_id":"ce4bgt92rcd13ifvqcf0","pricing_plan_id":"cebpf4jnsgd1na2vs0mg"},{"bike_id":"a95d157d-19fe-4f2a-bd4a-36b0b49e54ec","system_id":"levelo_inurba_marseille","lat":43.313571,"lon":5.384829,"is_reserved":false,"is_disabled":false,"rental_uris":{"android":"levelo://app?vid=a95d157d-19fe-4f2a-bd4a-36b0b49e54ec","ios":"levelo://app?vid=a95d157d-19fe-4f2a-bd4a-36b0b49e54ec"},"vehicle_type_id":"4","last_reported":1719601588,"current_range_meters":0,"station_id":"ce4bgt92rcd13ifvqcf0","pricing_plan_id":"cebpf4jnsgd1na2vs0mg"},{"bike_id":"c4a52b22-f219-433e-94b5-4bb6d1f1d908","system_id":"levelo_inurba_marseille","lat":43.31368,"lon":5.38504,"is_reserved":false,"is_disabled":false,"rental_uris":{"android":"levelo://app?vid=c4a52b22-f219-433e-94b5-4bb6d1f1d908","ios":"levelo://app?vid=c4a52b22-f219-433e-94b5-4bb6d1f1d908"},"vehicle_type_id":"4","last_reported":1719601588,"current_range_meters":13600,"station_id":"ce4bgt92rcd13ifvqcf0","pricing_plan_id":"cebpf4jnsgd1na2vs0mg"},{"bike_id":"5e1de7ee-35f6-49c9-904f-e78bea6477d2","system_id":"levelo_inurba_marseille","lat":43.299222,"lon":5.365554,"is_reserved":false,"is_disabled":false,"rental_uris":{"android":"levelo://app?vid=5e1de7ee-35f6-49c9-904f-e78bea6477d2","ios":"levelo://app?vid=5e1de7ee-35f6-49c9-904f-e78bea6477d2"},"vehicle_type_id":"4","last_reported":1719601588,"current_range_meters":26800,"station_id":"ce4bgm92rcd13ifvqbr0","pricing_plan_id":"cebpf4jnsgd1na2vs0mg"},{"bike_id":"3a485e30-ada7-441f-8598-01bf9f7d50fb","system_id":"levelo_inurba_marseille","lat":43.299222,"lon":5.365554,"is_reserved":false,"is_disabled":false,"rental_uris":{"android":"levelo://app?vid=3a485e30-ada7-441f-8598-01bf9f7d50fb","ios":"levelo://app?vid=3a485e30-ada7-441f-8598-01bf9f7d50fb"},"vehicle_type_id":"4","last_reported":1719601588,"current_range_meters":24000,"station_id":"ce4bgm92rcd13ifvqbr0","pricing_plan_id":"cebpf4jnsgd1na2vs0mg"},{"bike_id":"48262dac-d143-4368-a74a-0e82c3442dbe","system_id":"levelo_inurba_marseille","lat":43.299222,"lon":5.365554,"is_reserved":false,"is_disabled":false,"rental_uris":{"android":"levelo://app?vid=48262dac-d143-4368-a74a-0e82c3442dbe","ios":"levelo://app?vid=48262dac-d143-4368-a74a-0e82c3442dbe"},"vehicle_type_id":"4","last_reported":1719601588,"current_range_meters":28800,"station_id":"ce4bgm92rcd13ifvqbr0","pricing_plan_id":"cebpf4jnsgd1na2vs0mg"},{"bike_id":"8380152d-32e8-43fd-9a94-2a25b0fbedca","system_id":"levelo_inurba_marseille","lat":43.30537,"lon":5.367345,"is_reserved":false,"is_disabled":false,"rental_uris":{"android":"levelo://app?vid=8380152d-32e8-43fd-9a94-2a25b0fbedca","ios":"levelo://app?vid=8380152d-32e8-43fd-9a94-2a25b0fbedca"},"vehicle_type_id":"4","last_reported":1719601588,"current_range_meters":11200,"station_id":"ce4bgrp2rcd13ifvqc9g","pricing_plan_id":"cebpf4jnsgd1na2vs0mg"},{"bike_id":"b4e90371-b51b-4bb3-9f26-7d543acd8573","system_id":"levelo_inurba_marseille","lat":43.30957,"lon":5.38616,"is_reserved":false,"is_disabled":false,"rental_uris":{"android":"levelo://app?vid=b4e90371-b51b-4bb3-9f26-7d543acd8573","ios":"levelo://app?vid=b4e90371-b51b-4bb3-9f26-7d543acd8573"},"vehicle_type_id":"4","last_reported":1719601588,"current_range_meters":26400,"station_id":"","pricing_plan_id":"cebpf4jnsgd1na2vs0mg"},{"bike_id":"910eeafd-6e25-4720-915f-be26ef8a1036","system_id":"levelo_inurba_marseille","lat":43.305364,"lon":5.384119,"is_reserved":false,"is_disabled":false,"rental_uris":{"android":"levelo://app?vid=910eeafd-6e25-4720-915f-be26ef8a1036","ios":"levelo://app?vid=910eeafd-6e25-4720-915f-be26ef8a1036"},"vehicle_type_id":"4","last_reported":1719601588,"current_range_meters":15600,"station_id":"ce4bgg92rcd13ifvqb30","pricing_plan_id":"cebpf4jnsgd1na2vs0mg"},{"bike_id":"4ac1e374-77c7-4645-8747-d22b69620738","system_id":"levelo_inurba_marseille","lat":43.29836,"lon":5.36402,"is_reserved":false,"is_disabled":false,"rental_uris":{"android":"levelo://app?vid=4ac1e374-77c7-4645-8747-d22b69620738","ios":"levelo://app?vid=4ac1e374-77c7-4645-8747-d22b69620738"},"vehicle_type_id":"4","last_reported":1719601588,"current_range_meters":14800,"station_id":"","pricing_plan_id":"cebpf4jnsgd1na2vs0mg"},{"bike_id":"e3348b22-5ffc-4b29-84ca-773ed90be50c","system_id":"levelo_inurba_marseille","lat":43.298433,"lon":5.362774,"is_reserved":false,"is_disabled":false,"rental_uris":{"android":"levelo://app?vid=e3348b22-5ffc-4b29-84ca-773ed90be50c","ios":"levelo://app?vid=e3348b22-5ffc-4b29-84ca-773ed90be50c"},"vehicle_type_id":"4","last_reported":1719601588,"current_range_meters":9600,"station_id":"ce4bgpp2rcd13ifvqc3g","pricing_plan_id":"cebpf4jnsgd1na2vs0mg"},{"bike_id":"63548095-6ae8-4e5f-b4fd-f90573a5d487","system_id":"levelo_inurba_marseille","lat":43.305364,"lon":5.384119,"is_reserved":false,"is_disabled":false,"rental_uris":{"android":"levelo://app?vid=63548095-6ae8-4e5f-b4fd-f90573a5d487","ios":"levelo://app?vid=63548095-6ae8-4e5f-b4fd-f90573a5d487"},"vehicle_type_id":"4","last_reported":1719601588,"current_range_meters":0,"station_id":"ce4bgg92rcd13ifvqb30","pricing_plan_id":"cebpf4jnsgd1na2vs0mg"},{"bike_id":"5b1c7c84-1298-47e1-b09f-98c31912f83f","system_id":"levelo_inurba_marseille","lat":43.311722,"lon":5.387247,"is_reserved":false,"is_disabled":false,"rental_uris":{"android":"levelo://app?vid=5b1c7c84-1298-47e1-b09f-98c31912f83f","ios":"levelo://app?vid=5b1c7c84-1298-47e1-b09f-98c31912f83f"},"vehicle_type_id":"4","last_reported":1719601588,"current_range_meters":22000,"station_id":"ce4bgv12rcd13ifvqcp0","pricing_plan_id":"cebpf4jnsgd1na2vs0mg"},{"bike_id":"2603871f-18ea-41af-a278-5908e8cf1f22","system_id":"levelo_inurba_marseille","lat":43.311722,"lon":5.387247,"is_reserved":false,"is_disabled":false,"rental_uris":{"android":"levelo://app?vid=2603871f-18ea-41af-a278-5908e8cf1f22","ios":"levelo://app?vid=2603871f-18ea-41af-a278-5908e8cf1f22"},"vehicle_type_id":"4","last_reported":1719601588,"current_range_meters":7200,"station_id":"ce4bgv12rcd13ifvqcp0","pricing_plan_id":"cebpf4jnsgd1na2vs0mg"},{"bike_id":"887768d6-5f1b-465e-b5cd-7f37809448cd","system_id":"levelo_inurba_marseille","lat":43.322858,"lon":5.382592,"is_reserved":false,"is_disabled":false,"rental_uris":{"android":"levelo://app?vid=887768d6-5f1b-465e-b5cd-7f37809448cd","ios":"levelo://app?vid=887768d6-5f1b-465e-b5cd-7f37809448cd"},"vehicle_type_id":"4","last_reported":1719601588,"current_range_meters":31600,"station_id":"ce4bhr12rcd13ifvqhqg","pricing_plan_id":"cebpf4jnsgd1na2vs0mg"},{"bike_id":"e6612135-71fa-45d9-ad65-84124da45ac5","system_id":"levelo_inurba_marseille","lat":43.322872,"lon":5.382756,"is_reserved":false,"is_disabled":false,"rental_uris":{"android":"levelo://app?vid=e6612135-71fa-45d9-ad65-84124da45ac5","ios":"levelo://app?vid=e6612135-71fa-45d9-ad65-84124da45ac5"},"vehicle_type_id":"4","last_reported":1719601588,"current_range_meters":29600,"station_id":"ce4bhr12rcd13ifvqhqg","pricing_plan_id":"cebpf4jnsgd1na2vs0mg"},{"bike_id":"d09f58ff-ed70-4b4a-be72-279bdd355f05","system_id":"levelo_inurba_marseille","lat":43.297163,"lon":5.365866,"is_reserved":false,"is_disabled":false,"rental_uris":{"android":"levelo://app?vid=d09f58ff-ed70-4b4a-be72-279bdd355f05","ios":"levelo://app?vid=d09f58ff-ed70-4b4a-be72-279bdd355f05"},"vehicle_type_id":"4","last_reported":1719601588,"current_range_meters":0,"station_id":"ce4bgn12rcd13ifvqbt0","pricing_plan_id":"cebpf4jnsgd1na2vs0mg"},{"bike_id":"1e83bafa-e0dd-4cc9-a850-4db3928baf19","system_id":"levelo_inurba_marseille","lat":43.297163,"lon":5.365866,"is_reserved":false,"is_disabled":false,"rental_uris":{"android":"levelo://app?vid=1e83bafa-e0dd-4cc9-a850-4db3928baf19","ios":"levelo://app?vid=1e83bafa-e0dd-4cc9-a850-4db3928baf19"},"vehicle_type_id":"4","last_reported":1719601588,"current_range_meters":17600,"station_id":"ce4bgn12rcd13ifvqbt0","pricing_plan_id":"cebpf4jnsgd1na2vs0mg"},{"bike_id":"03321236-3fe1-43ec-8417-f5c43ccbfcd3","system_id":"levelo_inurba_marseille","lat":43.297163,"lon":5.365866,"is_reserved":false,"is_disabled":false,"rental_uris":{"android":"levelo://app?vid=03321236-3fe1-43ec-8417-f5c43ccbfcd3","ios":"levelo://app?vid=03321236-3fe1-43ec-8417-f5c43ccbfcd3"},"vehicle_type_id":"4","last_reported":1719601588,"current_range_meters":2000,"station_id":"ce4bgn12rcd13ifvqbt0","pricing_plan_id":"cebpf4jnsgd1na2vs0mg"},{"bike_id":"3b4e9966-c611-426a-aa1e-4ba1fff92c1b","system_id":"levelo_inurba_marseille","lat":43.297163,"lon":5.365866,"is_reserved":false,"is_disabled":false,"rental_uris":{"android":"levelo://app?vid=3b4e9966-c611-426a-aa1e-4ba1fff92c1b","ios":"levelo://app?vid=3b4e9966-c611-426a-aa1e-4ba1fff92c1b"},"vehicle_type_id":"4","last_reported":1719601588,"current_range_meters":11600,"station_id":"ce4bgn12rcd13ifvqbt0","pricing_plan_id":"cebpf4jnsgd1na2vs0mg"},{"bike_id":"9b25b7e6-8886-41fb-84a7-6ba3a5fc4246","system_id":"levelo_inurba_marseille","lat":43.297163,"lon":5.365866,"is_reserved":false,"is_disabled":false,"rental_uris":{"android":"levelo://app?vid=9b25b7e6-8886-41fb-84a7-6ba3a5fc4246","ios":"levelo://app?vid=9b25b7e6-8886-41fb-84a7-6ba3a5fc4246"},"vehicle_type_id":"4","last_reported":1719601588,"current_range_meters":31200,"station_id":"ce4bgn12rcd13ifvqbt0","pricing_plan_id":"cebpf4jnsgd1na2vs0mg"},{"bike_id":"f7b8525a-7b99-4fd4-aac1-aad42e2a3b77","system_id":"levelo_inurba_marseille","lat":43.29659,"lon":5.36238,"is_reserved":false,"is_disabled":false,"rental_uris":{"android":"levelo://app?vid=f7b8525a-7b99-4fd4-aac1-aad42e2a3b77","ios":"levelo://app?vid=f7b8525a-7b99-4fd4-aac1-aad42e2a3b77"},"vehicle_type_id":"4","last_reported":1719601588,"current_range_meters":16400,"station_id":"","pricing_plan_id":"cebpf4jnsgd1na2vs0mg"},{"bike_id":"e0f7cb98-ed0e-442a-acb2-d17d6841c1e1","system_id":"levelo_inurba_marseille","lat":43.2968,"lon":5.37291,"is_reserved":false,"is_disabled":false,"rental_uris":{"android":"levelo://app?vid=e0f7cb98-ed0e-442a-acb2-d17d6841c1e1","ios":"levelo://app?vid=e0f7cb98-ed0e-442a-acb2-d17d6841c1e1"},"vehicle_type_id":"4","last_reported":1719601588,"current_range_meters":22400,"station_id":"ce4bgk12rcd13ifvqbj0","pricing_plan_id":"cebpf4jnsgd1na2vs0mg"},{"bike_id":"22ef90b8-eb09-44d6-9b9b-6173f6106b4f","system_id":"levelo_inurba_marseille","lat":43.29676,"lon":5.37282,"is_reserved":false,"is_disabled":false,"rental_uris":{"android":"levelo://app?vid=22ef90b8-eb09-44d6-9b9b-6173f6106b4f","ios":"levelo://app?vid=22ef90b8-eb09-44d6-9b9b-6173f6106b4f"},"vehicle_type_id":"4","last_reported":1719601588,"current_range_meters":0,"station_id":"ce4bgk12rcd13ifvqbj0","pricing_plan_id":"cebpf4jnsgd1na2vs0mg"},{"bike_id":"55ef1705-8f1e-4bfb-8caa-10240763c558","system_id":"levelo_inurba_marseille","lat":43.2965,"lon":5.36247,"is_reserved":false,"is_disabled":false,"rental_uris":{"android":"levelo://app?vid=55ef1705-8f1e-4bfb-8caa-10240763c558","ios":"levelo://app?vid=55ef1705-8f1e-4bfb-8caa-10240763c558"},"vehicle_type_id":"4","last_reported":1719601588,"current_range_meters":15200,"station_id":"","pricing_plan_id":"cebpf4jnsgd1na2vs0mg"},{"bike_id":"53ba566b-7b78-4423-b573-2eca02308c8e","system_id":"levelo_inurba_marseille","lat":43.2968,"lon":5.37291,"is_reserved":false,"is_disabled":false,"rental_uris":{"android":"levelo://app?vid=53ba566b-7b78-4423-b573-2eca02308c8e","ios":"levelo://app?vid=53ba566b-7b78-4423-b573-2eca02308c8e"},"vehicle_type_id":"4","last_reported":1719601588,"current_range_meters":16400,"station_id":"ce4bgk12rcd13ifvqbj0","pricing_plan_id":"cebpf4jnsgd1na2vs0mg"},{"bike_id":"582208cf-aef1-4f48-809c-74d011a6ac9c","system_id":"levelo_inurba_marseille","lat":43.296131,"lon":5.370773,"is_reserved":false,"is_disabled":false,"rental_uris":{"android":"levelo://app?vid=582208cf-aef1-4f48-809c-74d011a6ac9c","ios":"levelo://app?vid=582208cf-aef1-4f48-809c-74d011a6ac9c"},"vehicle_type_id":"4","last_reported":1719601588,"current_range_meters":12400,"station_id":"ce4bgnh2rcd13ifvqc0g","pricing_plan_id":"cebpf4jnsgd1na2vs0mg"},{"bike_id":"07726ec3-c447-4d8c-acbd-f5351dd704ac","system_id":"levelo_inurba_marseille","lat":43.29619,"lon":5.37168,"is_reserved":false,"is_disabled":false,"rental_uris":{"android":"levelo://app?vid=07726ec3-c447-4d8c-acbd-f5351dd704ac","ios":"levelo://app?vid=07726ec3-c447-4d8c-acbd-f5351dd704ac"},"vehicle_type_id":"4","last_reported":1719601588,"current_range_meters":6400,"station_id":"ce4bgnh2rcd13ifvqc0g","pricing_plan_id":"cebpf4jnsgd1na2vs0mg"},{"bike_id":"18858c23-d712-4b64-bec6-23bab7f0effd","system_id":"levelo_inurba_marseille","lat":43.295934,"lon":5.363735,"is_reserved":false,"is_disabled":false,"rental_uris":{"android":"levelo://app?vid=18858c23-d712-4b64-bec6-23bab7f0effd","ios":"levelo://app?vid=18858c23-d712-4b64-bec6-23bab7f0effd"},"vehicle_type_id":"4","last_reported":1719601588,"current_range_meters":27200,"station_id":"","pricing_plan_id":"cebpf4jnsgd1na2vs0mg"},{"bike_id":"d591939d-5fd4-4493-bb1a-59902e48b4bc","system_id":"levelo_inurba_marseille","lat":43.29573,"lon":5.367355,"is_reserved":false,"is_disabled":false,"rental_uris":{"android":"levelo://app?vid=d591939d-5fd4-4493-bb1a-59902e48b4bc","ios":"levelo://app?vid=d591939d-5fd4-4493-bb1a-59902e48b4bc"},"vehicle_type_id":"4","last_reported":1719601588,"current_range_meters":21600,"station_id":"ce4bgph2rcd13ifvqc2g","pricing_plan_id":"cebpf4jnsgd1na2vs0mg"},{"bike_id":"969c9279-457e-4b57-86d0-537a51f94f0a","system_id":"levelo_inurba_marseille","lat":43.29715,"lon":5.37693,"is_reserved":false,"is_disabled":false,"rental_uris":{"android":"levelo://app?vid=969c9279-457e-4b57-86d0-537a51f94f0a","ios":"levelo://app?vid=969c9279-457e-4b57-86d0-537a51f94f0a"},"vehicle_type_id":"4","last_reported":1719601588,"current_range_meters":13600,"station_id":"ce4bgkh2rcd13ifvqbl0","pricing_plan_id":"cebpf4jnsgd1na2vs0mg"},{"bike_id":"f5df779d-765a-47f7-91c5-546f71788ec4","system_id":"levelo_inurba_marseille","lat":43.299028,"lon":5.381509,"is_reserved":false,"is_disabled":false,"rental_uris":{"android":"levelo://app?vid=f5df779d-765a-47f7-91c5-546f71788ec4","ios":"levelo://app?vid=f5df779d-765a-47f7-91c5-546f71788ec4"},"vehicle_type_id":"4","last_reported":1719601588,"current_range_meters":30400,"station_id":"ce4bgj12rcd13ifvqbc0","pricing_plan_id":"cebpf4jnsgd1na2vs0mg"},{"bike_id":"4db62a8a-e670-4978-8033-71b33f80316f","system_id":"levelo_inurba_marseille","lat":43.309589,"lon":5.390258,"is_reserved":false,"is_disabled":false,"rental_uris":{"android":"levelo://app?vid=4db62a8a-e670-4978-8033-71b33f80316f","ios":"levelo://app?vid=4db62a8a-e670-4978-8033-71b33f80316f"},"vehicle_type_id":"4","last_reported":1719601588,"current_range_meters":5200,"station_id":"ce4bgup2rcd13ifvqco0","pricing_plan_id":"cebpf4jnsgd1na2vs0mg"},{"bike_id":"af3c4876-c693-4d4e-a28f-37062108d9eb","system_id":"levelo_inurba_marseille","lat":43.299028,"lon":5.381509,"is_reserved":false,"is_disabled":false,"rental_uris":{"android":"levelo://app?vid=af3c4876-c693-4d4e-a28f-37062108d9eb","ios":"levelo://app?vid=af3c4876-c693-4d4e-a28f-37062108d9eb"},"vehicle_type_id":"4","last_reported":1719601588,"current_range_meters":15200,"station_id":"ce4bgj12rcd13ifvqbc0","pricing_plan_id":"cebpf4jnsgd1na2vs0mg"},{"bike_id":"39e70720-4343-4f9e-8e58-083a463c0db2","system_id":"levelo_inurba_marseille","lat":43.309589,"lon":5.390258,"is_reserved":false,"is_disabled":false,"rental_uris":{"android":"levelo://app?vid=39e70720-4343-4f9e-8e58-083a463c0db2","ios":"levelo://app?vid=39e70720-4343-4f9e-8e58-083a463c0db2"},"vehicle_type_id":"4","last_reported":1719601588,"current_range_meters":28000,"station_id":"ce4bgup2rcd13ifvqco0","pricing_plan_id":"cebpf4jnsgd1na2vs0mg"},{"bike_id":"4a8ea3d2-5680-44af-9883-5aea45620d94","system_id":"levelo_inurba_marseille","lat":43.296921,"lon":5.376579,"is_reserved":false,"is_disabled":false,"rental_uris":{"android":"levelo://app?vid=4a8ea3d2-5680-44af-9883-5aea45620d94","ios":"levelo://app?vid=4a8ea3d2-5680-44af-9883-5aea45620d94"},"vehicle_type_id":"4","last_reported":1719601588,"current_range_meters":19200,"station_id":"ce4bgkh2rcd13ifvqbl0","pricing_plan_id":"cebpf4jnsgd1na2vs0mg"},{"bike_id":"ad13abb6-fa23-409e-9148-0305fb893bb3","system_id":"levelo_inurba_marseille","lat":43.299028,"lon":5.381509,"is_reserved":false,"is_disabled":false,"rental_uris":{"android":"levelo://app?vid=ad13abb6-fa23-409e-9148-0305fb893bb3","ios":"levelo://app?vid=ad13abb6-fa23-409e-9148-0305fb893bb3"},"vehicle_type_id":"4","last_reported":1719601588,"current_range_meters":31200,"station_id":"ce4bgj12rcd13ifvqbc0","pricing_plan_id":"cebpf4jnsgd1na2vs0mg"},{"bike_id":"7fd5d3ce-0a0c-4981-b539-73b694ccf77a","system_id":"levelo_inurba_marseille","lat":43.309589,"lon":5.390258,"is_reserved":false,"is_disabled":false,"rental_uris":{"android":"levelo://app?vid=7fd5d3ce-0a0c-4981-b539-73b694ccf77a","ios":"levelo://app?vid=7fd5d3ce-0a0c-4981-b539-73b694ccf77a"},"vehicle_type_id":"4","last_reported":1719601588,"current_range_meters":6800,"station_id":"ce4bgup2rcd13ifvqco0","pricing_plan_id":"cebpf4jnsgd1na2vs0mg"},{"bike_id":"97bbb473-54a1-40ff-a0c1-0ea89025f491","system_id":"levelo_inurba_marseille","lat":43.309589,"lon":5.390258,"is_reserved":false,"is_disabled":false,"rental_uris":{"android":"levelo://app?vid=97bbb473-54a1-40ff-a0c1-0ea89025f491","ios":"levelo://app?vid=97bbb473-54a1-40ff-a0c1-0ea89025f491"},"vehicle_type_id":"4","last_reported":1719601588,"current_range_meters":0,"station_id":"ce4bgup2rcd13ifvqco0","pricing_plan_id":"cebpf4jnsgd1na2vs0mg"},{"bike_id":"44dda88b-3ab9-4529-8f87-cd4f5220479b","system_id":"levelo_inurba_marseille","lat":43.309589,"lon":5.390258,"is_reserved":false,"is_disabled":false,"rental_uris":{"android":"levelo://app?vid=44dda88b-3ab9-4529-8f87-cd4f5220479b","ios":"levelo://app?vid=44dda88b-3ab9-4529-8f87-cd4f5220479b"},"vehicle_type_id":"4","last_reported":1719601588,"current_range_meters":21200,"station_id":"ce4bgup2rcd13ifvqco0","pricing_plan_id":"cebpf4jnsgd1na2vs0mg"},{"bike_id":"d6967747-1aa4-46a4-9650-9f21f9fb5beb","system_id":"levelo_inurba_marseille","lat":43.309589,"lon":5.390258,"is_reserved":false,"is_disabled":false,"rental_uris":{"android":"levelo://app?vid=d6967747-1aa4-46a4-9650-9f21f9fb5beb","ios":"levelo://app?vid=d6967747-1aa4-46a4-9650-9f21f9fb5beb"},"vehicle_type_id":"4","last_reported":1719601588,"current_range_meters":16400,"station_id":"ce4bgup2rcd13ifvqco0","pricing_plan_id":"cebpf4jnsgd1na2vs0mg"},{"bike_id":"a1dce300-1d62-460c-a8ba-ac2052a1e867","system_id":"levelo_inurba_marseille","lat":43.299028,"lon":5.381509,"is_reserved":false,"is_disabled":false,"rental_uris":{"android":"levelo://app?vid=a1dce300-1d62-460c-a8ba-ac2052a1e867","ios":"levelo://app?vid=a1dce300-1d62-460c-a8ba-ac2052a1e867"},"vehicle_type_id":"4","last_reported":1719601588,"current_range_meters":21200,"station_id":"ce4bgj12rcd13ifvqbc0","pricing_plan_id":"cebpf4jnsgd1na2vs0mg"},{"bike_id":"e3b9c705-6919-48cf-a3c6-6d33a5d31355","system_id":"levelo_inurba_marseille","lat":43.309589,"lon":5.390258,"is_reserved":false,"is_disabled":false,"rental_uris":{"android":"levelo://app?vid=e3b9c705-6919-48cf-a3c6-6d33a5d31355","ios":"levelo://app?vid=e3b9c705-6919-48cf-a3c6-6d33a5d31355"},"vehicle_type_id":"4","last_reported":1719601588,"current_range_meters":22000,"station_id":"ce4bgup2rcd13ifvqco0","pricing_plan_id":"cebpf4jnsgd1na2vs0mg"},{"bike_id":"178559f1-08eb-4291-ab2e-7e3a3dbb7e88","system_id":"levelo_inurba_marseille","lat":43.309589,"lon":5.390258,"is_reserved":false,"is_disabled":false,"rental_uris":{"android":"levelo://app?vid=178559f1-08eb-4291-ab2e-7e3a3dbb7e88","ios":"levelo://app?vid=178559f1-08eb-4291-ab2e-7e3a3dbb7e88"},"vehicle_type_id":"4","last_reported":1719601588,"current_range_meters":8400,"station_id":"ce4bgup2rcd13ifvqco0","pricing_plan_id":"cebpf4jnsgd1na2vs0mg"},{"bike_id":"cc754fa8-7500-4d6c-a6f6-854af4244385","system_id":"levelo_inurba_marseille","lat":43.309589,"lon":5.390258,"is_reserved":false,"is_disabled":false,"rental_uris":{"android":"levelo://app?vid=cc754fa8-7500-4d6c-a6f6-854af4244385","ios":"levelo://app?vid=cc754fa8-7500-4d6c-a6f6-854af4244385"},"vehicle_type_id":"4","last_reported":1719601588,"current_range_meters":4400,"station_id":"ce4bgup2rcd13ifvqco0","pricing_plan_id":"cebpf4jnsgd1na2vs0mg"},{"bike_id":"62ccbaa8-f1ad-40ae-bf6e-88fe4e7296cb","system_id":"levelo_inurba_marseille","lat":43.309589,"lon":5.390258,"is_reserved":false,"is_disabled":false,"rental_uris":{"android":"levelo://app?vid=62ccbaa8-f1ad-40ae-bf6e-88fe4e7296cb","ios":"levelo://app?vid=62ccbaa8-f1ad-40ae-bf6e-88fe4e7296cb"},"vehicle_type_id":"4","last_reported":1719601588,"current_range_meters":13200,"station_id":"ce4bgup2rcd13ifvqco0","pricing_plan_id":"cebpf4jnsgd1na2vs0mg"},{"bike_id":"1935bc20-dba3-4c11-8c40-3315296dea05","system_id":"levelo_inurba_marseille","lat":43.309589,"lon":5.390258,"is_reserved":false,"is_disabled":false,"rental_uris":{"android":"levelo://app?vid=1935bc20-dba3-4c11-8c40-3315296dea05","ios":"levelo://app?vid=1935bc20-dba3-4c11-8c40-3315296dea05"},"vehicle_type_id":"4","last_reported":1719601588,"current_range_meters":10000,"station_id":"ce4bgup2rcd13ifvqco0","pricing_plan_id":"cebpf4jnsgd1na2vs0mg"},{"bike_id":"fd3b9346-29f3-462c-8db0-e918850efc97","system_id":"levelo_inurba_marseille","lat":43.309589,"lon":5.390258,"is_reserved":false,"is_disabled":false,"rental_uris":{"android":"levelo://app?vid=fd3b9346-29f3-462c-8db0-e918850efc97","ios":"levelo://app?vid=fd3b9346-29f3-462c-8db0-e918850efc97"},"vehicle_type_id":"4","last_reported":1719601588,"current_range_meters":21600,"station_id":"ce4bgup2rcd13ifvqco0","pricing_plan_id":"cebpf4jnsgd1na2vs0mg"},{"bike_id":"bebc3133-b555-427f-9855-3fcc92086023","system_id":"levelo_inurba_marseille","lat":43.309589,"lon":5.390258,"is_reserved":false,"is_disabled":false,"rental_uris":{"android":"levelo://app?vid=bebc3133-b555-427f-9855-3fcc92086023","ios":"levelo://app?vid=bebc3133-b555-427f-9855-3fcc92086023"},"vehicle_type_id":"4","last_reported":1719601588,"current_range_meters":18800,"station_id":"ce4bgup2rcd13ifvqco0","pricing_plan_id":"cebpf4jnsgd1na2vs0mg"},{"bike_id":"6ac08da0-8146-46ea-9663-dea535e8e5d4","system_id":"levelo_inurba_marseille","lat":43.31758,"lon":5.39012,"is_reserved":false,"is_disabled":false,"rental_uris":{"android":"levelo://app?vid=6ac08da0-8146-46ea-9663-dea535e8e5d4","ios":"levelo://app?vid=6ac08da0-8146-46ea-9663-dea535e8e5d4"},"vehicle_type_id":"4","last_reported":1719601588,"current_range_meters":0,"station_id":"ce4bhqp2rcd13ifvqhng","pricing_plan_id":"cebpf4jnsgd1na2vs0mg"},{"bike_id":"ebd39145-7a59-45bc-a9a8-2b8a90dbf935","system_id":"levelo_inurba_marseille","lat":43.3176,"lon":5.39013,"is_reserved":false,"is_disabled":false,"rental_uris":{"android":"levelo://app?vid=ebd39145-7a59-45bc-a9a8-2b8a90dbf935","ios":"levelo://app?vid=ebd39145-7a59-45bc-a9a8-2b8a90dbf935"},"vehicle_type_id":"4","last_reported":1719601588,"current_range_meters":5600,"station_id":"ce4bhqp2rcd13ifvqhng","pricing_plan_id":"cebpf4jnsgd1na2vs0mg"},{"bike_id":"20556435-8b0f-47b0-9472-d09d827ba54a","system_id":"levelo_inurba_marseille","lat":43.29722,"lon":5.37881,"is_reserved":false,"is_disabled":false,"rental_uris":{"android":"levelo://app?vid=20556435-8b0f-47b0-9472-d09d827ba54a","ios":"levelo://app?vid=20556435-8b0f-47b0-9472-d09d827ba54a"},"vehicle_type_id":"4","last_reported":1719601588,"current_range_meters":6800,"station_id":"","pricing_plan_id":"cebpf4jnsgd1na2vs0mg"},{"bike_id":"0cd7a5a9-790e-4fa2-8145-90582319f981","system_id":"levelo_inurba_marseille","lat":43.29798,"lon":5.38089,"is_reserved":false,"is_disabled":false,"rental_uris":{"android":"levelo://app?vid=0cd7a5a9-790e-4fa2-8145-90582319f981","ios":"levelo://app?vid=0cd7a5a9-790e-4fa2-8145-90582319f981"},"vehicle_type_id":"4","last_reported":1719601588,"current_range_meters":12800,"station_id":"ce4bgip2rcd13ifvqbb0","pricing_plan_id":"cebpf4jnsgd1na2vs0mg"},{"bike_id":"ee8b7baf-db7b-457d-aa0b-55d3dd34a691","system_id":"levelo_inurba_marseille","lat":43.298037,"lon":5.381066,"is_reserved":false,"is_disabled":false,"rental_uris":{"android":"levelo://app?vid=ee8b7baf-db7b-457d-aa0b-55d3dd34a691","ios":"levelo://app?vid=ee8b7baf-db7b-457d-aa0b-55d3dd34a691"},"vehicle_type_id":"4","last_reported":1719601588,"current_range_meters":16400,"station_id":"ce4bgip2rcd13ifvqbb0","pricing_plan_id":"cebpf4jnsgd1na2vs0mg"},{"bike_id":"6a789b92-2436-42cc-8d7b-820f67aefc76","system_id":"levelo_inurba_marseille","lat":43.29578,"lon":5.37516,"is_reserved":false,"is_disabled":false,"rental_uris":{"android":"levelo://app?vid=6a789b92-2436-42cc-8d7b-820f67aefc76","ios":"levelo://app?vid=6a789b92-2436-42cc-8d7b-820f67aefc76"},"vehicle_type_id":"4","last_reported":1719601588,"current_range_meters":24400,"station_id":"ce4bgh92rcd13ifvqb50","pricing_plan_id":"cebpf4jnsgd1na2vs0mg"},{"bike_id":"e6e1ee05-39d6-4189-97d0-ddcd09a10832","system_id":"levelo_inurba_marseille","lat":43.298037,"lon":5.381066,"is_reserved":false,"is_disabled":false,"rental_uris":{"android":"levelo://app?vid=e6e1ee05-39d6-4189-97d0-ddcd09a10832","ios":"levelo://app?vid=e6e1ee05-39d6-4189-97d0-ddcd09a10832"},"vehicle_type_id":"4","last_reported":1719601588,"current_range_meters":0,"station_id":"ce4bgip2rcd13ifvqbb0","pricing_plan_id":"cebpf4jnsgd1na2vs0mg"},{"bike_id":"40460919-d5f3-4d34-92b7-c1e18b4757ea","system_id":"levelo_inurba_marseille","lat":43.298037,"lon":5.381066,"is_reserved":false,"is_disabled":false,"rental_uris":{"android":"levelo://app?vid=40460919-d5f3-4d34-92b7-c1e18b4757ea","ios":"levelo://app?vid=40460919-d5f3-4d34-92b7-c1e18b4757ea"},"vehicle_type_id":"4","last_reported":1719601588,"current_range_meters":3200,"station_id":"ce4bgip2rcd13ifvqbb0","pricing_plan_id":"cebpf4jnsgd1na2vs0mg"},{"bike_id":"b5f1b487-6bad-4026-bfb0-e55a91c62f47","system_id":"levelo_inurba_marseille","lat":43.298037,"lon":5.381066,"is_reserved":false,"is_disabled":false,"rental_uris":{"android":"levelo://app?vid=b5f1b487-6bad-4026-bfb0-e55a91c62f47","ios":"levelo://app?vid=b5f1b487-6bad-4026-bfb0-e55a91c62f47"},"vehicle_type_id":"4","last_reported":1719601588,"current_range_meters":0,"station_id":"ce4bgip2rcd13ifvqbb0","pricing_plan_id":"cebpf4jnsgd1na2vs0mg"},{"bike_id":"1411e46f-df15-472e-8c60-30011439c68a","system_id":"levelo_inurba_marseille","lat":43.295748,"lon":5.37522,"is_reserved":false,"is_disabled":false,"rental_uris":{"android":"levelo://app?vid=1411e46f-df15-472e-8c60-30011439c68a","ios":"levelo://app?vid=1411e46f-df15-472e-8c60-30011439c68a"},"vehicle_type_id":"4","last_reported":1719601588,"current_range_meters":29600,"station_id":"ce4bgh92rcd13ifvqb50","pricing_plan_id":"cebpf4jnsgd1na2vs0mg"},{"bike_id":"94755c7d-fa3e-4dc5-a912-b5327e4835a4","system_id":"levelo_inurba_marseille","lat":43.298037,"lon":5.381066,"is_reserved":false,"is_disabled":false,"rental_uris":{"android":"levelo://app?vid=94755c7d-fa3e-4dc5-a912-b5327e4835a4","ios":"levelo://app?vid=94755c7d-fa3e-4dc5-a912-b5327e4835a4"},"vehicle_type_id":"4","last_reported":1719601588,"current_range_meters":19200,"station_id":"ce4bgip2rcd13ifvqbb0","pricing_plan_id":"cebpf4jnsgd1na2vs0mg"},{"bike_id":"dd04ae28-a53e-4f31-8f88-941deaea0c95","system_id":"levelo_inurba_marseille","lat":43.30433,"lon":5.38894,"is_reserved":false,"is_disabled":false,"rental_uris":{"android":"levelo://app?vid=dd04ae28-a53e-4f31-8f88-941deaea0c95","ios":"levelo://app?vid=dd04ae28-a53e-4f31-8f88-941deaea0c95"},"vehicle_type_id":"4","last_reported":1719601588,"current_range_meters":4800,"station_id":"ce4bgk12rcd13ifvqbi0","pricing_plan_id":"cebpf4jnsgd1na2vs0mg"},{"bike_id":"09770349-8a13-48c7-a70c-f8351c801b69","system_id":"levelo_inurba_marseille","lat":43.298037,"lon":5.381066,"is_reserved":false,"is_disabled":false,"rental_uris":{"android":"levelo://app?vid=09770349-8a13-48c7-a70c-f8351c801b69","ios":"levelo://app?vid=09770349-8a13-48c7-a70c-f8351c801b69"},"vehicle_type_id":"4","last_reported":1719601588,"current_range_meters":0,"station_id":"ce4bgip2rcd13ifvqbb0","pricing_plan_id":"cebpf4jnsgd1na2vs0mg"},{"bike_id":"6cde2ff7-03b1-455a-bc86-9011b0d7f331","system_id":"levelo_inurba_marseille","lat":43.296277,"lon":5.377108,"is_reserved":false,"is_disabled":false,"rental_uris":{"android":"levelo://app?vid=6cde2ff7-03b1-455a-bc86-9011b0d7f331","ios":"levelo://app?vid=6cde2ff7-03b1-455a-bc86-9011b0d7f331"},"vehicle_type_id":"4","last_reported":1719601588,"current_range_meters":0,"station_id":"ce4bgi92rcd13ifvqb90","pricing_plan_id":"cebpf4jnsgd1na2vs0mg"},{"bike_id":"8332d49f-ebf7-429e-bf3e-c87dada8745c","system_id":"levelo_inurba_marseille","lat":43.296263,"lon":5.377094,"is_reserved":false,"is_disabled":false,"rental_uris":{"android":"levelo://app?vid=8332d49f-ebf7-429e-bf3e-c87dada8745c","ios":"levelo://app?vid=8332d49f-ebf7-429e-bf3e-c87dada8745c"},"vehicle_type_id":"4","last_reported":1719601588,"current_range_meters":8400,"station_id":"ce4bgi92rcd13ifvqb90","pricing_plan_id":"cebpf4jnsgd1na2vs0mg"},{"bike_id":"3015dca9-8070-4658-a8b4-5dfa63cb1d5a","system_id":"levelo_inurba_marseille","lat":43.2954,"lon":5.37511,"is_reserved":false,"is_disabled":false,"rental_uris":{"android":"levelo://app?vid=3015dca9-8070-4658-a8b4-5dfa63cb1d5a","ios":"levelo://app?vid=3015dca9-8070-4658-a8b4-5dfa63cb1d5a"},"vehicle_type_id":"4","last_reported":1719601588,"current_range_meters":14800,"station_id":"ce4bgkp2rcd13ifvqbmg","pricing_plan_id":"cebpf4jnsgd1na2vs0mg"},{"bike_id":"fa5ff2a3-be7f-4bc9-b183-181939083bdf","system_id":"levelo_inurba_marseille","lat":43.295279,"lon":5.375048,"is_reserved":false,"is_disabled":false,"rental_uris":{"android":"levelo://app?vid=fa5ff2a3-be7f-4bc9-b183-181939083bdf","ios":"levelo://app?vid=fa5ff2a3-be7f-4bc9-b183-181939083bdf"},"vehicle_type_id":"4","last_reported":1719601588,"current_range_meters":8800,"station_id":"ce4bgkp2rcd13ifvqbmg","pricing_plan_id":"cebpf4jnsgd1na2vs0mg"},{"bike_id":"70069309-d367-44a6-87ad-52de8d8a8e3f","system_id":"levelo_inurba_marseille","lat":43.295279,"lon":5.375048,"is_reserved":false,"is_disabled":false,"rental_uris":{"android":"levelo://app?vid=70069309-d367-44a6-87ad-52de8d8a8e3f","ios":"levelo://app?vid=70069309-d367-44a6-87ad-52de8d8a8e3f"},"vehicle_type_id":"4","last_reported":1719601588,"current_range_meters":0,"station_id":"ce4bgkp2rcd13ifvqbmg","pricing_plan_id":"cebpf4jnsgd1na2vs0mg"},{"bike_id":"66a968c1-9301-4cf8-970b-ac2af3d1d185","system_id":"levelo_inurba_marseille","lat":43.299717,"lon":5.384845,"is_reserved":false,"is_disabled":false,"rental_uris":{"android":"levelo://app?vid=66a968c1-9301-4cf8-970b-ac2af3d1d185","ios":"levelo://app?vid=66a968c1-9301-4cf8-970b-ac2af3d1d185"},"vehicle_type_id":"4","last_reported":1719601588,"current_range_meters":30400,"station_id":"ce4bgj92rcd13ifvqbd0","pricing_plan_id":"cebpf4jnsgd1na2vs0mg"},{"bike_id":"bf748d08-f20d-4a6c-9100-07d01c8ce197","system_id":"levelo_inurba_marseille","lat":43.295279,"lon":5.375048,"is_reserved":false,"is_disabled":false,"rental_uris":{"android":"levelo://app?vid=bf748d08-f20d-4a6c-9100-07d01c8ce197","ios":"levelo://app?vid=bf748d08-f20d-4a6c-9100-07d01c8ce197"},"vehicle_type_id":"4","last_reported":1719601588,"current_range_meters":17600,"station_id":"ce4bgkp2rcd13ifvqbmg","pricing_plan_id":"cebpf4jnsgd1na2vs0mg"},{"bike_id":"c5315f0e-0411-47cf-8300-d035cdf83d37","system_id":"levelo_inurba_marseille","lat":43.299707,"lon":5.384859,"is_reserved":false,"is_disabled":false,"rental_uris":{"android":"levelo://app?vid=c5315f0e-0411-47cf-8300-d035cdf83d37","ios":"levelo://app?vid=c5315f0e-0411-47cf-8300-d035cdf83d37"},"vehicle_type_id":"4","last_reported":1719601588,"current_range_meters":14800,"station_id":"ce4bgj92rcd13ifvqbd0","pricing_plan_id":"cebpf4jnsgd1na2vs0mg"},{"bike_id":"af06680a-f2c9-4b5c-9e11-dcbfeff60249","system_id":"levelo_inurba_marseille","lat":43.298037,"lon":5.381066,"is_reserved":false,"is_disabled":false,"rental_uris":{"android":"levelo://app?vid=af06680a-f2c9-4b5c-9e11-dcbfeff60249","ios":"levelo://app?vid=af06680a-f2c9-4b5c-9e11-dcbfeff60249"},"vehicle_type_id":"4","last_reported":1719601588,"current_range_meters":8800,"station_id":"ce4bgip2rcd13ifvqbb0","pricing_plan_id":"cebpf4jnsgd1na2vs0mg"},{"bike_id":"2dd8bf78-a152-4301-80f5-2db69644810f","system_id":"levelo_inurba_marseille","lat":43.299717,"lon":5.384845,"is_reserved":false,"is_disabled":false,"rental_uris":{"android":"levelo://app?vid=2dd8bf78-a152-4301-80f5-2db69644810f","ios":"levelo://app?vid=2dd8bf78-a152-4301-80f5-2db69644810f"},"vehicle_type_id":"4","last_reported":1719601588,"current_range_meters":12800,"station_id":"ce4bgj92rcd13ifvqbd0","pricing_plan_id":"cebpf4jnsgd1na2vs0mg"},{"bike_id":"685cea5f-cf96-4b91-88a9-3f2c5a49c2c3","system_id":"levelo_inurba_marseille","lat":43.299724,"lon":5.384848,"is_reserved":false,"is_disabled":false,"rental_uris":{"android":"levelo://app?vid=685cea5f-cf96-4b91-88a9-3f2c5a49c2c3","ios":"levelo://app?vid=685cea5f-cf96-4b91-88a9-3f2c5a49c2c3"},"vehicle_type_id":"4","last_reported":1719601588,"current_range_meters":30000,"station_id":"ce4bgj92rcd13ifvqbd0","pricing_plan_id":"cebpf4jnsgd1na2vs0mg"},{"bike_id":"5dc4c799-eb2c-4cb0-a2d6-00390c1f1916","system_id":"levelo_inurba_marseille","lat":43.299724,"lon":5.384848,"is_reserved":false,"is_disabled":false,"rental_uris":{"android":"levelo://app?vid=5dc4c799-eb2c-4cb0-a2d6-00390c1f1916","ios":"levelo://app?vid=5dc4c799-eb2c-4cb0-a2d6-00390c1f1916"},"vehicle_type_id":"4","last_reported":1719601588,"current_range_meters":26400,"station_id":"ce4bgj92rcd13ifvqbd0","pricing_plan_id":"cebpf4jnsgd1na2vs0mg"},{"bike_id":"24cde4a7-1b80-462c-afdc-970cf5c028f0","system_id":"levelo_inurba_marseille","lat":43.295279,"lon":5.375048,"is_reserved":false,"is_disabled":false,"rental_uris":{"android":"levelo://app?vid=24cde4a7-1b80-462c-afdc-970cf5c028f0","ios":"levelo://app?vid=24cde4a7-1b80-462c-afdc-970cf5c028f0"},"vehicle_type_id":"4","last_reported":1719601588,"current_range_meters":4800,"station_id":"ce4bgkp2rcd13ifvqbmg","pricing_plan_id":"cebpf4jnsgd1na2vs0mg"},{"bike_id":"70e262e6-3d67-47c0-bc08-0dae327019f5","system_id":"levelo_inurba_marseille","lat":43.32364,"lon":5.3888,"is_reserved":false,"is_disabled":false,"rental_uris":{"android":"levelo://app?vid=70e262e6-3d67-47c0-bc08-0dae327019f5","ios":"levelo://app?vid=70e262e6-3d67-47c0-bc08-0dae327019f5"},"vehicle_type_id":"4","last_reported":1719601588,"current_range_meters":0,"station_id":"ce4bhqp2rcd13ifvqhog","pricing_plan_id":"cebpf4jnsgd1na2vs0mg"},{"bike_id":"c3aa4412-d590-4c4a-9a06-6b2d9964ff89","system_id":"levelo_inurba_marseille","lat":43.32367,"lon":5.388836,"is_reserved":false,"is_disabled":false,"rental_uris":{"android":"levelo://app?vid=c3aa4412-d590-4c4a-9a06-6b2d9964ff89","ios":"levelo://app?vid=c3aa4412-d590-4c4a-9a06-6b2d9964ff89"},"vehicle_type_id":"4","last_reported":1719601588,"current_range_meters":13600,"station_id":"ce4bhqp2rcd13ifvqhog","pricing_plan_id":"cebpf4jnsgd1na2vs0mg"},{"bike_id":"ece3aa2c-5197-4895-929e-5f7730c6b7dd","system_id":"levelo_inurba_marseille","lat":43.32367,"lon":5.3888,"is_reserved":false,"is_disabled":false,"rental_uris":{"android":"levelo://app?vid=ece3aa2c-5197-4895-929e-5f7730c6b7dd","ios":"levelo://app?vid=ece3aa2c-5197-4895-929e-5f7730c6b7dd"},"vehicle_type_id":"4","last_reported":1719601588,"current_range_meters":10800,"station_id":"ce4bhqp2rcd13ifvqhog","pricing_plan_id":"cebpf4jnsgd1na2vs0mg"},{"bike_id":"2f1ae355-9d05-433c-8173-6ca4ee231922","system_id":"levelo_inurba_marseille","lat":43.32367,"lon":5.388836,"is_reserved":false,"is_disabled":false,"rental_uris":{"android":"levelo://app?vid=2f1ae355-9d05-433c-8173-6ca4ee231922","ios":"levelo://app?vid=2f1ae355-9d05-433c-8173-6ca4ee231922"},"vehicle_type_id":"4","last_reported":1719601588,"current_range_meters":0,"station_id":"ce4bhqp2rcd13ifvqhog","pricing_plan_id":"cebpf4jnsgd1na2vs0mg"},{"bike_id":"0f7fc794-c632-44fc-a763-71aa8dff4862","system_id":"levelo_inurba_marseille","lat":43.32363,"lon":5.38886,"is_reserved":false,"is_disabled":false,"rental_uris":{"android":"levelo://app?vid=0f7fc794-c632-44fc-a763-71aa8dff4862","ios":"levelo://app?vid=0f7fc794-c632-44fc-a763-71aa8dff4862"},"vehicle_type_id":"4","last_reported":1719601588,"current_range_meters":0,"station_id":"ce4bhqp2rcd13ifvqhog","pricing_plan_id":"cebpf4jnsgd1na2vs0mg"},{"bike_id":"563afa43-9a29-4fd9-a47f-6ab0cadd2197","system_id":"levelo_inurba_marseille","lat":43.32367,"lon":5.388836,"is_reserved":false,"is_disabled":false,"rental_uris":{"android":"levelo://app?vid=563afa43-9a29-4fd9-a47f-6ab0cadd2197","ios":"levelo://app?vid=563afa43-9a29-4fd9-a47f-6ab0cadd2197"},"vehicle_type_id":"4","last_reported":1719601588,"current_range_meters":26400,"station_id":"ce4bhqp2rcd13ifvqhog","pricing_plan_id":"cebpf4jnsgd1na2vs0mg"},{"bike_id":"8715ddd6-f15f-4198-b632-936ccfe4ef90","system_id":"levelo_inurba_marseille","lat":43.32367,"lon":5.388836,"is_reserved":false,"is_disabled":false,"rental_uris":{"android":"levelo://app?vid=8715ddd6-f15f-4198-b632-936ccfe4ef90","ios":"levelo://app?vid=8715ddd6-f15f-4198-b632-936ccfe4ef90"},"vehicle_type_id":"4","last_reported":1719601588,"current_range_meters":20400,"station_id":"ce4bhqp2rcd13ifvqhog","pricing_plan_id":"cebpf4jnsgd1na2vs0mg"},{"bike_id":"3e873374-b903-4495-a4d1-181c0f754803","system_id":"levelo_inurba_marseille","lat":43.29602,"lon":5.381084,"is_reserved":false,"is_disabled":false,"rental_uris":{"android":"levelo://app?vid=3e873374-b903-4495-a4d1-181c0f754803","ios":"levelo://app?vid=3e873374-b903-4495-a4d1-181c0f754803"},"vehicle_type_id":"4","last_reported":1719601588,"current_range_meters":400,"station_id":"ce4bgl12rcd13ifvqbo0","pricing_plan_id":"cebpf4jnsgd1na2vs0mg"},{"bike_id":"64bc473a-d393-4ff0-884a-c174c931410a","system_id":"levelo_inurba_marseille","lat":43.29602,"lon":5.381084,"is_reserved":false,"is_disabled":false,"rental_uris":{"android":"levelo://app?vid=64bc473a-d393-4ff0-884a-c174c931410a","ios":"levelo://app?vid=64bc473a-d393-4ff0-884a-c174c931410a"},"vehicle_type_id":"4","last_reported":1719601588,"current_range_meters":12400,"station_id":"ce4bgl12rcd13ifvqbo0","pricing_plan_id":"cebpf4jnsgd1na2vs0mg"},{"bike_id":"e2482e88-fe17-46ce-acd6-fc8c55f77599","system_id":"levelo_inurba_marseille","lat":43.29602,"lon":5.381084,"is_reserved":false,"is_disabled":false,"rental_uris":{"android":"levelo://app?vid=e2482e88-fe17-46ce-acd6-fc8c55f77599","ios":"levelo://app?vid=e2482e88-fe17-46ce-acd6-fc8c55f77599"},"vehicle_type_id":"4","last_reported":1719601588,"current_range_meters":4400,"station_id":"ce4bgl12rcd13ifvqbo0","pricing_plan_id":"cebpf4jnsgd1na2vs0mg"},{"bike_id":"437209c4-743b-4bcf-90a4-a3cc46a64251","system_id":"levelo_inurba_marseille","lat":43.29602,"lon":5.381084,"is_reserved":false,"is_disabled":false,"rental_uris":{"android":"levelo://app?vid=437209c4-743b-4bcf-90a4-a3cc46a64251","ios":"levelo://app?vid=437209c4-743b-4bcf-90a4-a3cc46a64251"},"vehicle_type_id":"4","last_reported":1719601588,"current_range_meters":0,"station_id":"ce4bgl12rcd13ifvqbo0","pricing_plan_id":"cebpf4jnsgd1na2vs0mg"},{"bike_id":"22b79045-9ab3-4ce3-a1e8-048c7596b059","system_id":"levelo_inurba_marseille","lat":43.29602,"lon":5.381084,"is_reserved":false,"is_disabled":false,"rental_uris":{"android":"levelo://app?vid=22b79045-9ab3-4ce3-a1e8-048c7596b059","ios":"levelo://app?vid=22b79045-9ab3-4ce3-a1e8-048c7596b059"},"vehicle_type_id":"4","last_reported":1719601588,"current_range_meters":18800,"station_id":"ce4bgl12rcd13ifvqbo0","pricing_plan_id":"cebpf4jnsgd1na2vs0mg"},{"bike_id":"450856a4-3df5-4d75-ad9c-241e8bd8325e","system_id":"levelo_inurba_marseille","lat":43.29597,"lon":5.38096,"is_reserved":false,"is_disabled":false,"rental_uris":{"android":"levelo://app?vid=450856a4-3df5-4d75-ad9c-241e8bd8325e","ios":"levelo://app?vid=450856a4-3df5-4d75-ad9c-241e8bd8325e"},"vehicle_type_id":"4","last_reported":1719601588,"current_range_meters":4000,"station_id":"ce4bgl12rcd13ifvqbo0","pricing_plan_id":"cebpf4jnsgd1na2vs0mg"},{"bike_id":"1ea7a193-364a-4b62-a45a-3b2e5a60502e","system_id":"levelo_inurba_marseille","lat":43.29602,"lon":5.381084,"is_reserved":false,"is_disabled":false,"rental_uris":{"android":"levelo://app?vid=1ea7a193-364a-4b62-a45a-3b2e5a60502e","ios":"levelo://app?vid=1ea7a193-364a-4b62-a45a-3b2e5a60502e"},"vehicle_type_id":"4","last_reported":1719601588,"current_range_meters":26800,"station_id":"ce4bgl12rcd13ifvqbo0","pricing_plan_id":"cebpf4jnsgd1na2vs0mg"},{"bike_id":"f1bd2a81-5881-4f87-9ab2-5f603137d9b9","system_id":"levelo_inurba_marseille","lat":43.29602,"lon":5.381084,"is_reserved":false,"is_disabled":false,"rental_uris":{"android":"levelo://app?vid=f1bd2a81-5881-4f87-9ab2-5f603137d9b9","ios":"levelo://app?vid=f1bd2a81-5881-4f87-9ab2-5f603137d9b9"},"vehicle_type_id":"4","last_reported":1719601588,"current_range_meters":13600,"station_id":"ce4bgl12rcd13ifvqbo0","pricing_plan_id":"cebpf4jnsgd1na2vs0mg"},{"bike_id":"9ab5ace0-8017-4962-bfbe-7f25ecb9ed31","system_id":"levelo_inurba_marseille","lat":43.292749,"lon":5.368402,"is_reserved":false,"is_disabled":false,"rental_uris":{"android":"levelo://app?vid=9ab5ace0-8017-4962-bfbe-7f25ecb9ed31","ios":"levelo://app?vid=9ab5ace0-8017-4962-bfbe-7f25ecb9ed31"},"vehicle_type_id":"4","last_reported":1719601588,"current_range_meters":25600,"station_id":"ce4bhbp2rcd13ifvqesg","pricing_plan_id":"cebpf4jnsgd1na2vs0mg"},{"bike_id":"186e61b2-857f-4a8d-9a29-dc96c0d5abf7","system_id":"levelo_inurba_marseille","lat":43.292749,"lon":5.368402,"is_reserved":false,"is_disabled":false,"rental_uris":{"android":"levelo://app?vid=186e61b2-857f-4a8d-9a29-dc96c0d5abf7","ios":"levelo://app?vid=186e61b2-857f-4a8d-9a29-dc96c0d5abf7"},"vehicle_type_id":"4","last_reported":1719601588,"current_range_meters":26800,"station_id":"ce4bhbp2rcd13ifvqesg","pricing_plan_id":"cebpf4jnsgd1na2vs0mg"},{"bike_id":"b2fa6556-a076-4639-a4e3-451ca33f4d32","system_id":"levelo_inurba_marseille","lat":43.29274,"lon":5.36838,"is_reserved":false,"is_disabled":false,"rental_uris":{"android":"levelo://app?vid=b2fa6556-a076-4639-a4e3-451ca33f4d32","ios":"levelo://app?vid=b2fa6556-a076-4639-a4e3-451ca33f4d32"},"vehicle_type_id":"4","last_reported":1719601588,"current_range_meters":0,"station_id":"ce4bhbp2rcd13ifvqesg","pricing_plan_id":"cebpf4jnsgd1na2vs0mg"},{"bike_id":"220a3936-4cdc-4439-beb2-dddb9ecef107","system_id":"levelo_inurba_marseille","lat":43.292749,"lon":5.368402,"is_reserved":false,"is_disabled":false,"rental_uris":{"android":"levelo://app?vid=220a3936-4cdc-4439-beb2-dddb9ecef107","ios":"levelo://app?vid=220a3936-4cdc-4439-beb2-dddb9ecef107"},"vehicle_type_id":"4","last_reported":1719601588,"current_range_meters":11600,"station_id":"ce4bhbp2rcd13ifvqesg","pricing_plan_id":"cebpf4jnsgd1na2vs0mg"},{"bike_id":"71eb93af-1a6b-4926-8d22-9b849f7ecd3d","system_id":"levelo_inurba_marseille","lat":43.29273,"lon":5.36841,"is_reserved":false,"is_disabled":false,"rental_uris":{"android":"levelo://app?vid=71eb93af-1a6b-4926-8d22-9b849f7ecd3d","ios":"levelo://app?vid=71eb93af-1a6b-4926-8d22-9b849f7ecd3d"},"vehicle_type_id":"4","last_reported":1719601588,"current_range_meters":22400,"station_id":"ce4bhbp2rcd13ifvqesg","pricing_plan_id":"cebpf4jnsgd1na2vs0mg"},{"bike_id":"d6a5f232-4d7a-449d-b46c-afcff1acaa40","system_id":"levelo_inurba_marseille","lat":43.292749,"lon":5.368402,"is_reserved":false,"is_disabled":false,"rental_uris":{"android":"levelo://app?vid=d6a5f232-4d7a-449d-b46c-afcff1acaa40","ios":"levelo://app?vid=d6a5f232-4d7a-449d-b46c-afcff1acaa40"},"vehicle_type_id":"4","last_reported":1719601588,"current_range_meters":23200,"station_id":"ce4bhbp2rcd13ifvqesg","pricing_plan_id":"cebpf4jnsgd1na2vs0mg"},{"bike_id":"6a7c0574-59a0-4aae-a38c-39b72095486d","system_id":"levelo_inurba_marseille","lat":43.29269,"lon":5.36844,"is_reserved":false,"is_disabled":false,"rental_uris":{"android":"levelo://app?vid=6a7c0574-59a0-4aae-a38c-39b72095486d","ios":"levelo://app?vid=6a7c0574-59a0-4aae-a38c-39b72095486d"},"vehicle_type_id":"4","last_reported":1719601588,"current_range_meters":31200,"station_id":"ce4bhbp2rcd13ifvqesg","pricing_plan_id":"cebpf4jnsgd1na2vs0mg"},{"bike_id":"b0f1d425-dece-4035-b892-13372c34f7af","system_id":"levelo_inurba_marseille","lat":43.2945,"lon":5.379295,"is_reserved":false,"is_disabled":false,"rental_uris":{"android":"levelo://app?vid=b0f1d425-dece-4035-b892-13372c34f7af","ios":"levelo://app?vid=b0f1d425-dece-4035-b892-13372c34f7af"},"vehicle_type_id":"4","last_reported":1719601588,"current_range_meters":6800,"station_id":"","pricing_plan_id":"cebpf4jnsgd1na2vs0mg"},{"bike_id":"d0011788-a64d-4e8b-8b19-3e037d574ea4","system_id":"levelo_inurba_marseille","lat":43.293009,"lon":5.374584,"is_reserved":false,"is_disabled":false,"rental_uris":{"android":"levelo://app?vid=d0011788-a64d-4e8b-8b19-3e037d574ea4","ios":"levelo://app?vid=d0011788-a64d-4e8b-8b19-3e037d574ea4"},"vehicle_type_id":"4","last_reported":1719601588,"current_range_meters":18000,"station_id":"ce4bgi12rcd13ifvqb70","pricing_plan_id":"cebpf4jnsgd1na2vs0mg"},{"bike_id":"044c907f-38d9-42b6-98cc-6fefba2dafbc","system_id":"levelo_inurba_marseille","lat":43.293009,"lon":5.374584,"is_reserved":false,"is_disabled":false,"rental_uris":{"android":"levelo://app?vid=044c907f-38d9-42b6-98cc-6fefba2dafbc","ios":"levelo://app?vid=044c907f-38d9-42b6-98cc-6fefba2dafbc"},"vehicle_type_id":"4","last_reported":1719601588,"current_range_meters":13600,"station_id":"ce4bgi12rcd13ifvqb70","pricing_plan_id":"cebpf4jnsgd1na2vs0mg"},{"bike_id":"7bae2942-d9f2-49ab-8e29-62cdb50d6361","system_id":"levelo_inurba_marseille","lat":43.29298,"lon":5.374659,"is_reserved":false,"is_disabled":false,"rental_uris":{"android":"levelo://app?vid=7bae2942-d9f2-49ab-8e29-62cdb50d6361","ios":"levelo://app?vid=7bae2942-d9f2-49ab-8e29-62cdb50d6361"},"vehicle_type_id":"4","last_reported":1719601588,"current_range_meters":13600,"station_id":"ce4bgi12rcd13ifvqb70","pricing_plan_id":"cebpf4jnsgd1na2vs0mg"},{"bike_id":"c9694037-d628-4462-b967-9310c013fe90","system_id":"levelo_inurba_marseille","lat":43.2936,"lon":5.37835,"is_reserved":false,"is_disabled":false,"rental_uris":{"android":"levelo://app?vid=c9694037-d628-4462-b967-9310c013fe90","ios":"levelo://app?vid=c9694037-d628-4462-b967-9310c013fe90"},"vehicle_type_id":"4","last_reported":1719601588,"current_range_meters":12400,"station_id":"ce4bgjh2rcd13ifvqbf0","pricing_plan_id":"cebpf4jnsgd1na2vs0mg"},{"bike_id":"458825e2-6693-4299-ae07-16fb7865f614","system_id":"levelo_inurba_marseille","lat":43.303002,"lon":5.392142,"is_reserved":false,"is_disabled":false,"rental_uris":{"android":"levelo://app?vid=458825e2-6693-4299-ae07-16fb7865f614","ios":"levelo://app?vid=458825e2-6693-4299-ae07-16fb7865f614"},"vehicle_type_id":"4","last_reported":1719601588,"current_range_meters":0,"station_id":"ce4bgkh2rcd13ifvqbk0","pricing_plan_id":"cebpf4jnsgd1na2vs0mg"},{"bike_id":"dd711e6d-21f7-40a6-b459-1764c2d618c0","system_id":"levelo_inurba_marseille","lat":43.2937,"lon":5.37835,"is_reserved":false,"is_disabled":false,"rental_uris":{"android":"levelo://app?vid=dd711e6d-21f7-40a6-b459-1764c2d618c0","ios":"levelo://app?vid=dd711e6d-21f7-40a6-b459-1764c2d618c0"},"vehicle_type_id":"4","last_reported":1719601588,"current_range_meters":0,"station_id":"ce4bgjh2rcd13ifvqbf0","pricing_plan_id":"cebpf4jnsgd1na2vs0mg"},{"bike_id":"314287f3-4499-4d76-97af-777bc1c56ab4","system_id":"levelo_inurba_marseille","lat":43.2936,"lon":5.37835,"is_reserved":false,"is_disabled":false,"rental_uris":{"android":"levelo://app?vid=314287f3-4499-4d76-97af-777bc1c56ab4","ios":"levelo://app?vid=314287f3-4499-4d76-97af-777bc1c56ab4"},"vehicle_type_id":"4","last_reported":1719601588,"current_range_meters":12400,"station_id":"ce4bgjh2rcd13ifvqbf0","pricing_plan_id":"cebpf4jnsgd1na2vs0mg"},{"bike_id":"78dbc9a3-afb8-455d-82f5-deb9e61e6db0","system_id":"levelo_inurba_marseille","lat":43.302992,"lon":5.392136,"is_reserved":false,"is_disabled":false,"rental_uris":{"android":"levelo://app?vid=78dbc9a3-afb8-455d-82f5-deb9e61e6db0","ios":"levelo://app?vid=78dbc9a3-afb8-455d-82f5-deb9e61e6db0"},"vehicle_type_id":"4","last_reported":1719601588,"current_range_meters":23600,"station_id":"ce4bgkh2rcd13ifvqbk0","pricing_plan_id":"cebpf4jnsgd1na2vs0mg"},{"bike_id":"6ae0502f-97b8-46e1-82d6-d85d442d5f93","system_id":"levelo_inurba_marseille","lat":43.2936,"lon":5.37835,"is_reserved":false,"is_disabled":false,"rental_uris":{"android":"levelo://app?vid=6ae0502f-97b8-46e1-82d6-d85d442d5f93","ios":"levelo://app?vid=6ae0502f-97b8-46e1-82d6-d85d442d5f93"},"vehicle_type_id":"4","last_reported":1719601588,"current_range_meters":11200,"station_id":"ce4bgjh2rcd13ifvqbf0","pricing_plan_id":"cebpf4jnsgd1na2vs0mg"},{"bike_id":"f2ce3471-30a7-48bc-8a7b-2de677a5c6cb","system_id":"levelo_inurba_marseille","lat":43.2936,"lon":5.37835,"is_reserved":false,"is_disabled":false,"rental_uris":{"android":"levelo://app?vid=f2ce3471-30a7-48bc-8a7b-2de677a5c6cb","ios":"levelo://app?vid=f2ce3471-30a7-48bc-8a7b-2de677a5c6cb"},"vehicle_type_id":"4","last_reported":1719601588,"current_range_meters":12000,"station_id":"ce4bgjh2rcd13ifvqbf0","pricing_plan_id":"cebpf4jnsgd1na2vs0mg"},{"bike_id":"22e6c298-22c3-4e4b-88e2-71ec581d9f23","system_id":"levelo_inurba_marseille","lat":43.2936,"lon":5.37835,"is_reserved":false,"is_disabled":false,"rental_uris":{"android":"levelo://app?vid=22e6c298-22c3-4e4b-88e2-71ec581d9f23","ios":"levelo://app?vid=22e6c298-22c3-4e4b-88e2-71ec581d9f23"},"vehicle_type_id":"4","last_reported":1719601588,"current_range_meters":6000,"station_id":"ce4bgjh2rcd13ifvqbf0","pricing_plan_id":"cebpf4jnsgd1na2vs0mg"},{"bike_id":"21ac0fb2-0842-47f1-90db-de6791173669","system_id":"levelo_inurba_marseille","lat":43.29237,"lon":5.36057,"is_reserved":false,"is_disabled":false,"rental_uris":{"android":"levelo://app?vid=21ac0fb2-0842-47f1-90db-de6791173669","ios":"levelo://app?vid=21ac0fb2-0842-47f1-90db-de6791173669"},"vehicle_type_id":"4","last_reported":1719601588,"current_range_meters":18800,"station_id":"ce4bhbh2rcd13ifvqeqg","pricing_plan_id":"cebpf4jnsgd1na2vs0mg"},{"bike_id":"2db446f1-8f46-4c36-9539-ec9070501fad","system_id":"levelo_inurba_marseille","lat":43.2923,"lon":5.3607,"is_reserved":false,"is_disabled":false,"rental_uris":{"android":"levelo://app?vid=2db446f1-8f46-4c36-9539-ec9070501fad","ios":"levelo://app?vid=2db446f1-8f46-4c36-9539-ec9070501fad"},"vehicle_type_id":"4","last_reported":1719601588,"current_range_meters":26000,"station_id":"ce4bhbh2rcd13ifvqeqg","pricing_plan_id":"cebpf4jnsgd1na2vs0mg"},{"bike_id":"982af81c-9d67-460a-b916-1dca4d6de0c3","system_id":"levelo_inurba_marseille","lat":43.29228,"lon":5.36071,"is_reserved":false,"is_disabled":false,"rental_uris":{"android":"levelo://app?vid=982af81c-9d67-460a-b916-1dca4d6de0c3","ios":"levelo://app?vid=982af81c-9d67-460a-b916-1dca4d6de0c3"},"vehicle_type_id":"4","last_reported":1719601588,"current_range_meters":6800,"station_id":"ce4bhbh2rcd13ifvqeqg","pricing_plan_id":"cebpf4jnsgd1na2vs0mg"},{"bike_id":"9c8c2cf9-848c-48f1-ab2f-ff5732c753cb","system_id":"levelo_inurba_marseille","lat":43.30087,"lon":5.39069,"is_reserved":false,"is_disabled":false,"rental_uris":{"android":"levelo://app?vid=9c8c2cf9-848c-48f1-ab2f-ff5732c753cb","ios":"levelo://app?vid=9c8c2cf9-848c-48f1-ab2f-ff5732c753cb"},"vehicle_type_id":"4","last_reported":1719601588,"current_range_meters":15200,"station_id":"ce4bh192rcd13ifvqdb0","pricing_plan_id":"cebpf4jnsgd1na2vs0mg"},{"bike_id":"535d8688-fbe3-4d5d-9f59-0df4d3e9e0d9","system_id":"levelo_inurba_marseille","lat":43.30088,"lon":5.3907,"is_reserved":false,"is_disabled":false,"rental_uris":{"android":"levelo://app?vid=535d8688-fbe3-4d5d-9f59-0df4d3e9e0d9","ios":"levelo://app?vid=535d8688-fbe3-4d5d-9f59-0df4d3e9e0d9"},"vehicle_type_id":"4","last_reported":1719601588,"current_range_meters":5200,"station_id":"ce4bh192rcd13ifvqdb0","pricing_plan_id":"cebpf4jnsgd1na2vs0mg"},{"bike_id":"a50effba-e9c2-4a1f-8540-9b5b3afa2425","system_id":"levelo_inurba_marseille","lat":43.292311,"lon":5.360731,"is_reserved":false,"is_disabled":false,"rental_uris":{"android":"levelo://app?vid=a50effba-e9c2-4a1f-8540-9b5b3afa2425","ios":"levelo://app?vid=a50effba-e9c2-4a1f-8540-9b5b3afa2425"},"vehicle_type_id":"4","last_reported":1719601588,"current_range_meters":16000,"station_id":"ce4bhbh2rcd13ifvqeqg","pricing_plan_id":"cebpf4jnsgd1na2vs0mg"},{"bike_id":"b298007b-988f-4d7a-b805-1f3a3a3a1e47","system_id":"levelo_inurba_marseille","lat":43.30081,"lon":5.39067,"is_reserved":false,"is_disabled":false,"rental_uris":{"android":"levelo://app?vid=b298007b-988f-4d7a-b805-1f3a3a3a1e47","ios":"levelo://app?vid=b298007b-988f-4d7a-b805-1f3a3a3a1e47"},"vehicle_type_id":"4","last_reported":1719601588,"current_range_meters":22000,"station_id":"ce4bh192rcd13ifvqdb0","pricing_plan_id":"cebpf4jnsgd1na2vs0mg"},{"bike_id":"7b6eb14f-b92f-46af-ade9-89ffb829857f","system_id":"levelo_inurba_marseille","lat":43.30093,"lon":5.390793,"is_reserved":false,"is_disabled":false,"rental_uris":{"android":"levelo://app?vid=7b6eb14f-b92f-46af-ade9-89ffb829857f","ios":"levelo://app?vid=7b6eb14f-b92f-46af-ade9-89ffb829857f"},"vehicle_type_id":"4","last_reported":1719601588,"current_range_meters":28400,"station_id":"ce4bh192rcd13ifvqdb0","pricing_plan_id":"cebpf4jnsgd1na2vs0mg"},{"bike_id":"ce1bea56-8812-4dd2-862a-29c6bc064397","system_id":"levelo_inurba_marseille","lat":43.30095,"lon":5.39082,"is_reserved":false,"is_disabled":false,"rental_uris":{"android":"levelo://app?vid=ce1bea56-8812-4dd2-862a-29c6bc064397","ios":"levelo://app?vid=ce1bea56-8812-4dd2-862a-29c6bc064397"},"vehicle_type_id":"4","last_reported":1719601588,"current_range_meters":30800,"station_id":"ce4bh192rcd13ifvqdb0","pricing_plan_id":"cebpf4jnsgd1na2vs0mg"},{"bike_id":"cdd87a24-699e-4ded-b14e-072ed5810713","system_id":"levelo_inurba_marseille","lat":43.29222,"lon":5.36062,"is_reserved":false,"is_disabled":false,"rental_uris":{"android":"levelo://app?vid=cdd87a24-699e-4ded-b14e-072ed5810713","ios":"levelo://app?vid=cdd87a24-699e-4ded-b14e-072ed5810713"},"vehicle_type_id":"4","last_reported":1719601588,"current_range_meters":17600,"station_id":"ce4bhbh2rcd13ifvqeqg","pricing_plan_id":"cebpf4jnsgd1na2vs0mg"},{"bike_id":"a4f86fcb-764d-44e1-8796-4d564d782d5f","system_id":"levelo_inurba_marseille","lat":43.30085,"lon":5.390856,"is_reserved":false,"is_disabled":false,"rental_uris":{"android":"levelo://app?vid=a4f86fcb-764d-44e1-8796-4d564d782d5f","ios":"levelo://app?vid=a4f86fcb-764d-44e1-8796-4d564d782d5f"},"vehicle_type_id":"4","last_reported":1719601588,"current_range_meters":20400,"station_id":"ce4bh192rcd13ifvqdb0","pricing_plan_id":"cebpf4jnsgd1na2vs0mg"},{"bike_id":"bbebd549-6731-409c-b3e2-1ab570729a3f","system_id":"levelo_inurba_marseille","lat":43.30083,"lon":5.39078,"is_reserved":false,"is_disabled":false,"rental_uris":{"android":"levelo://app?vid=bbebd549-6731-409c-b3e2-1ab570729a3f","ios":"levelo://app?vid=bbebd549-6731-409c-b3e2-1ab570729a3f"},"vehicle_type_id":"4","last_reported":1719601588,"current_range_meters":31200,"station_id":"ce4bh192rcd13ifvqdb0","pricing_plan_id":"cebpf4jnsgd1na2vs0mg"},{"bike_id":"99ebf746-ff7c-43be-8a0e-0aa91a1b8666","system_id":"levelo_inurba_marseille","lat":43.298764,"lon":5.388973,"is_reserved":false,"is_disabled":false,"rental_uris":{"android":"levelo://app?vid=99ebf746-ff7c-43be-8a0e-0aa91a1b8666","ios":"levelo://app?vid=99ebf746-ff7c-43be-8a0e-0aa91a1b8666"},"vehicle_type_id":"4","last_reported":1719601588,"current_range_meters":4800,"station_id":"ce4bh392rcd13ifvqdl0","pricing_plan_id":"cebpf4jnsgd1na2vs0mg"},{"bike_id":"3296c0ed-266d-44d4-a225-bde1be1b2a49","system_id":"levelo_inurba_marseille","lat":43.291671,"lon":5.371575,"is_reserved":false,"is_disabled":false,"rental_uris":{"android":"levelo://app?vid=3296c0ed-266d-44d4-a225-bde1be1b2a49","ios":"levelo://app?vid=3296c0ed-266d-44d4-a225-bde1be1b2a49"},"vehicle_type_id":"4","last_reported":1719601588,"current_range_meters":0,"station_id":"ce4bha92rcd13ifvqeh0","pricing_plan_id":"cebpf4jnsgd1na2vs0mg"},{"bike_id":"6bdf577a-5224-4310-992d-c3845b808598","system_id":"levelo_inurba_marseille","lat":43.298764,"lon":5.388973,"is_reserved":false,"is_disabled":false,"rental_uris":{"android":"levelo://app?vid=6bdf577a-5224-4310-992d-c3845b808598","ios":"levelo://app?vid=6bdf577a-5224-4310-992d-c3845b808598"},"vehicle_type_id":"4","last_reported":1719601588,"current_range_meters":9600,"station_id":"ce4bh392rcd13ifvqdl0","pricing_plan_id":"cebpf4jnsgd1na2vs0mg"},{"bike_id":"6b237868-db42-48c3-8bac-8efcfef9d2c5","system_id":"levelo_inurba_marseille","lat":43.3088,"lon":5.39623,"is_reserved":false,"is_disabled":false,"rental_uris":{"android":"levelo://app?vid=6b237868-db42-48c3-8bac-8efcfef9d2c5","ios":"levelo://app?vid=6b237868-db42-48c3-8bac-8efcfef9d2c5"},"vehicle_type_id":"4","last_reported":1719601588,"current_range_meters":12000,"station_id":"ce4bh012rcd13ifvqcv0","pricing_plan_id":"cebpf4jnsgd1na2vs0mg"},{"bike_id":"ed212350-a0f1-4a4d-8043-cddf9a4f4f3a","system_id":"levelo_inurba_marseille","lat":43.29198,"lon":5.358,"is_reserved":false,"is_disabled":false,"rental_uris":{"android":"levelo://app?vid=ed212350-a0f1-4a4d-8043-cddf9a4f4f3a","ios":"levelo://app?vid=ed212350-a0f1-4a4d-8043-cddf9a4f4f3a"},"vehicle_type_id":"4","last_reported":1719601588,"current_range_meters":0,"station_id":"ce4bhb12rcd13ifvqel0","pricing_plan_id":"cebpf4jnsgd1na2vs0mg"},{"bike_id":"f8917253-9701-4d77-a5b2-0d0266e65320","system_id":"levelo_inurba_marseille","lat":43.29197,"lon":5.35798,"is_reserved":false,"is_disabled":false,"rental_uris":{"android":"levelo://app?vid=f8917253-9701-4d77-a5b2-0d0266e65320","ios":"levelo://app?vid=f8917253-9701-4d77-a5b2-0d0266e65320"},"vehicle_type_id":"4","last_reported":1719601588,"current_range_meters":3200,"station_id":"ce4bhb12rcd13ifvqel0","pricing_plan_id":"cebpf4jnsgd1na2vs0mg"},{"bike_id":"cee588ed-2a0f-49b2-bff4-9be68cf9fa0e","system_id":"levelo_inurba_marseille","lat":43.309047,"lon":5.396551,"is_reserved":false,"is_disabled":false,"rental_uris":{"android":"levelo://app?vid=cee588ed-2a0f-49b2-bff4-9be68cf9fa0e","ios":"levelo://app?vid=cee588ed-2a0f-49b2-bff4-9be68cf9fa0e"},"vehicle_type_id":"4","last_reported":1719601588,"current_range_meters":16000,"station_id":"ce4bh012rcd13ifvqcv0","pricing_plan_id":"cebpf4jnsgd1na2vs0mg"},{"bike_id":"39207c8d-b989-4c5b-b8b7-f64155c19994","system_id":"levelo_inurba_marseille","lat":43.309047,"lon":5.396551,"is_reserved":false,"is_disabled":false,"rental_uris":{"android":"levelo://app?vid=39207c8d-b989-4c5b-b8b7-f64155c19994","ios":"levelo://app?vid=39207c8d-b989-4c5b-b8b7-f64155c19994"},"vehicle_type_id":"4","last_reported":1719601588,"current_range_meters":9600,"station_id":"ce4bh012rcd13ifvqcv0","pricing_plan_id":"cebpf4jnsgd1na2vs0mg"},{"bike_id":"572df765-a83d-46b7-8afa-dd861be1b86d","system_id":"levelo_inurba_marseille","lat":43.29536,"lon":5.38541,"is_reserved":false,"is_disabled":false,"rental_uris":{"android":"levelo://app?vid=572df765-a83d-46b7-8afa-dd861be1b86d","ios":"levelo://app?vid=572df765-a83d-46b7-8afa-dd861be1b86d"},"vehicle_type_id":"4","last_reported":1719601588,"current_range_meters":31200,"station_id":"ce4bgih2rcd13ifvqba0","pricing_plan_id":"cebpf4jnsgd1na2vs0mg"},{"bike_id":"a3f097f0-2e10-4f6c-bc75-2be2cb0fc819","system_id":"levelo_inurba_marseille","lat":43.29534,"lon":5.38541,"is_reserved":false,"is_disabled":false,"rental_uris":{"android":"levelo://app?vid=a3f097f0-2e10-4f6c-bc75-2be2cb0fc819","ios":"levelo://app?vid=a3f097f0-2e10-4f6c-bc75-2be2cb0fc819"},"vehicle_type_id":"4","last_reported":1719601588,"current_range_meters":12000,"station_id":"ce4bgih2rcd13ifvqba0","pricing_plan_id":"cebpf4jnsgd1na2vs0mg"},{"bike_id":"a17a4f99-9234-4036-97d6-e146d5fd1794","system_id":"levelo_inurba_marseille","lat":43.29529,"lon":5.385581,"is_reserved":false,"is_disabled":false,"rental_uris":{"android":"levelo://app?vid=a17a4f99-9234-4036-97d6-e146d5fd1794","ios":"levelo://app?vid=a17a4f99-9234-4036-97d6-e146d5fd1794"},"vehicle_type_id":"4","last_reported":1719601588,"current_range_meters":11200,"station_id":"ce4bgih2rcd13ifvqba0","pricing_plan_id":"cebpf4jnsgd1na2vs0mg"},{"bike_id":"e931383e-8b09-4d02-9dc9-6341bf2cab67","system_id":"levelo_inurba_marseille","lat":43.29529,"lon":5.385581,"is_reserved":false,"is_disabled":false,"rental_uris":{"android":"levelo://app?vid=e931383e-8b09-4d02-9dc9-6341bf2cab67","ios":"levelo://app?vid=e931383e-8b09-4d02-9dc9-6341bf2cab67"},"vehicle_type_id":"4","last_reported":1719601588,"current_range_meters":9200,"station_id":"ce4bgih2rcd13ifvqba0","pricing_plan_id":"cebpf4jnsgd1na2vs0mg"},{"bike_id":"edee9b81-d143-4728-a189-c632962b6aa7","system_id":"levelo_inurba_marseille","lat":43.29529,"lon":5.385581,"is_reserved":false,"is_disabled":false,"rental_uris":{"android":"levelo://app?vid=edee9b81-d143-4728-a189-c632962b6aa7","ios":"levelo://app?vid=edee9b81-d143-4728-a189-c632962b6aa7"},"vehicle_type_id":"4","last_reported":1719601588,"current_range_meters":31200,"station_id":"ce4bgih2rcd13ifvqba0","pricing_plan_id":"cebpf4jnsgd1na2vs0mg"},{"bike_id":"ec1d062a-2e4b-4475-ae91-571c409a5a96","system_id":"levelo_inurba_marseille","lat":43.29529,"lon":5.385581,"is_reserved":false,"is_disabled":false,"rental_uris":{"android":"levelo://app?vid=ec1d062a-2e4b-4475-ae91-571c409a5a96","ios":"levelo://app?vid=ec1d062a-2e4b-4475-ae91-571c409a5a96"},"vehicle_type_id":"4","last_reported":1719601588,"current_range_meters":26800,"station_id":"ce4bgih2rcd13ifvqba0","pricing_plan_id":"cebpf4jnsgd1na2vs0mg"},{"bike_id":"ee451a23-d9b5-4098-929b-5138903730df","system_id":"levelo_inurba_marseille","lat":43.29529,"lon":5.385581,"is_reserved":false,"is_disabled":false,"rental_uris":{"android":"levelo://app?vid=ee451a23-d9b5-4098-929b-5138903730df","ios":"levelo://app?vid=ee451a23-d9b5-4098-929b-5138903730df"},"vehicle_type_id":"4","last_reported":1719601588,"current_range_meters":6400,"station_id":"ce4bgih2rcd13ifvqba0","pricing_plan_id":"cebpf4jnsgd1na2vs0mg"},{"bike_id":"53930884-d131-4a2c-87b9-b76070251f42","system_id":"levelo_inurba_marseille","lat":43.29529,"lon":5.385581,"is_reserved":false,"is_disabled":false,"rental_uris":{"android":"levelo://app?vid=53930884-d131-4a2c-87b9-b76070251f42","ios":"levelo://app?vid=53930884-d131-4a2c-87b9-b76070251f42"},"vehicle_type_id":"4","last_reported":1719601588,"current_range_meters":0,"station_id":"ce4bgih2rcd13ifvqba0","pricing_plan_id":"cebpf4jnsgd1na2vs0mg"},{"bike_id":"17074326-af98-4551-bda4-7ee7f41dd97a","system_id":"levelo_inurba_marseille","lat":43.29529,"lon":5.385581,"is_reserved":false,"is_disabled":false,"rental_uris":{"android":"levelo://app?vid=17074326-af98-4551-bda4-7ee7f41dd97a","ios":"levelo://app?vid=17074326-af98-4551-bda4-7ee7f41dd97a"},"vehicle_type_id":"4","last_reported":1719601588,"current_range_meters":27200,"station_id":"ce4bgih2rcd13ifvqba0","pricing_plan_id":"cebpf4jnsgd1na2vs0mg"},{"bike_id":"f12d6879-5a70-4cde-ab73-e3d7b013d983","system_id":"levelo_inurba_marseille","lat":43.29529,"lon":5.385581,"is_reserved":false,"is_disabled":false,"rental_uris":{"android":"levelo://app?vid=f12d6879-5a70-4cde-ab73-e3d7b013d983","ios":"levelo://app?vid=f12d6879-5a70-4cde-ab73-e3d7b013d983"},"vehicle_type_id":"4","last_reported":1719601588,"current_range_meters":11600,"station_id":"ce4bgih2rcd13ifvqba0","pricing_plan_id":"cebpf4jnsgd1na2vs0mg"},{"bike_id":"05ab6572-b586-46df-858e-8737097fda69","system_id":"levelo_inurba_marseille","lat":43.29528,"lon":5.3854,"is_reserved":false,"is_disabled":false,"rental_uris":{"android":"levelo://app?vid=05ab6572-b586-46df-858e-8737097fda69","ios":"levelo://app?vid=05ab6572-b586-46df-858e-8737097fda69"},"vehicle_type_id":"4","last_reported":1719601588,"current_range_meters":6400,"station_id":"ce4bgih2rcd13ifvqba0","pricing_plan_id":"cebpf4jnsgd1na2vs0mg"},{"bike_id":"88703ac6-16e7-4757-8628-0a65dce0037b","system_id":"levelo_inurba_marseille","lat":43.29529,"lon":5.385581,"is_reserved":false,"is_disabled":false,"rental_uris":{"android":"levelo://app?vid=88703ac6-16e7-4757-8628-0a65dce0037b","ios":"levelo://app?vid=88703ac6-16e7-4757-8628-0a65dce0037b"},"vehicle_type_id":"4","last_reported":1719601588,"current_range_meters":31600,"station_id":"ce4bgih2rcd13ifvqba0","pricing_plan_id":"cebpf4jnsgd1na2vs0mg"},{"bike_id":"4fe0a57c-14f3-4282-a236-5a255a8d3a6b","system_id":"levelo_inurba_marseille","lat":43.29529,"lon":5.385581,"is_reserved":false,"is_disabled":false,"rental_uris":{"android":"levelo://app?vid=4fe0a57c-14f3-4282-a236-5a255a8d3a6b","ios":"levelo://app?vid=4fe0a57c-14f3-4282-a236-5a255a8d3a6b"},"vehicle_type_id":"4","last_reported":1719601588,"current_range_meters":27600,"station_id":"ce4bgih2rcd13ifvqba0","pricing_plan_id":"cebpf4jnsgd1na2vs0mg"},{"bike_id":"9dd30dce-8d5a-4fca-afe4-8dac5eab52cd","system_id":"levelo_inurba_marseille","lat":43.309038,"lon":5.396546,"is_reserved":false,"is_disabled":false,"rental_uris":{"android":"levelo://app?vid=9dd30dce-8d5a-4fca-afe4-8dac5eab52cd","ios":"levelo://app?vid=9dd30dce-8d5a-4fca-afe4-8dac5eab52cd"},"vehicle_type_id":"4","last_reported":1719601588,"current_range_meters":0,"station_id":"ce4bh012rcd13ifvqcv0","pricing_plan_id":"cebpf4jnsgd1na2vs0mg"},{"bike_id":"6049d612-2079-4355-b5b2-c6bbebd2e5ff","system_id":"levelo_inurba_marseille","lat":43.29529,"lon":5.385581,"is_reserved":false,"is_disabled":false,"rental_uris":{"android":"levelo://app?vid=6049d612-2079-4355-b5b2-c6bbebd2e5ff","ios":"levelo://app?vid=6049d612-2079-4355-b5b2-c6bbebd2e5ff"},"vehicle_type_id":"4","last_reported":1719601588,"current_range_meters":9600,"station_id":"ce4bgih2rcd13ifvqba0","pricing_plan_id":"cebpf4jnsgd1na2vs0mg"},{"bike_id":"caf7497d-0ef7-49bc-b707-8a0749072a43","system_id":"levelo_inurba_marseille","lat":43.29531,"lon":5.38549,"is_reserved":false,"is_disabled":false,"rental_uris":{"android":"levelo://app?vid=caf7497d-0ef7-49bc-b707-8a0749072a43","ios":"levelo://app?vid=caf7497d-0ef7-49bc-b707-8a0749072a43"},"vehicle_type_id":"4","last_reported":1719601588,"current_range_meters":31200,"station_id":"ce4bgih2rcd13ifvqba0","pricing_plan_id":"cebpf4jnsgd1na2vs0mg"},{"bike_id":"fae8c149-fbd0-4a3d-b5c0-92bf5556a3c1","system_id":"levelo_inurba_marseille","lat":43.2953,"lon":5.38551,"is_reserved":false,"is_disabled":false,"rental_uris":{"android":"levelo://app?vid=fae8c149-fbd0-4a3d-b5c0-92bf5556a3c1","ios":"levelo://app?vid=fae8c149-fbd0-4a3d-b5c0-92bf5556a3c1"},"vehicle_type_id":"4","last_reported":1719601588,"current_range_meters":0,"station_id":"ce4bgih2rcd13ifvqba0","pricing_plan_id":"cebpf4jnsgd1na2vs0mg"},{"bike_id":"bc55b59a-6319-4fde-a6b5-96875a16ae73","system_id":"levelo_inurba_marseille","lat":43.29531,"lon":5.38554,"is_reserved":false,"is_disabled":false,"rental_uris":{"android":"levelo://app?vid=bc55b59a-6319-4fde-a6b5-96875a16ae73","ios":"levelo://app?vid=bc55b59a-6319-4fde-a6b5-96875a16ae73"},"vehicle_type_id":"4","last_reported":1719601588,"current_range_meters":26800,"station_id":"ce4bgih2rcd13ifvqba0","pricing_plan_id":"cebpf4jnsgd1na2vs0mg"},{"bike_id":"310a9e75-324b-4b78-a672-f3abc1dcbb2b","system_id":"levelo_inurba_marseille","lat":43.29528,"lon":5.3855,"is_reserved":false,"is_disabled":false,"rental_uris":{"android":"levelo://app?vid=310a9e75-324b-4b78-a672-f3abc1dcbb2b","ios":"levelo://app?vid=310a9e75-324b-4b78-a672-f3abc1dcbb2b"},"vehicle_type_id":"4","last_reported":1719601588,"current_range_meters":8800,"station_id":"ce4bgih2rcd13ifvqba0","pricing_plan_id":"cebpf4jnsgd1na2vs0mg"},{"bike_id":"5ba10145-d5b7-4ad1-b292-414d5f93a436","system_id":"levelo_inurba_marseille","lat":43.29547,"lon":5.3871,"is_reserved":false,"is_disabled":false,"rental_uris":{"android":"levelo://app?vid=5ba10145-d5b7-4ad1-b292-414d5f93a436","ios":"levelo://app?vid=5ba10145-d5b7-4ad1-b292-414d5f93a436"},"vehicle_type_id":"4","last_reported":1719601588,"current_range_meters":5600,"station_id":"","pricing_plan_id":"cebpf4jnsgd1na2vs0mg"},{"bike_id":"e6868d9d-a301-477b-b89d-f43e998ce8fc","system_id":"levelo_inurba_marseille","lat":43.302008,"lon":5.394694,"is_reserved":false,"is_disabled":false,"rental_uris":{"android":"levelo://app?vid=e6868d9d-a301-477b-b89d-f43e998ce8fc","ios":"levelo://app?vid=e6868d9d-a301-477b-b89d-f43e998ce8fc"},"vehicle_type_id":"4","last_reported":1719601588,"current_range_meters":29600,"station_id":"ce4bh0p2rcd13ifvqd70","pricing_plan_id":"cebpf4jnsgd1na2vs0mg"},{"bike_id":"87f60f3e-2b47-4732-aef3-f6a542fd7178","system_id":"levelo_inurba_marseille","lat":43.302008,"lon":5.394694,"is_reserved":false,"is_disabled":false,"rental_uris":{"android":"levelo://app?vid=87f60f3e-2b47-4732-aef3-f6a542fd7178","ios":"levelo://app?vid=87f60f3e-2b47-4732-aef3-f6a542fd7178"},"vehicle_type_id":"4","last_reported":1719601588,"current_range_meters":8000,"station_id":"ce4bh0p2rcd13ifvqd70","pricing_plan_id":"cebpf4jnsgd1na2vs0mg"},{"bike_id":"af7dc902-e40e-4a3e-93c8-7ef838d6fc11","system_id":"levelo_inurba_marseille","lat":43.302008,"lon":5.394694,"is_reserved":false,"is_disabled":false,"rental_uris":{"android":"levelo://app?vid=af7dc902-e40e-4a3e-93c8-7ef838d6fc11","ios":"levelo://app?vid=af7dc902-e40e-4a3e-93c8-7ef838d6fc11"},"vehicle_type_id":"4","last_reported":1719601588,"current_range_meters":7600,"station_id":"ce4bh0p2rcd13ifvqd70","pricing_plan_id":"cebpf4jnsgd1na2vs0mg"},{"bike_id":"ba9f2e07-ec24-434a-ac3e-1b2111496eb5","system_id":"levelo_inurba_marseille","lat":43.290631,"lon":5.359244,"is_reserved":false,"is_disabled":false,"rental_uris":{"android":"levelo://app?vid=ba9f2e07-ec24-434a-ac3e-1b2111496eb5","ios":"levelo://app?vid=ba9f2e07-ec24-434a-ac3e-1b2111496eb5"},"vehicle_type_id":"4","last_reported":1719601588,"current_range_meters":15200,"station_id":"ce4bha92rcd13ifvqeg0","pricing_plan_id":"cebpf4jnsgd1na2vs0mg"},{"bike_id":"b1519744-94fd-40a6-988a-df028f0d3649","system_id":"levelo_inurba_marseille","lat":43.294153,"lon":5.386305,"is_reserved":false,"is_disabled":false,"rental_uris":{"android":"levelo://app?vid=b1519744-94fd-40a6-988a-df028f0d3649","ios":"levelo://app?vid=b1519744-94fd-40a6-988a-df028f0d3649"},"vehicle_type_id":"4","last_reported":1719601588,"current_range_meters":12800,"station_id":"ce4bh2h2rcd13ifvqdh0","pricing_plan_id":"cebpf4jnsgd1na2vs0mg"},{"bike_id":"05b992ca-081d-4db8-9e8d-a8bcb4379c14","system_id":"levelo_inurba_marseille","lat":43.2942,"lon":5.38622,"is_reserved":false,"is_disabled":false,"rental_uris":{"android":"levelo://app?vid=05b992ca-081d-4db8-9e8d-a8bcb4379c14","ios":"levelo://app?vid=05b992ca-081d-4db8-9e8d-a8bcb4379c14"},"vehicle_type_id":"4","last_reported":1719601588,"current_range_meters":14000,"station_id":"ce4bh2h2rcd13ifvqdh0","pricing_plan_id":"cebpf4jnsgd1na2vs0mg"},{"bike_id":"2b119285-0003-4676-886b-84aff9c5ca25","system_id":"levelo_inurba_marseille","lat":43.29418,"lon":5.3862,"is_reserved":false,"is_disabled":false,"rental_uris":{"android":"levelo://app?vid=2b119285-0003-4676-886b-84aff9c5ca25","ios":"levelo://app?vid=2b119285-0003-4676-886b-84aff9c5ca25"},"vehicle_type_id":"4","last_reported":1719601588,"current_range_meters":4000,"station_id":"ce4bh2h2rcd13ifvqdh0","pricing_plan_id":"cebpf4jnsgd1na2vs0mg"},{"bike_id":"db8c11ce-84c1-45c2-b09e-d59e681d6fbe","system_id":"levelo_inurba_marseille","lat":43.29419,"lon":5.38625,"is_reserved":false,"is_disabled":false,"rental_uris":{"android":"levelo://app?vid=db8c11ce-84c1-45c2-b09e-d59e681d6fbe","ios":"levelo://app?vid=db8c11ce-84c1-45c2-b09e-d59e681d6fbe"},"vehicle_type_id":"4","last_reported":1719601588,"current_range_meters":20800,"station_id":"ce4bh2h2rcd13ifvqdh0","pricing_plan_id":"cebpf4jnsgd1na2vs0mg"},{"bike_id":"3488ad98-92ca-43a4-b271-f15ef6cfeae4","system_id":"levelo_inurba_marseille","lat":43.29417,"lon":5.38622,"is_reserved":false,"is_disabled":false,"rental_uris":{"android":"levelo://app?vid=3488ad98-92ca-43a4-b271-f15ef6cfeae4","ios":"levelo://app?vid=3488ad98-92ca-43a4-b271-f15ef6cfeae4"},"vehicle_type_id":"4","last_reported":1719601588,"current_range_meters":0,"station_id":"ce4bh2h2rcd13ifvqdh0","pricing_plan_id":"cebpf4jnsgd1na2vs0mg"},{"bike_id":"65147851-528d-4e2c-8315-b6328946e235","system_id":"levelo_inurba_marseille","lat":43.294153,"lon":5.386305,"is_reserved":false,"is_disabled":false,"rental_uris":{"android":"levelo://app?vid=65147851-528d-4e2c-8315-b6328946e235","ios":"levelo://app?vid=65147851-528d-4e2c-8315-b6328946e235"},"vehicle_type_id":"4","last_reported":1719601588,"current_range_meters":400,"station_id":"ce4bh2h2rcd13ifvqdh0","pricing_plan_id":"cebpf4jnsgd1na2vs0mg"},{"bike_id":"a141cea1-7289-41ee-89b3-f5afeddbc432","system_id":"levelo_inurba_marseille","lat":43.294162,"lon":5.386292,"is_reserved":false,"is_disabled":false,"rental_uris":{"android":"levelo://app?vid=a141cea1-7289-41ee-89b3-f5afeddbc432","ios":"levelo://app?vid=a141cea1-7289-41ee-89b3-f5afeddbc432"},"vehicle_type_id":"4","last_reported":1719601588,"current_range_meters":9200,"station_id":"ce4bh2h2rcd13ifvqdh0","pricing_plan_id":"cebpf4jnsgd1na2vs0mg"},{"bike_id":"21514ce9-85e9-42e6-8175-ce70d4a99ce4","system_id":"levelo_inurba_marseille","lat":43.294162,"lon":5.386292,"is_reserved":false,"is_disabled":false,"rental_uris":{"android":"levelo://app?vid=21514ce9-85e9-42e6-8175-ce70d4a99ce4","ios":"levelo://app?vid=21514ce9-85e9-42e6-8175-ce70d4a99ce4"},"vehicle_type_id":"4","last_reported":1719601588,"current_range_meters":11200,"station_id":"ce4bh2h2rcd13ifvqdh0","pricing_plan_id":"cebpf4jnsgd1na2vs0mg"},{"bike_id":"8a606813-f9a1-47ef-b93b-0ccca7842388","system_id":"levelo_inurba_marseille","lat":43.294162,"lon":5.386292,"is_reserved":false,"is_disabled":false,"rental_uris":{"android":"levelo://app?vid=8a606813-f9a1-47ef-b93b-0ccca7842388","ios":"levelo://app?vid=8a606813-f9a1-47ef-b93b-0ccca7842388"},"vehicle_type_id":"4","last_reported":1719601588,"current_range_meters":0,"station_id":"ce4bh2h2rcd13ifvqdh0","pricing_plan_id":"cebpf4jnsgd1na2vs0mg"},{"bike_id":"efd2d2aa-d3aa-4b59-962c-5dec08dc821e","system_id":"levelo_inurba_marseille","lat":43.294162,"lon":5.386292,"is_reserved":false,"is_disabled":false,"rental_uris":{"android":"levelo://app?vid=efd2d2aa-d3aa-4b59-962c-5dec08dc821e","ios":"levelo://app?vid=efd2d2aa-d3aa-4b59-962c-5dec08dc821e"},"vehicle_type_id":"4","last_reported":1719601588,"current_range_meters":17600,"station_id":"ce4bh2h2rcd13ifvqdh0","pricing_plan_id":"cebpf4jnsgd1na2vs0mg"},{"bike_id":"e586cb5b-e5c3-4274-a68c-7a45baae8b32","system_id":"levelo_inurba_marseille","lat":43.289184,"lon":5.366408,"is_reserved":false,"is_disabled":false,"rental_uris":{"android":"levelo://app?vid=e586cb5b-e5c3-4274-a68c-7a45baae8b32","ios":"levelo://app?vid=e586cb5b-e5c3-4274-a68c-7a45baae8b32"},"vehicle_type_id":"4","last_reported":1719601588,"current_range_meters":0,"station_id":"ce4bhap2rcd13ifvqek0","pricing_plan_id":"cebpf4jnsgd1na2vs0mg"},{"bike_id":"36634fab-3ac9-4816-81a0-66dcfa9f02e2","system_id":"levelo_inurba_marseille","lat":43.289468,"lon":5.363719,"is_reserved":false,"is_disabled":false,"rental_uris":{"android":"levelo://app?vid=36634fab-3ac9-4816-81a0-66dcfa9f02e2","ios":"levelo://app?vid=36634fab-3ac9-4816-81a0-66dcfa9f02e2"},"vehicle_type_id":"4","last_reported":1719601588,"current_range_meters":1200,"station_id":"ce4bhc92rcd13ifvqetg","pricing_plan_id":"cebpf4jnsgd1na2vs0mg"},{"bike_id":"153b727f-1887-4422-9cac-2596de7aa760","system_id":"levelo_inurba_marseille","lat":43.289468,"lon":5.363719,"is_reserved":false,"is_disabled":false,"rental_uris":{"android":"levelo://app?vid=153b727f-1887-4422-9cac-2596de7aa760","ios":"levelo://app?vid=153b727f-1887-4422-9cac-2596de7aa760"},"vehicle_type_id":"4","last_reported":1719601588,"current_range_meters":20800,"station_id":"ce4bhc92rcd13ifvqetg","pricing_plan_id":"cebpf4jnsgd1na2vs0mg"},{"bike_id":"2ae0753b-9504-4305-8ef9-2873d9d16919","system_id":"levelo_inurba_marseille","lat":43.289468,"lon":5.363719,"is_reserved":false,"is_disabled":false,"rental_uris":{"android":"levelo://app?vid=2ae0753b-9504-4305-8ef9-2873d9d16919","ios":"levelo://app?vid=2ae0753b-9504-4305-8ef9-2873d9d16919"},"vehicle_type_id":"4","last_reported":1719601588,"current_range_meters":30000,"station_id":"ce4bhc92rcd13ifvqetg","pricing_plan_id":"cebpf4jnsgd1na2vs0mg"},{"bike_id":"2d237144-6e05-418b-9d10-ef6e6a863536","system_id":"levelo_inurba_marseille","lat":43.289468,"lon":5.363719,"is_reserved":false,"is_disabled":false,"rental_uris":{"android":"levelo://app?vid=2d237144-6e05-418b-9d10-ef6e6a863536","ios":"levelo://app?vid=2d237144-6e05-418b-9d10-ef6e6a863536"},"vehicle_type_id":"4","last_reported":1719601588,"current_range_meters":5600,"station_id":"ce4bhc92rcd13ifvqetg","pricing_plan_id":"cebpf4jnsgd1na2vs0mg"},{"bike_id":"033d3166-1a10-4825-b14f-7f0884789c17","system_id":"levelo_inurba_marseille","lat":43.289184,"lon":5.366408,"is_reserved":false,"is_disabled":false,"rental_uris":{"android":"levelo://app?vid=033d3166-1a10-4825-b14f-7f0884789c17","ios":"levelo://app?vid=033d3166-1a10-4825-b14f-7f0884789c17"},"vehicle_type_id":"4","last_reported":1719601588,"current_range_meters":4400,"station_id":"ce4bhap2rcd13ifvqek0","pricing_plan_id":"cebpf4jnsgd1na2vs0mg"},{"bike_id":"53e42017-ebd4-41c9-9789-a88d28f08a4d","system_id":"levelo_inurba_marseille","lat":43.289468,"lon":5.363719,"is_reserved":false,"is_disabled":false,"rental_uris":{"android":"levelo://app?vid=53e42017-ebd4-41c9-9789-a88d28f08a4d","ios":"levelo://app?vid=53e42017-ebd4-41c9-9789-a88d28f08a4d"},"vehicle_type_id":"4","last_reported":1719601588,"current_range_meters":8800,"station_id":"ce4bhc92rcd13ifvqetg","pricing_plan_id":"cebpf4jnsgd1na2vs0mg"},{"bike_id":"5af2c2ff-5413-414c-a614-c06886289aaf","system_id":"levelo_inurba_marseille","lat":43.292644,"lon":5.384257,"is_reserved":false,"is_disabled":false,"rental_uris":{"android":"levelo://app?vid=5af2c2ff-5413-414c-a614-c06886289aaf","ios":"levelo://app?vid=5af2c2ff-5413-414c-a614-c06886289aaf"},"vehicle_type_id":"4","last_reported":1719601588,"current_range_meters":22400,"station_id":"ce4bh692rcd13ifvqea0","pricing_plan_id":"cebpf4jnsgd1na2vs0mg"},{"bike_id":"e9d75954-9010-448d-a623-504b393045a1","system_id":"levelo_inurba_marseille","lat":43.292644,"lon":5.384257,"is_reserved":false,"is_disabled":false,"rental_uris":{"android":"levelo://app?vid=e9d75954-9010-448d-a623-504b393045a1","ios":"levelo://app?vid=e9d75954-9010-448d-a623-504b393045a1"},"vehicle_type_id":"4","last_reported":1719601588,"current_range_meters":0,"station_id":"ce4bh692rcd13ifvqea0","pricing_plan_id":"cebpf4jnsgd1na2vs0mg"},{"bike_id":"b0fb60d3-78dd-4a85-897a-8fd57dd7bb4c","system_id":"levelo_inurba_marseille","lat":43.292642,"lon":5.384254,"is_reserved":false,"is_disabled":false,"rental_uris":{"android":"levelo://app?vid=b0fb60d3-78dd-4a85-897a-8fd57dd7bb4c","ios":"levelo://app?vid=b0fb60d3-78dd-4a85-897a-8fd57dd7bb4c"},"vehicle_type_id":"4","last_reported":1719601588,"current_range_meters":6000,"station_id":"ce4bh692rcd13ifvqea0","pricing_plan_id":"cebpf4jnsgd1na2vs0mg"},{"bike_id":"2620509c-ba52-4a41-82d3-effc50a5703b","system_id":"levelo_inurba_marseille","lat":43.292644,"lon":5.384257,"is_reserved":false,"is_disabled":false,"rental_uris":{"android":"levelo://app?vid=2620509c-ba52-4a41-82d3-effc50a5703b","ios":"levelo://app?vid=2620509c-ba52-4a41-82d3-effc50a5703b"},"vehicle_type_id":"4","last_reported":1719601588,"current_range_meters":14400,"station_id":"ce4bh692rcd13ifvqea0","pricing_plan_id":"cebpf4jnsgd1na2vs0mg"},{"bike_id":"8ceaa26a-20a0-470c-84b7-a0aa2f72ec82","system_id":"levelo_inurba_marseille","lat":43.29262,"lon":5.38433,"is_reserved":false,"is_disabled":false,"rental_uris":{"android":"levelo://app?vid=8ceaa26a-20a0-470c-84b7-a0aa2f72ec82","ios":"levelo://app?vid=8ceaa26a-20a0-470c-84b7-a0aa2f72ec82"},"vehicle_type_id":"4","last_reported":1719601588,"current_range_meters":0,"station_id":"ce4bh692rcd13ifvqea0","pricing_plan_id":"cebpf4jnsgd1na2vs0mg"},{"bike_id":"18bc8da7-8078-4b7e-b530-b133d92d3017","system_id":"levelo_inurba_marseille","lat":43.292644,"lon":5.384257,"is_reserved":false,"is_disabled":false,"rental_uris":{"android":"levelo://app?vid=18bc8da7-8078-4b7e-b530-b133d92d3017","ios":"levelo://app?vid=18bc8da7-8078-4b7e-b530-b133d92d3017"},"vehicle_type_id":"4","last_reported":1719601588,"current_range_meters":14000,"station_id":"ce4bh692rcd13ifvqea0","pricing_plan_id":"cebpf4jnsgd1na2vs0mg"},{"bike_id":"7689c461-3bf3-4b35-8b48-7bd8c3ea4729","system_id":"levelo_inurba_marseille","lat":43.292644,"lon":5.384257,"is_reserved":false,"is_disabled":false,"rental_uris":{"android":"levelo://app?vid=7689c461-3bf3-4b35-8b48-7bd8c3ea4729","ios":"levelo://app?vid=7689c461-3bf3-4b35-8b48-7bd8c3ea4729"},"vehicle_type_id":"4","last_reported":1719601588,"current_range_meters":4400,"station_id":"ce4bh692rcd13ifvqea0","pricing_plan_id":"cebpf4jnsgd1na2vs0mg"},