{"last_updated":1767833932,"ttl":60,"version":"2.2","data":{"bikes":[{"bike_id":"e3f28676-47c6-4c24-8623-c3f3a653da6f","system_id":"levelo_inurba_marseille","lat":43.27318,"lon":5.39078,"is_reserved":false,"is_disabled":false,"rental_uris":{"android":"levelo://app?vid=e3f28676-47c6-4c24-8623-c3f3a653da6f","ios":"levelo://app?vid=e3f28676-47c6-4c24-8623-c3f3a653da6f"},"vehicle_type_id":"4","last_reported":1767833933,"current_range_meters":2800,"station_id":"ce4bhgp2rcd13ifvqfe0","pricing_plan_id":"cebpf4jnsgd1na2vs0mg"},{"bike_id":"1530fc03-af2b-4e1e-a5d6-078980bcf5dd","system_id":"levelo_inurba_marseille","lat":43.29259,"lon":5.4096,"is_reserved":false,"is_disabled":false,"rental_uris":{"android":"levelo://app?vid=1530fc03-af2b-4e1e-a5d6-078980bcf5dd","ios":"levelo://app?vid=1530fc03-af2b-4e1e-a5d6-078980bcf5dd"},"vehicle_type_id":"4","last_reported":1767833933,"current_range_meters":2800,"station_id":"ce4bh192rcd13ifvqdc0","pricing_plan_id":"cebpf4jnsgd1na2vs0mg"},{"bike_id":"ce2778e9-1ed0-410d-bcf8-f64daad6e379","system_id":"levelo_inurba_marseille","lat":43.25573,"lon":5.382311,"is_reserved":false,"is_disabled":false,"rental_uris":{"android":"levelo://app?vid=ce2778e9-1ed0-410d-bcf8-f64daad6e379","ios":"levelo://app?vid=ce2778e9-1ed0-410d-bcf8-f64daad6e379"},"vehicle_type_id":"4","last_reported":1767833933,"current_range_meters":2800,"station_id":"ce4bhih2rcd13ifvqfs0","pricing_plan_id":"cebpf4jnsgd1na2vs0mg"},{"bike_id":"7b966d07-44ed-49d3-91c0-b3c3eeb24791","system_id":"levelo_inurba_marseille","lat":43.30186,"lon":5.39096,"is_reserved":false,"is_disabled":false,"rental_uris":{"android":"levelo://app?vid=7b966d07-44ed-49d3-91c0-b3c3eeb24791","ios":"levelo://app?vid=7b966d07-44ed-49d3-91c0-b3c3eeb24791"},"vehicle_type_id":"4","last_reported":1767833933,"current_range_meters":2800,"station_id":"","pricing_plan_id":"cebpf4jnsgd1na2vs0mg"},{"bike_id":"4cd0ab39-3179-4327-8b72-4b30f74816dc","system_id":"levelo_inurba_marseille","lat":43.28536,"lon":5.44095,"is_reserved":false,"is_disabled":false,"rental_uris":{"android":"levelo://app?vid=4cd0ab39-3179-4327-8b72-4b30f74816dc","ios":"levelo://app?vid=4cd0ab39-3179-4327-8b72-4b30f74816dc"},"vehicle_type_id":"4","last_reported":1767833933,"current_range_meters":2800,"station_id":"st_d3j3df2ikq2c7380ej80","pricing_plan_id":"cebpf4jnsgd1na2vs0mg"},{"bike_id":"55a802b4-e353-46ec-8234-30b8b13627a1","system_id":"levelo_inurba_marseille","lat":43.311857,"lon":5.387218,"is_reserved":false,"is_disabled":false,"rental_uris":{"android":"levelo://app?vid=55a802b4-e353-46ec-8234-30b8b13627a1","ios":"levelo://app?vid=55a802b4-e353-46ec-8234-30b8b13627a1"},"vehicle_type_id":"4","last_reported":1767833933,"current_range_meters":2800,"station_id":"ce4bgv12rcd13ifvqcp0","pricing_plan_id":"cebpf4jnsgd1na2vs0mg"},{"bike_id":"acbd5e4f-e25a-4f78-98f2-8ce2be51a356","system_id":"levelo_inurba_marseille","lat":43.29861,"lon":5.3629,"is_reserved":false,"is_disabled":false,"rental_uris":{"android":"levelo://app?vid=acbd5e4f-e25a-4f78-98f2-8ce2be51a356","ios":"levelo://app?vid=acbd5e4f-e25a-4f78-98f2-8ce2be51a356"},"vehicle_type_id":"4","last_reported":1767833933,"current_range_meters":2800,"station_id":"ce4bgpp2rcd13ifvqc3g","pricing_plan_id":"cebpf4jnsgd1na2vs0mg"},{"bike_id":"3275b859-c08d-4706-afc8-86a6bdcab3a2","system_id":"levelo_inurba_marseille","lat":43.24396,"lon":5.37066,"is_reserved":false,"is_disabled":false,"rental_uris":{"android":"levelo://app?vid=3275b859-c08d-4706-afc8-86a6bdcab3a2","ios":"levelo://app?vid=3275b859-c08d-4706-afc8-86a6bdcab3a2"},"vehicle_type_id":"4","last_reported":1767833933,"current_range_meters":2800,"station_id":"ce4bhhh2rcd13ifvqfk0","pricing_plan_id":"cebpf4jnsgd1na2vs0mg"},{"bike_id":"19621a97-e6ca-4ece-af61-6ae1d6eb62bb","system_id":"levelo_inurba_marseille","lat":43.30141,"lon":5.43109,"is_reserved":false,"is_disabled":false,"rental_uris":{"android":"levelo://app?vid=19621a97-e6ca-4ece-af61-6ae1d6eb62bb","ios":"levelo://app?vid=19621a97-e6ca-4ece-af61-6ae1d6eb62bb"},"vehicle_type_id":"4","last_reported":1767833933,"current_range_meters":2800,"station_id":"st_d3js3co5814s73ftftug","pricing_plan_id":"cebpf4jnsgd1na2vs0mg"},{"bike_id":"d3c07e90-a6bf-4dc5-a33c-036bde84929b","system_id":"levelo_inurba_marseille","lat":43.25334,"lon":5.42183,"is_reserved":false,"is_disabled":true,"rental_uris":{"android":"levelo://app?vid=d3c07e90-a6bf-4dc5-a33c-036bde84929b","ios":"levelo://app?vid=d3c07e90-a6bf-4dc5-a33c-036bde84929b"},"vehicle_type_id":"4","last_reported":1767833933,"current_range_meters":2800,"station_id":"st_d2m65c5bi1j21697t3ng","pricing_plan_id":"cebpf4jnsgd1na2vs0mg"},{"bike_id":"4b02a8d2-87b0-4ad1-9463-8088094b1434","system_id":"levelo_inurba_marseille","lat":43.29289,"lon":5.37777,"is_reserved":false,"is_disabled":false,"rental_uris":{"android":"levelo://app?vid=4b02a8d2-87b0-4ad1-9463-8088094b1434","ios":"levelo://app?vid=4b02a8d2-87b0-4ad1-9463-8088094b1434"},"vehicle_type_id":"4","last_reported":1767833933,"current_range_meters":2800,"station_id":"","pricing_plan_id":"cebpf4jnsgd1na2vs0mg"},{"bike_id":"28119d97-7102-4d29-b6d8-83d7d4b56a13","system_id":"levelo_inurba_marseille","lat":43.32355,"lon":5.36739,"is_reserved":false,"is_disabled":false,"rental_uris":{"android":"levelo://app?vid=28119d97-7102-4d29-b6d8-83d7d4b56a13","ios":"levelo://app?vid=28119d97-7102-4d29-b6d8-83d7d4b56a13"},"vehicle_type_id":"4","last_reported":1767833933,"current_range_meters":2800,"station_id":"ce4bhsh2rcd13ifvqi2g","pricing_plan_id":"cebpf4jnsgd1na2vs0mg"},{"bike_id":"62cb22d9-379f-4a14-9307-a2357290642a","system_id":"levelo_inurba_marseille","lat":43.29992,"lon":5.37876,"is_reserved":false,"is_disabled":false,"rental_uris":{"android":"levelo://app?vid=62cb22d9-379f-4a14-9307-a2357290642a","ios":"levelo://app?vid=62cb22d9-379f-4a14-9307-a2357290642a"},"vehicle_type_id":"4","last_reported":1767833933,"current_range_meters":2800,"station_id":"","pricing_plan_id":"cebpf4jnsgd1na2vs0mg"},{"bike_id":"8f8477b6-07ed-4fdd-aa03-c89764869fff","system_id":"levelo_inurba_marseille","lat":43.29763,"lon":5.3813,"is_reserved":false,"is_disabled":false,"rental_uris":{"android":"levelo://app?vid=8f8477b6-07ed-4fdd-aa03-c89764869fff","ios":"levelo://app?vid=8f8477b6-07ed-4fdd-aa03-c89764869fff"},"vehicle_type_id":"4","last_reported":1767833933,"current_range_meters":2800,"station_id":"ce4bgip2rcd13ifvqbb0","pricing_plan_id":"cebpf4jnsgd1na2vs0mg"},{"bike_id":"e66e094c-2b07-411b-b873-7d98f298b7f4","system_id":"levelo_inurba_marseille","lat":43.29009,"lon":5.35611,"is_reserved":false,"is_disabled":false,"rental_uris":{"android":"levelo://app?vid=e66e094c-2b07-411b-b873-7d98f298b7f4","ios":"levelo://app?vid=e66e094c-2b07-411b-b873-7d98f298b7f4"},"vehicle_type_id":"4","last_reported":1767833933,"current_range_meters":3200,"station_id":"ce4bhb92rcd13ifvqen0","pricing_plan_id":"cebpf4jnsgd1na2vs0mg"},{"bike_id":"da3b0f99-f6f4-4443-9a97-f9c502500e98","system_id":"levelo_inurba_marseille","lat":43.278427,"lon":5.391998,"is_reserved":false,"is_disabled":false,"rental_uris":{"android":"levelo://app?vid=da3b0f99-f6f4-4443-9a97-f9c502500e98","ios":"levelo://app?vid=da3b0f99-f6f4-4443-9a97-f9c502500e98"},"vehicle_type_id":"4","last_reported":1767833933,"current_range_meters":3200,"station_id":"ce4bhjp2rcd13ifvqga0","pricing_plan_id":"cebpf4jnsgd1na2vs0mg"},{"bike_id":"fe5508dc-ffc3-4341-a43a-4b8463f003a9","system_id":"levelo_inurba_marseille","lat":43.26558,"lon":5.39059,"is_reserved":false,"is_disabled":false,"rental_uris":{"android":"levelo://app?vid=fe5508dc-ffc3-4341-a43a-4b8463f003a9","ios":"levelo://app?vid=fe5508dc-ffc3-4341-a43a-4b8463f003a9"},"vehicle_type_id":"4","last_reported":1767833933,"current_range_meters":3200,"station_id":"ce4bhe12rcd13ifvqf30","pricing_plan_id":"cebpf4jnsgd1na2vs0mg"},{"bike_id":"aa323760-6cdd-4364-b0a8-848f910cc737","system_id":"levelo_inurba_marseille","lat":43.3019,"lon":5.3662,"is_reserved":false,"is_disabled":false,"rental_uris":{"android":"levelo://app?vid=aa323760-6cdd-4364-b0a8-848f910cc737","ios":"levelo://app?vid=aa323760-6cdd-4364-b0a8-848f910cc737"},"vehicle_type_id":"4","last_reported":1767833933,"current_range_meters":3200,"station_id":"ce4bgrh2rcd13ifvqc8g","pricing_plan_id":"cebpf4jnsgd1na2vs0mg"},{"bike_id":"b6bfa005-c263-4c69-bc8f-77e7f7957528","system_id":"levelo_inurba_marseille","lat":43.30882,"lon":5.39644,"is_reserved":false,"is_disabled":false,"rental_uris":{"android":"levelo://app?vid=b6bfa005-c263-4c69-bc8f-77e7f7957528","ios":"levelo://app?vid=b6bfa005-c263-4c69-bc8f-77e7f7957528"},"vehicle_type_id":"4","last_reported":1767833933,"current_range_meters":3200,"station_id":"ce4bh012rcd13ifvqcv0","pricing_plan_id":"cebpf4jnsgd1na2vs0mg"},{"bike_id":"d94a94f4-003c-473b-87bc-9cd8d9c889e2","system_id":"levelo_inurba_marseille","lat":43.32357,"lon":5.36745,"is_reserved":false,"is_disabled":false,"rental_uris":{"android":"levelo://app?vid=d94a94f4-003c-473b-87bc-9cd8d9c889e2","ios":"levelo://app?vid=d94a94f4-003c-473b-87bc-9cd8d9c889e2"},"vehicle_type_id":"4","last_reported":1767833933,"current_range_meters":3200,"station_id":"ce4bhsh2rcd13ifvqi2g","pricing_plan_id":"cebpf4jnsgd1na2vs0mg"},{"bike_id":"a051054d-f038-423c-8d10-06041b09703a","system_id":"levelo_inurba_marseille","lat":43.26206,"lon":5.37932,"is_reserved":false,"is_disabled":false,"rental_uris":{"android":"levelo://app?vid=a051054d-f038-423c-8d10-06041b09703a","ios":"levelo://app?vid=a051054d-f038-423c-8d10-06041b09703a"},"vehicle_type_id":"4","last_reported":1767833933,"current_range_meters":3200,"station_id":"ce4bhjp2rcd13ifvqg90","pricing_plan_id":"cebpf4jnsgd1na2vs0mg"},{"bike_id":"ab6fe2ee-200d-418c-a693-20bf0b5f3548","system_id":"levelo_inurba_marseille","lat":43.260668,"lon":5.393931,"is_reserved":false,"is_disabled":false,"rental_uris":{"android":"levelo://app?vid=ab6fe2ee-200d-418c-a693-20bf0b5f3548","ios":"levelo://app?vid=ab6fe2ee-200d-418c-a693-20bf0b5f3548"},"vehicle_type_id":"4","last_reported":1767833933,"current_range_meters":3200,"station_id":"","pricing_plan_id":"cebpf4jnsgd1na2vs0mg"},{"bike_id":"e9e6f93f-566e-422e-9b71-a79556ab8c5d","system_id":"levelo_inurba_marseille","lat":43.30286,"lon":5.45653,"is_reserved":false,"is_disabled":false,"rental_uris":{"android":"levelo://app?vid=e9e6f93f-566e-422e-9b71-a79556ab8c5d","ios":"levelo://app?vid=e9e6f93f-566e-422e-9b71-a79556ab8c5d"},"vehicle_type_id":"4","last_reported":1767833933,"current_range_meters":3200,"station_id":"","pricing_plan_id":"cebpf4jnsgd1na2vs0mg"},{"bike_id":"74adf7f1-0d93-4c77-be9b-a248eee0a16f","system_id":"levelo_inurba_marseille","lat":43.27405,"lon":5.39436,"is_reserved":false,"is_disabled":false,"rental_uris":{"android":"levelo://app?vid=74adf7f1-0d93-4c77-be9b-a248eee0a16f","ios":"levelo://app?vid=74adf7f1-0d93-4c77-be9b-a248eee0a16f"},"vehicle_type_id":"4","last_reported":1767833933,"current_range_meters":3200,"station_id":"ce4bhdp2rcd13ifvqf20","pricing_plan_id":"cebpf4jnsgd1na2vs0mg"},{"bike_id":"50f4b3bd-6360-4d14-b317-8ae7b873727e","system_id":"levelo_inurba_marseille","lat":43.255844,"lon":5.3823,"is_reserved":false,"is_disabled":false,"rental_uris":{"android":"levelo://app?vid=50f4b3bd-6360-4d14-b317-8ae7b873727e","ios":"levelo://app?vid=50f4b3bd-6360-4d14-b317-8ae7b873727e"},"vehicle_type_id":"4","last_reported":1767833933,"current_range_meters":3200,"station_id":"ce4bhih2rcd13ifvqfs0","pricing_plan_id":"cebpf4jnsgd1na2vs0mg"},{"bike_id":"78910c6a-bde3-4a96-8bef-f231c3ae508f","system_id":"levelo_inurba_marseille","lat":43.3117,"lon":5.38741,"is_reserved":false,"is_disabled":false,"rental_uris":{"android":"levelo://app?vid=78910c6a-bde3-4a96-8bef-f231c3ae508f","ios":"levelo://app?vid=78910c6a-bde3-4a96-8bef-f231c3ae508f"},"vehicle_type_id":"4","last_reported":1767833933,"current_range_meters":3200,"station_id":"ce4bgv12rcd13ifvqcp0","pricing_plan_id":"cebpf4jnsgd1na2vs0mg"},{"bike_id":"52a60ed1-1069-4427-a4b6-8b307a25e139","system_id":"levelo_inurba_marseille","lat":43.26077,"lon":5.39381,"is_reserved":false,"is_disabled":false,"rental_uris":{"android":"levelo://app?vid=52a60ed1-1069-4427-a4b6-8b307a25e139","ios":"levelo://app?vid=52a60ed1-1069-4427-a4b6-8b307a25e139"},"vehicle_type_id":"4","last_reported":1767833933,"current_range_meters":3200,"station_id":"ce4bhh92rcd13ifvqfj0","pricing_plan_id":"cebpf4jnsgd1na2vs0mg"},{"bike_id":"da6909d1-edb1-4f96-a04d-41b11fc2037f","system_id":"levelo_inurba_marseille","lat":43.286821,"lon":5.386781,"is_reserved":false,"is_disabled":false,"rental_uris":{"android":"levelo://app?vid=da6909d1-edb1-4f96-a04d-41b11fc2037f","ios":"levelo://app?vid=da6909d1-edb1-4f96-a04d-41b11fc2037f"},"vehicle_type_id":"4","last_reported":1767833933,"current_range_meters":3600,"station_id":"ce4bh492rcd13ifvqdug","pricing_plan_id":"cebpf4jnsgd1na2vs0mg"},{"bike_id":"3e3e0047-b0cb-4bda-9ddb-fb1e80df6397","system_id":"levelo_inurba_marseille","lat":43.23148,"lon":5.43703,"is_reserved":false,"is_disabled":false,"rental_uris":{"android":"levelo://app?vid=3e3e0047-b0cb-4bda-9ddb-fb1e80df6397","ios":"levelo://app?vid=3e3e0047-b0cb-4bda-9ddb-fb1e80df6397"},"vehicle_type_id":"4","last_reported":1767833933,"current_range_meters":3600,"station_id":"ce4bhmp2rcd13ifvqgog","pricing_plan_id":"cebpf4jnsgd1na2vs0mg"},{"bike_id":"fe43f56a-2d7f-414c-8ff0-f446b4cb2271","system_id":"levelo_inurba_marseille","lat":43.27176,"lon":5.40997,"is_reserved":false,"is_disabled":false,"rental_uris":{"android":"levelo://app?vid=fe43f56a-2d7f-414c-8ff0-f446b4cb2271","ios":"levelo://app?vid=fe43f56a-2d7f-414c-8ff0-f446b4cb2271"},"vehicle_type_id":"4","last_reported":1767833933,"current_range_meters":3600,"station_id":"ce4bhl12rcd13ifvqgf0","pricing_plan_id":"cebpf4jnsgd1na2vs0mg"},{"bike_id":"4e9944d7-ff17-431f-9506-b409b96c8161","system_id":"levelo_inurba_marseille","lat":43.25577,"lon":5.38216,"is_reserved":false,"is_disabled":false,"rental_uris":{"android":"levelo://app?vid=4e9944d7-ff17-431f-9506-b409b96c8161","ios":"levelo://app?vid=4e9944d7-ff17-431f-9506-b409b96c8161"},"vehicle_type_id":"4","last_reported":1767833933,"current_range_meters":3600,"station_id":"ce4bhih2rcd13ifvqfs0","pricing_plan_id":"cebpf4jnsgd1na2vs0mg"},{"bike_id":"42da60a7-53da-49a5-be81-2433717a40d8","system_id":"levelo_inurba_marseille","lat":43.24676,"lon":5.38151,"is_reserved":false,"is_disabled":false,"rental_uris":{"android":"levelo://app?vid=42da60a7-53da-49a5-be81-2433717a40d8","ios":"levelo://app?vid=42da60a7-53da-49a5-be81-2433717a40d8"},"vehicle_type_id":"4","last_reported":1767833933,"current_range_meters":3600,"station_id":"ce4bhih2rcd13ifvqfr0","pricing_plan_id":"cebpf4jnsgd1na2vs0mg"},{"bike_id":"5b1e28d0-cfd4-4f63-bcd7-e389c7a33f6a","system_id":"levelo_inurba_marseille","lat":43.246377,"lon":5.431417,"is_reserved":false,"is_disabled":false,"rental_uris":{"android":"levelo://app?vid=5b1e28d0-cfd4-4f63-bcd7-e389c7a33f6a","ios":"levelo://app?vid=5b1e28d0-cfd4-4f63-bcd7-e389c7a33f6a"},"vehicle_type_id":"4","last_reported":1767833933,"current_range_meters":4000,"station_id":"st_d2m6c4gdas8pm72e190g","pricing_plan_id":"cebpf4jnsgd1na2vs0mg"},{"bike_id":"9eb913cd-2db4-48fc-a9eb-2256ba745c47","system_id":"levelo_inurba_marseille","lat":43.31704,"lon":5.437,"is_reserved":false,"is_disabled":false,"rental_uris":{"android":"levelo://app?vid=9eb913cd-2db4-48fc-a9eb-2256ba745c47","ios":"levelo://app?vid=9eb913cd-2db4-48fc-a9eb-2256ba745c47"},"vehicle_type_id":"4","last_reported":1767833933,"current_range_meters":4000,"station_id":"ce4bhp92rcd13ifvqhcg","pricing_plan_id":"cebpf4jnsgd1na2vs0mg"},{"bike_id":"26471476-0788-4cdb-9b4d-9f0b3e686ab5","system_id":"levelo_inurba_marseille","lat":43.31311,"lon":5.3868,"is_reserved":false,"is_disabled":false,"rental_uris":{"android":"levelo://app?vid=26471476-0788-4cdb-9b4d-9f0b3e686ab5","ios":"levelo://app?vid=26471476-0788-4cdb-9b4d-9f0b3e686ab5"},"vehicle_type_id":"4","last_reported":1767833933,"current_range_meters":4000,"station_id":"","pricing_plan_id":"cebpf4jnsgd1na2vs0mg"},{"bike_id":"0b92c146-6b80-43eb-be16-9148e9282313","system_id":"levelo_inurba_marseille","lat":43.31326,"lon":5.39689,"is_reserved":false,"is_disabled":false,"rental_uris":{"android":"levelo://app?vid=0b92c146-6b80-43eb-be16-9148e9282313","ios":"levelo://app?vid=0b92c146-6b80-43eb-be16-9148e9282313"},"vehicle_type_id":"4","last_reported":1767833933,"current_range_meters":4000,"station_id":"ce4bgvp2rcd13ifvqcu0","pricing_plan_id":"cebpf4jnsgd1na2vs0mg"},{"bike_id":"e41857ec-5941-448a-bcaa-724f6a12b4c4","system_id":"levelo_inurba_marseille","lat":43.28672,"lon":5.386705,"is_reserved":false,"is_disabled":false,"rental_uris":{"android":"levelo://app?vid=e41857ec-5941-448a-bcaa-724f6a12b4c4","ios":"levelo://app?vid=e41857ec-5941-448a-bcaa-724f6a12b4c4"},"vehicle_type_id":"4","last_reported":1767833933,"current_range_meters":4000,"station_id":"ce4bh492rcd13ifvqdug","pricing_plan_id":"cebpf4jnsgd1na2vs0mg"},{"bike_id":"05913a82-5d97-49fd-869e-011fe384b874","system_id":"levelo_inurba_marseille","lat":43.29872,"lon":5.37827,"is_reserved":false,"is_disabled":false,"rental_uris":{"android":"levelo://app?vid=05913a82-5d97-49fd-869e-011fe384b874","ios":"levelo://app?vid=05913a82-5d97-49fd-869e-011fe384b874"},"vehicle_type_id":"4","last_reported":1767833933,"current_range_meters":4000,"station_id":"","pricing_plan_id":"cebpf4jnsgd1na2vs0mg"},{"bike_id":"be5a75c1-374d-4848-aaf4-c64ecabf21a1","system_id":"levelo_inurba_marseille","lat":43.28534,"lon":5.44098,"is_reserved":false,"is_disabled":false,"rental_uris":{"android":"levelo://app?vid=be5a75c1-374d-4848-aaf4-c64ecabf21a1","ios":"levelo://app?vid=be5a75c1-374d-4848-aaf4-c64ecabf21a1"},"vehicle_type_id":"4","last_reported":1767833933,"current_range_meters":4000,"station_id":"st_d3j3df2ikq2c7380ej80","pricing_plan_id":"cebpf4jnsgd1na2vs0mg"},{"bike_id":"39fe3808-0089-4995-97ff-f8171378a577","system_id":"levelo_inurba_marseille","lat":43.313299,"lon":5.396994,"is_reserved":false,"is_disabled":false,"rental_uris":{"android":"levelo://app?vid=39fe3808-0089-4995-97ff-f8171378a577","ios":"levelo://app?vid=39fe3808-0089-4995-97ff-f8171378a577"},"vehicle_type_id":"4","last_reported":1767833933,"current_range_meters":4000,"station_id":"ce4bgvp2rcd13ifvqcu0","pricing_plan_id":"cebpf4jnsgd1na2vs0mg"},{"bike_id":"533ded1c-f64a-40a7-987e-c996af8b74ed","system_id":"levelo_inurba_marseille","lat":43.23786,"lon":5.36641,"is_reserved":false,"is_disabled":false,"rental_uris":{"android":"levelo://app?vid=533ded1c-f64a-40a7-987e-c996af8b74ed","ios":"levelo://app?vid=533ded1c-f64a-40a7-987e-c996af8b74ed"},"vehicle_type_id":"4","last_reported":1767833933,"current_range_meters":4000,"station_id":"st_d3nk18o9ro0c73en2l3g","pricing_plan_id":"cebpf4jnsgd1na2vs0mg"},{"bike_id":"dac72b8a-fcff-44f7-9920-6d39a27b0772","system_id":"levelo_inurba_marseille","lat":43.23783,"lon":5.36634,"is_reserved":false,"is_disabled":false,"rental_uris":{"android":"levelo://app?vid=dac72b8a-fcff-44f7-9920-6d39a27b0772","ios":"levelo://app?vid=dac72b8a-fcff-44f7-9920-6d39a27b0772"},"vehicle_type_id":"4","last_reported":1767833933,"current_range_meters":4000,"station_id":"st_d3nk18o9ro0c73en2l3g","pricing_plan_id":"cebpf4jnsgd1na2vs0mg"},{"bike_id":"b42c0356-6aee-42cf-8693-3d61ba8ffb0a","system_id":"levelo_inurba_marseille","lat":43.27926,"lon":5.39575,"is_reserved":false,"is_disabled":false,"rental_uris":{"android":"levelo://app?vid=b42c0356-6aee-42cf-8693-3d61ba8ffb0a","ios":"levelo://app?vid=b42c0356-6aee-42cf-8693-3d61ba8ffb0a"},"vehicle_type_id":"4","last_reported":1767833933,"current_range_meters":4000,"station_id":"ce4bhf92rcd13ifvqf40","pricing_plan_id":"cebpf4jnsgd1na2vs0mg"},{"bike_id":"32cbb5dc-7f44-46b7-b0cb-ce64452f8970","system_id":"levelo_inurba_marseille","lat":43.29937,"lon":5.36539,"is_reserved":false,"is_disabled":false,"rental_uris":{"android":"levelo://app?vid=32cbb5dc-7f44-46b7-b0cb-ce64452f8970","ios":"levelo://app?vid=32cbb5dc-7f44-46b7-b0cb-ce64452f8970"},"vehicle_type_id":"4","last_reported":1767833933,"current_range_meters":4400,"station_id":"ce4bgm92rcd13ifvqbr0","pricing_plan_id":"cebpf4jnsgd1na2vs0mg"},{"bike_id":"184adeb8-9203-4f19-b080-ca451c49fd36","system_id":"levelo_inurba_marseille","lat":43.29159,"lon":5.37164,"is_reserved":false,"is_disabled":false,"rental_uris":{"android":"levelo://app?vid=184adeb8-9203-4f19-b080-ca451c49fd36","ios":"levelo://app?vid=184adeb8-9203-4f19-b080-ca451c49fd36"},"vehicle_type_id":"4","last_reported":1767833933,"current_range_meters":4400,"station_id":"ce4bha92rcd13ifvqeh0","pricing_plan_id":"cebpf4jnsgd1na2vs0mg"},{"bike_id":"d4cb7d87-6e05-4a12-a6a8-801515607d75","system_id":"levelo_inurba_marseille","lat":43.32096,"lon":5.3677,"is_reserved":false,"is_disabled":false,"rental_uris":{"android":"levelo://app?vid=d4cb7d87-6e05-4a12-a6a8-801515607d75","ios":"levelo://app?vid=d4cb7d87-6e05-4a12-a6a8-801515607d75"},"vehicle_type_id":"4","last_reported":1767833933,"current_range_meters":4400,"station_id":"ce4bhrh2rcd13ifvqhug","pricing_plan_id":"cebpf4jnsgd1na2vs0mg"},{"bike_id":"f0ee26aa-1f32-4b29-8886-d649c0662431","system_id":"levelo_inurba_marseille","lat":43.29523,"lon":5.394,"is_reserved":false,"is_disabled":false,"rental_uris":{"android":"levelo://app?vid=f0ee26aa-1f32-4b29-8886-d649c0662431","ios":"levelo://app?vid=f0ee26aa-1f32-4b29-8886-d649c0662431"},"vehicle_type_id":"4","last_reported":1767833933,"current_range_meters":4400,"station_id":"ce4bh292rcd13ifvqdf0","pricing_plan_id":"cebpf4jnsgd1na2vs0mg"},{"bike_id":"754e4108-4c57-4763-b08c-1bdebeea8ce2","system_id":"levelo_inurba_marseille","lat":43.28676,"lon":5.38631,"is_reserved":false,"is_disabled":false,"rental_uris":{"android":"levelo://app?vid=754e4108-4c57-4763-b08c-1bdebeea8ce2","ios":"levelo://app?vid=754e4108-4c57-4763-b08c-1bdebeea8ce2"},"vehicle_type_id":"4","last_reported":1767833933,"current_range_meters":4400,"station_id":"ce4bh492rcd13ifvqdug","pricing_plan_id":"cebpf4jnsgd1na2vs0mg"},{"bike_id":"6174981e-bed3-4bbe-a3fa-13b0fcc75de4","system_id":"levelo_inurba_marseille","lat":43.23143,"lon":5.43712,"is_reserved":false,"is_disabled":true,"rental_uris":{"android":"levelo://app?vid=6174981e-bed3-4bbe-a3fa-13b0fcc75de4","ios":"levelo://app?vid=6174981e-bed3-4bbe-a3fa-13b0fcc75de4"},"vehicle_type_id":"4","last_reported":1767833933,"current_range_meters":4400,"station_id":"","pricing_plan_id":"cebpf4jnsgd1na2vs0mg"},{"bike_id":"a31ba797-d219-4a65-a019-17190c6343b6","system_id":"levelo_inurba_marseille","lat":43.31945,"lon":5.37606,"is_reserved":false,"is_disabled":false,"rental_uris":{"android":"levelo://app?vid=a31ba797-d219-4a65-a019-17190c6343b6","ios":"levelo://app?vid=a31ba797-d219-4a65-a019-17190c6343b6"},"vehicle_type_id":"4","last_reported":1767833933,"current_range_meters":4400,"station_id":"","pricing_plan_id":"cebpf4jnsgd1na2vs0mg"},{"bike_id":"48771c48-ffc3-4134-8d30-7910d4446c8d","system_id":"levelo_inurba_marseille","lat":43.27635,"lon":5.38405,"is_reserved":false,"is_disabled":false,"rental_uris":{"android":"levelo://app?vid=48771c48-ffc3-4134-8d30-7910d4446c8d","ios":"levelo://app?vid=48771c48-ffc3-4134-8d30-7910d4446c8d"},"vehicle_type_id":"4","last_reported":1767833933,"current_range_meters":4400,"station_id":"","pricing_plan_id":"cebpf4jnsgd1na2vs0mg"},{"bike_id":"d5b0c4ed-7646-45b9-b9d3-d49c57b897b7","system_id":"levelo_inurba_marseille","lat":43.29748,"lon":5.42763,"is_reserved":false,"is_disabled":false,"rental_uris":{"android":"levelo://app?vid=d5b0c4ed-7646-45b9-b9d3-d49c57b897b7","ios":"levelo://app?vid=d5b0c4ed-7646-45b9-b9d3-d49c57b897b7"},"vehicle_type_id":"4","last_reported":1767833933,"current_range_meters":4400,"station_id":"st_d3md5207bmas73dh9klg","pricing_plan_id":"cebpf4jnsgd1na2vs0mg"},{"bike_id":"35c3cbbb-0469-478d-b4da-bfb159e2f13b","system_id":"levelo_inurba_marseille","lat":43.259344,"lon":5.40915,"is_reserved":false,"is_disabled":true,"rental_uris":{"android":"levelo://app?vid=35c3cbbb-0469-478d-b4da-bfb159e2f13b","ios":"levelo://app?vid=35c3cbbb-0469-478d-b4da-bfb159e2f13b"},"vehicle_type_id":"4","last_reported":1767833933,"current_range_meters":4400,"station_id":"ce4bhm92rcd13ifvqglg","pricing_plan_id":"cebpf4jnsgd1na2vs0mg"},{"bike_id":"449f19ee-aa53-4b1f-8d91-b41560c91561","system_id":"levelo_inurba_marseille","lat":43.29181,"lon":5.37148,"is_reserved":false,"is_disabled":false,"rental_uris":{"android":"levelo://app?vid=449f19ee-aa53-4b1f-8d91-b41560c91561","ios":"levelo://app?vid=449f19ee-aa53-4b1f-8d91-b41560c91561"},"vehicle_type_id":"4","last_reported":1767833933,"current_range_meters":4400,"station_id":"ce4bha92rcd13ifvqeh0","pricing_plan_id":"cebpf4jnsgd1na2vs0mg"},{"bike_id":"71967203-8708-482f-a598-aaef20408204","system_id":"levelo_inurba_marseille","lat":43.31327,"lon":5.39711,"is_reserved":false,"is_disabled":false,"rental_uris":{"android":"levelo://app?vid=71967203-8708-482f-a598-aaef20408204","ios":"levelo://app?vid=71967203-8708-482f-a598-aaef20408204"},"vehicle_type_id":"4","last_reported":1767833933,"current_range_meters":4400,"station_id":"ce4bgvp2rcd13ifvqcu0","pricing_plan_id":"cebpf4jnsgd1na2vs0mg"},{"bike_id":"838df1d1-fbd0-4b74-b1ae-7c6d3bfbffb2","system_id":"levelo_inurba_marseille","lat":43.29261,"lon":5.38451,"is_reserved":false,"is_disabled":true,"rental_uris":{"android":"levelo://app?vid=838df1d1-fbd0-4b74-b1ae-7c6d3bfbffb2","ios":"levelo://app?vid=838df1d1-fbd0-4b74-b1ae-7c6d3bfbffb2"},"vehicle_type_id":"4","last_reported":1767833933,"current_range_meters":4800,"station_id":"ce4bh692rcd13ifvqea0","pricing_plan_id":"cebpf4jnsgd1na2vs0mg"},{"bike_id":"99d2c240-fb57-4bcc-834e-50095cd537f1","system_id":"levelo_inurba_marseille","lat":43.29203,"lon":5.35785,"is_reserved":false,"is_disabled":false,"rental_uris":{"android":"levelo://app?vid=99d2c240-fb57-4bcc-834e-50095cd537f1","ios":"levelo://app?vid=99d2c240-fb57-4bcc-834e-50095cd537f1"},"vehicle_type_id":"4","last_reported":1767833933,"current_range_meters":4800,"station_id":"ce4bhb12rcd13ifvqel0","pricing_plan_id":"cebpf4jnsgd1na2vs0mg"},{"bike_id":"1eb5035e-3c17-48ce-8d17-8fe22f2ed1ba","system_id":"levelo_inurba_marseille","lat":43.29389,"lon":5.37422,"is_reserved":false,"is_disabled":false,"rental_uris":{"android":"levelo://app?vid=1eb5035e-3c17-48ce-8d17-8fe22f2ed1ba","ios":"levelo://app?vid=1eb5035e-3c17-48ce-8d17-8fe22f2ed1ba"},"vehicle_type_id":"4","last_reported":1767833933,"current_range_meters":4800,"station_id":"","pricing_plan_id":"cebpf4jnsgd1na2vs0mg"},{"bike_id":"067ca337-309a-4444-a755-1124e864d8c9","system_id":"levelo_inurba_marseille","lat":43.29525,"lon":5.39393,"is_reserved":false,"is_disabled":true,"rental_uris":{"android":"levelo://app?vid=067ca337-309a-4444-a755-1124e864d8c9","ios":"levelo://app?vid=067ca337-309a-4444-a755-1124e864d8c9"},"vehicle_type_id":"4","last_reported":1767833933,"current_range_meters":4800,"station_id":"ce4bh292rcd13ifvqdf0","pricing_plan_id":"cebpf4jnsgd1na2vs0mg"},{"bike_id":"648080a5-2fc4-4912-8414-9c01e52433df","system_id":"levelo_inurba_marseille","lat":43.299319,"lon":5.365143,"is_reserved":false,"is_disabled":false,"rental_uris":{"android":"levelo://app?vid=648080a5-2fc4-4912-8414-9c01e52433df","ios":"levelo://app?vid=648080a5-2fc4-4912-8414-9c01e52433df"},"vehicle_type_id":"4","last_reported":1767833933,"current_range_meters":4800,"station_id":"ce4bgm92rcd13ifvqbr0","pricing_plan_id":"cebpf4jnsgd1na2vs0mg"},{"bike_id":"9c2b50d7-d1c4-4604-94b6-fb27903a754e","system_id":"levelo_inurba_marseille","lat":43.30206,"lon":5.39476,"is_reserved":false,"is_disabled":false,"rental_uris":{"android":"levelo://app?vid=9c2b50d7-d1c4-4604-94b6-fb27903a754e","ios":"levelo://app?vid=9c2b50d7-d1c4-4604-94b6-fb27903a754e"},"vehicle_type_id":"4","last_reported":1767833933,"current_range_meters":4800,"station_id":"ce4bh0p2rcd13ifvqd70","pricing_plan_id":"cebpf4jnsgd1na2vs0mg"},{"bike_id":"25bcfc78-3f0b-4981-8911-91eda9adaaf9","system_id":"levelo_inurba_marseille","lat":43.28399,"lon":5.41644,"is_reserved":false,"is_disabled":false,"rental_uris":{"android":"levelo://app?vid=25bcfc78-3f0b-4981-8911-91eda9adaaf9","ios":"levelo://app?vid=25bcfc78-3f0b-4981-8911-91eda9adaaf9"},"vehicle_type_id":"4","last_reported":1767833933,"current_range_meters":4800,"station_id":"","pricing_plan_id":"cebpf4jnsgd1na2vs0mg"},{"bike_id":"adc6d3e5-a0bd-4fb1-8c8c-aa2813db45ad","system_id":"levelo_inurba_marseille","lat":43.315276,"lon":5.380248,"is_reserved":false,"is_disabled":false,"rental_uris":{"android":"levelo://app?vid=adc6d3e5-a0bd-4fb1-8c8c-aa2813db45ad","ios":"levelo://app?vid=adc6d3e5-a0bd-4fb1-8c8c-aa2813db45ad"},"vehicle_type_id":"4","last_reported":1767833933,"current_range_meters":4800,"station_id":"ce4bhsp2rcd13ifvqi50","pricing_plan_id":"cebpf4jnsgd1na2vs0mg"},{"bike_id":"def111a5-a184-45ba-a9eb-9415a8bd8b57","system_id":"levelo_inurba_marseille","lat":43.30935,"lon":5.40131,"is_reserved":false,"is_disabled":false,"rental_uris":{"android":"levelo://app?vid=def111a5-a184-45ba-a9eb-9415a8bd8b57","ios":"levelo://app?vid=def111a5-a184-45ba-a9eb-9415a8bd8b57"},"vehicle_type_id":"4","last_reported":1767833933,"current_range_meters":4800,"station_id":"ce4bgvp2rcd13ifvqct0","pricing_plan_id":"cebpf4jnsgd1na2vs0mg"},{"bike_id":"95829d7f-c87b-420d-8adf-19dc54871611","system_id":"levelo_inurba_marseille","lat":43.26676,"lon":5.38269,"is_reserved":false,"is_disabled":false,"rental_uris":{"android":"levelo://app?vid=95829d7f-c87b-420d-8adf-19dc54871611","ios":"levelo://app?vid=95829d7f-c87b-420d-8adf-19dc54871611"},"vehicle_type_id":"4","last_reported":1767833933,"current_range_meters":4800,"station_id":"ce4bhg92rcd13ifvqf90","pricing_plan_id":"cebpf4jnsgd1na2vs0mg"},{"bike_id":"ad23fdf7-5de1-46d8-84e7-377cd8e27914","system_id":"levelo_inurba_marseille","lat":43.30928,"lon":5.41516,"is_reserved":false,"is_disabled":false,"rental_uris":{"android":"levelo://app?vid=ad23fdf7-5de1-46d8-84e7-377cd8e27914","ios":"levelo://app?vid=ad23fdf7-5de1-46d8-84e7-377cd8e27914"},"vehicle_type_id":"4","last_reported":1767833933,"current_range_meters":5600,"station_id":"","pricing_plan_id":"cebpf4jnsgd1na2vs0mg"},{"bike_id":"ee33983f-10d1-4d63-8bde-105556f6242d","system_id":"levelo_inurba_marseille","lat":43.262,"lon":5.37924,"is_reserved":false,"is_disabled":false,"rental_uris":{"android":"levelo://app?vid=ee33983f-10d1-4d63-8bde-105556f6242d","ios":"levelo://app?vid=ee33983f-10d1-4d63-8bde-105556f6242d"},"vehicle_type_id":"4","last_reported":1767833933,"current_range_meters":5600,"station_id":"ce4bhjp2rcd13ifvqg90","pricing_plan_id":"cebpf4jnsgd1na2vs0mg"},{"bike_id":"8f0d1315-0bea-48f3-947d-e402f4e774a7","system_id":"levelo_inurba_marseille","lat":43.29711,"lon":5.37686,"is_reserved":false,"is_disabled":false,"rental_uris":{"android":"levelo://app?vid=8f0d1315-0bea-48f3-947d-e402f4e774a7","ios":"levelo://app?vid=8f0d1315-0bea-48f3-947d-e402f4e774a7"},"vehicle_type_id":"4","last_reported":1767833933,"current_range_meters":5600,"station_id":"ce4bgkh2rcd13ifvqbl0","pricing_plan_id":"cebpf4jnsgd1na2vs0mg"},{"bike_id":"392514f8-9a36-43a5-9b89-e2ab1d47c731","system_id":"levelo_inurba_marseille","lat":43.268923,"lon":5.403844,"is_reserved":false,"is_disabled":false,"rental_uris":{"android":"levelo://app?vid=392514f8-9a36-43a5-9b89-e2ab1d47c731","ios":"levelo://app?vid=392514f8-9a36-43a5-9b89-e2ab1d47c731"},"vehicle_type_id":"4","last_reported":1767833933,"current_range_meters":5600,"station_id":"","pricing_plan_id":"cebpf4jnsgd1na2vs0mg"},{"bike_id":"c0c8695a-5dc1-437f-a20b-09acef88b652","system_id":"levelo_inurba_marseille","lat":43.28338,"lon":5.3507,"is_reserved":false,"is_disabled":false,"rental_uris":{"android":"levelo://app?vid=c0c8695a-5dc1-437f-a20b-09acef88b652","ios":"levelo://app?vid=c0c8695a-5dc1-437f-a20b-09acef88b652"},"vehicle_type_id":"4","last_reported":1767833933,"current_range_meters":5600,"station_id":"","pricing_plan_id":"cebpf4jnsgd1na2vs0mg"},{"bike_id":"d95819d9-1d4e-4a81-9573-ae0f5fff0802","system_id":"levelo_inurba_marseille","lat":43.29532,"lon":5.39027,"is_reserved":false,"is_disabled":false,"rental_uris":{"android":"levelo://app?vid=d95819d9-1d4e-4a81-9573-ae0f5fff0802","ios":"levelo://app?vid=d95819d9-1d4e-4a81-9573-ae0f5fff0802"},"vehicle_type_id":"4","last_reported":1767833933,"current_range_meters":5600,"station_id":"ce4bh3p2rcd13ifvqdp0","pricing_plan_id":"cebpf4jnsgd1na2vs0mg"},{"bike_id":"01e217d4-4a78-411d-b261-0450ec086ca2","system_id":"levelo_inurba_marseille","lat":43.290253,"lon":5.386362,"is_reserved":false,"is_disabled":false,"rental_uris":{"android":"levelo://app?vid=01e217d4-4a78-411d-b261-0450ec086ca2","ios":"levelo://app?vid=01e217d4-4a78-411d-b261-0450ec086ca2"},"vehicle_type_id":"4","last_reported":1767833933,"current_range_meters":5600,"station_id":"ce4bh4p2rcd13ifvqe0g","pricing_plan_id":"cebpf4jnsgd1na2vs0mg"},{"bike_id":"273d98d8-16ff-4b69-861b-0aa1773f3e40","system_id":"levelo_inurba_marseille","lat":43.31714,"lon":5.40451,"is_reserved":false,"is_disabled":true,"rental_uris":{"android":"levelo://app?vid=273d98d8-16ff-4b69-861b-0aa1773f3e40","ios":"levelo://app?vid=273d98d8-16ff-4b69-861b-0aa1773f3e40"},"vehicle_type_id":"4","last_reported":1767833933,"current_range_meters":5600,"station_id":"ce4bh012rcd13ifvqd00","pricing_plan_id":"cebpf4jnsgd1na2vs0mg"},{"bike_id":"c2776bc4-b400-48ff-86f6-b46d67e67ff8","system_id":"levelo_inurba_marseille","lat":43.309576,"lon":5.390447,"is_reserved":false,"is_disabled":false,"rental_uris":{"android":"levelo://app?vid=c2776bc4-b400-48ff-86f6-b46d67e67ff8","ios":"levelo://app?vid=c2776bc4-b400-48ff-86f6-b46d67e67ff8"},"vehicle_type_id":"4","last_reported":1767833933,"current_range_meters":5600,"station_id":"ce4bgup2rcd13ifvqco0","pricing_plan_id":"cebpf4jnsgd1na2vs0mg"},{"bike_id":"8652dec3-eb54-4fc9-83f2-a72b3a09186e","system_id":"levelo_inurba_marseille","lat":43.30869,"lon":5.39658,"is_reserved":false,"is_disabled":false,"rental_uris":{"android":"levelo://app?vid=8652dec3-eb54-4fc9-83f2-a72b3a09186e","ios":"levelo://app?vid=8652dec3-eb54-4fc9-83f2-a72b3a09186e"},"vehicle_type_id":"4","last_reported":1767833933,"current_range_meters":5600,"station_id":"ce4bh012rcd13ifvqcv0","pricing_plan_id":"cebpf4jnsgd1na2vs0mg"},{"bike_id":"8f9c263f-7889-4a85-9933-e07749969bb3","system_id":"levelo_inurba_marseille","lat":43.25571,"lon":5.38249,"is_reserved":false,"is_disabled":false,"rental_uris":{"android":"levelo://app?vid=8f9c263f-7889-4a85-9933-e07749969bb3","ios":"levelo://app?vid=8f9c263f-7889-4a85-9933-e07749969bb3"},"vehicle_type_id":"4","last_reported":1767833933,"current_range_meters":5600,"station_id":"ce4bhih2rcd13ifvqfs0","pricing_plan_id":"cebpf4jnsgd1na2vs0mg"},{"bike_id":"222badfd-5695-4c5f-8b12-a4274837eb6d","system_id":"levelo_inurba_marseille","lat":43.26227,"lon":5.40456,"is_reserved":false,"is_disabled":false,"rental_uris":{"android":"levelo://app?vid=222badfd-5695-4c5f-8b12-a4274837eb6d","ios":"levelo://app?vid=222badfd-5695-4c5f-8b12-a4274837eb6d"},"vehicle_type_id":"4","last_reported":1767833933,"current_range_meters":5600,"station_id":"ce4bhmh2rcd13ifvqgmg","pricing_plan_id":"cebpf4jnsgd1na2vs0mg"},{"bike_id":"b283ae23-677c-4337-8745-6be6aec02668","system_id":"levelo_inurba_marseille","lat":43.299038,"lon":5.381465,"is_reserved":false,"is_disabled":false,"rental_uris":{"android":"levelo://app?vid=b283ae23-677c-4337-8745-6be6aec02668","ios":"levelo://app?vid=b283ae23-677c-4337-8745-6be6aec02668"},"vehicle_type_id":"4","last_reported":1767833933,"current_range_meters":6000,"station_id":"ce4bgj12rcd13ifvqbc0","pricing_plan_id":"cebpf4jnsgd1na2vs0mg"},{"bike_id":"0622f7c5-ee76-4fc8-a5df-57e2aa3c0085","system_id":"levelo_inurba_marseille","lat":43.29937,"lon":5.38064,"is_reserved":false,"is_disabled":false,"rental_uris":{"android":"levelo://app?vid=0622f7c5-ee76-4fc8-a5df-57e2aa3c0085","ios":"levelo://app?vid=0622f7c5-ee76-4fc8-a5df-57e2aa3c0085"},"vehicle_type_id":"4","last_reported":1767833933,"current_range_meters":6000,"station_id":"","pricing_plan_id":"cebpf4jnsgd1na2vs0mg"},{"bike_id":"2afed3db-e2da-422b-9792-6d03f768ecc2","system_id":"levelo_inurba_marseille","lat":43.31457,"lon":5.37304,"is_reserved":false,"is_disabled":false,"rental_uris":{"android":"levelo://app?vid=2afed3db-e2da-422b-9792-6d03f768ecc2","ios":"levelo://app?vid=2afed3db-e2da-422b-9792-6d03f768ecc2"},"vehicle_type_id":"4","last_reported":1767833933,"current_range_meters":6000,"station_id":"ce4bgt12rcd13ifvqcd0","pricing_plan_id":"cebpf4jnsgd1na2vs0mg"},{"bike_id":"f06731b9-371f-4f12-9db5-1d3ddf355151","system_id":"levelo_inurba_marseille","lat":43.28701,"lon":5.39977,"is_reserved":false,"is_disabled":false,"rental_uris":{"android":"levelo://app?vid=f06731b9-371f-4f12-9db5-1d3ddf355151","ios":"levelo://app?vid=f06731b9-371f-4f12-9db5-1d3ddf355151"},"vehicle_type_id":"4","last_reported":1767833933,"current_range_meters":6000,"station_id":"ce4bho92rcd13ifvqh3g","pricing_plan_id":"cebpf4jnsgd1na2vs0mg"},{"bike_id":"772bf3b5-2fb2-4abd-a529-fdf3012df8cc","system_id":"levelo_inurba_marseille","lat":43.25191,"lon":5.40595,"is_reserved":false,"is_disabled":false,"rental_uris":{"android":"levelo://app?vid=772bf3b5-2fb2-4abd-a529-fdf3012df8cc","ios":"levelo://app?vid=772bf3b5-2fb2-4abd-a529-fdf3012df8cc"},"vehicle_type_id":"4","last_reported":1767833933,"current_range_meters":6000,"station_id":"","pricing_plan_id":"cebpf4jnsgd1na2vs0mg"},{"bike_id":"f323eec5-f654-4bdf-8118-8c8db52565b4","system_id":"levelo_inurba_marseille","lat":43.28494,"lon":5.38743,"is_reserved":false,"is_disabled":false,"rental_uris":{"android":"levelo://app?vid=f323eec5-f654-4bdf-8118-8c8db52565b4","ios":"levelo://app?vid=f323eec5-f654-4bdf-8118-8c8db52565b4"},"vehicle_type_id":"4","last_reported":1767833933,"current_range_meters":6000,"station_id":"","pricing_plan_id":"cebpf4jnsgd1na2vs0mg"},{"bike_id":"e2de6e33-136a-4b50-9bee-761873cb6ead","system_id":"levelo_inurba_marseille","lat":43.26062,"lon":5.39423,"is_reserved":false,"is_disabled":false,"rental_uris":{"android":"levelo://app?vid=e2de6e33-136a-4b50-9bee-761873cb6ead","ios":"levelo://app?vid=e2de6e33-136a-4b50-9bee-761873cb6ead"},"vehicle_type_id":"4","last_reported":1767833933,"current_range_meters":6000,"station_id":"ce4bhh92rcd13ifvqfj0","pricing_plan_id":"cebpf4jnsgd1na2vs0mg"},{"bike_id":"c611e504-3b77-4b59-aa38-47c771d39d7d","system_id":"levelo_inurba_marseille","lat":43.28402,"lon":5.37504,"is_reserved":false,"is_disabled":false,"rental_uris":{"android":"levelo://app?vid=c611e504-3b77-4b59-aa38-47c771d39d7d","ios":"levelo://app?vid=c611e504-3b77-4b59-aa38-47c771d39d7d"},"vehicle_type_id":"4","last_reported":1767833933,"current_range_meters":6000,"station_id":"ce4bh412rcd13ifvqds0","pricing_plan_id":"cebpf4jnsgd1na2vs0mg"},{"bike_id":"335b914c-84ab-4a8b-bfbe-30c076718aeb","system_id":"levelo_inurba_marseille","lat":43.29531,"lon":5.38545,"is_reserved":false,"is_disabled":false,"rental_uris":{"android":"levelo://app?vid=335b914c-84ab-4a8b-bfbe-30c076718aeb","ios":"levelo://app?vid=335b914c-84ab-4a8b-bfbe-30c076718aeb"},"vehicle_type_id":"4","last_reported":1767833933,"current_range_meters":6000,"station_id":"ce4bgih2rcd13ifvqba0","pricing_plan_id":"cebpf4jnsgd1na2vs0mg"},{"bike_id":"8e9cd320-222e-4849-8f3f-db8fcd5c5954","system_id":"levelo_inurba_marseille","lat":43.31815,"lon":5.36865,"is_reserved":false,"is_disabled":false,"rental_uris":{"android":"levelo://app?vid=8e9cd320-222e-4849-8f3f-db8fcd5c5954","ios":"levelo://app?vid=8e9cd320-222e-4849-8f3f-db8fcd5c5954"},"vehicle_type_id":"4","last_reported":1767833933,"current_range_meters":6000,"station_id":"","pricing_plan_id":"cebpf4jnsgd1na2vs0mg"},{"bike_id":"a7e8b4f8-15c7-4593-b8a1-1dc1d30ad189","system_id":"levelo_inurba_marseille","lat":43.32053,"lon":5.38408,"is_reserved":false,"is_disabled":false,"rental_uris":{"android":"levelo://app?vid=a7e8b4f8-15c7-4593-b8a1-1dc1d30ad189","ios":"levelo://app?vid=a7e8b4f8-15c7-4593-b8a1-1dc1d30ad189"},"vehicle_type_id":"4","last_reported":1767833933,"current_range_meters":6000,"station_id":"","pricing_plan_id":"cebpf4jnsgd1na2vs0mg"},{"bike_id":"ce52b8f8-9066-45a8-8b05-34bc7d40a28f","system_id":"levelo_inurba_marseille","lat":43.28403,"lon":5.35012,"is_reserved":false,"is_disabled":false,"rental_uris":{"android":"levelo://app?vid=ce52b8f8-9066-45a8-8b05-34bc7d40a28f","ios":"levelo://app?vid=ce52b8f8-9066-45a8-8b05-34bc7d40a28f"},"vehicle_type_id":"4","last_reported":1767833933,"current_range_meters":6000,"station_id":"ce4bhbh2rcd13ifvqepg","pricing_plan_id":"cebpf4jnsgd1na2vs0mg"},{"bike_id":"80218f40-fe36-41e7-a9ea-0e24ebe75ec7","system_id":"levelo_inurba_marseille","lat":43.32024,"lon":5.41587,"is_reserved":false,"is_disabled":false,"rental_uris":{"android":"levelo://app?vid=80218f40-fe36-41e7-a9ea-0e24ebe75ec7","ios":"levelo://app?vid=80218f40-fe36-41e7-a9ea-0e24ebe75ec7"},"vehicle_type_id":"4","last_reported":1767833933,"current_range_meters":6000,"station_id":"ce4bhq92rcd13ifvqhkg","pricing_plan_id":"cebpf4jnsgd1na2vs0mg"},{"bike_id":"ffd3e781-5d7a-402d-b3cd-fe187c01f227","system_id":"levelo_inurba_marseille","lat":43.29133,"lon":5.40252,"is_reserved":false,"is_disabled":false,"rental_uris":{"android":"levelo://app?vid=ffd3e781-5d7a-402d-b3cd-fe187c01f227","ios":"levelo://app?vid=ffd3e781-5d7a-402d-b3cd-fe187c01f227"},"vehicle_type_id":"4","last_reported":1767833933,"current_range_meters":6000,"station_id":"","pricing_plan_id":"cebpf4jnsgd1na2vs0mg"},{"bike_id":"7e682e36-b1ae-4a20-ac09-db20276ca875","system_id":"levelo_inurba_marseille","lat":43.284113,"lon":5.375102,"is_reserved":false,"is_disabled":false,"rental_uris":{"android":"levelo://app?vid=7e682e36-b1ae-4a20-ac09-db20276ca875","ios":"levelo://app?vid=7e682e36-b1ae-4a20-ac09-db20276ca875"},"vehicle_type_id":"4","last_reported":1767833933,"current_range_meters":6000,"station_id":"ce4bh412rcd13ifvqds0","pricing_plan_id":"cebpf4jnsgd1na2vs0mg"},{"bike_id":"67d11be0-e6fc-45cf-9510-ea8c0226d011","system_id":"levelo_inurba_marseille","lat":43.298185,"lon":5.440743,"is_reserved":false,"is_disabled":true,"rental_uris":{"android":"levelo://app?vid=67d11be0-e6fc-45cf-9510-ea8c0226d011","ios":"levelo://app?vid=67d11be0-e6fc-45cf-9510-ea8c0226d011"},"vehicle_type_id":"4","last_reported":1767833933,"current_range_meters":6000,"station_id":"st_d3jp68qikq2c7381ktn0","pricing_plan_id":"cebpf4jnsgd1na2vs0mg"},{"bike_id":"98249e23-d727-42e2-bc64-1013f35aedc9","system_id":"levelo_inurba_marseille","lat":43.23056,"lon":5.35499,"is_reserved":false,"is_disabled":false,"rental_uris":{"android":"levelo://app?vid=98249e23-d727-42e2-bc64-1013f35aedc9","ios":"levelo://app?vid=98249e23-d727-42e2-bc64-1013f35aedc9"},"vehicle_type_id":"4","last_reported":1767833933,"current_range_meters":6400,"station_id":"cpo3342slgdg3j2ifvpg","pricing_plan_id":"cebpf4jnsgd1na2vs0mg"},{"bike_id":"8c6b7289-cbd1-47cb-9c93-f71bb5d01545","system_id":"levelo_inurba_marseille","lat":43.29315,"lon":5.37178,"is_reserved":false,"is_disabled":false,"rental_uris":{"android":"levelo://app?vid=8c6b7289-cbd1-47cb-9c93-f71bb5d01545","ios":"levelo://app?vid=8c6b7289-cbd1-47cb-9c93-f71bb5d01545"},"vehicle_type_id":"4","last_reported":1767833933,"current_range_meters":6400,"station_id":"ce4bgh92rcd13ifvqb40","pricing_plan_id":"cebpf4jnsgd1na2vs0mg"},{"bike_id":"49df9f58-4c6c-4a14-9c6c-a28e71f289d1","system_id":"levelo_inurba_marseille","lat":43.30216,"lon":5.39478,"is_reserved":false,"is_disabled":false,"rental_uris":{"android":"levelo://app?vid=49df9f58-4c6c-4a14-9c6c-a28e71f289d1","ios":"levelo://app?vid=49df9f58-4c6c-4a14-9c6c-a28e71f289d1"},"vehicle_type_id":"4","last_reported":1767833933,"current_range_meters":6400,"station_id":"ce4bh0p2rcd13ifvqd70","pricing_plan_id":"cebpf4jnsgd1na2vs0mg"},{"bike_id":"e90f7184-cd39-4bc0-805c-9ce2c7183400","system_id":"levelo_inurba_marseille","lat":43.262,"lon":5.37909,"is_reserved":false,"is_disabled":false,"rental_uris":{"android":"levelo://app?vid=e90f7184-cd39-4bc0-805c-9ce2c7183400","ios":"levelo://app?vid=e90f7184-cd39-4bc0-805c-9ce2c7183400"},"vehicle_type_id":"4","last_reported":1767833933,"current_range_meters":6400,"station_id":"ce4bhjp2rcd13ifvqg90","pricing_plan_id":"cebpf4jnsgd1na2vs0mg"},{"bike_id":"6a1a4864-d604-465c-a7f6-05f1bb288403","system_id":"levelo_inurba_marseille","lat":43.3074,"lon":5.42434,"is_reserved":false,"is_disabled":false,"rental_uris":{"android":"levelo://app?vid=6a1a4864-d604-465c-a7f6-05f1bb288403","ios":"levelo://app?vid=6a1a4864-d604-465c-a7f6-05f1bb288403"},"vehicle_type_id":"4","last_reported":1767833933,"current_range_meters":6400,"station_id":"st_cvj6ca6bvosntc0bfgr0","pricing_plan_id":"cebpf4jnsgd1na2vs0mg"},{"bike_id":"3cab5084-314a-4ac7-8e10-1255d6e07f7a","system_id":"levelo_inurba_marseille","lat":43.29797,"lon":5.3713,"is_reserved":false,"is_disabled":true,"rental_uris":{"android":"levelo://app?vid=3cab5084-314a-4ac7-8e10-1255d6e07f7a","ios":"levelo://app?vid=3cab5084-314a-4ac7-8e10-1255d6e07f7a"},"vehicle_type_id":"4","last_reported":1767833933,"current_range_meters":6400,"station_id":"ce4bgop2rcd13ifvqc1g","pricing_plan_id":"cebpf4jnsgd1na2vs0mg"},{"bike_id":"796165dd-6233-4b3e-bc69-5c2707fdcdd0","system_id":"levelo_inurba_marseille","lat":43.25504,"lon":5.37646,"is_reserved":false,"is_disabled":false,"rental_uris":{"android":"levelo://app?vid=796165dd-6233-4b3e-bc69-5c2707fdcdd0","ios":"levelo://app?vid=796165dd-6233-4b3e-bc69-5c2707fdcdd0"},"vehicle_type_id":"4","last_reported":1767833933,"current_range_meters":6400,"station_id":"ce4bhh12rcd13ifvqff0","pricing_plan_id":"cebpf4jnsgd1na2vs0mg"},{"bike_id":"4db89cd4-c5c0-4b0d-9bc8-e5c1ff64bca0","system_id":"levelo_inurba_marseille","lat":43.2957,"lon":5.38157,"is_reserved":false,"is_disabled":false,"rental_uris":{"android":"levelo://app?vid=4db89cd4-c5c0-4b0d-9bc8-e5c1ff64bca0","ios":"levelo://app?vid=4db89cd4-c5c0-4b0d-9bc8-e5c1ff64bca0"},"vehicle_type_id":"4","last_reported":1767833933,"current_range_meters":6400,"station_id":"","pricing_plan_id":"cebpf4jnsgd1na2vs0mg"},{"bike_id":"1ec94ba1-41d1-4288-80e5-6a131d1cb21d","system_id":"levelo_inurba_marseille","lat":43.25529,"lon":5.42001,"is_reserved":false,"is_disabled":false,"rental_uris":{"android":"levelo://app?vid=1ec94ba1-41d1-4288-80e5-6a131d1cb21d","ios":"levelo://app?vid=1ec94ba1-41d1-4288-80e5-6a131d1cb21d"},"vehicle_type_id":"4","last_reported":1767833933,"current_range_meters":6400,"station_id":"","pricing_plan_id":"cebpf4jnsgd1na2vs0mg"},{"bike_id":"44833d54-0e08-4546-b788-0c7150b05378","system_id":"levelo_inurba_marseille","lat":43.284818,"lon":5.483974,"is_reserved":false,"is_disabled":false,"rental_uris":{"android":"levelo://app?vid=44833d54-0e08-4546-b788-0c7150b05378","ios":"levelo://app?vid=44833d54-0e08-4546-b788-0c7150b05378"},"vehicle_type_id":"4","last_reported":1767833933,"current_range_meters":6400,"station_id":"st_d3svhcjqgbts73a3dn0g","pricing_plan_id":"cebpf4jnsgd1na2vs0mg"},{"bike_id":"16231082-412a-4778-8a5e-0d06c0440c52","system_id":"levelo_inurba_marseille","lat":43.264964,"lon":5.395369,"is_reserved":false,"is_disabled":false,"rental_uris":{"android":"levelo://app?vid=16231082-412a-4778-8a5e-0d06c0440c52","ios":"levelo://app?vid=16231082-412a-4778-8a5e-0d06c0440c52"},"vehicle_type_id":"4","last_reported":1767833933,"current_range_meters":6400,"station_id":"ce4bhi12rcd13ifvqfq0","pricing_plan_id":"cebpf4jnsgd1na2vs0mg"},{"bike_id":"116d5bcc-aa6a-45f6-8be4-b586d88a5403","system_id":"levelo_inurba_marseille","lat":43.29564,"lon":5.39988,"is_reserved":false,"is_disabled":false,"rental_uris":{"android":"levelo://app?vid=116d5bcc-aa6a-45f6-8be4-b586d88a5403","ios":"levelo://app?vid=116d5bcc-aa6a-45f6-8be4-b586d88a5403"},"vehicle_type_id":"4","last_reported":1767833933,"current_range_meters":6400,"station_id":"ce4bh312rcd13ifvqdj0","pricing_plan_id":"cebpf4jnsgd1na2vs0mg"},{"bike_id":"f059b61f-2955-4212-a201-090e4778e418","system_id":"levelo_inurba_marseille","lat":43.27073,"lon":5.38683,"is_reserved":false,"is_disabled":false,"rental_uris":{"android":"levelo://app?vid=f059b61f-2955-4212-a201-090e4778e418","ios":"levelo://app?vid=f059b61f-2955-4212-a201-090e4778e418"},"vehicle_type_id":"4","last_reported":1767833933,"current_range_meters":6400,"station_id":"","pricing_plan_id":"cebpf4jnsgd1na2vs0mg"},{"bike_id":"fad1735a-a900-4dbc-a04c-0533706c1e2f","system_id":"levelo_inurba_marseille","lat":43.28693,"lon":5.37412,"is_reserved":false,"is_disabled":false,"rental_uris":{"android":"levelo://app?vid=fad1735a-a900-4dbc-a04c-0533706c1e2f","ios":"levelo://app?vid=fad1735a-a900-4dbc-a04c-0533706c1e2f"},"vehicle_type_id":"4","last_reported":1767833933,"current_range_meters":6400,"station_id":"ce4bh3p2rcd13ifvqdq0","pricing_plan_id":"cebpf4jnsgd1na2vs0mg"},{"bike_id":"a57986d0-0f04-42c0-89d1-f819678b70e6","system_id":"levelo_inurba_marseille","lat":43.24671,"lon":5.38142,"is_reserved":false,"is_disabled":false,"rental_uris":{"android":"levelo://app?vid=a57986d0-0f04-42c0-89d1-f819678b70e6","ios":"levelo://app?vid=a57986d0-0f04-42c0-89d1-f819678b70e6"},"vehicle_type_id":"4","last_reported":1767833933,"current_range_meters":6800,"station_id":"ce4bhih2rcd13ifvqfr0","pricing_plan_id":"cebpf4jnsgd1na2vs0mg"},{"bike_id":"80c53f0b-8cee-4eb0-b3ba-2d7c186356ee","system_id":"levelo_inurba_marseille","lat":43.26571,"lon":5.39022,"is_reserved":false,"is_disabled":false,"rental_uris":{"android":"levelo://app?vid=80c53f0b-8cee-4eb0-b3ba-2d7c186356ee","ios":"levelo://app?vid=80c53f0b-8cee-4eb0-b3ba-2d7c186356ee"},"vehicle_type_id":"4","last_reported":1767833933,"current_range_meters":6800,"station_id":"ce4bhe12rcd13ifvqf30","pricing_plan_id":"cebpf4jnsgd1na2vs0mg"},{"bike_id":"2fcbd31e-a780-46ba-8935-39f08bf1b40a","system_id":"levelo_inurba_marseille","lat":43.292695,"lon":5.368479,"is_reserved":false,"is_disabled":false,"rental_uris":{"android":"levelo://app?vid=2fcbd31e-a780-46ba-8935-39f08bf1b40a","ios":"levelo://app?vid=2fcbd31e-a780-46ba-8935-39f08bf1b40a"},"vehicle_type_id":"4","last_reported":1767833933,"current_range_meters":6800,"station_id":"ce4bhbp2rcd13ifvqesg","pricing_plan_id":"cebpf4jnsgd1na2vs0mg"},{"bike_id":"f9694d4b-6e2f-4fc5-ae06-59dad6b1ea4d","system_id":"levelo_inurba_marseille","lat":43.25025,"lon":5.37533,"is_reserved":false,"is_disabled":false,"rental_uris":{"android":"levelo://app?vid=f9694d4b-6e2f-4fc5-ae06-59dad6b1ea4d","ios":"levelo://app?vid=f9694d4b-6e2f-4fc5-ae06-59dad6b1ea4d"},"vehicle_type_id":"4","last_reported":1767833933,"current_range_meters":6800,"station_id":"","pricing_plan_id":"cebpf4jnsgd1na2vs0mg"},{"bike_id":"948bd2ed-8fdc-4ef6-9827-a943cc835e12","system_id":"levelo_inurba_marseille","lat":43.30172,"lon":5.43119,"is_reserved":false,"is_disabled":false,"rental_uris":{"android":"levelo://app?vid=948bd2ed-8fdc-4ef6-9827-a943cc835e12","ios":"levelo://app?vid=948bd2ed-8fdc-4ef6-9827-a943cc835e12"},"vehicle_type_id":"4","last_reported":1767833933,"current_range_meters":6800,"station_id":"st_d3js3co5814s73ftftug","pricing_plan_id":"cebpf4jnsgd1na2vs0mg"},{"bike_id":"44c38d79-7c20-4e2b-bd52-9b8829a73a76","system_id":"levelo_inurba_marseille","lat":43.31176,"lon":5.38717,"is_reserved":false,"is_disabled":false,"rental_uris":{"android":"levelo://app?vid=44c38d79-7c20-4e2b-bd52-9b8829a73a76","ios":"levelo://app?vid=44c38d79-7c20-4e2b-bd52-9b8829a73a76"},"vehicle_type_id":"4","last_reported":1767833933,"current_range_meters":6800,"station_id":"ce4bgv12rcd13ifvqcp0","pricing_plan_id":"cebpf4jnsgd1na2vs0mg"},{"bike_id":"6780348f-fb93-4884-95fc-676ab6258ce9","system_id":"levelo_inurba_marseille","lat":43.270568,"lon":5.38308,"is_reserved":false,"is_disabled":false,"rental_uris":{"android":"levelo://app?vid=6780348f-fb93-4884-95fc-676ab6258ce9","ios":"levelo://app?vid=6780348f-fb93-4884-95fc-676ab6258ce9"},"vehicle_type_id":"4","last_reported":1767833933,"current_range_meters":6800,"station_id":"st_d3n2fo6cfp8s73cte1j0","pricing_plan_id":"cebpf4jnsgd1na2vs0mg"},{"bike_id":"03bb26cc-5abe-463b-b42d-df12dfc80fb1","system_id":"levelo_inurba_marseille","lat":43.27983,"lon":5.4004,"is_reserved":false,"is_disabled":false,"rental_uris":{"android":"levelo://app?vid=03bb26cc-5abe-463b-b42d-df12dfc80fb1","ios":"levelo://app?vid=03bb26cc-5abe-463b-b42d-df12dfc80fb1"},"vehicle_type_id":"4","last_reported":1767833933,"current_range_meters":6800,"station_id":"ce4bho92rcd13ifvqh4g","pricing_plan_id":"cebpf4jnsgd1na2vs0mg"},{"bike_id":"806b3fa7-e98e-48cb-94d5-60279158dc65","system_id":"levelo_inurba_marseille","lat":43.25586,"lon":5.38238,"is_reserved":false,"is_disabled":false,"rental_uris":{"android":"levelo://app?vid=806b3fa7-e98e-48cb-94d5-60279158dc65","ios":"levelo://app?vid=806b3fa7-e98e-48cb-94d5-60279158dc65"},"vehicle_type_id":"4","last_reported":1767833933,"current_range_meters":6800,"station_id":"ce4bhih2rcd13ifvqfs0","pricing_plan_id":"cebpf4jnsgd1na2vs0mg"},{"bike_id":"9cd73fd2-b659-49f3-b7fd-4ae52a0e05b8","system_id":"levelo_inurba_marseille","lat":43.32503,"lon":5.38292,"is_reserved":false,"is_disabled":false,"rental_uris":{"android":"levelo://app?vid=9cd73fd2-b659-49f3-b7fd-4ae52a0e05b8","ios":"levelo://app?vid=9cd73fd2-b659-49f3-b7fd-4ae52a0e05b8"},"vehicle_type_id":"4","last_reported":1767833933,"current_range_meters":6800,"station_id":"st_d4asgbiv49dc73anf9m0","pricing_plan_id":"cebpf4jnsgd1na2vs0mg"},{"bike_id":"31366011-4d9e-4c82-80ab-47291dcd4297","system_id":"levelo_inurba_marseille","lat":43.29011,"lon":5.35628,"is_reserved":false,"is_disabled":false,"rental_uris":{"android":"levelo://app?vid=31366011-4d9e-4c82-80ab-47291dcd4297","ios":"levelo://app?vid=31366011-4d9e-4c82-80ab-47291dcd4297"},"vehicle_type_id":"4","last_reported":1767833933,"current_range_meters":6800,"station_id":"ce4bhb92rcd13ifvqen0","pricing_plan_id":"cebpf4jnsgd1na2vs0mg"},{"bike_id":"ca27890e-612e-41f2-b590-56bc13733871","system_id":"levelo_inurba_marseille","lat":43.31075,"lon":5.38364,"is_reserved":false,"is_disabled":false,"rental_uris":{"android":"levelo://app?vid=ca27890e-612e-41f2-b590-56bc13733871","ios":"levelo://app?vid=ca27890e-612e-41f2-b590-56bc13733871"},"vehicle_type_id":"4","last_reported":1767833933,"current_range_meters":6800,"station_id":"ce4bgv92rcd13ifvqcr0","pricing_plan_id":"cebpf4jnsgd1na2vs0mg"},{"bike_id":"435661c6-6263-4923-858f-0cff1909f8bf","system_id":"levelo_inurba_marseille","lat":43.28708,"lon":5.37988,"is_reserved":false,"is_disabled":false,"rental_uris":{"android":"levelo://app?vid=435661c6-6263-4923-858f-0cff1909f8bf","ios":"levelo://app?vid=435661c6-6263-4923-858f-0cff1909f8bf"},"vehicle_type_id":"4","last_reported":1767833933,"current_range_meters":6800,"station_id":"ce4bh9p2rcd13ifvqec0","pricing_plan_id":"cebpf4jnsgd1na2vs0mg"},{"bike_id":"eae761f2-f1a7-4631-8e16-2a20f2149437","system_id":"levelo_inurba_marseille","lat":43.26569,"lon":5.39045,"is_reserved":false,"is_disabled":true,"rental_uris":{"android":"levelo://app?vid=eae761f2-f1a7-4631-8e16-2a20f2149437","ios":"levelo://app?vid=eae761f2-f1a7-4631-8e16-2a20f2149437"},"vehicle_type_id":"4","last_reported":1767833933,"current_range_meters":6800,"station_id":"ce4bhe12rcd13ifvqf30","pricing_plan_id":"cebpf4jnsgd1na2vs0mg"},{"bike_id":"d75a90cd-5dce-4bdd-84ef-6b9526859b57","system_id":"levelo_inurba_marseille","lat":43.32497,"lon":5.38291,"is_reserved":false,"is_disabled":false,"rental_uris":{"android":"levelo://app?vid=d75a90cd-5dce-4bdd-84ef-6b9526859b57","ios":"levelo://app?vid=d75a90cd-5dce-4bdd-84ef-6b9526859b57"},"vehicle_type_id":"4","last_reported":1767833933,"current_range_meters":6800,"station_id":"st_d4asgbiv49dc73anf9m0","pricing_plan_id":"cebpf4jnsgd1na2vs0mg"},{"bike_id":"12d41d42-0df1-44df-b48f-62c73404ec27","system_id":"levelo_inurba_marseille","lat":43.270555,"lon":5.38305,"is_reserved":false,"is_disabled":false,"rental_uris":{"android":"levelo://app?vid=12d41d42-0df1-44df-b48f-62c73404ec27","ios":"levelo://app?vid=12d41d42-0df1-44df-b48f-62c73404ec27"},"vehicle_type_id":"4","last_reported":1767833933,"current_range_meters":6800,"station_id":"st_d3n2fo6cfp8s73cte1j0","pricing_plan_id":"cebpf4jnsgd1na2vs0mg"},{"bike_id":"5ddc36fe-25ae-4411-85cc-e5b7ed02f34a","system_id":"levelo_inurba_marseille","lat":43.28609,"lon":5.37064,"is_reserved":false,"is_disabled":false,"rental_uris":{"android":"levelo://app?vid=5ddc36fe-25ae-4411-85cc-e5b7ed02f34a","ios":"levelo://app?vid=5ddc36fe-25ae-4411-85cc-e5b7ed02f34a"},"vehicle_type_id":"4","last_reported":1767833933,"current_range_meters":6800,"station_id":"ce4bht12rcd13ifvqi60","pricing_plan_id":"cebpf4jnsgd1na2vs0mg"},{"bike_id":"d0d67774-3af3-4c86-b7b6-8109c321647b","system_id":"levelo_inurba_marseille","lat":43.22949,"lon":5.35375,"is_reserved":false,"is_disabled":false,"rental_uris":{"android":"levelo://app?vid=d0d67774-3af3-4c86-b7b6-8109c321647b","ios":"levelo://app?vid=d0d67774-3af3-4c86-b7b6-8109c321647b"},"vehicle_type_id":"4","last_reported":1767833933,"current_range_meters":6800,"station_id":"cpo3532slgdg3j2ikp40","pricing_plan_id":"cebpf4jnsgd1na2vs0mg"},{"bike_id":"47d0a8b3-c4fc-4d20-befe-0d9c69ad92a9","system_id":"levelo_inurba_marseille","lat":43.238017,"lon":5.36647,"is_reserved":false,"is_disabled":false,"rental_uris":{"android":"levelo://app?vid=47d0a8b3-c4fc-4d20-befe-0d9c69ad92a9","ios":"levelo://app?vid=47d0a8b3-c4fc-4d20-befe-0d9c69ad92a9"},"vehicle_type_id":"4","last_reported":1767833933,"current_range_meters":6800,"station_id":"st_d3nk18o9ro0c73en2l3g","pricing_plan_id":"cebpf4jnsgd1na2vs0mg"},{"bike_id":"7212c506-8e20-45d4-b6de-1c7df85bb237","system_id":"levelo_inurba_marseille","lat":43.28932,"lon":5.38401,"is_reserved":false,"is_disabled":false,"rental_uris":{"android":"levelo://app?vid=7212c506-8e20-45d4-b6de-1c7df85bb237","ios":"levelo://app?vid=7212c506-8e20-45d4-b6de-1c7df85bb237"},"vehicle_type_id":"4","last_reported":1767833933,"current_range_meters":7200,"station_id":"ce4bh612rcd13ifvqe6g","pricing_plan_id":"cebpf4jnsgd1na2vs0mg"},{"bike_id":"5a68ff48-3ca4-4b8d-81f5-0545c9e06ce5","system_id":"levelo_inurba_marseille","lat":43.28886,"lon":5.42513,"is_reserved":false,"is_disabled":false,"rental_uris":{"android":"levelo://app?vid=5a68ff48-3ca4-4b8d-81f5-0545c9e06ce5","ios":"levelo://app?vid=5a68ff48-3ca4-4b8d-81f5-0545c9e06ce5"},"vehicle_type_id":"4","last_reported":1767833933,"current_range_meters":7200,"station_id":"st_d3b462108ojc7389ooeg","pricing_plan_id":"cebpf4jnsgd1na2vs0mg"},{"bike_id":"7bed6c7f-598e-48e9-bae3-214e5eee84f3","system_id":"levelo_inurba_marseille","lat":43.24471,"lon":5.4253,"is_reserved":false,"is_disabled":false,"rental_uris":{"android":"levelo://app?vid=7bed6c7f-598e-48e9-bae3-214e5eee84f3","ios":"levelo://app?vid=7bed6c7f-598e-48e9-bae3-214e5eee84f3"},"vehicle_type_id":"4","last_reported":1767833933,"current_range_meters":7200,"station_id":"st_d4a3vfp97mjs738cd8kg","pricing_plan_id":"cebpf4jnsgd1na2vs0mg"},{"bike_id":"f6c1d545-d8df-48a4-b906-098a561f57c6","system_id":"levelo_inurba_marseille","lat":43.29495,"lon":5.4331,"is_reserved":false,"is_disabled":false,"rental_uris":{"android":"levelo://app?vid=f6c1d545-d8df-48a4-b906-098a561f57c6","ios":"levelo://app?vid=f6c1d545-d8df-48a4-b906-098a561f57c6"},"vehicle_type_id":"4","last_reported":1767833933,"current_range_meters":7200,"station_id":"st_d3j5ugp08ojc73fj9d10","pricing_plan_id":"cebpf4jnsgd1na2vs0mg"},{"bike_id":"6f736490-22b7-49cc-876e-28f8d1695e39","system_id":"levelo_inurba_marseille","lat":43.24393,"lon":5.37063,"is_reserved":false,"is_disabled":false,"rental_uris":{"android":"levelo://app?vid=6f736490-22b7-49cc-876e-28f8d1695e39","ios":"levelo://app?vid=6f736490-22b7-49cc-876e-28f8d1695e39"},"vehicle_type_id":"4","last_reported":1767833933,"current_range_meters":7200,"station_id":"ce4bhhh2rcd13ifvqfk0","pricing_plan_id":"cebpf4jnsgd1na2vs0mg"},{"bike_id":"32adf70f-61f9-4601-adef-7b10a2555dc1","system_id":"levelo_inurba_marseille","lat":43.30791,"lon":5.38158,"is_reserved":false,"is_disabled":false,"rental_uris":{"android":"levelo://app?vid=32adf70f-61f9-4601-adef-7b10a2555dc1","ios":"levelo://app?vid=32adf70f-61f9-4601-adef-7b10a2555dc1"},"vehicle_type_id":"4","last_reported":1767833933,"current_range_meters":7200,"station_id":"ce4bgt12rcd13ifvqce0","pricing_plan_id":"cebpf4jnsgd1na2vs0mg"},{"bike_id":"d71e68de-cd14-4ba9-a968-9ec46d820fce","system_id":"levelo_inurba_marseille","lat":43.29262,"lon":5.40897,"is_reserved":false,"is_disabled":false,"rental_uris":{"android":"levelo://app?vid=d71e68de-cd14-4ba9-a968-9ec46d820fce","ios":"levelo://app?vid=d71e68de-cd14-4ba9-a968-9ec46d820fce"},"vehicle_type_id":"4","last_reported":1767833933,"current_range_meters":7200,"station_id":"ce4bh192rcd13ifvqdc0","pricing_plan_id":"cebpf4jnsgd1na2vs0mg"},{"bike_id":"7e56ead6-0dcc-483d-86d1-d4af73c68e4a","system_id":"levelo_inurba_marseille","lat":43.29392,"lon":5.38612,"is_reserved":false,"is_disabled":true,"rental_uris":{"android":"levelo://app?vid=7e56ead6-0dcc-483d-86d1-d4af73c68e4a","ios":"levelo://app?vid=7e56ead6-0dcc-483d-86d1-d4af73c68e4a"},"vehicle_type_id":"4","last_reported":1767833933,"current_range_meters":7200,"station_id":"","pricing_plan_id":"cebpf4jnsgd1na2vs0mg"},{"bike_id":"64e41f0b-72ab-45c6-9bed-ed9fcbc13325","system_id":"levelo_inurba_marseille","lat":43.28264,"lon":5.35086,"is_reserved":false,"is_disabled":false,"rental_uris":{"android":"levelo://app?vid=64e41f0b-72ab-45c6-9bed-ed9fcbc13325","ios":"levelo://app?vid=64e41f0b-72ab-45c6-9bed-ed9fcbc13325"},"vehicle_type_id":"4","last_reported":1767833933,"current_range_meters":7200,"station_id":"ce4bhbp2rcd13ifvqerg","pricing_plan_id":"cebpf4jnsgd1na2vs0mg"},{"bike_id":"f2f0b6ad-ec3b-4c22-8163-e14a3abefa1d","system_id":"levelo_inurba_marseille","lat":43.280804,"lon":5.39642,"is_reserved":false,"is_disabled":false,"rental_uris":{"android":"levelo://app?vid=f2f0b6ad-ec3b-4c22-8163-e14a3abefa1d","ios":"levelo://app?vid=f2f0b6ad-ec3b-4c22-8163-e14a3abefa1d"},"vehicle_type_id":"4","last_reported":1767833933,"current_range_meters":7200,"station_id":"ce4bho12rcd13ifvqh2g","pricing_plan_id":"cebpf4jnsgd1na2vs0mg"},{"bike_id":"866cf0cc-d35d-4d0b-aa73-c6d4ad59d020","system_id":"levelo_inurba_marseille","lat":43.28687,"lon":5.38661,"is_reserved":false,"is_disabled":false,"rental_uris":{"android":"levelo://app?vid=866cf0cc-d35d-4d0b-aa73-c6d4ad59d020","ios":"levelo://app?vid=866cf0cc-d35d-4d0b-aa73-c6d4ad59d020"},"vehicle_type_id":"4","last_reported":1767833933,"current_range_meters":7200,"station_id":"ce4bh492rcd13ifvqdug","pricing_plan_id":"cebpf4jnsgd1na2vs0mg"},{"bike_id":"318ab7ee-cd4e-4fbb-a198-dc67360e53a7","system_id":"levelo_inurba_marseille","lat":43.22932,"lon":5.35378,"is_reserved":false,"is_disabled":false,"rental_uris":{"android":"levelo://app?vid=318ab7ee-cd4e-4fbb-a198-dc67360e53a7","ios":"levelo://app?vid=318ab7ee-cd4e-4fbb-a198-dc67360e53a7"},"vehicle_type_id":"4","last_reported":1767833933,"current_range_meters":7200,"station_id":"cpo3532slgdg3j2ikp40","pricing_plan_id":"cebpf4jnsgd1na2vs0mg"},{"bike_id":"7ae2676e-e662-4a9a-a79a-d5011de94824","system_id":"levelo_inurba_marseille","lat":43.24165,"lon":5.36405,"is_reserved":false,"is_disabled":false,"rental_uris":{"android":"levelo://app?vid=7ae2676e-e662-4a9a-a79a-d5011de94824","ios":"levelo://app?vid=7ae2676e-e662-4a9a-a79a-d5011de94824"},"vehicle_type_id":"4","last_reported":1767833933,"current_range_meters":7200,"station_id":"cpo36qri1sfpv3e86is0","pricing_plan_id":"cebpf4jnsgd1na2vs0mg"},{"bike_id":"fe99a84f-5ce7-4cef-a997-e79fffe9bddd","system_id":"levelo_inurba_marseille","lat":43.32097,"lon":5.36759,"is_reserved":false,"is_disabled":false,"rental_uris":{"android":"levelo://app?vid=fe99a84f-5ce7-4cef-a997-e79fffe9bddd","ios":"levelo://app?vid=fe99a84f-5ce7-4cef-a997-e79fffe9bddd"},"vehicle_type_id":"4","last_reported":1767833933,"current_range_meters":7200,"station_id":"ce4bhrh2rcd13ifvqhug","pricing_plan_id":"cebpf4jnsgd1na2vs0mg"},{"bike_id":"c4cba06a-864a-42b1-807e-8aa65f9face9","system_id":"levelo_inurba_marseille","lat":43.29194,"lon":5.35806,"is_reserved":false,"is_disabled":false,"rental_uris":{"android":"levelo://app?vid=c4cba06a-864a-42b1-807e-8aa65f9face9","ios":"levelo://app?vid=c4cba06a-864a-42b1-807e-8aa65f9face9"},"vehicle_type_id":"4","last_reported":1767833933,"current_range_meters":7200,"station_id":"ce4bhb12rcd13ifvqel0","pricing_plan_id":"cebpf4jnsgd1na2vs0mg"},{"bike_id":"d9041873-a790-4ec5-9bcf-7158fa8b3b6a","system_id":"levelo_inurba_marseille","lat":43.2994,"lon":5.36544,"is_reserved":false,"is_disabled":false,"rental_uris":{"android":"levelo://app?vid=d9041873-a790-4ec5-9bcf-7158fa8b3b6a","ios":"levelo://app?vid=d9041873-a790-4ec5-9bcf-7158fa8b3b6a"},"vehicle_type_id":"4","last_reported":1767833933,"current_range_meters":7200,"station_id":"ce4bgm92rcd13ifvqbr0","pricing_plan_id":"cebpf4jnsgd1na2vs0mg"},{"bike_id":"17ffc005-fa72-4d1f-9413-b31aab6a3fd6","system_id":"levelo_inurba_marseille","lat":43.32357,"lon":5.3673,"is_reserved":false,"is_disabled":false,"rental_uris":{"android":"levelo://app?vid=17ffc005-fa72-4d1f-9413-b31aab6a3fd6","ios":"levelo://app?vid=17ffc005-fa72-4d1f-9413-b31aab6a3fd6"},"vehicle_type_id":"4","last_reported":1767833933,"current_range_meters":7200,"station_id":"ce4bhsh2rcd13ifvqi2g","pricing_plan_id":"cebpf4jnsgd1na2vs0mg"},{"bike_id":"01d8e2c9-d4ce-48e6-afef-8bf3104cf069","system_id":"levelo_inurba_marseille","lat":43.27177,"lon":5.409972,"is_reserved":false,"is_disabled":false,"rental_uris":{"android":"levelo://app?vid=01d8e2c9-d4ce-48e6-afef-8bf3104cf069","ios":"levelo://app?vid=01d8e2c9-d4ce-48e6-afef-8bf3104cf069"},"vehicle_type_id":"4","last_reported":1767833933,"current_range_meters":7200,"station_id":"ce4bhl12rcd13ifvqgf0","pricing_plan_id":"cebpf4jnsgd1na2vs0mg"},{"bike_id":"0076bf2a-ba6e-491e-990e-dad36b9a258b","system_id":"levelo_inurba_marseille","lat":43.30448,"lon":5.38883,"is_reserved":false,"is_disabled":true,"rental_uris":{"android":"levelo://app?vid=0076bf2a-ba6e-491e-990e-dad36b9a258b","ios":"levelo://app?vid=0076bf2a-ba6e-491e-990e-dad36b9a258b"},"vehicle_type_id":"4","last_reported":1767833933,"current_range_meters":7200,"station_id":"ce4bgk12rcd13ifvqbi0","pricing_plan_id":"cebpf4jnsgd1na2vs0mg"},{"bike_id":"e3ffb854-e428-4a18-904d-ea5ddd084e10","system_id":"levelo_inurba_marseille","lat":43.32348,"lon":5.36721,"is_reserved":false,"is_disabled":false,"rental_uris":{"android":"levelo://app?vid=e3ffb854-e428-4a18-904d-ea5ddd084e10","ios":"levelo://app?vid=e3ffb854-e428-4a18-904d-ea5ddd084e10"},"vehicle_type_id":"4","last_reported":1767833933,"current_range_meters":7200,"station_id":"ce4bhsh2rcd13ifvqi2g","pricing_plan_id":"cebpf4jnsgd1na2vs0mg"},{"bike_id":"7263f487-87cc-48fb-a605-66fd2a27085e","system_id":"levelo_inurba_marseille","lat":43.258676,"lon":5.399043,"is_reserved":false,"is_disabled":false,"rental_uris":{"android":"levelo://app?vid=7263f487-87cc-48fb-a605-66fd2a27085e","ios":"levelo://app?vid=7263f487-87cc-48fb-a605-66fd2a27085e"},"vehicle_type_id":"4","last_reported":1767833933,"current_range_meters":7200,"station_id":"ce4bhl92rcd13ifvqghg","pricing_plan_id":"cebpf4jnsgd1na2vs0mg"},{"bike_id":"0b08096c-4995-449d-9715-13377335d815","system_id":"levelo_inurba_marseille","lat":43.225742,"lon":5.416218,"is_reserved":false,"is_disabled":false,"rental_uris":{"android":"levelo://app?vid=0b08096c-4995-449d-9715-13377335d815","ios":"levelo://app?vid=0b08096c-4995-449d-9715-13377335d815"},"vehicle_type_id":"4","last_reported":1767833933,"current_range_meters":7200,"station_id":"st_d2o4gvlbi1j2169b742g","pricing_plan_id":"cebpf4jnsgd1na2vs0mg"},{"bike_id":"76236588-c482-4b6a-b812-2ea8d6e9d28c","system_id":"levelo_inurba_marseille","lat":43.28409,"lon":5.37516,"is_reserved":false,"is_disabled":false,"rental_uris":{"android":"levelo://app?vid=76236588-c482-4b6a-b812-2ea8d6e9d28c","ios":"levelo://app?vid=76236588-c482-4b6a-b812-2ea8d6e9d28c"},"vehicle_type_id":"4","last_reported":1767833933,"current_range_meters":7200,"station_id":"ce4bh412rcd13ifvqds0","pricing_plan_id":"cebpf4jnsgd1na2vs0mg"},{"bike_id":"9b9e7c0d-8b05-4d0a-9b2e-71cd579eefc9","system_id":"levelo_inurba_marseille","lat":43.32363,"lon":5.36753,"is_reserved":false,"is_disabled":false,"rental_uris":{"android":"levelo://app?vid=9b9e7c0d-8b05-4d0a-9b2e-71cd579eefc9","ios":"levelo://app?vid=9b9e7c0d-8b05-4d0a-9b2e-71cd579eefc9"},"vehicle_type_id":"4","last_reported":1767833933,"current_range_meters":7200,"station_id":"ce4bhsh2rcd13ifvqi2g","pricing_plan_id":"cebpf4jnsgd1na2vs0mg"},{"bike_id":"e333ef92-9481-476e-a416-b4070e2823b7","system_id":"levelo_inurba_marseille","lat":43.254988,"lon":5.37658,"is_reserved":false,"is_disabled":false,"rental_uris":{"android":"levelo://app?vid=e333ef92-9481-476e-a416-b4070e2823b7","ios":"levelo://app?vid=e333ef92-9481-476e-a416-b4070e2823b7"},"vehicle_type_id":"4","last_reported":1767833933,"current_range_meters":7200,"station_id":"ce4bhh12rcd13ifvqff0","pricing_plan_id":"cebpf4jnsgd1na2vs0mg"},{"bike_id":"f88bc427-163b-46cf-b631-f9c6628b8e18","system_id":"levelo_inurba_marseille","lat":43.28944,"lon":5.36638,"is_reserved":false,"is_disabled":false,"rental_uris":{"android":"levelo://app?vid=f88bc427-163b-46cf-b631-f9c6628b8e18","ios":"levelo://app?vid=f88bc427-163b-46cf-b631-f9c6628b8e18"},"vehicle_type_id":"4","last_reported":1767833933,"current_range_meters":7200,"station_id":"ce4bhap2rcd13ifvqek0","pricing_plan_id":"cebpf4jnsgd1na2vs0mg"},{"bike_id":"31ef6104-524a-4758-8a5c-811acc4ab6a4","system_id":"levelo_inurba_marseille","lat":43.28479,"lon":5.48408,"is_reserved":false,"is_disabled":false,"rental_uris":{"android":"levelo://app?vid=31ef6104-524a-4758-8a5c-811acc4ab6a4","ios":"levelo://app?vid=31ef6104-524a-4758-8a5c-811acc4ab6a4"},"vehicle_type_id":"4","last_reported":1767833933,"current_range_meters":7200,"station_id":"st_d3svhcjqgbts73a3dn0g","pricing_plan_id":"cebpf4jnsgd1na2vs0mg"},{"bike_id":"b0fc992c-b034-4256-b199-935b86901d2f","system_id":"levelo_inurba_marseille","lat":43.22926,"lon":5.35405,"is_reserved":false,"is_disabled":false,"rental_uris":{"android":"levelo://app?vid=b0fc992c-b034-4256-b199-935b86901d2f","ios":"levelo://app?vid=b0fc992c-b034-4256-b199-935b86901d2f"},"vehicle_type_id":"4","last_reported":1767833933,"current_range_meters":8000,"station_id":"cpo3532slgdg3j2ikp40","pricing_plan_id":"cebpf4jnsgd1na2vs0mg"},{"bike_id":"e956cf69-587f-4619-b493-ed96c18db895","system_id":"levelo_inurba_marseille","lat":43.29561,"lon":5.3751,"is_reserved":false,"is_disabled":false,"rental_uris":{"android":"levelo://app?vid=e956cf69-587f-4619-b493-ed96c18db895","ios":"levelo://app?vid=e956cf69-587f-4619-b493-ed96c18db895"},"vehicle_type_id":"4","last_reported":1767833933,"current_range_meters":8000,"station_id":"ce4bgh92rcd13ifvqb50","pricing_plan_id":"cebpf4jnsgd1na2vs0mg"},{"bike_id":"19e15d06-cf4c-459d-8887-b3feaa0bcacf","system_id":"levelo_inurba_marseille","lat":43.328631,"lon":5.404819,"is_reserved":false,"is_disabled":false,"rental_uris":{"android":"levelo://app?vid=19e15d06-cf4c-459d-8887-b3feaa0bcacf","ios":"levelo://app?vid=19e15d06-cf4c-459d-8887-b3feaa0bcacf"},"vehicle_type_id":"4","last_reported":1767833933,"current_range_meters":8000,"station_id":"ce4bhq92rcd13ifvqhkg","pricing_plan_id":"cebpf4jnsgd1na2vs0mg"},{"bike_id":"fee27f74-f4b1-4b23-ae98-96cfeaf490a7","system_id":"levelo_inurba_marseille","lat":43.291925,"lon":5.3932,"is_reserved":false,"is_disabled":false,"rental_uris":{"android":"levelo://app?vid=fee27f74-f4b1-4b23-ae98-96cfeaf490a7","ios":"levelo://app?vid=fee27f74-f4b1-4b23-ae98-96cfeaf490a7"},"vehicle_type_id":"4","last_reported":1767833933,"current_range_meters":8000,"station_id":"ce4bh192rcd13ifvqdd0","pricing_plan_id":"cebpf4jnsgd1na2vs0mg"},{"bike_id":"c10c03af-eba1-4f9f-a373-ad08e2aac44e","system_id":"levelo_inurba_marseille","lat":43.25917,"lon":5.40893,"is_reserved":false,"is_disabled":false,"rental_uris":{"android":"levelo://app?vid=c10c03af-eba1-4f9f-a373-ad08e2aac44e","ios":"levelo://app?vid=c10c03af-eba1-4f9f-a373-ad08e2aac44e"},"vehicle_type_id":"4","last_reported":1767833933,"current_range_meters":8000,"station_id":"ce4bhm92rcd13ifvqglg","pricing_plan_id":"cebpf4jnsgd1na2vs0mg"},{"bike_id":"686bcbac-7ffb-4bc9-afb0-a18e8a9323c9","system_id":"levelo_inurba_marseille","lat":43.29363,"lon":5.37873,"is_reserved":false,"is_disabled":false,"rental_uris":{"android":"levelo://app?vid=686bcbac-7ffb-4bc9-afb0-a18e8a9323c9","ios":"levelo://app?vid=686bcbac-7ffb-4bc9-afb0-a18e8a9323c9"},"vehicle_type_id":"4","last_reported":1767833933,"current_range_meters":8000,"station_id":"ce4bgjh2rcd13ifvqbf0","pricing_plan_id":"cebpf4jnsgd1na2vs0mg"},{"bike_id":"6db3e879-7db1-4265-b6c4-82a384e02e24","system_id":"levelo_inurba_marseille","lat":43.27816,"lon":5.40711,"is_reserved":false,"is_disabled":false,"rental_uris":{"android":"levelo://app?vid=6db3e879-7db1-4265-b6c4-82a384e02e24","ios":"levelo://app?vid=6db3e879-7db1-4265-b6c4-82a384e02e24"},"vehicle_type_id":"4","last_reported":1767833933,"current_range_meters":8000,"station_id":"ce4bhnh2rcd13ifvqgtg","pricing_plan_id":"cebpf4jnsgd1na2vs0mg"},{"bike_id":"c733299c-cde7-442f-86b2-31e37d8f758a","system_id":"levelo_inurba_marseille","lat":43.28373,"lon":5.38637,"is_reserved":false,"is_disabled":false,"rental_uris":{"android":"levelo://app?vid=c733299c-cde7-442f-86b2-31e37d8f758a","ios":"levelo://app?vid=c733299c-cde7-442f-86b2-31e37d8f758a"},"vehicle_type_id":"4","last_reported":1767833933,"current_range_meters":8000,"station_id":"ce4bh492rcd13ifvqdvg","pricing_plan_id":"cebpf4jnsgd1na2vs0mg"},{"bike_id":"627ad4fb-d3f7-406d-9fa6-760355e4142d","system_id":"levelo_inurba_marseille","lat":43.23189,"lon":5.35558,"is_reserved":false,"is_disabled":false,"rental_uris":{"android":"levelo://app?vid=627ad4fb-d3f7-406d-9fa6-760355e4142d","ios":"levelo://app?vid=627ad4fb-d3f7-406d-9fa6-760355e4142d"},"vehicle_type_id":"4","last_reported":1767833933,"current_range_meters":8000,"station_id":"ce4bhu92rcd13ifvqi70","pricing_plan_id":"cebpf4jnsgd1na2vs0mg"},{"bike_id":"193cd76b-9bcc-4fab-ad90-2f66f28ef687","system_id":"levelo_inurba_marseille","lat":43.24095,"lon":5.37765,"is_reserved":false,"is_disabled":false,"rental_uris":{"android":"levelo://app?vid=193cd76b-9bcc-4fab-ad90-2f66f28ef687","ios":"levelo://app?vid=193cd76b-9bcc-4fab-ad90-2f66f28ef687"},"vehicle_type_id":"4","last_reported":1767833933,"current_range_meters":8000,"station_id":"ce4bhnp2rcd13ifvqgvg","pricing_plan_id":"cebpf4jnsgd1na2vs0mg"},{"bike_id":"41df1897-1ad1-47fb-9319-eedfc856f702","system_id":"levelo_inurba_marseille","lat":43.25577,"lon":5.38229,"is_reserved":false,"is_disabled":false,"rental_uris":{"android":"levelo://app?vid=41df1897-1ad1-47fb-9319-eedfc856f702","ios":"levelo://app?vid=41df1897-1ad1-47fb-9319-eedfc856f702"},"vehicle_type_id":"4","last_reported":1767833933,"current_range_meters":8000,"station_id":"ce4bhih2rcd13ifvqfs0","pricing_plan_id":"cebpf4jnsgd1na2vs0mg"},{"bike_id":"eb96fcb8-d818-4ca1-9366-e4f25e54028c","system_id":"levelo_inurba_marseille","lat":43.29523,"lon":5.39416,"is_reserved":false,"is_disabled":false,"rental_uris":{"android":"levelo://app?vid=eb96fcb8-d818-4ca1-9366-e4f25e54028c","ios":"levelo://app?vid=eb96fcb8-d818-4ca1-9366-e4f25e54028c"},"vehicle_type_id":"4","last_reported":1767833933,"current_range_meters":8000,"station_id":"ce4bh292rcd13ifvqdf0","pricing_plan_id":"cebpf4jnsgd1na2vs0mg"},{"bike_id":"a849720c-d4f4-4440-bec4-b5b25c7aa509","system_id":"levelo_inurba_marseille","lat":43.2534,"lon":5.42163,"is_reserved":false,"is_disabled":false,"rental_uris":{"android":"levelo://app?vid=a849720c-d4f4-4440-bec4-b5b25c7aa509","ios":"levelo://app?vid=a849720c-d4f4-4440-bec4-b5b25c7aa509"},"vehicle_type_id":"4","last_reported":1767833933,"current_range_meters":8000,"station_id":"st_d2m65c5bi1j21697t3ng","pricing_plan_id":"cebpf4jnsgd1na2vs0mg"},{"bike_id":"6bddaefd-cff1-4799-8b05-460a68cec860","system_id":"levelo_inurba_marseille","lat":43.33019,"lon":5.39028,"is_reserved":false,"is_disabled":false,"rental_uris":{"android":"levelo://app?vid=6bddaefd-cff1-4799-8b05-460a68cec860","ios":"levelo://app?vid=6bddaefd-cff1-4799-8b05-460a68cec860"},"vehicle_type_id":"4","last_reported":1767833933,"current_range_meters":8000,"station_id":"ce4bhr92rcd13ifvqhrg","pricing_plan_id":"cebpf4jnsgd1na2vs0mg"},{"bike_id":"f139dc33-0315-4e3b-806c-1c4763fe230a","system_id":"levelo_inurba_marseille","lat":43.32349,"lon":5.36742,"is_reserved":false,"is_disabled":false,"rental_uris":{"android":"levelo://app?vid=f139dc33-0315-4e3b-806c-1c4763fe230a","ios":"levelo://app?vid=f139dc33-0315-4e3b-806c-1c4763fe230a"},"vehicle_type_id":"4","last_reported":1767833933,"current_range_meters":8000,"station_id":"ce4bhsh2rcd13ifvqi2g","pricing_plan_id":"cebpf4jnsgd1na2vs0mg"},{"bike_id":"32cd8bdd-5f00-4222-be95-54500c9310ff","system_id":"levelo_inurba_marseille","lat":43.284193,"lon":5.349948,"is_reserved":false,"is_disabled":false,"rental_uris":{"android":"levelo://app?vid=32cd8bdd-5f00-4222-be95-54500c9310ff","ios":"levelo://app?vid=32cd8bdd-5f00-4222-be95-54500c9310ff"},"vehicle_type_id":"4","last_reported":1767833933,"current_range_meters":8000,"station_id":"ce4bhbh2rcd13ifvqepg","pricing_plan_id":"cebpf4jnsgd1na2vs0mg"},{"bike_id":"fe176af7-89fe-4080-9879-5358fa62f37f","system_id":"levelo_inurba_marseille","lat":43.2841,"lon":5.35007,"is_reserved":false,"is_disabled":false,"rental_uris":{"android":"levelo://app?vid=fe176af7-89fe-4080-9879-5358fa62f37f","ios":"levelo://app?vid=fe176af7-89fe-4080-9879-5358fa62f37f"},"vehicle_type_id":"4","last_reported":1767833933,"current_range_meters":8000,"station_id":"ce4bhbh2rcd13ifvqepg","pricing_plan_id":"cebpf4jnsgd1na2vs0mg"},{"bike_id":"028756d9-bfe4-42e7-8035-4b002ff65672","system_id":"levelo_inurba_marseille","lat":43.22928,"lon":5.35384,"is_reserved":false,"is_disabled":false,"rental_uris":{"android":"levelo://app?vid=028756d9-bfe4-42e7-8035-4b002ff65672","ios":"levelo://app?vid=028756d9-bfe4-42e7-8035-4b002ff65672"},"vehicle_type_id":"4","last_reported":1767833933,"current_range_meters":8000,"station_id":"cpo3532slgdg3j2ikp40","pricing_plan_id":"cebpf4jnsgd1na2vs0mg"},{"bike_id":"f49b932e-0112-4c9c-8733-75221892016c","system_id":"levelo_inurba_marseille","lat":43.31066,"lon":5.38356,"is_reserved":false,"is_disabled":false,"rental_uris":{"android":"levelo://app?vid=f49b932e-0112-4c9c-8733-75221892016c","ios":"levelo://app?vid=f49b932e-0112-4c9c-8733-75221892016c"},"vehicle_type_id":"4","last_reported":1767833933,"current_range_meters":8000,"station_id":"ce4bgv92rcd13ifvqcr0","pricing_plan_id":"cebpf4jnsgd1na2vs0mg"},{"bike_id":"7ff8e3d5-6dc2-47db-9cfb-441bf914e270","system_id":"levelo_inurba_marseille","lat":43.28614,"lon":5.35116,"is_reserved":false,"is_disabled":false,"rental_uris":{"android":"levelo://app?vid=7ff8e3d5-6dc2-47db-9cfb-441bf914e270","ios":"levelo://app?vid=7ff8e3d5-6dc2-47db-9cfb-441bf914e270"},"vehicle_type_id":"4","last_reported":1767833933,"current_range_meters":8000,"station_id":"ce4bhch2rcd13ifvqeug","pricing_plan_id":"cebpf4jnsgd1na2vs0mg"},{"bike_id":"c3c8d196-d779-41a4-a376-ac529e740933","system_id":"levelo_inurba_marseille","lat":43.2408,"lon":5.37692,"is_reserved":false,"is_disabled":false,"rental_uris":{"android":"levelo://app?vid=c3c8d196-d779-41a4-a376-ac529e740933","ios":"levelo://app?vid=c3c8d196-d779-41a4-a376-ac529e740933"},"vehicle_type_id":"4","last_reported":1767833933,"current_range_meters":8400,"station_id":"ce4bhnp2rcd13ifvqgvg","pricing_plan_id":"cebpf4jnsgd1na2vs0mg"},{"bike_id":"b1b1ad78-5ce6-4078-b4e3-85f1155f6618","system_id":"levelo_inurba_marseille","lat":43.29486,"lon":5.43304,"is_reserved":false,"is_disabled":false,"rental_uris":{"android":"levelo://app?vid=b1b1ad78-5ce6-4078-b4e3-85f1155f6618","ios":"levelo://app?vid=b1b1ad78-5ce6-4078-b4e3-85f1155f6618"},"vehicle_type_id":"4","last_reported":1767833933,"current_range_meters":8400,"station_id":"st_d3j5ugp08ojc73fj9d10","pricing_plan_id":"cebpf4jnsgd1na2vs0mg"},{"bike_id":"aba7ea30-1026-499d-8351-ae41547f888c","system_id":"levelo_inurba_marseille","lat":43.303207,"lon":5.368983,"is_reserved":false,"is_disabled":false,"rental_uris":{"android":"levelo://app?vid=aba7ea30-1026-499d-8351-ae41547f888c","ios":"levelo://app?vid=aba7ea30-1026-499d-8351-ae41547f888c"},"vehicle_type_id":"4","last_reported":1767833933,"current_range_meters":8400,"station_id":"ce4bgqh2rcd13ifvqc5g","pricing_plan_id":"cebpf4jnsgd1na2vs0mg"},{"bike_id":"40f08c9f-1db3-428a-bccb-f339a21698d1","system_id":"levelo_inurba_marseille","lat":43.299124,"lon":5.381244,"is_reserved":false,"is_disabled":false,"rental_uris":{"android":"levelo://app?vid=40f08c9f-1db3-428a-bccb-f339a21698d1","ios":"levelo://app?vid=40f08c9f-1db3-428a-bccb-f339a21698d1"},"vehicle_type_id":"4","last_reported":1767833933,"current_range_meters":8400,"station_id":"ce4bgj12rcd13ifvqbc0","pricing_plan_id":"cebpf4jnsgd1na2vs0mg"},{"bike_id":"5d6e3741-efb2-4ce6-b874-e984499c9254","system_id":"levelo_inurba_marseille","lat":43.31326,"lon":5.39702,"is_reserved":false,"is_disabled":false,"rental_uris":{"android":"levelo://app?vid=5d6e3741-efb2-4ce6-b874-e984499c9254","ios":"levelo://app?vid=5d6e3741-efb2-4ce6-b874-e984499c9254"},"vehicle_type_id":"4","last_reported":1767833933,"current_range_meters":8400,"station_id":"ce4bgvp2rcd13ifvqcu0","pricing_plan_id":"cebpf4jnsgd1na2vs0mg"},{"bike_id":"09edec60-8041-4c77-8231-9562a2ec8612","system_id":"levelo_inurba_marseille","lat":43.29975,"lon":5.37157,"is_reserved":false,"is_disabled":false,"rental_uris":{"android":"levelo://app?vid=09edec60-8041-4c77-8231-9562a2ec8612","ios":"levelo://app?vid=09edec60-8041-4c77-8231-9562a2ec8612"},"vehicle_type_id":"4","last_reported":1767833933,"current_range_meters":8400,"station_id":"ce4bgr92rcd13ifvqc7g","pricing_plan_id":"cebpf4jnsgd1na2vs0mg"},{"bike_id":"fa71c9b9-6308-4f0e-af36-eb7830be3ead","system_id":"levelo_inurba_marseille","lat":43.28541,"lon":5.44099,"is_reserved":false,"is_disabled":false,"rental_uris":{"android":"levelo://app?vid=fa71c9b9-6308-4f0e-af36-eb7830be3ead","ios":"levelo://app?vid=fa71c9b9-6308-4f0e-af36-eb7830be3ead"},"vehicle_type_id":"4","last_reported":1767833933,"current_range_meters":8400,"station_id":"st_d3j3df2ikq2c7380ej80","pricing_plan_id":"cebpf4jnsgd1na2vs0mg"},{"bike_id":"b8f0fc7d-c4cf-498c-b814-d8982d29f222","system_id":"levelo_inurba_marseille","lat":43.30125,"lon":5.39858,"is_reserved":false,"is_disabled":false,"rental_uris":{"android":"levelo://app?vid=b8f0fc7d-c4cf-498c-b814-d8982d29f222","ios":"levelo://app?vid=b8f0fc7d-c4cf-498c-b814-d8982d29f222"},"vehicle_type_id":"4","last_reported":1767833933,"current_range_meters":8400,"station_id":"ce4bh0h2rcd13ifvqd40","pricing_plan_id":"cebpf4jnsgd1na2vs0mg"},{"bike_id":"f206a213-6bbe-4d64-9587-f0e0d82364fe","system_id":"levelo_inurba_marseille","lat":43.30458,"lon":5.38856,"is_reserved":false,"is_disabled":false,"rental_uris":{"android":"levelo://app?vid=f206a213-6bbe-4d64-9587-f0e0d82364fe","ios":"levelo://app?vid=f206a213-6bbe-4d64-9587-f0e0d82364fe"},"vehicle_type_id":"4","last_reported":1767833933,"current_range_meters":8400,"station_id":"ce4bgk12rcd13ifvqbi0","pricing_plan_id":"cebpf4jnsgd1na2vs0mg"},{"bike_id":"642e8dbf-2c1c-4b0c-b626-f3b7d6e11870","system_id":"levelo_inurba_marseille","lat":43.27933,"lon":5.39602,"is_reserved":false,"is_disabled":false,"rental_uris":{"android":"levelo://app?vid=642e8dbf-2c1c-4b0c-b626-f3b7d6e11870","ios":"levelo://app?vid=642e8dbf-2c1c-4b0c-b626-f3b7d6e11870"},"vehicle_type_id":"4","last_reported":1767833933,"current_range_meters":8400,"station_id":"ce4bhf92rcd13ifvqf40","pricing_plan_id":"cebpf4jnsgd1na2vs0mg"},{"bike_id":"1b3450f6-a3a8-4bb0-889f-da736a8844f0","system_id":"levelo_inurba_marseille","lat":43.29789,"lon":5.39337,"is_reserved":false,"is_disabled":false,"rental_uris":{"android":"levelo://app?vid=1b3450f6-a3a8-4bb0-889f-da736a8844f0","ios":"levelo://app?vid=1b3450f6-a3a8-4bb0-889f-da736a8844f0"},"vehicle_type_id":"4","last_reported":1767833933,"current_range_meters":8400,"station_id":"chh1huq6cuj3fo74tm60","pricing_plan_id":"cebpf4jnsgd1na2vs0mg"},{"bike_id":"8e231852-197e-4ee9-ad77-b54a192c3b73","system_id":"levelo_inurba_marseille","lat":43.28202,"lon":5.3911,"is_reserved":false,"is_disabled":false,"rental_uris":{"android":"levelo://app?vid=8e231852-197e-4ee9-ad77-b54a192c3b73","ios":"levelo://app?vid=8e231852-197e-4ee9-ad77-b54a192c3b73"},"vehicle_type_id":"4","last_reported":1767833933,"current_range_meters":8400,"station_id":"ce4bhn92rcd13ifvqgsg","pricing_plan_id":"cebpf4jnsgd1na2vs0mg"},{"bike_id":"1f6bbb69-96ec-4774-a668-2cc90004d313","system_id":"levelo_inurba_marseille","lat":43.28366,"lon":5.38645,"is_reserved":false,"is_disabled":false,"rental_uris":{"android":"levelo://app?vid=1f6bbb69-96ec-4774-a668-2cc90004d313","ios":"levelo://app?vid=1f6bbb69-96ec-4774-a668-2cc90004d313"},"vehicle_type_id":"4","last_reported":1767833933,"current_range_meters":8400,"station_id":"ce4bh492rcd13ifvqdvg","pricing_plan_id":"cebpf4jnsgd1na2vs0mg"},{"bike_id":"e986fce2-0dcf-4a72-8226-b2117b200211","system_id":"levelo_inurba_marseille","lat":43.23153,"lon":5.43703,"is_reserved":false,"is_disabled":false,"rental_uris":{"android":"levelo://app?vid=e986fce2-0dcf-4a72-8226-b2117b200211","ios":"levelo://app?vid=e986fce2-0dcf-4a72-8226-b2117b200211"},"vehicle_type_id":"4","last_reported":1767833933,"current_range_meters":8400,"station_id":"ce4bhmp2rcd13ifvqgog","pricing_plan_id":"cebpf4jnsgd1na2vs0mg"},{"bike_id":"80bdd1a4-b1ab-42ae-bb23-cfddeda5c12d","system_id":"levelo_inurba_marseille","lat":43.29923,"lon":5.38324,"is_reserved":false,"is_disabled":true,"rental_uris":{"android":"levelo://app?vid=80bdd1a4-b1ab-42ae-bb23-cfddeda5c12d","ios":"levelo://app?vid=80bdd1a4-b1ab-42ae-bb23-cfddeda5c12d"},"vehicle_type_id":"4","last_reported":1767833933,"current_range_meters":8400,"station_id":"","pricing_plan_id":"cebpf4jnsgd1na2vs0mg"},{"bike_id":"88c14a33-9b21-46e5-92e0-2674360d2b7d","system_id":"levelo_inurba_marseille","lat":43.29567,"lon":5.39968,"is_reserved":false,"is_disabled":false,"rental_uris":{"android":"levelo://app?vid=88c14a33-9b21-46e5-92e0-2674360d2b7d","ios":"levelo://app?vid=88c14a33-9b21-46e5-92e0-2674360d2b7d"},"vehicle_type_id":"4","last_reported":1767833933,"current_range_meters":8400,"station_id":"ce4bh312rcd13ifvqdj0","pricing_plan_id":"cebpf4jnsgd1na2vs0mg"},{"bike_id":"247bb740-307c-4d8d-bc15-5dc3f87bcb6a","system_id":"levelo_inurba_marseille","lat":43.33159,"lon":5.37687,"is_reserved":false,"is_disabled":false,"rental_uris":{"android":"levelo://app?vid=247bb740-307c-4d8d-bc15-5dc3f87bcb6a","ios":"levelo://app?vid=247bb740-307c-4d8d-bc15-5dc3f87bcb6a"},"vehicle_type_id":"4","last_reported":1767833933,"current_range_meters":8400,"station_id":"st_d46cu089ee8s73dldbu0","pricing_plan_id":"cebpf4jnsgd1na2vs0mg"},{"bike_id":"43f3ac00-3389-451c-bcdf-6e382a79f3bb","system_id":"levelo_inurba_marseille","lat":43.287097,"lon":5.379386,"is_reserved":false,"is_disabled":false,"rental_uris":{"android":"levelo://app?vid=43f3ac00-3389-451c-bcdf-6e382a79f3bb","ios":"levelo://app?vid=43f3ac00-3389-451c-bcdf-6e382a79f3bb"},"vehicle_type_id":"4","last_reported":1767833933,"current_range_meters":8400,"station_id":"ce4bh9p2rcd13ifvqec0","pricing_plan_id":"cebpf4jnsgd1na2vs0mg"},{"bike_id":"9e801340-95f0-4781-9347-5c8d7c84815f","system_id":"levelo_inurba_marseille","lat":43.29697,"lon":5.36625,"is_reserved":false,"is_disabled":false,"rental_uris":{"android":"levelo://app?vid=9e801340-95f0-4781-9347-5c8d7c84815f","ios":"levelo://app?vid=9e801340-95f0-4781-9347-5c8d7c84815f"},"vehicle_type_id":"4","last_reported":1767833933,"current_range_meters":8400,"station_id":"ce4bgn12rcd13ifvqbt0","pricing_plan_id":"cebpf4jnsgd1na2vs0mg"},{"bike_id":"582889fd-a2c5-40e7-bf70-f48d8da3a80a","system_id":"levelo_inurba_marseille","lat":43.28963,"lon":5.37839,"is_reserved":false,"is_disabled":false,"rental_uris":{"android":"levelo://app?vid=582889fd-a2c5-40e7-bf70-f48d8da3a80a","ios":"levelo://app?vid=582889fd-a2c5-40e7-bf70-f48d8da3a80a"},"vehicle_type_id":"4","last_reported":1767833933,"current_range_meters":8400,"station_id":"ce4bh9p2rcd13ifvqed0","pricing_plan_id":"cebpf4jnsgd1na2vs0mg"},{"bike_id":"e87e13ae-d69b-4129-94d6-fdb38119b5d3","system_id":"levelo_inurba_marseille","lat":43.28408,"lon":5.34997,"is_reserved":false,"is_disabled":false,"rental_uris":{"android":"levelo://app?vid=e87e13ae-d69b-4129-94d6-fdb38119b5d3","ios":"levelo://app?vid=e87e13ae-d69b-4129-94d6-fdb38119b5d3"},"vehicle_type_id":"4","last_reported":1767833933,"current_range_meters":8400,"station_id":"ce4bhbh2rcd13ifvqepg","pricing_plan_id":"cebpf4jnsgd1na2vs0mg"},{"bike_id":"7401be6f-cce5-4127-bfd0-4e81a357cf0d","system_id":"levelo_inurba_marseille","lat":43.25574,"lon":5.38241,"is_reserved":false,"is_disabled":false,"rental_uris":{"android":"levelo://app?vid=7401be6f-cce5-4127-bfd0-4e81a357cf0d","ios":"levelo://app?vid=7401be6f-cce5-4127-bfd0-4e81a357cf0d"},"vehicle_type_id":"4","last_reported":1767833933,"current_range_meters":8400,"station_id":"ce4bhih2rcd13ifvqfs0","pricing_plan_id":"cebpf4jnsgd1na2vs0mg"},{"bike_id":"50658340-35f1-4f1d-b90f-08cda8fb0917","system_id":"levelo_inurba_marseille","lat":43.29729,"lon":5.37963,"is_reserved":false,"is_disabled":false,"rental_uris":{"android":"levelo://app?vid=50658340-35f1-4f1d-b90f-08cda8fb0917","ios":"levelo://app?vid=50658340-35f1-4f1d-b90f-08cda8fb0917"},"vehicle_type_id":"4","last_reported":1767833933,"current_range_meters":8400,"station_id":"","pricing_plan_id":"cebpf4jnsgd1na2vs0mg"},{"bike_id":"9cfeff17-a54a-4b3c-baa8-c7ed795fc5f2","system_id":"levelo_inurba_marseille","lat":43.24165,"lon":5.36403,"is_reserved":false,"is_disabled":false,"rental_uris":{"android":"levelo://app?vid=9cfeff17-a54a-4b3c-baa8-c7ed795fc5f2","ios":"levelo://app?vid=9cfeff17-a54a-4b3c-baa8-c7ed795fc5f2"},"vehicle_type_id":"4","last_reported":1767833933,"current_range_meters":8800,"station_id":"cpo36qri1sfpv3e86is0","pricing_plan_id":"cebpf4jnsgd1na2vs0mg"},{"bike_id":"61a4f04d-dc18-4445-8cc4-5c085c66ecdc","system_id":"levelo_inurba_marseille","lat":43.27652,"lon":5.38931,"is_reserved":false,"is_disabled":false,"rental_uris":{"android":"levelo://app?vid=61a4f04d-dc18-4445-8cc4-5c085c66ecdc","ios":"levelo://app?vid=61a4f04d-dc18-4445-8cc4-5c085c66ecdc"},"vehicle_type_id":"4","last_reported":1767833933,"current_range_meters":8800,"station_id":"","pricing_plan_id":"cebpf4jnsgd1na2vs0mg"},{"bike_id":"83d2239c-fc1c-4cf5-9b0e-f36cf017e530","system_id":"levelo_inurba_marseille","lat":43.23781,"lon":5.36626,"is_reserved":false,"is_disabled":false,"rental_uris":{"android":"levelo://app?vid=83d2239c-fc1c-4cf5-9b0e-f36cf017e530","ios":"levelo://app?vid=83d2239c-fc1c-4cf5-9b0e-f36cf017e530"},"vehicle_type_id":"4","last_reported":1767833933,"current_range_meters":8800,"station_id":"st_d3nk18o9ro0c73en2l3g","pricing_plan_id":"cebpf4jnsgd1na2vs0mg"},{"bike_id":"28eb6b7d-d456-467c-85e5-05c74cc4a4f4","system_id":"levelo_inurba_marseille","lat":43.302052,"lon":5.394609,"is_reserved":false,"is_disabled":false,"rental_uris":{"android":"levelo://app?vid=28eb6b7d-d456-467c-85e5-05c74cc4a4f4","ios":"levelo://app?vid=28eb6b7d-d456-467c-85e5-05c74cc4a4f4"},"vehicle_type_id":"4","last_reported":1767833933,"current_range_meters":8800,"station_id":"ce4bh0p2rcd13ifvqd70","pricing_plan_id":"cebpf4jnsgd1na2vs0mg"},{"bike_id":"79b07b5a-ec48-494b-80f5-1c129a1f1ef3","system_id":"levelo_inurba_marseille","lat":43.29518,"lon":5.39404,"is_reserved":false,"is_disabled":false,"rental_uris":{"android":"levelo://app?vid=79b07b5a-ec48-494b-80f5-1c129a1f1ef3","ios":"levelo://app?vid=79b07b5a-ec48-494b-80f5-1c129a1f1ef3"},"vehicle_type_id":"4","last_reported":1767833933,"current_range_meters":8800,"station_id":"ce4bh292rcd13ifvqdf0","pricing_plan_id":"cebpf4jnsgd1na2vs0mg"},{"bike_id":"b9ef6aa6-7590-46c5-a49a-18293bf99c6e","system_id":"levelo_inurba_marseille","lat":43.27318,"lon":5.39091,"is_reserved":false,"is_disabled":false,"rental_uris":{"android":"levelo://app?vid=b9ef6aa6-7590-46c5-a49a-18293bf99c6e","ios":"levelo://app?vid=b9ef6aa6-7590-46c5-a49a-18293bf99c6e"},"vehicle_type_id":"4","last_reported":1767833933,"current_range_meters":8800,"station_id":"ce4bhgp2rcd13ifvqfe0","pricing_plan_id":"cebpf4jnsgd1na2vs0mg"},{"bike_id":"7ea42fa0-1a0d-4826-9f31-2e9280cd9711","system_id":"levelo_inurba_marseille","lat":43.28933,"lon":5.36644,"is_reserved":false,"is_disabled":false,"rental_uris":{"android":"levelo://app?vid=7ea42fa0-1a0d-4826-9f31-2e9280cd9711","ios":"levelo://app?vid=7ea42fa0-1a0d-4826-9f31-2e9280cd9711"},"vehicle_type_id":"4","last_reported":1767833933,"current_range_meters":8800,"station_id":"ce4bhap2rcd13ifvqek0","pricing_plan_id":"cebpf4jnsgd1na2vs0mg"},{"bike_id":"212da61f-e45f-49da-8ac8-22c9c61d8835","system_id":"levelo_inurba_marseille","lat":43.31741,"lon":5.38515,"is_reserved":false,"is_disabled":false,"rental_uris":{"android":"levelo://app?vid=212da61f-e45f-49da-8ac8-22c9c61d8835","ios":"levelo://app?vid=212da61f-e45f-49da-8ac8-22c9c61d8835"},"vehicle_type_id":"4","last_reported":1767833933,"current_range_meters":8800,"station_id":"","pricing_plan_id":"cebpf4jnsgd1na2vs0mg"},{"bike_id":"ef72d50c-d3eb-498b-a516-45f564ac276c","system_id":"levelo_inurba_marseille","lat":43.27909,"lon":5.39586,"is_reserved":false,"is_disabled":false,"rental_uris":{"android":"levelo://app?vid=ef72d50c-d3eb-498b-a516-45f564ac276c","ios":"levelo://app?vid=ef72d50c-d3eb-498b-a516-45f564ac276c"},"vehicle_type_id":"4","last_reported":1767833933,"current_range_meters":8800,"station_id":"ce4bhf92rcd13ifvqf40","pricing_plan_id":"cebpf4jnsgd1na2vs0mg"},{"bike_id":"a6462651-ffd6-4de0-ac89-ac14a3f92140","system_id":"levelo_inurba_marseille","lat":43.23786,"lon":5.36631,"is_reserved":false,"is_disabled":false,"rental_uris":{"android":"levelo://app?vid=a6462651-ffd6-4de0-ac89-ac14a3f92140","ios":"levelo://app?vid=a6462651-ffd6-4de0-ac89-ac14a3f92140"},"vehicle_type_id":"4","last_reported":1767833933,"current_range_meters":8800,"station_id":"st_d3nk18o9ro0c73en2l3g","pricing_plan_id":"cebpf4jnsgd1na2vs0mg"},{"bike_id":"532e030c-b000-402d-9a2b-dd103311a4fa","system_id":"levelo_inurba_marseille","lat":43.29182,"lon":5.35839,"is_reserved":false,"is_disabled":false,"rental_uris":{"android":"levelo://app?vid=532e030c-b000-402d-9a2b-dd103311a4fa","ios":"levelo://app?vid=532e030c-b000-402d-9a2b-dd103311a4fa"},"vehicle_type_id":"4","last_reported":1767833933,"current_range_meters":8800,"station_id":"ce4bhb12rcd13ifvqel0","pricing_plan_id":"cebpf4jnsgd1na2vs0mg"},{"bike_id":"2d69d01d-791e-48a7-873e-244b57683178","system_id":"levelo_inurba_marseille","lat":43.3153,"lon":5.38027,"is_reserved":false,"is_disabled":false,"rental_uris":{"android":"levelo://app?vid=2d69d01d-791e-48a7-873e-244b57683178","ios":"levelo://app?vid=2d69d01d-791e-48a7-873e-244b57683178"},"vehicle_type_id":"4","last_reported":1767833933,"current_range_meters":8800,"station_id":"ce4bhsp2rcd13ifvqi50","pricing_plan_id":"cebpf4jnsgd1na2vs0mg"},{"bike_id":"ff3fbfb8-c45c-4999-b524-0dd05bdd14e2","system_id":"levelo_inurba_marseille","lat":43.309609,"lon":5.368385,"is_reserved":false,"is_disabled":false,"rental_uris":{"android":"levelo://app?vid=ff3fbfb8-c45c-4999-b524-0dd05bdd14e2","ios":"levelo://app?vid=ff3fbfb8-c45c-4999-b524-0dd05bdd14e2"},"vehicle_type_id":"4","last_reported":1767833933,"current_range_meters":8800,"station_id":"ce4bgn92rcd13ifvqbvg","pricing_plan_id":"cebpf4jnsgd1na2vs0mg"},{"bike_id":"d19d32de-fe7f-42ca-93fe-613a15438278","system_id":"levelo_inurba_marseille","lat":43.28414,"lon":5.34993,"is_reserved":false,"is_disabled":false,"rental_uris":{"android":"levelo://app?vid=d19d32de-fe7f-42ca-93fe-613a15438278","ios":"levelo://app?vid=d19d32de-fe7f-42ca-93fe-613a15438278"},"vehicle_type_id":"4","last_reported":1767833933,"current_range_meters":8800,"station_id":"ce4bhbh2rcd13ifvqepg","pricing_plan_id":"cebpf4jnsgd1na2vs0mg"},{"bike_id":"d24d285e-9609-4a05-b62d-3c973f9ec4cd","system_id":"levelo_inurba_marseille","lat":43.27366,"lon":5.36256,"is_reserved":false,"is_disabled":false,"rental_uris":{"android":"levelo://app?vid=d24d285e-9609-4a05-b62d-3c973f9ec4cd","ios":"levelo://app?vid=d24d285e-9609-4a05-b62d-3c973f9ec4cd"},"vehicle_type_id":"4","last_reported":1767833933,"current_range_meters":8800,"station_id":"ce4bhbh2rcd13ifvqeo0","pricing_plan_id":"cebpf4jnsgd1na2vs0mg"},{"bike_id":"c3d6c704-9746-4167-aef5-86758be7f215","system_id":"levelo_inurba_marseille","lat":43.31063,"lon":5.38374,"is_reserved":false,"is_disabled":false,"rental_uris":{"android":"levelo://app?vid=c3d6c704-9746-4167-aef5-86758be7f215","ios":"levelo://app?vid=c3d6c704-9746-4167-aef5-86758be7f215"},"vehicle_type_id":"4","last_reported":1767833933,"current_range_meters":8800,"station_id":"ce4bgv92rcd13ifvqcr0","pricing_plan_id":"cebpf4jnsgd1na2vs0mg"},{"bike_id":"d78b7327-9f0b-49a7-939a-c6378a1ea847","system_id":"levelo_inurba_marseille","lat":43.28715,"lon":5.37959,"is_reserved":false,"is_disabled":false,"rental_uris":{"android":"levelo://app?vid=d78b7327-9f0b-49a7-939a-c6378a1ea847","ios":"levelo://app?vid=d78b7327-9f0b-49a7-939a-c6378a1ea847"},"vehicle_type_id":"4","last_reported":1767833933,"current_range_meters":8800,"station_id":"ce4bh9p2rcd13ifvqec0","pricing_plan_id":"cebpf4jnsgd1na2vs0mg"},{"bike_id":"d732fcd7-f8ed-43d6-b6ef-d29b2b97a6d4","system_id":"levelo_inurba_marseille","lat":43.273716,"lon":5.3626,"is_reserved":false,"is_disabled":false,"rental_uris":{"android":"levelo://app?vid=d732fcd7-f8ed-43d6-b6ef-d29b2b97a6d4","ios":"levelo://app?vid=d732fcd7-f8ed-43d6-b6ef-d29b2b97a6d4"},"vehicle_type_id":"4","last_reported":1767833933,"current_range_meters":8800,"station_id":"ce4bhbh2rcd13ifvqeo0","pricing_plan_id":"cebpf4jnsgd1na2vs0mg"},{"bike_id":"0fd80f10-4304-4c12-9af3-a94a305f109a","system_id":"levelo_inurba_marseille","lat":43.26063,"lon":5.394,"is_reserved":false,"is_disabled":false,"rental_uris":{"android":"levelo://app?vid=0fd80f10-4304-4c12-9af3-a94a305f109a","ios":"levelo://app?vid=0fd80f10-4304-4c12-9af3-a94a305f109a"},"vehicle_type_id":"4","last_reported":1767833933,"current_range_meters":8800,"station_id":"ce4bhh92rcd13ifvqfj0","pricing_plan_id":"cebpf4jnsgd1na2vs0mg"},{"bike_id":"804bced5-7779-4d7f-a23b-cc26efc4cdbd","system_id":"levelo_inurba_marseille","lat":43.330417,"lon":5.390391,"is_reserved":false,"is_disabled":false,"rental_uris":{"android":"levelo://app?vid=804bced5-7779-4d7f-a23b-cc26efc4cdbd","ios":"levelo://app?vid=804bced5-7779-4d7f-a23b-cc26efc4cdbd"},"vehicle_type_id":"4","last_reported":1767833933,"current_range_meters":8800,"station_id":"ce4bhr92rcd13ifvqhrg","pricing_plan_id":"cebpf4jnsgd1na2vs0mg"},{"bike_id":"570f7cc1-d7d1-4d8a-8274-da6e3d2295c9","system_id":"levelo_inurba_marseille","lat":43.26231,"lon":5.40434,"is_reserved":false,"is_disabled":false,"rental_uris":{"android":"levelo://app?vid=570f7cc1-d7d1-4d8a-8274-da6e3d2295c9","ios":"levelo://app?vid=570f7cc1-d7d1-4d8a-8274-da6e3d2295c9"},"vehicle_type_id":"4","last_reported":1767833933,"current_range_meters":8800,"station_id":"ce4bhmh2rcd13ifvqgmg","pricing_plan_id":"cebpf4jnsgd1na2vs0mg"},{"bike_id":"b86cdf0c-e60e-44b1-8077-42145bab1514","system_id":"levelo_inurba_marseille","lat":43.29075,"lon":5.37165,"is_reserved":false,"is_disabled":false,"rental_uris":{"android":"levelo://app?vid=b86cdf0c-e60e-44b1-8077-42145bab1514","ios":"levelo://app?vid=b86cdf0c-e60e-44b1-8077-42145bab1514"},"vehicle_type_id":"4","last_reported":1767833933,"current_range_meters":9200,"station_id":"ce4bh5p2rcd13ifvqe4g","pricing_plan_id":"cebpf4jnsgd1na2vs0mg"},{"bike_id":"79e9cd29-beae-4c81-a197-b475182afb54","system_id":"levelo_inurba_marseille","lat":43.29415,"lon":5.37423,"is_reserved":false,"is_disabled":false,"rental_uris":{"android":"levelo://app?vid=79e9cd29-beae-4c81-a197-b475182afb54","ios":"levelo://app?vid=79e9cd29-beae-4c81-a197-b475182afb54"},"vehicle_type_id":"4","last_reported":1767833933,"current_range_meters":9200,"station_id":"","pricing_plan_id":"cebpf4jnsgd1na2vs0mg"},{"bike_id":"873ae146-395a-40ee-8fdf-3d973ffd9442","system_id":"levelo_inurba_marseille","lat":43.25931,"lon":5.40888,"is_reserved":false,"is_disabled":false,"rental_uris":{"android":"levelo://app?vid=873ae146-395a-40ee-8fdf-3d973ffd9442","ios":"levelo://app?vid=873ae146-395a-40ee-8fdf-3d973ffd9442"},"vehicle_type_id":"4","last_reported":1767833933,"current_range_meters":9200,"station_id":"ce4bhm92rcd13ifvqglg","pricing_plan_id":"cebpf4jnsgd1na2vs0mg"},