{"last_updated":1727622500,"ttl":60,"version":"2.2","data":{"bikes":[{"bike_id":"f3b66d61-a485-40e6-8d85-a2de5d60618f","system_id":"levelo_inurba_marseille","lat":43.29881,"lon":5.39962,"is_reserved":false,"is_disabled":false,"rental_uris":{"android":"levelo://app?vid=f3b66d61-a485-40e6-8d85-a2de5d60618f","ios":"levelo://app?vid=f3b66d61-a485-40e6-8d85-a2de5d60618f"},"vehicle_type_id":"4","last_reported":1727622500,"current_range_meters":14800,"station_id":"ce4bho92rcd13ifvqh4g","pricing_plan_id":"cebpf4jnsgd1na2vs0mg"},{"bike_id":"f73e9cd0-7eca-4c14-9915-d76283a4b8e7","system_id":"levelo_inurba_marseille","lat":43.23965,"lon":5.36628,"is_reserved":false,"is_disabled":false,"rental_uris":{"android":"levelo://app?vid=f73e9cd0-7eca-4c14-9915-d76283a4b8e7","ios":"levelo://app?vid=f73e9cd0-7eca-4c14-9915-d76283a4b8e7"},"vehicle_type_id":"4","last_reported":1727622500,"current_range_meters":14800,"station_id":"ce4bhi12rcd13ifvqfp0","pricing_plan_id":"cebpf4jnsgd1na2vs0mg"},{"bike_id":"0ea9e4c4-cc08-41d9-862d-a80f7d54740c","system_id":"levelo_inurba_marseille","lat":43.3268,"lon":5.37494,"is_reserved":false,"is_disabled":false,"rental_uris":{"android":"levelo://app?vid=0ea9e4c4-cc08-41d9-862d-a80f7d54740c","ios":"levelo://app?vid=0ea9e4c4-cc08-41d9-862d-a80f7d54740c"},"vehicle_type_id":"4","last_reported":1727622500,"current_range_meters":36400,"station_id":"","pricing_plan_id":"cebpf4jnsgd1na2vs0mg"},{"bike_id":"431acd76-2fda-479a-af23-895917a7252a","system_id":"levelo_inurba_marseille","lat":43.32368,"lon":5.38886,"is_reserved":false,"is_disabled":false,"rental_uris":{"android":"levelo://app?vid=431acd76-2fda-479a-af23-895917a7252a","ios":"levelo://app?vid=431acd76-2fda-479a-af23-895917a7252a"},"vehicle_type_id":"4","last_reported":1727622500,"current_range_meters":22400,"station_id":"ce4bhqp2rcd13ifvqhog","pricing_plan_id":"cebpf4jnsgd1na2vs0mg"},{"bike_id":"d4c74265-2442-4454-aa29-65e3cce400cc","system_id":"levelo_inurba_marseille","lat":43.32369,"lon":5.38884,"is_reserved":false,"is_disabled":false,"rental_uris":{"android":"levelo://app?vid=d4c74265-2442-4454-aa29-65e3cce400cc","ios":"levelo://app?vid=d4c74265-2442-4454-aa29-65e3cce400cc"},"vehicle_type_id":"4","last_reported":1727622500,"current_range_meters":38000,"station_id":"ce4bhqp2rcd13ifvqhog","pricing_plan_id":"cebpf4jnsgd1na2vs0mg"},{"bike_id":"93548b47-845c-41b2-ba50-4b7e05794e79","system_id":"levelo_inurba_marseille","lat":43.23961,"lon":5.36626,"is_reserved":false,"is_disabled":false,"rental_uris":{"android":"levelo://app?vid=93548b47-845c-41b2-ba50-4b7e05794e79","ios":"levelo://app?vid=93548b47-845c-41b2-ba50-4b7e05794e79"},"vehicle_type_id":"4","last_reported":1727622500,"current_range_meters":30800,"station_id":"ce4bhi12rcd13ifvqfp0","pricing_plan_id":"cebpf4jnsgd1na2vs0mg"},{"bike_id":"df5d43ac-2b80-4f63-b8d1-8fbb50e73abc","system_id":"levelo_inurba_marseille","lat":43.26212,"lon":5.37449,"is_reserved":false,"is_disabled":false,"rental_uris":{"android":"levelo://app?vid=df5d43ac-2b80-4f63-b8d1-8fbb50e73abc","ios":"levelo://app?vid=df5d43ac-2b80-4f63-b8d1-8fbb50e73abc"},"vehicle_type_id":"4","last_reported":1727622500,"current_range_meters":22800,"station_id":"ce4bhgp2rcd13ifvqfc0","pricing_plan_id":"cebpf4jnsgd1na2vs0mg"},{"bike_id":"9a47dcb1-61bb-411f-affb-55731480b4cc","system_id":"levelo_inurba_marseille","lat":43.23959,"lon":5.36626,"is_reserved":false,"is_disabled":false,"rental_uris":{"android":"levelo://app?vid=9a47dcb1-61bb-411f-affb-55731480b4cc","ios":"levelo://app?vid=9a47dcb1-61bb-411f-affb-55731480b4cc"},"vehicle_type_id":"4","last_reported":1727622500,"current_range_meters":36800,"station_id":"ce4bhi12rcd13ifvqfp0","pricing_plan_id":"cebpf4jnsgd1na2vs0mg"},{"bike_id":"1e1248f7-fd99-4267-8d36-d0e1a4784901","system_id":"levelo_inurba_marseille","lat":43.24388,"lon":5.37064,"is_reserved":false,"is_disabled":false,"rental_uris":{"android":"levelo://app?vid=1e1248f7-fd99-4267-8d36-d0e1a4784901","ios":"levelo://app?vid=1e1248f7-fd99-4267-8d36-d0e1a4784901"},"vehicle_type_id":"4","last_reported":1727622500,"current_range_meters":29600,"station_id":"ce4bhhh2rcd13ifvqfk0","pricing_plan_id":"cebpf4jnsgd1na2vs0mg"},{"bike_id":"6c497d99-8532-4f7f-8d5d-779ea355478d","system_id":"levelo_inurba_marseille","lat":43.26193,"lon":5.37449,"is_reserved":false,"is_disabled":false,"rental_uris":{"android":"levelo://app?vid=6c497d99-8532-4f7f-8d5d-779ea355478d","ios":"levelo://app?vid=6c497d99-8532-4f7f-8d5d-779ea355478d"},"vehicle_type_id":"4","last_reported":1727622500,"current_range_meters":6800,"station_id":"ce4bhgp2rcd13ifvqfc0","pricing_plan_id":"cebpf4jnsgd1na2vs0mg"},{"bike_id":"1c2e6f70-6054-46b3-8ff1-d83d655c276b","system_id":"levelo_inurba_marseille","lat":43.29892,"lon":5.389126,"is_reserved":false,"is_disabled":false,"rental_uris":{"android":"levelo://app?vid=1c2e6f70-6054-46b3-8ff1-d83d655c276b","ios":"levelo://app?vid=1c2e6f70-6054-46b3-8ff1-d83d655c276b"},"vehicle_type_id":"4","last_reported":1727622500,"current_range_meters":37600,"station_id":"ce4bh392rcd13ifvqdl0","pricing_plan_id":"cebpf4jnsgd1na2vs0mg"},{"bike_id":"0521cc37-3a0f-4bc8-964a-96f026706e98","system_id":"levelo_inurba_marseille","lat":43.28024,"lon":5.36081,"is_reserved":false,"is_disabled":false,"rental_uris":{"android":"levelo://app?vid=0521cc37-3a0f-4bc8-964a-96f026706e98","ios":"levelo://app?vid=0521cc37-3a0f-4bc8-964a-96f026706e98"},"vehicle_type_id":"4","last_reported":1727622500,"current_range_meters":24000,"station_id":"","pricing_plan_id":"cebpf4jnsgd1na2vs0mg"},{"bike_id":"e76cbd3c-99e2-45fe-b77d-4bc0055c91b6","system_id":"levelo_inurba_marseille","lat":43.29958,"lon":5.41322,"is_reserved":false,"is_disabled":false,"rental_uris":{"android":"levelo://app?vid=e76cbd3c-99e2-45fe-b77d-4bc0055c91b6","ios":"levelo://app?vid=e76cbd3c-99e2-45fe-b77d-4bc0055c91b6"},"vehicle_type_id":"4","last_reported":1727622500,"current_range_meters":30800,"station_id":"ce4bhp12rcd13ifvqh9g","pricing_plan_id":"cebpf4jnsgd1na2vs0mg"},{"bike_id":"9a9d77fd-08f3-4854-8e0d-28bd8bf9038d","system_id":"levelo_inurba_marseille","lat":43.25828,"lon":5.39435,"is_reserved":false,"is_disabled":false,"rental_uris":{"android":"levelo://app?vid=9a9d77fd-08f3-4854-8e0d-28bd8bf9038d","ios":"levelo://app?vid=9a9d77fd-08f3-4854-8e0d-28bd8bf9038d"},"vehicle_type_id":"4","last_reported":1727622500,"current_range_meters":4800,"station_id":"ce4bhip2rcd13ifvqft0","pricing_plan_id":"cebpf4jnsgd1na2vs0mg"},{"bike_id":"9a8201f0-d552-4acd-a790-29b0fd192640","system_id":"levelo_inurba_marseille","lat":43.23054,"lon":5.35493,"is_reserved":false,"is_disabled":false,"rental_uris":{"android":"levelo://app?vid=9a8201f0-d552-4acd-a790-29b0fd192640","ios":"levelo://app?vid=9a8201f0-d552-4acd-a790-29b0fd192640"},"vehicle_type_id":"4","last_reported":1727622500,"current_range_meters":12400,"station_id":"cpo3342slgdg3j2ifvpg","pricing_plan_id":"cebpf4jnsgd1na2vs0mg"},{"bike_id":"1ce7c25b-6bd2-4b64-b4ae-543ea784fc5d","system_id":"levelo_inurba_marseille","lat":43.337444,"lon":5.374475,"is_reserved":false,"is_disabled":false,"rental_uris":{"android":"levelo://app?vid=1ce7c25b-6bd2-4b64-b4ae-543ea784fc5d","ios":"levelo://app?vid=1ce7c25b-6bd2-4b64-b4ae-543ea784fc5d"},"vehicle_type_id":"4","last_reported":1727622500,"current_range_meters":32400,"station_id":"","pricing_plan_id":"cebpf4jnsgd1na2vs0mg"},{"bike_id":"f2cec66c-2fa4-4b45-8216-d6c9099d1621","system_id":"levelo_inurba_marseille","lat":43.23947,"lon":5.3663,"is_reserved":false,"is_disabled":false,"rental_uris":{"android":"levelo://app?vid=f2cec66c-2fa4-4b45-8216-d6c9099d1621","ios":"levelo://app?vid=f2cec66c-2fa4-4b45-8216-d6c9099d1621"},"vehicle_type_id":"4","last_reported":1727622500,"current_range_meters":14800,"station_id":"ce4bhi12rcd13ifvqfp0","pricing_plan_id":"cebpf4jnsgd1na2vs0mg"},{"bike_id":"eeb4b54b-284a-4a51-af38-bfe005d55c3e","system_id":"levelo_inurba_marseille","lat":43.24808,"lon":5.37452,"is_reserved":false,"is_disabled":false,"rental_uris":{"android":"levelo://app?vid=eeb4b54b-284a-4a51-af38-bfe005d55c3e","ios":"levelo://app?vid=eeb4b54b-284a-4a51-af38-bfe005d55c3e"},"vehicle_type_id":"4","last_reported":1727622500,"current_range_meters":38800,"station_id":"ce4bhgh2rcd13ifvqfb0","pricing_plan_id":"cebpf4jnsgd1na2vs0mg"},{"bike_id":"3d1ca3d1-7db8-40ab-b9bc-45dc774a99b7","system_id":"levelo_inurba_marseille","lat":43.295837,"lon":5.375056,"is_reserved":false,"is_disabled":false,"rental_uris":{"android":"levelo://app?vid=3d1ca3d1-7db8-40ab-b9bc-45dc774a99b7","ios":"levelo://app?vid=3d1ca3d1-7db8-40ab-b9bc-45dc774a99b7"},"vehicle_type_id":"4","last_reported":1727622500,"current_range_meters":32400,"station_id":"ce4bgh92rcd13ifvqb50","pricing_plan_id":"cebpf4jnsgd1na2vs0mg"},{"bike_id":"0c6a3edd-0259-43fd-a8d1-3d4bb6023605","system_id":"levelo_inurba_marseille","lat":43.2439,"lon":5.37053,"is_reserved":false,"is_disabled":false,"rental_uris":{"android":"levelo://app?vid=0c6a3edd-0259-43fd-a8d1-3d4bb6023605","ios":"levelo://app?vid=0c6a3edd-0259-43fd-a8d1-3d4bb6023605"},"vehicle_type_id":"4","last_reported":1727622500,"current_range_meters":38800,"station_id":"ce4bhhh2rcd13ifvqfk0","pricing_plan_id":"cebpf4jnsgd1na2vs0mg"},{"bike_id":"726cd938-69ee-4bea-9cc5-8900a7f1ff69","system_id":"levelo_inurba_marseille","lat":43.23069,"lon":5.35492,"is_reserved":false,"is_disabled":false,"rental_uris":{"android":"levelo://app?vid=726cd938-69ee-4bea-9cc5-8900a7f1ff69","ios":"levelo://app?vid=726cd938-69ee-4bea-9cc5-8900a7f1ff69"},"vehicle_type_id":"4","last_reported":1727622500,"current_range_meters":8000,"station_id":"cpo3342slgdg3j2ifvpg","pricing_plan_id":"cebpf4jnsgd1na2vs0mg"},{"bike_id":"aa6b7697-cbae-4777-91bf-7f7cb0ab81f5","system_id":"levelo_inurba_marseille","lat":43.24549,"lon":5.39519,"is_reserved":false,"is_disabled":false,"rental_uris":{"android":"levelo://app?vid=aa6b7697-cbae-4777-91bf-7f7cb0ab81f5","ios":"levelo://app?vid=aa6b7697-cbae-4777-91bf-7f7cb0ab81f5"},"vehicle_type_id":"4","last_reported":1727622500,"current_range_meters":26000,"station_id":"ce4bhlp2rcd13ifvqgjg","pricing_plan_id":"cebpf4jnsgd1na2vs0mg"},{"bike_id":"dea26cbf-9c02-4786-a3a1-6456744f7ebe","system_id":"levelo_inurba_marseille","lat":43.30793,"lon":5.43526,"is_reserved":false,"is_disabled":false,"rental_uris":{"android":"levelo://app?vid=dea26cbf-9c02-4786-a3a1-6456744f7ebe","ios":"levelo://app?vid=dea26cbf-9c02-4786-a3a1-6456744f7ebe"},"vehicle_type_id":"4","last_reported":1727622500,"current_range_meters":24800,"station_id":"ce4bhph2rcd13ifvqheg","pricing_plan_id":"cebpf4jnsgd1na2vs0mg"},{"bike_id":"0dbd86a3-c7a6-4da4-9a30-f36eefc00c9f","system_id":"levelo_inurba_marseille","lat":43.26208,"lon":5.37932,"is_reserved":false,"is_disabled":false,"rental_uris":{"android":"levelo://app?vid=0dbd86a3-c7a6-4da4-9a30-f36eefc00c9f","ios":"levelo://app?vid=0dbd86a3-c7a6-4da4-9a30-f36eefc00c9f"},"vehicle_type_id":"4","last_reported":1727622500,"current_range_meters":15200,"station_id":"ce4bhjp2rcd13ifvqg90","pricing_plan_id":"cebpf4jnsgd1na2vs0mg"},{"bike_id":"9e3eeb26-cc9e-49cd-b725-9554a29e2b2b","system_id":"levelo_inurba_marseille","lat":43.25724,"lon":5.41106,"is_reserved":false,"is_disabled":false,"rental_uris":{"android":"levelo://app?vid=9e3eeb26-cc9e-49cd-b725-9554a29e2b2b","ios":"levelo://app?vid=9e3eeb26-cc9e-49cd-b725-9554a29e2b2b"},"vehicle_type_id":"4","last_reported":1727622500,"current_range_meters":6000,"station_id":"ce4bhkp2rcd13ifvqgd0","pricing_plan_id":"cebpf4jnsgd1na2vs0mg"},{"bike_id":"6a52f468-9bf5-46c2-819d-2c732c18128e","system_id":"levelo_inurba_marseille","lat":43.23961,"lon":5.36628,"is_reserved":false,"is_disabled":false,"rental_uris":{"android":"levelo://app?vid=6a52f468-9bf5-46c2-819d-2c732c18128e","ios":"levelo://app?vid=6a52f468-9bf5-46c2-819d-2c732c18128e"},"vehicle_type_id":"4","last_reported":1727622500,"current_range_meters":35200,"station_id":"ce4bhi12rcd13ifvqfp0","pricing_plan_id":"cebpf4jnsgd1na2vs0mg"},{"bike_id":"68f95a61-e701-4da5-a0c3-58758648f9c2","system_id":"levelo_inurba_marseille","lat":43.32476,"lon":5.36552,"is_reserved":false,"is_disabled":false,"rental_uris":{"android":"levelo://app?vid=68f95a61-e701-4da5-a0c3-58758648f9c2","ios":"levelo://app?vid=68f95a61-e701-4da5-a0c3-58758648f9c2"},"vehicle_type_id":"4","last_reported":1727622500,"current_range_meters":20000,"station_id":"ce4bhs12rcd13ifvqhvg","pricing_plan_id":"cebpf4jnsgd1na2vs0mg"},{"bike_id":"a2852e31-ce91-4d98-9b21-1a98e9763160","system_id":"levelo_inurba_marseille","lat":43.25118,"lon":5.40316,"is_reserved":false,"is_disabled":false,"rental_uris":{"android":"levelo://app?vid=a2852e31-ce91-4d98-9b21-1a98e9763160","ios":"levelo://app?vid=a2852e31-ce91-4d98-9b21-1a98e9763160"},"vehicle_type_id":"4","last_reported":1727622500,"current_range_meters":2800,"station_id":"ce4bhlh2rcd13ifvqgig","pricing_plan_id":"cebpf4jnsgd1na2vs0mg"},{"bike_id":"240b6ed0-de28-4b78-b2af-b6ff5eb271e9","system_id":"levelo_inurba_marseille","lat":43.23587,"lon":5.36614,"is_reserved":false,"is_disabled":false,"rental_uris":{"android":"levelo://app?vid=240b6ed0-de28-4b78-b2af-b6ff5eb271e9","ios":"levelo://app?vid=240b6ed0-de28-4b78-b2af-b6ff5eb271e9"},"vehicle_type_id":"4","last_reported":1727622500,"current_range_meters":30400,"station_id":"","pricing_plan_id":"cebpf4jnsgd1na2vs0mg"},{"bike_id":"9cab4b77-e73b-485b-9196-05681379298d","system_id":"levelo_inurba_marseille","lat":43.32315,"lon":5.38281,"is_reserved":false,"is_disabled":false,"rental_uris":{"android":"levelo://app?vid=9cab4b77-e73b-485b-9196-05681379298d","ios":"levelo://app?vid=9cab4b77-e73b-485b-9196-05681379298d"},"vehicle_type_id":"4","last_reported":1727622500,"current_range_meters":36800,"station_id":"ce4bhr12rcd13ifvqhqg","pricing_plan_id":"cebpf4jnsgd1na2vs0mg"},{"bike_id":"9c8a7fb8-468c-4f0e-ac79-1458ba7682db","system_id":"levelo_inurba_marseille","lat":43.22936,"lon":5.35376,"is_reserved":false,"is_disabled":false,"rental_uris":{"android":"levelo://app?vid=9c8a7fb8-468c-4f0e-ac79-1458ba7682db","ios":"levelo://app?vid=9c8a7fb8-468c-4f0e-ac79-1458ba7682db"},"vehicle_type_id":"4","last_reported":1727622500,"current_range_meters":8400,"station_id":"cpo3532slgdg3j2ikp40","pricing_plan_id":"cebpf4jnsgd1na2vs0mg"},{"bike_id":"8052f078-4e20-41b6-b408-0331d8013a67","system_id":"levelo_inurba_marseille","lat":43.23956,"lon":5.36628,"is_reserved":false,"is_disabled":false,"rental_uris":{"android":"levelo://app?vid=8052f078-4e20-41b6-b408-0331d8013a67","ios":"levelo://app?vid=8052f078-4e20-41b6-b408-0331d8013a67"},"vehicle_type_id":"4","last_reported":1727622500,"current_range_meters":18800,"station_id":"ce4bhi12rcd13ifvqfp0","pricing_plan_id":"cebpf4jnsgd1na2vs0mg"},{"bike_id":"328f8b97-4cf3-4102-b052-4037dae7cd2d","system_id":"levelo_inurba_marseille","lat":43.31883,"lon":5.40734,"is_reserved":false,"is_disabled":false,"rental_uris":{"android":"levelo://app?vid=328f8b97-4cf3-4102-b052-4037dae7cd2d","ios":"levelo://app?vid=328f8b97-4cf3-4102-b052-4037dae7cd2d"},"vehicle_type_id":"4","last_reported":1727622500,"current_range_meters":6800,"station_id":"ce4bhq12rcd13ifvqhig","pricing_plan_id":"cebpf4jnsgd1na2vs0mg"},{"bike_id":"e150718b-3b11-4746-aaf5-ed9fe54bd243","system_id":"levelo_inurba_marseille","lat":43.240784,"lon":5.377424,"is_reserved":false,"is_disabled":false,"rental_uris":{"android":"levelo://app?vid=e150718b-3b11-4746-aaf5-ed9fe54bd243","ios":"levelo://app?vid=e150718b-3b11-4746-aaf5-ed9fe54bd243"},"vehicle_type_id":"4","last_reported":1727622500,"current_range_meters":23200,"station_id":"ce4bhnp2rcd13ifvqgvg","pricing_plan_id":"cebpf4jnsgd1na2vs0mg"},{"bike_id":"883dbd06-c2fc-4488-9b5e-ef4f05339f9b","system_id":"levelo_inurba_marseille","lat":43.30208,"lon":5.36615,"is_reserved":false,"is_disabled":false,"rental_uris":{"android":"levelo://app?vid=883dbd06-c2fc-4488-9b5e-ef4f05339f9b","ios":"levelo://app?vid=883dbd06-c2fc-4488-9b5e-ef4f05339f9b"},"vehicle_type_id":"4","last_reported":1727622500,"current_range_meters":28800,"station_id":"ce4bgrh2rcd13ifvqc8g","pricing_plan_id":"cebpf4jnsgd1na2vs0mg"},{"bike_id":"31d29f39-3bf9-442c-85ea-739711aaa3e0","system_id":"levelo_inurba_marseille","lat":43.231903,"lon":5.355556,"is_reserved":false,"is_disabled":false,"rental_uris":{"android":"levelo://app?vid=31d29f39-3bf9-442c-85ea-739711aaa3e0","ios":"levelo://app?vid=31d29f39-3bf9-442c-85ea-739711aaa3e0"},"vehicle_type_id":"4","last_reported":1727622500,"current_range_meters":3200,"station_id":"ce4bhu92rcd13ifvqi70","pricing_plan_id":"cebpf4jnsgd1na2vs0mg"},{"bike_id":"1efe3a10-c919-4603-9b22-806f3a34b7d5","system_id":"levelo_inurba_marseille","lat":43.2621,"lon":5.37444,"is_reserved":false,"is_disabled":false,"rental_uris":{"android":"levelo://app?vid=1efe3a10-c919-4603-9b22-806f3a34b7d5","ios":"levelo://app?vid=1efe3a10-c919-4603-9b22-806f3a34b7d5"},"vehicle_type_id":"4","last_reported":1727622500,"current_range_meters":36400,"station_id":"ce4bhgp2rcd13ifvqfc0","pricing_plan_id":"cebpf4jnsgd1na2vs0mg"},{"bike_id":"cf2a99f0-171d-46e2-b5f9-b8e518581e33","system_id":"levelo_inurba_marseille","lat":43.23966,"lon":5.36621,"is_reserved":false,"is_disabled":false,"rental_uris":{"android":"levelo://app?vid=cf2a99f0-171d-46e2-b5f9-b8e518581e33","ios":"levelo://app?vid=cf2a99f0-171d-46e2-b5f9-b8e518581e33"},"vehicle_type_id":"4","last_reported":1727622500,"current_range_meters":32400,"station_id":"ce4bhi12rcd13ifvqfp0","pricing_plan_id":"cebpf4jnsgd1na2vs0mg"},{"bike_id":"3b7406cb-8e46-475b-b698-8b0e7c733a15","system_id":"levelo_inurba_marseille","lat":43.287537,"lon":5.361097,"is_reserved":false,"is_disabled":false,"rental_uris":{"android":"levelo://app?vid=3b7406cb-8e46-475b-b698-8b0e7c733a15","ios":"levelo://app?vid=3b7406cb-8e46-475b-b698-8b0e7c733a15"},"vehicle_type_id":"4","last_reported":1727622500,"current_range_meters":30800,"station_id":"cki0cbj6b192h4jlfktg","pricing_plan_id":"cebpf4jnsgd1na2vs0mg"},{"bike_id":"5566361a-b347-4042-87d5-b7f85faf3918","system_id":"levelo_inurba_marseille","lat":43.30985,"lon":5.40086,"is_reserved":false,"is_disabled":false,"rental_uris":{"android":"levelo://app?vid=5566361a-b347-4042-87d5-b7f85faf3918","ios":"levelo://app?vid=5566361a-b347-4042-87d5-b7f85faf3918"},"vehicle_type_id":"4","last_reported":1727622500,"current_range_meters":7200,"station_id":"","pricing_plan_id":"cebpf4jnsgd1na2vs0mg"},{"bike_id":"52f17877-110a-422d-89ae-fdeda162e6f3","system_id":"levelo_inurba_marseille","lat":43.23961,"lon":5.36624,"is_reserved":false,"is_disabled":false,"rental_uris":{"android":"levelo://app?vid=52f17877-110a-422d-89ae-fdeda162e6f3","ios":"levelo://app?vid=52f17877-110a-422d-89ae-fdeda162e6f3"},"vehicle_type_id":"4","last_reported":1727622500,"current_range_meters":6800,"station_id":"ce4bhi12rcd13ifvqfp0","pricing_plan_id":"cebpf4jnsgd1na2vs0mg"},{"bike_id":"8717b2c7-9eb0-4359-b770-6af61233ba7d","system_id":"levelo_inurba_marseille","lat":43.28978,"lon":5.37836,"is_reserved":false,"is_disabled":false,"rental_uris":{"android":"levelo://app?vid=8717b2c7-9eb0-4359-b770-6af61233ba7d","ios":"levelo://app?vid=8717b2c7-9eb0-4359-b770-6af61233ba7d"},"vehicle_type_id":"4","last_reported":1727622500,"current_range_meters":32400,"station_id":"","pricing_plan_id":"cebpf4jnsgd1na2vs0mg"},{"bike_id":"678cc502-1893-4f80-8dce-80950ace40eb","system_id":"levelo_inurba_marseille","lat":43.26212,"lon":5.3793,"is_reserved":false,"is_disabled":false,"rental_uris":{"android":"levelo://app?vid=678cc502-1893-4f80-8dce-80950ace40eb","ios":"levelo://app?vid=678cc502-1893-4f80-8dce-80950ace40eb"},"vehicle_type_id":"4","last_reported":1727622500,"current_range_meters":2800,"station_id":"ce4bhjp2rcd13ifvqg90","pricing_plan_id":"cebpf4jnsgd1na2vs0mg"},{"bike_id":"87338c1f-f69b-4a70-b906-14af9e9c148a","system_id":"levelo_inurba_marseille","lat":43.32547,"lon":5.41445,"is_reserved":false,"is_disabled":false,"rental_uris":{"android":"levelo://app?vid=87338c1f-f69b-4a70-b906-14af9e9c148a","ios":"levelo://app?vid=87338c1f-f69b-4a70-b906-14af9e9c148a"},"vehicle_type_id":"4","last_reported":1727622500,"current_range_meters":38800,"station_id":"ce4bhq12rcd13ifvqhhg","pricing_plan_id":"cebpf4jnsgd1na2vs0mg"},{"bike_id":"557b4a47-ebfd-4079-bbe7-b40f0a91b6b9","system_id":"levelo_inurba_marseille","lat":43.25109,"lon":5.40322,"is_reserved":false,"is_disabled":false,"rental_uris":{"android":"levelo://app?vid=557b4a47-ebfd-4079-bbe7-b40f0a91b6b9","ios":"levelo://app?vid=557b4a47-ebfd-4079-bbe7-b40f0a91b6b9"},"vehicle_type_id":"4","last_reported":1727622500,"current_range_meters":12400,"station_id":"ce4bhlh2rcd13ifvqgig","pricing_plan_id":"cebpf4jnsgd1na2vs0mg"},{"bike_id":"9e0e602a-711e-4e75-a4b3-f0d70db8f823","system_id":"levelo_inurba_marseille","lat":43.2396,"lon":5.36629,"is_reserved":false,"is_disabled":false,"rental_uris":{"android":"levelo://app?vid=9e0e602a-711e-4e75-a4b3-f0d70db8f823","ios":"levelo://app?vid=9e0e602a-711e-4e75-a4b3-f0d70db8f823"},"vehicle_type_id":"4","last_reported":1727622500,"current_range_meters":13600,"station_id":"ce4bhi12rcd13ifvqfp0","pricing_plan_id":"cebpf4jnsgd1na2vs0mg"},{"bike_id":"124cc49e-bc3f-4ee2-96b6-78f4c29aba27","system_id":"levelo_inurba_marseille","lat":43.25011,"lon":5.38918,"is_reserved":false,"is_disabled":false,"rental_uris":{"android":"levelo://app?vid=124cc49e-bc3f-4ee2-96b6-78f4c29aba27","ios":"levelo://app?vid=124cc49e-bc3f-4ee2-96b6-78f4c29aba27"},"vehicle_type_id":"4","last_reported":1727622500,"current_range_meters":23200,"station_id":"ce4bhgp2rcd13ifvqfd0","pricing_plan_id":"cebpf4jnsgd1na2vs0mg"},{"bike_id":"fd14ba81-3f44-4ac1-b066-8941269a20c6","system_id":"levelo_inurba_marseille","lat":43.29242,"lon":5.42658,"is_reserved":false,"is_disabled":false,"rental_uris":{"android":"levelo://app?vid=fd14ba81-3f44-4ac1-b066-8941269a20c6","ios":"levelo://app?vid=fd14ba81-3f44-4ac1-b066-8941269a20c6"},"vehicle_type_id":"4","last_reported":1727622500,"current_range_meters":16800,"station_id":"ce4bhnh2rcd13ifvqgug","pricing_plan_id":"cebpf4jnsgd1na2vs0mg"},{"bike_id":"3b58d12c-71ad-4fd5-ba41-d36f062cccf3","system_id":"levelo_inurba_marseille","lat":43.31169,"lon":5.38718,"is_reserved":false,"is_disabled":false,"rental_uris":{"android":"levelo://app?vid=3b58d12c-71ad-4fd5-ba41-d36f062cccf3","ios":"levelo://app?vid=3b58d12c-71ad-4fd5-ba41-d36f062cccf3"},"vehicle_type_id":"4","last_reported":1727622500,"current_range_meters":16800,"station_id":"ce4bgv12rcd13ifvqcp0","pricing_plan_id":"cebpf4jnsgd1na2vs0mg"},{"bike_id":"286a38be-9a17-42ac-b216-07a9e5a83131","system_id":"levelo_inurba_marseille","lat":43.23197,"lon":5.35543,"is_reserved":false,"is_disabled":false,"rental_uris":{"android":"levelo://app?vid=286a38be-9a17-42ac-b216-07a9e5a83131","ios":"levelo://app?vid=286a38be-9a17-42ac-b216-07a9e5a83131"},"vehicle_type_id":"4","last_reported":1727622500,"current_range_meters":18000,"station_id":"ce4bhu92rcd13ifvqi70","pricing_plan_id":"cebpf4jnsgd1na2vs0mg"},{"bike_id":"c6ab7fff-4247-43f5-98d2-2c8a3dc800f5","system_id":"levelo_inurba_marseille","lat":43.262146,"lon":5.374394,"is_reserved":false,"is_disabled":false,"rental_uris":{"android":"levelo://app?vid=c6ab7fff-4247-43f5-98d2-2c8a3dc800f5","ios":"levelo://app?vid=c6ab7fff-4247-43f5-98d2-2c8a3dc800f5"},"vehicle_type_id":"4","last_reported":1727622500,"current_range_meters":28800,"station_id":"ce4bhgp2rcd13ifvqfc0","pricing_plan_id":"cebpf4jnsgd1na2vs0mg"},{"bike_id":"9116828f-d560-4357-84f5-0b8af952d459","system_id":"levelo_inurba_marseille","lat":43.23194,"lon":5.35556,"is_reserved":false,"is_disabled":false,"rental_uris":{"android":"levelo://app?vid=9116828f-d560-4357-84f5-0b8af952d459","ios":"levelo://app?vid=9116828f-d560-4357-84f5-0b8af952d459"},"vehicle_type_id":"4","last_reported":1727622500,"current_range_meters":21600,"station_id":"ce4bhu92rcd13ifvqi70","pricing_plan_id":"cebpf4jnsgd1na2vs0mg"},{"bike_id":"bee89745-9044-47b6-9fd7-a134dfb25b0c","system_id":"levelo_inurba_marseille","lat":43.30589,"lon":5.36555,"is_reserved":false,"is_disabled":false,"rental_uris":{"android":"levelo://app?vid=bee89745-9044-47b6-9fd7-a134dfb25b0c","ios":"levelo://app?vid=bee89745-9044-47b6-9fd7-a134dfb25b0c"},"vehicle_type_id":"4","last_reported":1727622500,"current_range_meters":27600,"station_id":"ce4bhb92rcd13ifvqen0","pricing_plan_id":"cebpf4jnsgd1na2vs0mg"},{"bike_id":"07ab11cd-dbaf-44b3-96fc-9f1de1d31415","system_id":"levelo_inurba_marseille","lat":43.2319,"lon":5.35548,"is_reserved":false,"is_disabled":false,"rental_uris":{"android":"levelo://app?vid=07ab11cd-dbaf-44b3-96fc-9f1de1d31415","ios":"levelo://app?vid=07ab11cd-dbaf-44b3-96fc-9f1de1d31415"},"vehicle_type_id":"4","last_reported":1727622500,"current_range_meters":22800,"station_id":"ce4bhu92rcd13ifvqi70","pricing_plan_id":"cebpf4jnsgd1na2vs0mg"},{"bike_id":"083f7a45-27ae-48e6-86fd-d6341c194870","system_id":"levelo_inurba_marseille","lat":43.29371,"lon":5.37854,"is_reserved":false,"is_disabled":false,"rental_uris":{"android":"levelo://app?vid=083f7a45-27ae-48e6-86fd-d6341c194870","ios":"levelo://app?vid=083f7a45-27ae-48e6-86fd-d6341c194870"},"vehicle_type_id":"4","last_reported":1727622500,"current_range_meters":25600,"station_id":"ce4bgjh2rcd13ifvqbf0","pricing_plan_id":"cebpf4jnsgd1na2vs0mg"},{"bike_id":"408d9401-5194-45b1-948e-a2c15040c41f","system_id":"levelo_inurba_marseille","lat":43.2319,"lon":5.35541,"is_reserved":false,"is_disabled":false,"rental_uris":{"android":"levelo://app?vid=408d9401-5194-45b1-948e-a2c15040c41f","ios":"levelo://app?vid=408d9401-5194-45b1-948e-a2c15040c41f"},"vehicle_type_id":"4","last_reported":1727622500,"current_range_meters":16400,"station_id":"ce4bhu92rcd13ifvqi70","pricing_plan_id":"cebpf4jnsgd1na2vs0mg"},{"bike_id":"94fdfe10-8c09-41e0-b800-38c859b3f321","system_id":"levelo_inurba_marseille","lat":43.329286,"lon":5.390721,"is_reserved":false,"is_disabled":false,"rental_uris":{"android":"levelo://app?vid=94fdfe10-8c09-41e0-b800-38c859b3f321","ios":"levelo://app?vid=94fdfe10-8c09-41e0-b800-38c859b3f321"},"vehicle_type_id":"4","last_reported":1727622500,"current_range_meters":38800,"station_id":"","pricing_plan_id":"cebpf4jnsgd1na2vs0mg"},{"bike_id":"0e89ee9e-ab75-4aa3-92e6-91e01ae50292","system_id":"levelo_inurba_marseille","lat":43.255,"lon":5.3765,"is_reserved":false,"is_disabled":false,"rental_uris":{"android":"levelo://app?vid=0e89ee9e-ab75-4aa3-92e6-91e01ae50292","ios":"levelo://app?vid=0e89ee9e-ab75-4aa3-92e6-91e01ae50292"},"vehicle_type_id":"4","last_reported":1727622500,"current_range_meters":32000,"station_id":"ce4bhh12rcd13ifvqff0","pricing_plan_id":"cebpf4jnsgd1na2vs0mg"},{"bike_id":"512039d6-a63e-4535-9288-ca929d3ea9f5","system_id":"levelo_inurba_marseille","lat":43.27686,"lon":5.38884,"is_reserved":false,"is_disabled":false,"rental_uris":{"android":"levelo://app?vid=512039d6-a63e-4535-9288-ca929d3ea9f5","ios":"levelo://app?vid=512039d6-a63e-4535-9288-ca929d3ea9f5"},"vehicle_type_id":"4","last_reported":1727622500,"current_range_meters":1600,"station_id":"ce4bhi12rcd13ifvqfo0","pricing_plan_id":"cebpf4jnsgd1na2vs0mg"},{"bike_id":"3e5f5bb3-08c6-4087-a33a-2a7cdc9e4791","system_id":"levelo_inurba_marseille","lat":43.23194,"lon":5.35551,"is_reserved":false,"is_disabled":false,"rental_uris":{"android":"levelo://app?vid=3e5f5bb3-08c6-4087-a33a-2a7cdc9e4791","ios":"levelo://app?vid=3e5f5bb3-08c6-4087-a33a-2a7cdc9e4791"},"vehicle_type_id":"4","last_reported":1727622500,"current_range_meters":17600,"station_id":"ce4bhu92rcd13ifvqi70","pricing_plan_id":"cebpf4jnsgd1na2vs0mg"},{"bike_id":"0a597a36-08c4-42e6-b19a-911812ccac40","system_id":"levelo_inurba_marseille","lat":43.30127,"lon":5.38781,"is_reserved":false,"is_disabled":false,"rental_uris":{"android":"levelo://app?vid=0a597a36-08c4-42e6-b19a-911812ccac40","ios":"levelo://app?vid=0a597a36-08c4-42e6-b19a-911812ccac40"},"vehicle_type_id":"4","last_reported":1727622500,"current_range_meters":33600,"station_id":"ce4bghh2rcd13ifvqb60","pricing_plan_id":"cebpf4jnsgd1na2vs0mg"},{"bike_id":"5cd0448e-97e0-4979-9e8b-436ce4e2cbf2","system_id":"levelo_inurba_marseille","lat":43.27374,"lon":5.36256,"is_reserved":false,"is_disabled":false,"rental_uris":{"android":"levelo://app?vid=5cd0448e-97e0-4979-9e8b-436ce4e2cbf2","ios":"levelo://app?vid=5cd0448e-97e0-4979-9e8b-436ce4e2cbf2"},"vehicle_type_id":"4","last_reported":1727622500,"current_range_meters":17600,"station_id":"ce4bhbh2rcd13ifvqeo0","pricing_plan_id":"cebpf4jnsgd1na2vs0mg"},{"bike_id":"40af7eb4-6cd7-462c-b9fb-34273e78aa71","system_id":"levelo_inurba_marseille","lat":43.24072,"lon":5.3776,"is_reserved":false,"is_disabled":false,"rental_uris":{"android":"levelo://app?vid=40af7eb4-6cd7-462c-b9fb-34273e78aa71","ios":"levelo://app?vid=40af7eb4-6cd7-462c-b9fb-34273e78aa71"},"vehicle_type_id":"4","last_reported":1727622500,"current_range_meters":10800,"station_id":"ce4bhnp2rcd13ifvqgvg","pricing_plan_id":"cebpf4jnsgd1na2vs0mg"},{"bike_id":"a63d4449-4f5a-4f1c-9a3c-27c8d74bd2a3","system_id":"levelo_inurba_marseille","lat":43.24395,"lon":5.37063,"is_reserved":false,"is_disabled":false,"rental_uris":{"android":"levelo://app?vid=a63d4449-4f5a-4f1c-9a3c-27c8d74bd2a3","ios":"levelo://app?vid=a63d4449-4f5a-4f1c-9a3c-27c8d74bd2a3"},"vehicle_type_id":"4","last_reported":1727622500,"current_range_meters":9600,"station_id":"ce4bhhh2rcd13ifvqfk0","pricing_plan_id":"cebpf4jnsgd1na2vs0mg"},{"bike_id":"c6de405c-4b2f-4033-9b62-ffa13ecd65c5","system_id":"levelo_inurba_marseille","lat":43.29261,"lon":5.40919,"is_reserved":false,"is_disabled":false,"rental_uris":{"android":"levelo://app?vid=c6de405c-4b2f-4033-9b62-ffa13ecd65c5","ios":"levelo://app?vid=c6de405c-4b2f-4033-9b62-ffa13ecd65c5"},"vehicle_type_id":"4","last_reported":1727622500,"current_range_meters":38400,"station_id":"ce4bh192rcd13ifvqdc0","pricing_plan_id":"cebpf4jnsgd1na2vs0mg"},{"bike_id":"d7cdc01b-6eb7-4a98-aaf8-f0abbcc03cf9","system_id":"levelo_inurba_marseille","lat":43.30147,"lon":5.38069,"is_reserved":false,"is_disabled":false,"rental_uris":{"android":"levelo://app?vid=d7cdc01b-6eb7-4a98-aaf8-f0abbcc03cf9","ios":"levelo://app?vid=d7cdc01b-6eb7-4a98-aaf8-f0abbcc03cf9"},"vehicle_type_id":"4","last_reported":1727622500,"current_range_meters":3200,"station_id":"ce4bgjp2rcd13ifvqbh0","pricing_plan_id":"cebpf4jnsgd1na2vs0mg"},{"bike_id":"652d66df-ff77-40ea-b279-302d9eb679e7","system_id":"levelo_inurba_marseille","lat":43.24651,"lon":5.38892,"is_reserved":false,"is_disabled":false,"rental_uris":{"android":"levelo://app?vid=652d66df-ff77-40ea-b279-302d9eb679e7","ios":"levelo://app?vid=652d66df-ff77-40ea-b279-302d9eb679e7"},"vehicle_type_id":"4","last_reported":1727622500,"current_range_meters":28800,"station_id":"ce4bhg12rcd13ifvqf60","pricing_plan_id":"cebpf4jnsgd1na2vs0mg"},{"bike_id":"bc7dc6a9-589f-4649-9e06-6ce7434d3293","system_id":"levelo_inurba_marseille","lat":43.29041,"lon":5.36946,"is_reserved":false,"is_disabled":false,"rental_uris":{"android":"levelo://app?vid=bc7dc6a9-589f-4649-9e06-6ce7434d3293","ios":"levelo://app?vid=bc7dc6a9-589f-4649-9e06-6ce7434d3293"},"vehicle_type_id":"4","last_reported":1727622500,"current_range_meters":25600,"station_id":"ce4bhah2rcd13ifvqej0","pricing_plan_id":"cebpf4jnsgd1na2vs0mg"},{"bike_id":"5663d8b8-4544-4b71-a96f-e09306f9109d","system_id":"levelo_inurba_marseille","lat":43.23065,"lon":5.35488,"is_reserved":false,"is_disabled":false,"rental_uris":{"android":"levelo://app?vid=5663d8b8-4544-4b71-a96f-e09306f9109d","ios":"levelo://app?vid=5663d8b8-4544-4b71-a96f-e09306f9109d"},"vehicle_type_id":"4","last_reported":1727622500,"current_range_meters":8000,"station_id":"cpo3342slgdg3j2ifvpg","pricing_plan_id":"cebpf4jnsgd1na2vs0mg"},{"bike_id":"d9992f1c-3b4d-480e-933b-d0de2025466c","system_id":"levelo_inurba_marseille","lat":43.28441,"lon":5.392,"is_reserved":false,"is_disabled":false,"rental_uris":{"android":"levelo://app?vid=d9992f1c-3b4d-480e-933b-d0de2025466c","ios":"levelo://app?vid=d9992f1c-3b4d-480e-933b-d0de2025466c"},"vehicle_type_id":"4","last_reported":1727622500,"current_range_meters":6800,"station_id":"ce4bhoh2rcd13ifvqh5g","pricing_plan_id":"cebpf4jnsgd1na2vs0mg"},{"bike_id":"07451b19-52ad-411d-95a5-14ab17f5360f","system_id":"levelo_inurba_marseille","lat":43.23057,"lon":5.35491,"is_reserved":false,"is_disabled":false,"rental_uris":{"android":"levelo://app?vid=07451b19-52ad-411d-95a5-14ab17f5360f","ios":"levelo://app?vid=07451b19-52ad-411d-95a5-14ab17f5360f"},"vehicle_type_id":"4","last_reported":1727622500,"current_range_meters":16400,"station_id":"cpo3342slgdg3j2ifvpg","pricing_plan_id":"cebpf4jnsgd1na2vs0mg"},{"bike_id":"80888999-8ba1-47f2-9028-e8a1f3b64255","system_id":"levelo_inurba_marseille","lat":43.274215,"lon":5.394175,"is_reserved":false,"is_disabled":false,"rental_uris":{"android":"levelo://app?vid=80888999-8ba1-47f2-9028-e8a1f3b64255","ios":"levelo://app?vid=80888999-8ba1-47f2-9028-e8a1f3b64255"},"vehicle_type_id":"4","last_reported":1727622500,"current_range_meters":24800,"station_id":"ce4bhih2rcd13ifvqfr0","pricing_plan_id":"cebpf4jnsgd1na2vs0mg"},{"bike_id":"cedf2d11-5f7c-4366-98d8-0a371e294ce7","system_id":"levelo_inurba_marseille","lat":43.28427,"lon":5.3499,"is_reserved":false,"is_disabled":false,"rental_uris":{"android":"levelo://app?vid=cedf2d11-5f7c-4366-98d8-0a371e294ce7","ios":"levelo://app?vid=cedf2d11-5f7c-4366-98d8-0a371e294ce7"},"vehicle_type_id":"4","last_reported":1727622500,"current_range_meters":0,"station_id":"ce4bhbh2rcd13ifvqepg","pricing_plan_id":"cebpf4jnsgd1na2vs0mg"},{"bike_id":"f64fac49-b7b4-4e6a-a11d-693a2b2fbaf8","system_id":"levelo_inurba_marseille","lat":43.26207,"lon":5.37441,"is_reserved":false,"is_disabled":false,"rental_uris":{"android":"levelo://app?vid=f64fac49-b7b4-4e6a-a11d-693a2b2fbaf8","ios":"levelo://app?vid=f64fac49-b7b4-4e6a-a11d-693a2b2fbaf8"},"vehicle_type_id":"4","last_reported":1727622500,"current_range_meters":26800,"station_id":"ce4bhgp2rcd13ifvqfc0","pricing_plan_id":"cebpf4jnsgd1na2vs0mg"},{"bike_id":"ed84faff-17c5-48fb-8753-c2f883b40c1d","system_id":"levelo_inurba_marseille","lat":43.23962,"lon":5.36646,"is_reserved":false,"is_disabled":false,"rental_uris":{"android":"levelo://app?vid=ed84faff-17c5-48fb-8753-c2f883b40c1d","ios":"levelo://app?vid=ed84faff-17c5-48fb-8753-c2f883b40c1d"},"vehicle_type_id":"4","last_reported":1727622500,"current_range_meters":37600,"station_id":"ce4bhi12rcd13ifvqfp0","pricing_plan_id":"cebpf4jnsgd1na2vs0mg"},{"bike_id":"3b170ecf-4bbb-421f-886d-94818fba1de8","system_id":"levelo_inurba_marseille","lat":43.28477,"lon":5.4001,"is_reserved":false,"is_disabled":false,"rental_uris":{"android":"levelo://app?vid=3b170ecf-4bbb-421f-886d-94818fba1de8","ios":"levelo://app?vid=3b170ecf-4bbb-421f-886d-94818fba1de8"},"vehicle_type_id":"4","last_reported":1727622500,"current_range_meters":30400,"station_id":"ce4bh2h2rcd13ifvqdh0","pricing_plan_id":"cebpf4jnsgd1na2vs0mg"},{"bike_id":"b818a14e-3e0e-4e17-b62c-d53194b54ac1","system_id":"levelo_inurba_marseille","lat":43.23067,"lon":5.35486,"is_reserved":false,"is_disabled":false,"rental_uris":{"android":"levelo://app?vid=b818a14e-3e0e-4e17-b62c-d53194b54ac1","ios":"levelo://app?vid=b818a14e-3e0e-4e17-b62c-d53194b54ac1"},"vehicle_type_id":"4","last_reported":1727622500,"current_range_meters":27200,"station_id":"cpo3342slgdg3j2ifvpg","pricing_plan_id":"cebpf4jnsgd1na2vs0mg"},{"bike_id":"62f3c8e5-9b9f-46d1-b2f3-2ab4219d7f89","system_id":"levelo_inurba_marseille","lat":43.28421,"lon":5.3498,"is_reserved":false,"is_disabled":false,"rental_uris":{"android":"levelo://app?vid=62f3c8e5-9b9f-46d1-b2f3-2ab4219d7f89","ios":"levelo://app?vid=62f3c8e5-9b9f-46d1-b2f3-2ab4219d7f89"},"vehicle_type_id":"4","last_reported":1727622500,"current_range_meters":6400,"station_id":"ce4bhbh2rcd13ifvqepg","pricing_plan_id":"cebpf4jnsgd1na2vs0mg"},{"bike_id":"7497ada0-4e52-442c-9aa1-86afe522b93f","system_id":"levelo_inurba_marseille","lat":43.29904,"lon":5.43663,"is_reserved":false,"is_disabled":false,"rental_uris":{"android":"levelo://app?vid=7497ada0-4e52-442c-9aa1-86afe522b93f","ios":"levelo://app?vid=7497ada0-4e52-442c-9aa1-86afe522b93f"},"vehicle_type_id":"4","last_reported":1727622500,"current_range_meters":24800,"station_id":"ce4bhpp2rcd13ifvqhfg","pricing_plan_id":"cebpf4jnsgd1na2vs0mg"},{"bike_id":"8a2141b5-4ed1-48ef-bcb9-2550c31a6897","system_id":"levelo_inurba_marseille","lat":43.23957,"lon":5.36617,"is_reserved":false,"is_disabled":false,"rental_uris":{"android":"levelo://app?vid=8a2141b5-4ed1-48ef-bcb9-2550c31a6897","ios":"levelo://app?vid=8a2141b5-4ed1-48ef-bcb9-2550c31a6897"},"vehicle_type_id":"4","last_reported":1727622500,"current_range_meters":18000,"station_id":"ce4bhi12rcd13ifvqfp0","pricing_plan_id":"cebpf4jnsgd1na2vs0mg"},{"bike_id":"dbeff0eb-d6e7-423b-a6ff-c41b03199664","system_id":"levelo_inurba_marseille","lat":43.25111,"lon":5.40321,"is_reserved":false,"is_disabled":false,"rental_uris":{"android":"levelo://app?vid=dbeff0eb-d6e7-423b-a6ff-c41b03199664","ios":"levelo://app?vid=dbeff0eb-d6e7-423b-a6ff-c41b03199664"},"vehicle_type_id":"4","last_reported":1727622500,"current_range_meters":22800,"station_id":"ce4bhlh2rcd13ifvqgig","pricing_plan_id":"cebpf4jnsgd1na2vs0mg"},{"bike_id":"354749ad-cf0a-4b15-99c7-3bc6a920b354","system_id":"levelo_inurba_marseille","lat":43.29959,"lon":5.41319,"is_reserved":false,"is_disabled":false,"rental_uris":{"android":"levelo://app?vid=354749ad-cf0a-4b15-99c7-3bc6a920b354","ios":"levelo://app?vid=354749ad-cf0a-4b15-99c7-3bc6a920b354"},"vehicle_type_id":"4","last_reported":1727622500,"current_range_meters":30400,"station_id":"ce4bhp12rcd13ifvqh9g","pricing_plan_id":"cebpf4jnsgd1na2vs0mg"},{"bike_id":"c51e285c-8141-4023-9ee3-49bcc68cf98c","system_id":"levelo_inurba_marseille","lat":43.25092,"lon":5.39511,"is_reserved":false,"is_disabled":false,"rental_uris":{"android":"levelo://app?vid=c51e285c-8141-4023-9ee3-49bcc68cf98c","ios":"levelo://app?vid=c51e285c-8141-4023-9ee3-49bcc68cf98c"},"vehicle_type_id":"4","last_reported":1727622500,"current_range_meters":38000,"station_id":"ce4bhm12rcd13ifvqgkg","pricing_plan_id":"cebpf4jnsgd1na2vs0mg"},{"bike_id":"d7473f22-fa36-437e-a2ab-762397b1a8bb","system_id":"levelo_inurba_marseille","lat":43.30523,"lon":5.399127,"is_reserved":false,"is_disabled":false,"rental_uris":{"android":"levelo://app?vid=d7473f22-fa36-437e-a2ab-762397b1a8bb","ios":"levelo://app?vid=d7473f22-fa36-437e-a2ab-762397b1a8bb"},"vehicle_type_id":"4","last_reported":1727622500,"current_range_meters":17200,"station_id":"ce4bh092rcd13ifvqd20","pricing_plan_id":"cebpf4jnsgd1na2vs0mg"},{"bike_id":"158f7605-b628-4ea2-88f0-c621e6af604a","system_id":"levelo_inurba_marseille","lat":43.24393,"lon":5.37064,"is_reserved":false,"is_disabled":false,"rental_uris":{"android":"levelo://app?vid=158f7605-b628-4ea2-88f0-c621e6af604a","ios":"levelo://app?vid=158f7605-b628-4ea2-88f0-c621e6af604a"},"vehicle_type_id":"4","last_reported":1727622500,"current_range_meters":16000,"station_id":"ce4bhhh2rcd13ifvqfk0","pricing_plan_id":"cebpf4jnsgd1na2vs0mg"},{"bike_id":"31b96e55-8755-4ad3-9eff-ab1e7c9573a3","system_id":"levelo_inurba_marseille","lat":43.26193,"lon":5.37452,"is_reserved":false,"is_disabled":false,"rental_uris":{"android":"levelo://app?vid=31b96e55-8755-4ad3-9eff-ab1e7c9573a3","ios":"levelo://app?vid=31b96e55-8755-4ad3-9eff-ab1e7c9573a3"},"vehicle_type_id":"4","last_reported":1727622500,"current_range_meters":38800,"station_id":"ce4bhgp2rcd13ifvqfc0","pricing_plan_id":"cebpf4jnsgd1na2vs0mg"},{"bike_id":"9675c07f-6058-45e3-8db1-7c1977a3cb2d","system_id":"levelo_inurba_marseille","lat":43.25854,"lon":5.39904,"is_reserved":false,"is_disabled":false,"rental_uris":{"android":"levelo://app?vid=9675c07f-6058-45e3-8db1-7c1977a3cb2d","ios":"levelo://app?vid=9675c07f-6058-45e3-8db1-7c1977a3cb2d"},"vehicle_type_id":"4","last_reported":1727622500,"current_range_meters":30400,"station_id":"ce4bhl92rcd13ifvqghg","pricing_plan_id":"cebpf4jnsgd1na2vs0mg"},{"bike_id":"219fbb01-22b8-4d9a-9ccf-f05c2d34eb36","system_id":"levelo_inurba_marseille","lat":43.32486,"lon":5.36566,"is_reserved":false,"is_disabled":false,"rental_uris":{"android":"levelo://app?vid=219fbb01-22b8-4d9a-9ccf-f05c2d34eb36","ios":"levelo://app?vid=219fbb01-22b8-4d9a-9ccf-f05c2d34eb36"},"vehicle_type_id":"4","last_reported":1727622500,"current_range_meters":14400,"station_id":"ce4bhs12rcd13ifvqhvg","pricing_plan_id":"cebpf4jnsgd1na2vs0mg"},{"bike_id":"0a9db6a3-6f2a-435c-801c-8333c7a53f0c","system_id":"levelo_inurba_marseille","lat":43.23189,"lon":5.35543,"is_reserved":false,"is_disabled":false,"rental_uris":{"android":"levelo://app?vid=0a9db6a3-6f2a-435c-801c-8333c7a53f0c","ios":"levelo://app?vid=0a9db6a3-6f2a-435c-801c-8333c7a53f0c"},"vehicle_type_id":"4","last_reported":1727622500,"current_range_meters":38800,"station_id":"ce4bhu92rcd13ifvqi70","pricing_plan_id":"cebpf4jnsgd1na2vs0mg"},{"bike_id":"3973ce25-2b60-44d6-8ea4-411280c32ac7","system_id":"levelo_inurba_marseille","lat":43.24169,"lon":5.36392,"is_reserved":false,"is_disabled":false,"rental_uris":{"android":"levelo://app?vid=3973ce25-2b60-44d6-8ea4-411280c32ac7","ios":"levelo://app?vid=3973ce25-2b60-44d6-8ea4-411280c32ac7"},"vehicle_type_id":"4","last_reported":1727622500,"current_range_meters":19200,"station_id":"cpo36qri1sfpv3e86is0","pricing_plan_id":"cebpf4jnsgd1na2vs0mg"},{"bike_id":"cff181f9-8616-4616-aa84-3dbafde351b2","system_id":"levelo_inurba_marseille","lat":43.26498,"lon":5.38365,"is_reserved":false,"is_disabled":false,"rental_uris":{"android":"levelo://app?vid=cff181f9-8616-4616-aa84-3dbafde351b2","ios":"levelo://app?vid=cff181f9-8616-4616-aa84-3dbafde351b2"},"vehicle_type_id":"4","last_reported":1727622500,"current_range_meters":12000,"station_id":"ce4bh512rcd13ifvqe3g","pricing_plan_id":"cebpf4jnsgd1na2vs0mg"},{"bike_id":"80052677-a184-47b6-b7ba-4401badcd8a9","system_id":"levelo_inurba_marseille","lat":43.322693,"lon":5.381364,"is_reserved":false,"is_disabled":false,"rental_uris":{"android":"levelo://app?vid=80052677-a184-47b6-b7ba-4401badcd8a9","ios":"levelo://app?vid=80052677-a184-47b6-b7ba-4401badcd8a9"},"vehicle_type_id":"4","last_reported":1727622500,"current_range_meters":27600,"station_id":"ce4bhr12rcd13ifvqhqg","pricing_plan_id":"cebpf4jnsgd1na2vs0mg"},{"bike_id":"e87625f9-f61d-4958-b44d-f9cd9a9964fb","system_id":"levelo_inurba_marseille","lat":43.30426,"lon":5.38885,"is_reserved":false,"is_disabled":false,"rental_uris":{"android":"levelo://app?vid=e87625f9-f61d-4958-b44d-f9cd9a9964fb","ios":"levelo://app?vid=e87625f9-f61d-4958-b44d-f9cd9a9964fb"},"vehicle_type_id":"4","last_reported":1727622500,"current_range_meters":38000,"station_id":"ce4bgk12rcd13ifvqbi0","pricing_plan_id":"cebpf4jnsgd1na2vs0mg"},{"bike_id":"ae6e5052-6a03-4966-93ee-31c054886e72","system_id":"levelo_inurba_marseille","lat":43.22935,"lon":5.35378,"is_reserved":false,"is_disabled":false,"rental_uris":{"android":"levelo://app?vid=ae6e5052-6a03-4966-93ee-31c054886e72","ios":"levelo://app?vid=ae6e5052-6a03-4966-93ee-31c054886e72"},"vehicle_type_id":"4","last_reported":1727622500,"current_range_meters":24800,"station_id":"cpo3532slgdg3j2ikp40","pricing_plan_id":"cebpf4jnsgd1na2vs0mg"},{"bike_id":"4924c3aa-3387-4334-99fa-31873332e6a8","system_id":"levelo_inurba_marseille","lat":43.28454,"lon":5.39196,"is_reserved":false,"is_disabled":false,"rental_uris":{"android":"levelo://app?vid=4924c3aa-3387-4334-99fa-31873332e6a8","ios":"levelo://app?vid=4924c3aa-3387-4334-99fa-31873332e6a8"},"vehicle_type_id":"4","last_reported":1727622500,"current_range_meters":20000,"station_id":"ce4bhoh2rcd13ifvqh5g","pricing_plan_id":"cebpf4jnsgd1na2vs0mg"},{"bike_id":"71bb5317-d39c-4d91-b8dd-eab0c25d179b","system_id":"levelo_inurba_marseille","lat":43.31081,"lon":5.4243,"is_reserved":false,"is_disabled":false,"rental_uris":{"android":"levelo://app?vid=71bb5317-d39c-4d91-b8dd-eab0c25d179b","ios":"levelo://app?vid=71bb5317-d39c-4d91-b8dd-eab0c25d179b"},"vehicle_type_id":"4","last_reported":1727622500,"current_range_meters":18000,"station_id":"ce4bhp92rcd13ifvqhag","pricing_plan_id":"cebpf4jnsgd1na2vs0mg"},{"bike_id":"a974d009-942e-477b-b4db-19f84bd48313","system_id":"levelo_inurba_marseille","lat":43.32368,"lon":5.38878,"is_reserved":false,"is_disabled":false,"rental_uris":{"android":"levelo://app?vid=a974d009-942e-477b-b4db-19f84bd48313","ios":"levelo://app?vid=a974d009-942e-477b-b4db-19f84bd48313"},"vehicle_type_id":"4","last_reported":1727622500,"current_range_meters":38800,"station_id":"ce4bhqp2rcd13ifvqhog","pricing_plan_id":"cebpf4jnsgd1na2vs0mg"},{"bike_id":"6a66b30d-b7e8-4317-88c5-fb9f52bf2878","system_id":"levelo_inurba_marseille","lat":43.2396,"lon":5.36617,"is_reserved":false,"is_disabled":false,"rental_uris":{"android":"levelo://app?vid=6a66b30d-b7e8-4317-88c5-fb9f52bf2878","ios":"levelo://app?vid=6a66b30d-b7e8-4317-88c5-fb9f52bf2878"},"vehicle_type_id":"4","last_reported":1727622500,"current_range_meters":37600,"station_id":"ce4bhi12rcd13ifvqfp0","pricing_plan_id":"cebpf4jnsgd1na2vs0mg"},{"bike_id":"730f326b-b59e-4306-899b-00ea7b79b452","system_id":"levelo_inurba_marseille","lat":43.30608,"lon":5.37234,"is_reserved":false,"is_disabled":false,"rental_uris":{"android":"levelo://app?vid=730f326b-b59e-4306-899b-00ea7b79b452","ios":"levelo://app?vid=730f326b-b59e-4306-899b-00ea7b79b452"},"vehicle_type_id":"4","last_reported":1727622500,"current_range_meters":22000,"station_id":"ce4bgqh2rcd13ifvqc4g","pricing_plan_id":"cebpf4jnsgd1na2vs0mg"},{"bike_id":"3ae16357-9b43-46d1-bbc8-483fcc70804b","system_id":"levelo_inurba_marseille","lat":43.25721,"lon":5.41111,"is_reserved":false,"is_disabled":false,"rental_uris":{"android":"levelo://app?vid=3ae16357-9b43-46d1-bbc8-483fcc70804b","ios":"levelo://app?vid=3ae16357-9b43-46d1-bbc8-483fcc70804b"},"vehicle_type_id":"4","last_reported":1727622500,"current_range_meters":28400,"station_id":"ce4bhkp2rcd13ifvqgd0","pricing_plan_id":"cebpf4jnsgd1na2vs0mg"},{"bike_id":"0f2100e4-743f-4a2d-b0dc-1c032bb9e483","system_id":"levelo_inurba_marseille","lat":43.31084,"lon":5.42431,"is_reserved":false,"is_disabled":false,"rental_uris":{"android":"levelo://app?vid=0f2100e4-743f-4a2d-b0dc-1c032bb9e483","ios":"levelo://app?vid=0f2100e4-743f-4a2d-b0dc-1c032bb9e483"},"vehicle_type_id":"4","last_reported":1727622500,"current_range_meters":34800,"station_id":"ce4bhp92rcd13ifvqhag","pricing_plan_id":"cebpf4jnsgd1na2vs0mg"},{"bike_id":"199f764e-7942-4511-a407-33ff4a7dc457","system_id":"levelo_inurba_marseille","lat":43.26025,"lon":5.3755,"is_reserved":false,"is_disabled":false,"rental_uris":{"android":"levelo://app?vid=199f764e-7942-4511-a407-33ff4a7dc457","ios":"levelo://app?vid=199f764e-7942-4511-a407-33ff4a7dc457"},"vehicle_type_id":"4","last_reported":1727622500,"current_range_meters":36800,"station_id":"ce4bhgh2rcd13ifvqfa0","pricing_plan_id":"cebpf4jnsgd1na2vs0mg"},{"bike_id":"0701cf2a-674c-4c9d-af1e-6650acbaaf74","system_id":"levelo_inurba_marseille","lat":43.28375,"lon":5.37295,"is_reserved":false,"is_disabled":false,"rental_uris":{"android":"levelo://app?vid=0701cf2a-674c-4c9d-af1e-6650acbaaf74","ios":"levelo://app?vid=0701cf2a-674c-4c9d-af1e-6650acbaaf74"},"vehicle_type_id":"4","last_reported":1727622500,"current_range_meters":9600,"station_id":"","pricing_plan_id":"cebpf4jnsgd1na2vs0mg"},{"bike_id":"a48460e4-d4da-4877-ad08-62dca9d34780","system_id":"levelo_inurba_marseille","lat":43.24165,"lon":5.36395,"is_reserved":false,"is_disabled":false,"rental_uris":{"android":"levelo://app?vid=a48460e4-d4da-4877-ad08-62dca9d34780","ios":"levelo://app?vid=a48460e4-d4da-4877-ad08-62dca9d34780"},"vehicle_type_id":"4","last_reported":1727622500,"current_range_meters":33200,"station_id":"cpo36qri1sfpv3e86is0","pricing_plan_id":"cebpf4jnsgd1na2vs0mg"},{"bike_id":"b6a60dc9-e10c-4afa-9981-cb97e46eccaf","system_id":"levelo_inurba_marseille","lat":43.26208,"lon":5.37442,"is_reserved":false,"is_disabled":false,"rental_uris":{"android":"levelo://app?vid=b6a60dc9-e10c-4afa-9981-cb97e46eccaf","ios":"levelo://app?vid=b6a60dc9-e10c-4afa-9981-cb97e46eccaf"},"vehicle_type_id":"4","last_reported":1727622500,"current_range_meters":24800,"station_id":"ce4bhgp2rcd13ifvqfc0","pricing_plan_id":"cebpf4jnsgd1na2vs0mg"},{"bike_id":"7199a17f-8505-4d54-b9b6-2ec943c49cf2","system_id":"levelo_inurba_marseille","lat":43.33038,"lon":5.39381,"is_reserved":false,"is_disabled":false,"rental_uris":{"android":"levelo://app?vid=7199a17f-8505-4d54-b9b6-2ec943c49cf2","ios":"levelo://app?vid=7199a17f-8505-4d54-b9b6-2ec943c49cf2"},"vehicle_type_id":"4","last_reported":1727622500,"current_range_meters":38800,"station_id":"","pricing_plan_id":"cebpf4jnsgd1na2vs0mg"},{"bike_id":"8528c2ef-4cc5-43a9-a4a8-8121ecda7ea8","system_id":"levelo_inurba_marseille","lat":43.31997,"lon":5.38161,"is_reserved":false,"is_disabled":false,"rental_uris":{"android":"levelo://app?vid=8528c2ef-4cc5-43a9-a4a8-8121ecda7ea8","ios":"levelo://app?vid=8528c2ef-4cc5-43a9-a4a8-8121ecda7ea8"},"vehicle_type_id":"4","last_reported":1727622500,"current_range_meters":25600,"station_id":"ce4bhr12rcd13ifvqhpg","pricing_plan_id":"cebpf4jnsgd1na2vs0mg"},{"bike_id":"6cdca13d-24d1-4302-912a-54d18c748242","system_id":"levelo_inurba_marseille","lat":43.31083,"lon":5.40132,"is_reserved":false,"is_disabled":false,"rental_uris":{"android":"levelo://app?vid=6cdca13d-24d1-4302-912a-54d18c748242","ios":"levelo://app?vid=6cdca13d-24d1-4302-912a-54d18c748242"},"vehicle_type_id":"4","last_reported":1727622500,"current_range_meters":4400,"station_id":"","pricing_plan_id":"cebpf4jnsgd1na2vs0mg"},{"bike_id":"18e8077d-8757-4112-89fa-b4391d9ed99a","system_id":"levelo_inurba_marseille","lat":43.2621,"lon":5.37443,"is_reserved":false,"is_disabled":false,"rental_uris":{"android":"levelo://app?vid=18e8077d-8757-4112-89fa-b4391d9ed99a","ios":"levelo://app?vid=18e8077d-8757-4112-89fa-b4391d9ed99a"},"vehicle_type_id":"4","last_reported":1727622500,"current_range_meters":38800,"station_id":"ce4bhgp2rcd13ifvqfc0","pricing_plan_id":"cebpf4jnsgd1na2vs0mg"},{"bike_id":"fb6d1154-db84-437c-ad36-54177fee9711","system_id":"levelo_inurba_marseille","lat":43.27371,"lon":5.36251,"is_reserved":false,"is_disabled":false,"rental_uris":{"android":"levelo://app?vid=fb6d1154-db84-437c-ad36-54177fee9711","ios":"levelo://app?vid=fb6d1154-db84-437c-ad36-54177fee9711"},"vehicle_type_id":"4","last_reported":1727622500,"current_range_meters":38800,"station_id":"ce4bhbh2rcd13ifvqeo0","pricing_plan_id":"cebpf4jnsgd1na2vs0mg"},{"bike_id":"0c890278-8ed4-41a3-87ca-91a2921b39cb","system_id":"levelo_inurba_marseille","lat":43.28001,"lon":5.40013,"is_reserved":false,"is_disabled":false,"rental_uris":{"android":"levelo://app?vid=0c890278-8ed4-41a3-87ca-91a2921b39cb","ios":"levelo://app?vid=0c890278-8ed4-41a3-87ca-91a2921b39cb"},"vehicle_type_id":"4","last_reported":1727622500,"current_range_meters":38800,"station_id":"ce4bho92rcd13ifvqh4g","pricing_plan_id":"cebpf4jnsgd1na2vs0mg"},{"bike_id":"2739f21a-7d48-4a2c-8180-69d444e34103","system_id":"levelo_inurba_marseille","lat":43.26686,"lon":5.38273,"is_reserved":false,"is_disabled":false,"rental_uris":{"android":"levelo://app?vid=2739f21a-7d48-4a2c-8180-69d444e34103","ios":"levelo://app?vid=2739f21a-7d48-4a2c-8180-69d444e34103"},"vehicle_type_id":"4","last_reported":1727622500,"current_range_meters":32000,"station_id":"ce4bhg92rcd13ifvqf90","pricing_plan_id":"cebpf4jnsgd1na2vs0mg"},{"bike_id":"5220e7ba-5183-450c-986e-1a09b217d618","system_id":"levelo_inurba_marseille","lat":43.28272,"lon":5.35075,"is_reserved":false,"is_disabled":false,"rental_uris":{"android":"levelo://app?vid=5220e7ba-5183-450c-986e-1a09b217d618","ios":"levelo://app?vid=5220e7ba-5183-450c-986e-1a09b217d618"},"vehicle_type_id":"4","last_reported":1727622500,"current_range_meters":37600,"station_id":"ce4bhbp2rcd13ifvqerg","pricing_plan_id":"cebpf4jnsgd1na2vs0mg"},{"bike_id":"f79c0a7d-162f-4026-8f6b-a2d9b11e8c62","system_id":"levelo_inurba_marseille","lat":43.30184,"lon":5.366185,"is_reserved":false,"is_disabled":false,"rental_uris":{"android":"levelo://app?vid=f79c0a7d-162f-4026-8f6b-a2d9b11e8c62","ios":"levelo://app?vid=f79c0a7d-162f-4026-8f6b-a2d9b11e8c62"},"vehicle_type_id":"4","last_reported":1727622500,"current_range_meters":22800,"station_id":"ce4bgrh2rcd13ifvqc8g","pricing_plan_id":"cebpf4jnsgd1na2vs0mg"},{"bike_id":"7dad3a58-67e8-4e41-a4ff-66ade5c62965","system_id":"levelo_inurba_marseille","lat":43.25582,"lon":5.38231,"is_reserved":false,"is_disabled":false,"rental_uris":{"android":"levelo://app?vid=7dad3a58-67e8-4e41-a4ff-66ade5c62965","ios":"levelo://app?vid=7dad3a58-67e8-4e41-a4ff-66ade5c62965"},"vehicle_type_id":"4","last_reported":1727622500,"current_range_meters":25200,"station_id":"ce4bhih2rcd13ifvqfs0","pricing_plan_id":"cebpf4jnsgd1na2vs0mg"},{"bike_id":"71e7bb1b-b3bd-482d-a4c6-2aab7d7b2db1","system_id":"levelo_inurba_marseille","lat":43.31364,"lon":5.38501,"is_reserved":false,"is_disabled":false,"rental_uris":{"android":"levelo://app?vid=71e7bb1b-b3bd-482d-a4c6-2aab7d7b2db1","ios":"levelo://app?vid=71e7bb1b-b3bd-482d-a4c6-2aab7d7b2db1"},"vehicle_type_id":"4","last_reported":1727622500,"current_range_meters":8400,"station_id":"ce4bgt92rcd13ifvqcf0","pricing_plan_id":"cebpf4jnsgd1na2vs0mg"},{"bike_id":"b418d1ac-8a84-4c27-88a4-c7bf23f9d2d4","system_id":"levelo_inurba_marseille","lat":43.27365,"lon":5.3625,"is_reserved":false,"is_disabled":false,"rental_uris":{"android":"levelo://app?vid=b418d1ac-8a84-4c27-88a4-c7bf23f9d2d4","ios":"levelo://app?vid=b418d1ac-8a84-4c27-88a4-c7bf23f9d2d4"},"vehicle_type_id":"4","last_reported":1727622500,"current_range_meters":38800,"station_id":"ce4bhbh2rcd13ifvqeo0","pricing_plan_id":"cebpf4jnsgd1na2vs0mg"},{"bike_id":"41ca4c63-8def-4c31-9103-fc1045ebe4a5","system_id":"levelo_inurba_marseille","lat":43.23195,"lon":5.3555,"is_reserved":false,"is_disabled":false,"rental_uris":{"android":"levelo://app?vid=41ca4c63-8def-4c31-9103-fc1045ebe4a5","ios":"levelo://app?vid=41ca4c63-8def-4c31-9103-fc1045ebe4a5"},"vehicle_type_id":"4","last_reported":1727622500,"current_range_meters":24800,"station_id":"ce4bhu92rcd13ifvqi70","pricing_plan_id":"cebpf4jnsgd1na2vs0mg"},{"bike_id":"d41a68ab-b917-4d0f-b33c-753afa912b96","system_id":"levelo_inurba_marseille","lat":43.24166,"lon":5.36391,"is_reserved":false,"is_disabled":false,"rental_uris":{"android":"levelo://app?vid=d41a68ab-b917-4d0f-b33c-753afa912b96","ios":"levelo://app?vid=d41a68ab-b917-4d0f-b33c-753afa912b96"},"vehicle_type_id":"4","last_reported":1727622500,"current_range_meters":27200,"station_id":"cpo36qri1sfpv3e86is0","pricing_plan_id":"cebpf4jnsgd1na2vs0mg"},{"bike_id":"16aef7bc-6e34-4da1-be38-669be00420e2","system_id":"levelo_inurba_marseille","lat":43.29894,"lon":5.43678,"is_reserved":false,"is_disabled":false,"rental_uris":{"android":"levelo://app?vid=16aef7bc-6e34-4da1-be38-669be00420e2","ios":"levelo://app?vid=16aef7bc-6e34-4da1-be38-669be00420e2"},"vehicle_type_id":"4","last_reported":1727622500,"current_range_meters":28000,"station_id":"ce4bhpp2rcd13ifvqhfg","pricing_plan_id":"cebpf4jnsgd1na2vs0mg"},{"bike_id":"ef694971-4a4a-48ad-945b-01d56b9ea946","system_id":"levelo_inurba_marseille","lat":43.26554,"lon":5.37283,"is_reserved":false,"is_disabled":false,"rental_uris":{"android":"levelo://app?vid=ef694971-4a4a-48ad-945b-01d56b9ea946","ios":"levelo://app?vid=ef694971-4a4a-48ad-945b-01d56b9ea946"},"vehicle_type_id":"4","last_reported":1727622500,"current_range_meters":22400,"station_id":"ce4bhg12rcd13ifvqf70","pricing_plan_id":"cebpf4jnsgd1na2vs0mg"},{"bike_id":"d506f765-7389-4724-a7e4-a15c05a4de75","system_id":"levelo_inurba_marseille","lat":43.23189,"lon":5.35549,"is_reserved":false,"is_disabled":false,"rental_uris":{"android":"levelo://app?vid=d506f765-7389-4724-a7e4-a15c05a4de75","ios":"levelo://app?vid=d506f765-7389-4724-a7e4-a15c05a4de75"},"vehicle_type_id":"4","last_reported":1727622500,"current_range_meters":21600,"station_id":"ce4bhu92rcd13ifvqi70","pricing_plan_id":"cebpf4jnsgd1na2vs0mg"},{"bike_id":"2415ac61-18bb-421b-bf60-c4dfe2bb8154","system_id":"levelo_inurba_marseille","lat":43.323603,"lon":5.389351,"is_reserved":false,"is_disabled":false,"rental_uris":{"android":"levelo://app?vid=2415ac61-18bb-421b-bf60-c4dfe2bb8154","ios":"levelo://app?vid=2415ac61-18bb-421b-bf60-c4dfe2bb8154"},"vehicle_type_id":"4","last_reported":1727622500,"current_range_meters":38800,"station_id":"ce4bhqp2rcd13ifvqhog","pricing_plan_id":"cebpf4jnsgd1na2vs0mg"},{"bike_id":"275b0a25-1a9f-498c-9202-be550b06c3de","system_id":"levelo_inurba_marseille","lat":43.32292,"lon":5.38281,"is_reserved":false,"is_disabled":false,"rental_uris":{"android":"levelo://app?vid=275b0a25-1a9f-498c-9202-be550b06c3de","ios":"levelo://app?vid=275b0a25-1a9f-498c-9202-be550b06c3de"},"vehicle_type_id":"4","last_reported":1727622500,"current_range_meters":39200,"station_id":"ce4bhr12rcd13ifvqhqg","pricing_plan_id":"cebpf4jnsgd1na2vs0mg"},{"bike_id":"c8a8ac6f-9d17-499b-b5d8-e4e59af58a00","system_id":"levelo_inurba_marseille","lat":43.23967,"lon":5.36627,"is_reserved":false,"is_disabled":false,"rental_uris":{"android":"levelo://app?vid=c8a8ac6f-9d17-499b-b5d8-e4e59af58a00","ios":"levelo://app?vid=c8a8ac6f-9d17-499b-b5d8-e4e59af58a00"},"vehicle_type_id":"4","last_reported":1727622500,"current_range_meters":4400,"station_id":"ce4bhi12rcd13ifvqfp0","pricing_plan_id":"cebpf4jnsgd1na2vs0mg"},{"bike_id":"90bd98a8-64e4-485e-ae20-a830b64e6d1f","system_id":"levelo_inurba_marseille","lat":43.26209,"lon":5.37444,"is_reserved":false,"is_disabled":false,"rental_uris":{"android":"levelo://app?vid=90bd98a8-64e4-485e-ae20-a830b64e6d1f","ios":"levelo://app?vid=90bd98a8-64e4-485e-ae20-a830b64e6d1f"},"vehicle_type_id":"4","last_reported":1727622500,"current_range_meters":28000,"station_id":"ce4bhgp2rcd13ifvqfc0","pricing_plan_id":"cebpf4jnsgd1na2vs0mg"},{"bike_id":"0c3f0369-7cdf-4cba-a0db-09435ab8c8da","system_id":"levelo_inurba_marseille","lat":43.23188,"lon":5.39991,"is_reserved":false,"is_disabled":false,"rental_uris":{"android":"levelo://app?vid=0c3f0369-7cdf-4cba-a0db-09435ab8c8da","ios":"levelo://app?vid=0c3f0369-7cdf-4cba-a0db-09435ab8c8da"},"vehicle_type_id":"4","last_reported":1727622500,"current_range_meters":25600,"station_id":"ce4bhn12rcd13ifvqgqg","pricing_plan_id":"cebpf4jnsgd1na2vs0mg"},{"bike_id":"2e2f48ed-3800-4fe7-b577-6414d2f1ada1","system_id":"levelo_inurba_marseille","lat":43.29272,"lon":5.4012,"is_reserved":false,"is_disabled":false,"rental_uris":{"android":"levelo://app?vid=2e2f48ed-3800-4fe7-b577-6414d2f1ada1","ios":"levelo://app?vid=2e2f48ed-3800-4fe7-b577-6414d2f1ada1"},"vehicle_type_id":"4","last_reported":1727622500,"current_range_meters":37600,"station_id":"ce4bh312rcd13ifvqdk0","pricing_plan_id":"cebpf4jnsgd1na2vs0mg"},{"bike_id":"fdf16a2c-f8ba-4504-a2eb-c6089abe7ff8","system_id":"levelo_inurba_marseille","lat":43.25499,"lon":5.37647,"is_reserved":false,"is_disabled":false,"rental_uris":{"android":"levelo://app?vid=fdf16a2c-f8ba-4504-a2eb-c6089abe7ff8","ios":"levelo://app?vid=fdf16a2c-f8ba-4504-a2eb-c6089abe7ff8"},"vehicle_type_id":"4","last_reported":1727622500,"current_range_meters":38800,"station_id":"ce4bhh12rcd13ifvqff0","pricing_plan_id":"cebpf4jnsgd1na2vs0mg"},{"bike_id":"f9544fb1-c02e-4ef0-828d-b520c9bc1616","system_id":"levelo_inurba_marseille","lat":43.2439,"lon":5.37064,"is_reserved":false,"is_disabled":false,"rental_uris":{"android":"levelo://app?vid=f9544fb1-c02e-4ef0-828d-b520c9bc1616","ios":"levelo://app?vid=f9544fb1-c02e-4ef0-828d-b520c9bc1616"},"vehicle_type_id":"4","last_reported":1727622500,"current_range_meters":8000,"station_id":"ce4bhhh2rcd13ifvqfk0","pricing_plan_id":"cebpf4jnsgd1na2vs0mg"},{"bike_id":"3fb0e359-7a1b-43d8-a1de-40143e01bde5","system_id":"levelo_inurba_marseille","lat":43.25719,"lon":5.41112,"is_reserved":false,"is_disabled":false,"rental_uris":{"android":"levelo://app?vid=3fb0e359-7a1b-43d8-a1de-40143e01bde5","ios":"levelo://app?vid=3fb0e359-7a1b-43d8-a1de-40143e01bde5"},"vehicle_type_id":"4","last_reported":1727622500,"current_range_meters":34800,"station_id":"ce4bhkp2rcd13ifvqgd0","pricing_plan_id":"cebpf4jnsgd1na2vs0mg"},{"bike_id":"83a13b63-dfac-4e20-8d88-4cae179033ca","system_id":"levelo_inurba_marseille","lat":43.27496,"lon":5.42447,"is_reserved":false,"is_disabled":false,"rental_uris":{"android":"levelo://app?vid=83a13b63-dfac-4e20-8d88-4cae179033ca","ios":"levelo://app?vid=83a13b63-dfac-4e20-8d88-4cae179033ca"},"vehicle_type_id":"4","last_reported":1727622500,"current_range_meters":8400,"station_id":"ce4bhn92rcd13ifvqgrg","pricing_plan_id":"cebpf4jnsgd1na2vs0mg"},{"bike_id":"31552421-58c2-42f5-aeeb-efc97a1f3415","system_id":"levelo_inurba_marseille","lat":43.28421,"lon":5.34997,"is_reserved":false,"is_disabled":false,"rental_uris":{"android":"levelo://app?vid=31552421-58c2-42f5-aeeb-efc97a1f3415","ios":"levelo://app?vid=31552421-58c2-42f5-aeeb-efc97a1f3415"},"vehicle_type_id":"4","last_reported":1727622500,"current_range_meters":38000,"station_id":"ce4bhbh2rcd13ifvqepg","pricing_plan_id":"cebpf4jnsgd1na2vs0mg"},{"bike_id":"e4361fa2-90d9-45ff-9d8a-e7b112f4e011","system_id":"levelo_inurba_marseille","lat":43.28516,"lon":5.39142,"is_reserved":false,"is_disabled":false,"rental_uris":{"android":"levelo://app?vid=e4361fa2-90d9-45ff-9d8a-e7b112f4e011","ios":"levelo://app?vid=e4361fa2-90d9-45ff-9d8a-e7b112f4e011"},"vehicle_type_id":"4","last_reported":1727622500,"current_range_meters":27600,"station_id":"ce4bh3p2rcd13ifvqdp0","pricing_plan_id":"cebpf4jnsgd1na2vs0mg"},{"bike_id":"844b3556-488f-48fe-8c37-ae10a6155d22","system_id":"levelo_inurba_marseille","lat":43.273749,"lon":5.362626,"is_reserved":false,"is_disabled":false,"rental_uris":{"android":"levelo://app?vid=844b3556-488f-48fe-8c37-ae10a6155d22","ios":"levelo://app?vid=844b3556-488f-48fe-8c37-ae10a6155d22"},"vehicle_type_id":"4","last_reported":1727622500,"current_range_meters":38800,"station_id":"ce4bhbh2rcd13ifvqeo0","pricing_plan_id":"cebpf4jnsgd1na2vs0mg"},{"bike_id":"5bea93dd-19b5-4887-ac06-989ee51a61f3","system_id":"levelo_inurba_marseille","lat":43.2871,"lon":5.37387,"is_reserved":false,"is_disabled":false,"rental_uris":{"android":"levelo://app?vid=5bea93dd-19b5-4887-ac06-989ee51a61f3","ios":"levelo://app?vid=5bea93dd-19b5-4887-ac06-989ee51a61f3"},"vehicle_type_id":"4","last_reported":1727622500,"current_range_meters":39200,"station_id":"ce4bh3p2rcd13ifvqdq0","pricing_plan_id":"cebpf4jnsgd1na2vs0mg"},{"bike_id":"6eff8d2d-61fa-4715-9388-b30a052d3e98","system_id":"levelo_inurba_marseille","lat":43.337444,"lon":5.374475,"is_reserved":false,"is_disabled":false,"rental_uris":{"android":"levelo://app?vid=6eff8d2d-61fa-4715-9388-b30a052d3e98","ios":"levelo://app?vid=6eff8d2d-61fa-4715-9388-b30a052d3e98"},"vehicle_type_id":"4","last_reported":1727622500,"current_range_meters":27600,"station_id":"","pricing_plan_id":"cebpf4jnsgd1na2vs0mg"},{"bike_id":"fe1536c8-4c0e-465d-8e26-5e87756dd823","system_id":"levelo_inurba_marseille","lat":43.22927,"lon":5.35377,"is_reserved":false,"is_disabled":false,"rental_uris":{"android":"levelo://app?vid=fe1536c8-4c0e-465d-8e26-5e87756dd823","ios":"levelo://app?vid=fe1536c8-4c0e-465d-8e26-5e87756dd823"},"vehicle_type_id":"4","last_reported":1727622500,"current_range_meters":24400,"station_id":"cpo3532slgdg3j2ikp40","pricing_plan_id":"cebpf4jnsgd1na2vs0mg"},{"bike_id":"49103c36-092f-43a6-a665-96ac4218adb8","system_id":"levelo_inurba_marseille","lat":43.32288,"lon":5.38267,"is_reserved":false,"is_disabled":false,"rental_uris":{"android":"levelo://app?vid=49103c36-092f-43a6-a665-96ac4218adb8","ios":"levelo://app?vid=49103c36-092f-43a6-a665-96ac4218adb8"},"vehicle_type_id":"4","last_reported":1727622500,"current_range_meters":38800,"station_id":"ce4bhr12rcd13ifvqhqg","pricing_plan_id":"cebpf4jnsgd1na2vs0mg"},{"bike_id":"851ac8c4-a07b-4048-9efe-9278fde6dce8","system_id":"levelo_inurba_marseille","lat":43.29571,"lon":5.37529,"is_reserved":false,"is_disabled":false,"rental_uris":{"android":"levelo://app?vid=851ac8c4-a07b-4048-9efe-9278fde6dce8","ios":"levelo://app?vid=851ac8c4-a07b-4048-9efe-9278fde6dce8"},"vehicle_type_id":"4","last_reported":1727622500,"current_range_meters":6000,"station_id":"ce4bgh92rcd13ifvqb50","pricing_plan_id":"cebpf4jnsgd1na2vs0mg"},{"bike_id":"6f0f9c32-de70-4574-9b89-cca29ab0554e","system_id":"levelo_inurba_marseille","lat":43.337444,"lon":5.374475,"is_reserved":false,"is_disabled":false,"rental_uris":{"android":"levelo://app?vid=6f0f9c32-de70-4574-9b89-cca29ab0554e","ios":"levelo://app?vid=6f0f9c32-de70-4574-9b89-cca29ab0554e"},"vehicle_type_id":"4","last_reported":1727622500,"current_range_meters":25600,"station_id":"","pricing_plan_id":"cebpf4jnsgd1na2vs0mg"},{"bike_id":"5b8fb5c7-4cf0-4a67-bc9e-11b7c1153c2f","system_id":"levelo_inurba_marseille","lat":43.31525,"lon":5.38039,"is_reserved":false,"is_disabled":false,"rental_uris":{"android":"levelo://app?vid=5b8fb5c7-4cf0-4a67-bc9e-11b7c1153c2f","ios":"levelo://app?vid=5b8fb5c7-4cf0-4a67-bc9e-11b7c1153c2f"},"vehicle_type_id":"4","last_reported":1727622500,"current_range_meters":32800,"station_id":"ce4bhsp2rcd13ifvqi50","pricing_plan_id":"cebpf4jnsgd1na2vs0mg"},{"bike_id":"44839918-e841-4578-a34d-4d8014b09bc8","system_id":"levelo_inurba_marseille","lat":43.31227,"lon":5.3686,"is_reserved":false,"is_disabled":false,"rental_uris":{"android":"levelo://app?vid=44839918-e841-4578-a34d-4d8014b09bc8","ios":"levelo://app?vid=44839918-e841-4578-a34d-4d8014b09bc8"},"vehicle_type_id":"4","last_reported":1727622500,"current_range_meters":36800,"station_id":"ce4bgl92rcd13ifvqbq0","pricing_plan_id":"cebpf4jnsgd1na2vs0mg"},{"bike_id":"b9897cf6-b27e-4987-8a36-ce737823aa7b","system_id":"levelo_inurba_marseille","lat":43.32314,"lon":5.38287,"is_reserved":false,"is_disabled":false,"rental_uris":{"android":"levelo://app?vid=b9897cf6-b27e-4987-8a36-ce737823aa7b","ios":"levelo://app?vid=b9897cf6-b27e-4987-8a36-ce737823aa7b"},"vehicle_type_id":"4","last_reported":1727622500,"current_range_meters":38400,"station_id":"ce4bhr12rcd13ifvqhqg","pricing_plan_id":"cebpf4jnsgd1na2vs0mg"},{"bike_id":"0687a646-be72-47a3-8907-22e0afb02a46","system_id":"levelo_inurba_marseille","lat":43.239588,"lon":5.366293,"is_reserved":false,"is_disabled":false,"rental_uris":{"android":"levelo://app?vid=0687a646-be72-47a3-8907-22e0afb02a46","ios":"levelo://app?vid=0687a646-be72-47a3-8907-22e0afb02a46"},"vehicle_type_id":"4","last_reported":1727622500,"current_range_meters":29600,"station_id":"ce4bhi12rcd13ifvqfp0","pricing_plan_id":"cebpf4jnsgd1na2vs0mg"},{"bike_id":"b6447ecc-99f1-4162-b827-bd67ee6b9636","system_id":"levelo_inurba_marseille","lat":43.23062,"lon":5.35487,"is_reserved":false,"is_disabled":false,"rental_uris":{"android":"levelo://app?vid=b6447ecc-99f1-4162-b827-bd67ee6b9636","ios":"levelo://app?vid=b6447ecc-99f1-4162-b827-bd67ee6b9636"},"vehicle_type_id":"4","last_reported":1727622500,"current_range_meters":24000,"station_id":"cpo3342slgdg3j2ifvpg","pricing_plan_id":"cebpf4jnsgd1na2vs0mg"},{"bike_id":"bc62f930-b5c7-4f73-9e7e-6e947951ae5d","system_id":"levelo_inurba_marseille","lat":43.25586,"lon":5.38236,"is_reserved":false,"is_disabled":false,"rental_uris":{"android":"levelo://app?vid=bc62f930-b5c7-4f73-9e7e-6e947951ae5d","ios":"levelo://app?vid=bc62f930-b5c7-4f73-9e7e-6e947951ae5d"},"vehicle_type_id":"4","last_reported":1727622500,"current_range_meters":29600,"station_id":"ce4bhih2rcd13ifvqfs0","pricing_plan_id":"cebpf4jnsgd1na2vs0mg"},{"bike_id":"d5a1b281-d9f3-4e8d-bdc8-181e1ee5f46d","system_id":"levelo_inurba_marseille","lat":43.23187,"lon":5.35541,"is_reserved":false,"is_disabled":false,"rental_uris":{"android":"levelo://app?vid=d5a1b281-d9f3-4e8d-bdc8-181e1ee5f46d","ios":"levelo://app?vid=d5a1b281-d9f3-4e8d-bdc8-181e1ee5f46d"},"vehicle_type_id":"4","last_reported":1727622500,"current_range_meters":38800,"station_id":"ce4bhu92rcd13ifvqi70","pricing_plan_id":"cebpf4jnsgd1na2vs0mg"},{"bike_id":"90c05d40-f5db-4a12-95b3-f8d41ae2e51b","system_id":"levelo_inurba_marseille","lat":43.32377,"lon":5.3892,"is_reserved":false,"is_disabled":false,"rental_uris":{"android":"levelo://app?vid=90c05d40-f5db-4a12-95b3-f8d41ae2e51b","ios":"levelo://app?vid=90c05d40-f5db-4a12-95b3-f8d41ae2e51b"},"vehicle_type_id":"4","last_reported":1727622500,"current_range_meters":29600,"station_id":"ce4bhqp2rcd13ifvqhog","pricing_plan_id":"cebpf4jnsgd1na2vs0mg"},{"bike_id":"4f028f3d-bdd9-4272-87b9-0a0a117f92ec","system_id":"levelo_inurba_marseille","lat":43.2439,"lon":5.37053,"is_reserved":false,"is_disabled":false,"rental_uris":{"android":"levelo://app?vid=4f028f3d-bdd9-4272-87b9-0a0a117f92ec","ios":"levelo://app?vid=4f028f3d-bdd9-4272-87b9-0a0a117f92ec"},"vehicle_type_id":"4","last_reported":1727622500,"current_range_meters":20000,"station_id":"ce4bhhh2rcd13ifvqfk0","pricing_plan_id":"cebpf4jnsgd1na2vs0mg"},{"bike_id":"94d1300a-e5c0-4f67-968c-609ee3a39627","system_id":"levelo_inurba_marseille","lat":43.30151,"lon":5.38097,"is_reserved":false,"is_disabled":false,"rental_uris":{"android":"levelo://app?vid=94d1300a-e5c0-4f67-968c-609ee3a39627","ios":"levelo://app?vid=94d1300a-e5c0-4f67-968c-609ee3a39627"},"vehicle_type_id":"4","last_reported":1727622500,"current_range_meters":23200,"station_id":"ce4bgjp2rcd13ifvqbh0","pricing_plan_id":"cebpf4jnsgd1na2vs0mg"},{"bike_id":"cd69dc5b-7b7e-491f-bf7e-2272602dee72","system_id":"levelo_inurba_marseille","lat":43.30302,"lon":5.39211,"is_reserved":false,"is_disabled":false,"rental_uris":{"android":"levelo://app?vid=cd69dc5b-7b7e-491f-bf7e-2272602dee72","ios":"levelo://app?vid=cd69dc5b-7b7e-491f-bf7e-2272602dee72"},"vehicle_type_id":"4","last_reported":1727622500,"current_range_meters":14000,"station_id":"ce4bgkh2rcd13ifvqbk0","pricing_plan_id":"cebpf4jnsgd1na2vs0mg"},{"bike_id":"c2282af8-7541-44fa-8c27-503a6053391a","system_id":"levelo_inurba_marseille","lat":43.298661,"lon":5.40459,"is_reserved":false,"is_disabled":false,"rental_uris":{"android":"levelo://app?vid=c2282af8-7541-44fa-8c27-503a6053391a","ios":"levelo://app?vid=c2282af8-7541-44fa-8c27-503a6053391a"},"vehicle_type_id":"4","last_reported":1727622500,"current_range_meters":22000,"station_id":"ce4bh112rcd13ifvqd90","pricing_plan_id":"cebpf4jnsgd1na2vs0mg"},{"bike_id":"209be347-6b99-4a29-953a-5b6dc8ee4d73","system_id":"levelo_inurba_marseille","lat":43.25504,"lon":5.37649,"is_reserved":false,"is_disabled":false,"rental_uris":{"android":"levelo://app?vid=209be347-6b99-4a29-953a-5b6dc8ee4d73","ios":"levelo://app?vid=209be347-6b99-4a29-953a-5b6dc8ee4d73"},"vehicle_type_id":"4","last_reported":1727622500,"current_range_meters":24400,"station_id":"ce4bhh12rcd13ifvqff0","pricing_plan_id":"cebpf4jnsgd1na2vs0mg"},{"bike_id":"461979fa-46c2-4197-8c47-72594b1855fc","system_id":"levelo_inurba_marseille","lat":43.29069,"lon":5.37164,"is_reserved":false,"is_disabled":false,"rental_uris":{"android":"levelo://app?vid=461979fa-46c2-4197-8c47-72594b1855fc","ios":"levelo://app?vid=461979fa-46c2-4197-8c47-72594b1855fc"},"vehicle_type_id":"4","last_reported":1727622500,"current_range_meters":6800,"station_id":"ce4bh5p2rcd13ifvqe4g","pricing_plan_id":"cebpf4jnsgd1na2vs0mg"},{"bike_id":"2b9aeff6-ad27-41b5-9f65-6716e64e0a5f","system_id":"levelo_inurba_marseille","lat":43.25504,"lon":5.3765,"is_reserved":false,"is_disabled":false,"rental_uris":{"android":"levelo://app?vid=2b9aeff6-ad27-41b5-9f65-6716e64e0a5f","ios":"levelo://app?vid=2b9aeff6-ad27-41b5-9f65-6716e64e0a5f"},"vehicle_type_id":"4","last_reported":1727622500,"current_range_meters":8000,"station_id":"ce4bhh12rcd13ifvqff0","pricing_plan_id":"cebpf4jnsgd1na2vs0mg"},{"bike_id":"16357015-83fc-4854-b491-9c5e45d4ce6c","system_id":"levelo_inurba_marseille","lat":43.30888,"lon":5.39655,"is_reserved":false,"is_disabled":false,"rental_uris":{"android":"levelo://app?vid=16357015-83fc-4854-b491-9c5e45d4ce6c","ios":"levelo://app?vid=16357015-83fc-4854-b491-9c5e45d4ce6c"},"vehicle_type_id":"4","last_reported":1727622500,"current_range_meters":8000,"station_id":"ce4bh012rcd13ifvqcv0","pricing_plan_id":"cebpf4jnsgd1na2vs0mg"},{"bike_id":"db630383-d2d1-428d-b9f0-973005a9160a","system_id":"levelo_inurba_marseille","lat":43.24384,"lon":5.37055,"is_reserved":false,"is_disabled":false,"rental_uris":{"android":"levelo://app?vid=db630383-d2d1-428d-b9f0-973005a9160a","ios":"levelo://app?vid=db630383-d2d1-428d-b9f0-973005a9160a"},"vehicle_type_id":"4","last_reported":1727622500,"current_range_meters":38800,"station_id":"ce4bhhh2rcd13ifvqfk0","pricing_plan_id":"cebpf4jnsgd1na2vs0mg"},{"bike_id":"b20ef19b-3477-4bd6-a2b2-994df6e4255e","system_id":"levelo_inurba_marseille","lat":43.28605,"lon":5.37064,"is_reserved":false,"is_disabled":false,"rental_uris":{"android":"levelo://app?vid=b20ef19b-3477-4bd6-a2b2-994df6e4255e","ios":"levelo://app?vid=b20ef19b-3477-4bd6-a2b2-994df6e4255e"},"vehicle_type_id":"4","last_reported":1727622500,"current_range_meters":38800,"station_id":"ce4bht12rcd13ifvqi60","pricing_plan_id":"cebpf4jnsgd1na2vs0mg"},{"bike_id":"8fabd40f-a6fb-40da-93f8-51cbaf544d93","system_id":"levelo_inurba_marseille","lat":43.27292,"lon":5.39077,"is_reserved":false,"is_disabled":false,"rental_uris":{"android":"levelo://app?vid=8fabd40f-a6fb-40da-93f8-51cbaf544d93","ios":"levelo://app?vid=8fabd40f-a6fb-40da-93f8-51cbaf544d93"},"vehicle_type_id":"4","last_reported":1727622500,"current_range_meters":9200,"station_id":"ce4bhgp2rcd13ifvqfe0","pricing_plan_id":"cebpf4jnsgd1na2vs0mg"},{"bike_id":"12c077eb-3efb-489b-b1b6-e90ca6907a8a","system_id":"levelo_inurba_marseille","lat":43.27377,"lon":5.36256,"is_reserved":false,"is_disabled":false,"rental_uris":{"android":"levelo://app?vid=12c077eb-3efb-489b-b1b6-e90ca6907a8a","ios":"levelo://app?vid=12c077eb-3efb-489b-b1b6-e90ca6907a8a"},"vehicle_type_id":"4","last_reported":1727622500,"current_range_meters":19200,"station_id":"ce4bhbh2rcd13ifvqeo0","pricing_plan_id":"cebpf4jnsgd1na2vs0mg"},{"bike_id":"5b45721e-a4b4-43f7-906b-e9faccc05480","system_id":"levelo_inurba_marseille","lat":43.30327,"lon":5.40434,"is_reserved":false,"is_disabled":false,"rental_uris":{"android":"levelo://app?vid=5b45721e-a4b4-43f7-906b-e9faccc05480","ios":"levelo://app?vid=5b45721e-a4b4-43f7-906b-e9faccc05480"},"vehicle_type_id":"4","last_reported":1727622500,"current_range_meters":38400,"station_id":"ce4bh012rcd13ifvqd10","pricing_plan_id":"cebpf4jnsgd1na2vs0mg"},{"bike_id":"15c8c7c2-d3d1-4095-a55f-806d05faaee1","system_id":"levelo_inurba_marseille","lat":43.28384,"lon":5.38084,"is_reserved":false,"is_disabled":false,"rental_uris":{"android":"levelo://app?vid=15c8c7c2-d3d1-4095-a55f-806d05faaee1","ios":"levelo://app?vid=15c8c7c2-d3d1-4095-a55f-806d05faaee1"},"vehicle_type_id":"4","last_reported":1727622500,"current_range_meters":31200,"station_id":"ce4bh412rcd13ifvqdr0","pricing_plan_id":"cebpf4jnsgd1na2vs0mg"},{"bike_id":"9d933d2a-f72c-492c-ae3d-eb238dac3442","system_id":"levelo_inurba_marseille","lat":43.317589,"lon":5.390251,"is_reserved":false,"is_disabled":false,"rental_uris":{"android":"levelo://app?vid=9d933d2a-f72c-492c-ae3d-eb238dac3442","ios":"levelo://app?vid=9d933d2a-f72c-492c-ae3d-eb238dac3442"},"vehicle_type_id":"4","last_reported":1727622500,"current_range_meters":12800,"station_id":"ce4bhqp2rcd13ifvqhng","pricing_plan_id":"cebpf4jnsgd1na2vs0mg"},{"bike_id":"e5caedb3-e9d3-40ba-84ce-bc37b396d9df","system_id":"levelo_inurba_marseille","lat":43.298889,"lon":5.436747,"is_reserved":false,"is_disabled":false,"rental_uris":{"android":"levelo://app?vid=e5caedb3-e9d3-40ba-84ce-bc37b396d9df","ios":"levelo://app?vid=e5caedb3-e9d3-40ba-84ce-bc37b396d9df"},"vehicle_type_id":"4","last_reported":1727622500,"current_range_meters":3200,"station_id":"ce4bhpp2rcd13ifvqhfg","pricing_plan_id":"cebpf4jnsgd1na2vs0mg"},{"bike_id":"436275e9-f62c-43fe-9e11-d3a2b91303f1","system_id":"levelo_inurba_marseille","lat":43.24395,"lon":5.37063,"is_reserved":false,"is_disabled":false,"rental_uris":{"android":"levelo://app?vid=436275e9-f62c-43fe-9e11-d3a2b91303f1","ios":"levelo://app?vid=436275e9-f62c-43fe-9e11-d3a2b91303f1"},"vehicle_type_id":"4","last_reported":1727622500,"current_range_meters":36400,"station_id":"ce4bhhh2rcd13ifvqfk0","pricing_plan_id":"cebpf4jnsgd1na2vs0mg"},{"bike_id":"bcc606d2-9e83-406a-825b-3f420c33e4c6","system_id":"levelo_inurba_marseille","lat":43.31334,"lon":5.39692,"is_reserved":false,"is_disabled":false,"rental_uris":{"android":"levelo://app?vid=bcc606d2-9e83-406a-825b-3f420c33e4c6","ios":"levelo://app?vid=bcc606d2-9e83-406a-825b-3f420c33e4c6"},"vehicle_type_id":"4","last_reported":1727622500,"current_range_meters":2800,"station_id":"ce4bgvp2rcd13ifvqcu0","pricing_plan_id":"cebpf4jnsgd1na2vs0mg"},{"bike_id":"0f422bf1-8bee-4078-b656-685da1d78cac","system_id":"levelo_inurba_marseille","lat":43.28155,"lon":5.4264,"is_reserved":false,"is_disabled":false,"rental_uris":{"android":"levelo://app?vid=0f422bf1-8bee-4078-b656-685da1d78cac","ios":"levelo://app?vid=0f422bf1-8bee-4078-b656-685da1d78cac"},"vehicle_type_id":"4","last_reported":1727622500,"current_range_meters":21600,"station_id":"ce4bhnh2rcd13ifvqgug","pricing_plan_id":"cebpf4jnsgd1na2vs0mg"},{"bike_id":"e18c57d3-4202-4122-bd31-ee4ff0d18aef","system_id":"levelo_inurba_marseille","lat":43.26553,"lon":5.37287,"is_reserved":false,"is_disabled":false,"rental_uris":{"android":"levelo://app?vid=e18c57d3-4202-4122-bd31-ee4ff0d18aef","ios":"levelo://app?vid=e18c57d3-4202-4122-bd31-ee4ff0d18aef"},"vehicle_type_id":"4","last_reported":1727622500,"current_range_meters":38800,"station_id":"ce4bhg12rcd13ifvqf70","pricing_plan_id":"cebpf4jnsgd1na2vs0mg"},{"bike_id":"ae420688-5730-4c04-90f7-fb439220597f","system_id":"levelo_inurba_marseille","lat":43.337444,"lon":5.374475,"is_reserved":false,"is_disabled":false,"rental_uris":{"android":"levelo://app?vid=ae420688-5730-4c04-90f7-fb439220597f","ios":"levelo://app?vid=ae420688-5730-4c04-90f7-fb439220597f"},"vehicle_type_id":"4","last_reported":1727622500,"current_range_meters":28400,"station_id":"","pricing_plan_id":"cebpf4jnsgd1na2vs0mg"},{"bike_id":"64c5a41d-9764-4555-8564-e0109a27d62f","system_id":"levelo_inurba_marseille","lat":43.32264,"lon":5.38282,"is_reserved":false,"is_disabled":false,"rental_uris":{"android":"levelo://app?vid=64c5a41d-9764-4555-8564-e0109a27d62f","ios":"levelo://app?vid=64c5a41d-9764-4555-8564-e0109a27d62f"},"vehicle_type_id":"4","last_reported":1727622500,"current_range_meters":10000,"station_id":"ce4bhr12rcd13ifvqhqg","pricing_plan_id":"cebpf4jnsgd1na2vs0mg"},{"bike_id":"86a71ee8-d43f-4ebe-bee2-169dfe2232ae","system_id":"levelo_inurba_marseille","lat":43.23962,"lon":5.3663,"is_reserved":false,"is_disabled":false,"rental_uris":{"android":"levelo://app?vid=86a71ee8-d43f-4ebe-bee2-169dfe2232ae","ios":"levelo://app?vid=86a71ee8-d43f-4ebe-bee2-169dfe2232ae"},"vehicle_type_id":"4","last_reported":1727622500,"current_range_meters":34800,"station_id":"ce4bhi12rcd13ifvqfp0","pricing_plan_id":"cebpf4jnsgd1na2vs0mg"},{"bike_id":"1d120e83-3e47-438c-ad2e-ee0c593707f6","system_id":"levelo_inurba_marseille","lat":43.24667,"lon":5.38169,"is_reserved":false,"is_disabled":false,"rental_uris":{"android":"levelo://app?vid=1d120e83-3e47-438c-ad2e-ee0c593707f6","ios":"levelo://app?vid=1d120e83-3e47-438c-ad2e-ee0c593707f6"},"vehicle_type_id":"4","last_reported":1727622500,"current_range_meters":15200,"station_id":"ce4bhih2rcd13ifvqfr0","pricing_plan_id":"cebpf4jnsgd1na2vs0mg"},{"bike_id":"adaf8c99-95b8-4c2d-8814-a55aadeeb624","system_id":"levelo_inurba_marseille","lat":43.23191,"lon":5.35543,"is_reserved":false,"is_disabled":false,"rental_uris":{"android":"levelo://app?vid=adaf8c99-95b8-4c2d-8814-a55aadeeb624","ios":"levelo://app?vid=adaf8c99-95b8-4c2d-8814-a55aadeeb624"},"vehicle_type_id":"4","last_reported":1727622500,"current_range_meters":26000,"station_id":"ce4bhu92rcd13ifvqi70","pricing_plan_id":"cebpf4jnsgd1na2vs0mg"},{"bike_id":"6589ed56-cb47-4581-8832-f7240483fc73","system_id":"levelo_inurba_marseille","lat":43.23059,"lon":5.35489,"is_reserved":false,"is_disabled":false,"rental_uris":{"android":"levelo://app?vid=6589ed56-cb47-4581-8832-f7240483fc73","ios":"levelo://app?vid=6589ed56-cb47-4581-8832-f7240483fc73"},"vehicle_type_id":"4","last_reported":1727622500,"current_range_meters":16000,"station_id":"cpo3342slgdg3j2ifvpg","pricing_plan_id":"cebpf4jnsgd1na2vs0mg"},{"bike_id":"1e28430a-e6d0-4708-a7b3-9cbf62a0c2ab","system_id":"levelo_inurba_marseille","lat":43.2621,"lon":5.37445,"is_reserved":false,"is_disabled":false,"rental_uris":{"android":"levelo://app?vid=1e28430a-e6d0-4708-a7b3-9cbf62a0c2ab","ios":"levelo://app?vid=1e28430a-e6d0-4708-a7b3-9cbf62a0c2ab"},"vehicle_type_id":"4","last_reported":1727622500,"current_range_meters":38800,"station_id":"ce4bhgp2rcd13ifvqfc0","pricing_plan_id":"cebpf4jnsgd1na2vs0mg"},{"bike_id":"a3a47351-bfd0-416a-a975-6c02d73c223a","system_id":"levelo_inurba_marseille","lat":43.25824,"lon":5.39432,"is_reserved":false,"is_disabled":false,"rental_uris":{"android":"levelo://app?vid=a3a47351-bfd0-416a-a975-6c02d73c223a","ios":"levelo://app?vid=a3a47351-bfd0-416a-a975-6c02d73c223a"},"vehicle_type_id":"4","last_reported":1727622500,"current_range_meters":22800,"station_id":"ce4bhip2rcd13ifvqft0","pricing_plan_id":"cebpf4jnsgd1na2vs0mg"},{"bike_id":"96de09dc-099f-4c3b-b2a0-1c426bfb16a0","system_id":"levelo_inurba_marseille","lat":43.28436,"lon":5.34992,"is_reserved":false,"is_disabled":false,"rental_uris":{"android":"levelo://app?vid=96de09dc-099f-4c3b-b2a0-1c426bfb16a0","ios":"levelo://app?vid=96de09dc-099f-4c3b-b2a0-1c426bfb16a0"},"vehicle_type_id":"4","last_reported":1727622500,"current_range_meters":21600,"station_id":"ce4bhbh2rcd13ifvqepg","pricing_plan_id":"cebpf4jnsgd1na2vs0mg"},{"bike_id":"1f1955f1-bed6-439b-b8cb-d07b1d9ef4bc","system_id":"levelo_inurba_marseille","lat":43.23956,"lon":5.36637,"is_reserved":false,"is_disabled":false,"rental_uris":{"android":"levelo://app?vid=1f1955f1-bed6-439b-b8cb-d07b1d9ef4bc","ios":"levelo://app?vid=1f1955f1-bed6-439b-b8cb-d07b1d9ef4bc"},"vehicle_type_id":"4","last_reported":1727622500,"current_range_meters":38800,"station_id":"ce4bhi12rcd13ifvqfp0","pricing_plan_id":"cebpf4jnsgd1na2vs0mg"},{"bike_id":"8f0d3b2f-8fe9-4097-bd5f-e96b1a043e99","system_id":"levelo_inurba_marseille","lat":43.2319,"lon":5.35539,"is_reserved":false,"is_disabled":false,"rental_uris":{"android":"levelo://app?vid=8f0d3b2f-8fe9-4097-bd5f-e96b1a043e99","ios":"levelo://app?vid=8f0d3b2f-8fe9-4097-bd5f-e96b1a043e99"},"vehicle_type_id":"4","last_reported":1727622500,"current_range_meters":6400,"station_id":"ce4bhu92rcd13ifvqi70","pricing_plan_id":"cebpf4jnsgd1na2vs0mg"},{"bike_id":"ad2b97cc-6d6b-4f2b-8bfd-af16a22fc4f8","system_id":"levelo_inurba_marseille","lat":43.27378,"lon":5.36263,"is_reserved":false,"is_disabled":false,"rental_uris":{"android":"levelo://app?vid=ad2b97cc-6d6b-4f2b-8bfd-af16a22fc4f8","ios":"levelo://app?vid=ad2b97cc-6d6b-4f2b-8bfd-af16a22fc4f8"},"vehicle_type_id":"4","last_reported":1727622500,"current_range_meters":32000,"station_id":"ce4bhbh2rcd13ifvqeo0","pricing_plan_id":"cebpf4jnsgd1na2vs0mg"},{"bike_id":"9cb3412e-3587-47af-8a8a-114bb5acd038","system_id":"levelo_inurba_marseille","lat":43.29896,"lon":5.4366,"is_reserved":false,"is_disabled":false,"rental_uris":{"android":"levelo://app?vid=9cb3412e-3587-47af-8a8a-114bb5acd038","ios":"levelo://app?vid=9cb3412e-3587-47af-8a8a-114bb5acd038"},"vehicle_type_id":"4","last_reported":1727622500,"current_range_meters":37600,"station_id":"ce4bhpp2rcd13ifvqhfg","pricing_plan_id":"cebpf4jnsgd1na2vs0mg"},{"bike_id":"86c229bc-f163-4e41-b138-e497bebda808","system_id":"levelo_inurba_marseille","lat":43.28944,"lon":5.3639,"is_reserved":false,"is_disabled":false,"rental_uris":{"android":"levelo://app?vid=86c229bc-f163-4e41-b138-e497bebda808","ios":"levelo://app?vid=86c229bc-f163-4e41-b138-e497bebda808"},"vehicle_type_id":"4","last_reported":1727622500,"current_range_meters":38800,"station_id":"ce4bhc92rcd13ifvqetg","pricing_plan_id":"cebpf4jnsgd1na2vs0mg"},{"bike_id":"2f926766-0998-4d66-9dda-b95806380054","system_id":"levelo_inurba_marseille","lat":43.24803,"lon":5.37456,"is_reserved":false,"is_disabled":false,"rental_uris":{"android":"levelo://app?vid=2f926766-0998-4d66-9dda-b95806380054","ios":"levelo://app?vid=2f926766-0998-4d66-9dda-b95806380054"},"vehicle_type_id":"4","last_reported":1727622500,"current_range_meters":22800,"station_id":"ce4bhgh2rcd13ifvqfb0","pricing_plan_id":"cebpf4jnsgd1na2vs0mg"},{"bike_id":"b85d83de-5648-4460-92fd-88499c405db5","system_id":"levelo_inurba_marseille","lat":43.30553,"lon":5.36528,"is_reserved":false,"is_disabled":false,"rental_uris":{"android":"levelo://app?vid=b85d83de-5648-4460-92fd-88499c405db5","ios":"levelo://app?vid=b85d83de-5648-4460-92fd-88499c405db5"},"vehicle_type_id":"4","last_reported":1727622500,"current_range_meters":33600,"station_id":"ce4bgs12rcd13ifvqcag","pricing_plan_id":"cebpf4jnsgd1na2vs0mg"},{"bike_id":"6d4498e6-d1af-4183-90b6-4c14bf32b656","system_id":"levelo_inurba_marseille","lat":43.231897,"lon":5.355481,"is_reserved":false,"is_disabled":false,"rental_uris":{"android":"levelo://app?vid=6d4498e6-d1af-4183-90b6-4c14bf32b656","ios":"levelo://app?vid=6d4498e6-d1af-4183-90b6-4c14bf32b656"},"vehicle_type_id":"4","last_reported":1727622500,"current_range_meters":20400,"station_id":"ce4bhu92rcd13ifvqi70","pricing_plan_id":"cebpf4jnsgd1na2vs0mg"},{"bike_id":"a6f3456f-f73f-4350-91cf-0ecbb08350d1","system_id":"levelo_inurba_marseille","lat":43.32364,"lon":5.38884,"is_reserved":false,"is_disabled":false,"rental_uris":{"android":"levelo://app?vid=a6f3456f-f73f-4350-91cf-0ecbb08350d1","ios":"levelo://app?vid=a6f3456f-f73f-4350-91cf-0ecbb08350d1"},"vehicle_type_id":"4","last_reported":1727622500,"current_range_meters":27600,"station_id":"ce4bhqp2rcd13ifvqhog","pricing_plan_id":"cebpf4jnsgd1na2vs0mg"},{"bike_id":"617bce1d-1530-4e36-8e10-2c2185df9b7c","system_id":"levelo_inurba_marseille","lat":43.31996,"lon":5.38167,"is_reserved":false,"is_disabled":false,"rental_uris":{"android":"levelo://app?vid=617bce1d-1530-4e36-8e10-2c2185df9b7c","ios":"levelo://app?vid=617bce1d-1530-4e36-8e10-2c2185df9b7c"},"vehicle_type_id":"4","last_reported":1727622500,"current_range_meters":14400,"station_id":"ce4bhr12rcd13ifvqhpg","pricing_plan_id":"cebpf4jnsgd1na2vs0mg"},{"bike_id":"d41a2eeb-5f2c-4b59-9198-baf37aa878da","system_id":"levelo_inurba_marseille","lat":43.2843,"lon":5.3499,"is_reserved":false,"is_disabled":false,"rental_uris":{"android":"levelo://app?vid=d41a2eeb-5f2c-4b59-9198-baf37aa878da","ios":"levelo://app?vid=d41a2eeb-5f2c-4b59-9198-baf37aa878da"},"vehicle_type_id":"4","last_reported":1727622500,"current_range_meters":25200,"station_id":"ce4bhbh2rcd13ifvqepg","pricing_plan_id":"cebpf4jnsgd1na2vs0mg"},{"bike_id":"31dfbc21-a41e-4b3c-9be6-206b1a5856df","system_id":"levelo_inurba_marseille","lat":43.26554,"lon":5.37285,"is_reserved":false,"is_disabled":false,"rental_uris":{"android":"levelo://app?vid=31dfbc21-a41e-4b3c-9be6-206b1a5856df","ios":"levelo://app?vid=31dfbc21-a41e-4b3c-9be6-206b1a5856df"},"vehicle_type_id":"4","last_reported":1727622500,"current_range_meters":11600,"station_id":"ce4bhg12rcd13ifvqf70","pricing_plan_id":"cebpf4jnsgd1na2vs0mg"},{"bike_id":"1e7e1759-135d-4212-9866-9b0393c404b8","system_id":"levelo_inurba_marseille","lat":43.26195,"lon":5.37451,"is_reserved":false,"is_disabled":false,"rental_uris":{"android":"levelo://app?vid=1e7e1759-135d-4212-9866-9b0393c404b8","ios":"levelo://app?vid=1e7e1759-135d-4212-9866-9b0393c404b8"},"vehicle_type_id":"4","last_reported":1727622500,"current_range_meters":23200,"station_id":"ce4bhgp2rcd13ifvqfc0","pricing_plan_id":"cebpf4jnsgd1na2vs0mg"},{"bike_id":"72f04bea-87ff-462d-a51f-4ab9221a2163","system_id":"levelo_inurba_marseille","lat":43.23958,"lon":5.36637,"is_reserved":false,"is_disabled":false,"rental_uris":{"android":"levelo://app?vid=72f04bea-87ff-462d-a51f-4ab9221a2163","ios":"levelo://app?vid=72f04bea-87ff-462d-a51f-4ab9221a2163"},"vehicle_type_id":"4","last_reported":1727622500,"current_range_meters":25600,"station_id":"ce4bhi12rcd13ifvqfp0","pricing_plan_id":"cebpf4jnsgd1na2vs0mg"},{"bike_id":"51e287a5-b406-4bc2-885f-17e3718b5849","system_id":"levelo_inurba_marseille","lat":43.307213,"lon":5.386447,"is_reserved":false,"is_disabled":false,"rental_uris":{"android":"levelo://app?vid=51e287a5-b406-4bc2-885f-17e3718b5849","ios":"levelo://app?vid=51e287a5-b406-4bc2-885f-17e3718b5849"},"vehicle_type_id":"4","last_reported":1727622500,"current_range_meters":32800,"station_id":"","pricing_plan_id":"cebpf4jnsgd1na2vs0mg"},{"bike_id":"ec37b3f3-e59f-4993-a18d-0a4a5c6f723f","system_id":"levelo_inurba_marseille","lat":43.2931,"lon":5.3719,"is_reserved":false,"is_disabled":false,"rental_uris":{"android":"levelo://app?vid=ec37b3f3-e59f-4993-a18d-0a4a5c6f723f","ios":"levelo://app?vid=ec37b3f3-e59f-4993-a18d-0a4a5c6f723f"},"vehicle_type_id":"4","last_reported":1727622500,"current_range_meters":2000,"station_id":"ce4bgh92rcd13ifvqb40","pricing_plan_id":"cebpf4jnsgd1na2vs0mg"},{"bike_id":"9875a1f0-e592-46f9-8699-96387cfa5ee3","system_id":"levelo_inurba_marseille","lat":43.25729,"lon":5.41109,"is_reserved":false,"is_disabled":false,"rental_uris":{"android":"levelo://app?vid=9875a1f0-e592-46f9-8699-96387cfa5ee3","ios":"levelo://app?vid=9875a1f0-e592-46f9-8699-96387cfa5ee3"},"vehicle_type_id":"4","last_reported":1727622500,"current_range_meters":17600,"station_id":"ce4bhkp2rcd13ifvqgd0","pricing_plan_id":"cebpf4jnsgd1na2vs0mg"},{"bike_id":"b0c31863-9489-4555-8c14-cc83b377024c","system_id":"levelo_inurba_marseille","lat":43.26039,"lon":5.38199,"is_reserved":false,"is_disabled":false,"rental_uris":{"android":"levelo://app?vid=b0c31863-9489-4555-8c14-cc83b377024c","ios":"levelo://app?vid=b0c31863-9489-4555-8c14-cc83b377024c"},"vehicle_type_id":"4","last_reported":1727622500,"current_range_meters":24800,"station_id":"","pricing_plan_id":"cebpf4jnsgd1na2vs0mg"},{"bike_id":"9e3989a6-6d62-412f-9d85-e04831da2f97","system_id":"levelo_inurba_marseille","lat":43.28269,"lon":5.35077,"is_reserved":false,"is_disabled":false,"rental_uris":{"android":"levelo://app?vid=9e3989a6-6d62-412f-9d85-e04831da2f97","ios":"levelo://app?vid=9e3989a6-6d62-412f-9d85-e04831da2f97"},"vehicle_type_id":"4","last_reported":1727622500,"current_range_meters":38800,"station_id":"ce4bhbp2rcd13ifvqerg","pricing_plan_id":"cebpf4jnsgd1na2vs0mg"},{"bike_id":"c5780541-b30d-4d72-9466-9846f9352508","system_id":"levelo_inurba_marseille","lat":43.24394,"lon":5.37066,"is_reserved":false,"is_disabled":false,"rental_uris":{"android":"levelo://app?vid=c5780541-b30d-4d72-9466-9846f9352508","ios":"levelo://app?vid=c5780541-b30d-4d72-9466-9846f9352508"},"vehicle_type_id":"4","last_reported":1727622500,"current_range_meters":28400,"station_id":"ce4bhhh2rcd13ifvqfk0","pricing_plan_id":"cebpf4jnsgd1na2vs0mg"},{"bike_id":"a371f3ca-2c24-4ae8-9bd3-d7f7f2713aee","system_id":"levelo_inurba_marseille","lat":43.25489,"lon":5.37648,"is_reserved":false,"is_disabled":false,"rental_uris":{"android":"levelo://app?vid=a371f3ca-2c24-4ae8-9bd3-d7f7f2713aee","ios":"levelo://app?vid=a371f3ca-2c24-4ae8-9bd3-d7f7f2713aee"},"vehicle_type_id":"4","last_reported":1727622500,"current_range_meters":33600,"station_id":"ce4bhh12rcd13ifvqff0","pricing_plan_id":"cebpf4jnsgd1na2vs0mg"},{"bike_id":"bbf952ac-e334-4066-8586-c2a54f21154f","system_id":"levelo_inurba_marseille","lat":43.24485,"lon":5.3783,"is_reserved":false,"is_disabled":false,"rental_uris":{"android":"levelo://app?vid=bbf952ac-e334-4066-8586-c2a54f21154f","ios":"levelo://app?vid=bbf952ac-e334-4066-8586-c2a54f21154f"},"vehicle_type_id":"4","last_reported":1727622500,"current_range_meters":21600,"station_id":"","pricing_plan_id":"cebpf4jnsgd1na2vs0mg"},{"bike_id":"6675ea5b-bda5-4c03-9243-b4a280252ea4","system_id":"levelo_inurba_marseille","lat":43.29418,"lon":5.38616,"is_reserved":false,"is_disabled":false,"rental_uris":{"android":"levelo://app?vid=6675ea5b-bda5-4c03-9243-b4a280252ea4","ios":"levelo://app?vid=6675ea5b-bda5-4c03-9243-b4a280252ea4"},"vehicle_type_id":"4","last_reported":1727622500,"current_range_meters":9200,"station_id":"ce4bh2h2rcd13ifvqdh0","pricing_plan_id":"cebpf4jnsgd1na2vs0mg"},{"bike_id":"cc189bdb-be15-4ec1-9a90-3ed3ce93f053","system_id":"levelo_inurba_marseille","lat":43.34069,"lon":5.42051,"is_reserved":false,"is_disabled":false,"rental_uris":{"android":"levelo://app?vid=cc189bdb-be15-4ec1-9a90-3ed3ce93f053","ios":"levelo://app?vid=cc189bdb-be15-4ec1-9a90-3ed3ce93f053"},"vehicle_type_id":"4","last_reported":1727622500,"current_range_meters":28400,"station_id":"","pricing_plan_id":"cebpf4jnsgd1na2vs0mg"},{"bike_id":"6db6ea78-ba34-4a53-a4a8-4d7391f2ac26","system_id":"levelo_inurba_marseille","lat":43.23065,"lon":5.35491,"is_reserved":false,"is_disabled":false,"rental_uris":{"android":"levelo://app?vid=6db6ea78-ba34-4a53-a4a8-4d7391f2ac26","ios":"levelo://app?vid=6db6ea78-ba34-4a53-a4a8-4d7391f2ac26"},"vehicle_type_id":"4","last_reported":1727622500,"current_range_meters":20000,"station_id":"cpo3342slgdg3j2ifvpg","pricing_plan_id":"cebpf4jnsgd1na2vs0mg"},{"bike_id":"976c2a5b-251c-4702-ae3d-d64bbc314983","system_id":"levelo_inurba_marseille","lat":43.24391,"lon":5.3706,"is_reserved":false,"is_disabled":false,"rental_uris":{"android":"levelo://app?vid=976c2a5b-251c-4702-ae3d-d64bbc314983","ios":"levelo://app?vid=976c2a5b-251c-4702-ae3d-d64bbc314983"},"vehicle_type_id":"4","last_reported":1727622500,"current_range_meters":31200,"station_id":"ce4bhhh2rcd13ifvqfk0","pricing_plan_id":"cebpf4jnsgd1na2vs0mg"},{"bike_id":"5d5a76cf-b385-40f2-b609-439e6ff2e253","system_id":"levelo_inurba_marseille","lat":43.32289,"lon":5.3826,"is_reserved":false,"is_disabled":false,"rental_uris":{"android":"levelo://app?vid=5d5a76cf-b385-40f2-b609-439e6ff2e253","ios":"levelo://app?vid=5d5a76cf-b385-40f2-b609-439e6ff2e253"},"vehicle_type_id":"4","last_reported":1727622500,"current_range_meters":28800,"station_id":"ce4bhr12rcd13ifvqhqg","pricing_plan_id":"cebpf4jnsgd1na2vs0mg"},{"bike_id":"bc669921-834d-4dd7-a2e4-42fe8f1eec42","system_id":"levelo_inurba_marseille","lat":43.24651,"lon":5.38888,"is_reserved":false,"is_disabled":false,"rental_uris":{"android":"levelo://app?vid=bc669921-834d-4dd7-a2e4-42fe8f1eec42","ios":"levelo://app?vid=bc669921-834d-4dd7-a2e4-42fe8f1eec42"},"vehicle_type_id":"4","last_reported":1727622500,"current_range_meters":38800,"station_id":"ce4bhg12rcd13ifvqf60","pricing_plan_id":"cebpf4jnsgd1na2vs0mg"},{"bike_id":"4655ee1c-92f5-4e61-ba50-5b57ef7514bc","system_id":"levelo_inurba_marseille","lat":43.32291,"lon":5.38273,"is_reserved":false,"is_disabled":false,"rental_uris":{"android":"levelo://app?vid=4655ee1c-92f5-4e61-ba50-5b57ef7514bc","ios":"levelo://app?vid=4655ee1c-92f5-4e61-ba50-5b57ef7514bc"},"vehicle_type_id":"4","last_reported":1727622500,"current_range_meters":32400,"station_id":"ce4bhr12rcd13ifvqhqg","pricing_plan_id":"cebpf4jnsgd1na2vs0mg"},{"bike_id":"471263d2-9ca4-47f9-8ff4-b1e095e336c1","system_id":"levelo_inurba_marseille","lat":43.25004,"lon":5.38927,"is_reserved":false,"is_disabled":false,"rental_uris":{"android":"levelo://app?vid=471263d2-9ca4-47f9-8ff4-b1e095e336c1","ios":"levelo://app?vid=471263d2-9ca4-47f9-8ff4-b1e095e336c1"},"vehicle_type_id":"4","last_reported":1727622500,"current_range_meters":24800,"station_id":"ce4bhgp2rcd13ifvqfd0","pricing_plan_id":"cebpf4jnsgd1na2vs0mg"},{"bike_id":"0278f06c-d540-45b0-bbd3-c6ee18ac62e3","system_id":"levelo_inurba_marseille","lat":43.28276,"lon":5.35071,"is_reserved":false,"is_disabled":false,"rental_uris":{"android":"levelo://app?vid=0278f06c-d540-45b0-bbd3-c6ee18ac62e3","ios":"levelo://app?vid=0278f06c-d540-45b0-bbd3-c6ee18ac62e3"},"vehicle_type_id":"4","last_reported":1727622500,"current_range_meters":37600,"station_id":"ce4bhbp2rcd13ifvqerg","pricing_plan_id":"cebpf4jnsgd1na2vs0mg"},{"bike_id":"d1ea562c-438c-4da3-ade2-740051e24371","system_id":"levelo_inurba_marseille","lat":43.27366,"lon":5.36248,"is_reserved":false,"is_disabled":false,"rental_uris":{"android":"levelo://app?vid=d1ea562c-438c-4da3-ade2-740051e24371","ios":"levelo://app?vid=d1ea562c-438c-4da3-ade2-740051e24371"},"vehicle_type_id":"4","last_reported":1727622500,"current_range_meters":12400,"station_id":"ce4bhbh2rcd13ifvqeo0","pricing_plan_id":"cebpf4jnsgd1na2vs0mg"},{"bike_id":"45f2adee-62d0-4b69-a07f-4bca3a5286c0","system_id":"levelo_inurba_marseille","lat":43.25491,"lon":5.37649,"is_reserved":false,"is_disabled":false,"rental_uris":{"android":"levelo://app?vid=45f2adee-62d0-4b69-a07f-4bca3a5286c0","ios":"levelo://app?vid=45f2adee-62d0-4b69-a07f-4bca3a5286c0"},"vehicle_type_id":"4","last_reported":1727622500,"current_range_meters":36800,"station_id":"ce4bhh12rcd13ifvqff0","pricing_plan_id":"cebpf4jnsgd1na2vs0mg"},{"bike_id":"16bc3d6f-0c3b-4def-a023-2a62101c0266","system_id":"levelo_inurba_marseille","lat":43.30545,"lon":5.36698,"is_reserved":false,"is_disabled":false,"rental_uris":{"android":"levelo://app?vid=16bc3d6f-0c3b-4def-a023-2a62101c0266","ios":"levelo://app?vid=16bc3d6f-0c3b-4def-a023-2a62101c0266"},"vehicle_type_id":"4","last_reported":1727622500,"current_range_meters":16800,"station_id":"ce4bgrp2rcd13ifvqc9g","pricing_plan_id":"cebpf4jnsgd1na2vs0mg"},{"bike_id":"f9907c14-2e98-4992-9fac-86a0d516fb1f","system_id":"levelo_inurba_marseille","lat":43.299,"lon":5.4366,"is_reserved":false,"is_disabled":false,"rental_uris":{"android":"levelo://app?vid=f9907c14-2e98-4992-9fac-86a0d516fb1f","ios":"levelo://app?vid=f9907c14-2e98-4992-9fac-86a0d516fb1f"},"vehicle_type_id":"4","last_reported":1727622500,"current_range_meters":19200,"station_id":"ce4bhpp2rcd13ifvqhfg","pricing_plan_id":"cebpf4jnsgd1na2vs0mg"},{"bike_id":"1fdb730e-3646-41c3-ba49-bb21cabfae43","system_id":"levelo_inurba_marseille","lat":43.28274,"lon":5.35067,"is_reserved":false,"is_disabled":false,"rental_uris":{"android":"levelo://app?vid=1fdb730e-3646-41c3-ba49-bb21cabfae43","ios":"levelo://app?vid=1fdb730e-3646-41c3-ba49-bb21cabfae43"},"vehicle_type_id":"4","last_reported":1727622500,"current_range_meters":24000,"station_id":"ce4bhbp2rcd13ifvqerg","pricing_plan_id":"cebpf4jnsgd1na2vs0mg"},{"bike_id":"2856642f-6299-4492-ad8d-9c50708e61ef","system_id":"levelo_inurba_marseille","lat":43.23186,"lon":5.39991,"is_reserved":false,"is_disabled":false,"rental_uris":{"android":"levelo://app?vid=2856642f-6299-4492-ad8d-9c50708e61ef","ios":"levelo://app?vid=2856642f-6299-4492-ad8d-9c50708e61ef"},"vehicle_type_id":"4","last_reported":1727622500,"current_range_meters":24400,"station_id":"ce4bhn12rcd13ifvqgqg","pricing_plan_id":"cebpf4jnsgd1na2vs0mg"},{"bike_id":"e03136bf-e2fb-44b1-9b2e-f68c228824a7","system_id":"levelo_inurba_marseille","lat":43.24817,"lon":5.37456,"is_reserved":false,"is_disabled":false,"rental_uris":{"android":"levelo://app?vid=e03136bf-e2fb-44b1-9b2e-f68c228824a7","ios":"levelo://app?vid=e03136bf-e2fb-44b1-9b2e-f68c228824a7"},"vehicle_type_id":"4","last_reported":1727622500,"current_range_meters":31200,"station_id":"ce4bhgh2rcd13ifvqfb0","pricing_plan_id":"cebpf4jnsgd1na2vs0mg"},{"bike_id":"db77b35f-247c-4847-9961-ba4837d3bebe","system_id":"levelo_inurba_marseille","lat":43.30953,"lon":5.39031,"is_reserved":false,"is_disabled":false,"rental_uris":{"android":"levelo://app?vid=db77b35f-247c-4847-9961-ba4837d3bebe","ios":"levelo://app?vid=db77b35f-247c-4847-9961-ba4837d3bebe"},"vehicle_type_id":"4","last_reported":1727622500,"current_range_meters":20000,"station_id":"ce4bgup2rcd13ifvqco0","pricing_plan_id":"cebpf4jnsgd1na2vs0mg"},{"bike_id":"dbab0be0-9690-45ef-8dd1-7e1bf06047e1","system_id":"levelo_inurba_marseille","lat":43.22935,"lon":5.35377,"is_reserved":false,"is_disabled":false,"rental_uris":{"android":"levelo://app?vid=dbab0be0-9690-45ef-8dd1-7e1bf06047e1","ios":"levelo://app?vid=dbab0be0-9690-45ef-8dd1-7e1bf06047e1"},"vehicle_type_id":"4","last_reported":1727622500,"current_range_meters":18000,"station_id":"cpo3532slgdg3j2ikp40","pricing_plan_id":"cebpf4jnsgd1na2vs0mg"},{"bike_id":"e1ebe9e4-c7b8-4e2e-84cd-191fcf3470be","system_id":"levelo_inurba_marseille","lat":43.28155,"lon":5.42649,"is_reserved":false,"is_disabled":false,"rental_uris":{"android":"levelo://app?vid=e1ebe9e4-c7b8-4e2e-84cd-191fcf3470be","ios":"levelo://app?vid=e1ebe9e4-c7b8-4e2e-84cd-191fcf3470be"},"vehicle_type_id":"4","last_reported":1727622500,"current_range_meters":6400,"station_id":"ce4bhnh2rcd13ifvqgug","pricing_plan_id":"cebpf4jnsgd1na2vs0mg"},