{"last_updated":1703761545,"ttl":30,"version":"2.2","data":{"bikes":[{"bike_id":"fd718e64-be48-4544-989d-0bea6dfd9864","system_id":"levelo_inurba_marseille","lat":43.31341,"lon":5.367098,"is_reserved":false,"is_disabled":false,"rental_uris":{"android":"levelo://app?vid=fd718e64-be48-4544-989d-0bea6dfd9864","ios":"levelo://app?vid=fd718e64-be48-4544-989d-0bea6dfd9864"},"vehicle_type_id":"4","last_reported":1703761545,"current_range_meters":28800,"station_id":"ce4bgr92rcd13ifvqc6g","pricing_plan_id":"free"},{"bike_id":"8d0aa6b3-acfc-4de3-94ac-62c967788013","system_id":"levelo_inurba_marseille","lat":43.31341,"lon":5.367098,"is_reserved":false,"is_disabled":false,"rental_uris":{"android":"levelo://app?vid=8d0aa6b3-acfc-4de3-94ac-62c967788013","ios":"levelo://app?vid=8d0aa6b3-acfc-4de3-94ac-62c967788013"},"vehicle_type_id":"4","last_reported":1703761545,"current_range_meters":8400,"station_id":"ce4bgr92rcd13ifvqc6g","pricing_plan_id":"free"},{"bike_id":"d5982094-0c0a-4d8d-8dd0-d27ab3a034f5","system_id":"levelo_inurba_marseille","lat":43.31341,"lon":5.367098,"is_reserved":false,"is_disabled":false,"rental_uris":{"android":"levelo://app?vid=d5982094-0c0a-4d8d-8dd0-d27ab3a034f5","ios":"levelo://app?vid=d5982094-0c0a-4d8d-8dd0-d27ab3a034f5"},"vehicle_type_id":"4","last_reported":1703761545,"current_range_meters":22000,"station_id":"ce4bgr92rcd13ifvqc6g","pricing_plan_id":"free"},{"bike_id":"7f03bb82-3d8c-4897-b6bf-05bb5fa8a57c","system_id":"levelo_inurba_marseille","lat":43.31341,"lon":5.367098,"is_reserved":false,"is_disabled":false,"rental_uris":{"android":"levelo://app?vid=7f03bb82-3d8c-4897-b6bf-05bb5fa8a57c","ios":"levelo://app?vid=7f03bb82-3d8c-4897-b6bf-05bb5fa8a57c"},"vehicle_type_id":"4","last_reported":1703761545,"current_range_meters":31600,"station_id":"ce4bgr92rcd13ifvqc6g","pricing_plan_id":"free"},{"bike_id":"f2ec027f-a284-4750-8422-bfcebb8b2b9c","system_id":"levelo_inurba_marseille","lat":43.313391,"lon":5.36706,"is_reserved":false,"is_disabled":false,"rental_uris":{"android":"levelo://app?vid=f2ec027f-a284-4750-8422-bfcebb8b2b9c","ios":"levelo://app?vid=f2ec027f-a284-4750-8422-bfcebb8b2b9c"},"vehicle_type_id":"4","last_reported":1703761545,"current_range_meters":31200,"station_id":"ce4bgr92rcd13ifvqc6g","pricing_plan_id":"free"},{"bike_id":"b78eae04-7803-4ea2-8985-bb1f77354e0f","system_id":"levelo_inurba_marseille","lat":43.313391,"lon":5.36706,"is_reserved":false,"is_disabled":false,"rental_uris":{"android":"levelo://app?vid=b78eae04-7803-4ea2-8985-bb1f77354e0f","ios":"levelo://app?vid=b78eae04-7803-4ea2-8985-bb1f77354e0f"},"vehicle_type_id":"4","last_reported":1703761545,"current_range_meters":29600,"station_id":"ce4bgr92rcd13ifvqc6g","pricing_plan_id":"free"},{"bike_id":"92d4f817-0078-49c2-a633-ec1dee59c53d","system_id":"levelo_inurba_marseille","lat":43.31341,"lon":5.367098,"is_reserved":false,"is_disabled":false,"rental_uris":{"android":"levelo://app?vid=92d4f817-0078-49c2-a633-ec1dee59c53d","ios":"levelo://app?vid=92d4f817-0078-49c2-a633-ec1dee59c53d"},"vehicle_type_id":"4","last_reported":1703761545,"current_range_meters":8800,"station_id":"ce4bgr92rcd13ifvqc6g","pricing_plan_id":"free"},{"bike_id":"999bcaad-4694-4bf4-a6af-93b7e99a5b08","system_id":"levelo_inurba_marseille","lat":43.313391,"lon":5.36706,"is_reserved":false,"is_disabled":false,"rental_uris":{"android":"levelo://app?vid=999bcaad-4694-4bf4-a6af-93b7e99a5b08","ios":"levelo://app?vid=999bcaad-4694-4bf4-a6af-93b7e99a5b08"},"vehicle_type_id":"4","last_reported":1703761545,"current_range_meters":23600,"station_id":"ce4bgr92rcd13ifvqc6g","pricing_plan_id":"free"},{"bike_id":"8c58ad33-319e-4d90-9e25-fd43ae68f66d","system_id":"levelo_inurba_marseille","lat":43.30911,"lon":5.36858,"is_reserved":false,"is_disabled":false,"rental_uris":{"android":"levelo://app?vid=8c58ad33-319e-4d90-9e25-fd43ae68f66d","ios":"levelo://app?vid=8c58ad33-319e-4d90-9e25-fd43ae68f66d"},"vehicle_type_id":"4","last_reported":1703761545,"current_range_meters":28000,"station_id":"ce4bgn92rcd13ifvqbvg","pricing_plan_id":"free"},{"bike_id":"71413311-6ad0-4f44-a6ac-a2b6c7e1916c","system_id":"levelo_inurba_marseille","lat":43.309076,"lon":5.368465,"is_reserved":false,"is_disabled":false,"rental_uris":{"android":"levelo://app?vid=71413311-6ad0-4f44-a6ac-a2b6c7e1916c","ios":"levelo://app?vid=71413311-6ad0-4f44-a6ac-a2b6c7e1916c"},"vehicle_type_id":"4","last_reported":1703761545,"current_range_meters":26800,"station_id":"ce4bgn92rcd13ifvqbvg","pricing_plan_id":"free"},{"bike_id":"6206c9b8-717f-4ea0-8e09-5e9e73c1207a","system_id":"levelo_inurba_marseille","lat":43.314811,"lon":5.373104,"is_reserved":false,"is_disabled":false,"rental_uris":{"android":"levelo://app?vid=6206c9b8-717f-4ea0-8e09-5e9e73c1207a","ios":"levelo://app?vid=6206c9b8-717f-4ea0-8e09-5e9e73c1207a"},"vehicle_type_id":"4","last_reported":1703761545,"current_range_meters":18800,"station_id":"ce4bgt12rcd13ifvqcd0","pricing_plan_id":"free"},{"bike_id":"7cd75a70-e4f0-40da-8421-8775f9cf3763","system_id":"levelo_inurba_marseille","lat":43.309039,"lon":5.371797,"is_reserved":false,"is_disabled":false,"rental_uris":{"android":"levelo://app?vid=7cd75a70-e4f0-40da-8421-8775f9cf3763","ios":"levelo://app?vid=7cd75a70-e4f0-40da-8421-8775f9cf3763"},"vehicle_type_id":"4","last_reported":1703761545,"current_range_meters":26400,"station_id":"ce4bguh2rcd13ifvqckg","pricing_plan_id":"free"},{"bike_id":"e53a9163-4e5b-47fe-9556-01a0a159d6b4","system_id":"levelo_inurba_marseille","lat":43.318964,"lon":5.36877,"is_reserved":false,"is_disabled":false,"rental_uris":{"android":"levelo://app?vid=e53a9163-4e5b-47fe-9556-01a0a159d6b4","ios":"levelo://app?vid=e53a9163-4e5b-47fe-9556-01a0a159d6b4"},"vehicle_type_id":"4","last_reported":1703761545,"current_range_meters":4800,"station_id":"","pricing_plan_id":"free"},{"bike_id":"2bf1159c-4b34-4bc3-a8b5-156be571c011","system_id":"levelo_inurba_marseille","lat":43.31675,"lon":5.37401,"is_reserved":false,"is_disabled":false,"rental_uris":{"android":"levelo://app?vid=2bf1159c-4b34-4bc3-a8b5-156be571c011","ios":"levelo://app?vid=2bf1159c-4b34-4bc3-a8b5-156be571c011"},"vehicle_type_id":"4","last_reported":1703761545,"current_range_meters":28800,"station_id":"","pricing_plan_id":"free"},{"bike_id":"ae142779-b131-49b2-bd89-4923944822d2","system_id":"levelo_inurba_marseille","lat":43.305368,"lon":5.367343,"is_reserved":false,"is_disabled":false,"rental_uris":{"android":"levelo://app?vid=ae142779-b131-49b2-bd89-4923944822d2","ios":"levelo://app?vid=ae142779-b131-49b2-bd89-4923944822d2"},"vehicle_type_id":"4","last_reported":1703761545,"current_range_meters":24400,"station_id":"ce4bgrp2rcd13ifvqc9g","pricing_plan_id":"free"},{"bike_id":"ec1b899d-756a-43bd-bcd2-ae28c82563d2","system_id":"levelo_inurba_marseille","lat":43.305368,"lon":5.367343,"is_reserved":false,"is_disabled":false,"rental_uris":{"android":"levelo://app?vid=ec1b899d-756a-43bd-bcd2-ae28c82563d2","ios":"levelo://app?vid=ec1b899d-756a-43bd-bcd2-ae28c82563d2"},"vehicle_type_id":"4","last_reported":1703761545,"current_range_meters":20400,"station_id":"ce4bgrp2rcd13ifvqc9g","pricing_plan_id":"free"},{"bike_id":"294daea1-dfb7-429d-8796-4bb97a5afdbf","system_id":"levelo_inurba_marseille","lat":43.30537,"lon":5.367345,"is_reserved":false,"is_disabled":false,"rental_uris":{"android":"levelo://app?vid=294daea1-dfb7-429d-8796-4bb97a5afdbf","ios":"levelo://app?vid=294daea1-dfb7-429d-8796-4bb97a5afdbf"},"vehicle_type_id":"4","last_reported":1703761545,"current_range_meters":14800,"station_id":"ce4bgrp2rcd13ifvqc9g","pricing_plan_id":"free"},{"bike_id":"0cbffb1f-cad0-4903-8235-6ece12fb0071","system_id":"levelo_inurba_marseille","lat":43.305714,"lon":5.365633,"is_reserved":false,"is_disabled":false,"rental_uris":{"android":"levelo://app?vid=0cbffb1f-cad0-4903-8235-6ece12fb0071","ios":"levelo://app?vid=0cbffb1f-cad0-4903-8235-6ece12fb0071"},"vehicle_type_id":"4","last_reported":1703761545,"current_range_meters":26400,"station_id":"ce4bgs12rcd13ifvqcag","pricing_plan_id":"free"},{"bike_id":"50e7ae88-debc-4396-887a-aa6a1106b20a","system_id":"levelo_inurba_marseille","lat":43.305368,"lon":5.367343,"is_reserved":false,"is_disabled":false,"rental_uris":{"android":"levelo://app?vid=50e7ae88-debc-4396-887a-aa6a1106b20a","ios":"levelo://app?vid=50e7ae88-debc-4396-887a-aa6a1106b20a"},"vehicle_type_id":"4","last_reported":1703761545,"current_range_meters":20400,"station_id":"ce4bgrp2rcd13ifvqc9g","pricing_plan_id":"free"},{"bike_id":"f16e10f8-b94e-4bda-b17e-003a27b85f06","system_id":"levelo_inurba_marseille","lat":43.305368,"lon":5.367343,"is_reserved":false,"is_disabled":false,"rental_uris":{"android":"levelo://app?vid=f16e10f8-b94e-4bda-b17e-003a27b85f06","ios":"levelo://app?vid=f16e10f8-b94e-4bda-b17e-003a27b85f06"},"vehicle_type_id":"4","last_reported":1703761545,"current_range_meters":6800,"station_id":"ce4bgrp2rcd13ifvqc9g","pricing_plan_id":"free"},{"bike_id":"4531036c-47e6-4452-8124-16ab2a54f3ad","system_id":"levelo_inurba_marseille","lat":43.305714,"lon":5.365633,"is_reserved":false,"is_disabled":false,"rental_uris":{"android":"levelo://app?vid=4531036c-47e6-4452-8124-16ab2a54f3ad","ios":"levelo://app?vid=4531036c-47e6-4452-8124-16ab2a54f3ad"},"vehicle_type_id":"4","last_reported":1703761545,"current_range_meters":29200,"station_id":"ce4bgs12rcd13ifvqcag","pricing_plan_id":"free"},{"bike_id":"3df836d6-8357-4376-ab28-6100e07b9fcf","system_id":"levelo_inurba_marseille","lat":43.305368,"lon":5.367343,"is_reserved":false,"is_disabled":false,"rental_uris":{"android":"levelo://app?vid=3df836d6-8357-4376-ab28-6100e07b9fcf","ios":"levelo://app?vid=3df836d6-8357-4376-ab28-6100e07b9fcf"},"vehicle_type_id":"4","last_reported":1703761545,"current_range_meters":23200,"station_id":"ce4bgrp2rcd13ifvqc9g","pricing_plan_id":"free"},{"bike_id":"f68b0aee-9162-4847-a44b-fa0756808346","system_id":"levelo_inurba_marseille","lat":43.305706,"lon":5.365654,"is_reserved":false,"is_disabled":false,"rental_uris":{"android":"levelo://app?vid=f68b0aee-9162-4847-a44b-fa0756808346","ios":"levelo://app?vid=f68b0aee-9162-4847-a44b-fa0756808346"},"vehicle_type_id":"4","last_reported":1703761545,"current_range_meters":20800,"station_id":"ce4bgs12rcd13ifvqcag","pricing_plan_id":"free"},{"bike_id":"675c39b1-12e1-4e8e-9b7c-28061f1dcf30","system_id":"levelo_inurba_marseille","lat":43.305714,"lon":5.365633,"is_reserved":false,"is_disabled":false,"rental_uris":{"android":"levelo://app?vid=675c39b1-12e1-4e8e-9b7c-28061f1dcf30","ios":"levelo://app?vid=675c39b1-12e1-4e8e-9b7c-28061f1dcf30"},"vehicle_type_id":"4","last_reported":1703761545,"current_range_meters":31600,"station_id":"ce4bgs12rcd13ifvqcag","pricing_plan_id":"free"},{"bike_id":"d746d080-6dae-4dcc-851b-0fd2866e018e","system_id":"levelo_inurba_marseille","lat":43.305706,"lon":5.365654,"is_reserved":false,"is_disabled":false,"rental_uris":{"android":"levelo://app?vid=d746d080-6dae-4dcc-851b-0fd2866e018e","ios":"levelo://app?vid=d746d080-6dae-4dcc-851b-0fd2866e018e"},"vehicle_type_id":"4","last_reported":1703761545,"current_range_meters":25200,"station_id":"ce4bgs12rcd13ifvqcag","pricing_plan_id":"free"},{"bike_id":"8ff6552c-9333-4d2b-92a2-c4e0be3786ba","system_id":"levelo_inurba_marseille","lat":43.305706,"lon":5.365654,"is_reserved":false,"is_disabled":false,"rental_uris":{"android":"levelo://app?vid=8ff6552c-9333-4d2b-92a2-c4e0be3786ba","ios":"levelo://app?vid=8ff6552c-9333-4d2b-92a2-c4e0be3786ba"},"vehicle_type_id":"4","last_reported":1703761545,"current_range_meters":31200,"station_id":"ce4bgs12rcd13ifvqcag","pricing_plan_id":"free"},{"bike_id":"5451702c-d965-4da5-a046-286e1825a1e5","system_id":"levelo_inurba_marseille","lat":43.317075,"lon":5.377367,"is_reserved":false,"is_disabled":false,"rental_uris":{"android":"levelo://app?vid=5451702c-d965-4da5-a046-286e1825a1e5","ios":"levelo://app?vid=5451702c-d965-4da5-a046-286e1825a1e5"},"vehicle_type_id":"4","last_reported":1703761545,"current_range_meters":28800,"station_id":"ce4bgth2rcd13ifvqch0","pricing_plan_id":"free"},{"bike_id":"67c3ec81-67c2-4da9-82d6-98c14b4e580a","system_id":"levelo_inurba_marseille","lat":43.30304,"lon":5.368987,"is_reserved":false,"is_disabled":false,"rental_uris":{"android":"levelo://app?vid=67c3ec81-67c2-4da9-82d6-98c14b4e580a","ios":"levelo://app?vid=67c3ec81-67c2-4da9-82d6-98c14b4e580a"},"vehicle_type_id":"4","last_reported":1703761545,"current_range_meters":25200,"station_id":"ce4bgqh2rcd13ifvqc5g","pricing_plan_id":"free"},{"bike_id":"dca8f389-f651-4b7f-b5fd-49ab6145af3d","system_id":"levelo_inurba_marseille","lat":43.308012,"lon":5.381511,"is_reserved":false,"is_disabled":false,"rental_uris":{"android":"levelo://app?vid=dca8f389-f651-4b7f-b5fd-49ab6145af3d","ios":"levelo://app?vid=dca8f389-f651-4b7f-b5fd-49ab6145af3d"},"vehicle_type_id":"4","last_reported":1703761545,"current_range_meters":22800,"station_id":"ce4bgt12rcd13ifvqce0","pricing_plan_id":"free"},{"bike_id":"2e5d4941-5742-419c-acee-f4a33f2ac7db","system_id":"levelo_inurba_marseille","lat":43.304606,"lon":5.379026,"is_reserved":false,"is_disabled":false,"rental_uris":{"android":"levelo://app?vid=2e5d4941-5742-419c-acee-f4a33f2ac7db","ios":"levelo://app?vid=2e5d4941-5742-419c-acee-f4a33f2ac7db"},"vehicle_type_id":"4","last_reported":1703761545,"current_range_meters":13200,"station_id":"ce4bgup2rcd13ifvqcn0","pricing_plan_id":"free"},{"bike_id":"02ff113a-6d81-4b03-9f2e-6f5e66c0c9a4","system_id":"levelo_inurba_marseille","lat":43.304606,"lon":5.379026,"is_reserved":false,"is_disabled":false,"rental_uris":{"android":"levelo://app?vid=02ff113a-6d81-4b03-9f2e-6f5e66c0c9a4","ios":"levelo://app?vid=02ff113a-6d81-4b03-9f2e-6f5e66c0c9a4"},"vehicle_type_id":"4","last_reported":1703761545,"current_range_meters":23200,"station_id":"ce4bgup2rcd13ifvqcn0","pricing_plan_id":"free"},{"bike_id":"b7a32eaf-bba4-48dd-94d6-0eb29af62e45","system_id":"levelo_inurba_marseille","lat":43.30463,"lon":5.37909,"is_reserved":false,"is_disabled":false,"rental_uris":{"android":"levelo://app?vid=b7a32eaf-bba4-48dd-94d6-0eb29af62e45","ios":"levelo://app?vid=b7a32eaf-bba4-48dd-94d6-0eb29af62e45"},"vehicle_type_id":"4","last_reported":1703761545,"current_range_meters":6800,"station_id":"ce4bgup2rcd13ifvqcn0","pricing_plan_id":"free"},{"bike_id":"5810a51d-900e-4f21-b011-504985336ccb","system_id":"levelo_inurba_marseille","lat":43.324771,"lon":5.36557,"is_reserved":false,"is_disabled":false,"rental_uris":{"android":"levelo://app?vid=5810a51d-900e-4f21-b011-504985336ccb","ios":"levelo://app?vid=5810a51d-900e-4f21-b011-504985336ccb"},"vehicle_type_id":"4","last_reported":1703761545,"current_range_meters":22800,"station_id":"ce4bhs12rcd13ifvqhvg","pricing_plan_id":"free"},{"bike_id":"7eb0ef22-7c6c-4f7b-9f77-82d630fdbe14","system_id":"levelo_inurba_marseille","lat":43.304606,"lon":5.379026,"is_reserved":false,"is_disabled":false,"rental_uris":{"android":"levelo://app?vid=7eb0ef22-7c6c-4f7b-9f77-82d630fdbe14","ios":"levelo://app?vid=7eb0ef22-7c6c-4f7b-9f77-82d630fdbe14"},"vehicle_type_id":"4","last_reported":1703761545,"current_range_meters":24000,"station_id":"ce4bgup2rcd13ifvqcn0","pricing_plan_id":"free"},{"bike_id":"65a5bc48-fdb7-4909-98ac-a83f0d971e40","system_id":"levelo_inurba_marseille","lat":43.324771,"lon":5.36557,"is_reserved":false,"is_disabled":false,"rental_uris":{"android":"levelo://app?vid=65a5bc48-fdb7-4909-98ac-a83f0d971e40","ios":"levelo://app?vid=65a5bc48-fdb7-4909-98ac-a83f0d971e40"},"vehicle_type_id":"4","last_reported":1703761545,"current_range_meters":16800,"station_id":"ce4bhs12rcd13ifvqhvg","pricing_plan_id":"free"},{"bike_id":"eb75f652-373e-4726-9e33-c05a085e4a2d","system_id":"levelo_inurba_marseille","lat":43.301453,"lon":5.37416,"is_reserved":false,"is_disabled":false,"rental_uris":{"android":"levelo://app?vid=eb75f652-373e-4726-9e33-c05a085e4a2d","ios":"levelo://app?vid=eb75f652-373e-4726-9e33-c05a085e4a2d"},"vehicle_type_id":"4","last_reported":1703761545,"current_range_meters":6000,"station_id":"","pricing_plan_id":"free"},{"bike_id":"1488580c-3f61-4f0a-9ae3-e859937624f1","system_id":"levelo_inurba_marseille","lat":43.30143,"lon":5.37413,"is_reserved":false,"is_disabled":false,"rental_uris":{"android":"levelo://app?vid=1488580c-3f61-4f0a-9ae3-e859937624f1","ios":"levelo://app?vid=1488580c-3f61-4f0a-9ae3-e859937624f1"},"vehicle_type_id":"4","last_reported":1703761545,"current_range_meters":26400,"station_id":"ce4bgs92rcd13ifvqcc0","pricing_plan_id":"free"},{"bike_id":"88f16620-5cc0-44a5-9f0b-4f40cad1b43b","system_id":"levelo_inurba_marseille","lat":43.301429,"lon":5.37413,"is_reserved":false,"is_disabled":false,"rental_uris":{"android":"levelo://app?vid=88f16620-5cc0-44a5-9f0b-4f40cad1b43b","ios":"levelo://app?vid=88f16620-5cc0-44a5-9f0b-4f40cad1b43b"},"vehicle_type_id":"4","last_reported":1703761545,"current_range_meters":22000,"station_id":"ce4bgs92rcd13ifvqcc0","pricing_plan_id":"free"},{"bike_id":"d798eee3-c9cd-4e09-a137-162e27e1625e","system_id":"levelo_inurba_marseille","lat":43.320038,"lon":5.381607,"is_reserved":false,"is_disabled":false,"rental_uris":{"android":"levelo://app?vid=d798eee3-c9cd-4e09-a137-162e27e1625e","ios":"levelo://app?vid=d798eee3-c9cd-4e09-a137-162e27e1625e"},"vehicle_type_id":"4","last_reported":1703761545,"current_range_meters":26400,"station_id":"ce4bhr12rcd13ifvqhpg","pricing_plan_id":"free"},{"bike_id":"ef0b2b78-b9cc-47e5-98ab-f630cf55c574","system_id":"levelo_inurba_marseille","lat":43.313571,"lon":5.384829,"is_reserved":false,"is_disabled":false,"rental_uris":{"android":"levelo://app?vid=ef0b2b78-b9cc-47e5-98ab-f630cf55c574","ios":"levelo://app?vid=ef0b2b78-b9cc-47e5-98ab-f630cf55c574"},"vehicle_type_id":"4","last_reported":1703761545,"current_range_meters":29200,"station_id":"ce4bgt92rcd13ifvqcf0","pricing_plan_id":"free"},{"bike_id":"83c69a68-3449-4633-83b8-1cbd36eb94ae","system_id":"levelo_inurba_marseille","lat":43.313571,"lon":5.384829,"is_reserved":false,"is_disabled":false,"rental_uris":{"android":"levelo://app?vid=83c69a68-3449-4633-83b8-1cbd36eb94ae","ios":"levelo://app?vid=83c69a68-3449-4633-83b8-1cbd36eb94ae"},"vehicle_type_id":"4","last_reported":1703761545,"current_range_meters":28800,"station_id":"ce4bgt92rcd13ifvqcf0","pricing_plan_id":"free"},{"bike_id":"cb2a3117-62b8-4999-8cb0-fa2fb9984aa1","system_id":"levelo_inurba_marseille","lat":43.299222,"lon":5.365554,"is_reserved":false,"is_disabled":false,"rental_uris":{"android":"levelo://app?vid=cb2a3117-62b8-4999-8cb0-fa2fb9984aa1","ios":"levelo://app?vid=cb2a3117-62b8-4999-8cb0-fa2fb9984aa1"},"vehicle_type_id":"4","last_reported":1703761545,"current_range_meters":26800,"station_id":"ce4bgm92rcd13ifvqbr0","pricing_plan_id":"free"},{"bike_id":"a4ffb32c-701e-4a1b-a878-152397300238","system_id":"levelo_inurba_marseille","lat":43.305364,"lon":5.384119,"is_reserved":false,"is_disabled":false,"rental_uris":{"android":"levelo://app?vid=a4ffb32c-701e-4a1b-a878-152397300238","ios":"levelo://app?vid=a4ffb32c-701e-4a1b-a878-152397300238"},"vehicle_type_id":"4","last_reported":1703761545,"current_range_meters":28000,"station_id":"ce4bgg92rcd13ifvqb30","pricing_plan_id":"free"},{"bike_id":"92992bb6-d5c3-4b8e-8439-711388763210","system_id":"levelo_inurba_marseille","lat":43.298433,"lon":5.362774,"is_reserved":false,"is_disabled":false,"rental_uris":{"android":"levelo://app?vid=92992bb6-d5c3-4b8e-8439-711388763210","ios":"levelo://app?vid=92992bb6-d5c3-4b8e-8439-711388763210"},"vehicle_type_id":"4","last_reported":1703761545,"current_range_meters":26400,"station_id":"ce4bgpp2rcd13ifvqc3g","pricing_plan_id":"free"},{"bike_id":"ec92cc99-4328-4d02-a99d-38d1310566de","system_id":"levelo_inurba_marseille","lat":43.298433,"lon":5.362774,"is_reserved":false,"is_disabled":false,"rental_uris":{"android":"levelo://app?vid=ec92cc99-4328-4d02-a99d-38d1310566de","ios":"levelo://app?vid=ec92cc99-4328-4d02-a99d-38d1310566de"},"vehicle_type_id":"4","last_reported":1703761545,"current_range_meters":18400,"station_id":"ce4bgpp2rcd13ifvqc3g","pricing_plan_id":"free"},{"bike_id":"02da7cbc-fa72-4ba7-b916-4c176147ee1c","system_id":"levelo_inurba_marseille","lat":43.305364,"lon":5.384119,"is_reserved":false,"is_disabled":false,"rental_uris":{"android":"levelo://app?vid=02da7cbc-fa72-4ba7-b916-4c176147ee1c","ios":"levelo://app?vid=02da7cbc-fa72-4ba7-b916-4c176147ee1c"},"vehicle_type_id":"4","last_reported":1703761545,"current_range_meters":24000,"station_id":"ce4bgg92rcd13ifvqb30","pricing_plan_id":"free"},{"bike_id":"21e1be6d-9aa9-4908-8428-359e00528255","system_id":"levelo_inurba_marseille","lat":43.298433,"lon":5.362774,"is_reserved":false,"is_disabled":false,"rental_uris":{"android":"levelo://app?vid=21e1be6d-9aa9-4908-8428-359e00528255","ios":"levelo://app?vid=21e1be6d-9aa9-4908-8428-359e00528255"},"vehicle_type_id":"4","last_reported":1703761545,"current_range_meters":28400,"station_id":"ce4bgpp2rcd13ifvqc3g","pricing_plan_id":"free"},{"bike_id":"efe44b84-aa74-49b6-88b0-d6fdf704a8f4","system_id":"levelo_inurba_marseille","lat":43.298433,"lon":5.362774,"is_reserved":false,"is_disabled":false,"rental_uris":{"android":"levelo://app?vid=efe44b84-aa74-49b6-88b0-d6fdf704a8f4","ios":"levelo://app?vid=efe44b84-aa74-49b6-88b0-d6fdf704a8f4"},"vehicle_type_id":"4","last_reported":1703761545,"current_range_meters":30000,"station_id":"ce4bgpp2rcd13ifvqc3g","pricing_plan_id":"free"},{"bike_id":"643c7a75-863f-4c12-b647-f13a6073cdca","system_id":"levelo_inurba_marseille","lat":43.298433,"lon":5.362774,"is_reserved":false,"is_disabled":false,"rental_uris":{"android":"levelo://app?vid=643c7a75-863f-4c12-b647-f13a6073cdca","ios":"levelo://app?vid=643c7a75-863f-4c12-b647-f13a6073cdca"},"vehicle_type_id":"4","last_reported":1703761545,"current_range_meters":28000,"station_id":"ce4bgpp2rcd13ifvqc3g","pricing_plan_id":"free"},{"bike_id":"687096bb-4359-402b-a195-192a15a64910","system_id":"levelo_inurba_marseille","lat":43.29833,"lon":5.36257,"is_reserved":false,"is_disabled":false,"rental_uris":{"android":"levelo://app?vid=687096bb-4359-402b-a195-192a15a64910","ios":"levelo://app?vid=687096bb-4359-402b-a195-192a15a64910"},"vehicle_type_id":"4","last_reported":1703761545,"current_range_meters":28800,"station_id":"ce4bgpp2rcd13ifvqc3g","pricing_plan_id":"free"},{"bike_id":"7f36e65d-ec26-4c0b-bfa8-090b7e29db92","system_id":"levelo_inurba_marseille","lat":43.299243,"lon":5.37481,"is_reserved":false,"is_disabled":false,"rental_uris":{"android":"levelo://app?vid=7f36e65d-ec26-4c0b-bfa8-090b7e29db92","ios":"levelo://app?vid=7f36e65d-ec26-4c0b-bfa8-090b7e29db92"},"vehicle_type_id":"4","last_reported":1703761545,"current_range_meters":26800,"station_id":"ce4bgjh2rcd13ifvqbg0","pricing_plan_id":"free"},{"bike_id":"7119845d-00aa-4d9f-be8c-fc97d41f1380","system_id":"levelo_inurba_marseille","lat":43.32638,"lon":5.375077,"is_reserved":false,"is_disabled":false,"rental_uris":{"android":"levelo://app?vid=7119845d-00aa-4d9f-be8c-fc97d41f1380","ios":"levelo://app?vid=7119845d-00aa-4d9f-be8c-fc97d41f1380"},"vehicle_type_id":"4","last_reported":1703761545,"current_range_meters":21600,"station_id":"","pricing_plan_id":"free"},{"bike_id":"b80d7642-fe96-4085-a572-f27716682acd","system_id":"levelo_inurba_marseille","lat":43.322872,"lon":5.382756,"is_reserved":false,"is_disabled":false,"rental_uris":{"android":"levelo://app?vid=b80d7642-fe96-4085-a572-f27716682acd","ios":"levelo://app?vid=b80d7642-fe96-4085-a572-f27716682acd"},"vehicle_type_id":"4","last_reported":1703761545,"current_range_meters":15600,"station_id":"ce4bhr12rcd13ifvqhqg","pricing_plan_id":"free"},{"bike_id":"6d1471f8-bce9-466e-a589-4a37d3811250","system_id":"levelo_inurba_marseille","lat":43.322872,"lon":5.382756,"is_reserved":false,"is_disabled":false,"rental_uris":{"android":"levelo://app?vid=6d1471f8-bce9-466e-a589-4a37d3811250","ios":"levelo://app?vid=6d1471f8-bce9-466e-a589-4a37d3811250"},"vehicle_type_id":"4","last_reported":1703761545,"current_range_meters":31600,"station_id":"ce4bhr12rcd13ifvqhqg","pricing_plan_id":"free"},{"bike_id":"cada3c22-f541-4194-9be2-fadc3fe9e187","system_id":"levelo_inurba_marseille","lat":43.322872,"lon":5.382756,"is_reserved":false,"is_disabled":false,"rental_uris":{"android":"levelo://app?vid=cada3c22-f541-4194-9be2-fadc3fe9e187","ios":"levelo://app?vid=cada3c22-f541-4194-9be2-fadc3fe9e187"},"vehicle_type_id":"4","last_reported":1703761545,"current_range_meters":17600,"station_id":"ce4bhr12rcd13ifvqhqg","pricing_plan_id":"free"},{"bike_id":"0a0a41d2-3c00-48f6-882d-b27afb73fe78","system_id":"levelo_inurba_marseille","lat":43.322872,"lon":5.382756,"is_reserved":false,"is_disabled":false,"rental_uris":{"android":"levelo://app?vid=0a0a41d2-3c00-48f6-882d-b27afb73fe78","ios":"levelo://app?vid=0a0a41d2-3c00-48f6-882d-b27afb73fe78"},"vehicle_type_id":"4","last_reported":1703761545,"current_range_meters":29200,"station_id":"ce4bhr12rcd13ifvqhqg","pricing_plan_id":"free"},{"bike_id":"63961824-470b-4769-af8f-257f972165a7","system_id":"levelo_inurba_marseille","lat":43.32291,"lon":5.38274,"is_reserved":false,"is_disabled":false,"rental_uris":{"android":"levelo://app?vid=63961824-470b-4769-af8f-257f972165a7","ios":"levelo://app?vid=63961824-470b-4769-af8f-257f972165a7"},"vehicle_type_id":"4","last_reported":1703761545,"current_range_meters":8000,"station_id":"ce4bhr12rcd13ifvqhqg","pricing_plan_id":"free"},{"bike_id":"3270f28d-7b09-46cb-ba43-f40752fc3385","system_id":"levelo_inurba_marseille","lat":43.322872,"lon":5.382756,"is_reserved":false,"is_disabled":false,"rental_uris":{"android":"levelo://app?vid=3270f28d-7b09-46cb-ba43-f40752fc3385","ios":"levelo://app?vid=3270f28d-7b09-46cb-ba43-f40752fc3385"},"vehicle_type_id":"4","last_reported":1703761545,"current_range_meters":31200,"station_id":"ce4bhr12rcd13ifvqhqg","pricing_plan_id":"free"},{"bike_id":"b30b3d1b-ef61-4776-bd7b-61c34fd8cc81","system_id":"levelo_inurba_marseille","lat":43.328236,"lon":5.36676,"is_reserved":false,"is_disabled":false,"rental_uris":{"android":"levelo://app?vid=b30b3d1b-ef61-4776-bd7b-61c34fd8cc81","ios":"levelo://app?vid=b30b3d1b-ef61-4776-bd7b-61c34fd8cc81"},"vehicle_type_id":"4","last_reported":1703761545,"current_range_meters":18800,"station_id":"ce4bhs92rcd13ifvqi0g","pricing_plan_id":"free"},{"bike_id":"639980c6-9f73-401a-b944-961e7482aee9","system_id":"levelo_inurba_marseille","lat":43.328243,"lon":5.366794,"is_reserved":false,"is_disabled":false,"rental_uris":{"android":"levelo://app?vid=639980c6-9f73-401a-b944-961e7482aee9","ios":"levelo://app?vid=639980c6-9f73-401a-b944-961e7482aee9"},"vehicle_type_id":"4","last_reported":1703761545,"current_range_meters":6800,"station_id":"ce4bhs92rcd13ifvqi0g","pricing_plan_id":"free"},{"bike_id":"6516e11b-ff9a-4979-b85a-a42584b5c933","system_id":"levelo_inurba_marseille","lat":43.32825,"lon":5.36682,"is_reserved":false,"is_disabled":false,"rental_uris":{"android":"levelo://app?vid=6516e11b-ff9a-4979-b85a-a42584b5c933","ios":"levelo://app?vid=6516e11b-ff9a-4979-b85a-a42584b5c933"},"vehicle_type_id":"4","last_reported":1703761545,"current_range_meters":24400,"station_id":"ce4bhs92rcd13ifvqi0g","pricing_plan_id":"free"},{"bike_id":"ddee1e46-a8ad-4997-9dc5-136753741280","system_id":"levelo_inurba_marseille","lat":43.32825,"lon":5.36672,"is_reserved":false,"is_disabled":false,"rental_uris":{"android":"levelo://app?vid=ddee1e46-a8ad-4997-9dc5-136753741280","ios":"levelo://app?vid=ddee1e46-a8ad-4997-9dc5-136753741280"},"vehicle_type_id":"4","last_reported":1703761545,"current_range_meters":26800,"station_id":"ce4bhs92rcd13ifvqi0g","pricing_plan_id":"free"},{"bike_id":"1ea82e61-37ea-4b15-a6ef-01d29683b9fd","system_id":"levelo_inurba_marseille","lat":43.32827,"lon":5.36674,"is_reserved":false,"is_disabled":false,"rental_uris":{"android":"levelo://app?vid=1ea82e61-37ea-4b15-a6ef-01d29683b9fd","ios":"levelo://app?vid=1ea82e61-37ea-4b15-a6ef-01d29683b9fd"},"vehicle_type_id":"4","last_reported":1703761545,"current_range_meters":21200,"station_id":"ce4bhs92rcd13ifvqi0g","pricing_plan_id":"free"},{"bike_id":"5c89eee7-6e83-42b4-bd81-efdcf68f6666","system_id":"levelo_inurba_marseille","lat":43.328274,"lon":5.366823,"is_reserved":false,"is_disabled":false,"rental_uris":{"android":"levelo://app?vid=5c89eee7-6e83-42b4-bd81-efdcf68f6666","ios":"levelo://app?vid=5c89eee7-6e83-42b4-bd81-efdcf68f6666"},"vehicle_type_id":"4","last_reported":1703761545,"current_range_meters":28400,"station_id":"ce4bhs92rcd13ifvqi0g","pricing_plan_id":"free"},{"bike_id":"a677cd10-a09b-4b2e-bffd-45b05d2c9229","system_id":"levelo_inurba_marseille","lat":43.32828,"lon":5.36679,"is_reserved":false,"is_disabled":false,"rental_uris":{"android":"levelo://app?vid=a677cd10-a09b-4b2e-bffd-45b05d2c9229","ios":"levelo://app?vid=a677cd10-a09b-4b2e-bffd-45b05d2c9229"},"vehicle_type_id":"4","last_reported":1703761545,"current_range_meters":26000,"station_id":"ce4bhs92rcd13ifvqi0g","pricing_plan_id":"free"},{"bike_id":"51714c4a-3132-4951-88ec-80e85fa125e8","system_id":"levelo_inurba_marseille","lat":43.328281,"lon":5.366832,"is_reserved":false,"is_disabled":false,"rental_uris":{"android":"levelo://app?vid=51714c4a-3132-4951-88ec-80e85fa125e8","ios":"levelo://app?vid=51714c4a-3132-4951-88ec-80e85fa125e8"},"vehicle_type_id":"4","last_reported":1703761545,"current_range_meters":19600,"station_id":"ce4bhs92rcd13ifvqi0g","pricing_plan_id":"free"},{"bike_id":"de708f00-7118-4d7c-9021-d7dcbd798473","system_id":"levelo_inurba_marseille","lat":43.328371,"lon":5.366909,"is_reserved":false,"is_disabled":false,"rental_uris":{"android":"levelo://app?vid=de708f00-7118-4d7c-9021-d7dcbd798473","ios":"levelo://app?vid=de708f00-7118-4d7c-9021-d7dcbd798473"},"vehicle_type_id":"4","last_reported":1703761545,"current_range_meters":16800,"station_id":"ce4bhs92rcd13ifvqi0g","pricing_plan_id":"free"},{"bike_id":"ea7074d7-b7c9-4941-82c2-dff391bae9cb","system_id":"levelo_inurba_marseille","lat":43.32831,"lon":5.36675,"is_reserved":false,"is_disabled":false,"rental_uris":{"android":"levelo://app?vid=ea7074d7-b7c9-4941-82c2-dff391bae9cb","ios":"levelo://app?vid=ea7074d7-b7c9-4941-82c2-dff391bae9cb"},"vehicle_type_id":"4","last_reported":1703761545,"current_range_meters":15600,"station_id":"ce4bhs92rcd13ifvqi0g","pricing_plan_id":"free"},{"bike_id":"904f83aa-e9ab-401d-84c1-9edfed82b884","system_id":"levelo_inurba_marseille","lat":43.328371,"lon":5.366912,"is_reserved":false,"is_disabled":false,"rental_uris":{"android":"levelo://app?vid=904f83aa-e9ab-401d-84c1-9edfed82b884","ios":"levelo://app?vid=904f83aa-e9ab-401d-84c1-9edfed82b884"},"vehicle_type_id":"4","last_reported":1703761545,"current_range_meters":10400,"station_id":"ce4bhs92rcd13ifvqi0g","pricing_plan_id":"free"},{"bike_id":"a448ca86-2b35-41e1-89c4-32a99bab0563","system_id":"levelo_inurba_marseille","lat":43.328371,"lon":5.366912,"is_reserved":false,"is_disabled":false,"rental_uris":{"android":"levelo://app?vid=a448ca86-2b35-41e1-89c4-32a99bab0563","ios":"levelo://app?vid=a448ca86-2b35-41e1-89c4-32a99bab0563"},"vehicle_type_id":"4","last_reported":1703761545,"current_range_meters":24400,"station_id":"ce4bhs92rcd13ifvqi0g","pricing_plan_id":"free"},{"bike_id":"b33e79d7-85bd-413c-801b-bcd1df69d847","system_id":"levelo_inurba_marseille","lat":43.32832,"lon":5.36682,"is_reserved":false,"is_disabled":false,"rental_uris":{"android":"levelo://app?vid=b33e79d7-85bd-413c-801b-bcd1df69d847","ios":"levelo://app?vid=b33e79d7-85bd-413c-801b-bcd1df69d847"},"vehicle_type_id":"4","last_reported":1703761545,"current_range_meters":17600,"station_id":"ce4bhs92rcd13ifvqi0g","pricing_plan_id":"free"},{"bike_id":"6f67326a-1664-406f-9978-902e013e2357","system_id":"levelo_inurba_marseille","lat":43.32832,"lon":5.36679,"is_reserved":false,"is_disabled":false,"rental_uris":{"android":"levelo://app?vid=6f67326a-1664-406f-9978-902e013e2357","ios":"levelo://app?vid=6f67326a-1664-406f-9978-902e013e2357"},"vehicle_type_id":"4","last_reported":1703761545,"current_range_meters":23600,"station_id":"ce4bhs92rcd13ifvqi0g","pricing_plan_id":"free"},{"bike_id":"c7fc41a9-7b44-4a35-810f-08efbab83604","system_id":"levelo_inurba_marseille","lat":43.297163,"lon":5.365866,"is_reserved":false,"is_disabled":false,"rental_uris":{"android":"levelo://app?vid=c7fc41a9-7b44-4a35-810f-08efbab83604","ios":"levelo://app?vid=c7fc41a9-7b44-4a35-810f-08efbab83604"},"vehicle_type_id":"4","last_reported":1703761545,"current_range_meters":30800,"station_id":"ce4bgn12rcd13ifvqbt0","pricing_plan_id":"free"},{"bike_id":"59f2c11b-a230-4925-839e-bdb370c75a48","system_id":"levelo_inurba_marseille","lat":43.2968,"lon":5.37291,"is_reserved":false,"is_disabled":false,"rental_uris":{"android":"levelo://app?vid=59f2c11b-a230-4925-839e-bdb370c75a48","ios":"levelo://app?vid=59f2c11b-a230-4925-839e-bdb370c75a48"},"vehicle_type_id":"4","last_reported":1703761545,"current_range_meters":30800,"station_id":"ce4bgk12rcd13ifvqbj0","pricing_plan_id":"free"},{"bike_id":"921b424d-ad0d-4c7a-9d74-66e3a49bfa19","system_id":"levelo_inurba_marseille","lat":43.32934,"lon":5.36612,"is_reserved":false,"is_disabled":false,"rental_uris":{"android":"levelo://app?vid=921b424d-ad0d-4c7a-9d74-66e3a49bfa19","ios":"levelo://app?vid=921b424d-ad0d-4c7a-9d74-66e3a49bfa19"},"vehicle_type_id":"4","last_reported":1703761545,"current_range_meters":13600,"station_id":"","pricing_plan_id":"free"},{"bike_id":"5134ee40-299b-4a69-82d8-6ba0e51cc493","system_id":"levelo_inurba_marseille","lat":43.296131,"lon":5.370791,"is_reserved":false,"is_disabled":false,"rental_uris":{"android":"levelo://app?vid=5134ee40-299b-4a69-82d8-6ba0e51cc493","ios":"levelo://app?vid=5134ee40-299b-4a69-82d8-6ba0e51cc493"},"vehicle_type_id":"4","last_reported":1703761545,"current_range_meters":29200,"station_id":"ce4bgnh2rcd13ifvqc0g","pricing_plan_id":"free"},{"bike_id":"3e5a2a2b-2ee5-4de5-8e61-35198a6e4521","system_id":"levelo_inurba_marseille","lat":43.29573,"lon":5.367355,"is_reserved":false,"is_disabled":false,"rental_uris":{"android":"levelo://app?vid=3e5a2a2b-2ee5-4de5-8e61-35198a6e4521","ios":"levelo://app?vid=3e5a2a2b-2ee5-4de5-8e61-35198a6e4521"},"vehicle_type_id":"4","last_reported":1703761545,"current_range_meters":31200,"station_id":"ce4bgph2rcd13ifvqc2g","pricing_plan_id":"free"},{"bike_id":"67667075-a860-466b-9b95-f7782ffc342a","system_id":"levelo_inurba_marseille","lat":43.296131,"lon":5.370791,"is_reserved":false,"is_disabled":false,"rental_uris":{"android":"levelo://app?vid=67667075-a860-466b-9b95-f7782ffc342a","ios":"levelo://app?vid=67667075-a860-466b-9b95-f7782ffc342a"},"vehicle_type_id":"4","last_reported":1703761545,"current_range_meters":24800,"station_id":"ce4bgnh2rcd13ifvqc0g","pricing_plan_id":"free"},{"bike_id":"4394c1bb-dd17-48a3-9f23-64b06876ff55","system_id":"levelo_inurba_marseille","lat":43.29573,"lon":5.367355,"is_reserved":false,"is_disabled":false,"rental_uris":{"android":"levelo://app?vid=4394c1bb-dd17-48a3-9f23-64b06876ff55","ios":"levelo://app?vid=4394c1bb-dd17-48a3-9f23-64b06876ff55"},"vehicle_type_id":"4","last_reported":1703761545,"current_range_meters":30400,"station_id":"ce4bgph2rcd13ifvqc2g","pricing_plan_id":"free"},{"bike_id":"1ff4ab14-af2d-491b-b2a2-2b24290aecd4","system_id":"levelo_inurba_marseille","lat":43.309589,"lon":5.390258,"is_reserved":false,"is_disabled":false,"rental_uris":{"android":"levelo://app?vid=1ff4ab14-af2d-491b-b2a2-2b24290aecd4","ios":"levelo://app?vid=1ff4ab14-af2d-491b-b2a2-2b24290aecd4"},"vehicle_type_id":"4","last_reported":1703761545,"current_range_meters":24400,"station_id":"ce4bgup2rcd13ifvqco0","pricing_plan_id":"free"},{"bike_id":"6995f1c2-9be8-4f99-80f9-d1da1a83dd1a","system_id":"levelo_inurba_marseille","lat":43.298037,"lon":5.381066,"is_reserved":false,"is_disabled":false,"rental_uris":{"android":"levelo://app?vid=6995f1c2-9be8-4f99-80f9-d1da1a83dd1a","ios":"levelo://app?vid=6995f1c2-9be8-4f99-80f9-d1da1a83dd1a"},"vehicle_type_id":"4","last_reported":1703761545,"current_range_meters":23200,"station_id":"ce4bgip2rcd13ifvqbb0","pricing_plan_id":"free"},{"bike_id":"a5648590-7f67-4abf-a548-b0d3a6c27c51","system_id":"levelo_inurba_marseille","lat":43.295748,"lon":5.37522,"is_reserved":false,"is_disabled":false,"rental_uris":{"android":"levelo://app?vid=a5648590-7f67-4abf-a548-b0d3a6c27c51","ios":"levelo://app?vid=a5648590-7f67-4abf-a548-b0d3a6c27c51"},"vehicle_type_id":"4","last_reported":1703761545,"current_range_meters":28000,"station_id":"ce4bgh92rcd13ifvqb50","pricing_plan_id":"free"},{"bike_id":"6f276d82-9bf1-48cf-863a-4f4e69c7be22","system_id":"levelo_inurba_marseille","lat":43.296263,"lon":5.377094,"is_reserved":false,"is_disabled":false,"rental_uris":{"android":"levelo://app?vid=6f276d82-9bf1-48cf-863a-4f4e69c7be22","ios":"levelo://app?vid=6f276d82-9bf1-48cf-863a-4f4e69c7be22"},"vehicle_type_id":"4","last_reported":1703761545,"current_range_meters":14800,"station_id":"ce4bgi92rcd13ifvqb90","pricing_plan_id":"free"},{"bike_id":"2ada779e-81be-4315-9a18-5af47b57c89d","system_id":"levelo_inurba_marseille","lat":43.296277,"lon":5.377108,"is_reserved":false,"is_disabled":false,"rental_uris":{"android":"levelo://app?vid=2ada779e-81be-4315-9a18-5af47b57c89d","ios":"levelo://app?vid=2ada779e-81be-4315-9a18-5af47b57c89d"},"vehicle_type_id":"4","last_reported":1703761545,"current_range_meters":26400,"station_id":"ce4bgi92rcd13ifvqb90","pricing_plan_id":"free"},{"bike_id":"3392fcd8-b3a5-4a96-80b7-103b496b37f9","system_id":"levelo_inurba_marseille","lat":43.29615,"lon":5.37725,"is_reserved":false,"is_disabled":false,"rental_uris":{"android":"levelo://app?vid=3392fcd8-b3a5-4a96-80b7-103b496b37f9","ios":"levelo://app?vid=3392fcd8-b3a5-4a96-80b7-103b496b37f9"},"vehicle_type_id":"4","last_reported":1703761545,"current_range_meters":12800,"station_id":"ce4bgi92rcd13ifvqb90","pricing_plan_id":"free"},{"bike_id":"c2df9276-b925-48ff-8a39-5fb9f24b768b","system_id":"levelo_inurba_marseille","lat":43.296277,"lon":5.377108,"is_reserved":false,"is_disabled":false,"rental_uris":{"android":"levelo://app?vid=c2df9276-b925-48ff-8a39-5fb9f24b768b","ios":"levelo://app?vid=c2df9276-b925-48ff-8a39-5fb9f24b768b"},"vehicle_type_id":"4","last_reported":1703761545,"current_range_meters":21600,"station_id":"ce4bgi92rcd13ifvqb90","pricing_plan_id":"free"},{"bike_id":"db5d9165-75c5-4d96-81bf-6e4f9355e6ca","system_id":"levelo_inurba_marseille","lat":43.299707,"lon":5.384859,"is_reserved":false,"is_disabled":false,"rental_uris":{"android":"levelo://app?vid=db5d9165-75c5-4d96-81bf-6e4f9355e6ca","ios":"levelo://app?vid=db5d9165-75c5-4d96-81bf-6e4f9355e6ca"},"vehicle_type_id":"4","last_reported":1703761545,"current_range_meters":27600,"station_id":"ce4bgj92rcd13ifvqbd0","pricing_plan_id":"free"},{"bike_id":"c8eaf50a-22e6-4620-96f6-b3536b7518f7","system_id":"levelo_inurba_marseille","lat":43.295279,"lon":5.375048,"is_reserved":false,"is_disabled":false,"rental_uris":{"android":"levelo://app?vid=c8eaf50a-22e6-4620-96f6-b3536b7518f7","ios":"levelo://app?vid=c8eaf50a-22e6-4620-96f6-b3536b7518f7"},"vehicle_type_id":"4","last_reported":1703761545,"current_range_meters":1200,"station_id":"ce4bgkp2rcd13ifvqbmg","pricing_plan_id":"free"},{"bike_id":"9466f41a-ea04-451b-9216-661bfc19ed06","system_id":"levelo_inurba_marseille","lat":43.299724,"lon":5.384848,"is_reserved":false,"is_disabled":false,"rental_uris":{"android":"levelo://app?vid=9466f41a-ea04-451b-9216-661bfc19ed06","ios":"levelo://app?vid=9466f41a-ea04-451b-9216-661bfc19ed06"},"vehicle_type_id":"4","last_reported":1703761545,"current_range_meters":23600,"station_id":"ce4bgj92rcd13ifvqbd0","pricing_plan_id":"free"},{"bike_id":"62c38233-db55-41e7-88e5-65ccf3dad4f7","system_id":"levelo_inurba_marseille","lat":43.299724,"lon":5.384848,"is_reserved":false,"is_disabled":false,"rental_uris":{"android":"levelo://app?vid=62c38233-db55-41e7-88e5-65ccf3dad4f7","ios":"levelo://app?vid=62c38233-db55-41e7-88e5-65ccf3dad4f7"},"vehicle_type_id":"4","last_reported":1703761545,"current_range_meters":22400,"station_id":"ce4bgj92rcd13ifvqbd0","pricing_plan_id":"free"},{"bike_id":"edc571ac-79f5-429a-89f8-86fa7ab8f6ba","system_id":"levelo_inurba_marseille","lat":43.323694,"lon":5.389277,"is_reserved":false,"is_disabled":false,"rental_uris":{"android":"levelo://app?vid=edc571ac-79f5-429a-89f8-86fa7ab8f6ba","ios":"levelo://app?vid=edc571ac-79f5-429a-89f8-86fa7ab8f6ba"},"vehicle_type_id":"4","last_reported":1703761545,"current_range_meters":18400,"station_id":"ce4bhqp2rcd13ifvqhog","pricing_plan_id":"free"},{"bike_id":"e2d85f20-e372-4bd6-b3e1-5da8fe2b05ef","system_id":"levelo_inurba_marseille","lat":43.293259,"lon":5.371586,"is_reserved":false,"is_disabled":false,"rental_uris":{"android":"levelo://app?vid=e2d85f20-e372-4bd6-b3e1-5da8fe2b05ef","ios":"levelo://app?vid=e2d85f20-e372-4bd6-b3e1-5da8fe2b05ef"},"vehicle_type_id":"4","last_reported":1703761545,"current_range_meters":30800,"station_id":"ce4bgh92rcd13ifvqb40","pricing_plan_id":"free"},{"bike_id":"9d30113f-584f-4b16-9bcb-0c99e8b4abb7","system_id":"levelo_inurba_marseille","lat":43.293259,"lon":5.371586,"is_reserved":false,"is_disabled":false,"rental_uris":{"android":"levelo://app?vid=9d30113f-584f-4b16-9bcb-0c99e8b4abb7","ios":"levelo://app?vid=9d30113f-584f-4b16-9bcb-0c99e8b4abb7"},"vehicle_type_id":"4","last_reported":1703761545,"current_range_meters":22800,"station_id":"ce4bgh92rcd13ifvqb40","pricing_plan_id":"free"},{"bike_id":"7c549a9a-6082-43be-be31-4cbd66357523","system_id":"levelo_inurba_marseille","lat":43.293259,"lon":5.371586,"is_reserved":false,"is_disabled":false,"rental_uris":{"android":"levelo://app?vid=7c549a9a-6082-43be-be31-4cbd66357523","ios":"levelo://app?vid=7c549a9a-6082-43be-be31-4cbd66357523"},"vehicle_type_id":"4","last_reported":1703761545,"current_range_meters":30400,"station_id":"ce4bgh92rcd13ifvqb40","pricing_plan_id":"free"},{"bike_id":"a604fd3c-4637-48a6-8df9-74e6cbe8abe9","system_id":"levelo_inurba_marseille","lat":43.293009,"lon":5.374584,"is_reserved":false,"is_disabled":false,"rental_uris":{"android":"levelo://app?vid=a604fd3c-4637-48a6-8df9-74e6cbe8abe9","ios":"levelo://app?vid=a604fd3c-4637-48a6-8df9-74e6cbe8abe9"},"vehicle_type_id":"4","last_reported":1703761545,"current_range_meters":20000,"station_id":"ce4bgi12rcd13ifvqb70","pricing_plan_id":"free"},{"bike_id":"3988bbd2-fe28-457c-8d0d-45737cccdea6","system_id":"levelo_inurba_marseille","lat":43.293009,"lon":5.374584,"is_reserved":false,"is_disabled":false,"rental_uris":{"android":"levelo://app?vid=3988bbd2-fe28-457c-8d0d-45737cccdea6","ios":"levelo://app?vid=3988bbd2-fe28-457c-8d0d-45737cccdea6"},"vehicle_type_id":"4","last_reported":1703761545,"current_range_meters":31600,"station_id":"ce4bgi12rcd13ifvqb70","pricing_plan_id":"free"},{"bike_id":"ca990669-812e-4067-acd4-980defb1dc06","system_id":"levelo_inurba_marseille","lat":43.303002,"lon":5.392142,"is_reserved":false,"is_disabled":false,"rental_uris":{"android":"levelo://app?vid=ca990669-812e-4067-acd4-980defb1dc06","ios":"levelo://app?vid=ca990669-812e-4067-acd4-980defb1dc06"},"vehicle_type_id":"4","last_reported":1703761545,"current_range_meters":30800,"station_id":"ce4bgkh2rcd13ifvqbk0","pricing_plan_id":"free"},{"bike_id":"9b65a26c-487b-45ea-808d-9f544480aa28","system_id":"levelo_inurba_marseille","lat":43.2936,"lon":5.37835,"is_reserved":false,"is_disabled":false,"rental_uris":{"android":"levelo://app?vid=9b65a26c-487b-45ea-808d-9f544480aa28","ios":"levelo://app?vid=9b65a26c-487b-45ea-808d-9f544480aa28"},"vehicle_type_id":"4","last_reported":1703761545,"current_range_meters":26400,"station_id":"ce4bgjh2rcd13ifvqbf0","pricing_plan_id":"free"},{"bike_id":"54d635c2-77bb-4cd3-8613-3fc95ec2c8d5","system_id":"levelo_inurba_marseille","lat":43.2936,"lon":5.37835,"is_reserved":false,"is_disabled":false,"rental_uris":{"android":"levelo://app?vid=54d635c2-77bb-4cd3-8613-3fc95ec2c8d5","ios":"levelo://app?vid=54d635c2-77bb-4cd3-8613-3fc95ec2c8d5"},"vehicle_type_id":"4","last_reported":1703761545,"current_range_meters":29200,"station_id":"ce4bgjh2rcd13ifvqbf0","pricing_plan_id":"free"},{"bike_id":"66934ba6-baf2-4179-99c3-2bbd3468ea4d","system_id":"levelo_inurba_marseille","lat":43.302992,"lon":5.392136,"is_reserved":false,"is_disabled":false,"rental_uris":{"android":"levelo://app?vid=66934ba6-baf2-4179-99c3-2bbd3468ea4d","ios":"levelo://app?vid=66934ba6-baf2-4179-99c3-2bbd3468ea4d"},"vehicle_type_id":"4","last_reported":1703761545,"current_range_meters":25200,"station_id":"ce4bgkh2rcd13ifvqbk0","pricing_plan_id":"free"},{"bike_id":"e06e0653-ec26-4b31-8fc9-adcaadcf423a","system_id":"levelo_inurba_marseille","lat":43.2936,"lon":5.37835,"is_reserved":false,"is_disabled":false,"rental_uris":{"android":"levelo://app?vid=e06e0653-ec26-4b31-8fc9-adcaadcf423a","ios":"levelo://app?vid=e06e0653-ec26-4b31-8fc9-adcaadcf423a"},"vehicle_type_id":"4","last_reported":1703761545,"current_range_meters":30800,"station_id":"ce4bgjh2rcd13ifvqbf0","pricing_plan_id":"free"},{"bike_id":"3b4ea332-ddbd-4da7-b647-66b7ca2f9c90","system_id":"levelo_inurba_marseille","lat":43.292311,"lon":5.360731,"is_reserved":false,"is_disabled":false,"rental_uris":{"android":"levelo://app?vid=3b4ea332-ddbd-4da7-b647-66b7ca2f9c90","ios":"levelo://app?vid=3b4ea332-ddbd-4da7-b647-66b7ca2f9c90"},"vehicle_type_id":"4","last_reported":1703761545,"current_range_meters":23600,"station_id":"ce4bhbh2rcd13ifvqeqg","pricing_plan_id":"free"},{"bike_id":"f256d401-b220-4f7c-a233-f20fcd9b1c34","system_id":"levelo_inurba_marseille","lat":43.291671,"lon":5.371575,"is_reserved":false,"is_disabled":false,"rental_uris":{"android":"levelo://app?vid=f256d401-b220-4f7c-a233-f20fcd9b1c34","ios":"levelo://app?vid=f256d401-b220-4f7c-a233-f20fcd9b1c34"},"vehicle_type_id":"4","last_reported":1703761545,"current_range_meters":28800,"station_id":"ce4bha92rcd13ifvqeh0","pricing_plan_id":"free"},{"bike_id":"c1db25f5-5d61-4b4c-92f6-80715b1de172","system_id":"levelo_inurba_marseille","lat":43.292607,"lon":5.376229,"is_reserved":false,"is_disabled":false,"rental_uris":{"android":"levelo://app?vid=c1db25f5-5d61-4b4c-92f6-80715b1de172","ios":"levelo://app?vid=c1db25f5-5d61-4b4c-92f6-80715b1de172"},"vehicle_type_id":"4","last_reported":1703761545,"current_range_meters":24400,"station_id":"","pricing_plan_id":"free"},{"bike_id":"743ae948-9016-4915-a693-e4388d89be48","system_id":"levelo_inurba_marseille","lat":43.291675,"lon":5.371583,"is_reserved":false,"is_disabled":false,"rental_uris":{"android":"levelo://app?vid=743ae948-9016-4915-a693-e4388d89be48","ios":"levelo://app?vid=743ae948-9016-4915-a693-e4388d89be48"},"vehicle_type_id":"4","last_reported":1703761545,"current_range_meters":31200,"station_id":"ce4bha92rcd13ifvqeh0","pricing_plan_id":"free"},{"bike_id":"94d2eb92-0e95-4bff-8e08-d5e1aa9eb091","system_id":"levelo_inurba_marseille","lat":43.291675,"lon":5.371583,"is_reserved":false,"is_disabled":false,"rental_uris":{"android":"levelo://app?vid=94d2eb92-0e95-4bff-8e08-d5e1aa9eb091","ios":"levelo://app?vid=94d2eb92-0e95-4bff-8e08-d5e1aa9eb091"},"vehicle_type_id":"4","last_reported":1703761545,"current_range_meters":17600,"station_id":"ce4bha92rcd13ifvqeh0","pricing_plan_id":"free"},{"bike_id":"da0eed94-9481-425f-983b-d7dcd05e44d7","system_id":"levelo_inurba_marseille","lat":43.29869,"lon":5.38906,"is_reserved":false,"is_disabled":false,"rental_uris":{"android":"levelo://app?vid=da0eed94-9481-425f-983b-d7dcd05e44d7","ios":"levelo://app?vid=da0eed94-9481-425f-983b-d7dcd05e44d7"},"vehicle_type_id":"4","last_reported":1703761545,"current_range_meters":13600,"station_id":"","pricing_plan_id":"free"},{"bike_id":"42304f79-5140-4757-8e7c-d8057bca2cb0","system_id":"levelo_inurba_marseille","lat":43.291671,"lon":5.371575,"is_reserved":false,"is_disabled":false,"rental_uris":{"android":"levelo://app?vid=42304f79-5140-4757-8e7c-d8057bca2cb0","ios":"levelo://app?vid=42304f79-5140-4757-8e7c-d8057bca2cb0"},"vehicle_type_id":"4","last_reported":1703761545,"current_range_meters":25200,"station_id":"ce4bha92rcd13ifvqeh0","pricing_plan_id":"free"},{"bike_id":"87414d27-bfcc-407d-aca6-16d401cc3ab7","system_id":"levelo_inurba_marseille","lat":43.291994,"lon":5.357886,"is_reserved":false,"is_disabled":false,"rental_uris":{"android":"levelo://app?vid=87414d27-bfcc-407d-aca6-16d401cc3ab7","ios":"levelo://app?vid=87414d27-bfcc-407d-aca6-16d401cc3ab7"},"vehicle_type_id":"4","last_reported":1703761545,"current_range_meters":23200,"station_id":"ce4bhb12rcd13ifvqel0","pricing_plan_id":"free"},{"bike_id":"a833bb1a-bf06-4e67-b960-344464a890ca","system_id":"levelo_inurba_marseille","lat":43.29529,"lon":5.385581,"is_reserved":false,"is_disabled":false,"rental_uris":{"android":"levelo://app?vid=a833bb1a-bf06-4e67-b960-344464a890ca","ios":"levelo://app?vid=a833bb1a-bf06-4e67-b960-344464a890ca"},"vehicle_type_id":"4","last_reported":1703761545,"current_range_meters":24400,"station_id":"ce4bgih2rcd13ifvqba0","pricing_plan_id":"free"},{"bike_id":"8a04bf0e-9ca4-4ad8-91b0-a9eff2c7dc45","system_id":"levelo_inurba_marseille","lat":43.290779,"lon":5.371482,"is_reserved":false,"is_disabled":false,"rental_uris":{"android":"levelo://app?vid=8a04bf0e-9ca4-4ad8-91b0-a9eff2c7dc45","ios":"levelo://app?vid=8a04bf0e-9ca4-4ad8-91b0-a9eff2c7dc45"},"vehicle_type_id":"4","last_reported":1703761545,"current_range_meters":15600,"station_id":"ce4bh5p2rcd13ifvqe4g","pricing_plan_id":"free"},{"bike_id":"deb6a5ec-c047-4e79-94dc-ff9d3c8ef71f","system_id":"levelo_inurba_marseille","lat":43.290631,"lon":5.359244,"is_reserved":false,"is_disabled":false,"rental_uris":{"android":"levelo://app?vid=deb6a5ec-c047-4e79-94dc-ff9d3c8ef71f","ios":"levelo://app?vid=deb6a5ec-c047-4e79-94dc-ff9d3c8ef71f"},"vehicle_type_id":"4","last_reported":1703761545,"current_range_meters":30800,"station_id":"ce4bha92rcd13ifvqeg0","pricing_plan_id":"free"},{"bike_id":"7ae2e869-c19d-4898-8584-64052c702162","system_id":"levelo_inurba_marseille","lat":43.302008,"lon":5.394694,"is_reserved":false,"is_disabled":false,"rental_uris":{"android":"levelo://app?vid=7ae2e869-c19d-4898-8584-64052c702162","ios":"levelo://app?vid=7ae2e869-c19d-4898-8584-64052c702162"},"vehicle_type_id":"4","last_reported":1703761545,"current_range_meters":20000,"station_id":"ce4bh0p2rcd13ifvqd70","pricing_plan_id":"free"},{"bike_id":"536adf06-0cb3-4f47-bfbd-a2111c64eaaf","system_id":"levelo_inurba_marseille","lat":43.302008,"lon":5.394694,"is_reserved":false,"is_disabled":false,"rental_uris":{"android":"levelo://app?vid=536adf06-0cb3-4f47-bfbd-a2111c64eaaf","ios":"levelo://app?vid=536adf06-0cb3-4f47-bfbd-a2111c64eaaf"},"vehicle_type_id":"4","last_reported":1703761545,"current_range_meters":17200,"station_id":"ce4bh0p2rcd13ifvqd70","pricing_plan_id":"free"},{"bike_id":"c81463f8-72fa-49ec-a01f-03ec39c46b8d","system_id":"levelo_inurba_marseille","lat":43.294153,"lon":5.386305,"is_reserved":false,"is_disabled":false,"rental_uris":{"android":"levelo://app?vid=c81463f8-72fa-49ec-a01f-03ec39c46b8d","ios":"levelo://app?vid=c81463f8-72fa-49ec-a01f-03ec39c46b8d"},"vehicle_type_id":"4","last_reported":1703761545,"current_range_meters":30000,"station_id":"ce4bh2h2rcd13ifvqdh0","pricing_plan_id":"free"},{"bike_id":"d3310e5d-6b32-4fa4-93dd-0039d164d310","system_id":"levelo_inurba_marseille","lat":43.289468,"lon":5.363719,"is_reserved":false,"is_disabled":false,"rental_uris":{"android":"levelo://app?vid=d3310e5d-6b32-4fa4-93dd-0039d164d310","ios":"levelo://app?vid=d3310e5d-6b32-4fa4-93dd-0039d164d310"},"vehicle_type_id":"4","last_reported":1703761545,"current_range_meters":18800,"station_id":"ce4bhc92rcd13ifvqetg","pricing_plan_id":"free"},{"bike_id":"3411019d-e772-4968-9050-f41098f42c8b","system_id":"levelo_inurba_marseille","lat":43.304274,"lon":5.397513,"is_reserved":false,"is_disabled":false,"rental_uris":{"android":"levelo://app?vid=3411019d-e772-4968-9050-f41098f42c8b","ios":"levelo://app?vid=3411019d-e772-4968-9050-f41098f42c8b"},"vehicle_type_id":"4","last_reported":1703761545,"current_range_meters":26800,"station_id":"ce4bh092rcd13ifvqd20","pricing_plan_id":"free"},{"bike_id":"f994d1d4-3503-4be2-9bad-2063a00ba030","system_id":"levelo_inurba_marseille","lat":43.304296,"lon":5.397513,"is_reserved":false,"is_disabled":false,"rental_uris":{"android":"levelo://app?vid=f994d1d4-3503-4be2-9bad-2063a00ba030","ios":"levelo://app?vid=f994d1d4-3503-4be2-9bad-2063a00ba030"},"vehicle_type_id":"4","last_reported":1703761545,"current_range_meters":29200,"station_id":"ce4bh092rcd13ifvqd20","pricing_plan_id":"free"},{"bike_id":"468b6947-e64f-40a2-ad51-0fe459e9f82c","system_id":"levelo_inurba_marseille","lat":43.290103,"lon":5.356114,"is_reserved":false,"is_disabled":false,"rental_uris":{"android":"levelo://app?vid=468b6947-e64f-40a2-ad51-0fe459e9f82c","ios":"levelo://app?vid=468b6947-e64f-40a2-ad51-0fe459e9f82c"},"vehicle_type_id":"4","last_reported":1703761545,"current_range_meters":25200,"station_id":"ce4bhb92rcd13ifvqen0","pricing_plan_id":"free"},{"bike_id":"d0d4943c-6985-42cb-9598-a93f99ea0b8f","system_id":"levelo_inurba_marseille","lat":43.290995,"lon":5.381361,"is_reserved":false,"is_disabled":false,"rental_uris":{"android":"levelo://app?vid=d0d4943c-6985-42cb-9598-a93f99ea0b8f","ios":"levelo://app?vid=d0d4943c-6985-42cb-9598-a93f99ea0b8f"},"vehicle_type_id":"4","last_reported":1703761545,"current_range_meters":28400,"station_id":"ce4bh512rcd13ifvqe2g","pricing_plan_id":"free"},{"bike_id":"04ecf4ec-a3d5-4399-9df9-00184b9cb58e","system_id":"levelo_inurba_marseille","lat":43.29789,"lon":5.39339,"is_reserved":false,"is_disabled":false,"rental_uris":{"android":"levelo://app?vid=04ecf4ec-a3d5-4399-9df9-00184b9cb58e","ios":"levelo://app?vid=04ecf4ec-a3d5-4399-9df9-00184b9cb58e"},"vehicle_type_id":"4","last_reported":1703761545,"current_range_meters":21600,"station_id":"chh1huq6cuj3fo74tm60","pricing_plan_id":"free"},{"bike_id":"51466ba7-a928-43a2-ae7d-6b0784ec14ab","system_id":"levelo_inurba_marseille","lat":43.33017,"lon":5.39042,"is_reserved":false,"is_disabled":false,"rental_uris":{"android":"levelo://app?vid=51466ba7-a928-43a2-ae7d-6b0784ec14ab","ios":"levelo://app?vid=51466ba7-a928-43a2-ae7d-6b0784ec14ab"},"vehicle_type_id":"4","last_reported":1703761545,"current_range_meters":3600,"station_id":"","pricing_plan_id":"free"},{"bike_id":"6b3dfdfa-8d93-42d8-95b1-34121d06fe07","system_id":"levelo_inurba_marseille","lat":43.295169,"lon":5.390426,"is_reserved":false,"is_disabled":false,"rental_uris":{"android":"levelo://app?vid=6b3dfdfa-8d93-42d8-95b1-34121d06fe07","ios":"levelo://app?vid=6b3dfdfa-8d93-42d8-95b1-34121d06fe07"},"vehicle_type_id":"4","last_reported":1703761545,"current_range_meters":30800,"station_id":"ce4bh3p2rcd13ifvqdp0","pricing_plan_id":"free"},{"bike_id":"495faf64-a935-4c6e-b77f-2b296d14493a","system_id":"levelo_inurba_marseille","lat":43.331017,"lon":5.389194,"is_reserved":false,"is_disabled":false,"rental_uris":{"android":"levelo://app?vid=495faf64-a935-4c6e-b77f-2b296d14493a","ios":"levelo://app?vid=495faf64-a935-4c6e-b77f-2b296d14493a"},"vehicle_type_id":"4","last_reported":1703761545,"current_range_meters":12400,"station_id":"","pricing_plan_id":"free"},{"bike_id":"0c0d88b0-34cc-41d0-a1ce-87c35289ae16","system_id":"levelo_inurba_marseille","lat":43.29771,"lon":5.39338,"is_reserved":false,"is_disabled":false,"rental_uris":{"android":"levelo://app?vid=0c0d88b0-34cc-41d0-a1ce-87c35289ae16","ios":"levelo://app?vid=0c0d88b0-34cc-41d0-a1ce-87c35289ae16"},"vehicle_type_id":"4","last_reported":1703761545,"current_range_meters":14800,"station_id":"chh1huq6cuj3fo74tm60","pricing_plan_id":"free"},{"bike_id":"8068c6f1-494b-49cc-b2db-0e32a95b8513","system_id":"levelo_inurba_marseille","lat":43.289743,"lon":5.378304,"is_reserved":false,"is_disabled":false,"rental_uris":{"android":"levelo://app?vid=8068c6f1-494b-49cc-b2db-0e32a95b8513","ios":"levelo://app?vid=8068c6f1-494b-49cc-b2db-0e32a95b8513"},"vehicle_type_id":"4","last_reported":1703761545,"current_range_meters":29200,"station_id":"ce4bh9p2rcd13ifvqed0","pricing_plan_id":"free"},{"bike_id":"e7e5b367-b928-4b3e-b05f-87b6b3716e8c","system_id":"levelo_inurba_marseille","lat":43.33019,"lon":5.39044,"is_reserved":false,"is_disabled":false,"rental_uris":{"android":"levelo://app?vid=e7e5b367-b928-4b3e-b05f-87b6b3716e8c","ios":"levelo://app?vid=e7e5b367-b928-4b3e-b05f-87b6b3716e8c"},"vehicle_type_id":"4","last_reported":1703761545,"current_range_meters":29200,"station_id":"","pricing_plan_id":"free"},{"bike_id":"da82727f-5090-4dcc-9a39-e49701b0afae","system_id":"levelo_inurba_marseille","lat":43.330442,"lon":5.389148,"is_reserved":false,"is_disabled":false,"rental_uris":{"android":"levelo://app?vid=da82727f-5090-4dcc-9a39-e49701b0afae","ios":"levelo://app?vid=da82727f-5090-4dcc-9a39-e49701b0afae"},"vehicle_type_id":"4","last_reported":1703761545,"current_range_meters":12000,"station_id":"ce4bhr92rcd13ifvqhrg","pricing_plan_id":"free"},{"bike_id":"370cccf7-c9ba-46c2-819b-c8e8cacc4c21","system_id":"levelo_inurba_marseille","lat":43.33145,"lon":5.3893,"is_reserved":false,"is_disabled":false,"rental_uris":{"android":"levelo://app?vid=370cccf7-c9ba-46c2-819b-c8e8cacc4c21","ios":"levelo://app?vid=370cccf7-c9ba-46c2-819b-c8e8cacc4c21"},"vehicle_type_id":"4","last_reported":1703761545,"current_range_meters":16800,"station_id":"","pricing_plan_id":"free"},{"bike_id":"245ba4f9-67a5-4441-a0e8-6439c04fb0bb","system_id":"levelo_inurba_marseille","lat":43.29022,"lon":5.38127,"is_reserved":false,"is_disabled":false,"rental_uris":{"android":"levelo://app?vid=245ba4f9-67a5-4441-a0e8-6439c04fb0bb","ios":"levelo://app?vid=245ba4f9-67a5-4441-a0e8-6439c04fb0bb"},"vehicle_type_id":"4","last_reported":1703761545,"current_range_meters":28800,"station_id":"ce4bh4p2rcd13ifvqe1g","pricing_plan_id":"free"},{"bike_id":"a1716256-353a-44d3-8800-4e8753113785","system_id":"levelo_inurba_marseille","lat":43.29025,"lon":5.38138,"is_reserved":false,"is_disabled":false,"rental_uris":{"android":"levelo://app?vid=a1716256-353a-44d3-8800-4e8753113785","ios":"levelo://app?vid=a1716256-353a-44d3-8800-4e8753113785"},"vehicle_type_id":"4","last_reported":1703761545,"current_range_meters":26800,"station_id":"ce4bh4p2rcd13ifvqe1g","pricing_plan_id":"free"},{"bike_id":"f4de71cc-13c3-4f02-bf0e-2c0b66584100","system_id":"levelo_inurba_marseille","lat":43.29021,"lon":5.38128,"is_reserved":false,"is_disabled":false,"rental_uris":{"android":"levelo://app?vid=f4de71cc-13c3-4f02-bf0e-2c0b66584100","ios":"levelo://app?vid=f4de71cc-13c3-4f02-bf0e-2c0b66584100"},"vehicle_type_id":"4","last_reported":1703761545,"current_range_meters":2800,"station_id":"ce4bh4p2rcd13ifvqe1g","pricing_plan_id":"free"},{"bike_id":"7b9d484b-cdc8-44a9-9e43-22fcdddfb332","system_id":"levelo_inurba_marseille","lat":43.2901,"lon":5.381269,"is_reserved":false,"is_disabled":false,"rental_uris":{"android":"levelo://app?vid=7b9d484b-cdc8-44a9-9e43-22fcdddfb332","ios":"levelo://app?vid=7b9d484b-cdc8-44a9-9e43-22fcdddfb332"},"vehicle_type_id":"4","last_reported":1703761545,"current_range_meters":31200,"station_id":"ce4bh4p2rcd13ifvqe1g","pricing_plan_id":"free"},{"bike_id":"9e2dc3fe-5d0d-4fbf-8084-8ba73058dc1c","system_id":"levelo_inurba_marseille","lat":43.29018,"lon":5.38131,"is_reserved":false,"is_disabled":false,"rental_uris":{"android":"levelo://app?vid=9e2dc3fe-5d0d-4fbf-8084-8ba73058dc1c","ios":"levelo://app?vid=9e2dc3fe-5d0d-4fbf-8084-8ba73058dc1c"},"vehicle_type_id":"4","last_reported":1703761545,"current_range_meters":20800,"station_id":"ce4bh4p2rcd13ifvqe1g","pricing_plan_id":"free"},{"bike_id":"45e9d267-5c57-452e-993a-c6c7fa826b87","system_id":"levelo_inurba_marseille","lat":43.337539,"lon":5.374359,"is_reserved":false,"is_disabled":false,"rental_uris":{"android":"levelo://app?vid=45e9d267-5c57-452e-993a-c6c7fa826b87","ios":"levelo://app?vid=45e9d267-5c57-452e-993a-c6c7fa826b87"},"vehicle_type_id":"4","last_reported":1703761545,"current_range_meters":24000,"station_id":"","pricing_plan_id":"free"},{"bike_id":"5dae478b-76f5-4ec8-9230-739aab8767f5","system_id":"levelo_inurba_marseille","lat":43.30641,"lon":5.40087,"is_reserved":false,"is_disabled":false,"rental_uris":{"android":"levelo://app?vid=5dae478b-76f5-4ec8-9230-739aab8767f5","ios":"levelo://app?vid=5dae478b-76f5-4ec8-9230-739aab8767f5"},"vehicle_type_id":"4","last_reported":1703761545,"current_range_meters":13600,"station_id":"ce4bh112rcd13ifvqda0","pricing_plan_id":"free"},{"bike_id":"981f9dbf-5820-453e-beb6-8bbddd90c1d2","system_id":"levelo_inurba_marseille","lat":43.337715,"lon":5.374464,"is_reserved":false,"is_disabled":false,"rental_uris":{"android":"levelo://app?vid=981f9dbf-5820-453e-beb6-8bbddd90c1d2","ios":"levelo://app?vid=981f9dbf-5820-453e-beb6-8bbddd90c1d2"},"vehicle_type_id":"4","last_reported":1703761545,"current_range_meters":25200,"station_id":"","pricing_plan_id":"free"},{"bike_id":"3e7558b5-a3c2-44a0-b093-c54407ab10a3","system_id":"levelo_inurba_marseille","lat":43.301117,"lon":5.398795,"is_reserved":false,"is_disabled":false,"rental_uris":{"android":"levelo://app?vid=3e7558b5-a3c2-44a0-b093-c54407ab10a3","ios":"levelo://app?vid=3e7558b5-a3c2-44a0-b093-c54407ab10a3"},"vehicle_type_id":"4","last_reported":1703761545,"current_range_meters":25200,"station_id":"ce4bh0h2rcd13ifvqd40","pricing_plan_id":"free"},{"bike_id":"fd7e0579-d874-4535-a4e5-883ecac48a3b","system_id":"levelo_inurba_marseille","lat":43.301117,"lon":5.398795,"is_reserved":false,"is_disabled":false,"rental_uris":{"android":"levelo://app?vid=fd7e0579-d874-4535-a4e5-883ecac48a3b","ios":"levelo://app?vid=fd7e0579-d874-4535-a4e5-883ecac48a3b"},"vehicle_type_id":"4","last_reported":1703761545,"current_range_meters":10800,"station_id":"ce4bh0h2rcd13ifvqd40","pricing_plan_id":"free"},{"bike_id":"395b4c6b-2846-48f8-adf3-a7b6e4defa20","system_id":"levelo_inurba_marseille","lat":43.28727,"lon":5.36078,"is_reserved":false,"is_disabled":false,"rental_uris":{"android":"levelo://app?vid=395b4c6b-2846-48f8-adf3-a7b6e4defa20","ios":"levelo://app?vid=395b4c6b-2846-48f8-adf3-a7b6e4defa20"},"vehicle_type_id":"4","last_reported":1703761545,"current_range_meters":31200,"station_id":"cki0cbj6b192h4jlfktg","pricing_plan_id":"free"},{"bike_id":"febb4d32-be17-4ae5-a7d1-f1e18c4e004b","system_id":"levelo_inurba_marseille","lat":43.298681,"lon":5.397225,"is_reserved":false,"is_disabled":false,"rental_uris":{"android":"levelo://app?vid=febb4d32-be17-4ae5-a7d1-f1e18c4e004b","ios":"levelo://app?vid=febb4d32-be17-4ae5-a7d1-f1e18c4e004b"},"vehicle_type_id":"4","last_reported":1703761545,"current_range_meters":26800,"station_id":"ce4bh0h2rcd13ifvqd50","pricing_plan_id":"free"},{"bike_id":"6c78d231-db62-4c2c-8761-7cd3820fb6f9","system_id":"levelo_inurba_marseille","lat":43.295196,"lon":5.39397,"is_reserved":false,"is_disabled":false,"rental_uris":{"android":"levelo://app?vid=6c78d231-db62-4c2c-8761-7cd3820fb6f9","ios":"levelo://app?vid=6c78d231-db62-4c2c-8761-7cd3820fb6f9"},"vehicle_type_id":"4","last_reported":1703761545,"current_range_meters":30000,"station_id":"ce4bh292rcd13ifvqdf0","pricing_plan_id":"free"},{"bike_id":"58aef8e9-b678-4792-bc49-968d2f9366e9","system_id":"levelo_inurba_marseille","lat":43.295194,"lon":5.39397,"is_reserved":false,"is_disabled":false,"rental_uris":{"android":"levelo://app?vid=58aef8e9-b678-4792-bc49-968d2f9366e9","ios":"levelo://app?vid=58aef8e9-b678-4792-bc49-968d2f9366e9"},"vehicle_type_id":"4","last_reported":1703761545,"current_range_meters":31200,"station_id":"ce4bh292rcd13ifvqdf0","pricing_plan_id":"free"},{"bike_id":"ccb1d95a-3f74-486a-9839-552cdfa2adba","system_id":"levelo_inurba_marseille","lat":43.302759,"lon":5.400793,"is_reserved":false,"is_disabled":false,"rental_uris":{"android":"levelo://app?vid=ccb1d95a-3f74-486a-9839-552cdfa2adba","ios":"levelo://app?vid=ccb1d95a-3f74-486a-9839-552cdfa2adba"},"vehicle_type_id":"4","last_reported":1703761545,"current_range_meters":22000,"station_id":"ce4bgvh2rcd13ifvqcs0","pricing_plan_id":"free"},{"bike_id":"850585be-e654-4880-be19-26ef265f65da","system_id":"levelo_inurba_marseille","lat":43.290336,"lon":5.386425,"is_reserved":false,"is_disabled":false,"rental_uris":{"android":"levelo://app?vid=850585be-e654-4880-be19-26ef265f65da","ios":"levelo://app?vid=850585be-e654-4880-be19-26ef265f65da"},"vehicle_type_id":"4","last_reported":1703761545,"current_range_meters":23600,"station_id":"ce4bh4p2rcd13ifvqe0g","pricing_plan_id":"free"},{"bike_id":"e4b32aa9-4748-45e3-8440-e9f2246f3b09","system_id":"levelo_inurba_marseille","lat":43.289307,"lon":5.38406,"is_reserved":false,"is_disabled":false,"rental_uris":{"android":"levelo://app?vid=e4b32aa9-4748-45e3-8440-e9f2246f3b09","ios":"levelo://app?vid=e4b32aa9-4748-45e3-8440-e9f2246f3b09"},"vehicle_type_id":"4","last_reported":1703761545,"current_range_meters":27600,"station_id":"ce4bh612rcd13ifvqe6g","pricing_plan_id":"free"},{"bike_id":"ca50650b-105e-4057-97d9-35c4343abe55","system_id":"levelo_inurba_marseille","lat":43.290345,"lon":5.38646,"is_reserved":false,"is_disabled":false,"rental_uris":{"android":"levelo://app?vid=ca50650b-105e-4057-97d9-35c4343abe55","ios":"levelo://app?vid=ca50650b-105e-4057-97d9-35c4343abe55"},"vehicle_type_id":"4","last_reported":1703761545,"current_range_meters":25600,"station_id":"ce4bh4p2rcd13ifvqe0g","pricing_plan_id":"free"},{"bike_id":"431dcb7f-cfe6-4b0c-b8c6-8692fba88f58","system_id":"levelo_inurba_marseille","lat":43.302759,"lon":5.400793,"is_reserved":false,"is_disabled":false,"rental_uris":{"android":"levelo://app?vid=431dcb7f-cfe6-4b0c-b8c6-8692fba88f58","ios":"levelo://app?vid=431dcb7f-cfe6-4b0c-b8c6-8692fba88f58"},"vehicle_type_id":"4","last_reported":1703761545,"current_range_meters":26400,"station_id":"ce4bgvh2rcd13ifvqcs0","pricing_plan_id":"free"},{"bike_id":"e480ee7f-a7fe-4f92-880c-6ee1da41ca03","system_id":"levelo_inurba_marseille","lat":43.286039,"lon":5.370681,"is_reserved":false,"is_disabled":false,"rental_uris":{"android":"levelo://app?vid=e480ee7f-a7fe-4f92-880c-6ee1da41ca03","ios":"levelo://app?vid=e480ee7f-a7fe-4f92-880c-6ee1da41ca03"},"vehicle_type_id":"4","last_reported":1703761545,"current_range_meters":21200,"station_id":"ce4bht12rcd13ifvqi60","pricing_plan_id":"free"},{"bike_id":"63eb4a5a-4c7f-4291-8147-07397f9db28f","system_id":"levelo_inurba_marseille","lat":43.287185,"lon":5.379373,"is_reserved":false,"is_disabled":false,"rental_uris":{"android":"levelo://app?vid=63eb4a5a-4c7f-4291-8147-07397f9db28f","ios":"levelo://app?vid=63eb4a5a-4c7f-4291-8147-07397f9db28f"},"vehicle_type_id":"4","last_reported":1703761545,"current_range_meters":14000,"station_id":"ce4bh9p2rcd13ifvqec0","pricing_plan_id":"free"},{"bike_id":"aac00441-5e5c-4474-92e6-e699a3867bae","system_id":"levelo_inurba_marseille","lat":43.285874,"lon":5.360131,"is_reserved":false,"is_disabled":false,"rental_uris":{"android":"levelo://app?vid=aac00441-5e5c-4474-92e6-e699a3867bae","ios":"levelo://app?vid=aac00441-5e5c-4474-92e6-e699a3867bae"},"vehicle_type_id":"4","last_reported":1703761545,"current_range_meters":30800,"station_id":"","pricing_plan_id":"free"},{"bike_id":"54305079-9a90-4490-a47b-6e86737d34d8","system_id":"levelo_inurba_marseille","lat":43.316821,"lon":5.404737,"is_reserved":false,"is_disabled":false,"rental_uris":{"android":"levelo://app?vid=54305079-9a90-4490-a47b-6e86737d34d8","ios":"levelo://app?vid=54305079-9a90-4490-a47b-6e86737d34d8"},"vehicle_type_id":"4","last_reported":1703761545,"current_range_meters":24000,"station_id":"ce4bh012rcd13ifvqd00","pricing_plan_id":"free"},{"bike_id":"abcbd7b1-40fd-4785-828e-0ccdb8198efe","system_id":"levelo_inurba_marseille","lat":43.294314,"lon":5.397498,"is_reserved":false,"is_disabled":false,"rental_uris":{"android":"levelo://app?vid=abcbd7b1-40fd-4785-828e-0ccdb8198efe","ios":"levelo://app?vid=abcbd7b1-40fd-4785-828e-0ccdb8198efe"},"vehicle_type_id":"4","last_reported":1703761545,"current_range_meters":20400,"station_id":"ce4bh3h2rcd13ifvqdo0","pricing_plan_id":"free"},{"bike_id":"4b8e8d4e-4165-4d94-8b5b-f1738236627c","system_id":"levelo_inurba_marseille","lat":43.285848,"lon":5.350787,"is_reserved":false,"is_disabled":false,"rental_uris":{"android":"levelo://app?vid=4b8e8d4e-4165-4d94-8b5b-f1738236627c","ios":"levelo://app?vid=4b8e8d4e-4165-4d94-8b5b-f1738236627c"},"vehicle_type_id":"4","last_reported":1703761545,"current_range_meters":23600,"station_id":"ce4bhch2rcd13ifvqeug","pricing_plan_id":"free"},{"bike_id":"b093cdf5-ddb3-4c23-a392-6ebe41da7fba","system_id":"levelo_inurba_marseille","lat":43.295713,"lon":5.399639,"is_reserved":false,"is_disabled":false,"rental_uris":{"android":"levelo://app?vid=b093cdf5-ddb3-4c23-a392-6ebe41da7fba","ios":"levelo://app?vid=b093cdf5-ddb3-4c23-a392-6ebe41da7fba"},"vehicle_type_id":"4","last_reported":1703761545,"current_range_meters":1200,"station_id":"ce4bh312rcd13ifvqdj0","pricing_plan_id":"free"},{"bike_id":"1d4130c2-6fda-4521-88fb-3a274ba497f4","system_id":"levelo_inurba_marseille","lat":43.295713,"lon":5.399639,"is_reserved":false,"is_disabled":false,"rental_uris":{"android":"levelo://app?vid=1d4130c2-6fda-4521-88fb-3a274ba497f4","ios":"levelo://app?vid=1d4130c2-6fda-4521-88fb-3a274ba497f4"},"vehicle_type_id":"4","last_reported":1703761545,"current_range_meters":16800,"station_id":"ce4bh312rcd13ifvqdj0","pricing_plan_id":"free"},{"bike_id":"cd1c23c7-fdb6-4ec1-a939-b21ee14750a7","system_id":"levelo_inurba_marseille","lat":43.286595,"lon":5.386795,"is_reserved":false,"is_disabled":false,"rental_uris":{"android":"levelo://app?vid=cd1c23c7-fdb6-4ec1-a939-b21ee14750a7","ios":"levelo://app?vid=cd1c23c7-fdb6-4ec1-a939-b21ee14750a7"},"vehicle_type_id":"4","last_reported":1703761545,"current_range_meters":28800,"station_id":"ce4bh492rcd13ifvqdug","pricing_plan_id":"free"},{"bike_id":"56eac566-c2f2-42b4-971b-f675e605a84b","system_id":"levelo_inurba_marseille","lat":43.286595,"lon":5.386795,"is_reserved":false,"is_disabled":false,"rental_uris":{"android":"levelo://app?vid=56eac566-c2f2-42b4-971b-f675e605a84b","ios":"levelo://app?vid=56eac566-c2f2-42b4-971b-f675e605a84b"},"vehicle_type_id":"4","last_reported":1703761545,"current_range_meters":30000,"station_id":"ce4bh492rcd13ifvqdug","pricing_plan_id":"free"},{"bike_id":"7510080d-af49-4281-80b0-457720854c57","system_id":"levelo_inurba_marseille","lat":43.28741,"lon":5.38986,"is_reserved":false,"is_disabled":false,"rental_uris":{"android":"levelo://app?vid=7510080d-af49-4281-80b0-457720854c57","ios":"levelo://app?vid=7510080d-af49-4281-80b0-457720854c57"},"vehicle_type_id":"4","last_reported":1703761545,"current_range_meters":0,"station_id":"","pricing_plan_id":"free"},{"bike_id":"88a90eb6-df1d-4c20-8e42-f03f5a6f3a0d","system_id":"levelo_inurba_marseille","lat":43.337225,"lon":5.391771,"is_reserved":false,"is_disabled":false,"rental_uris":{"android":"levelo://app?vid=88a90eb6-df1d-4c20-8e42-f03f5a6f3a0d","ios":"levelo://app?vid=88a90eb6-df1d-4c20-8e42-f03f5a6f3a0d"},"vehicle_type_id":"4","last_reported":1703761545,"current_range_meters":12400,"station_id":"ce4bhr92rcd13ifvqhsg","pricing_plan_id":"free"},{"bike_id":"381844c3-e025-4ad4-8b5b-45e3143ae1c8","system_id":"levelo_inurba_marseille","lat":43.323464,"lon":5.406297,"is_reserved":false,"is_disabled":false,"rental_uris":{"android":"levelo://app?vid=381844c3-e025-4ad4-8b5b-45e3143ae1c8","ios":"levelo://app?vid=381844c3-e025-4ad4-8b5b-45e3143ae1c8"},"vehicle_type_id":"4","last_reported":1703761545,"current_range_meters":19600,"station_id":"ce4bhq92rcd13ifvqhjg","pricing_plan_id":"free"},{"bike_id":"4982c8c4-23bc-476f-9042-7ca49d1ac40a","system_id":"levelo_inurba_marseille","lat":43.323464,"lon":5.406297,"is_reserved":false,"is_disabled":false,"rental_uris":{"android":"levelo://app?vid=4982c8c4-23bc-476f-9042-7ca49d1ac40a","ios":"levelo://app?vid=4982c8c4-23bc-476f-9042-7ca49d1ac40a"},"vehicle_type_id":"4","last_reported":1703761545,"current_range_meters":31200,"station_id":"ce4bhq92rcd13ifvqhjg","pricing_plan_id":"free"},{"bike_id":"68ca4faf-6aee-4de3-81ce-9110920a32de","system_id":"levelo_inurba_marseille","lat":43.283494,"lon":5.380945,"is_reserved":false,"is_disabled":false,"rental_uris":{"android":"levelo://app?vid=68ca4faf-6aee-4de3-81ce-9110920a32de","ios":"levelo://app?vid=68ca4faf-6aee-4de3-81ce-9110920a32de"},"vehicle_type_id":"4","last_reported":1703761545,"current_range_meters":29200,"station_id":"ce4bh412rcd13ifvqdr0","pricing_plan_id":"free"},{"bike_id":"d60802d6-4f47-444a-b234-883690eec05b","system_id":"levelo_inurba_marseille","lat":43.33426,"lon":5.39768,"is_reserved":false,"is_disabled":false,"rental_uris":{"android":"levelo://app?vid=d60802d6-4f47-444a-b234-883690eec05b","ios":"levelo://app?vid=d60802d6-4f47-444a-b234-883690eec05b"},"vehicle_type_id":"4","last_reported":1703761545,"current_range_meters":30000,"station_id":"","pricing_plan_id":"free"},{"bike_id":"e485450b-2736-4f4c-b94b-0da5a69b88aa","system_id":"levelo_inurba_marseille","lat":43.33385,"lon":5.39822,"is_reserved":false,"is_disabled":false,"rental_uris":{"android":"levelo://app?vid=e485450b-2736-4f4c-b94b-0da5a69b88aa","ios":"levelo://app?vid=e485450b-2736-4f4c-b94b-0da5a69b88aa"},"vehicle_type_id":"4","last_reported":1703761545,"current_range_meters":15200,"station_id":"","pricing_plan_id":"free"},{"bike_id":"dcbdd494-6725-49c9-869a-d508e119f241","system_id":"levelo_inurba_marseille","lat":43.283502,"lon":5.386471,"is_reserved":false,"is_disabled":false,"rental_uris":{"android":"levelo://app?vid=dcbdd494-6725-49c9-869a-d508e119f241","ios":"levelo://app?vid=dcbdd494-6725-49c9-869a-d508e119f241"},"vehicle_type_id":"4","last_reported":1703761545,"current_range_meters":29200,"station_id":"ce4bh492rcd13ifvqdvg","pricing_plan_id":"free"},{"bike_id":"4932551c-060c-4b93-94af-dd58c608c9f2","system_id":"levelo_inurba_marseille","lat":43.280382,"lon":5.369291,"is_reserved":false,"is_disabled":false,"rental_uris":{"android":"levelo://app?vid=4932551c-060c-4b93-94af-dd58c608c9f2","ios":"levelo://app?vid=4932551c-060c-4b93-94af-dd58c608c9f2"},"vehicle_type_id":"4","last_reported":1703761545,"current_range_meters":4400,"station_id":"ce4bha12rcd13ifvqef0","pricing_plan_id":"free"},{"bike_id":"4091593c-283c-4812-9919-0bd175a1bffb","system_id":"levelo_inurba_marseille","lat":43.280382,"lon":5.369291,"is_reserved":false,"is_disabled":false,"rental_uris":{"android":"levelo://app?vid=4091593c-283c-4812-9919-0bd175a1bffb","ios":"levelo://app?vid=4091593c-283c-4812-9919-0bd175a1bffb"},"vehicle_type_id":"4","last_reported":1703761545,"current_range_meters":31600,"station_id":"ce4bha12rcd13ifvqef0","pricing_plan_id":"free"},{"bike_id":"3a026c05-e423-467b-92fe-6aa9a6135b59","system_id":"levelo_inurba_marseille","lat":43.29041,"lon":5.399634,"is_reserved":false,"is_disabled":false,"rental_uris":{"android":"levelo://app?vid=3a026c05-e423-467b-92fe-6aa9a6135b59","ios":"levelo://app?vid=3a026c05-e423-467b-92fe-6aa9a6135b59"},"vehicle_type_id":"4","last_reported":1703761545,"current_range_meters":25200,"station_id":"ce4bh392rcd13ifvqdm0","pricing_plan_id":"free"},{"bike_id":"6e5a96e7-864c-4dd9-9b18-c703477660cd","system_id":"levelo_inurba_marseille","lat":43.284462,"lon":5.392121,"is_reserved":false,"is_disabled":false,"rental_uris":{"android":"levelo://app?vid=6e5a96e7-864c-4dd9-9b18-c703477660cd","ios":"levelo://app?vid=6e5a96e7-864c-4dd9-9b18-c703477660cd"},"vehicle_type_id":"4","last_reported":1703761545,"current_range_meters":14000,"station_id":"ce4bhoh2rcd13ifvqh5g","pricing_plan_id":"free"},{"bike_id":"c9d73eed-5888-4e39-be0e-da9a3b48d0b3","system_id":"levelo_inurba_marseille","lat":43.283633,"lon":5.392028,"is_reserved":false,"is_disabled":false,"rental_uris":{"android":"levelo://app?vid=c9d73eed-5888-4e39-be0e-da9a3b48d0b3","ios":"levelo://app?vid=c9d73eed-5888-4e39-be0e-da9a3b48d0b3"},"vehicle_type_id":"4","last_reported":1703761545,"current_range_meters":19200,"station_id":"","pricing_plan_id":"free"},{"bike_id":"694ad407-7238-4062-89a8-4125ccd97cc0","system_id":"levelo_inurba_marseille","lat":43.304128,"lon":5.412748,"is_reserved":false,"is_disabled":false,"rental_uris":{"android":"levelo://app?vid=694ad407-7238-4062-89a8-4125ccd97cc0","ios":"levelo://app?vid=694ad407-7238-4062-89a8-4125ccd97cc0"},"vehicle_type_id":"4","last_reported":1703761545,"current_range_meters":30400,"station_id":"ce4bhop2rcd13ifvqh8g","pricing_plan_id":"free"},{"bike_id":"da6049ec-8673-4273-b2fc-20efaa880ee2","system_id":"levelo_inurba_marseille","lat":43.30413,"lon":5.41282,"is_reserved":false,"is_disabled":false,"rental_uris":{"android":"levelo://app?vid=da6049ec-8673-4273-b2fc-20efaa880ee2","ios":"levelo://app?vid=da6049ec-8673-4273-b2fc-20efaa880ee2"},"vehicle_type_id":"4","last_reported":1703761545,"current_range_meters":30000,"station_id":"ce4bhop2rcd13ifvqh8g","pricing_plan_id":"free"},{"bike_id":"19035fd2-4552-46c6-b932-e107c071d9fb","system_id":"levelo_inurba_marseille","lat":43.304188,"lon":5.412904,"is_reserved":false,"is_disabled":false,"rental_uris":{"android":"levelo://app?vid=19035fd2-4552-46c6-b932-e107c071d9fb","ios":"levelo://app?vid=19035fd2-4552-46c6-b932-e107c071d9fb"},"vehicle_type_id":"4","last_reported":1703761545,"current_range_meters":28400,"station_id":"ce4bhop2rcd13ifvqh8g","pricing_plan_id":"free"},{"bike_id":"201dce39-9be2-4c11-ac4f-f0a7983e4218","system_id":"levelo_inurba_marseille","lat":43.287154,"lon":5.399979,"is_reserved":false,"is_disabled":false,"rental_uris":{"android":"levelo://app?vid=201dce39-9be2-4c11-ac4f-f0a7983e4218","ios":"levelo://app?vid=201dce39-9be2-4c11-ac4f-f0a7983e4218"},"vehicle_type_id":"4","last_reported":1703761545,"current_range_meters":23200,"station_id":"ce4bho92rcd13ifvqh3g","pricing_plan_id":"free"},{"bike_id":"4c7c624b-c982-4733-b73e-6ea0816c8f25","system_id":"levelo_inurba_marseille","lat":43.281044,"lon":5.378308,"is_reserved":false,"is_disabled":false,"rental_uris":{"android":"levelo://app?vid=4c7c624b-c982-4733-b73e-6ea0816c8f25","ios":"levelo://app?vid=4c7c624b-c982-4733-b73e-6ea0816c8f25"},"vehicle_type_id":"4","last_reported":1703761545,"current_range_meters":1600,"station_id":"ce4bha12rcd13ifvqee0","pricing_plan_id":"free"},{"bike_id":"5c02ac9d-7d64-4ba2-8f17-3b2bf4ff2e54","system_id":"levelo_inurba_marseille","lat":43.320045,"lon":5.415046,"is_reserved":false,"is_disabled":false,"rental_uris":{"android":"levelo://app?vid=5c02ac9d-7d64-4ba2-8f17-3b2bf4ff2e54","ios":"levelo://app?vid=5c02ac9d-7d64-4ba2-8f17-3b2bf4ff2e54"},"vehicle_type_id":"4","last_reported":1703761545,"current_range_meters":31200,"station_id":"ce4bhq92rcd13ifvqhkg","pricing_plan_id":"free"},{"bike_id":"fced60b4-25c6-4a49-b2df-0f8e2c64d051","system_id":"levelo_inurba_marseille","lat":43.320045,"lon":5.415046,"is_reserved":false,"is_disabled":false,"rental_uris":{"android":"levelo://app?vid=fced60b4-25c6-4a49-b2df-0f8e2c64d051","ios":"levelo://app?vid=fced60b4-25c6-4a49-b2df-0f8e2c64d051"},"vehicle_type_id":"4","last_reported":1703761545,"current_range_meters":29200,"station_id":"ce4bhq92rcd13ifvqhkg","pricing_plan_id":"free"},{"bike_id":"e984c370-80a5-4a6a-903a-386ed26f06ca","system_id":"levelo_inurba_marseille","lat":43.325233,"lon":5.414318,"is_reserved":false,"is_disabled":false,"rental_uris":{"android":"levelo://app?vid=e984c370-80a5-4a6a-903a-386ed26f06ca","ios":"levelo://app?vid=e984c370-80a5-4a6a-903a-386ed26f06ca"},"vehicle_type_id":"4","last_reported":1703761545,"current_range_meters":14400,"station_id":"ce4bhq12rcd13ifvqhhg","pricing_plan_id":"free"},{"bike_id":"a7ee4fef-1fa4-48be-8a94-04c8ca8a6b71","system_id":"levelo_inurba_marseille","lat":43.27618,"lon":5.361009,"is_reserved":false,"is_disabled":false,"rental_uris":{"android":"levelo://app?vid=a7ee4fef-1fa4-48be-8a94-04c8ca8a6b71","ios":"levelo://app?vid=a7ee4fef-1fa4-48be-8a94-04c8ca8a6b71"},"vehicle_type_id":"4","last_reported":1703761545,"current_range_meters":10400,"station_id":"ce4bgj92rcd13ifvqbe0","pricing_plan_id":"free"},{"bike_id":"f5c6e5c0-30a4-4147-95a6-6c61538fe047","system_id":"levelo_inurba_marseille","lat":43.292569,"lon":5.409107,"is_reserved":false,"is_disabled":false,"rental_uris":{"android":"levelo://app?vid=f5c6e5c0-30a4-4147-95a6-6c61538fe047","ios":"levelo://app?vid=f5c6e5c0-30a4-4147-95a6-6c61538fe047"},"vehicle_type_id":"4","last_reported":1703761545,"current_range_meters":10400,"station_id":"ce4bh192rcd13ifvqdc0","pricing_plan_id":"free"},{"bike_id":"0fe51dae-0788-40c6-ad48-4caf4b21dfb4","system_id":"levelo_inurba_marseille","lat":43.280784,"lon":5.396622,"is_reserved":false,"is_disabled":false,"rental_uris":{"android":"levelo://app?vid=0fe51dae-0788-40c6-ad48-4caf4b21dfb4","ios":"levelo://app?vid=0fe51dae-0788-40c6-ad48-4caf4b21dfb4"},"vehicle_type_id":"4","last_reported":1703761545,"current_range_meters":27200,"station_id":"ce4bho12rcd13ifvqh2g","pricing_plan_id":"free"},{"bike_id":"9bcb19bd-5983-4cdb-9da7-82498f05e04a","system_id":"levelo_inurba_marseille","lat":43.299028,"lon":5.381509,"is_reserved":false,"is_disabled":false,"rental_uris":{"android":"levelo://app?vid=9bcb19bd-5983-4cdb-9da7-82498f05e04a","ios":"levelo://app?vid=9bcb19bd-5983-4cdb-9da7-82498f05e04a"},"vehicle_type_id":"4","last_reported":1703761545,"current_range_meters":27200,"station_id":"ce4bgj12rcd13ifvqbc0","pricing_plan_id":"free"},{"bike_id":"f0627ac6-3dc9-45c2-a655-3b2b8446e2ff","system_id":"levelo_inurba_marseille","lat":43.336134,"lon":5.410341,"is_reserved":false,"is_disabled":false,"rental_uris":{"android":"levelo://app?vid=f0627ac6-3dc9-45c2-a655-3b2b8446e2ff","ios":"levelo://app?vid=f0627ac6-3dc9-45c2-a655-3b2b8446e2ff"},"vehicle_type_id":"4","last_reported":1703761545,"current_range_meters":29200,"station_id":"ce4bhqh2rcd13ifvqhmg","pricing_plan_id":"free"},{"bike_id":"25815a7f-f7aa-4a27-80d4-eb33fcf92742","system_id":"levelo_inurba_marseille","lat":43.2768,"lon":5.38883,"is_reserved":false,"is_disabled":false,"rental_uris":{"android":"levelo://app?vid=25815a7f-f7aa-4a27-80d4-eb33fcf92742","ios":"levelo://app?vid=25815a7f-f7aa-4a27-80d4-eb33fcf92742"},"vehicle_type_id":"4","last_reported":1703761545,"current_range_meters":30000,"station_id":"ce4bhi12rcd13ifvqfo0","pricing_plan_id":"free"},{"bike_id":"2fd4f203-14b6-43f2-9b52-ce087c389b77","system_id":"levelo_inurba_marseille","lat":43.276771,"lon":5.388799,"is_reserved":false,"is_disabled":false,"rental_uris":{"android":"levelo://app?vid=2fd4f203-14b6-43f2-9b52-ce087c389b77","ios":"levelo://app?vid=2fd4f203-14b6-43f2-9b52-ce087c389b77"},"vehicle_type_id":"4","last_reported":1703761545,"current_range_meters":27200,"station_id":"ce4bhi12rcd13ifvqfo0","pricing_plan_id":"free"},{"bike_id":"3f302edb-3ace-4ffa-86b1-41d833c4ed69","system_id":"levelo_inurba_marseille","lat":43.276771,"lon":5.388799,"is_reserved":false,"is_disabled":false,"rental_uris":{"android":"levelo://app?vid=3f302edb-3ace-4ffa-86b1-41d833c4ed69","ios":"levelo://app?vid=3f302edb-3ace-4ffa-86b1-41d833c4ed69"},"vehicle_type_id":"4","last_reported":1703761545,"current_range_meters":26800,"station_id":"ce4bhi12rcd13ifvqfo0","pricing_plan_id":"free"},{"bike_id":"47c4a75a-9589-431f-9913-07cae62c1708","system_id":"levelo_inurba_marseille","lat":43.276348,"lon":5.389433,"is_reserved":false,"is_disabled":false,"rental_uris":{"android":"levelo://app?vid=47c4a75a-9589-431f-9913-07cae62c1708","ios":"levelo://app?vid=47c4a75a-9589-431f-9913-07cae62c1708"},"vehicle_type_id":"4","last_reported":1703761545,"current_range_meters":14000,"station_id":"","pricing_plan_id":"free"},{"bike_id":"ede54595-d7ca-4740-b3fe-1217c54b48b7","system_id":"levelo_inurba_marseille","lat":43.28002,"lon":5.40008,"is_reserved":false,"is_disabled":false,"rental_uris":{"android":"levelo://app?vid=ede54595-d7ca-4740-b3fe-1217c54b48b7","ios":"levelo://app?vid=ede54595-d7ca-4740-b3fe-1217c54b48b7"},"vehicle_type_id":"4","last_reported":1703761545,"current_range_meters":7200,"station_id":"ce4bho92rcd13ifvqh4g","pricing_plan_id":"free"},{"bike_id":"8c260070-3888-46e0-9c82-233ab07c1fef","system_id":"levelo_inurba_marseille","lat":43.279975,"lon":5.40009,"is_reserved":false,"is_disabled":false,"rental_uris":{"android":"levelo://app?vid=8c260070-3888-46e0-9c82-233ab07c1fef","ios":"levelo://app?vid=8c260070-3888-46e0-9c82-233ab07c1fef"},"vehicle_type_id":"4","last_reported":1703761545,"current_range_meters":30400,"station_id":"ce4bho92rcd13ifvqh4g","pricing_plan_id":"free"},{"bike_id":"bf8fe645-2d7a-4f90-bf07-01fe32acfb29","system_id":"levelo_inurba_marseille","lat":43.279988,"lon":5.400134,"is_reserved":false,"is_disabled":false,"rental_uris":{"android":"levelo://app?vid=bf8fe645-2d7a-4f90-bf07-01fe32acfb29","ios":"levelo://app?vid=bf8fe645-2d7a-4f90-bf07-01fe32acfb29"},"vehicle_type_id":"4","last_reported":1703761545,"current_range_meters":0,"station_id":"ce4bho92rcd13ifvqh4g","pricing_plan_id":"free"},{"bike_id":"7f606d14-93e8-44a3-93f4-19c3ee2876d7","system_id":"levelo_inurba_marseille","lat":43.27996,"lon":5.40009,"is_reserved":false,"is_disabled":false,"rental_uris":{"android":"levelo://app?vid=7f606d14-93e8-44a3-93f4-19c3ee2876d7","ios":"levelo://app?vid=7f606d14-93e8-44a3-93f4-19c3ee2876d7"},"vehicle_type_id":"4","last_reported":1703761545,"current_range_meters":20000,"station_id":"ce4bho92rcd13ifvqh4g","pricing_plan_id":"free"},{"bike_id":"813771ca-93a9-4650-90b3-4587b61318f0","system_id":"levelo_inurba_marseille","lat":43.279967,"lon":5.400163,"is_reserved":false,"is_disabled":false,"rental_uris":{"android":"levelo://app?vid=813771ca-93a9-4650-90b3-4587b61318f0","ios":"levelo://app?vid=813771ca-93a9-4650-90b3-4587b61318f0"},"vehicle_type_id":"4","last_reported":1703761545,"current_range_meters":6400,"station_id":"ce4bho92rcd13ifvqh4g","pricing_plan_id":"free"},{"bike_id":"12915678-f2ca-4866-a195-a1e5afe0d7bf","system_id":"levelo_inurba_marseille","lat":43.279975,"lon":5.40009,"is_reserved":false,"is_disabled":false,"rental_uris":{"android":"levelo://app?vid=12915678-f2ca-4866-a195-a1e5afe0d7bf","ios":"levelo://app?vid=12915678-f2ca-4866-a195-a1e5afe0d7bf"},"vehicle_type_id":"4","last_reported":1703761545,"current_range_meters":14800,"station_id":"ce4bho92rcd13ifvqh4g","pricing_plan_id":"free"},{"bike_id":"aa3252fe-2099-49f7-aeac-2efd806db45f","system_id":"levelo_inurba_marseille","lat":43.27995,"lon":5.400202,"is_reserved":false,"is_disabled":false,"rental_uris":{"android":"levelo://app?vid=aa3252fe-2099-49f7-aeac-2efd806db45f","ios":"levelo://app?vid=aa3252fe-2099-49f7-aeac-2efd806db45f"},"vehicle_type_id":"4","last_reported":1703761545,"current_range_meters":6800,"station_id":"ce4bho92rcd13ifvqh4g","pricing_plan_id":"free"},{"bike_id":"f882c7a5-35a4-48ee-8041-43f976c14bb5","system_id":"levelo_inurba_marseille","lat":43.27991,"lon":5.40022,"is_reserved":false,"is_disabled":false,"rental_uris":{"android":"levelo://app?vid=f882c7a5-35a4-48ee-8041-43f976c14bb5","ios":"levelo://app?vid=f882c7a5-35a4-48ee-8041-43f976c14bb5"},"vehicle_type_id":"4","last_reported":1703761545,"current_range_meters":17200,"station_id":"ce4bho92rcd13ifvqh4g","pricing_plan_id":"free"},{"bike_id":"7670712f-5adc-4b0e-b1ba-9918ef56c6d2","system_id":"levelo_inurba_marseille","lat":43.310785,"lon":5.424305,"is_reserved":false,"is_disabled":false,"rental_uris":{"android":"levelo://app?vid=7670712f-5adc-4b0e-b1ba-9918ef56c6d2","ios":"levelo://app?vid=7670712f-5adc-4b0e-b1ba-9918ef56c6d2"},"vehicle_type_id":"4","last_reported":1703761545,"current_range_meters":0,"station_id":"ce4bhp92rcd13ifvqhag","pricing_plan_id":"free"},{"bike_id":"1976eff5-ef90-4804-858a-1d928880b574","system_id":"levelo_inurba_marseille","lat":43.340804,"lon":5.410219,"is_reserved":false,"is_disabled":false,"rental_uris":{"android":"levelo://app?vid=1976eff5-ef90-4804-858a-1d928880b574","ios":"levelo://app?vid=1976eff5-ef90-4804-858a-1d928880b574"},"vehicle_type_id":"4","last_reported":1703761545,"current_range_meters":11600,"station_id":"ce4bhqh2rcd13ifvqhlg","pricing_plan_id":"free"},{"bike_id":"385ef070-fa29-4b3e-a472-6a6cbb51ee3a","system_id":"levelo_inurba_marseille","lat":43.273125,"lon":5.390731,"is_reserved":false,"is_disabled":false,"rental_uris":{"android":"levelo://app?vid=385ef070-fa29-4b3e-a472-6a6cbb51ee3a","ios":"levelo://app?vid=385ef070-fa29-4b3e-a472-6a6cbb51ee3a"},"vehicle_type_id":"4","last_reported":1703761545,"current_range_meters":26800,"station_id":"ce4bhgp2rcd13ifvqfe0","pricing_plan_id":"free"},{"bike_id":"b0cd3bc2-dbe6-41e4-a560-612d7793317b","system_id":"levelo_inurba_marseille","lat":43.273125,"lon":5.390731,"is_reserved":false,"is_disabled":false,"rental_uris":{"android":"levelo://app?vid=b0cd3bc2-dbe6-41e4-a560-612d7793317b","ios":"levelo://app?vid=b0cd3bc2-dbe6-41e4-a560-612d7793317b"},"vehicle_type_id":"4","last_reported":1703761545,"current_range_meters":26000,"station_id":"ce4bhgp2rcd13ifvqfe0","pricing_plan_id":"free"},{"bike_id":"ee42e9e3-4172-4b96-8e4e-c75f2af7bbf1","system_id":"levelo_inurba_marseille","lat":43.273125,"lon":5.390731,"is_reserved":false,"is_disabled":false,"rental_uris":{"android":"levelo://app?vid=ee42e9e3-4172-4b96-8e4e-c75f2af7bbf1","ios":"levelo://app?vid=ee42e9e3-4172-4b96-8e4e-c75f2af7bbf1"},"vehicle_type_id":"4","last_reported":1703761545,"current_range_meters":24000,"station_id":"ce4bhgp2rcd13ifvqfe0","pricing_plan_id":"free"},{"bike_id":"6bee08e5-780c-476e-a929-383a3efdd1eb","system_id":"levelo_inurba_marseille","lat":43.274099,"lon":5.394019,"is_reserved":false,"is_disabled":false,"rental_uris":{"android":"levelo://app?vid=6bee08e5-780c-476e-a929-383a3efdd1eb","ios":"levelo://app?vid=6bee08e5-780c-476e-a929-383a3efdd1eb"},"vehicle_type_id":"4","last_reported":1703761545,"current_range_meters":31200,"station_id":"ce4bhdp2rcd13ifvqf20","pricing_plan_id":"free"},{"bike_id":"37483b21-f7e4-4faf-8418-cf2e24b41c46","system_id":"levelo_inurba_marseille","lat":43.274099,"lon":5.394019,"is_reserved":false,"is_disabled":false,"rental_uris":{"android":"levelo://app?vid=37483b21-f7e4-4faf-8418-cf2e24b41c46","ios":"levelo://app?vid=37483b21-f7e4-4faf-8418-cf2e24b41c46"},"vehicle_type_id":"4","last_reported":1703761545,"current_range_meters":26400,"station_id":"ce4bhdp2rcd13ifvqf20","pricing_plan_id":"free"},{"bike_id":"69f5a9d6-887d-48ee-9144-b2b28bd9cbb0","system_id":"levelo_inurba_marseille","lat":43.274103,"lon":5.394016,"is_reserved":false,"is_disabled":false,"rental_uris":{"android":"levelo://app?vid=69f5a9d6-887d-48ee-9144-b2b28bd9cbb0","ios":"levelo://app?vid=69f5a9d6-887d-48ee-9144-b2b28bd9cbb0"},"vehicle_type_id":"4","last_reported":1703761545,"current_range_meters":19200,"station_id":"ce4bhdp2rcd13ifvqf20","pricing_plan_id":"free"},{"bike_id":"d91d5b8c-50f5-4d6b-aba4-e927aa25bfdb","system_id":"levelo_inurba_marseille","lat":43.304096,"lon":5.425385,"is_reserved":false,"is_disabled":false,"rental_uris":{"android":"levelo://app?vid=d91d5b8c-50f5-4d6b-aba4-e927aa25bfdb","ios":"levelo://app?vid=d91d5b8c-50f5-4d6b-aba4-e927aa25bfdb"},"vehicle_type_id":"4","last_reported":1703761545,"current_range_meters":19600,"station_id":"ce4bhoh2rcd13ifvqh6g","pricing_plan_id":"free"},{"bike_id":"b89f3e84-2a8d-42bd-8dad-9572c651d04e","system_id":"levelo_inurba_marseille","lat":43.304096,"lon":5.425385,"is_reserved":false,"is_disabled":false,"rental_uris":{"android":"levelo://app?vid=b89f3e84-2a8d-42bd-8dad-9572c651d04e","ios":"levelo://app?vid=b89f3e84-2a8d-42bd-8dad-9572c651d04e"},"vehicle_type_id":"4","last_reported":1703761545,"current_range_meters":24000,"station_id":"ce4bhoh2rcd13ifvqh6g","pricing_plan_id":"free"},{"bike_id":"192d14a9-2a45-4774-aa3a-b122462e99a1","system_id":"levelo_inurba_marseille","lat":43.304096,"lon":5.425385,"is_reserved":false,"is_disabled":false,"rental_uris":{"android":"levelo://app?vid=192d14a9-2a45-4774-aa3a-b122462e99a1","ios":"levelo://app?vid=192d14a9-2a45-4774-aa3a-b122462e99a1"},"vehicle_type_id":"4","last_reported":1703761545,"current_range_meters":8400,"station_id":"ce4bhoh2rcd13ifvqh6g","pricing_plan_id":"free"},{"bike_id":"6a48db3f-9fc3-4404-b973-f4cc675c01c7","system_id":"levelo_inurba_marseille","lat":43.295523,"lon":5.422926,"is_reserved":false,"is_disabled":false,"rental_uris":{"android":"levelo://app?vid=6a48db3f-9fc3-4404-b973-f4cc675c01c7","ios":"levelo://app?vid=6a48db3f-9fc3-4404-b973-f4cc675c01c7"},"vehicle_type_id":"4","last_reported":1703761545,"current_range_meters":29600,"station_id":"ce4bhph2rcd13ifvqhdg","pricing_plan_id":"free"},{"bike_id":"bc660e5c-f7cd-4460-935e-226ad1eba4eb","system_id":"levelo_inurba_marseille","lat":43.295523,"lon":5.422926,"is_reserved":false,"is_disabled":false,"rental_uris":{"android":"levelo://app?vid=bc660e5c-f7cd-4460-935e-226ad1eba4eb","ios":"levelo://app?vid=bc660e5c-f7cd-4460-935e-226ad1eba4eb"},"vehicle_type_id":"4","last_reported":1703761545,"current_range_meters":29600,"station_id":"ce4bhph2rcd13ifvqhdg","pricing_plan_id":"free"},{"bike_id":"623e5527-a121-4ec1-8cc0-17b5fddea11b","system_id":"levelo_inurba_marseille","lat":43.295523,"lon":5.422926,"is_reserved":false,"is_disabled":false,"rental_uris":{"android":"levelo://app?vid=623e5527-a121-4ec1-8cc0-17b5fddea11b","ios":"levelo://app?vid=623e5527-a121-4ec1-8cc0-17b5fddea11b"},"vehicle_type_id":"4","last_reported":1703761545,"current_range_meters":27200,"station_id":"ce4bhph2rcd13ifvqhdg","pricing_plan_id":"free"},{"bike_id":"adf5111d-6f9b-4db5-a250-275ab771e390","system_id":"levelo_inurba_marseille","lat":43.295523,"lon":5.422926,"is_reserved":false,"is_disabled":false,"rental_uris":{"android":"levelo://app?vid=adf5111d-6f9b-4db5-a250-275ab771e390","ios":"levelo://app?vid=adf5111d-6f9b-4db5-a250-275ab771e390"},"vehicle_type_id":"4","last_reported":1703761545,"current_range_meters":25200,"station_id":"ce4bhph2rcd13ifvqhdg","pricing_plan_id":"free"},{"bike_id":"8748f0f6-f6da-400d-9caa-9a0f1740277b","system_id":"levelo_inurba_marseille","lat":43.295511,"lon":5.422926,"is_reserved":false,"is_disabled":false,"rental_uris":{"android":"levelo://app?vid=8748f0f6-f6da-400d-9caa-9a0f1740277b","ios":"levelo://app?vid=8748f0f6-f6da-400d-9caa-9a0f1740277b"},"vehicle_type_id":"4","last_reported":1703761545,"current_range_meters":28400,"station_id":"ce4bhph2rcd13ifvqhdg","pricing_plan_id":"free"},{"bike_id":"acec87c8-498e-46a9-a572-8de891a24d3a","system_id":"levelo_inurba_marseille","lat":43.295523,"lon":5.422926,"is_reserved":false,"is_disabled":false,"rental_uris":{"android":"levelo://app?vid=acec87c8-498e-46a9-a572-8de891a24d3a","ios":"levelo://app?vid=acec87c8-498e-46a9-a572-8de891a24d3a"},"vehicle_type_id":"4","last_reported":1703761545,"current_range_meters":25200,"station_id":"ce4bhph2rcd13ifvqhdg","pricing_plan_id":"free"},{"bike_id":"6d735bdc-6834-49ef-ad58-2a1b73a15a49","system_id":"levelo_inurba_marseille","lat":43.295523,"lon":5.422926,"is_reserved":false,"is_disabled":false,"rental_uris":{"android":"levelo://app?vid=6d735bdc-6834-49ef-ad58-2a1b73a15a49","ios":"levelo://app?vid=6d735bdc-6834-49ef-ad58-2a1b73a15a49"},"vehicle_type_id":"4","last_reported":1703761545,"current_range_meters":31200,"station_id":"ce4bhph2rcd13ifvqhdg","pricing_plan_id":"free"},{"bike_id":"e192df68-2c2b-482d-b6fd-3b8920434290","system_id":"levelo_inurba_marseille","lat":43.29548,"lon":5.42281,"is_reserved":false,"is_disabled":false,"rental_uris":{"android":"levelo://app?vid=e192df68-2c2b-482d-b6fd-3b8920434290","ios":"levelo://app?vid=e192df68-2c2b-482d-b6fd-3b8920434290"},"vehicle_type_id":"4","last_reported":1703761545,"current_range_meters":23600,"station_id":"ce4bhph2rcd13ifvqhdg","pricing_plan_id":"free"},{"bike_id":"23dbbee6-d4a1-4819-8d81-04184524b313","system_id":"levelo_inurba_marseille","lat":43.295511,"lon":5.422926,"is_reserved":false,"is_disabled":false,"rental_uris":{"android":"levelo://app?vid=23dbbee6-d4a1-4819-8d81-04184524b313","ios":"levelo://app?vid=23dbbee6-d4a1-4819-8d81-04184524b313"},"vehicle_type_id":"4","last_reported":1703761545,"current_range_meters":28800,"station_id":"ce4bhph2rcd13ifvqhdg","pricing_plan_id":"free"},{"bike_id":"0b70e928-b078-41a7-9c7e-d35a1f6d0e93","system_id":"levelo_inurba_marseille","lat":43.272124,"lon":5.391768,"is_reserved":false,"is_disabled":false,"rental_uris":{"android":"levelo://app?vid=0b70e928-b078-41a7-9c7e-d35a1f6d0e93","ios":"levelo://app?vid=0b70e928-b078-41a7-9c7e-d35a1f6d0e93"},"vehicle_type_id":"4","last_reported":1703761545,"current_range_meters":30800,"station_id":"ce4bhhp2rcd13ifvqfm0","pricing_plan_id":"free"},{"bike_id":"99419e8d-d3b0-4182-9fb4-820cc08fc744","system_id":"levelo_inurba_marseille","lat":43.272124,"lon":5.391768,"is_reserved":false,"is_disabled":false,"rental_uris":{"android":"levelo://app?vid=99419e8d-d3b0-4182-9fb4-820cc08fc744","ios":"levelo://app?vid=99419e8d-d3b0-4182-9fb4-820cc08fc744"},"vehicle_type_id":"4","last_reported":1703761545,"current_range_meters":24800,"station_id":"ce4bhhp2rcd13ifvqfm0","pricing_plan_id":"free"},{"bike_id":"f9ed5ad0-cd2e-4659-8f97-b92c5f77e8b1","system_id":"levelo_inurba_marseille","lat":43.272116,"lon":5.391747,"is_reserved":false,"is_disabled":false,"rental_uris":{"android":"levelo://app?vid=f9ed5ad0-cd2e-4659-8f97-b92c5f77e8b1","ios":"levelo://app?vid=f9ed5ad0-cd2e-4659-8f97-b92c5f77e8b1"},"vehicle_type_id":"4","last_reported":1703761545,"current_range_meters":29600,"station_id":"ce4bhhp2rcd13ifvqfm0","pricing_plan_id":"free"},{"bike_id":"4b9cf97f-153c-4d3f-98e1-f482ab908375","system_id":"levelo_inurba_marseille","lat":43.272118,"lon":5.391758,"is_reserved":false,"is_disabled":false,"rental_uris":{"android":"levelo://app?vid=4b9cf97f-153c-4d3f-98e1-f482ab908375","ios":"levelo://app?vid=4b9cf97f-153c-4d3f-98e1-f482ab908375"},"vehicle_type_id":"4","last_reported":1703761545,"current_range_meters":18800,"station_id":"ce4bhhp2rcd13ifvqfm0","pricing_plan_id":"free"},{"bike_id":"ee709b1a-27a1-41e3-9243-94661bb6de0d","system_id":"levelo_inurba_marseille","lat":43.272118,"lon":5.391758,"is_reserved":false,"is_disabled":false,"rental_uris":{"android":"levelo://app?vid=ee709b1a-27a1-41e3-9243-94661bb6de0d","ios":"levelo://app?vid=ee709b1a-27a1-41e3-9243-94661bb6de0d"},"vehicle_type_id":"4","last_reported":1703761545,"current_range_meters":28800,"station_id":"ce4bhhp2rcd13ifvqfm0","pricing_plan_id":"free"},{"bike_id":"56f6afd0-98b8-4bb7-88d4-0096ad488ff7","system_id":"levelo_inurba_marseille","lat":43.272118,"lon":5.391758,"is_reserved":false,"is_disabled":false,"rental_uris":{"android":"levelo://app?vid=56f6afd0-98b8-4bb7-88d4-0096ad488ff7","ios":"levelo://app?vid=56f6afd0-98b8-4bb7-88d4-0096ad488ff7"},"vehicle_type_id":"4","last_reported":1703761545,"current_range_meters":29200,"station_id":"ce4bhhp2rcd13ifvqfm0","pricing_plan_id":"free"},{"bike_id":"1c34232c-bac7-41df-b2fe-4d8d053e0f7a","system_id":"levelo_inurba_marseille","lat":43.272118,"lon":5.391758,"is_reserved":false,"is_disabled":false,"rental_uris":{"android":"levelo://app?vid=1c34232c-bac7-41df-b2fe-4d8d053e0f7a","ios":"levelo://app?vid=1c34232c-bac7-41df-b2fe-4d8d053e0f7a"},"vehicle_type_id":"4","last_reported":1703761545,"current_range_meters":31200,"station_id":"ce4bhhp2rcd13ifvqfm0","pricing_plan_id":"free"},{"bike_id":"167d97b1-7bef-471e-95c1-d8da2f89a58c","system_id":"levelo_inurba_marseille","lat":43.272118,"lon":5.391758,"is_reserved":false,"is_disabled":false,"rental_uris":{"android":"levelo://app?vid=167d97b1-7bef-471e-95c1-d8da2f89a58c","ios":"levelo://app?vid=167d97b1-7bef-471e-95c1-d8da2f89a58c"},"vehicle_type_id":"4","last_reported":1703761545,"current_range_meters":9600,"station_id":"ce4bhhp2rcd13ifvqfm0","pricing_plan_id":"free"},{"bike_id":"adc1d50e-753a-464f-aa70-596bb4de550c","system_id":"levelo_inurba_marseille","lat":43.272124,"lon":5.391768,"is_reserved":false,"is_disabled":false,"rental_uris":{"android":"levelo://app?vid=adc1d50e-753a-464f-aa70-596bb4de550c","ios":"levelo://app?vid=adc1d50e-753a-464f-aa70-596bb4de550c"},"vehicle_type_id":"4","last_reported":1703761545,"current_range_meters":11200,"station_id":"ce4bhhp2rcd13ifvqfm0","pricing_plan_id":"free"},{"bike_id":"f3481ee6-e4b8-43d4-8ac2-7b4affdc4747","system_id":"levelo_inurba_marseille","lat":43.272116,"lon":5.391763,"is_reserved":false,"is_disabled":false,"rental_uris":{"android":"levelo://app?vid=f3481ee6-e4b8-43d4-8ac2-7b4affdc4747","ios":"levelo://app?vid=f3481ee6-e4b8-43d4-8ac2-7b4affdc4747"},"vehicle_type_id":"4","last_reported":1703761545,"current_range_meters":24400,"station_id":"ce4bhhp2rcd13ifvqfm0","pricing_plan_id":"free"},{"bike_id":"ce745ffe-ccfe-422a-ad8a-f77e09f5ed86","system_id":"levelo_inurba_marseille","lat":43.272116,"lon":5.391747,"is_reserved":false,"is_disabled":false,"rental_uris":{"android":"levelo://app?vid=ce745ffe-ccfe-422a-ad8a-f77e09f5ed86","ios":"levelo://app?vid=ce745ffe-ccfe-422a-ad8a-f77e09f5ed86"},