{"last_updated":1724602183,"ttl":30,"version":"2.2","data":{"bikes":[{"bike_id":"66b04eb6-cf7d-48f8-aeed-28e8bed87851","system_id":"levelo_inurba_marseille","lat":43.312239,"lon":5.368562,"is_reserved":false,"is_disabled":false,"rental_uris":{"android":"levelo://app?vid=66b04eb6-cf7d-48f8-aeed-28e8bed87851","ios":"levelo://app?vid=66b04eb6-cf7d-48f8-aeed-28e8bed87851"},"vehicle_type_id":"4","last_reported":1724602183,"current_range_meters":3600,"station_id":"ce4bgl92rcd13ifvqbq0","pricing_plan_id":"cebpf4jnsgd1na2vs0mg"},{"bike_id":"0cc71d63-b9f7-4b89-bf0c-09b6d071e38c","system_id":"levelo_inurba_marseille","lat":43.312239,"lon":5.368562,"is_reserved":false,"is_disabled":false,"rental_uris":{"android":"levelo://app?vid=0cc71d63-b9f7-4b89-bf0c-09b6d071e38c","ios":"levelo://app?vid=0cc71d63-b9f7-4b89-bf0c-09b6d071e38c"},"vehicle_type_id":"4","last_reported":1724602183,"current_range_meters":31200,"station_id":"ce4bgl92rcd13ifvqbq0","pricing_plan_id":"cebpf4jnsgd1na2vs0mg"},{"bike_id":"874080d3-99b8-4cd5-ab60-f3d523949519","system_id":"levelo_inurba_marseille","lat":43.31056,"lon":5.36682,"is_reserved":false,"is_disabled":false,"rental_uris":{"android":"levelo://app?vid=874080d3-99b8-4cd5-ab60-f3d523949519","ios":"levelo://app?vid=874080d3-99b8-4cd5-ab60-f3d523949519"},"vehicle_type_id":"4","last_reported":1724602183,"current_range_meters":24400,"station_id":"","pricing_plan_id":"cebpf4jnsgd1na2vs0mg"},{"bike_id":"b3f16c62-7808-4ba0-8096-8c5b2c289f2c","system_id":"levelo_inurba_marseille","lat":43.309076,"lon":5.368465,"is_reserved":false,"is_disabled":false,"rental_uris":{"android":"levelo://app?vid=b3f16c62-7808-4ba0-8096-8c5b2c289f2c","ios":"levelo://app?vid=b3f16c62-7808-4ba0-8096-8c5b2c289f2c"},"vehicle_type_id":"4","last_reported":1724602183,"current_range_meters":27200,"station_id":"ce4bgn92rcd13ifvqbvg","pricing_plan_id":"cebpf4jnsgd1na2vs0mg"},{"bike_id":"182a894f-7d05-4920-a160-b61088bf2473","system_id":"levelo_inurba_marseille","lat":43.309076,"lon":5.368465,"is_reserved":false,"is_disabled":false,"rental_uris":{"android":"levelo://app?vid=182a894f-7d05-4920-a160-b61088bf2473","ios":"levelo://app?vid=182a894f-7d05-4920-a160-b61088bf2473"},"vehicle_type_id":"4","last_reported":1724602183,"current_range_meters":1600,"station_id":"ce4bgn92rcd13ifvqbvg","pricing_plan_id":"cebpf4jnsgd1na2vs0mg"},{"bike_id":"badc3832-9077-447c-a59d-0774c1bf5174","system_id":"levelo_inurba_marseille","lat":43.309076,"lon":5.368465,"is_reserved":false,"is_disabled":false,"rental_uris":{"android":"levelo://app?vid=badc3832-9077-447c-a59d-0774c1bf5174","ios":"levelo://app?vid=badc3832-9077-447c-a59d-0774c1bf5174"},"vehicle_type_id":"4","last_reported":1724602183,"current_range_meters":14400,"station_id":"ce4bgn92rcd13ifvqbvg","pricing_plan_id":"cebpf4jnsgd1na2vs0mg"},{"bike_id":"900c79d3-ec65-46b0-b8ea-9d457c7ca84c","system_id":"levelo_inurba_marseille","lat":43.30902,"lon":5.36842,"is_reserved":false,"is_disabled":false,"rental_uris":{"android":"levelo://app?vid=900c79d3-ec65-46b0-b8ea-9d457c7ca84c","ios":"levelo://app?vid=900c79d3-ec65-46b0-b8ea-9d457c7ca84c"},"vehicle_type_id":"4","last_reported":1724602183,"current_range_meters":5200,"station_id":"ce4bgn92rcd13ifvqbvg","pricing_plan_id":"cebpf4jnsgd1na2vs0mg"},{"bike_id":"fc1e94cd-3793-4053-abcc-bcb46f33e037","system_id":"levelo_inurba_marseille","lat":43.309039,"lon":5.371797,"is_reserved":false,"is_disabled":false,"rental_uris":{"android":"levelo://app?vid=fc1e94cd-3793-4053-abcc-bcb46f33e037","ios":"levelo://app?vid=fc1e94cd-3793-4053-abcc-bcb46f33e037"},"vehicle_type_id":"4","last_reported":1724602183,"current_range_meters":28800,"station_id":"ce4bguh2rcd13ifvqckg","pricing_plan_id":"cebpf4jnsgd1na2vs0mg"},{"bike_id":"3157b499-a22b-45f7-bd6a-ec8aee8a42dc","system_id":"levelo_inurba_marseille","lat":43.309034,"lon":5.371783,"is_reserved":false,"is_disabled":false,"rental_uris":{"android":"levelo://app?vid=3157b499-a22b-45f7-bd6a-ec8aee8a42dc","ios":"levelo://app?vid=3157b499-a22b-45f7-bd6a-ec8aee8a42dc"},"vehicle_type_id":"4","last_reported":1724602183,"current_range_meters":6400,"station_id":"ce4bguh2rcd13ifvqckg","pricing_plan_id":"cebpf4jnsgd1na2vs0mg"},{"bike_id":"cc621f22-0226-40b4-8a8d-0506d06749e3","system_id":"levelo_inurba_marseille","lat":43.30143,"lon":5.37413,"is_reserved":false,"is_disabled":false,"rental_uris":{"android":"levelo://app?vid=cc621f22-0226-40b4-8a8d-0506d06749e3","ios":"levelo://app?vid=cc621f22-0226-40b4-8a8d-0506d06749e3"},"vehicle_type_id":"4","last_reported":1724602183,"current_range_meters":30000,"station_id":"ce4bgs92rcd13ifvqcc0","pricing_plan_id":"cebpf4jnsgd1na2vs0mg"},{"bike_id":"3114d160-4f15-4a0f-83d7-a744dedec0ce","system_id":"levelo_inurba_marseille","lat":43.305714,"lon":5.365633,"is_reserved":false,"is_disabled":false,"rental_uris":{"android":"levelo://app?vid=3114d160-4f15-4a0f-83d7-a744dedec0ce","ios":"levelo://app?vid=3114d160-4f15-4a0f-83d7-a744dedec0ce"},"vehicle_type_id":"4","last_reported":1724602183,"current_range_meters":0,"station_id":"ce4bgs12rcd13ifvqcag","pricing_plan_id":"cebpf4jnsgd1na2vs0mg"},{"bike_id":"369a60c3-2c9f-4627-9094-0d27c2392d60","system_id":"levelo_inurba_marseille","lat":43.3053,"lon":5.36565,"is_reserved":false,"is_disabled":false,"rental_uris":{"android":"levelo://app?vid=369a60c3-2c9f-4627-9094-0d27c2392d60","ios":"levelo://app?vid=369a60c3-2c9f-4627-9094-0d27c2392d60"},"vehicle_type_id":"4","last_reported":1724602183,"current_range_meters":31200,"station_id":"ce4bgs12rcd13ifvqcag","pricing_plan_id":"cebpf4jnsgd1na2vs0mg"},{"bike_id":"cbcf826e-e5e9-4b33-8162-947fc31b04c2","system_id":"levelo_inurba_marseille","lat":43.305989,"lon":5.37225,"is_reserved":false,"is_disabled":false,"rental_uris":{"android":"levelo://app?vid=cbcf826e-e5e9-4b33-8162-947fc31b04c2","ios":"levelo://app?vid=cbcf826e-e5e9-4b33-8162-947fc31b04c2"},"vehicle_type_id":"4","last_reported":1724602183,"current_range_meters":25200,"station_id":"ce4bgqh2rcd13ifvqc4g","pricing_plan_id":"cebpf4jnsgd1na2vs0mg"},{"bike_id":"1e9f1b4a-a810-4a71-9d5e-ba9b9a532e13","system_id":"levelo_inurba_marseille","lat":43.30778,"lon":5.37652,"is_reserved":false,"is_disabled":false,"rental_uris":{"android":"levelo://app?vid=1e9f1b4a-a810-4a71-9d5e-ba9b9a532e13","ios":"levelo://app?vid=1e9f1b4a-a810-4a71-9d5e-ba9b9a532e13"},"vehicle_type_id":"4","last_reported":1724602183,"current_range_meters":0,"station_id":"ce4bgv92rcd13ifvqcq0","pricing_plan_id":"cebpf4jnsgd1na2vs0mg"},{"bike_id":"e48679ca-7c49-424e-b490-f4a2651fa150","system_id":"levelo_inurba_marseille","lat":43.307945,"lon":5.376487,"is_reserved":false,"is_disabled":false,"rental_uris":{"android":"levelo://app?vid=e48679ca-7c49-424e-b490-f4a2651fa150","ios":"levelo://app?vid=e48679ca-7c49-424e-b490-f4a2651fa150"},"vehicle_type_id":"4","last_reported":1724602183,"current_range_meters":29200,"station_id":"ce4bgv92rcd13ifvqcq0","pricing_plan_id":"cebpf4jnsgd1na2vs0mg"},{"bike_id":"3c3735cc-241f-4eb3-8820-33d3d0b86c09","system_id":"levelo_inurba_marseille","lat":43.317075,"lon":5.377367,"is_reserved":false,"is_disabled":false,"rental_uris":{"android":"levelo://app?vid=3c3735cc-241f-4eb3-8820-33d3d0b86c09","ios":"levelo://app?vid=3c3735cc-241f-4eb3-8820-33d3d0b86c09"},"vehicle_type_id":"4","last_reported":1724602183,"current_range_meters":10400,"station_id":"ce4bgth2rcd13ifvqch0","pricing_plan_id":"cebpf4jnsgd1na2vs0mg"},{"bike_id":"b365618b-1897-45f9-be18-872cd5b49b6c","system_id":"levelo_inurba_marseille","lat":43.317075,"lon":5.377367,"is_reserved":false,"is_disabled":false,"rental_uris":{"android":"levelo://app?vid=b365618b-1897-45f9-be18-872cd5b49b6c","ios":"levelo://app?vid=b365618b-1897-45f9-be18-872cd5b49b6c"},"vehicle_type_id":"4","last_reported":1724602183,"current_range_meters":19200,"station_id":"ce4bgth2rcd13ifvqch0","pricing_plan_id":"cebpf4jnsgd1na2vs0mg"},{"bike_id":"cfa2a6d7-acac-4419-92c4-da3290a7f740","system_id":"levelo_inurba_marseille","lat":43.317075,"lon":5.377367,"is_reserved":false,"is_disabled":false,"rental_uris":{"android":"levelo://app?vid=cfa2a6d7-acac-4419-92c4-da3290a7f740","ios":"levelo://app?vid=cfa2a6d7-acac-4419-92c4-da3290a7f740"},"vehicle_type_id":"4","last_reported":1724602183,"current_range_meters":10800,"station_id":"ce4bgth2rcd13ifvqch0","pricing_plan_id":"cebpf4jnsgd1na2vs0mg"},{"bike_id":"f3c92cfc-aec2-4200-a1cd-ae814ccccd50","system_id":"levelo_inurba_marseille","lat":43.317075,"lon":5.377367,"is_reserved":false,"is_disabled":false,"rental_uris":{"android":"levelo://app?vid=f3c92cfc-aec2-4200-a1cd-ae814ccccd50","ios":"levelo://app?vid=f3c92cfc-aec2-4200-a1cd-ae814ccccd50"},"vehicle_type_id":"4","last_reported":1724602183,"current_range_meters":20000,"station_id":"ce4bgth2rcd13ifvqch0","pricing_plan_id":"cebpf4jnsgd1na2vs0mg"},{"bike_id":"116fd324-370f-4465-a756-afd84b992a02","system_id":"levelo_inurba_marseille","lat":43.317075,"lon":5.377367,"is_reserved":false,"is_disabled":false,"rental_uris":{"android":"levelo://app?vid=116fd324-370f-4465-a756-afd84b992a02","ios":"levelo://app?vid=116fd324-370f-4465-a756-afd84b992a02"},"vehicle_type_id":"4","last_reported":1724602183,"current_range_meters":31200,"station_id":"ce4bgth2rcd13ifvqch0","pricing_plan_id":"cebpf4jnsgd1na2vs0mg"},{"bike_id":"2d518b23-dba9-4168-b67c-57853dcbd507","system_id":"levelo_inurba_marseille","lat":43.317075,"lon":5.377367,"is_reserved":false,"is_disabled":false,"rental_uris":{"android":"levelo://app?vid=2d518b23-dba9-4168-b67c-57853dcbd507","ios":"levelo://app?vid=2d518b23-dba9-4168-b67c-57853dcbd507"},"vehicle_type_id":"4","last_reported":1724602183,"current_range_meters":31200,"station_id":"ce4bgth2rcd13ifvqch0","pricing_plan_id":"cebpf4jnsgd1na2vs0mg"},{"bike_id":"e29fd17d-136e-4934-91fa-20e3c93ec834","system_id":"levelo_inurba_marseille","lat":43.31717,"lon":5.37749,"is_reserved":false,"is_disabled":false,"rental_uris":{"android":"levelo://app?vid=e29fd17d-136e-4934-91fa-20e3c93ec834","ios":"levelo://app?vid=e29fd17d-136e-4934-91fa-20e3c93ec834"},"vehicle_type_id":"4","last_reported":1724602183,"current_range_meters":12000,"station_id":"ce4bgth2rcd13ifvqch0","pricing_plan_id":"cebpf4jnsgd1na2vs0mg"},{"bike_id":"3d56a938-f9c4-4319-84b3-4a9a94176324","system_id":"levelo_inurba_marseille","lat":43.317075,"lon":5.377367,"is_reserved":false,"is_disabled":false,"rental_uris":{"android":"levelo://app?vid=3d56a938-f9c4-4319-84b3-4a9a94176324","ios":"levelo://app?vid=3d56a938-f9c4-4319-84b3-4a9a94176324"},"vehicle_type_id":"4","last_reported":1724602183,"current_range_meters":29600,"station_id":"ce4bgth2rcd13ifvqch0","pricing_plan_id":"cebpf4jnsgd1na2vs0mg"},{"bike_id":"f8866dbd-8e34-4b7a-9157-45f59ffcda26","system_id":"levelo_inurba_marseille","lat":43.279742,"lon":5.38744,"is_reserved":false,"is_disabled":false,"rental_uris":{"android":"levelo://app?vid=f8866dbd-8e34-4b7a-9157-45f59ffcda26","ios":"levelo://app?vid=f8866dbd-8e34-4b7a-9157-45f59ffcda26"},"vehicle_type_id":"4","last_reported":1724602183,"current_range_meters":22800,"station_id":"ce4bhg12rcd13ifvqf80","pricing_plan_id":"cebpf4jnsgd1na2vs0mg"},{"bike_id":"0a886396-f95b-4db2-a272-3cbe88f54580","system_id":"levelo_inurba_marseille","lat":43.30193,"lon":5.36613,"is_reserved":false,"is_disabled":false,"rental_uris":{"android":"levelo://app?vid=0a886396-f95b-4db2-a272-3cbe88f54580","ios":"levelo://app?vid=0a886396-f95b-4db2-a272-3cbe88f54580"},"vehicle_type_id":"4","last_reported":1724602183,"current_range_meters":0,"station_id":"ce4bgrh2rcd13ifvqc8g","pricing_plan_id":"cebpf4jnsgd1na2vs0mg"},{"bike_id":"a964792d-24f2-4cf1-add8-49224d765ba3","system_id":"levelo_inurba_marseille","lat":43.30186,"lon":5.36606,"is_reserved":false,"is_disabled":false,"rental_uris":{"android":"levelo://app?vid=a964792d-24f2-4cf1-add8-49224d765ba3","ios":"levelo://app?vid=a964792d-24f2-4cf1-add8-49224d765ba3"},"vehicle_type_id":"4","last_reported":1724602183,"current_range_meters":13200,"station_id":"","pricing_plan_id":"cebpf4jnsgd1na2vs0mg"},{"bike_id":"d67aeceb-04b9-4a43-9997-4d2089cb103f","system_id":"levelo_inurba_marseille","lat":43.311654,"lon":5.382675,"is_reserved":false,"is_disabled":false,"rental_uris":{"android":"levelo://app?vid=d67aeceb-04b9-4a43-9997-4d2089cb103f","ios":"levelo://app?vid=d67aeceb-04b9-4a43-9997-4d2089cb103f"},"vehicle_type_id":"4","last_reported":1724602183,"current_range_meters":20400,"station_id":"","pricing_plan_id":"cebpf4jnsgd1na2vs0mg"},{"bike_id":"19832974-f782-4ef4-bdff-f116d724fcbd","system_id":"levelo_inurba_marseille","lat":43.304606,"lon":5.379026,"is_reserved":false,"is_disabled":false,"rental_uris":{"android":"levelo://app?vid=19832974-f782-4ef4-bdff-f116d724fcbd","ios":"levelo://app?vid=19832974-f782-4ef4-bdff-f116d724fcbd"},"vehicle_type_id":"4","last_reported":1724602183,"current_range_meters":12000,"station_id":"ce4bgup2rcd13ifvqcn0","pricing_plan_id":"cebpf4jnsgd1na2vs0mg"},{"bike_id":"8ca97ace-6907-4f7b-8379-5d69db21888d","system_id":"levelo_inurba_marseille","lat":43.304606,"lon":5.379026,"is_reserved":false,"is_disabled":false,"rental_uris":{"android":"levelo://app?vid=8ca97ace-6907-4f7b-8379-5d69db21888d","ios":"levelo://app?vid=8ca97ace-6907-4f7b-8379-5d69db21888d"},"vehicle_type_id":"4","last_reported":1724602183,"current_range_meters":0,"station_id":"ce4bgup2rcd13ifvqcn0","pricing_plan_id":"cebpf4jnsgd1na2vs0mg"},{"bike_id":"057a31bb-10bc-48d2-8f0e-3cb5a5b2c996","system_id":"levelo_inurba_marseille","lat":43.324771,"lon":5.36557,"is_reserved":false,"is_disabled":false,"rental_uris":{"android":"levelo://app?vid=057a31bb-10bc-48d2-8f0e-3cb5a5b2c996","ios":"levelo://app?vid=057a31bb-10bc-48d2-8f0e-3cb5a5b2c996"},"vehicle_type_id":"4","last_reported":1724602183,"current_range_meters":21600,"station_id":"ce4bhs12rcd13ifvqhvg","pricing_plan_id":"cebpf4jnsgd1na2vs0mg"},{"bike_id":"d6a551e6-9641-42d5-be53-a905abbe0129","system_id":"levelo_inurba_marseille","lat":43.324771,"lon":5.36557,"is_reserved":false,"is_disabled":false,"rental_uris":{"android":"levelo://app?vid=d6a551e6-9641-42d5-be53-a905abbe0129","ios":"levelo://app?vid=d6a551e6-9641-42d5-be53-a905abbe0129"},"vehicle_type_id":"4","last_reported":1724602183,"current_range_meters":24800,"station_id":"ce4bhs12rcd13ifvqhvg","pricing_plan_id":"cebpf4jnsgd1na2vs0mg"},{"bike_id":"c30c57e5-e6a4-4301-8c1f-bb1d7a5e5a91","system_id":"levelo_inurba_marseille","lat":43.324849,"lon":5.365759,"is_reserved":false,"is_disabled":false,"rental_uris":{"android":"levelo://app?vid=c30c57e5-e6a4-4301-8c1f-bb1d7a5e5a91","ios":"levelo://app?vid=c30c57e5-e6a4-4301-8c1f-bb1d7a5e5a91"},"vehicle_type_id":"4","last_reported":1724602183,"current_range_meters":21200,"station_id":"ce4bhs12rcd13ifvqhvg","pricing_plan_id":"cebpf4jnsgd1na2vs0mg"},{"bike_id":"f74c7ab2-b71e-4c31-8284-4841f6584271","system_id":"levelo_inurba_marseille","lat":43.32487,"lon":5.36576,"is_reserved":false,"is_disabled":false,"rental_uris":{"android":"levelo://app?vid=f74c7ab2-b71e-4c31-8284-4841f6584271","ios":"levelo://app?vid=f74c7ab2-b71e-4c31-8284-4841f6584271"},"vehicle_type_id":"4","last_reported":1724602183,"current_range_meters":16400,"station_id":"ce4bhs12rcd13ifvqhvg","pricing_plan_id":"cebpf4jnsgd1na2vs0mg"},{"bike_id":"83d7180c-2f2f-4526-afd8-bf89c1839d1d","system_id":"levelo_inurba_marseille","lat":43.324898,"lon":5.365616,"is_reserved":false,"is_disabled":false,"rental_uris":{"android":"levelo://app?vid=83d7180c-2f2f-4526-afd8-bf89c1839d1d","ios":"levelo://app?vid=83d7180c-2f2f-4526-afd8-bf89c1839d1d"},"vehicle_type_id":"4","last_reported":1724602183,"current_range_meters":8800,"station_id":"ce4bhs12rcd13ifvqhvg","pricing_plan_id":"cebpf4jnsgd1na2vs0mg"},{"bike_id":"4b068ad2-1221-4476-9487-2b7eb5619d8a","system_id":"levelo_inurba_marseille","lat":43.31366,"lon":5.38364,"is_reserved":false,"is_disabled":false,"rental_uris":{"android":"levelo://app?vid=4b068ad2-1221-4476-9487-2b7eb5619d8a","ios":"levelo://app?vid=4b068ad2-1221-4476-9487-2b7eb5619d8a"},"vehicle_type_id":"4","last_reported":1724602183,"current_range_meters":0,"station_id":"","pricing_plan_id":"cebpf4jnsgd1na2vs0mg"},{"bike_id":"f22c9f95-2431-4e8c-b24a-89440fa7244c","system_id":"levelo_inurba_marseille","lat":43.310804,"lon":5.38359,"is_reserved":false,"is_disabled":false,"rental_uris":{"android":"levelo://app?vid=f22c9f95-2431-4e8c-b24a-89440fa7244c","ios":"levelo://app?vid=f22c9f95-2431-4e8c-b24a-89440fa7244c"},"vehicle_type_id":"4","last_reported":1724602183,"current_range_meters":0,"station_id":"ce4bgv92rcd13ifvqcr0","pricing_plan_id":"cebpf4jnsgd1na2vs0mg"},{"bike_id":"f4ce1945-3d92-49ad-9bc8-b3ce8b2735af","system_id":"levelo_inurba_marseille","lat":43.30143,"lon":5.37413,"is_reserved":false,"is_disabled":false,"rental_uris":{"android":"levelo://app?vid=f4ce1945-3d92-49ad-9bc8-b3ce8b2735af","ios":"levelo://app?vid=f4ce1945-3d92-49ad-9bc8-b3ce8b2735af"},"vehicle_type_id":"4","last_reported":1724602183,"current_range_meters":4800,"station_id":"ce4bgs92rcd13ifvqcc0","pricing_plan_id":"cebpf4jnsgd1na2vs0mg"},{"bike_id":"8e7b1e27-8248-4010-9384-04cdcbe652ed","system_id":"levelo_inurba_marseille","lat":43.29855,"lon":5.36296,"is_reserved":false,"is_disabled":false,"rental_uris":{"android":"levelo://app?vid=8e7b1e27-8248-4010-9384-04cdcbe652ed","ios":"levelo://app?vid=8e7b1e27-8248-4010-9384-04cdcbe652ed"},"vehicle_type_id":"4","last_reported":1724602183,"current_range_meters":4800,"station_id":"ce4bgpp2rcd13ifvqc3g","pricing_plan_id":"cebpf4jnsgd1na2vs0mg"},{"bike_id":"18a4d290-e842-4a64-8793-6d965ed9ca3e","system_id":"levelo_inurba_marseille","lat":43.29854,"lon":5.36297,"is_reserved":false,"is_disabled":false,"rental_uris":{"android":"levelo://app?vid=18a4d290-e842-4a64-8793-6d965ed9ca3e","ios":"levelo://app?vid=18a4d290-e842-4a64-8793-6d965ed9ca3e"},"vehicle_type_id":"4","last_reported":1724602183,"current_range_meters":2000,"station_id":"ce4bgpp2rcd13ifvqc3g","pricing_plan_id":"cebpf4jnsgd1na2vs0mg"},{"bike_id":"a28ea672-6903-4f16-b17d-4cf2d3cb3b43","system_id":"levelo_inurba_marseille","lat":43.29854,"lon":5.36283,"is_reserved":false,"is_disabled":false,"rental_uris":{"android":"levelo://app?vid=a28ea672-6903-4f16-b17d-4cf2d3cb3b43","ios":"levelo://app?vid=a28ea672-6903-4f16-b17d-4cf2d3cb3b43"},"vehicle_type_id":"4","last_reported":1724602183,"current_range_meters":20400,"station_id":"ce4bgpp2rcd13ifvqc3g","pricing_plan_id":"cebpf4jnsgd1na2vs0mg"},{"bike_id":"6e613e61-ce0f-4777-9e4f-4d410d0aa96f","system_id":"levelo_inurba_marseille","lat":43.29851,"lon":5.36286,"is_reserved":false,"is_disabled":false,"rental_uris":{"android":"levelo://app?vid=6e613e61-ce0f-4777-9e4f-4d410d0aa96f","ios":"levelo://app?vid=6e613e61-ce0f-4777-9e4f-4d410d0aa96f"},"vehicle_type_id":"4","last_reported":1724602183,"current_range_meters":1200,"station_id":"ce4bgpp2rcd13ifvqc3g","pricing_plan_id":"cebpf4jnsgd1na2vs0mg"},{"bike_id":"43637faa-bc57-4af9-9031-ccf7137dafc6","system_id":"levelo_inurba_marseille","lat":43.322878,"lon":5.382613,"is_reserved":false,"is_disabled":false,"rental_uris":{"android":"levelo://app?vid=43637faa-bc57-4af9-9031-ccf7137dafc6","ios":"levelo://app?vid=43637faa-bc57-4af9-9031-ccf7137dafc6"},"vehicle_type_id":"4","last_reported":1724602183,"current_range_meters":18400,"station_id":"ce4bhr12rcd13ifvqhqg","pricing_plan_id":"cebpf4jnsgd1na2vs0mg"},{"bike_id":"1600b445-4c74-401c-8ded-fbe3246e677e","system_id":"levelo_inurba_marseille","lat":43.32292,"lon":5.38258,"is_reserved":false,"is_disabled":false,"rental_uris":{"android":"levelo://app?vid=1600b445-4c74-401c-8ded-fbe3246e677e","ios":"levelo://app?vid=1600b445-4c74-401c-8ded-fbe3246e677e"},"vehicle_type_id":"4","last_reported":1724602183,"current_range_meters":24800,"station_id":"ce4bhr12rcd13ifvqhqg","pricing_plan_id":"cebpf4jnsgd1na2vs0mg"},{"bike_id":"dad9f0c9-90b4-43df-8056-7470095c029f","system_id":"levelo_inurba_marseille","lat":43.29706,"lon":5.36614,"is_reserved":false,"is_disabled":false,"rental_uris":{"android":"levelo://app?vid=dad9f0c9-90b4-43df-8056-7470095c029f","ios":"levelo://app?vid=dad9f0c9-90b4-43df-8056-7470095c029f"},"vehicle_type_id":"4","last_reported":1724602183,"current_range_meters":0,"station_id":"ce4bgn12rcd13ifvqbt0","pricing_plan_id":"cebpf4jnsgd1na2vs0mg"},{"bike_id":"2de101d0-5f24-4213-961a-2b7217348333","system_id":"levelo_inurba_marseille","lat":43.29703,"lon":5.36608,"is_reserved":false,"is_disabled":false,"rental_uris":{"android":"levelo://app?vid=2de101d0-5f24-4213-961a-2b7217348333","ios":"levelo://app?vid=2de101d0-5f24-4213-961a-2b7217348333"},"vehicle_type_id":"4","last_reported":1724602183,"current_range_meters":0,"station_id":"ce4bgn12rcd13ifvqbt0","pricing_plan_id":"cebpf4jnsgd1na2vs0mg"},{"bike_id":"a1e99883-ebd9-4a95-9319-3060149f26fc","system_id":"levelo_inurba_marseille","lat":43.29621,"lon":5.37154,"is_reserved":false,"is_disabled":false,"rental_uris":{"android":"levelo://app?vid=a1e99883-ebd9-4a95-9319-3060149f26fc","ios":"levelo://app?vid=a1e99883-ebd9-4a95-9319-3060149f26fc"},"vehicle_type_id":"4","last_reported":1724602183,"current_range_meters":0,"station_id":"ce4bgnh2rcd13ifvqc0g","pricing_plan_id":"cebpf4jnsgd1na2vs0mg"},{"bike_id":"0f80e4a7-dd24-4bcb-898e-d82ea20cfec9","system_id":"levelo_inurba_marseille","lat":43.2963,"lon":5.36031,"is_reserved":false,"is_disabled":false,"rental_uris":{"android":"levelo://app?vid=0f80e4a7-dd24-4bcb-898e-d82ea20cfec9","ios":"levelo://app?vid=0f80e4a7-dd24-4bcb-898e-d82ea20cfec9"},"vehicle_type_id":"4","last_reported":1724602183,"current_range_meters":0,"station_id":"","pricing_plan_id":"cebpf4jnsgd1na2vs0mg"},{"bike_id":"7b1c3923-3f6a-4889-8449-de3ecf90f29b","system_id":"levelo_inurba_marseille","lat":43.299028,"lon":5.381509,"is_reserved":false,"is_disabled":false,"rental_uris":{"android":"levelo://app?vid=7b1c3923-3f6a-4889-8449-de3ecf90f29b","ios":"levelo://app?vid=7b1c3923-3f6a-4889-8449-de3ecf90f29b"},"vehicle_type_id":"4","last_reported":1724602183,"current_range_meters":3200,"station_id":"ce4bgj12rcd13ifvqbc0","pricing_plan_id":"cebpf4jnsgd1na2vs0mg"},{"bike_id":"17c3bb5d-b5ed-4b29-99dc-52e513d91a51","system_id":"levelo_inurba_marseille","lat":43.299028,"lon":5.381509,"is_reserved":false,"is_disabled":false,"rental_uris":{"android":"levelo://app?vid=17c3bb5d-b5ed-4b29-99dc-52e513d91a51","ios":"levelo://app?vid=17c3bb5d-b5ed-4b29-99dc-52e513d91a51"},"vehicle_type_id":"4","last_reported":1724602183,"current_range_meters":0,"station_id":"ce4bgj12rcd13ifvqbc0","pricing_plan_id":"cebpf4jnsgd1na2vs0mg"},{"bike_id":"f442278c-ec9a-47fe-a4f8-3485a9a3dc64","system_id":"levelo_inurba_marseille","lat":43.296935,"lon":5.376544,"is_reserved":false,"is_disabled":false,"rental_uris":{"android":"levelo://app?vid=f442278c-ec9a-47fe-a4f8-3485a9a3dc64","ios":"levelo://app?vid=f442278c-ec9a-47fe-a4f8-3485a9a3dc64"},"vehicle_type_id":"4","last_reported":1724602183,"current_range_meters":0,"station_id":"ce4bgkh2rcd13ifvqbl0","pricing_plan_id":"cebpf4jnsgd1na2vs0mg"},{"bike_id":"0736e6ac-a978-4abe-9325-f847b36b9af1","system_id":"levelo_inurba_marseille","lat":43.309589,"lon":5.390258,"is_reserved":false,"is_disabled":false,"rental_uris":{"android":"levelo://app?vid=0736e6ac-a978-4abe-9325-f847b36b9af1","ios":"levelo://app?vid=0736e6ac-a978-4abe-9325-f847b36b9af1"},"vehicle_type_id":"4","last_reported":1724602183,"current_range_meters":0,"station_id":"ce4bgup2rcd13ifvqco0","pricing_plan_id":"cebpf4jnsgd1na2vs0mg"},{"bike_id":"26d4fc90-1759-4083-bd5b-1d40fb66e9bc","system_id":"levelo_inurba_marseille","lat":43.309589,"lon":5.390258,"is_reserved":false,"is_disabled":false,"rental_uris":{"android":"levelo://app?vid=26d4fc90-1759-4083-bd5b-1d40fb66e9bc","ios":"levelo://app?vid=26d4fc90-1759-4083-bd5b-1d40fb66e9bc"},"vehicle_type_id":"4","last_reported":1724602183,"current_range_meters":5200,"station_id":"ce4bgup2rcd13ifvqco0","pricing_plan_id":"cebpf4jnsgd1na2vs0mg"},{"bike_id":"78a2b8c2-838c-4352-9f35-b02f35c72209","system_id":"levelo_inurba_marseille","lat":43.309589,"lon":5.390258,"is_reserved":false,"is_disabled":false,"rental_uris":{"android":"levelo://app?vid=78a2b8c2-838c-4352-9f35-b02f35c72209","ios":"levelo://app?vid=78a2b8c2-838c-4352-9f35-b02f35c72209"},"vehicle_type_id":"4","last_reported":1724602183,"current_range_meters":5600,"station_id":"ce4bgup2rcd13ifvqco0","pricing_plan_id":"cebpf4jnsgd1na2vs0mg"},{"bike_id":"2f2ff0a6-14c8-47d6-9f12-af9aa8eea929","system_id":"levelo_inurba_marseille","lat":43.317557,"lon":5.390173,"is_reserved":false,"is_disabled":false,"rental_uris":{"android":"levelo://app?vid=2f2ff0a6-14c8-47d6-9f12-af9aa8eea929","ios":"levelo://app?vid=2f2ff0a6-14c8-47d6-9f12-af9aa8eea929"},"vehicle_type_id":"4","last_reported":1724602183,"current_range_meters":18800,"station_id":"ce4bhqp2rcd13ifvqhng","pricing_plan_id":"cebpf4jnsgd1na2vs0mg"},{"bike_id":"169c8dd2-efd6-4549-9d53-fb0724182b85","system_id":"levelo_inurba_marseille","lat":43.295279,"lon":5.375048,"is_reserved":false,"is_disabled":false,"rental_uris":{"android":"levelo://app?vid=169c8dd2-efd6-4549-9d53-fb0724182b85","ios":"levelo://app?vid=169c8dd2-efd6-4549-9d53-fb0724182b85"},"vehicle_type_id":"4","last_reported":1724602183,"current_range_meters":24000,"station_id":"ce4bgkp2rcd13ifvqbmg","pricing_plan_id":"cebpf4jnsgd1na2vs0mg"},{"bike_id":"178afe1d-fa9b-44c9-a1da-f0d6e694e2eb","system_id":"levelo_inurba_marseille","lat":43.29902,"lon":5.382767,"is_reserved":false,"is_disabled":false,"rental_uris":{"android":"levelo://app?vid=178afe1d-fa9b-44c9-a1da-f0d6e694e2eb","ios":"levelo://app?vid=178afe1d-fa9b-44c9-a1da-f0d6e694e2eb"},"vehicle_type_id":"4","last_reported":1724602183,"current_range_meters":1600,"station_id":"","pricing_plan_id":"cebpf4jnsgd1na2vs0mg"},{"bike_id":"c4d5673b-3ea2-4326-9098-0655323cd46c","system_id":"levelo_inurba_marseille","lat":43.298037,"lon":5.381066,"is_reserved":false,"is_disabled":false,"rental_uris":{"android":"levelo://app?vid=c4d5673b-3ea2-4326-9098-0655323cd46c","ios":"levelo://app?vid=c4d5673b-3ea2-4326-9098-0655323cd46c"},"vehicle_type_id":"4","last_reported":1724602183,"current_range_meters":9200,"station_id":"ce4bgip2rcd13ifvqbb0","pricing_plan_id":"cebpf4jnsgd1na2vs0mg"},{"bike_id":"b57424b9-0705-4d48-998c-0566d2020b5d","system_id":"levelo_inurba_marseille","lat":43.298037,"lon":5.381066,"is_reserved":false,"is_disabled":false,"rental_uris":{"android":"levelo://app?vid=b57424b9-0705-4d48-998c-0566d2020b5d","ios":"levelo://app?vid=b57424b9-0705-4d48-998c-0566d2020b5d"},"vehicle_type_id":"4","last_reported":1724602183,"current_range_meters":19200,"station_id":"ce4bgip2rcd13ifvqbb0","pricing_plan_id":"cebpf4jnsgd1na2vs0mg"},{"bike_id":"5deb3709-264a-4a01-9779-23a898fb03c8","system_id":"levelo_inurba_marseille","lat":43.29786,"lon":5.38079,"is_reserved":false,"is_disabled":false,"rental_uris":{"android":"levelo://app?vid=5deb3709-264a-4a01-9779-23a898fb03c8","ios":"levelo://app?vid=5deb3709-264a-4a01-9779-23a898fb03c8"},"vehicle_type_id":"4","last_reported":1724602183,"current_range_meters":0,"station_id":"ce4bgip2rcd13ifvqbb0","pricing_plan_id":"cebpf4jnsgd1na2vs0mg"},{"bike_id":"e6d941b3-2ea7-4a9f-b2a2-f14c0f532b07","system_id":"levelo_inurba_marseille","lat":43.298037,"lon":5.381066,"is_reserved":false,"is_disabled":false,"rental_uris":{"android":"levelo://app?vid=e6d941b3-2ea7-4a9f-b2a2-f14c0f532b07","ios":"levelo://app?vid=e6d941b3-2ea7-4a9f-b2a2-f14c0f532b07"},"vehicle_type_id":"4","last_reported":1724602183,"current_range_meters":3200,"station_id":"ce4bgip2rcd13ifvqbb0","pricing_plan_id":"cebpf4jnsgd1na2vs0mg"},{"bike_id":"d61bf42a-09f3-48a6-9c6d-136bb35a1962","system_id":"levelo_inurba_marseille","lat":43.296263,"lon":5.377094,"is_reserved":false,"is_disabled":false,"rental_uris":{"android":"levelo://app?vid=d61bf42a-09f3-48a6-9c6d-136bb35a1962","ios":"levelo://app?vid=d61bf42a-09f3-48a6-9c6d-136bb35a1962"},"vehicle_type_id":"4","last_reported":1724602183,"current_range_meters":0,"station_id":"ce4bgi92rcd13ifvqb90","pricing_plan_id":"cebpf4jnsgd1na2vs0mg"},{"bike_id":"14f21bf5-99b7-4313-9d34-03bf6258b822","system_id":"levelo_inurba_marseille","lat":43.304274,"lon":5.388873,"is_reserved":false,"is_disabled":false,"rental_uris":{"android":"levelo://app?vid=14f21bf5-99b7-4313-9d34-03bf6258b822","ios":"levelo://app?vid=14f21bf5-99b7-4313-9d34-03bf6258b822"},"vehicle_type_id":"4","last_reported":1724602183,"current_range_meters":22800,"station_id":"ce4bgk12rcd13ifvqbi0","pricing_plan_id":"cebpf4jnsgd1na2vs0mg"},{"bike_id":"3cfda085-57d3-4558-a903-ad10f2b8fea3","system_id":"levelo_inurba_marseille","lat":43.296263,"lon":5.377094,"is_reserved":false,"is_disabled":false,"rental_uris":{"android":"levelo://app?vid=3cfda085-57d3-4558-a903-ad10f2b8fea3","ios":"levelo://app?vid=3cfda085-57d3-4558-a903-ad10f2b8fea3"},"vehicle_type_id":"4","last_reported":1724602183,"current_range_meters":0,"station_id":"ce4bgi92rcd13ifvqb90","pricing_plan_id":"cebpf4jnsgd1na2vs0mg"},{"bike_id":"75fc1480-b8a7-4931-ba47-6bcb57effeee","system_id":"levelo_inurba_marseille","lat":43.296277,"lon":5.377108,"is_reserved":false,"is_disabled":false,"rental_uris":{"android":"levelo://app?vid=75fc1480-b8a7-4931-ba47-6bcb57effeee","ios":"levelo://app?vid=75fc1480-b8a7-4931-ba47-6bcb57effeee"},"vehicle_type_id":"4","last_reported":1724602183,"current_range_meters":22800,"station_id":"ce4bgi92rcd13ifvqb90","pricing_plan_id":"cebpf4jnsgd1na2vs0mg"},{"bike_id":"3dc49097-8082-4f7c-8b43-45e57ea99dd4","system_id":"levelo_inurba_marseille","lat":43.2952,"lon":5.37497,"is_reserved":false,"is_disabled":false,"rental_uris":{"android":"levelo://app?vid=3dc49097-8082-4f7c-8b43-45e57ea99dd4","ios":"levelo://app?vid=3dc49097-8082-4f7c-8b43-45e57ea99dd4"},"vehicle_type_id":"4","last_reported":1724602183,"current_range_meters":0,"station_id":"ce4bgkp2rcd13ifvqbmg","pricing_plan_id":"cebpf4jnsgd1na2vs0mg"},{"bike_id":"6857ab44-20bc-4838-a7a4-eef5a827dbc0","system_id":"levelo_inurba_marseille","lat":43.299724,"lon":5.384848,"is_reserved":false,"is_disabled":false,"rental_uris":{"android":"levelo://app?vid=6857ab44-20bc-4838-a7a4-eef5a827dbc0","ios":"levelo://app?vid=6857ab44-20bc-4838-a7a4-eef5a827dbc0"},"vehicle_type_id":"4","last_reported":1724602183,"current_range_meters":0,"station_id":"ce4bgj92rcd13ifvqbd0","pricing_plan_id":"cebpf4jnsgd1na2vs0mg"},{"bike_id":"175e0caa-08df-4e37-bff3-413df847d9a1","system_id":"levelo_inurba_marseille","lat":43.299717,"lon":5.384845,"is_reserved":false,"is_disabled":false,"rental_uris":{"android":"levelo://app?vid=175e0caa-08df-4e37-bff3-413df847d9a1","ios":"levelo://app?vid=175e0caa-08df-4e37-bff3-413df847d9a1"},"vehicle_type_id":"4","last_reported":1724602183,"current_range_meters":11600,"station_id":"ce4bgj92rcd13ifvqbd0","pricing_plan_id":"cebpf4jnsgd1na2vs0mg"},{"bike_id":"cef5f484-bc3d-4052-ba89-395d45af3f85","system_id":"levelo_inurba_marseille","lat":43.295279,"lon":5.375048,"is_reserved":false,"is_disabled":false,"rental_uris":{"android":"levelo://app?vid=cef5f484-bc3d-4052-ba89-395d45af3f85","ios":"levelo://app?vid=cef5f484-bc3d-4052-ba89-395d45af3f85"},"vehicle_type_id":"4","last_reported":1724602183,"current_range_meters":0,"station_id":"ce4bgkp2rcd13ifvqbmg","pricing_plan_id":"cebpf4jnsgd1na2vs0mg"},{"bike_id":"94a958ef-c699-4880-96ee-7cb3ede92320","system_id":"levelo_inurba_marseille","lat":43.29508,"lon":5.37509,"is_reserved":false,"is_disabled":false,"rental_uris":{"android":"levelo://app?vid=94a958ef-c699-4880-96ee-7cb3ede92320","ios":"levelo://app?vid=94a958ef-c699-4880-96ee-7cb3ede92320"},"vehicle_type_id":"4","last_reported":1724602183,"current_range_meters":4400,"station_id":"ce4bgkp2rcd13ifvqbmg","pricing_plan_id":"cebpf4jnsgd1na2vs0mg"},{"bike_id":"8ebded1a-91b4-45ac-8d6e-a149cc7e8839","system_id":"levelo_inurba_marseille","lat":43.31437,"lon":5.3929,"is_reserved":false,"is_disabled":false,"rental_uris":{"android":"levelo://app?vid=8ebded1a-91b4-45ac-8d6e-a149cc7e8839","ios":"levelo://app?vid=8ebded1a-91b4-45ac-8d6e-a149cc7e8839"},"vehicle_type_id":"4","last_reported":1724602183,"current_range_meters":15200,"station_id":"","pricing_plan_id":"cebpf4jnsgd1na2vs0mg"},{"bike_id":"76178856-ae0e-4e01-aca9-71cd6aa97650","system_id":"levelo_inurba_marseille","lat":43.30136,"lon":5.38779,"is_reserved":false,"is_disabled":false,"rental_uris":{"android":"levelo://app?vid=76178856-ae0e-4e01-aca9-71cd6aa97650","ios":"levelo://app?vid=76178856-ae0e-4e01-aca9-71cd6aa97650"},"vehicle_type_id":"4","last_reported":1724602183,"current_range_meters":31200,"station_id":"","pricing_plan_id":"cebpf4jnsgd1na2vs0mg"},{"bike_id":"66f2b824-ac58-4bca-a80d-11dae4bf6220","system_id":"levelo_inurba_marseille","lat":43.30136,"lon":5.38784,"is_reserved":false,"is_disabled":false,"rental_uris":{"android":"levelo://app?vid=66f2b824-ac58-4bca-a80d-11dae4bf6220","ios":"levelo://app?vid=66f2b824-ac58-4bca-a80d-11dae4bf6220"},"vehicle_type_id":"4","last_reported":1724602183,"current_range_meters":31600,"station_id":"","pricing_plan_id":"cebpf4jnsgd1na2vs0mg"},{"bike_id":"c513683f-9c11-414a-ac47-0d4265410f4d","system_id":"levelo_inurba_marseille","lat":43.32367,"lon":5.388836,"is_reserved":false,"is_disabled":false,"rental_uris":{"android":"levelo://app?vid=c513683f-9c11-414a-ac47-0d4265410f4d","ios":"levelo://app?vid=c513683f-9c11-414a-ac47-0d4265410f4d"},"vehicle_type_id":"4","last_reported":1724602183,"current_range_meters":24400,"station_id":"ce4bhqp2rcd13ifvqhog","pricing_plan_id":"cebpf4jnsgd1na2vs0mg"},{"bike_id":"6785bad9-6698-44b9-893e-88211cea84f5","system_id":"levelo_inurba_marseille","lat":43.32367,"lon":5.388836,"is_reserved":false,"is_disabled":false,"rental_uris":{"android":"levelo://app?vid=6785bad9-6698-44b9-893e-88211cea84f5","ios":"levelo://app?vid=6785bad9-6698-44b9-893e-88211cea84f5"},"vehicle_type_id":"4","last_reported":1724602183,"current_range_meters":18400,"station_id":"ce4bhqp2rcd13ifvqhog","pricing_plan_id":"cebpf4jnsgd1na2vs0mg"},{"bike_id":"0509c888-846b-4ef0-bea6-9b36817e7760","system_id":"levelo_inurba_marseille","lat":43.32367,"lon":5.388836,"is_reserved":false,"is_disabled":false,"rental_uris":{"android":"levelo://app?vid=0509c888-846b-4ef0-bea6-9b36817e7760","ios":"levelo://app?vid=0509c888-846b-4ef0-bea6-9b36817e7760"},"vehicle_type_id":"4","last_reported":1724602183,"current_range_meters":6400,"station_id":"ce4bhqp2rcd13ifvqhog","pricing_plan_id":"cebpf4jnsgd1na2vs0mg"},{"bike_id":"9b27aca0-2bbf-4afc-92f3-6c845669063d","system_id":"levelo_inurba_marseille","lat":43.32367,"lon":5.388836,"is_reserved":false,"is_disabled":false,"rental_uris":{"android":"levelo://app?vid=9b27aca0-2bbf-4afc-92f3-6c845669063d","ios":"levelo://app?vid=9b27aca0-2bbf-4afc-92f3-6c845669063d"},"vehicle_type_id":"4","last_reported":1724602183,"current_range_meters":9200,"station_id":"ce4bhqp2rcd13ifvqhog","pricing_plan_id":"cebpf4jnsgd1na2vs0mg"},{"bike_id":"5a25dd36-05fa-4d72-9438-3cf4234ef78d","system_id":"levelo_inurba_marseille","lat":43.32367,"lon":5.388836,"is_reserved":false,"is_disabled":false,"rental_uris":{"android":"levelo://app?vid=5a25dd36-05fa-4d72-9438-3cf4234ef78d","ios":"levelo://app?vid=5a25dd36-05fa-4d72-9438-3cf4234ef78d"},"vehicle_type_id":"4","last_reported":1724602183,"current_range_meters":9600,"station_id":"ce4bhqp2rcd13ifvqhog","pricing_plan_id":"cebpf4jnsgd1na2vs0mg"},{"bike_id":"ba926642-6e59-4e13-8c6e-cf9a6110f7e5","system_id":"levelo_inurba_marseille","lat":43.29601,"lon":5.381084,"is_reserved":false,"is_disabled":false,"rental_uris":{"android":"levelo://app?vid=ba926642-6e59-4e13-8c6e-cf9a6110f7e5","ios":"levelo://app?vid=ba926642-6e59-4e13-8c6e-cf9a6110f7e5"},"vehicle_type_id":"4","last_reported":1724602183,"current_range_meters":2400,"station_id":"ce4bgl12rcd13ifvqbo0","pricing_plan_id":"cebpf4jnsgd1na2vs0mg"},{"bike_id":"c8338904-078e-4cdc-93ff-df88bbbadcc4","system_id":"levelo_inurba_marseille","lat":43.293009,"lon":5.374584,"is_reserved":false,"is_disabled":false,"rental_uris":{"android":"levelo://app?vid=c8338904-078e-4cdc-93ff-df88bbbadcc4","ios":"levelo://app?vid=c8338904-078e-4cdc-93ff-df88bbbadcc4"},"vehicle_type_id":"4","last_reported":1724602183,"current_range_meters":5600,"station_id":"ce4bgi12rcd13ifvqb70","pricing_plan_id":"cebpf4jnsgd1na2vs0mg"},{"bike_id":"f147455e-5794-409f-a991-a8910b42a33a","system_id":"levelo_inurba_marseille","lat":43.293009,"lon":5.374584,"is_reserved":false,"is_disabled":false,"rental_uris":{"android":"levelo://app?vid=f147455e-5794-409f-a991-a8910b42a33a","ios":"levelo://app?vid=f147455e-5794-409f-a991-a8910b42a33a"},"vehicle_type_id":"4","last_reported":1724602183,"current_range_meters":0,"station_id":"ce4bgi12rcd13ifvqb70","pricing_plan_id":"cebpf4jnsgd1na2vs0mg"},{"bike_id":"cf21499e-f46c-4ef9-86a5-15820c49d39c","system_id":"levelo_inurba_marseille","lat":43.30297,"lon":5.39196,"is_reserved":false,"is_disabled":false,"rental_uris":{"android":"levelo://app?vid=cf21499e-f46c-4ef9-86a5-15820c49d39c","ios":"levelo://app?vid=cf21499e-f46c-4ef9-86a5-15820c49d39c"},"vehicle_type_id":"4","last_reported":1724602183,"current_range_meters":20800,"station_id":"ce4bgkh2rcd13ifvqbk0","pricing_plan_id":"cebpf4jnsgd1na2vs0mg"},{"bike_id":"074bb554-73e1-4029-940f-2c5080d61730","system_id":"levelo_inurba_marseille","lat":43.2922,"lon":5.36297,"is_reserved":false,"is_disabled":false,"rental_uris":{"android":"levelo://app?vid=074bb554-73e1-4029-940f-2c5080d61730","ios":"levelo://app?vid=074bb554-73e1-4029-940f-2c5080d61730"},"vehicle_type_id":"4","last_reported":1724602183,"current_range_meters":0,"station_id":"","pricing_plan_id":"cebpf4jnsgd1na2vs0mg"},{"bike_id":"dfe57467-ec35-43db-8ed8-5d96c07deaba","system_id":"levelo_inurba_marseille","lat":43.303002,"lon":5.392142,"is_reserved":false,"is_disabled":false,"rental_uris":{"android":"levelo://app?vid=dfe57467-ec35-43db-8ed8-5d96c07deaba","ios":"levelo://app?vid=dfe57467-ec35-43db-8ed8-5d96c07deaba"},"vehicle_type_id":"4","last_reported":1724602183,"current_range_meters":0,"station_id":"ce4bgkh2rcd13ifvqbk0","pricing_plan_id":"cebpf4jnsgd1na2vs0mg"},{"bike_id":"0c1c04e1-6dbb-4d70-a195-daa8acc5ae1e","system_id":"levelo_inurba_marseille","lat":43.302992,"lon":5.392136,"is_reserved":false,"is_disabled":false,"rental_uris":{"android":"levelo://app?vid=0c1c04e1-6dbb-4d70-a195-daa8acc5ae1e","ios":"levelo://app?vid=0c1c04e1-6dbb-4d70-a195-daa8acc5ae1e"},"vehicle_type_id":"4","last_reported":1724602183,"current_range_meters":30000,"station_id":"ce4bgkh2rcd13ifvqbk0","pricing_plan_id":"cebpf4jnsgd1na2vs0mg"},{"bike_id":"f5150ffd-1d46-4d73-bddf-8349e1750d53","system_id":"levelo_inurba_marseille","lat":43.293687,"lon":5.37848,"is_reserved":false,"is_disabled":false,"rental_uris":{"android":"levelo://app?vid=f5150ffd-1d46-4d73-bddf-8349e1750d53","ios":"levelo://app?vid=f5150ffd-1d46-4d73-bddf-8349e1750d53"},"vehicle_type_id":"4","last_reported":1724602183,"current_range_meters":0,"station_id":"ce4bgjh2rcd13ifvqbf0","pricing_plan_id":"cebpf4jnsgd1na2vs0mg"},{"bike_id":"66952629-1557-4497-9d98-c86a74680f6f","system_id":"levelo_inurba_marseille","lat":43.29232,"lon":5.36055,"is_reserved":false,"is_disabled":false,"rental_uris":{"android":"levelo://app?vid=66952629-1557-4497-9d98-c86a74680f6f","ios":"levelo://app?vid=66952629-1557-4497-9d98-c86a74680f6f"},"vehicle_type_id":"4","last_reported":1724602183,"current_range_meters":31600,"station_id":"ce4bhbh2rcd13ifvqeqg","pricing_plan_id":"cebpf4jnsgd1na2vs0mg"},{"bike_id":"d78c1afe-20b4-467e-9a36-85ccd405e5cd","system_id":"levelo_inurba_marseille","lat":43.300852,"lon":5.390859,"is_reserved":false,"is_disabled":false,"rental_uris":{"android":"levelo://app?vid=d78c1afe-20b4-467e-9a36-85ccd405e5cd","ios":"levelo://app?vid=d78c1afe-20b4-467e-9a36-85ccd405e5cd"},"vehicle_type_id":"4","last_reported":1724602183,"current_range_meters":26000,"station_id":"ce4bh192rcd13ifvqdb0","pricing_plan_id":"cebpf4jnsgd1na2vs0mg"},{"bike_id":"a7b1cced-329e-4c26-94d4-29b706b19215","system_id":"levelo_inurba_marseille","lat":43.30085,"lon":5.390856,"is_reserved":false,"is_disabled":false,"rental_uris":{"android":"levelo://app?vid=a7b1cced-329e-4c26-94d4-29b706b19215","ios":"levelo://app?vid=a7b1cced-329e-4c26-94d4-29b706b19215"},"vehicle_type_id":"4","last_reported":1724602183,"current_range_meters":1600,"station_id":"ce4bh192rcd13ifvqdb0","pricing_plan_id":"cebpf4jnsgd1na2vs0mg"},{"bike_id":"1bbaf348-e199-4891-9b15-efe6fb52771b","system_id":"levelo_inurba_marseille","lat":43.292311,"lon":5.360731,"is_reserved":false,"is_disabled":false,"rental_uris":{"android":"levelo://app?vid=1bbaf348-e199-4891-9b15-efe6fb52771b","ios":"levelo://app?vid=1bbaf348-e199-4891-9b15-efe6fb52771b"},"vehicle_type_id":"4","last_reported":1724602183,"current_range_meters":2400,"station_id":"ce4bhbh2rcd13ifvqeqg","pricing_plan_id":"cebpf4jnsgd1na2vs0mg"},{"bike_id":"74139301-5edb-4351-997a-82234fb5b283","system_id":"levelo_inurba_marseille","lat":43.292311,"lon":5.360731,"is_reserved":false,"is_disabled":false,"rental_uris":{"android":"levelo://app?vid=74139301-5edb-4351-997a-82234fb5b283","ios":"levelo://app?vid=74139301-5edb-4351-997a-82234fb5b283"},"vehicle_type_id":"4","last_reported":1724602183,"current_range_meters":31200,"station_id":"ce4bhbh2rcd13ifvqeqg","pricing_plan_id":"cebpf4jnsgd1na2vs0mg"},{"bike_id":"8cb99832-c406-4d13-b263-5ad60234d0ad","system_id":"levelo_inurba_marseille","lat":43.292311,"lon":5.360731,"is_reserved":false,"is_disabled":false,"rental_uris":{"android":"levelo://app?vid=8cb99832-c406-4d13-b263-5ad60234d0ad","ios":"levelo://app?vid=8cb99832-c406-4d13-b263-5ad60234d0ad"},"vehicle_type_id":"4","last_reported":1724602183,"current_range_meters":29200,"station_id":"ce4bhbh2rcd13ifvqeqg","pricing_plan_id":"cebpf4jnsgd1na2vs0mg"},{"bike_id":"83a161f7-2c01-44ba-b61a-b7bd8365d16d","system_id":"levelo_inurba_marseille","lat":43.292311,"lon":5.360731,"is_reserved":false,"is_disabled":false,"rental_uris":{"android":"levelo://app?vid=83a161f7-2c01-44ba-b61a-b7bd8365d16d","ios":"levelo://app?vid=83a161f7-2c01-44ba-b61a-b7bd8365d16d"},"vehicle_type_id":"4","last_reported":1724602183,"current_range_meters":31200,"station_id":"ce4bhbh2rcd13ifvqeqg","pricing_plan_id":"cebpf4jnsgd1na2vs0mg"},{"bike_id":"40194a02-cb71-4a06-88d4-e765cb6d9e83","system_id":"levelo_inurba_marseille","lat":43.31367,"lon":5.395974,"is_reserved":false,"is_disabled":false,"rental_uris":{"android":"levelo://app?vid=40194a02-cb71-4a06-88d4-e765cb6d9e83","ios":"levelo://app?vid=40194a02-cb71-4a06-88d4-e765cb6d9e83"},"vehicle_type_id":"4","last_reported":1724602183,"current_range_meters":20800,"station_id":"","pricing_plan_id":"cebpf4jnsgd1na2vs0mg"},{"bike_id":"b93f9e68-938c-47b7-901c-f27c6a49899a","system_id":"levelo_inurba_marseille","lat":43.298764,"lon":5.388973,"is_reserved":false,"is_disabled":false,"rental_uris":{"android":"levelo://app?vid=b93f9e68-938c-47b7-901c-f27c6a49899a","ios":"levelo://app?vid=b93f9e68-938c-47b7-901c-f27c6a49899a"},"vehicle_type_id":"4","last_reported":1724602183,"current_range_meters":10800,"station_id":"ce4bh392rcd13ifvqdl0","pricing_plan_id":"cebpf4jnsgd1na2vs0mg"},{"bike_id":"ac11c10b-97e5-4ca1-a74f-e2339e375365","system_id":"levelo_inurba_marseille","lat":43.313291,"lon":5.396838,"is_reserved":false,"is_disabled":false,"rental_uris":{"android":"levelo://app?vid=ac11c10b-97e5-4ca1-a74f-e2339e375365","ios":"levelo://app?vid=ac11c10b-97e5-4ca1-a74f-e2339e375365"},"vehicle_type_id":"4","last_reported":1724602183,"current_range_meters":26800,"station_id":"ce4bgvp2rcd13ifvqcu0","pricing_plan_id":"cebpf4jnsgd1na2vs0mg"},{"bike_id":"b633ef25-c506-40ce-a635-bf690740bd27","system_id":"levelo_inurba_marseille","lat":43.29529,"lon":5.385581,"is_reserved":false,"is_disabled":false,"rental_uris":{"android":"levelo://app?vid=b633ef25-c506-40ce-a635-bf690740bd27","ios":"levelo://app?vid=b633ef25-c506-40ce-a635-bf690740bd27"},"vehicle_type_id":"4","last_reported":1724602183,"current_range_meters":4400,"station_id":"ce4bgih2rcd13ifvqba0","pricing_plan_id":"cebpf4jnsgd1na2vs0mg"},{"bike_id":"ae71d523-70aa-42d7-bcb3-b01b8ea7b8b9","system_id":"levelo_inurba_marseille","lat":43.29529,"lon":5.385581,"is_reserved":false,"is_disabled":false,"rental_uris":{"android":"levelo://app?vid=ae71d523-70aa-42d7-bcb3-b01b8ea7b8b9","ios":"levelo://app?vid=ae71d523-70aa-42d7-bcb3-b01b8ea7b8b9"},"vehicle_type_id":"4","last_reported":1724602183,"current_range_meters":0,"station_id":"ce4bgih2rcd13ifvqba0","pricing_plan_id":"cebpf4jnsgd1na2vs0mg"},{"bike_id":"5873b82f-c7df-43aa-bd92-b5c0985eea8c","system_id":"levelo_inurba_marseille","lat":43.2919,"lon":5.356407,"is_reserved":false,"is_disabled":false,"rental_uris":{"android":"levelo://app?vid=5873b82f-c7df-43aa-bd92-b5c0985eea8c","ios":"levelo://app?vid=5873b82f-c7df-43aa-bd92-b5c0985eea8c"},"vehicle_type_id":"4","last_reported":1724602183,"current_range_meters":5600,"station_id":"ce4bhbp2rcd13ifvqerg","pricing_plan_id":"cebpf4jnsgd1na2vs0mg"},{"bike_id":"cb725a2a-b749-4e61-8bfa-005958bc5b0a","system_id":"levelo_inurba_marseille","lat":43.290779,"lon":5.371482,"is_reserved":false,"is_disabled":false,"rental_uris":{"android":"levelo://app?vid=cb725a2a-b749-4e61-8bfa-005958bc5b0a","ios":"levelo://app?vid=cb725a2a-b749-4e61-8bfa-005958bc5b0a"},"vehicle_type_id":"4","last_reported":1724602183,"current_range_meters":9200,"station_id":"ce4bh5p2rcd13ifvqe4g","pricing_plan_id":"cebpf4jnsgd1na2vs0mg"},{"bike_id":"9de109c2-dea9-4217-81b2-3eb085caf99a","system_id":"levelo_inurba_marseille","lat":43.33471,"lon":5.36113,"is_reserved":false,"is_disabled":false,"rental_uris":{"android":"levelo://app?vid=9de109c2-dea9-4217-81b2-3eb085caf99a","ios":"levelo://app?vid=9de109c2-dea9-4217-81b2-3eb085caf99a"},"vehicle_type_id":"4","last_reported":1724602183,"current_range_meters":14800,"station_id":"","pricing_plan_id":"cebpf4jnsgd1na2vs0mg"},{"bike_id":"0bcdb962-acf8-44cd-8a4d-19b9207ca203","system_id":"levelo_inurba_marseille","lat":43.294153,"lon":5.386305,"is_reserved":false,"is_disabled":false,"rental_uris":{"android":"levelo://app?vid=0bcdb962-acf8-44cd-8a4d-19b9207ca203","ios":"levelo://app?vid=0bcdb962-acf8-44cd-8a4d-19b9207ca203"},"vehicle_type_id":"4","last_reported":1724602183,"current_range_meters":0,"station_id":"ce4bh2h2rcd13ifvqdh0","pricing_plan_id":"cebpf4jnsgd1na2vs0mg"},{"bike_id":"8f8dacf3-62ad-481d-ade1-ac316d5214fc","system_id":"levelo_inurba_marseille","lat":43.294162,"lon":5.386292,"is_reserved":false,"is_disabled":false,"rental_uris":{"android":"levelo://app?vid=8f8dacf3-62ad-481d-ade1-ac316d5214fc","ios":"levelo://app?vid=8f8dacf3-62ad-481d-ade1-ac316d5214fc"},"vehicle_type_id":"4","last_reported":1724602183,"current_range_meters":5200,"station_id":"ce4bh2h2rcd13ifvqdh0","pricing_plan_id":"cebpf4jnsgd1na2vs0mg"},{"bike_id":"5f54cea7-83ea-4999-a121-41207f18c228","system_id":"levelo_inurba_marseille","lat":43.294153,"lon":5.386305,"is_reserved":false,"is_disabled":false,"rental_uris":{"android":"levelo://app?vid=5f54cea7-83ea-4999-a121-41207f18c228","ios":"levelo://app?vid=5f54cea7-83ea-4999-a121-41207f18c228"},"vehicle_type_id":"4","last_reported":1724602183,"current_range_meters":19200,"station_id":"ce4bh2h2rcd13ifvqdh0","pricing_plan_id":"cebpf4jnsgd1na2vs0mg"},{"bike_id":"416b96c6-c3bd-4869-bb62-4ed81b109a78","system_id":"levelo_inurba_marseille","lat":43.289184,"lon":5.366408,"is_reserved":false,"is_disabled":false,"rental_uris":{"android":"levelo://app?vid=416b96c6-c3bd-4869-bb62-4ed81b109a78","ios":"levelo://app?vid=416b96c6-c3bd-4869-bb62-4ed81b109a78"},"vehicle_type_id":"4","last_reported":1724602183,"current_range_meters":22800,"station_id":"ce4bhap2rcd13ifvqek0","pricing_plan_id":"cebpf4jnsgd1na2vs0mg"},{"bike_id":"ca62dacb-6a74-4d16-bb4a-fffd59b73842","system_id":"levelo_inurba_marseille","lat":43.289184,"lon":5.366408,"is_reserved":false,"is_disabled":false,"rental_uris":{"android":"levelo://app?vid=ca62dacb-6a74-4d16-bb4a-fffd59b73842","ios":"levelo://app?vid=ca62dacb-6a74-4d16-bb4a-fffd59b73842"},"vehicle_type_id":"4","last_reported":1724602183,"current_range_meters":4000,"station_id":"ce4bhap2rcd13ifvqek0","pricing_plan_id":"cebpf4jnsgd1na2vs0mg"},{"bike_id":"dd4dee14-4c1a-4482-9e36-8949cd086236","system_id":"levelo_inurba_marseille","lat":43.289184,"lon":5.366408,"is_reserved":false,"is_disabled":false,"rental_uris":{"android":"levelo://app?vid=dd4dee14-4c1a-4482-9e36-8949cd086236","ios":"levelo://app?vid=dd4dee14-4c1a-4482-9e36-8949cd086236"},"vehicle_type_id":"4","last_reported":1724602183,"current_range_meters":1200,"station_id":"ce4bhap2rcd13ifvqek0","pricing_plan_id":"cebpf4jnsgd1na2vs0mg"},{"bike_id":"022be45b-2e0f-484e-a9ed-470c78b834a7","system_id":"levelo_inurba_marseille","lat":43.28936,"lon":5.36635,"is_reserved":false,"is_disabled":false,"rental_uris":{"android":"levelo://app?vid=022be45b-2e0f-484e-a9ed-470c78b834a7","ios":"levelo://app?vid=022be45b-2e0f-484e-a9ed-470c78b834a7"},"vehicle_type_id":"4","last_reported":1724602183,"current_range_meters":800,"station_id":"ce4bhap2rcd13ifvqek0","pricing_plan_id":"cebpf4jnsgd1na2vs0mg"},{"bike_id":"009bacda-8416-4557-8c28-83c5b150e381","system_id":"levelo_inurba_marseille","lat":43.289184,"lon":5.366408,"is_reserved":false,"is_disabled":false,"rental_uris":{"android":"levelo://app?vid=009bacda-8416-4557-8c28-83c5b150e381","ios":"levelo://app?vid=009bacda-8416-4557-8c28-83c5b150e381"},"vehicle_type_id":"4","last_reported":1724602183,"current_range_meters":1600,"station_id":"ce4bhap2rcd13ifvqek0","pricing_plan_id":"cebpf4jnsgd1na2vs0mg"},{"bike_id":"cfdde651-1932-4a12-b326-0b60f54a60ad","system_id":"levelo_inurba_marseille","lat":43.28931,"lon":5.36637,"is_reserved":false,"is_disabled":false,"rental_uris":{"android":"levelo://app?vid=cfdde651-1932-4a12-b326-0b60f54a60ad","ios":"levelo://app?vid=cfdde651-1932-4a12-b326-0b60f54a60ad"},"vehicle_type_id":"4","last_reported":1724602183,"current_range_meters":400,"station_id":"ce4bhap2rcd13ifvqek0","pricing_plan_id":"cebpf4jnsgd1na2vs0mg"},{"bike_id":"1fe030bd-18b2-42e5-8534-43414e301b2a","system_id":"levelo_inurba_marseille","lat":43.292644,"lon":5.384257,"is_reserved":false,"is_disabled":false,"rental_uris":{"android":"levelo://app?vid=1fe030bd-18b2-42e5-8534-43414e301b2a","ios":"levelo://app?vid=1fe030bd-18b2-42e5-8534-43414e301b2a"},"vehicle_type_id":"4","last_reported":1724602183,"current_range_meters":16400,"station_id":"ce4bh692rcd13ifvqea0","pricing_plan_id":"cebpf4jnsgd1na2vs0mg"},{"bike_id":"26610fea-2432-41e5-b239-ff8b7176318c","system_id":"levelo_inurba_marseille","lat":43.292642,"lon":5.384254,"is_reserved":false,"is_disabled":false,"rental_uris":{"android":"levelo://app?vid=26610fea-2432-41e5-b239-ff8b7176318c","ios":"levelo://app?vid=26610fea-2432-41e5-b239-ff8b7176318c"},"vehicle_type_id":"4","last_reported":1724602183,"current_range_meters":26800,"station_id":"ce4bh692rcd13ifvqea0","pricing_plan_id":"cebpf4jnsgd1na2vs0mg"},{"bike_id":"33cb74c5-ffe7-40ac-be2c-318371e34e48","system_id":"levelo_inurba_marseille","lat":43.292642,"lon":5.384254,"is_reserved":false,"is_disabled":false,"rental_uris":{"android":"levelo://app?vid=33cb74c5-ffe7-40ac-be2c-318371e34e48","ios":"levelo://app?vid=33cb74c5-ffe7-40ac-be2c-318371e34e48"},"vehicle_type_id":"4","last_reported":1724602183,"current_range_meters":20400,"station_id":"ce4bh692rcd13ifvqea0","pricing_plan_id":"cebpf4jnsgd1na2vs0mg"},{"bike_id":"4d4f4702-dc37-42b2-8a94-bb0cad704545","system_id":"levelo_inurba_marseille","lat":43.29007,"lon":5.35615,"is_reserved":false,"is_disabled":false,"rental_uris":{"android":"levelo://app?vid=4d4f4702-dc37-42b2-8a94-bb0cad704545","ios":"levelo://app?vid=4d4f4702-dc37-42b2-8a94-bb0cad704545"},"vehicle_type_id":"4","last_reported":1724602183,"current_range_meters":0,"station_id":"ce4bhb92rcd13ifvqen0","pricing_plan_id":"cebpf4jnsgd1na2vs0mg"},{"bike_id":"38940d2a-6192-426e-b5dc-a8a433e4d1db","system_id":"levelo_inurba_marseille","lat":43.290103,"lon":5.356114,"is_reserved":false,"is_disabled":false,"rental_uris":{"android":"levelo://app?vid=38940d2a-6192-426e-b5dc-a8a433e4d1db","ios":"levelo://app?vid=38940d2a-6192-426e-b5dc-a8a433e4d1db"},"vehicle_type_id":"4","last_reported":1724602183,"current_range_meters":23600,"station_id":"ce4bhb92rcd13ifvqen0","pricing_plan_id":"cebpf4jnsgd1na2vs0mg"},{"bike_id":"94c8019c-2f1d-4912-9de7-a84bd8c87712","system_id":"levelo_inurba_marseille","lat":43.290104,"lon":5.356111,"is_reserved":false,"is_disabled":false,"rental_uris":{"android":"levelo://app?vid=94c8019c-2f1d-4912-9de7-a84bd8c87712","ios":"levelo://app?vid=94c8019c-2f1d-4912-9de7-a84bd8c87712"},"vehicle_type_id":"4","last_reported":1724602183,"current_range_meters":31200,"station_id":"ce4bhb92rcd13ifvqen0","pricing_plan_id":"cebpf4jnsgd1na2vs0mg"},{"bike_id":"8959deb4-4b39-4a29-aa77-51fa887c727b","system_id":"levelo_inurba_marseille","lat":43.290104,"lon":5.356111,"is_reserved":false,"is_disabled":false,"rental_uris":{"android":"levelo://app?vid=8959deb4-4b39-4a29-aa77-51fa887c727b","ios":"levelo://app?vid=8959deb4-4b39-4a29-aa77-51fa887c727b"},"vehicle_type_id":"4","last_reported":1724602183,"current_range_meters":30800,"station_id":"ce4bhb92rcd13ifvqen0","pricing_plan_id":"cebpf4jnsgd1na2vs0mg"},{"bike_id":"a095f5fe-f938-4cd4-97d7-c8748327a2ad","system_id":"levelo_inurba_marseille","lat":43.28999,"lon":5.35609,"is_reserved":false,"is_disabled":false,"rental_uris":{"android":"levelo://app?vid=a095f5fe-f938-4cd4-97d7-c8748327a2ad","ios":"levelo://app?vid=a095f5fe-f938-4cd4-97d7-c8748327a2ad"},"vehicle_type_id":"4","last_reported":1724602183,"current_range_meters":23200,"station_id":"ce4bhb92rcd13ifvqen0","pricing_plan_id":"cebpf4jnsgd1na2vs0mg"},{"bike_id":"0f8a3dd1-89da-4d16-b2c6-c10e9f5de0db","system_id":"levelo_inurba_marseille","lat":43.290995,"lon":5.381361,"is_reserved":false,"is_disabled":false,"rental_uris":{"android":"levelo://app?vid=0f8a3dd1-89da-4d16-b2c6-c10e9f5de0db","ios":"levelo://app?vid=0f8a3dd1-89da-4d16-b2c6-c10e9f5de0db"},"vehicle_type_id":"4","last_reported":1724602183,"current_range_meters":18800,"station_id":"ce4bh512rcd13ifvqe2g","pricing_plan_id":"cebpf4jnsgd1na2vs0mg"},{"bike_id":"51e0ab2b-084e-4ec3-acad-ea62688553d9","system_id":"levelo_inurba_marseille","lat":43.290995,"lon":5.381361,"is_reserved":false,"is_disabled":false,"rental_uris":{"android":"levelo://app?vid=51e0ab2b-084e-4ec3-acad-ea62688553d9","ios":"levelo://app?vid=51e0ab2b-084e-4ec3-acad-ea62688553d9"},"vehicle_type_id":"4","last_reported":1724602183,"current_range_meters":17600,"station_id":"ce4bh512rcd13ifvqe2g","pricing_plan_id":"cebpf4jnsgd1na2vs0mg"},{"bike_id":"fa31b093-f8df-4727-b1dc-15296b827ac2","system_id":"levelo_inurba_marseille","lat":43.297807,"lon":5.393533,"is_reserved":false,"is_disabled":false,"rental_uris":{"android":"levelo://app?vid=fa31b093-f8df-4727-b1dc-15296b827ac2","ios":"levelo://app?vid=fa31b093-f8df-4727-b1dc-15296b827ac2"},"vehicle_type_id":"4","last_reported":1724602183,"current_range_meters":31200,"station_id":"chh1huq6cuj3fo74tm60","pricing_plan_id":"cebpf4jnsgd1na2vs0mg"},{"bike_id":"9f1ca99b-4d0c-4426-abce-2ed4a29658be","system_id":"levelo_inurba_marseille","lat":43.297807,"lon":5.393533,"is_reserved":false,"is_disabled":false,"rental_uris":{"android":"levelo://app?vid=9f1ca99b-4d0c-4426-abce-2ed4a29658be","ios":"levelo://app?vid=9f1ca99b-4d0c-4426-abce-2ed4a29658be"},"vehicle_type_id":"4","last_reported":1724602183,"current_range_meters":31200,"station_id":"chh1huq6cuj3fo74tm60","pricing_plan_id":"cebpf4jnsgd1na2vs0mg"},{"bike_id":"93ade065-451c-4759-aad7-f3d94952a493","system_id":"levelo_inurba_marseille","lat":43.2979,"lon":5.39351,"is_reserved":false,"is_disabled":false,"rental_uris":{"android":"levelo://app?vid=93ade065-451c-4759-aad7-f3d94952a493","ios":"levelo://app?vid=93ade065-451c-4759-aad7-f3d94952a493"},"vehicle_type_id":"4","last_reported":1724602183,"current_range_meters":31200,"station_id":"chh1huq6cuj3fo74tm60","pricing_plan_id":"cebpf4jnsgd1na2vs0mg"},{"bike_id":"0356e7c6-107c-487e-a391-99a355aae6be","system_id":"levelo_inurba_marseille","lat":43.330442,"lon":5.389148,"is_reserved":false,"is_disabled":false,"rental_uris":{"android":"levelo://app?vid=0356e7c6-107c-487e-a391-99a355aae6be","ios":"levelo://app?vid=0356e7c6-107c-487e-a391-99a355aae6be"},"vehicle_type_id":"4","last_reported":1724602183,"current_range_meters":6400,"station_id":"ce4bhr92rcd13ifvqhrg","pricing_plan_id":"cebpf4jnsgd1na2vs0mg"},{"bike_id":"a1de4a04-a13e-4789-aa2a-a430b6a1aacd","system_id":"levelo_inurba_marseille","lat":43.33024,"lon":5.39043,"is_reserved":false,"is_disabled":false,"rental_uris":{"android":"levelo://app?vid=a1de4a04-a13e-4789-aa2a-a430b6a1aacd","ios":"levelo://app?vid=a1de4a04-a13e-4789-aa2a-a430b6a1aacd"},"vehicle_type_id":"4","last_reported":1724602183,"current_range_meters":22400,"station_id":"ce4bhr92rcd13ifvqhrg","pricing_plan_id":"cebpf4jnsgd1na2vs0mg"},{"bike_id":"6b14f081-d5d5-4ef0-acf5-f57559822d8e","system_id":"levelo_inurba_marseille","lat":43.330442,"lon":5.389148,"is_reserved":false,"is_disabled":false,"rental_uris":{"android":"levelo://app?vid=6b14f081-d5d5-4ef0-acf5-f57559822d8e","ios":"levelo://app?vid=6b14f081-d5d5-4ef0-acf5-f57559822d8e"},"vehicle_type_id":"4","last_reported":1724602183,"current_range_meters":26400,"station_id":"ce4bhr92rcd13ifvqhrg","pricing_plan_id":"cebpf4jnsgd1na2vs0mg"},{"bike_id":"2f411b73-7e20-4c3b-abf8-0c2d4968564a","system_id":"levelo_inurba_marseille","lat":43.33026,"lon":5.39046,"is_reserved":false,"is_disabled":false,"rental_uris":{"android":"levelo://app?vid=2f411b73-7e20-4c3b-abf8-0c2d4968564a","ios":"levelo://app?vid=2f411b73-7e20-4c3b-abf8-0c2d4968564a"},"vehicle_type_id":"4","last_reported":1724602183,"current_range_meters":6800,"station_id":"ce4bhr92rcd13ifvqhrg","pricing_plan_id":"cebpf4jnsgd1na2vs0mg"},{"bike_id":"70c9c738-9bed-4dd5-b156-8fe0c52a94ad","system_id":"levelo_inurba_marseille","lat":43.2901,"lon":5.381269,"is_reserved":false,"is_disabled":false,"rental_uris":{"android":"levelo://app?vid=70c9c738-9bed-4dd5-b156-8fe0c52a94ad","ios":"levelo://app?vid=70c9c738-9bed-4dd5-b156-8fe0c52a94ad"},"vehicle_type_id":"4","last_reported":1724602183,"current_range_meters":5200,"station_id":"ce4bh4p2rcd13ifvqe1g","pricing_plan_id":"cebpf4jnsgd1na2vs0mg"},{"bike_id":"5c7aae4d-4e54-4922-a608-87b9d7ddcc73","system_id":"levelo_inurba_marseille","lat":43.312609,"lon":5.401662,"is_reserved":false,"is_disabled":false,"rental_uris":{"android":"levelo://app?vid=5c7aae4d-4e54-4922-a608-87b9d7ddcc73","ios":"levelo://app?vid=5c7aae4d-4e54-4922-a608-87b9d7ddcc73"},"vehicle_type_id":"4","last_reported":1724602183,"current_range_meters":24000,"station_id":"ce4bh092rcd13ifvqd30","pricing_plan_id":"cebpf4jnsgd1na2vs0mg"},{"bike_id":"c594b3e3-1ba6-43b9-a1c1-be8533666e55","system_id":"levelo_inurba_marseille","lat":43.33751,"lon":5.37441,"is_reserved":false,"is_disabled":false,"rental_uris":{"android":"levelo://app?vid=c594b3e3-1ba6-43b9-a1c1-be8533666e55","ios":"levelo://app?vid=c594b3e3-1ba6-43b9-a1c1-be8533666e55"},"vehicle_type_id":"4","last_reported":1724602183,"current_range_meters":22800,"station_id":"","pricing_plan_id":"cebpf4jnsgd1na2vs0mg"},{"bike_id":"bbd61e08-9e65-4e59-b304-83e8619d821a","system_id":"levelo_inurba_marseille","lat":43.309371,"lon":5.401449,"is_reserved":false,"is_disabled":false,"rental_uris":{"android":"levelo://app?vid=bbd61e08-9e65-4e59-b304-83e8619d821a","ios":"levelo://app?vid=bbd61e08-9e65-4e59-b304-83e8619d821a"},"vehicle_type_id":"4","last_reported":1724602183,"current_range_meters":2400,"station_id":"ce4bgvp2rcd13ifvqct0","pricing_plan_id":"cebpf4jnsgd1na2vs0mg"},{"bike_id":"dfa062e6-965a-46e3-86c5-1dc86503ede5","system_id":"levelo_inurba_marseille","lat":43.287805,"lon":5.373689,"is_reserved":false,"is_disabled":false,"rental_uris":{"android":"levelo://app?vid=dfa062e6-965a-46e3-86c5-1dc86503ede5","ios":"levelo://app?vid=dfa062e6-965a-46e3-86c5-1dc86503ede5"},"vehicle_type_id":"4","last_reported":1724602183,"current_range_meters":30000,"station_id":"","pricing_plan_id":"cebpf4jnsgd1na2vs0mg"},{"bike_id":"db399c75-49ad-4419-a288-38737e32025d","system_id":"levelo_inurba_marseille","lat":43.337552,"lon":5.374572,"is_reserved":false,"is_disabled":false,"rental_uris":{"android":"levelo://app?vid=db399c75-49ad-4419-a288-38737e32025d","ios":"levelo://app?vid=db399c75-49ad-4419-a288-38737e32025d"},"vehicle_type_id":"4","last_reported":1724602183,"current_range_meters":24400,"station_id":"","pricing_plan_id":"cebpf4jnsgd1na2vs0mg"},{"bike_id":"a6de0161-1a37-4484-af54-217f3b7611b4","system_id":"levelo_inurba_marseille","lat":43.3375,"lon":5.37493,"is_reserved":false,"is_disabled":false,"rental_uris":{"android":"levelo://app?vid=a6de0161-1a37-4484-af54-217f3b7611b4","ios":"levelo://app?vid=a6de0161-1a37-4484-af54-217f3b7611b4"},"vehicle_type_id":"4","last_reported":1724602183,"current_range_meters":28800,"station_id":"","pricing_plan_id":"cebpf4jnsgd1na2vs0mg"},{"bike_id":"cdc35d34-57e9-43e1-ac36-c0218dd5a9e1","system_id":"levelo_inurba_marseille","lat":43.337512,"lon":5.374915,"is_reserved":false,"is_disabled":false,"rental_uris":{"android":"levelo://app?vid=cdc35d34-57e9-43e1-ac36-c0218dd5a9e1","ios":"levelo://app?vid=cdc35d34-57e9-43e1-ac36-c0218dd5a9e1"},"vehicle_type_id":"4","last_reported":1724602183,"current_range_meters":17600,"station_id":"","pricing_plan_id":"cebpf4jnsgd1na2vs0mg"},{"bike_id":"1b635017-1f6d-4ccf-887c-5535d999fc49","system_id":"levelo_inurba_marseille","lat":43.33768,"lon":5.37436,"is_reserved":false,"is_disabled":false,"rental_uris":{"android":"levelo://app?vid=1b635017-1f6d-4ccf-887c-5535d999fc49","ios":"levelo://app?vid=1b635017-1f6d-4ccf-887c-5535d999fc49"},"vehicle_type_id":"4","last_reported":1724602183,"current_range_meters":10400,"station_id":"","pricing_plan_id":"cebpf4jnsgd1na2vs0mg"},{"bike_id":"9992f0f0-d9be-4b0b-9dd4-22d43838c8b0","system_id":"levelo_inurba_marseille","lat":43.301117,"lon":5.398795,"is_reserved":false,"is_disabled":false,"rental_uris":{"android":"levelo://app?vid=9992f0f0-d9be-4b0b-9dd4-22d43838c8b0","ios":"levelo://app?vid=9992f0f0-d9be-4b0b-9dd4-22d43838c8b0"},"vehicle_type_id":"4","last_reported":1724602183,"current_range_meters":6400,"station_id":"ce4bh0h2rcd13ifvqd40","pricing_plan_id":"cebpf4jnsgd1na2vs0mg"},{"bike_id":"b358180b-9a35-46db-89fe-6d77cc7b8a07","system_id":"levelo_inurba_marseille","lat":43.286593,"lon":5.363346,"is_reserved":false,"is_disabled":false,"rental_uris":{"android":"levelo://app?vid=b358180b-9a35-46db-89fe-6d77cc7b8a07","ios":"levelo://app?vid=b358180b-9a35-46db-89fe-6d77cc7b8a07"},"vehicle_type_id":"4","last_reported":1724602183,"current_range_meters":400,"station_id":"ce4bhah2rcd13ifvqej0","pricing_plan_id":"cebpf4jnsgd1na2vs0mg"},{"bike_id":"d566341e-350a-4e08-8259-00dbf77d5e68","system_id":"levelo_inurba_marseille","lat":43.298681,"lon":5.397225,"is_reserved":false,"is_disabled":false,"rental_uris":{"android":"levelo://app?vid=d566341e-350a-4e08-8259-00dbf77d5e68","ios":"levelo://app?vid=d566341e-350a-4e08-8259-00dbf77d5e68"},"vehicle_type_id":"4","last_reported":1724602183,"current_range_meters":0,"station_id":"ce4bh0h2rcd13ifvqd50","pricing_plan_id":"cebpf4jnsgd1na2vs0mg"},{"bike_id":"f2fc4ffa-3bb0-4910-933c-ba3a928dbaa9","system_id":"levelo_inurba_marseille","lat":43.286593,"lon":5.363346,"is_reserved":false,"is_disabled":false,"rental_uris":{"android":"levelo://app?vid=f2fc4ffa-3bb0-4910-933c-ba3a928dbaa9","ios":"levelo://app?vid=f2fc4ffa-3bb0-4910-933c-ba3a928dbaa9"},"vehicle_type_id":"4","last_reported":1724602183,"current_range_meters":7600,"station_id":"ce4bhah2rcd13ifvqej0","pricing_plan_id":"cebpf4jnsgd1na2vs0mg"},{"bike_id":"2af06dd1-7e9b-4918-816a-7b4cca77cbe5","system_id":"levelo_inurba_marseille","lat":43.28773,"lon":5.37799,"is_reserved":false,"is_disabled":false,"rental_uris":{"android":"levelo://app?vid=2af06dd1-7e9b-4918-816a-7b4cca77cbe5","ios":"levelo://app?vid=2af06dd1-7e9b-4918-816a-7b4cca77cbe5"},"vehicle_type_id":"4","last_reported":1724602183,"current_range_meters":15200,"station_id":"","pricing_plan_id":"cebpf4jnsgd1na2vs0mg"},{"bike_id":"691bd051-7a9d-49d3-85ea-e4747ceaec32","system_id":"levelo_inurba_marseille","lat":43.286593,"lon":5.363346,"is_reserved":false,"is_disabled":false,"rental_uris":{"android":"levelo://app?vid=691bd051-7a9d-49d3-85ea-e4747ceaec32","ios":"levelo://app?vid=691bd051-7a9d-49d3-85ea-e4747ceaec32"},"vehicle_type_id":"4","last_reported":1724602183,"current_range_meters":800,"station_id":"ce4bhah2rcd13ifvqej0","pricing_plan_id":"cebpf4jnsgd1na2vs0mg"},{"bike_id":"da77a90a-df88-487c-bd4a-4ee8ad1373b3","system_id":"levelo_inurba_marseille","lat":43.286593,"lon":5.363346,"is_reserved":false,"is_disabled":false,"rental_uris":{"android":"levelo://app?vid=da77a90a-df88-487c-bd4a-4ee8ad1373b3","ios":"levelo://app?vid=da77a90a-df88-487c-bd4a-4ee8ad1373b3"},"vehicle_type_id":"4","last_reported":1724602183,"current_range_meters":11200,"station_id":"ce4bhah2rcd13ifvqej0","pricing_plan_id":"cebpf4jnsgd1na2vs0mg"},{"bike_id":"885dd6df-b5b1-4174-abad-4e2993ceaae8","system_id":"levelo_inurba_marseille","lat":43.302759,"lon":5.400793,"is_reserved":false,"is_disabled":false,"rental_uris":{"android":"levelo://app?vid=885dd6df-b5b1-4174-abad-4e2993ceaae8","ios":"levelo://app?vid=885dd6df-b5b1-4174-abad-4e2993ceaae8"},"vehicle_type_id":"4","last_reported":1724602183,"current_range_meters":13600,"station_id":"ce4bgvh2rcd13ifvqcs0","pricing_plan_id":"cebpf4jnsgd1na2vs0mg"},{"bike_id":"d89f6b0e-d565-499f-9a26-885dc837f480","system_id":"levelo_inurba_marseille","lat":43.290336,"lon":5.386425,"is_reserved":false,"is_disabled":false,"rental_uris":{"android":"levelo://app?vid=d89f6b0e-d565-499f-9a26-885dc837f480","ios":"levelo://app?vid=d89f6b0e-d565-499f-9a26-885dc837f480"},"vehicle_type_id":"4","last_reported":1724602183,"current_range_meters":1200,"station_id":"ce4bh4p2rcd13ifvqe0g","pricing_plan_id":"cebpf4jnsgd1na2vs0mg"},{"bike_id":"6d88fe53-6afa-46e5-9170-0b944f51ceb2","system_id":"levelo_inurba_marseille","lat":43.286039,"lon":5.370681,"is_reserved":false,"is_disabled":false,"rental_uris":{"android":"levelo://app?vid=6d88fe53-6afa-46e5-9170-0b944f51ceb2","ios":"levelo://app?vid=6d88fe53-6afa-46e5-9170-0b944f51ceb2"},"vehicle_type_id":"4","last_reported":1724602183,"current_range_meters":0,"station_id":"ce4bht12rcd13ifvqi60","pricing_plan_id":"cebpf4jnsgd1na2vs0mg"},{"bike_id":"b346d0b8-2346-4013-8674-7037063f7de9","system_id":"levelo_inurba_marseille","lat":43.298681,"lon":5.397225,"is_reserved":false,"is_disabled":false,"rental_uris":{"android":"levelo://app?vid=b346d0b8-2346-4013-8674-7037063f7de9","ios":"levelo://app?vid=b346d0b8-2346-4013-8674-7037063f7de9"},"vehicle_type_id":"4","last_reported":1724602183,"current_range_meters":11200,"station_id":"ce4bh0h2rcd13ifvqd50","pricing_plan_id":"cebpf4jnsgd1na2vs0mg"},{"bike_id":"0688821b-609a-45e5-b5f0-9b9c012433e1","system_id":"levelo_inurba_marseille","lat":43.287184,"lon":5.37937,"is_reserved":false,"is_disabled":false,"rental_uris":{"android":"levelo://app?vid=0688821b-609a-45e5-b5f0-9b9c012433e1","ios":"levelo://app?vid=0688821b-609a-45e5-b5f0-9b9c012433e1"},"vehicle_type_id":"4","last_reported":1724602183,"current_range_meters":6000,"station_id":"ce4bh9p2rcd13ifvqec0","pricing_plan_id":"cebpf4jnsgd1na2vs0mg"},{"bike_id":"34f9c5c4-825f-4d31-bfc2-1e389c5c0509","system_id":"levelo_inurba_marseille","lat":43.28473,"lon":5.35875,"is_reserved":false,"is_disabled":false,"rental_uris":{"android":"levelo://app?vid=34f9c5c4-825f-4d31-bfc2-1e389c5c0509","ios":"levelo://app?vid=34f9c5c4-825f-4d31-bfc2-1e389c5c0509"},"vehicle_type_id":"4","last_reported":1724602183,"current_range_meters":4000,"station_id":"ce4bhah2rcd13ifvqei0","pricing_plan_id":"cebpf4jnsgd1na2vs0mg"},{"bike_id":"357877ba-26a2-40e6-9355-42ba17241e09","system_id":"levelo_inurba_marseille","lat":43.2846,"lon":5.35895,"is_reserved":false,"is_disabled":false,"rental_uris":{"android":"levelo://app?vid=357877ba-26a2-40e6-9355-42ba17241e09","ios":"levelo://app?vid=357877ba-26a2-40e6-9355-42ba17241e09"},"vehicle_type_id":"4","last_reported":1724602183,"current_range_meters":10800,"station_id":"ce4bhah2rcd13ifvqei0","pricing_plan_id":"cebpf4jnsgd1na2vs0mg"},{"bike_id":"569ef666-a308-4006-a78a-b74550fd98dc","system_id":"levelo_inurba_marseille","lat":43.284534,"lon":5.358662,"is_reserved":false,"is_disabled":false,"rental_uris":{"android":"levelo://app?vid=569ef666-a308-4006-a78a-b74550fd98dc","ios":"levelo://app?vid=569ef666-a308-4006-a78a-b74550fd98dc"},"vehicle_type_id":"4","last_reported":1724602183,"current_range_meters":10000,"station_id":"ce4bhah2rcd13ifvqei0","pricing_plan_id":"cebpf4jnsgd1na2vs0mg"},{"bike_id":"a12a3d18-4012-48ab-b8d6-f341281e1e3f","system_id":"levelo_inurba_marseille","lat":43.28459,"lon":5.35887,"is_reserved":false,"is_disabled":false,"rental_uris":{"android":"levelo://app?vid=a12a3d18-4012-48ab-b8d6-f341281e1e3f","ios":"levelo://app?vid=a12a3d18-4012-48ab-b8d6-f341281e1e3f"},"vehicle_type_id":"4","last_reported":1724602183,"current_range_meters":10400,"station_id":"ce4bhah2rcd13ifvqei0","pricing_plan_id":"cebpf4jnsgd1na2vs0mg"},{"bike_id":"58428cd4-6653-4cf4-9c48-9e61fe6ff856","system_id":"levelo_inurba_marseille","lat":43.28459,"lon":5.3588,"is_reserved":false,"is_disabled":false,"rental_uris":{"android":"levelo://app?vid=58428cd4-6653-4cf4-9c48-9e61fe6ff856","ios":"levelo://app?vid=58428cd4-6653-4cf4-9c48-9e61fe6ff856"},"vehicle_type_id":"4","last_reported":1724602183,"current_range_meters":6800,"station_id":"ce4bhah2rcd13ifvqei0","pricing_plan_id":"cebpf4jnsgd1na2vs0mg"},{"bike_id":"56bb5356-2aae-4a94-a0f3-7dd08e59bde4","system_id":"levelo_inurba_marseille","lat":43.294314,"lon":5.397498,"is_reserved":false,"is_disabled":false,"rental_uris":{"android":"levelo://app?vid=56bb5356-2aae-4a94-a0f3-7dd08e59bde4","ios":"levelo://app?vid=56bb5356-2aae-4a94-a0f3-7dd08e59bde4"},"vehicle_type_id":"4","last_reported":1724602183,"current_range_meters":0,"station_id":"ce4bh3h2rcd13ifvqdo0","pricing_plan_id":"cebpf4jnsgd1na2vs0mg"},{"bike_id":"69ddcb20-b688-4027-a69f-3bb6674a56c6","system_id":"levelo_inurba_marseille","lat":43.28452,"lon":5.35889,"is_reserved":false,"is_disabled":false,"rental_uris":{"android":"levelo://app?vid=69ddcb20-b688-4027-a69f-3bb6674a56c6","ios":"levelo://app?vid=69ddcb20-b688-4027-a69f-3bb6674a56c6"},"vehicle_type_id":"4","last_reported":1724602183,"current_range_meters":17600,"station_id":"ce4bhah2rcd13ifvqei0","pricing_plan_id":"cebpf4jnsgd1na2vs0mg"},{"bike_id":"e5d50fb7-4b3c-4ceb-bb63-1cdc63078a35","system_id":"levelo_inurba_marseille","lat":43.294314,"lon":5.397498,"is_reserved":false,"is_disabled":false,"rental_uris":{"android":"levelo://app?vid=e5d50fb7-4b3c-4ceb-bb63-1cdc63078a35","ios":"levelo://app?vid=e5d50fb7-4b3c-4ceb-bb63-1cdc63078a35"},"vehicle_type_id":"4","last_reported":1724602183,"current_range_meters":11600,"station_id":"ce4bh3h2rcd13ifvqdo0","pricing_plan_id":"cebpf4jnsgd1na2vs0mg"},{"bike_id":"b2458112-3115-426d-8e8d-a4f0855d793c","system_id":"levelo_inurba_marseille","lat":43.28616,"lon":5.35105,"is_reserved":false,"is_disabled":false,"rental_uris":{"android":"levelo://app?vid=b2458112-3115-426d-8e8d-a4f0855d793c","ios":"levelo://app?vid=b2458112-3115-426d-8e8d-a4f0855d793c"},"vehicle_type_id":"4","last_reported":1724602183,"current_range_meters":14800,"station_id":"ce4bhch2rcd13ifvqeug","pricing_plan_id":"cebpf4jnsgd1na2vs0mg"},{"bike_id":"b4a40555-a177-43f9-9a5a-ef2b874e4e2c","system_id":"levelo_inurba_marseille","lat":43.28614,"lon":5.35111,"is_reserved":false,"is_disabled":false,"rental_uris":{"android":"levelo://app?vid=b4a40555-a177-43f9-9a5a-ef2b874e4e2c","ios":"levelo://app?vid=b4a40555-a177-43f9-9a5a-ef2b874e4e2c"},"vehicle_type_id":"4","last_reported":1724602183,"current_range_meters":0,"station_id":"ce4bhch2rcd13ifvqeug","pricing_plan_id":"cebpf4jnsgd1na2vs0mg"},{"bike_id":"e4baba34-a096-40d7-9f2c-109052dd3278","system_id":"levelo_inurba_marseille","lat":43.28616,"lon":5.35098,"is_reserved":false,"is_disabled":false,"rental_uris":{"android":"levelo://app?vid=e4baba34-a096-40d7-9f2c-109052dd3278","ios":"levelo://app?vid=e4baba34-a096-40d7-9f2c-109052dd3278"},"vehicle_type_id":"4","last_reported":1724602183,"current_range_meters":22800,"station_id":"ce4bhch2rcd13ifvqeug","pricing_plan_id":"cebpf4jnsgd1na2vs0mg"},{"bike_id":"f1f88628-32a0-4eb8-a707-3ee51388490e","system_id":"levelo_inurba_marseille","lat":43.28614,"lon":5.35104,"is_reserved":false,"is_disabled":false,"rental_uris":{"android":"levelo://app?vid=f1f88628-32a0-4eb8-a707-3ee51388490e","ios":"levelo://app?vid=f1f88628-32a0-4eb8-a707-3ee51388490e"},"vehicle_type_id":"4","last_reported":1724602183,"current_range_meters":16000,"station_id":"ce4bhch2rcd13ifvqeug","pricing_plan_id":"cebpf4jnsgd1na2vs0mg"},{"bike_id":"015d4110-d825-4839-8ea8-bdad062b1d55","system_id":"levelo_inurba_marseille","lat":43.28614,"lon":5.35099,"is_reserved":false,"is_disabled":false,"rental_uris":{"android":"levelo://app?vid=015d4110-d825-4839-8ea8-bdad062b1d55","ios":"levelo://app?vid=015d4110-d825-4839-8ea8-bdad062b1d55"},"vehicle_type_id":"4","last_reported":1724602183,"current_range_meters":5600,"station_id":"ce4bhch2rcd13ifvqeug","pricing_plan_id":"cebpf4jnsgd1na2vs0mg"},{"bike_id":"abf07849-c17f-42ac-8eb7-29c9d8c60d73","system_id":"levelo_inurba_marseille","lat":43.28613,"lon":5.35102,"is_reserved":false,"is_disabled":false,"rental_uris":{"android":"levelo://app?vid=abf07849-c17f-42ac-8eb7-29c9d8c60d73","ios":"levelo://app?vid=abf07849-c17f-42ac-8eb7-29c9d8c60d73"},"vehicle_type_id":"4","last_reported":1724602183,"current_range_meters":11600,"station_id":"ce4bhch2rcd13ifvqeug","pricing_plan_id":"cebpf4jnsgd1na2vs0mg"},{"bike_id":"0b756299-f02b-4608-ba47-9ce18dc52f28","system_id":"levelo_inurba_marseille","lat":43.28613,"lon":5.35101,"is_reserved":false,"is_disabled":false,"rental_uris":{"android":"levelo://app?vid=0b756299-f02b-4608-ba47-9ce18dc52f28","ios":"levelo://app?vid=0b756299-f02b-4608-ba47-9ce18dc52f28"},"vehicle_type_id":"4","last_reported":1724602183,"current_range_meters":0,"station_id":"ce4bhch2rcd13ifvqeug","pricing_plan_id":"cebpf4jnsgd1na2vs0mg"},{"bike_id":"c466be43-9e97-4be7-96d3-9eb6e473d043","system_id":"levelo_inurba_marseille","lat":43.285856,"lon":5.350771,"is_reserved":false,"is_disabled":false,"rental_uris":{"android":"levelo://app?vid=c466be43-9e97-4be7-96d3-9eb6e473d043","ios":"levelo://app?vid=c466be43-9e97-4be7-96d3-9eb6e473d043"},"vehicle_type_id":"4","last_reported":1724602183,"current_range_meters":24000,"station_id":"ce4bhch2rcd13ifvqeug","pricing_plan_id":"cebpf4jnsgd1na2vs0mg"},{"bike_id":"8a75ac86-e0a2-4b38-9948-1fc7c3c8a7fd","system_id":"levelo_inurba_marseille","lat":43.28612,"lon":5.35102,"is_reserved":false,"is_disabled":false,"rental_uris":{"android":"levelo://app?vid=8a75ac86-e0a2-4b38-9948-1fc7c3c8a7fd","ios":"levelo://app?vid=8a75ac86-e0a2-4b38-9948-1fc7c3c8a7fd"},"vehicle_type_id":"4","last_reported":1724602183,"current_range_meters":12800,"station_id":"ce4bhch2rcd13ifvqeug","pricing_plan_id":"cebpf4jnsgd1na2vs0mg"},{"bike_id":"14940a9d-7039-490b-af1c-d2f9993c077d","system_id":"levelo_inurba_marseille","lat":43.28609,"lon":5.35101,"is_reserved":false,"is_disabled":false,"rental_uris":{"android":"levelo://app?vid=14940a9d-7039-490b-af1c-d2f9993c077d","ios":"levelo://app?vid=14940a9d-7039-490b-af1c-d2f9993c077d"},"vehicle_type_id":"4","last_reported":1724602183,"current_range_meters":16400,"station_id":"ce4bhch2rcd13ifvqeug","pricing_plan_id":"cebpf4jnsgd1na2vs0mg"},{"bike_id":"e2ffb1c4-7de8-40b5-8ad4-edfe19dd8a80","system_id":"levelo_inurba_marseille","lat":43.283998,"lon":5.375062,"is_reserved":false,"is_disabled":false,"rental_uris":{"android":"levelo://app?vid=e2ffb1c4-7de8-40b5-8ad4-edfe19dd8a80","ios":"levelo://app?vid=e2ffb1c4-7de8-40b5-8ad4-edfe19dd8a80"},"vehicle_type_id":"4","last_reported":1724602183,"current_range_meters":25600,"station_id":"ce4bh412rcd13ifvqds0","pricing_plan_id":"cebpf4jnsgd1na2vs0mg"},{"bike_id":"e7694cb8-89a8-472b-b9ac-e74f7b800270","system_id":"levelo_inurba_marseille","lat":43.295713,"lon":5.399639,"is_reserved":false,"is_disabled":false,"rental_uris":{"android":"levelo://app?vid=e7694cb8-89a8-472b-b9ac-e74f7b800270","ios":"levelo://app?vid=e7694cb8-89a8-472b-b9ac-e74f7b800270"},"vehicle_type_id":"4","last_reported":1724602183,"current_range_meters":0,"station_id":"ce4bh312rcd13ifvqdj0","pricing_plan_id":"cebpf4jnsgd1na2vs0mg"},{"bike_id":"2c011c25-d697-4ecf-bc1d-c52325a657bd","system_id":"levelo_inurba_marseille","lat":43.283998,"lon":5.375062,"is_reserved":false,"is_disabled":false,"rental_uris":{"android":"levelo://app?vid=2c011c25-d697-4ecf-bc1d-c52325a657bd","ios":"levelo://app?vid=2c011c25-d697-4ecf-bc1d-c52325a657bd"},"vehicle_type_id":"4","last_reported":1724602183,"current_range_meters":20000,"station_id":"ce4bh412rcd13ifvqds0","pricing_plan_id":"cebpf4jnsgd1na2vs0mg"},{"bike_id":"bfc67f66-d0f6-4e08-a8d7-eb1eedc83e29","system_id":"levelo_inurba_marseille","lat":43.283998,"lon":5.375062,"is_reserved":false,"is_disabled":false,"rental_uris":{"android":"levelo://app?vid=bfc67f66-d0f6-4e08-a8d7-eb1eedc83e29","ios":"levelo://app?vid=bfc67f66-d0f6-4e08-a8d7-eb1eedc83e29"},"vehicle_type_id":"4","last_reported":1724602183,"current_range_meters":16400,"station_id":"ce4bh412rcd13ifvqds0","pricing_plan_id":"cebpf4jnsgd1na2vs0mg"},{"bike_id":"fc0a6a3e-d68f-4d50-8647-62055ca39e01","system_id":"levelo_inurba_marseille","lat":43.283998,"lon":5.375062,"is_reserved":false,"is_disabled":false,"rental_uris":{"android":"levelo://app?vid=fc0a6a3e-d68f-4d50-8647-62055ca39e01","ios":"levelo://app?vid=fc0a6a3e-d68f-4d50-8647-62055ca39e01"},"vehicle_type_id":"4","last_reported":1724602183,"current_range_meters":3200,"station_id":"ce4bh412rcd13ifvqds0","pricing_plan_id":"cebpf4jnsgd1na2vs0mg"},{"bike_id":"1dea26b9-6099-4052-8d47-29a9fab2f340","system_id":"levelo_inurba_marseille","lat":43.2868,"lon":5.38659,"is_reserved":false,"is_disabled":false,"rental_uris":{"android":"levelo://app?vid=1dea26b9-6099-4052-8d47-29a9fab2f340","ios":"levelo://app?vid=1dea26b9-6099-4052-8d47-29a9fab2f340"},"vehicle_type_id":"4","last_reported":1724602183,"current_range_meters":27200,"station_id":"ce4bh492rcd13ifvqdug","pricing_plan_id":"cebpf4jnsgd1na2vs0mg"},{"bike_id":"a034d790-afa0-44bf-bb49-05a90480345d","system_id":"levelo_inurba_marseille","lat":43.286595,"lon":5.386795,"is_reserved":false,"is_disabled":false,"rental_uris":{"android":"levelo://app?vid=a034d790-afa0-44bf-bb49-05a90480345d","ios":"levelo://app?vid=a034d790-afa0-44bf-bb49-05a90480345d"},"vehicle_type_id":"4","last_reported":1724602183,"current_range_meters":0,"station_id":"ce4bh492rcd13ifvqdug","pricing_plan_id":"cebpf4jnsgd1na2vs0mg"},{"bike_id":"43d56e01-af08-4bf3-85af-496d3ac2de56","system_id":"levelo_inurba_marseille","lat":43.28672,"lon":5.38656,"is_reserved":false,"is_disabled":false,"rental_uris":{"android":"levelo://app?vid=43d56e01-af08-4bf3-85af-496d3ac2de56","ios":"levelo://app?vid=43d56e01-af08-4bf3-85af-496d3ac2de56"},"vehicle_type_id":"4","last_reported":1724602183,"current_range_meters":11600,"station_id":"ce4bh492rcd13ifvqdug","pricing_plan_id":"cebpf4jnsgd1na2vs0mg"},{"bike_id":"cf839d12-ce24-4f91-9e61-ddc29bf38761","system_id":"levelo_inurba_marseille","lat":43.28672,"lon":5.38659,"is_reserved":false,"is_disabled":false,"rental_uris":{"android":"levelo://app?vid=cf839d12-ce24-4f91-9e61-ddc29bf38761","ios":"levelo://app?vid=cf839d12-ce24-4f91-9e61-ddc29bf38761"},"vehicle_type_id":"4","last_reported":1724602183,"current_range_meters":0,"station_id":"ce4bh492rcd13ifvqdug","pricing_plan_id":"cebpf4jnsgd1na2vs0mg"},{"bike_id":"c59ea2a8-9de9-4598-a7b8-37c99062d783","system_id":"levelo_inurba_marseille","lat":43.286776,"lon":5.386738,"is_reserved":false,"is_disabled":false,"rental_uris":{"android":"levelo://app?vid=c59ea2a8-9de9-4598-a7b8-37c99062d783","ios":"levelo://app?vid=c59ea2a8-9de9-4598-a7b8-37c99062d783"},"vehicle_type_id":"4","last_reported":1724602183,"current_range_meters":6000,"station_id":"ce4bh492rcd13ifvqdug","pricing_plan_id":"cebpf4jnsgd1na2vs0mg"},{"bike_id":"4760dbe5-75a7-4d50-afd7-365bc5fa70e4","system_id":"levelo_inurba_marseille","lat":43.28673,"lon":5.38673,"is_reserved":false,"is_disabled":false,"rental_uris":{"android":"levelo://app?vid=4760dbe5-75a7-4d50-afd7-365bc5fa70e4","ios":"levelo://app?vid=4760dbe5-75a7-4d50-afd7-365bc5fa70e4"},"vehicle_type_id":"4","last_reported":1724602183,"current_range_meters":16000,"station_id":"ce4bh492rcd13ifvqdug","pricing_plan_id":"cebpf4jnsgd1na2vs0mg"},{"bike_id":"b60e0719-4d1e-4b5f-bb82-403b72969a3d","system_id":"levelo_inurba_marseille","lat":43.28669,"lon":5.38667,"is_reserved":false,"is_disabled":false,"rental_uris":{"android":"levelo://app?vid=b60e0719-4d1e-4b5f-bb82-403b72969a3d","ios":"levelo://app?vid=b60e0719-4d1e-4b5f-bb82-403b72969a3d"},"vehicle_type_id":"4","last_reported":1724602183,"current_range_meters":2400,"station_id":"ce4bh492rcd13ifvqdug","pricing_plan_id":"cebpf4jnsgd1na2vs0mg"},{"bike_id":"2c21bd71-c8bf-42a1-b716-84c70414e4e2","system_id":"levelo_inurba_marseille","lat":43.319179,"lon":5.407725,"is_reserved":false,"is_disabled":false,"rental_uris":{"android":"levelo://app?vid=2c21bd71-c8bf-42a1-b716-84c70414e4e2","ios":"levelo://app?vid=2c21bd71-c8bf-42a1-b716-84c70414e4e2"},"vehicle_type_id":"4","last_reported":1724602183,"current_range_meters":29600,"station_id":"ce4bhq12rcd13ifvqhig","pricing_plan_id":"cebpf4jnsgd1na2vs0mg"},{"bike_id":"08c4345b-32e2-405e-8238-483f565c1c54","system_id":"levelo_inurba_marseille","lat":43.284965,"lon":5.35139,"is_reserved":false,"is_disabled":false,"rental_uris":{"android":"levelo://app?vid=08c4345b-32e2-405e-8238-483f565c1c54","ios":"levelo://app?vid=08c4345b-32e2-405e-8238-483f565c1c54"},"vehicle_type_id":"4","last_reported":1724602183,"current_range_meters":7600,"station_id":"ce4bhbp2rcd13ifvqerg","pricing_plan_id":"cebpf4jnsgd1na2vs0mg"},{"bike_id":"eb5c3286-bbd2-46f8-9eb4-16fcc385476f","system_id":"levelo_inurba_marseille","lat":43.337168,"lon":5.391825,"is_reserved":false,"is_disabled":false,"rental_uris":{"android":"levelo://app?vid=eb5c3286-bbd2-46f8-9eb4-16fcc385476f","ios":"levelo://app?vid=eb5c3286-bbd2-46f8-9eb4-16fcc385476f"},"vehicle_type_id":"4","last_reported":1724602183,"current_range_meters":31200,"station_id":"ce4bhr92rcd13ifvqhsg","pricing_plan_id":"cebpf4jnsgd1na2vs0mg"},{"bike_id":"992b8d47-3368-40b1-959d-30b1fd5b4e91","system_id":"levelo_inurba_marseille","lat":43.323464,"lon":5.406297,"is_reserved":false,"is_disabled":false,"rental_uris":{"android":"levelo://app?vid=992b8d47-3368-40b1-959d-30b1fd5b4e91","ios":"levelo://app?vid=992b8d47-3368-40b1-959d-30b1fd5b4e91"},"vehicle_type_id":"4","last_reported":1724602183,"current_range_meters":4400,"station_id":"ce4bhq92rcd13ifvqhjg","pricing_plan_id":"cebpf4jnsgd1na2vs0mg"},{"bike_id":"c0f3abac-04ec-4839-bc94-1b7c76bf4933","system_id":"levelo_inurba_marseille","lat":43.33724,"lon":5.39189,"is_reserved":false,"is_disabled":false,"rental_uris":{"android":"levelo://app?vid=c0f3abac-04ec-4839-bc94-1b7c76bf4933","ios":"levelo://app?vid=c0f3abac-04ec-4839-bc94-1b7c76bf4933"},"vehicle_type_id":"4","last_reported":1724602183,"current_range_meters":20800,"station_id":"ce4bhr92rcd13ifvqhsg","pricing_plan_id":"cebpf4jnsgd1na2vs0mg"},{"bike_id":"c694fbf3-9fa3-4119-a886-750aaa179b5c","system_id":"levelo_inurba_marseille","lat":43.3234,"lon":5.40627,"is_reserved":false,"is_disabled":false,"rental_uris":{"android":"levelo://app?vid=c694fbf3-9fa3-4119-a886-750aaa179b5c","ios":"levelo://app?vid=c694fbf3-9fa3-4119-a886-750aaa179b5c"},"vehicle_type_id":"4","last_reported":1724602183,"current_range_meters":20800,"station_id":"ce4bhq92rcd13ifvqhjg","pricing_plan_id":"cebpf4jnsgd1na2vs0mg"},{"bike_id":"5e308cd1-5928-44c4-ae18-c071fd8eaf5d","system_id":"levelo_inurba_marseille","lat":43.297946,"lon":5.404063,"is_reserved":false,"is_disabled":false,"rental_uris":{"android":"levelo://app?vid=5e308cd1-5928-44c4-ae18-c071fd8eaf5d","ios":"levelo://app?vid=5e308cd1-5928-44c4-ae18-c071fd8eaf5d"},"vehicle_type_id":"4","last_reported":1724602183,"current_range_meters":28400,"station_id":"ce4bh112rcd13ifvqd90","pricing_plan_id":"cebpf4jnsgd1na2vs0mg"},{"bike_id":"57cf3c95-4779-44e1-999d-2b2456c0bc4e","system_id":"levelo_inurba_marseille","lat":43.284776,"lon":5.385603,"is_reserved":false,"is_disabled":false,"rental_uris":{"android":"levelo://app?vid=57cf3c95-4779-44e1-999d-2b2456c0bc4e","ios":"levelo://app?vid=57cf3c95-4779-44e1-999d-2b2456c0bc4e"},"vehicle_type_id":"4","last_reported":1724602183,"current_range_meters":0,"station_id":"ce4bh8p2rcd13ifvqeb0","pricing_plan_id":"cebpf4jnsgd1na2vs0mg"},{"bike_id":"ee68e5ce-daa9-4dbe-923e-2b539e45fb48","system_id":"levelo_inurba_marseille","lat":43.28422,"lon":5.35004,"is_reserved":false,"is_disabled":false,"rental_uris":{"android":"levelo://app?vid=ee68e5ce-daa9-4dbe-923e-2b539e45fb48","ios":"levelo://app?vid=ee68e5ce-daa9-4dbe-923e-2b539e45fb48"},"vehicle_type_id":"4","last_reported":1724602183,"current_range_meters":24800,"station_id":"ce4bhbh2rcd13ifvqepg","pricing_plan_id":"cebpf4jnsgd1na2vs0mg"},{"bike_id":"0957c4c1-74a7-444d-a860-ac364bdfb60a","system_id":"levelo_inurba_marseille","lat":43.284214,"lon":5.349706,"is_reserved":false,"is_disabled":false,"rental_uris":{"android":"levelo://app?vid=0957c4c1-74a7-444d-a860-ac364bdfb60a","ios":"levelo://app?vid=0957c4c1-74a7-444d-a860-ac364bdfb60a"},"vehicle_type_id":"4","last_reported":1724602183,"current_range_meters":10800,"station_id":"ce4bhbh2rcd13ifvqepg","pricing_plan_id":"cebpf4jnsgd1na2vs0mg"},{"bike_id":"5641da9e-ee25-4870-855d-0703433c6143","system_id":"levelo_inurba_marseille","lat":43.32199,"lon":5.40768,"is_reserved":false,"is_disabled":false,"rental_uris":{"android":"levelo://app?vid=5641da9e-ee25-4870-855d-0703433c6143","ios":"levelo://app?vid=5641da9e-ee25-4870-855d-0703433c6143"},"vehicle_type_id":"4","last_reported":1724602183,"current_range_meters":24000,"station_id":"","pricing_plan_id":"cebpf4jnsgd1na2vs0mg"},{"bike_id":"ca031128-fe57-4a60-bfac-b10c977c8968","system_id":"levelo_inurba_marseille","lat":43.284214,"lon":5.349706,"is_reserved":false,"is_disabled":false,"rental_uris":{"android":"levelo://app?vid=ca031128-fe57-4a60-bfac-b10c977c8968","ios":"levelo://app?vid=ca031128-fe57-4a60-bfac-b10c977c8968"},"vehicle_type_id":"4","last_reported":1724602183,"current_range_meters":13600,"station_id":"ce4bhbh2rcd13ifvqepg","pricing_plan_id":"cebpf4jnsgd1na2vs0mg"},{"bike_id":"8f95be5a-fd0e-4d56-ad5d-410f2ac95185","system_id":"levelo_inurba_marseille","lat":43.284219,"lon":5.3497,"is_reserved":false,"is_disabled":false,"rental_uris":{"android":"levelo://app?vid=8f95be5a-fd0e-4d56-ad5d-410f2ac95185","ios":"levelo://app?vid=8f95be5a-fd0e-4d56-ad5d-410f2ac95185"},"vehicle_type_id":"4","last_reported":1724602183,"current_range_meters":14000,"station_id":"ce4bhbh2rcd13ifvqepg","pricing_plan_id":"cebpf4jnsgd1na2vs0mg"},{"bike_id":"d240cad1-bcd7-435f-9dbc-1908621fc70c","system_id":"levelo_inurba_marseille","lat":43.284219,"lon":5.3497,"is_reserved":false,"is_disabled":false,"rental_uris":{"android":"levelo://app?vid=d240cad1-bcd7-435f-9dbc-1908621fc70c","ios":"levelo://app?vid=d240cad1-bcd7-435f-9dbc-1908621fc70c"},"vehicle_type_id":"4","last_reported":1724602183,"current_range_meters":30800,"station_id":"ce4bhbh2rcd13ifvqepg","pricing_plan_id":"cebpf4jnsgd1na2vs0mg"},{"bike_id":"bca074e5-25a8-4004-89d8-3990f8dc535a","system_id":"levelo_inurba_marseille","lat":43.28421,"lon":5.34996,"is_reserved":false,"is_disabled":false,"rental_uris":{"android":"levelo://app?vid=bca074e5-25a8-4004-89d8-3990f8dc535a","ios":"levelo://app?vid=bca074e5-25a8-4004-89d8-3990f8dc535a"},"vehicle_type_id":"4","last_reported":1724602183,"current_range_meters":24000,"station_id":"ce4bhbh2rcd13ifvqepg","pricing_plan_id":"cebpf4jnsgd1na2vs0mg"},{"bike_id":"1610eac7-feea-4bfb-97f5-afa22eb60ba9","system_id":"levelo_inurba_marseille","lat":43.284219,"lon":5.3497,"is_reserved":false,"is_disabled":false,"rental_uris":{"android":"levelo://app?vid=1610eac7-feea-4bfb-97f5-afa22eb60ba9","ios":"levelo://app?vid=1610eac7-feea-4bfb-97f5-afa22eb60ba9"},"vehicle_type_id":"4","last_reported":1724602183,"current_range_meters":31200,"station_id":"ce4bhbh2rcd13ifvqepg","pricing_plan_id":"cebpf4jnsgd1na2vs0mg"},{"bike_id":"0490914e-3feb-4a82-899c-44733505f5e4","system_id":"levelo_inurba_marseille","lat":43.28421,"lon":5.34994,"is_reserved":false,"is_disabled":false,"rental_uris":{"android":"levelo://app?vid=0490914e-3feb-4a82-899c-44733505f5e4","ios":"levelo://app?vid=0490914e-3feb-4a82-899c-44733505f5e4"},"vehicle_type_id":"4","last_reported":1724602183,"current_range_meters":31200,"station_id":"ce4bhbh2rcd13ifvqepg","pricing_plan_id":"cebpf4jnsgd1na2vs0mg"},{"bike_id":"d3ec4d05-09fc-4505-b28e-e602fe558489","system_id":"levelo_inurba_marseille","lat":43.28421,"lon":5.34994,"is_reserved":false,"is_disabled":false,"rental_uris":{"android":"levelo://app?vid=d3ec4d05-09fc-4505-b28e-e602fe558489","ios":"levelo://app?vid=d3ec4d05-09fc-4505-b28e-e602fe558489"},"vehicle_type_id":"4","last_reported":1724602183,"current_range_meters":22400,"station_id":"ce4bhbh2rcd13ifvqepg","pricing_plan_id":"cebpf4jnsgd1na2vs0mg"},{"bike_id":"5a775816-454b-4a37-811e-8ca989ffd9fa","system_id":"levelo_inurba_marseille","lat":43.284219,"lon":5.3497,"is_reserved":false,"is_disabled":false,"rental_uris":{"android":"levelo://app?vid=5a775816-454b-4a37-811e-8ca989ffd9fa","ios":"levelo://app?vid=5a775816-454b-4a37-811e-8ca989ffd9fa"},"vehicle_type_id":"4","last_reported":1724602183,"current_range_meters":31200,"station_id":"ce4bhbh2rcd13ifvqepg","pricing_plan_id":"cebpf4jnsgd1na2vs0mg"},{"bike_id":"dda746ac-f478-426a-8262-3c00e3a505dd","system_id":"levelo_inurba_marseille","lat":43.28421,"lon":5.34991,"is_reserved":false,"is_disabled":false,"rental_uris":{"android":"levelo://app?vid=dda746ac-f478-426a-8262-3c00e3a505dd","ios":"levelo://app?vid=dda746ac-f478-426a-8262-3c00e3a505dd"},"vehicle_type_id":"4","last_reported":1724602183,"current_range_meters":13200,"station_id":"ce4bhbh2rcd13ifvqepg","pricing_plan_id":"cebpf4jnsgd1na2vs0mg"},{"bike_id":"2b99343d-1ac5-46a3-863d-4fd9a824de72","system_id":"levelo_inurba_marseille","lat":43.284193,"lon":5.349954,"is_reserved":false,"is_disabled":false,"rental_uris":{"android":"levelo://app?vid=2b99343d-1ac5-46a3-863d-4fd9a824de72","ios":"levelo://app?vid=2b99343d-1ac5-46a3-863d-4fd9a824de72"},"vehicle_type_id":"4","last_reported":1724602183,"current_range_meters":19600,"station_id":"ce4bhbh2rcd13ifvqepg","pricing_plan_id":"cebpf4jnsgd1na2vs0mg"},{"bike_id":"184ac8f2-34bc-4f92-b325-cc5a7d897323","system_id":"levelo_inurba_marseille","lat":43.284219,"lon":5.3497,"is_reserved":false,"is_disabled":false,"rental_uris":{"android":"levelo://app?vid=184ac8f2-34bc-4f92-b325-cc5a7d897323","ios":"levelo://app?vid=184ac8f2-34bc-4f92-b325-cc5a7d897323"},"vehicle_type_id":"4","last_reported":1724602183,"current_range_meters":15600,"station_id":"ce4bhbh2rcd13ifvqepg","pricing_plan_id":"cebpf4jnsgd1na2vs0mg"},{"bike_id":"767ac0a0-3ea6-4938-9821-c7f94840094b","system_id":"levelo_inurba_marseille","lat":43.284197,"lon":5.349933,"is_reserved":false,"is_disabled":false,"rental_uris":{"android":"levelo://app?vid=767ac0a0-3ea6-4938-9821-c7f94840094b","ios":"levelo://app?vid=767ac0a0-3ea6-4938-9821-c7f94840094b"},"vehicle_type_id":"4","last_reported":1724602183,"current_range_meters":21600,"station_id":"ce4bhbh2rcd13ifvqepg","pricing_plan_id":"cebpf4jnsgd1na2vs0mg"},{"bike_id":"ea3e2a6f-e054-464e-8659-bc71f080785d","system_id":"levelo_inurba_marseille","lat":43.28422,"lon":5.34986,"is_reserved":false,"is_disabled":false,"rental_uris":{"android":"levelo://app?vid=ea3e2a6f-e054-464e-8659-bc71f080785d","ios":"levelo://app?vid=ea3e2a6f-e054-464e-8659-bc71f080785d"},"vehicle_type_id":"4","last_reported":1724602183,"current_range_meters":28000,"station_id":"ce4bhbh2rcd13ifvqepg","pricing_plan_id":"cebpf4jnsgd1na2vs0mg"},{"bike_id":"8050ab70-353a-456e-a6e5-c56a9c6d1a99","system_id":"levelo_inurba_marseille","lat":43.28423,"lon":5.349827,"is_reserved":false,"is_disabled":false,"rental_uris":{"android":"levelo://app?vid=8050ab70-353a-456e-a6e5-c56a9c6d1a99","ios":"levelo://app?vid=8050ab70-353a-456e-a6e5-c56a9c6d1a99"},"vehicle_type_id":"4","last_reported":1724602183,"current_range_meters":5200,"station_id":"ce4bhbh2rcd13ifvqepg","pricing_plan_id":"cebpf4jnsgd1na2vs0mg"},{"bike_id":"66ad0423-b459-438e-8f11-44b2245536d3","system_id":"levelo_inurba_marseille","lat":43.28419,"lon":5.34995,"is_reserved":false,"is_disabled":false,"rental_uris":{"android":"levelo://app?vid=66ad0423-b459-438e-8f11-44b2245536d3","ios":"levelo://app?vid=66ad0423-b459-438e-8f11-44b2245536d3"},"vehicle_type_id":"4","last_reported":1724602183,"current_range_meters":9600,"station_id":"ce4bhbh2rcd13ifvqepg","pricing_plan_id":"cebpf4jnsgd1na2vs0mg"},{"bike_id":"d20364c8-8eb9-4fdc-b65f-e9a3126a4025","system_id":"levelo_inurba_marseille","lat":43.28422,"lon":5.34982,"is_reserved":false,"is_disabled":false,"rental_uris":{"android":"levelo://app?vid=d20364c8-8eb9-4fdc-b65f-e9a3126a4025","ios":"levelo://app?vid=d20364c8-8eb9-4fdc-b65f-e9a3126a4025"},"vehicle_type_id":"4","last_reported":1724602183,"current_range_meters":18400,"station_id":"ce4bhbh2rcd13ifvqepg","pricing_plan_id":"cebpf4jnsgd1na2vs0mg"},{"bike_id":"6000bc1e-fb3f-40e7-bb29-58ce21f1e394","system_id":"levelo_inurba_marseille","lat":43.28419,"lon":5.34991,"is_reserved":false,"is_disabled":false,"rental_uris":{"android":"levelo://app?vid=6000bc1e-fb3f-40e7-bb29-58ce21f1e394","ios":"levelo://app?vid=6000bc1e-fb3f-40e7-bb29-58ce21f1e394"},"vehicle_type_id":"4","last_reported":1724602183,"current_range_meters":15600,"station_id":"ce4bhbh2rcd13ifvqepg","pricing_plan_id":"cebpf4jnsgd1na2vs0mg"},{"bike_id":"1065fe95-56e1-4cf7-b74a-824030be8006","system_id":"levelo_inurba_marseille","lat":43.284219,"lon":5.3497,"is_reserved":false,"is_disabled":false,"rental_uris":{"android":"levelo://app?vid=1065fe95-56e1-4cf7-b74a-824030be8006","ios":"levelo://app?vid=1065fe95-56e1-4cf7-b74a-824030be8006"},"vehicle_type_id":"4","last_reported":1724602183,"current_range_meters":23200,"station_id":"ce4bhbh2rcd13ifvqepg","pricing_plan_id":"cebpf4jnsgd1na2vs0mg"},{"bike_id":"c55da15e-6fcb-45d8-9d42-1a9d2baa4eb4","system_id":"levelo_inurba_marseille","lat":43.284219,"lon":5.3497,"is_reserved":false,"is_disabled":false,"rental_uris":{"android":"levelo://app?vid=c55da15e-6fcb-45d8-9d42-1a9d2baa4eb4","ios":"levelo://app?vid=c55da15e-6fcb-45d8-9d42-1a9d2baa4eb4"},"vehicle_type_id":"4","last_reported":1724602183,"current_range_meters":4400,"station_id":"ce4bhbh2rcd13ifvqepg","pricing_plan_id":"cebpf4jnsgd1na2vs0mg"},{"bike_id":"3a5fee4f-a2a7-4f01-af9e-e3fbad477117","system_id":"levelo_inurba_marseille","lat":43.284215,"lon":5.349828,"is_reserved":false,"is_disabled":false,"rental_uris":{"android":"levelo://app?vid=3a5fee4f-a2a7-4f01-af9e-e3fbad477117","ios":"levelo://app?vid=3a5fee4f-a2a7-4f01-af9e-e3fbad477117"},"vehicle_type_id":"4","last_reported":1724602183,"current_range_meters":24800,"station_id":"ce4bhbh2rcd13ifvqepg","pricing_plan_id":"cebpf4jnsgd1na2vs0mg"},{"bike_id":"eee4a819-79eb-4195-a36b-3383e820de03","system_id":"levelo_inurba_marseille","lat":43.2842,"lon":5.34987,"is_reserved":false,"is_disabled":false,"rental_uris":{"android":"levelo://app?vid=eee4a819-79eb-4195-a36b-3383e820de03","ios":"levelo://app?vid=eee4a819-79eb-4195-a36b-3383e820de03"},"vehicle_type_id":"4","last_reported":1724602183,"current_range_meters":29200,"station_id":"ce4bhbh2rcd13ifvqepg","pricing_plan_id":"cebpf4jnsgd1na2vs0mg"},{"bike_id":"c0c75df8-94bf-4811-94e4-b48bf56bc6c0","system_id":"levelo_inurba_marseille","lat":43.284214,"lon":5.349706,"is_reserved":false,"is_disabled":false,"rental_uris":{"android":"levelo://app?vid=c0c75df8-94bf-4811-94e4-b48bf56bc6c0","ios":"levelo://app?vid=c0c75df8-94bf-4811-94e4-b48bf56bc6c0"},"vehicle_type_id":"4","last_reported":1724602183,"current_range_meters":24800,"station_id":"ce4bhbh2rcd13ifvqepg","pricing_plan_id":"cebpf4jnsgd1na2vs0mg"},{"bike_id":"c65cc9a8-f2cd-4e9f-a089-3fba05cb002c","system_id":"levelo_inurba_marseille","lat":43.284184,"lon":5.349899,"is_reserved":false,"is_disabled":false,"rental_uris":{"android":"levelo://app?vid=c65cc9a8-f2cd-4e9f-a089-3fba05cb002c","ios":"levelo://app?vid=c65cc9a8-f2cd-4e9f-a089-3fba05cb002c"},"vehicle_type_id":"4","last_reported":1724602183,"current_range_meters":28800,"station_id":"ce4bhbh2rcd13ifvqepg","pricing_plan_id":"cebpf4jnsgd1na2vs0mg"},{"bike_id":"2d658b02-2a42-4451-893c-8df75af325e9","system_id":"levelo_inurba_marseille","lat":43.284219,"lon":5.3497,"is_reserved":false,"is_disabled":false,"rental_uris":{"android":"levelo://app?vid=2d658b02-2a42-4451-893c-8df75af325e9","ios":"levelo://app?vid=2d658b02-2a42-4451-893c-8df75af325e9"},"vehicle_type_id":"4","last_reported":1724602183,"current_range_meters":11600,"station_id":"ce4bhbh2rcd13ifvqepg","pricing_plan_id":"cebpf4jnsgd1na2vs0mg"},{"bike_id":"41b82ec8-a6bd-47b1-82df-2a3e097f2848","system_id":"levelo_inurba_marseille","lat":43.28416,"lon":5.34995,"is_reserved":false,"is_disabled":false,"rental_uris":{"android":"levelo://app?vid=41b82ec8-a6bd-47b1-82df-2a3e097f2848","ios":"levelo://app?vid=41b82ec8-a6bd-47b1-82df-2a3e097f2848"},"vehicle_type_id":"4","last_reported":1724602183,"current_range_meters":20800,"station_id":"ce4bhbh2rcd13ifvqepg","pricing_plan_id":"cebpf4jnsgd1na2vs0mg"},{"bike_id":"40ab82e9-726e-4dac-8742-91fe4f389b03","system_id":"levelo_inurba_marseille","lat":43.284219,"lon":5.3497,"is_reserved":false,"is_disabled":false,"rental_uris":{"android":"levelo://app?vid=40ab82e9-726e-4dac-8742-91fe4f389b03","ios":"levelo://app?vid=40ab82e9-726e-4dac-8742-91fe4f389b03"},"vehicle_type_id":"4","last_reported":1724602183,"current_range_meters":30400,"station_id":"ce4bhbh2rcd13ifvqepg","pricing_plan_id":"cebpf4jnsgd1na2vs0mg"},{"bike_id":"f945eb7c-7840-4342-a279-df9a840ee6be","system_id":"levelo_inurba_marseille","lat":43.284173,"lon":5.349906,"is_reserved":false,"is_disabled":false,"rental_uris":{"android":"levelo://app?vid=f945eb7c-7840-4342-a279-df9a840ee6be","ios":"levelo://app?vid=f945eb7c-7840-4342-a279-df9a840ee6be"},"vehicle_type_id":"4","last_reported":1724602183,"current_range_meters":24000,"station_id":"ce4bhbh2rcd13ifvqepg","pricing_plan_id":"cebpf4jnsgd1na2vs0mg"},{"bike_id":"bc58b425-daf1-4d1f-aba3-f9173810f66d","system_id":"levelo_inurba_marseille","lat":43.28417,"lon":5.34991,"is_reserved":false,"is_disabled":false,"rental_uris":{"android":"levelo://app?vid=bc58b425-daf1-4d1f-aba3-f9173810f66d","ios":"levelo://app?vid=bc58b425-daf1-4d1f-aba3-f9173810f66d"},"vehicle_type_id":"4","last_reported":1724602183,"current_range_meters":8000,"station_id":"ce4bhbh2rcd13ifvqepg","pricing_plan_id":"cebpf4jnsgd1na2vs0mg"},{"bike_id":"c34e9558-dbf5-4528-bd2c-953c5680fb4e","system_id":"levelo_inurba_marseille","lat":43.284214,"lon":5.349706,"is_reserved":false,"is_disabled":false,"rental_uris":{"android":"levelo://app?vid=c34e9558-dbf5-4528-bd2c-953c5680fb4e","ios":"levelo://app?vid=c34e9558-dbf5-4528-bd2c-953c5680fb4e"},"vehicle_type_id":"4","last_reported":1724602183,"current_range_meters":14800,"station_id":"ce4bhbh2rcd13ifvqepg","pricing_plan_id":"cebpf4jnsgd1na2vs0mg"},{"bike_id":"810abbc4-3187-46fd-af0c-b2360a0e6e11","system_id":"levelo_inurba_marseille","lat":43.28415,"lon":5.34996,"is_reserved":false,"is_disabled":false,"rental_uris":{"android":"levelo://app?vid=810abbc4-3187-46fd-af0c-b2360a0e6e11","ios":"levelo://app?vid=810abbc4-3187-46fd-af0c-b2360a0e6e11"},"vehicle_type_id":"4","last_reported":1724602183,"current_range_meters":28800,"station_id":"ce4bhbh2rcd13ifvqepg","pricing_plan_id":"cebpf4jnsgd1na2vs0mg"},{"bike_id":"9d6e098f-b639-48da-82ce-1a65eb751ed6","system_id":"levelo_inurba_marseille","lat":43.284219,"lon":5.3497,"is_reserved":false,"is_disabled":false,"rental_uris":{"android":"levelo://app?vid=9d6e098f-b639-48da-82ce-1a65eb751ed6","ios":"levelo://app?vid=9d6e098f-b639-48da-82ce-1a65eb751ed6"},"vehicle_type_id":"4","last_reported":1724602183,"current_range_meters":12800,"station_id":"ce4bhbh2rcd13ifvqepg","pricing_plan_id":"cebpf4jnsgd1na2vs0mg"},