{"last_updated":1732748934,"ttl":60,"version":"2.2","data":{"bikes":[{"bike_id":"e75a9082-7454-4d85-a7d1-e0c885f7f25c","system_id":"levelo_inurba_marseille","lat":43.28703,"lon":5.37395,"is_reserved":false,"is_disabled":false,"rental_uris":{"android":"levelo://app?vid=e75a9082-7454-4d85-a7d1-e0c885f7f25c","ios":"levelo://app?vid=e75a9082-7454-4d85-a7d1-e0c885f7f25c"},"vehicle_type_id":"4","last_reported":1732748934,"current_range_meters":28000,"station_id":"ce4bh3p2rcd13ifvqdq0","pricing_plan_id":"cebpf4jnsgd1na2vs0mg"},{"bike_id":"927924fc-8a74-47c2-8b69-b7e14b1090b9","system_id":"levelo_inurba_marseille","lat":43.27813,"lon":5.40718,"is_reserved":false,"is_disabled":true,"rental_uris":{"android":"levelo://app?vid=927924fc-8a74-47c2-8b69-b7e14b1090b9","ios":"levelo://app?vid=927924fc-8a74-47c2-8b69-b7e14b1090b9"},"vehicle_type_id":"4","last_reported":1732748934,"current_range_meters":14400,"station_id":"ce4bhnh2rcd13ifvqgtg","pricing_plan_id":"cebpf4jnsgd1na2vs0mg"},{"bike_id":"b856c8b4-412d-4c25-bdd4-e6b29aed04cb","system_id":"levelo_inurba_marseille","lat":43.22932,"lon":5.35384,"is_reserved":false,"is_disabled":false,"rental_uris":{"android":"levelo://app?vid=b856c8b4-412d-4c25-bdd4-e6b29aed04cb","ios":"levelo://app?vid=b856c8b4-412d-4c25-bdd4-e6b29aed04cb"},"vehicle_type_id":"4","last_reported":1732748934,"current_range_meters":39200,"station_id":"cpo3532slgdg3j2ikp40","pricing_plan_id":"cebpf4jnsgd1na2vs0mg"},{"bike_id":"863c9696-d78b-4e98-be5f-966913ade150","system_id":"levelo_inurba_marseille","lat":43.26928,"lon":5.38915,"is_reserved":false,"is_disabled":true,"rental_uris":{"android":"levelo://app?vid=863c9696-d78b-4e98-be5f-966913ade150","ios":"levelo://app?vid=863c9696-d78b-4e98-be5f-966913ade150"},"vehicle_type_id":"4","last_reported":1732748934,"current_range_meters":32000,"station_id":"ce4bhhh2rcd13ifvqfl0","pricing_plan_id":"cebpf4jnsgd1na2vs0mg"},{"bike_id":"dea3a423-b5cd-4518-8c14-557dd912bebc","system_id":"levelo_inurba_marseille","lat":43.31752,"lon":5.39021,"is_reserved":false,"is_disabled":false,"rental_uris":{"android":"levelo://app?vid=dea3a423-b5cd-4518-8c14-557dd912bebc","ios":"levelo://app?vid=dea3a423-b5cd-4518-8c14-557dd912bebc"},"vehicle_type_id":"4","last_reported":1732748934,"current_range_meters":38800,"station_id":"ce4bhqp2rcd13ifvqhng","pricing_plan_id":"cebpf4jnsgd1na2vs0mg"},{"bike_id":"476918a2-f002-4da3-873c-93d452a6dbff","system_id":"levelo_inurba_marseille","lat":43.23968,"lon":5.3664,"is_reserved":false,"is_disabled":false,"rental_uris":{"android":"levelo://app?vid=476918a2-f002-4da3-873c-93d452a6dbff","ios":"levelo://app?vid=476918a2-f002-4da3-873c-93d452a6dbff"},"vehicle_type_id":"4","last_reported":1732748934,"current_range_meters":39200,"station_id":"ce4bhi12rcd13ifvqfp0","pricing_plan_id":"cebpf4jnsgd1na2vs0mg"},{"bike_id":"708b1ad0-445e-4558-8457-76f992ee6995","system_id":"levelo_inurba_marseille","lat":43.28967,"lon":5.37835,"is_reserved":false,"is_disabled":false,"rental_uris":{"android":"levelo://app?vid=708b1ad0-445e-4558-8457-76f992ee6995","ios":"levelo://app?vid=708b1ad0-445e-4558-8457-76f992ee6995"},"vehicle_type_id":"4","last_reported":1732748934,"current_range_meters":22800,"station_id":"ce4bh9p2rcd13ifvqed0","pricing_plan_id":"cebpf4jnsgd1na2vs0mg"},{"bike_id":"d15faee4-61f5-4b8f-b74b-4dbf5a31a4d1","system_id":"levelo_inurba_marseille","lat":43.27988,"lon":5.41651,"is_reserved":false,"is_disabled":false,"rental_uris":{"android":"levelo://app?vid=d15faee4-61f5-4b8f-b74b-4dbf5a31a4d1","ios":"levelo://app?vid=d15faee4-61f5-4b8f-b74b-4dbf5a31a4d1"},"vehicle_type_id":"4","last_reported":1732748934,"current_range_meters":32000,"station_id":"ce4bho12rcd13ifvqh1g","pricing_plan_id":"cebpf4jnsgd1na2vs0mg"},{"bike_id":"f1320447-654c-46ad-b50f-62d35a1810b5","system_id":"levelo_inurba_marseille","lat":43.28708,"lon":5.37393,"is_reserved":false,"is_disabled":true,"rental_uris":{"android":"levelo://app?vid=f1320447-654c-46ad-b50f-62d35a1810b5","ios":"levelo://app?vid=f1320447-654c-46ad-b50f-62d35a1810b5"},"vehicle_type_id":"4","last_reported":1732748934,"current_range_meters":3600,"station_id":"ce4bh3p2rcd13ifvqdq0","pricing_plan_id":"cebpf4jnsgd1na2vs0mg"},{"bike_id":"4fa11f6f-9e8e-4abb-ae14-4b41ecbf550b","system_id":"levelo_inurba_marseille","lat":43.30775,"lon":5.37651,"is_reserved":false,"is_disabled":false,"rental_uris":{"android":"levelo://app?vid=4fa11f6f-9e8e-4abb-ae14-4b41ecbf550b","ios":"levelo://app?vid=4fa11f6f-9e8e-4abb-ae14-4b41ecbf550b"},"vehicle_type_id":"4","last_reported":1732748934,"current_range_meters":39200,"station_id":"ce4bgv92rcd13ifvqcq0","pricing_plan_id":"cebpf4jnsgd1na2vs0mg"},{"bike_id":"41e53bad-9423-47c3-8583-825ffc9e72cd","system_id":"levelo_inurba_marseille","lat":43.27952,"lon":5.38717,"is_reserved":false,"is_disabled":true,"rental_uris":{"android":"levelo://app?vid=41e53bad-9423-47c3-8583-825ffc9e72cd","ios":"levelo://app?vid=41e53bad-9423-47c3-8583-825ffc9e72cd"},"vehicle_type_id":"4","last_reported":1732748934,"current_range_meters":36400,"station_id":"ce4bhg12rcd13ifvqf80","pricing_plan_id":"cebpf4jnsgd1na2vs0mg"},{"bike_id":"ebd78dc6-b684-4675-a9e0-14f894136eb5","system_id":"levelo_inurba_marseille","lat":43.2573,"lon":5.41113,"is_reserved":false,"is_disabled":false,"rental_uris":{"android":"levelo://app?vid=ebd78dc6-b684-4675-a9e0-14f894136eb5","ios":"levelo://app?vid=ebd78dc6-b684-4675-a9e0-14f894136eb5"},"vehicle_type_id":"4","last_reported":1732748934,"current_range_meters":18800,"station_id":"ce4bhkp2rcd13ifvqgd0","pricing_plan_id":"cebpf4jnsgd1na2vs0mg"},{"bike_id":"e2fcd88a-5b50-4059-b110-891c7847ea5f","system_id":"levelo_inurba_marseille","lat":43.30664,"lon":5.36869,"is_reserved":false,"is_disabled":true,"rental_uris":{"android":"levelo://app?vid=e2fcd88a-5b50-4059-b110-891c7847ea5f","ios":"levelo://app?vid=e2fcd88a-5b50-4059-b110-891c7847ea5f"},"vehicle_type_id":"4","last_reported":1732748934,"current_range_meters":0,"station_id":"","pricing_plan_id":"cebpf4jnsgd1na2vs0mg"},{"bike_id":"c133deff-fddd-4a89-97a2-c2177babbaa7","system_id":"levelo_inurba_marseille","lat":43.28728,"lon":5.36085,"is_reserved":false,"is_disabled":false,"rental_uris":{"android":"levelo://app?vid=c133deff-fddd-4a89-97a2-c2177babbaa7","ios":"levelo://app?vid=c133deff-fddd-4a89-97a2-c2177babbaa7"},"vehicle_type_id":"4","last_reported":1732748934,"current_range_meters":16000,"station_id":"cki0cbj6b192h4jlfktg","pricing_plan_id":"cebpf4jnsgd1na2vs0mg"},{"bike_id":"fc1ce88e-7558-4cf1-ae6f-1ab6c4dd5e74","system_id":"levelo_inurba_marseille","lat":43.30957,"lon":5.39047,"is_reserved":false,"is_disabled":false,"rental_uris":{"android":"levelo://app?vid=fc1ce88e-7558-4cf1-ae6f-1ab6c4dd5e74","ios":"levelo://app?vid=fc1ce88e-7558-4cf1-ae6f-1ab6c4dd5e74"},"vehicle_type_id":"4","last_reported":1732748934,"current_range_meters":8400,"station_id":"ce4bgup2rcd13ifvqco0","pricing_plan_id":"cebpf4jnsgd1na2vs0mg"},{"bike_id":"ce15a521-8a1d-47b7-92c8-091ca367d00e","system_id":"levelo_inurba_marseille","lat":43.33748,"lon":5.37452,"is_reserved":false,"is_disabled":false,"rental_uris":{"android":"levelo://app?vid=ce15a521-8a1d-47b7-92c8-091ca367d00e","ios":"levelo://app?vid=ce15a521-8a1d-47b7-92c8-091ca367d00e"},"vehicle_type_id":"4","last_reported":1732748934,"current_range_meters":38800,"station_id":"","pricing_plan_id":"cebpf4jnsgd1na2vs0mg"},{"bike_id":"1916fa6d-d3b8-4a76-b3e9-3bd347c23b60","system_id":"levelo_inurba_marseille","lat":43.25826,"lon":5.39445,"is_reserved":false,"is_disabled":false,"rental_uris":{"android":"levelo://app?vid=1916fa6d-d3b8-4a76-b3e9-3bd347c23b60","ios":"levelo://app?vid=1916fa6d-d3b8-4a76-b3e9-3bd347c23b60"},"vehicle_type_id":"4","last_reported":1732748934,"current_range_meters":35200,"station_id":"ce4bhip2rcd13ifvqft0","pricing_plan_id":"cebpf4jnsgd1na2vs0mg"},{"bike_id":"ec09b0cc-3621-4afa-bff4-debce0b2cc37","system_id":"levelo_inurba_marseille","lat":43.27184,"lon":5.40993,"is_reserved":false,"is_disabled":true,"rental_uris":{"android":"levelo://app?vid=ec09b0cc-3621-4afa-bff4-debce0b2cc37","ios":"levelo://app?vid=ec09b0cc-3621-4afa-bff4-debce0b2cc37"},"vehicle_type_id":"4","last_reported":1732748934,"current_range_meters":23200,"station_id":"ce4bhl12rcd13ifvqgf0","pricing_plan_id":"cebpf4jnsgd1na2vs0mg"},{"bike_id":"1a97b8de-96c7-4db7-baee-f7a791894782","system_id":"levelo_inurba_marseille","lat":43.28722,"lon":5.36084,"is_reserved":false,"is_disabled":false,"rental_uris":{"android":"levelo://app?vid=1a97b8de-96c7-4db7-baee-f7a791894782","ios":"levelo://app?vid=1a97b8de-96c7-4db7-baee-f7a791894782"},"vehicle_type_id":"4","last_reported":1732748934,"current_range_meters":32800,"station_id":"cki0cbj6b192h4jlfktg","pricing_plan_id":"cebpf4jnsgd1na2vs0mg"},{"bike_id":"1d746077-5610-4b94-96f4-2b8617602ffc","system_id":"levelo_inurba_marseille","lat":43.25003,"lon":5.38926,"is_reserved":false,"is_disabled":false,"rental_uris":{"android":"levelo://app?vid=1d746077-5610-4b94-96f4-2b8617602ffc","ios":"levelo://app?vid=1d746077-5610-4b94-96f4-2b8617602ffc"},"vehicle_type_id":"4","last_reported":1732748934,"current_range_meters":40000,"station_id":"ce4bhgp2rcd13ifvqfd0","pricing_plan_id":"cebpf4jnsgd1na2vs0mg"},{"bike_id":"30712da3-4109-4d0c-bd34-526232671f62","system_id":"levelo_inurba_marseille","lat":43.29914,"lon":5.37483,"is_reserved":false,"is_disabled":true,"rental_uris":{"android":"levelo://app?vid=30712da3-4109-4d0c-bd34-526232671f62","ios":"levelo://app?vid=30712da3-4109-4d0c-bd34-526232671f62"},"vehicle_type_id":"4","last_reported":1732748934,"current_range_meters":38800,"station_id":"ce4bgjh2rcd13ifvqbg0","pricing_plan_id":"cebpf4jnsgd1na2vs0mg"},{"bike_id":"e97a9f02-2aaa-4089-a07a-8618491d1998","system_id":"levelo_inurba_marseille","lat":43.28078,"lon":5.39662,"is_reserved":false,"is_disabled":false,"rental_uris":{"android":"levelo://app?vid=e97a9f02-2aaa-4089-a07a-8618491d1998","ios":"levelo://app?vid=e97a9f02-2aaa-4089-a07a-8618491d1998"},"vehicle_type_id":"4","last_reported":1732748934,"current_range_meters":6000,"station_id":"ce4bho12rcd13ifvqh2g","pricing_plan_id":"cebpf4jnsgd1na2vs0mg"},{"bike_id":"159bac19-9cba-45ce-a9ad-1f0b29b7ead8","system_id":"levelo_inurba_marseille","lat":43.28005,"lon":5.41673,"is_reserved":false,"is_disabled":false,"rental_uris":{"android":"levelo://app?vid=159bac19-9cba-45ce-a9ad-1f0b29b7ead8","ios":"levelo://app?vid=159bac19-9cba-45ce-a9ad-1f0b29b7ead8"},"vehicle_type_id":"4","last_reported":1732748934,"current_range_meters":32800,"station_id":"ce4bho12rcd13ifvqh1g","pricing_plan_id":"cebpf4jnsgd1na2vs0mg"},{"bike_id":"b8473380-2e78-4243-944b-872bb30cd1c9","system_id":"levelo_inurba_marseille","lat":43.27193,"lon":5.40994,"is_reserved":false,"is_disabled":false,"rental_uris":{"android":"levelo://app?vid=b8473380-2e78-4243-944b-872bb30cd1c9","ios":"levelo://app?vid=b8473380-2e78-4243-944b-872bb30cd1c9"},"vehicle_type_id":"4","last_reported":1732748934,"current_range_meters":16800,"station_id":"ce4bhl12rcd13ifvqgf0","pricing_plan_id":"cebpf4jnsgd1na2vs0mg"},{"bike_id":"9c2d97a4-116d-4429-baf9-dee4a3e88046","system_id":"levelo_inurba_marseille","lat":43.30642,"lon":5.40078,"is_reserved":false,"is_disabled":false,"rental_uris":{"android":"levelo://app?vid=9c2d97a4-116d-4429-baf9-dee4a3e88046","ios":"levelo://app?vid=9c2d97a4-116d-4429-baf9-dee4a3e88046"},"vehicle_type_id":"4","last_reported":1732748934,"current_range_meters":39200,"station_id":"ce4bh112rcd13ifvqda0","pricing_plan_id":"cebpf4jnsgd1na2vs0mg"},{"bike_id":"6f7949e1-de87-4a49-8620-fec27e04447f","system_id":"levelo_inurba_marseille","lat":43.33733,"lon":5.3919,"is_reserved":false,"is_disabled":false,"rental_uris":{"android":"levelo://app?vid=6f7949e1-de87-4a49-8620-fec27e04447f","ios":"levelo://app?vid=6f7949e1-de87-4a49-8620-fec27e04447f"},"vehicle_type_id":"4","last_reported":1732748934,"current_range_meters":37600,"station_id":"ce4bhr92rcd13ifvqhsg","pricing_plan_id":"cebpf4jnsgd1na2vs0mg"},{"bike_id":"45f3098f-b9fc-4bf3-82c7-c040123a920b","system_id":"levelo_inurba_marseille","lat":43.2885,"lon":5.35849,"is_reserved":false,"is_disabled":false,"rental_uris":{"android":"levelo://app?vid=45f3098f-b9fc-4bf3-82c7-c040123a920b","ios":"levelo://app?vid=45f3098f-b9fc-4bf3-82c7-c040123a920b"},"vehicle_type_id":"4","last_reported":1732748934,"current_range_meters":20800,"station_id":"ce4bhb12rcd13ifvqem0","pricing_plan_id":"cebpf4jnsgd1na2vs0mg"},{"bike_id":"d23289ce-d393-4510-a420-8c431a6d7a22","system_id":"levelo_inurba_marseille","lat":43.28415,"lon":5.3752,"is_reserved":false,"is_disabled":false,"rental_uris":{"android":"levelo://app?vid=d23289ce-d393-4510-a420-8c431a6d7a22","ios":"levelo://app?vid=d23289ce-d393-4510-a420-8c431a6d7a22"},"vehicle_type_id":"4","last_reported":1732748934,"current_range_meters":31200,"station_id":"ce4bh412rcd13ifvqds0","pricing_plan_id":"cebpf4jnsgd1na2vs0mg"},{"bike_id":"916a3609-85b5-4ab2-9ccd-5e38c5e46896","system_id":"levelo_inurba_marseille","lat":43.29949,"lon":5.36545,"is_reserved":false,"is_disabled":false,"rental_uris":{"android":"levelo://app?vid=916a3609-85b5-4ab2-9ccd-5e38c5e46896","ios":"levelo://app?vid=916a3609-85b5-4ab2-9ccd-5e38c5e46896"},"vehicle_type_id":"4","last_reported":1732748934,"current_range_meters":30400,"station_id":"ce4bgm92rcd13ifvqbr0","pricing_plan_id":"cebpf4jnsgd1na2vs0mg"},{"bike_id":"88c0a23c-decf-469d-95fc-e70f9cd8eb3b","system_id":"levelo_inurba_marseille","lat":43.33752,"lon":5.37453,"is_reserved":false,"is_disabled":false,"rental_uris":{"android":"levelo://app?vid=88c0a23c-decf-469d-95fc-e70f9cd8eb3b","ios":"levelo://app?vid=88c0a23c-decf-469d-95fc-e70f9cd8eb3b"},"vehicle_type_id":"4","last_reported":1732748934,"current_range_meters":33600,"station_id":"","pricing_plan_id":"cebpf4jnsgd1na2vs0mg"},{"bike_id":"284b99db-c8ad-4719-a08f-5d0d9fb4fc5d","system_id":"levelo_inurba_marseille","lat":43.30278,"lon":5.37698,"is_reserved":false,"is_disabled":false,"rental_uris":{"android":"levelo://app?vid=284b99db-c8ad-4719-a08f-5d0d9fb4fc5d","ios":"levelo://app?vid=284b99db-c8ad-4719-a08f-5d0d9fb4fc5d"},"vehicle_type_id":"4","last_reported":1732748934,"current_range_meters":39200,"station_id":"ce4bguh2rcd13ifvqcj0","pricing_plan_id":"cebpf4jnsgd1na2vs0mg"},{"bike_id":"b037b0ca-1f65-4bb8-bf1a-2ea0b637ed2b","system_id":"levelo_inurba_marseille","lat":43.28464,"lon":5.35893,"is_reserved":false,"is_disabled":false,"rental_uris":{"android":"levelo://app?vid=b037b0ca-1f65-4bb8-bf1a-2ea0b637ed2b","ios":"levelo://app?vid=b037b0ca-1f65-4bb8-bf1a-2ea0b637ed2b"},"vehicle_type_id":"4","last_reported":1732748934,"current_range_meters":27600,"station_id":"ce4bhah2rcd13ifvqei0","pricing_plan_id":"cebpf4jnsgd1na2vs0mg"},{"bike_id":"318a6aa4-78ed-474d-abd7-4e3dfa07adf2","system_id":"levelo_inurba_marseille","lat":43.2842,"lon":5.37512,"is_reserved":false,"is_disabled":false,"rental_uris":{"android":"levelo://app?vid=318a6aa4-78ed-474d-abd7-4e3dfa07adf2","ios":"levelo://app?vid=318a6aa4-78ed-474d-abd7-4e3dfa07adf2"},"vehicle_type_id":"4","last_reported":1732748934,"current_range_meters":10000,"station_id":"ce4bh412rcd13ifvqds0","pricing_plan_id":"cebpf4jnsgd1na2vs0mg"},{"bike_id":"d208b70b-cfeb-47de-81b0-222dbd574cb7","system_id":"levelo_inurba_marseille","lat":43.2307,"lon":5.35496,"is_reserved":false,"is_disabled":false,"rental_uris":{"android":"levelo://app?vid=d208b70b-cfeb-47de-81b0-222dbd574cb7","ios":"levelo://app?vid=d208b70b-cfeb-47de-81b0-222dbd574cb7"},"vehicle_type_id":"4","last_reported":1732748934,"current_range_meters":38800,"station_id":"cpo3342slgdg3j2ifvpg","pricing_plan_id":"cebpf4jnsgd1na2vs0mg"},{"bike_id":"2e2df3a6-22fe-45ba-ac14-71e56c32957d","system_id":"levelo_inurba_marseille","lat":43.29439,"lon":5.39749,"is_reserved":false,"is_disabled":false,"rental_uris":{"android":"levelo://app?vid=2e2df3a6-22fe-45ba-ac14-71e56c32957d","ios":"levelo://app?vid=2e2df3a6-22fe-45ba-ac14-71e56c32957d"},"vehicle_type_id":"4","last_reported":1732748934,"current_range_meters":32000,"station_id":"ce4bh3h2rcd13ifvqdo0","pricing_plan_id":"cebpf4jnsgd1na2vs0mg"},{"bike_id":"5249c720-4ecf-407f-95ee-f4da1041dcb5","system_id":"levelo_inurba_marseille","lat":43.2669,"lon":5.38274,"is_reserved":false,"is_disabled":true,"rental_uris":{"android":"levelo://app?vid=5249c720-4ecf-407f-95ee-f4da1041dcb5","ios":"levelo://app?vid=5249c720-4ecf-407f-95ee-f4da1041dcb5"},"vehicle_type_id":"4","last_reported":1732748934,"current_range_meters":32400,"station_id":"ce4bhg92rcd13ifvqf90","pricing_plan_id":"cebpf4jnsgd1na2vs0mg"},{"bike_id":"d7211545-298f-4031-a7c6-34773a3ba9aa","system_id":"levelo_inurba_marseille","lat":43.30649,"lon":5.40096,"is_reserved":false,"is_disabled":false,"rental_uris":{"android":"levelo://app?vid=d7211545-298f-4031-a7c6-34773a3ba9aa","ios":"levelo://app?vid=d7211545-298f-4031-a7c6-34773a3ba9aa"},"vehicle_type_id":"4","last_reported":1732748934,"current_range_meters":26000,"station_id":"ce4bh112rcd13ifvqda0","pricing_plan_id":"cebpf4jnsgd1na2vs0mg"},{"bike_id":"712e56aa-f0e9-400d-ac30-33baf1320ab8","system_id":"levelo_inurba_marseille","lat":43.28457,"lon":5.35897,"is_reserved":false,"is_disabled":false,"rental_uris":{"android":"levelo://app?vid=712e56aa-f0e9-400d-ac30-33baf1320ab8","ios":"levelo://app?vid=712e56aa-f0e9-400d-ac30-33baf1320ab8"},"vehicle_type_id":"4","last_reported":1732748934,"current_range_meters":7200,"station_id":"ce4bhah2rcd13ifvqei0","pricing_plan_id":"cebpf4jnsgd1na2vs0mg"},{"bike_id":"4709c438-f4af-415a-a919-d27302b75dca","system_id":"levelo_inurba_marseille","lat":43.23189,"lon":5.35562,"is_reserved":false,"is_disabled":false,"rental_uris":{"android":"levelo://app?vid=4709c438-f4af-415a-a919-d27302b75dca","ios":"levelo://app?vid=4709c438-f4af-415a-a919-d27302b75dca"},"vehicle_type_id":"4","last_reported":1732748934,"current_range_meters":39200,"station_id":"ce4bhu92rcd13ifvqi70","pricing_plan_id":"cebpf4jnsgd1na2vs0mg"},{"bike_id":"2b921899-1359-49b6-a793-ffb9ef50e656","system_id":"levelo_inurba_marseille","lat":43.29609,"lon":5.37712,"is_reserved":false,"is_disabled":true,"rental_uris":{"android":"levelo://app?vid=2b921899-1359-49b6-a793-ffb9ef50e656","ios":"levelo://app?vid=2b921899-1359-49b6-a793-ffb9ef50e656"},"vehicle_type_id":"4","last_reported":1732748934,"current_range_meters":38800,"station_id":"ce4bgi92rcd13ifvqb90","pricing_plan_id":"cebpf4jnsgd1na2vs0mg"},{"bike_id":"87365e0f-ca6d-42c8-876c-c0e14807040b","system_id":"levelo_inurba_marseille","lat":43.2957,"lon":5.39972,"is_reserved":false,"is_disabled":false,"rental_uris":{"android":"levelo://app?vid=87365e0f-ca6d-42c8-876c-c0e14807040b","ios":"levelo://app?vid=87365e0f-ca6d-42c8-876c-c0e14807040b"},"vehicle_type_id":"4","last_reported":1732748934,"current_range_meters":36800,"station_id":"ce4bh312rcd13ifvqdj0","pricing_plan_id":"cebpf4jnsgd1na2vs0mg"},{"bike_id":"181851fb-d5fd-4b64-a671-8ea8285234d7","system_id":"levelo_inurba_marseille","lat":43.32366,"lon":5.38883,"is_reserved":false,"is_disabled":false,"rental_uris":{"android":"levelo://app?vid=181851fb-d5fd-4b64-a671-8ea8285234d7","ios":"levelo://app?vid=181851fb-d5fd-4b64-a671-8ea8285234d7"},"vehicle_type_id":"4","last_reported":1732748934,"current_range_meters":14400,"station_id":"ce4bhqp2rcd13ifvqhog","pricing_plan_id":"cebpf4jnsgd1na2vs0mg"},{"bike_id":"6b45ad5f-0a27-4fcf-864b-3cb52492ef94","system_id":"levelo_inurba_marseille","lat":43.28036,"lon":5.36945,"is_reserved":false,"is_disabled":false,"rental_uris":{"android":"levelo://app?vid=6b45ad5f-0a27-4fcf-864b-3cb52492ef94","ios":"levelo://app?vid=6b45ad5f-0a27-4fcf-864b-3cb52492ef94"},"vehicle_type_id":"4","last_reported":1732748934,"current_range_meters":18800,"station_id":"ce4bha12rcd13ifvqef0","pricing_plan_id":"cebpf4jnsgd1na2vs0mg"},{"bike_id":"a833b1a9-9114-4797-905e-009322efb201","system_id":"levelo_inurba_marseille","lat":43.31713,"lon":5.37755,"is_reserved":false,"is_disabled":false,"rental_uris":{"android":"levelo://app?vid=a833b1a9-9114-4797-905e-009322efb201","ios":"levelo://app?vid=a833b1a9-9114-4797-905e-009322efb201"},"vehicle_type_id":"4","last_reported":1732748934,"current_range_meters":24800,"station_id":"ce4bgth2rcd13ifvqch0","pricing_plan_id":"cebpf4jnsgd1na2vs0mg"},{"bike_id":"869146c7-107f-4a8d-a9de-076457eea766","system_id":"levelo_inurba_marseille","lat":43.21675,"lon":5.3465,"is_reserved":false,"is_disabled":false,"rental_uris":{"android":"levelo://app?vid=869146c7-107f-4a8d-a9de-076457eea766","ios":"levelo://app?vid=869146c7-107f-4a8d-a9de-076457eea766"},"vehicle_type_id":"4","last_reported":1732748934,"current_range_meters":14000,"station_id":"","pricing_plan_id":"cebpf4jnsgd1na2vs0mg"},{"bike_id":"8b53c6cd-9f6a-4960-8a00-178f9f03d8f4","system_id":"levelo_inurba_marseille","lat":43.28842,"lon":5.35856,"is_reserved":false,"is_disabled":false,"rental_uris":{"android":"levelo://app?vid=8b53c6cd-9f6a-4960-8a00-178f9f03d8f4","ios":"levelo://app?vid=8b53c6cd-9f6a-4960-8a00-178f9f03d8f4"},"vehicle_type_id":"4","last_reported":1732748934,"current_range_meters":39200,"station_id":"ce4bhb12rcd13ifvqem0","pricing_plan_id":"cebpf4jnsgd1na2vs0mg"},{"bike_id":"72d6e1cd-95a6-4161-b11a-570ee8a1f3a8","system_id":"levelo_inurba_marseille","lat":43.29275,"lon":5.40124,"is_reserved":false,"is_disabled":false,"rental_uris":{"android":"levelo://app?vid=72d6e1cd-95a6-4161-b11a-570ee8a1f3a8","ios":"levelo://app?vid=72d6e1cd-95a6-4161-b11a-570ee8a1f3a8"},"vehicle_type_id":"4","last_reported":1732748934,"current_range_meters":38800,"station_id":"ce4bh312rcd13ifvqdk0","pricing_plan_id":"cebpf4jnsgd1na2vs0mg"},{"bike_id":"c283b5f8-3130-489e-b2be-8acbbe840512","system_id":"levelo_inurba_marseille","lat":43.29272,"lon":5.40126,"is_reserved":false,"is_disabled":true,"rental_uris":{"android":"levelo://app?vid=c283b5f8-3130-489e-b2be-8acbbe840512","ios":"levelo://app?vid=c283b5f8-3130-489e-b2be-8acbbe840512"},"vehicle_type_id":"4","last_reported":1732748934,"current_range_meters":22800,"station_id":"ce4bh312rcd13ifvqdk0","pricing_plan_id":"cebpf4jnsgd1na2vs0mg"},{"bike_id":"bc5a5074-0b9a-4e85-95dd-ea50a596fbc7","system_id":"levelo_inurba_marseille","lat":43.30933,"lon":5.40146,"is_reserved":false,"is_disabled":false,"rental_uris":{"android":"levelo://app?vid=bc5a5074-0b9a-4e85-95dd-ea50a596fbc7","ios":"levelo://app?vid=bc5a5074-0b9a-4e85-95dd-ea50a596fbc7"},"vehicle_type_id":"4","last_reported":1732748934,"current_range_meters":32800,"station_id":"ce4bgvp2rcd13ifvqct0","pricing_plan_id":"cebpf4jnsgd1na2vs0mg"},{"bike_id":"de1ca9e9-b954-4a0a-bf98-44af75deb117","system_id":"levelo_inurba_marseille","lat":43.31169,"lon":5.3872,"is_reserved":false,"is_disabled":false,"rental_uris":{"android":"levelo://app?vid=de1ca9e9-b954-4a0a-bf98-44af75deb117","ios":"levelo://app?vid=de1ca9e9-b954-4a0a-bf98-44af75deb117"},"vehicle_type_id":"4","last_reported":1732748934,"current_range_meters":27600,"station_id":"ce4bgv12rcd13ifvqcp0","pricing_plan_id":"cebpf4jnsgd1na2vs0mg"},{"bike_id":"7e70a053-ceff-498f-9b92-253c702e76d4","system_id":"levelo_inurba_marseille","lat":43.31759,"lon":5.39023,"is_reserved":false,"is_disabled":false,"rental_uris":{"android":"levelo://app?vid=7e70a053-ceff-498f-9b92-253c702e76d4","ios":"levelo://app?vid=7e70a053-ceff-498f-9b92-253c702e76d4"},"vehicle_type_id":"4","last_reported":1732748934,"current_range_meters":38800,"station_id":"ce4bhqp2rcd13ifvqhng","pricing_plan_id":"cebpf4jnsgd1na2vs0mg"},{"bike_id":"1f913d77-d3a3-43b4-98a3-4820c670550b","system_id":"levelo_inurba_marseille","lat":43.30881,"lon":5.39631,"is_reserved":false,"is_disabled":false,"rental_uris":{"android":"levelo://app?vid=1f913d77-d3a3-43b4-98a3-4820c670550b","ios":"levelo://app?vid=1f913d77-d3a3-43b4-98a3-4820c670550b"},"vehicle_type_id":"4","last_reported":1732748934,"current_range_meters":9200,"station_id":"ce4bh012rcd13ifvqcv0","pricing_plan_id":"cebpf4jnsgd1na2vs0mg"},{"bike_id":"029fadc3-0a47-4854-9081-421a1c761db5","system_id":"levelo_inurba_marseille","lat":43.25863,"lon":5.39901,"is_reserved":false,"is_disabled":false,"rental_uris":{"android":"levelo://app?vid=029fadc3-0a47-4854-9081-421a1c761db5","ios":"levelo://app?vid=029fadc3-0a47-4854-9081-421a1c761db5"},"vehicle_type_id":"4","last_reported":1732748934,"current_range_meters":37600,"station_id":"ce4bhl92rcd13ifvqghg","pricing_plan_id":"cebpf4jnsgd1na2vs0mg"},{"bike_id":"775aba22-baf5-4ce5-b645-5941a20cb104","system_id":"levelo_inurba_marseille","lat":43.27379,"lon":5.36252,"is_reserved":false,"is_disabled":true,"rental_uris":{"android":"levelo://app?vid=775aba22-baf5-4ce5-b645-5941a20cb104","ios":"levelo://app?vid=775aba22-baf5-4ce5-b645-5941a20cb104"},"vehicle_type_id":"4","last_reported":1732748934,"current_range_meters":38800,"station_id":"ce4bhbh2rcd13ifvqeo0","pricing_plan_id":"cebpf4jnsgd1na2vs0mg"},{"bike_id":"09ec2717-1150-48ab-8e92-40a50921c91b","system_id":"levelo_inurba_marseille","lat":43.28703,"lon":5.39988,"is_reserved":false,"is_disabled":false,"rental_uris":{"android":"levelo://app?vid=09ec2717-1150-48ab-8e92-40a50921c91b","ios":"levelo://app?vid=09ec2717-1150-48ab-8e92-40a50921c91b"},"vehicle_type_id":"4","last_reported":1732748934,"current_range_meters":39200,"station_id":"ce4bho92rcd13ifvqh3g","pricing_plan_id":"cebpf4jnsgd1na2vs0mg"},{"bike_id":"118fa243-bbd5-4b6c-a03c-8b96ccf179f3","system_id":"levelo_inurba_marseille","lat":43.29586,"lon":5.36737,"is_reserved":false,"is_disabled":false,"rental_uris":{"android":"levelo://app?vid=118fa243-bbd5-4b6c-a03c-8b96ccf179f3","ios":"levelo://app?vid=118fa243-bbd5-4b6c-a03c-8b96ccf179f3"},"vehicle_type_id":"4","last_reported":1732748934,"current_range_meters":38800,"station_id":"ce4bgph2rcd13ifvqc2g","pricing_plan_id":"cebpf4jnsgd1na2vs0mg"},{"bike_id":"10515226-3d19-49b0-b8c2-7bbf5cbf72e4","system_id":"levelo_inurba_marseille","lat":43.29005,"lon":5.35631,"is_reserved":false,"is_disabled":true,"rental_uris":{"android":"levelo://app?vid=10515226-3d19-49b0-b8c2-7bbf5cbf72e4","ios":"levelo://app?vid=10515226-3d19-49b0-b8c2-7bbf5cbf72e4"},"vehicle_type_id":"4","last_reported":1732748934,"current_range_meters":3200,"station_id":"ce4bhb92rcd13ifvqen0","pricing_plan_id":"cebpf4jnsgd1na2vs0mg"},{"bike_id":"6148d723-37a4-48c4-bf51-53a21b297072","system_id":"levelo_inurba_marseille","lat":43.30936,"lon":5.40144,"is_reserved":false,"is_disabled":false,"rental_uris":{"android":"levelo://app?vid=6148d723-37a4-48c4-bf51-53a21b297072","ios":"levelo://app?vid=6148d723-37a4-48c4-bf51-53a21b297072"},"vehicle_type_id":"4","last_reported":1732748934,"current_range_meters":17600,"station_id":"ce4bgvp2rcd13ifvqct0","pricing_plan_id":"cebpf4jnsgd1na2vs0mg"},{"bike_id":"f9b5620a-e690-4155-9b0d-67c83858f7f4","system_id":"levelo_inurba_marseille","lat":43.32292,"lon":5.38269,"is_reserved":false,"is_disabled":true,"rental_uris":{"android":"levelo://app?vid=f9b5620a-e690-4155-9b0d-67c83858f7f4","ios":"levelo://app?vid=f9b5620a-e690-4155-9b0d-67c83858f7f4"},"vehicle_type_id":"4","last_reported":1732748934,"current_range_meters":1600,"station_id":"ce4bhr12rcd13ifvqhqg","pricing_plan_id":"cebpf4jnsgd1na2vs0mg"},{"bike_id":"4d4c884f-6933-49c0-8899-f9856d90f44d","system_id":"levelo_inurba_marseille","lat":43.29748,"lon":5.37971,"is_reserved":false,"is_disabled":true,"rental_uris":{"android":"levelo://app?vid=4d4c884f-6933-49c0-8899-f9856d90f44d","ios":"levelo://app?vid=4d4c884f-6933-49c0-8899-f9856d90f44d"},"vehicle_type_id":"4","last_reported":1732748934,"current_range_meters":0,"station_id":"","pricing_plan_id":"cebpf4jnsgd1na2vs0mg"},{"bike_id":"497503fe-5efc-49a3-b750-0eb1d7c8980e","system_id":"levelo_inurba_marseille","lat":43.23066,"lon":5.35491,"is_reserved":false,"is_disabled":false,"rental_uris":{"android":"levelo://app?vid=497503fe-5efc-49a3-b750-0eb1d7c8980e","ios":"levelo://app?vid=497503fe-5efc-49a3-b750-0eb1d7c8980e"},"vehicle_type_id":"4","last_reported":1732748934,"current_range_meters":28800,"station_id":"cpo3342slgdg3j2ifvpg","pricing_plan_id":"cebpf4jnsgd1na2vs0mg"},{"bike_id":"8e2d38d9-a396-4376-a014-6e6f5a184516","system_id":"levelo_inurba_marseille","lat":43.28457,"lon":5.35902,"is_reserved":false,"is_disabled":false,"rental_uris":{"android":"levelo://app?vid=8e2d38d9-a396-4376-a014-6e6f5a184516","ios":"levelo://app?vid=8e2d38d9-a396-4376-a014-6e6f5a184516"},"vehicle_type_id":"4","last_reported":1732748934,"current_range_meters":12000,"station_id":"ce4bhah2rcd13ifvqei0","pricing_plan_id":"cebpf4jnsgd1na2vs0mg"},{"bike_id":"9009be37-c6b1-406b-b0a8-fbab355f715e","system_id":"levelo_inurba_marseille","lat":43.33761,"lon":5.37497,"is_reserved":false,"is_disabled":false,"rental_uris":{"android":"levelo://app?vid=9009be37-c6b1-406b-b0a8-fbab355f715e","ios":"levelo://app?vid=9009be37-c6b1-406b-b0a8-fbab355f715e"},"vehicle_type_id":"4","last_reported":1732748934,"current_range_meters":36800,"station_id":"","pricing_plan_id":"cebpf4jnsgd1na2vs0mg"},{"bike_id":"79e0b48c-a0ec-44c8-b7cc-20d7d7adc530","system_id":"levelo_inurba_marseille","lat":43.31998,"lon":5.38153,"is_reserved":false,"is_disabled":false,"rental_uris":{"android":"levelo://app?vid=79e0b48c-a0ec-44c8-b7cc-20d7d7adc530","ios":"levelo://app?vid=79e0b48c-a0ec-44c8-b7cc-20d7d7adc530"},"vehicle_type_id":"4","last_reported":1732748934,"current_range_meters":39200,"station_id":"ce4bhr12rcd13ifvqhpg","pricing_plan_id":"cebpf4jnsgd1na2vs0mg"},{"bike_id":"787da3e5-5eaa-466d-a942-f9510f3bbd6d","system_id":"levelo_inurba_marseille","lat":43.27914,"lon":5.39588,"is_reserved":false,"is_disabled":false,"rental_uris":{"android":"levelo://app?vid=787da3e5-5eaa-466d-a942-f9510f3bbd6d","ios":"levelo://app?vid=787da3e5-5eaa-466d-a942-f9510f3bbd6d"},"vehicle_type_id":"4","last_reported":1732748934,"current_range_meters":39200,"station_id":"ce4bhf92rcd13ifvqf40","pricing_plan_id":"cebpf4jnsgd1na2vs0mg"},{"bike_id":"39d79810-9816-4242-a5c5-257877deb879","system_id":"levelo_inurba_marseille","lat":43.231204,"lon":5.437498,"is_reserved":false,"is_disabled":true,"rental_uris":{"android":"levelo://app?vid=39d79810-9816-4242-a5c5-257877deb879","ios":"levelo://app?vid=39d79810-9816-4242-a5c5-257877deb879"},"vehicle_type_id":"4","last_reported":1732748934,"current_range_meters":0,"station_id":"ce4bhmp2rcd13ifvqgog","pricing_plan_id":"cebpf4jnsgd1na2vs0mg"},{"bike_id":"cc39417c-9fe6-4314-b916-d5d5360bfdd4","system_id":"levelo_inurba_marseille","lat":43.32545,"lon":5.41444,"is_reserved":false,"is_disabled":false,"rental_uris":{"android":"levelo://app?vid=cc39417c-9fe6-4314-b916-d5d5360bfdd4","ios":"levelo://app?vid=cc39417c-9fe6-4314-b916-d5d5360bfdd4"},"vehicle_type_id":"4","last_reported":1732748934,"current_range_meters":38800,"station_id":"ce4bhq12rcd13ifvqhhg","pricing_plan_id":"cebpf4jnsgd1na2vs0mg"},{"bike_id":"ac3166e6-7ba4-41ff-826a-bbd05a226e21","system_id":"levelo_inurba_marseille","lat":43.31178,"lon":5.38717,"is_reserved":false,"is_disabled":false,"rental_uris":{"android":"levelo://app?vid=ac3166e6-7ba4-41ff-826a-bbd05a226e21","ios":"levelo://app?vid=ac3166e6-7ba4-41ff-826a-bbd05a226e21"},"vehicle_type_id":"4","last_reported":1732748934,"current_range_meters":39200,"station_id":"ce4bgv12rcd13ifvqcp0","pricing_plan_id":"cebpf4jnsgd1na2vs0mg"},{"bike_id":"299f58fd-6e29-4e06-a65a-1ba6949f2bdc","system_id":"levelo_inurba_marseille","lat":43.33786,"lon":5.37392,"is_reserved":false,"is_disabled":false,"rental_uris":{"android":"levelo://app?vid=299f58fd-6e29-4e06-a65a-1ba6949f2bdc","ios":"levelo://app?vid=299f58fd-6e29-4e06-a65a-1ba6949f2bdc"},"vehicle_type_id":"4","last_reported":1732748934,"current_range_meters":34800,"station_id":"","pricing_plan_id":"cebpf4jnsgd1na2vs0mg"},{"bike_id":"4d809776-4d2b-4bf5-8aa6-666b5b1fd18f","system_id":"levelo_inurba_marseille","lat":43.33729,"lon":5.39189,"is_reserved":false,"is_disabled":false,"rental_uris":{"android":"levelo://app?vid=4d809776-4d2b-4bf5-8aa6-666b5b1fd18f","ios":"levelo://app?vid=4d809776-4d2b-4bf5-8aa6-666b5b1fd18f"},"vehicle_type_id":"4","last_reported":1732748934,"current_range_meters":36400,"station_id":"ce4bhr92rcd13ifvqhsg","pricing_plan_id":"cebpf4jnsgd1na2vs0mg"},{"bike_id":"4f26b517-d0b9-4b24-9c33-c4c094e83c93","system_id":"levelo_inurba_marseille","lat":43.33602,"lon":5.41021,"is_reserved":false,"is_disabled":false,"rental_uris":{"android":"levelo://app?vid=4f26b517-d0b9-4b24-9c33-c4c094e83c93","ios":"levelo://app?vid=4f26b517-d0b9-4b24-9c33-c4c094e83c93"},"vehicle_type_id":"4","last_reported":1732748934,"current_range_meters":39200,"station_id":"ce4bhqh2rcd13ifvqhmg","pricing_plan_id":"cebpf4jnsgd1na2vs0mg"},{"bike_id":"a951ec7e-dc5f-4522-b098-eca58f362ce9","system_id":"levelo_inurba_marseille","lat":43.28702,"lon":5.37391,"is_reserved":false,"is_disabled":false,"rental_uris":{"android":"levelo://app?vid=a951ec7e-dc5f-4522-b098-eca58f362ce9","ios":"levelo://app?vid=a951ec7e-dc5f-4522-b098-eca58f362ce9"},"vehicle_type_id":"4","last_reported":1732748934,"current_range_meters":38000,"station_id":"ce4bh3p2rcd13ifvqdq0","pricing_plan_id":"cebpf4jnsgd1na2vs0mg"},{"bike_id":"2af0e3d7-93a5-426a-be5f-50c6b7d8a5aa","system_id":"levelo_inurba_marseille","lat":43.30257,"lon":5.40089,"is_reserved":false,"is_disabled":false,"rental_uris":{"android":"levelo://app?vid=2af0e3d7-93a5-426a-be5f-50c6b7d8a5aa","ios":"levelo://app?vid=2af0e3d7-93a5-426a-be5f-50c6b7d8a5aa"},"vehicle_type_id":"4","last_reported":1732748934,"current_range_meters":39200,"station_id":"ce4bgvh2rcd13ifvqcs0","pricing_plan_id":"cebpf4jnsgd1na2vs0mg"},{"bike_id":"24b2d706-14f2-4a05-a5fd-2a7358cbae81","system_id":"levelo_inurba_marseille","lat":43.24644,"lon":5.38887,"is_reserved":false,"is_disabled":true,"rental_uris":{"android":"levelo://app?vid=24b2d706-14f2-4a05-a5fd-2a7358cbae81","ios":"levelo://app?vid=24b2d706-14f2-4a05-a5fd-2a7358cbae81"},"vehicle_type_id":"4","last_reported":1732748934,"current_range_meters":1200,"station_id":"ce4bhg12rcd13ifvqf60","pricing_plan_id":"cebpf4jnsgd1na2vs0mg"},{"bike_id":"7dccca16-9c81-46ba-8ec7-8ac114550316","system_id":"levelo_inurba_marseille","lat":43.337444,"lon":5.374475,"is_reserved":false,"is_disabled":false,"rental_uris":{"android":"levelo://app?vid=7dccca16-9c81-46ba-8ec7-8ac114550316","ios":"levelo://app?vid=7dccca16-9c81-46ba-8ec7-8ac114550316"},"vehicle_type_id":"4","last_reported":1732748934,"current_range_meters":36000,"station_id":"","pricing_plan_id":"cebpf4jnsgd1na2vs0mg"},{"bike_id":"a73153f0-f2ed-4541-8fb4-2711159314ac","system_id":"levelo_inurba_marseille","lat":43.32484,"lon":5.3656,"is_reserved":false,"is_disabled":false,"rental_uris":{"android":"levelo://app?vid=a73153f0-f2ed-4541-8fb4-2711159314ac","ios":"levelo://app?vid=a73153f0-f2ed-4541-8fb4-2711159314ac"},"vehicle_type_id":"4","last_reported":1732748934,"current_range_meters":38800,"station_id":"ce4bhs12rcd13ifvqhvg","pricing_plan_id":"cebpf4jnsgd1na2vs0mg"},{"bike_id":"c5d2d69c-31d7-463b-9568-fc19bed23f6e","system_id":"levelo_inurba_marseille","lat":43.30582,"lon":5.39358,"is_reserved":false,"is_disabled":true,"rental_uris":{"android":"levelo://app?vid=c5d2d69c-31d7-463b-9568-fc19bed23f6e","ios":"levelo://app?vid=c5d2d69c-31d7-463b-9568-fc19bed23f6e"},"vehicle_type_id":"4","last_reported":1732748934,"current_range_meters":9600,"station_id":"ce4bh0p2rcd13ifvqd80","pricing_plan_id":"cebpf4jnsgd1na2vs0mg"},{"bike_id":"36d7a9a3-9f43-47bd-aba3-7bfbcac0602e","system_id":"levelo_inurba_marseille","lat":43.30143,"lon":5.37421,"is_reserved":false,"is_disabled":false,"rental_uris":{"android":"levelo://app?vid=36d7a9a3-9f43-47bd-aba3-7bfbcac0602e","ios":"levelo://app?vid=36d7a9a3-9f43-47bd-aba3-7bfbcac0602e"},"vehicle_type_id":"4","last_reported":1732748934,"current_range_meters":38400,"station_id":"ce4bgs92rcd13ifvqcc0","pricing_plan_id":"cebpf4jnsgd1na2vs0mg"},{"bike_id":"02bf5150-23e8-44f3-8c23-d15abd7cd391","system_id":"levelo_inurba_marseille","lat":43.29803,"lon":5.40411,"is_reserved":false,"is_disabled":false,"rental_uris":{"android":"levelo://app?vid=02bf5150-23e8-44f3-8c23-d15abd7cd391","ios":"levelo://app?vid=02bf5150-23e8-44f3-8c23-d15abd7cd391"},"vehicle_type_id":"4","last_reported":1732748934,"current_range_meters":38800,"station_id":"ce4bh112rcd13ifvqd90","pricing_plan_id":"cebpf4jnsgd1na2vs0mg"},{"bike_id":"f3986859-988f-4796-bb47-9a3a8a75f431","system_id":"levelo_inurba_marseille","lat":43.30596,"lon":5.37242,"is_reserved":false,"is_disabled":false,"rental_uris":{"android":"levelo://app?vid=f3986859-988f-4796-bb47-9a3a8a75f431","ios":"levelo://app?vid=f3986859-988f-4796-bb47-9a3a8a75f431"},"vehicle_type_id":"4","last_reported":1732748934,"current_range_meters":14000,"station_id":"ce4bgqh2rcd13ifvqc4g","pricing_plan_id":"cebpf4jnsgd1na2vs0mg"},{"bike_id":"95c39abd-631b-4674-8877-bb71fdbca347","system_id":"levelo_inurba_marseille","lat":43.29618,"lon":5.37698,"is_reserved":false,"is_disabled":true,"rental_uris":{"android":"levelo://app?vid=95c39abd-631b-4674-8877-bb71fdbca347","ios":"levelo://app?vid=95c39abd-631b-4674-8877-bb71fdbca347"},"vehicle_type_id":"4","last_reported":1732748934,"current_range_meters":11200,"station_id":"ce4bgi92rcd13ifvqb90","pricing_plan_id":"cebpf4jnsgd1na2vs0mg"},{"bike_id":"7b45e0d0-86a8-47b5-8420-74a05761af04","system_id":"levelo_inurba_marseille","lat":43.27922,"lon":5.39577,"is_reserved":false,"is_disabled":false,"rental_uris":{"android":"levelo://app?vid=7b45e0d0-86a8-47b5-8420-74a05761af04","ios":"levelo://app?vid=7b45e0d0-86a8-47b5-8420-74a05761af04"},"vehicle_type_id":"4","last_reported":1732748934,"current_range_meters":39200,"station_id":"ce4bhf92rcd13ifvqf40","pricing_plan_id":"cebpf4jnsgd1na2vs0mg"},{"bike_id":"a3ea31c2-17e1-4896-a19a-fc67d1b87354","system_id":"levelo_inurba_marseille","lat":43.29102,"lon":5.38152,"is_reserved":false,"is_disabled":false,"rental_uris":{"android":"levelo://app?vid=a3ea31c2-17e1-4896-a19a-fc67d1b87354","ios":"levelo://app?vid=a3ea31c2-17e1-4896-a19a-fc67d1b87354"},"vehicle_type_id":"4","last_reported":1732748934,"current_range_meters":26800,"station_id":"ce4bh512rcd13ifvqe2g","pricing_plan_id":"cebpf4jnsgd1na2vs0mg"},{"bike_id":"b8367a4f-14f4-4f79-afc1-a1554508274a","system_id":"levelo_inurba_marseille","lat":43.31359,"lon":5.38501,"is_reserved":false,"is_disabled":false,"rental_uris":{"android":"levelo://app?vid=b8367a4f-14f4-4f79-afc1-a1554508274a","ios":"levelo://app?vid=b8367a4f-14f4-4f79-afc1-a1554508274a"},"vehicle_type_id":"4","last_reported":1732748934,"current_range_meters":27600,"station_id":"ce4bgt92rcd13ifvqcf0","pricing_plan_id":"cebpf4jnsgd1na2vs0mg"},{"bike_id":"8429aac6-e205-4db7-b830-738d1a402a04","system_id":"levelo_inurba_marseille","lat":43.31508,"lon":5.37315,"is_reserved":false,"is_disabled":false,"rental_uris":{"android":"levelo://app?vid=8429aac6-e205-4db7-b830-738d1a402a04","ios":"levelo://app?vid=8429aac6-e205-4db7-b830-738d1a402a04"},"vehicle_type_id":"4","last_reported":1732748934,"current_range_meters":16800,"station_id":"","pricing_plan_id":"cebpf4jnsgd1na2vs0mg"},{"bike_id":"1dee5398-ece1-4217-b5b9-984f22c2ff59","system_id":"levelo_inurba_marseille","lat":43.29254,"lon":5.38441,"is_reserved":false,"is_disabled":true,"rental_uris":{"android":"levelo://app?vid=1dee5398-ece1-4217-b5b9-984f22c2ff59","ios":"levelo://app?vid=1dee5398-ece1-4217-b5b9-984f22c2ff59"},"vehicle_type_id":"4","last_reported":1732748934,"current_range_meters":0,"station_id":"ce4bh692rcd13ifvqea0","pricing_plan_id":"cebpf4jnsgd1na2vs0mg"},{"bike_id":"06282a1e-693c-4687-b5aa-64885f185c77","system_id":"levelo_inurba_marseille","lat":43.28425,"lon":5.39186,"is_reserved":false,"is_disabled":false,"rental_uris":{"android":"levelo://app?vid=06282a1e-693c-4687-b5aa-64885f185c77","ios":"levelo://app?vid=06282a1e-693c-4687-b5aa-64885f185c77"},"vehicle_type_id":"4","last_reported":1732748934,"current_range_meters":9600,"station_id":"ce4bhoh2rcd13ifvqh5g","pricing_plan_id":"cebpf4jnsgd1na2vs0mg"},{"bike_id":"5bcc111d-8eee-4041-a0c5-f39b3c6f126d","system_id":"levelo_inurba_marseille","lat":43.29703,"lon":5.36622,"is_reserved":false,"is_disabled":false,"rental_uris":{"android":"levelo://app?vid=5bcc111d-8eee-4041-a0c5-f39b3c6f126d","ios":"levelo://app?vid=5bcc111d-8eee-4041-a0c5-f39b3c6f126d"},"vehicle_type_id":"4","last_reported":1732748934,"current_range_meters":18000,"station_id":"ce4bgn12rcd13ifvqbt0","pricing_plan_id":"cebpf4jnsgd1na2vs0mg"},{"bike_id":"7d4957c3-1f88-4df8-a0af-afc2474213f2","system_id":"levelo_inurba_marseille","lat":43.28723,"lon":5.36093,"is_reserved":false,"is_disabled":false,"rental_uris":{"android":"levelo://app?vid=7d4957c3-1f88-4df8-a0af-afc2474213f2","ios":"levelo://app?vid=7d4957c3-1f88-4df8-a0af-afc2474213f2"},"vehicle_type_id":"4","last_reported":1732748934,"current_range_meters":24800,"station_id":"cki0cbj6b192h4jlfktg","pricing_plan_id":"cebpf4jnsgd1na2vs0mg"},{"bike_id":"ae27d36e-a736-4bd0-9e1e-8d7ee12e2e51","system_id":"levelo_inurba_marseille","lat":43.29607,"lon":5.37721,"is_reserved":false,"is_disabled":true,"rental_uris":{"android":"levelo://app?vid=ae27d36e-a736-4bd0-9e1e-8d7ee12e2e51","ios":"levelo://app?vid=ae27d36e-a736-4bd0-9e1e-8d7ee12e2e51"},"vehicle_type_id":"4","last_reported":1732748934,"current_range_meters":0,"station_id":"ce4bgi92rcd13ifvqb90","pricing_plan_id":"cebpf4jnsgd1na2vs0mg"},{"bike_id":"6c66f87d-50b0-4234-962a-03ae43b76c15","system_id":"levelo_inurba_marseille","lat":43.28272,"lon":5.3506,"is_reserved":false,"is_disabled":false,"rental_uris":{"android":"levelo://app?vid=6c66f87d-50b0-4234-962a-03ae43b76c15","ios":"levelo://app?vid=6c66f87d-50b0-4234-962a-03ae43b76c15"},"vehicle_type_id":"4","last_reported":1732748934,"current_range_meters":18000,"station_id":"ce4bhbp2rcd13ifvqerg","pricing_plan_id":"cebpf4jnsgd1na2vs0mg"},{"bike_id":"6c6a93bf-e171-448f-8ea9-1241abd089a1","system_id":"levelo_inurba_marseille","lat":43.27815,"lon":5.40704,"is_reserved":false,"is_disabled":false,"rental_uris":{"android":"levelo://app?vid=6c6a93bf-e171-448f-8ea9-1241abd089a1","ios":"levelo://app?vid=6c6a93bf-e171-448f-8ea9-1241abd089a1"},"vehicle_type_id":"4","last_reported":1732748934,"current_range_meters":38000,"station_id":"ce4bhnh2rcd13ifvqgtg","pricing_plan_id":"cebpf4jnsgd1na2vs0mg"},{"bike_id":"9cb6c74b-b2fa-4509-948e-c5b932aa2dcd","system_id":"levelo_inurba_marseille","lat":43.31759,"lon":5.3901,"is_reserved":false,"is_disabled":false,"rental_uris":{"android":"levelo://app?vid=9cb6c74b-b2fa-4509-948e-c5b932aa2dcd","ios":"levelo://app?vid=9cb6c74b-b2fa-4509-948e-c5b932aa2dcd"},"vehicle_type_id":"4","last_reported":1732748934,"current_range_meters":39200,"station_id":"ce4bhqp2rcd13ifvqhng","pricing_plan_id":"cebpf4jnsgd1na2vs0mg"},{"bike_id":"7048d5cb-b6ff-4c2c-8096-2b26cd238e76","system_id":"levelo_inurba_marseille","lat":43.30792,"lon":5.38156,"is_reserved":false,"is_disabled":false,"rental_uris":{"android":"levelo://app?vid=7048d5cb-b6ff-4c2c-8096-2b26cd238e76","ios":"levelo://app?vid=7048d5cb-b6ff-4c2c-8096-2b26cd238e76"},"vehicle_type_id":"4","last_reported":1732748934,"current_range_meters":23200,"station_id":"ce4bgt12rcd13ifvqce0","pricing_plan_id":"cebpf4jnsgd1na2vs0mg"},{"bike_id":"39b04c21-6a6a-40a7-a489-741c2b67c9bd","system_id":"levelo_inurba_marseille","lat":43.33727,"lon":5.39186,"is_reserved":false,"is_disabled":false,"rental_uris":{"android":"levelo://app?vid=39b04c21-6a6a-40a7-a489-741c2b67c9bd","ios":"levelo://app?vid=39b04c21-6a6a-40a7-a489-741c2b67c9bd"},"vehicle_type_id":"4","last_reported":1732748934,"current_range_meters":8400,"station_id":"ce4bhr92rcd13ifvqhsg","pricing_plan_id":"cebpf4jnsgd1na2vs0mg"},{"bike_id":"573f1a32-0100-4632-81f0-9f78c4587cd4","system_id":"levelo_inurba_marseille","lat":43.28402,"lon":5.37525,"is_reserved":false,"is_disabled":true,"rental_uris":{"android":"levelo://app?vid=573f1a32-0100-4632-81f0-9f78c4587cd4","ios":"levelo://app?vid=573f1a32-0100-4632-81f0-9f78c4587cd4"},"vehicle_type_id":"4","last_reported":1732748934,"current_range_meters":0,"station_id":"ce4bh412rcd13ifvqds0","pricing_plan_id":"cebpf4jnsgd1na2vs0mg"},{"bike_id":"792fdbf5-23f6-43fa-bef0-cbc93d0216d2","system_id":"levelo_inurba_marseille","lat":43.27813,"lon":5.40706,"is_reserved":false,"is_disabled":false,"rental_uris":{"android":"levelo://app?vid=792fdbf5-23f6-43fa-bef0-cbc93d0216d2","ios":"levelo://app?vid=792fdbf5-23f6-43fa-bef0-cbc93d0216d2"},"vehicle_type_id":"4","last_reported":1732748934,"current_range_meters":40000,"station_id":"ce4bhnh2rcd13ifvqgtg","pricing_plan_id":"cebpf4jnsgd1na2vs0mg"},{"bike_id":"59310c24-aada-47db-9c55-db87d9c8f60e","system_id":"levelo_inurba_marseille","lat":43.2898,"lon":5.37849,"is_reserved":false,"is_disabled":true,"rental_uris":{"android":"levelo://app?vid=59310c24-aada-47db-9c55-db87d9c8f60e","ios":"levelo://app?vid=59310c24-aada-47db-9c55-db87d9c8f60e"},"vehicle_type_id":"4","last_reported":1732748934,"current_range_meters":6400,"station_id":"ce4bh9p2rcd13ifvqed0","pricing_plan_id":"cebpf4jnsgd1na2vs0mg"},{"bike_id":"6ce9857f-154a-4827-8f47-31036535fe73","system_id":"levelo_inurba_marseille","lat":43.31886,"lon":5.40728,"is_reserved":false,"is_disabled":false,"rental_uris":{"android":"levelo://app?vid=6ce9857f-154a-4827-8f47-31036535fe73","ios":"levelo://app?vid=6ce9857f-154a-4827-8f47-31036535fe73"},"vehicle_type_id":"4","last_reported":1732748934,"current_range_meters":38000,"station_id":"ce4bhq12rcd13ifvqhig","pricing_plan_id":"cebpf4jnsgd1na2vs0mg"},{"bike_id":"d00201b4-3045-42a6-baab-97b71694fceb","system_id":"levelo_inurba_marseille","lat":43.24084,"lon":5.37742,"is_reserved":false,"is_disabled":true,"rental_uris":{"android":"levelo://app?vid=d00201b4-3045-42a6-baab-97b71694fceb","ios":"levelo://app?vid=d00201b4-3045-42a6-baab-97b71694fceb"},"vehicle_type_id":"4","last_reported":1732748934,"current_range_meters":38800,"station_id":"ce4bhnp2rcd13ifvqgvg","pricing_plan_id":"cebpf4jnsgd1na2vs0mg"},{"bike_id":"b166cce8-03ff-4917-bfde-37fd8a6c4dd8","system_id":"levelo_inurba_marseille","lat":43.3089,"lon":5.39648,"is_reserved":false,"is_disabled":false,"rental_uris":{"android":"levelo://app?vid=b166cce8-03ff-4917-bfde-37fd8a6c4dd8","ios":"levelo://app?vid=b166cce8-03ff-4917-bfde-37fd8a6c4dd8"},"vehicle_type_id":"4","last_reported":1732748934,"current_range_meters":34800,"station_id":"ce4bh012rcd13ifvqcv0","pricing_plan_id":"cebpf4jnsgd1na2vs0mg"},{"bike_id":"6b4b8fe7-5b4f-485b-93bd-dbec0a3ccc42","system_id":"levelo_inurba_marseille","lat":43.29002,"lon":5.35615,"is_reserved":false,"is_disabled":true,"rental_uris":{"android":"levelo://app?vid=6b4b8fe7-5b4f-485b-93bd-dbec0a3ccc42","ios":"levelo://app?vid=6b4b8fe7-5b4f-485b-93bd-dbec0a3ccc42"},"vehicle_type_id":"4","last_reported":1732748934,"current_range_meters":0,"station_id":"ce4bhb92rcd13ifvqen0","pricing_plan_id":"cebpf4jnsgd1na2vs0mg"},{"bike_id":"1ffdfe32-6b6e-4583-8ece-b053f89949fa","system_id":"levelo_inurba_marseille","lat":43.30257,"lon":5.40085,"is_reserved":false,"is_disabled":false,"rental_uris":{"android":"levelo://app?vid=1ffdfe32-6b6e-4583-8ece-b053f89949fa","ios":"levelo://app?vid=1ffdfe32-6b6e-4583-8ece-b053f89949fa"},"vehicle_type_id":"4","last_reported":1732748934,"current_range_meters":8000,"station_id":"ce4bgvh2rcd13ifvqcs0","pricing_plan_id":"cebpf4jnsgd1na2vs0mg"},{"bike_id":"95c2af00-0797-44a0-b21a-dc89c659b75f","system_id":"levelo_inurba_marseille","lat":43.30796,"lon":5.43534,"is_reserved":false,"is_disabled":false,"rental_uris":{"android":"levelo://app?vid=95c2af00-0797-44a0-b21a-dc89c659b75f","ios":"levelo://app?vid=95c2af00-0797-44a0-b21a-dc89c659b75f"},"vehicle_type_id":"4","last_reported":1732748934,"current_range_meters":28800,"station_id":"ce4bhph2rcd13ifvqheg","pricing_plan_id":"cebpf4jnsgd1na2vs0mg"},{"bike_id":"678594ee-cb74-4024-a531-064bbe657df2","system_id":"levelo_inurba_marseille","lat":43.30591,"lon":5.39355,"is_reserved":false,"is_disabled":false,"rental_uris":{"android":"levelo://app?vid=678594ee-cb74-4024-a531-064bbe657df2","ios":"levelo://app?vid=678594ee-cb74-4024-a531-064bbe657df2"},"vehicle_type_id":"4","last_reported":1732748934,"current_range_meters":9200,"station_id":"ce4bh0p2rcd13ifvqd80","pricing_plan_id":"cebpf4jnsgd1na2vs0mg"},{"bike_id":"220ce8bf-6055-439a-932f-70112f24c52b","system_id":"levelo_inurba_marseille","lat":43.32105,"lon":5.3678,"is_reserved":false,"is_disabled":false,"rental_uris":{"android":"levelo://app?vid=220ce8bf-6055-439a-932f-70112f24c52b","ios":"levelo://app?vid=220ce8bf-6055-439a-932f-70112f24c52b"},"vehicle_type_id":"4","last_reported":1732748934,"current_range_meters":13600,"station_id":"ce4bhrh2rcd13ifvqhug","pricing_plan_id":"cebpf4jnsgd1na2vs0mg"},{"bike_id":"bef0b090-d41a-4bec-bcc6-3159ccf77002","system_id":"levelo_inurba_marseille","lat":43.27809,"lon":5.40708,"is_reserved":false,"is_disabled":false,"rental_uris":{"android":"levelo://app?vid=bef0b090-d41a-4bec-bcc6-3159ccf77002","ios":"levelo://app?vid=bef0b090-d41a-4bec-bcc6-3159ccf77002"},"vehicle_type_id":"4","last_reported":1732748934,"current_range_meters":38800,"station_id":"ce4bhnh2rcd13ifvqgtg","pricing_plan_id":"cebpf4jnsgd1na2vs0mg"},{"bike_id":"24404b8c-92d5-4ffc-a704-f49736075a77","system_id":"levelo_inurba_marseille","lat":43.32365,"lon":5.38879,"is_reserved":false,"is_disabled":false,"rental_uris":{"android":"levelo://app?vid=24404b8c-92d5-4ffc-a704-f49736075a77","ios":"levelo://app?vid=24404b8c-92d5-4ffc-a704-f49736075a77"},"vehicle_type_id":"4","last_reported":1732748934,"current_range_meters":22800,"station_id":"ce4bhqp2rcd13ifvqhog","pricing_plan_id":"cebpf4jnsgd1na2vs0mg"},{"bike_id":"db508db4-5989-4d56-8ff3-52352e57ed7c","system_id":"levelo_inurba_marseille","lat":43.31893,"lon":5.40737,"is_reserved":false,"is_disabled":false,"rental_uris":{"android":"levelo://app?vid=db508db4-5989-4d56-8ff3-52352e57ed7c","ios":"levelo://app?vid=db508db4-5989-4d56-8ff3-52352e57ed7c"},"vehicle_type_id":"4","last_reported":1732748934,"current_range_meters":35200,"station_id":"ce4bhq12rcd13ifvqhig","pricing_plan_id":"cebpf4jnsgd1na2vs0mg"},{"bike_id":"5e2d97fb-30eb-47f9-9fb3-b04ea853910f","system_id":"levelo_inurba_marseille","lat":43.30783,"lon":5.3766,"is_reserved":false,"is_disabled":false,"rental_uris":{"android":"levelo://app?vid=5e2d97fb-30eb-47f9-9fb3-b04ea853910f","ios":"levelo://app?vid=5e2d97fb-30eb-47f9-9fb3-b04ea853910f"},"vehicle_type_id":"4","last_reported":1732748934,"current_range_meters":34800,"station_id":"ce4bgv92rcd13ifvqcq0","pricing_plan_id":"cebpf4jnsgd1na2vs0mg"},{"bike_id":"05e3db42-2799-49d3-a955-1cf629a59c9a","system_id":"levelo_inurba_marseille","lat":43.30431,"lon":5.38889,"is_reserved":false,"is_disabled":false,"rental_uris":{"android":"levelo://app?vid=05e3db42-2799-49d3-a955-1cf629a59c9a","ios":"levelo://app?vid=05e3db42-2799-49d3-a955-1cf629a59c9a"},"vehicle_type_id":"4","last_reported":1732748934,"current_range_meters":26000,"station_id":"ce4bgk12rcd13ifvqbi0","pricing_plan_id":"cebpf4jnsgd1na2vs0mg"},{"bike_id":"3bbd10f8-6767-4cc2-b063-9fb958654ac5","system_id":"levelo_inurba_marseille","lat":43.31532,"lon":5.38043,"is_reserved":false,"is_disabled":false,"rental_uris":{"android":"levelo://app?vid=3bbd10f8-6767-4cc2-b063-9fb958654ac5","ios":"levelo://app?vid=3bbd10f8-6767-4cc2-b063-9fb958654ac5"},"vehicle_type_id":"4","last_reported":1732748934,"current_range_meters":38800,"station_id":"ce4bhsp2rcd13ifvqi50","pricing_plan_id":"cebpf4jnsgd1na2vs0mg"},{"bike_id":"befd70af-0170-4a22-9cf7-bc67e949484d","system_id":"levelo_inurba_marseille","lat":43.25829,"lon":5.39438,"is_reserved":false,"is_disabled":false,"rental_uris":{"android":"levelo://app?vid=befd70af-0170-4a22-9cf7-bc67e949484d","ios":"levelo://app?vid=befd70af-0170-4a22-9cf7-bc67e949484d"},"vehicle_type_id":"4","last_reported":1732748934,"current_range_meters":6000,"station_id":"ce4bhip2rcd13ifvqft0","pricing_plan_id":"cebpf4jnsgd1na2vs0mg"},{"bike_id":"d4f2b80e-deb0-4225-9b05-088e4ed4dd4b","system_id":"levelo_inurba_marseille","lat":43.3031,"lon":5.36916,"is_reserved":false,"is_disabled":true,"rental_uris":{"android":"levelo://app?vid=d4f2b80e-deb0-4225-9b05-088e4ed4dd4b","ios":"levelo://app?vid=d4f2b80e-deb0-4225-9b05-088e4ed4dd4b"},"vehicle_type_id":"4","last_reported":1732748934,"current_range_meters":0,"station_id":"ce4bgqh2rcd13ifvqc5g","pricing_plan_id":"cebpf4jnsgd1na2vs0mg"},{"bike_id":"460f7772-317b-4685-8d1c-9cbb0be70bad","system_id":"levelo_inurba_marseille","lat":43.29276,"lon":5.40113,"is_reserved":false,"is_disabled":false,"rental_uris":{"android":"levelo://app?vid=460f7772-317b-4685-8d1c-9cbb0be70bad","ios":"levelo://app?vid=460f7772-317b-4685-8d1c-9cbb0be70bad"},"vehicle_type_id":"4","last_reported":1732748934,"current_range_meters":25200,"station_id":"ce4bh312rcd13ifvqdk0","pricing_plan_id":"cebpf4jnsgd1na2vs0mg"},{"bike_id":"394222ca-330d-4796-8c52-f534acf24f05","system_id":"levelo_inurba_marseille","lat":43.27669,"lon":5.38916,"is_reserved":false,"is_disabled":true,"rental_uris":{"android":"levelo://app?vid=394222ca-330d-4796-8c52-f534acf24f05","ios":"levelo://app?vid=394222ca-330d-4796-8c52-f534acf24f05"},"vehicle_type_id":"4","last_reported":1732748934,"current_range_meters":38800,"station_id":"ce4bhi12rcd13ifvqfo0","pricing_plan_id":"cebpf4jnsgd1na2vs0mg"},{"bike_id":"a671fafe-69a4-4499-a0ee-4ce18de027c2","system_id":"levelo_inurba_marseille","lat":43.29799,"lon":5.40406,"is_reserved":false,"is_disabled":false,"rental_uris":{"android":"levelo://app?vid=a671fafe-69a4-4499-a0ee-4ce18de027c2","ios":"levelo://app?vid=a671fafe-69a4-4499-a0ee-4ce18de027c2"},"vehicle_type_id":"4","last_reported":1732748934,"current_range_meters":38400,"station_id":"ce4bh112rcd13ifvqd90","pricing_plan_id":"cebpf4jnsgd1na2vs0mg"},{"bike_id":"1cd78e3c-eca2-430e-a00b-3450b52eb373","system_id":"levelo_inurba_marseille","lat":43.22928,"lon":5.3538,"is_reserved":false,"is_disabled":false,"rental_uris":{"android":"levelo://app?vid=1cd78e3c-eca2-430e-a00b-3450b52eb373","ios":"levelo://app?vid=1cd78e3c-eca2-430e-a00b-3450b52eb373"},"vehicle_type_id":"4","last_reported":1732748934,"current_range_meters":36400,"station_id":"cpo3532slgdg3j2ikp40","pricing_plan_id":"cebpf4jnsgd1na2vs0mg"},{"bike_id":"69a14252-41a4-4024-b537-a99e3ee84807","system_id":"levelo_inurba_marseille","lat":43.28103,"lon":5.37839,"is_reserved":false,"is_disabled":false,"rental_uris":{"android":"levelo://app?vid=69a14252-41a4-4024-b537-a99e3ee84807","ios":"levelo://app?vid=69a14252-41a4-4024-b537-a99e3ee84807"},"vehicle_type_id":"4","last_reported":1732748934,"current_range_meters":33200,"station_id":"ce4bha12rcd13ifvqee0","pricing_plan_id":"cebpf4jnsgd1na2vs0mg"},{"bike_id":"681460a9-806c-471b-88e8-ce403c82f10b","system_id":"levelo_inurba_marseille","lat":43.30672,"lon":5.36836,"is_reserved":false,"is_disabled":true,"rental_uris":{"android":"levelo://app?vid=681460a9-806c-471b-88e8-ce403c82f10b","ios":"levelo://app?vid=681460a9-806c-471b-88e8-ce403c82f10b"},"vehicle_type_id":"4","last_reported":1732748934,"current_range_meters":0,"station_id":"","pricing_plan_id":"cebpf4jnsgd1na2vs0mg"},{"bike_id":"9a1bbd12-c6a3-41be-a3c7-02e6e258a308","system_id":"levelo_inurba_marseille","lat":43.23187,"lon":5.39987,"is_reserved":false,"is_disabled":false,"rental_uris":{"android":"levelo://app?vid=9a1bbd12-c6a3-41be-a3c7-02e6e258a308","ios":"levelo://app?vid=9a1bbd12-c6a3-41be-a3c7-02e6e258a308"},"vehicle_type_id":"4","last_reported":1732748934,"current_range_meters":20400,"station_id":"ce4bhn12rcd13ifvqgqg","pricing_plan_id":"cebpf4jnsgd1na2vs0mg"},{"bike_id":"0f426cbd-962f-46b7-bb49-d5777658f32a","system_id":"levelo_inurba_marseille","lat":43.2606,"lon":5.394,"is_reserved":false,"is_disabled":false,"rental_uris":{"android":"levelo://app?vid=0f426cbd-962f-46b7-bb49-d5777658f32a","ios":"levelo://app?vid=0f426cbd-962f-46b7-bb49-d5777658f32a"},"vehicle_type_id":"4","last_reported":1732748934,"current_range_meters":22000,"station_id":"ce4bhh92rcd13ifvqfj0","pricing_plan_id":"cebpf4jnsgd1na2vs0mg"},{"bike_id":"487174b5-2263-45a7-b6e3-a24851c0d332","system_id":"levelo_inurba_marseille","lat":43.29789,"lon":5.39359,"is_reserved":false,"is_disabled":false,"rental_uris":{"android":"levelo://app?vid=487174b5-2263-45a7-b6e3-a24851c0d332","ios":"levelo://app?vid=487174b5-2263-45a7-b6e3-a24851c0d332"},"vehicle_type_id":"4","last_reported":1732748934,"current_range_meters":25600,"station_id":"chh1huq6cuj3fo74tm60","pricing_plan_id":"cebpf4jnsgd1na2vs0mg"},{"bike_id":"fcd0433b-e713-4a9c-b314-3959b3c118ed","system_id":"levelo_inurba_marseille","lat":43.30882,"lon":5.3721,"is_reserved":false,"is_disabled":false,"rental_uris":{"android":"levelo://app?vid=fcd0433b-e713-4a9c-b314-3959b3c118ed","ios":"levelo://app?vid=fcd0433b-e713-4a9c-b314-3959b3c118ed"},"vehicle_type_id":"4","last_reported":1732748934,"current_range_meters":39200,"station_id":"ce4bguh2rcd13ifvqckg","pricing_plan_id":"cebpf4jnsgd1na2vs0mg"},{"bike_id":"146859be-050c-4fa7-9473-10d8176aeefd","system_id":"levelo_inurba_marseille","lat":43.25935,"lon":5.40906,"is_reserved":false,"is_disabled":false,"rental_uris":{"android":"levelo://app?vid=146859be-050c-4fa7-9473-10d8176aeefd","ios":"levelo://app?vid=146859be-050c-4fa7-9473-10d8176aeefd"},"vehicle_type_id":"4","last_reported":1732748934,"current_range_meters":29600,"station_id":"ce4bhm92rcd13ifvqglg","pricing_plan_id":"cebpf4jnsgd1na2vs0mg"},{"bike_id":"c4f678e0-794d-4bac-9789-3f1d47830923","system_id":"levelo_inurba_marseille","lat":43.30305,"lon":5.39213,"is_reserved":false,"is_disabled":false,"rental_uris":{"android":"levelo://app?vid=c4f678e0-794d-4bac-9789-3f1d47830923","ios":"levelo://app?vid=c4f678e0-794d-4bac-9789-3f1d47830923"},"vehicle_type_id":"4","last_reported":1732748934,"current_range_meters":37600,"station_id":"ce4bgkh2rcd13ifvqbk0","pricing_plan_id":"cebpf4jnsgd1na2vs0mg"},{"bike_id":"ef7faf07-a670-4e15-b564-bded5c7ce834","system_id":"levelo_inurba_marseille","lat":43.32363,"lon":5.36766,"is_reserved":false,"is_disabled":false,"rental_uris":{"android":"levelo://app?vid=ef7faf07-a670-4e15-b564-bded5c7ce834","ios":"levelo://app?vid=ef7faf07-a670-4e15-b564-bded5c7ce834"},"vehicle_type_id":"4","last_reported":1732748934,"current_range_meters":38800,"station_id":"ce4bhsh2rcd13ifvqi2g","pricing_plan_id":"cebpf4jnsgd1na2vs0mg"},{"bike_id":"a4a44eea-7afa-4c63-a662-beba7965732a","system_id":"levelo_inurba_marseille","lat":43.29628,"lon":5.37153,"is_reserved":false,"is_disabled":true,"rental_uris":{"android":"levelo://app?vid=a4a44eea-7afa-4c63-a662-beba7965732a","ios":"levelo://app?vid=a4a44eea-7afa-4c63-a662-beba7965732a"},"vehicle_type_id":"4","last_reported":1732748934,"current_range_meters":2800,"station_id":"ce4bgnh2rcd13ifvqc0g","pricing_plan_id":"cebpf4jnsgd1na2vs0mg"},{"bike_id":"a47ad460-746e-4187-8fe2-fc0127a16091","system_id":"levelo_inurba_marseille","lat":43.30599,"lon":5.37219,"is_reserved":false,"is_disabled":false,"rental_uris":{"android":"levelo://app?vid=a47ad460-746e-4187-8fe2-fc0127a16091","ios":"levelo://app?vid=a47ad460-746e-4187-8fe2-fc0127a16091"},"vehicle_type_id":"4","last_reported":1732748934,"current_range_meters":13600,"station_id":"ce4bgqh2rcd13ifvqc4g","pricing_plan_id":"cebpf4jnsgd1na2vs0mg"},{"bike_id":"7acf64e6-102c-4b24-bfca-4cd2f2ab9f83","system_id":"levelo_inurba_marseille","lat":43.30542,"lon":5.36541,"is_reserved":false,"is_disabled":true,"rental_uris":{"android":"levelo://app?vid=7acf64e6-102c-4b24-bfca-4cd2f2ab9f83","ios":"levelo://app?vid=7acf64e6-102c-4b24-bfca-4cd2f2ab9f83"},"vehicle_type_id":"4","last_reported":1732748934,"current_range_meters":0,"station_id":"ce4bgs12rcd13ifvqcag","pricing_plan_id":"cebpf4jnsgd1na2vs0mg"},{"bike_id":"2e95a691-d7d8-426b-8dba-47b6b56c6a41","system_id":"levelo_inurba_marseille","lat":43.28154,"lon":5.42641,"is_reserved":false,"is_disabled":true,"rental_uris":{"android":"levelo://app?vid=2e95a691-d7d8-426b-8dba-47b6b56c6a41","ios":"levelo://app?vid=2e95a691-d7d8-426b-8dba-47b6b56c6a41"},"vehicle_type_id":"4","last_reported":1732748934,"current_range_meters":0,"station_id":"ce4bhnh2rcd13ifvqgug","pricing_plan_id":"cebpf4jnsgd1na2vs0mg"},{"bike_id":"aa262170-281b-4556-817d-784dc19f9c9b","system_id":"levelo_inurba_marseille","lat":43.32501,"lon":5.36566,"is_reserved":false,"is_disabled":false,"rental_uris":{"android":"levelo://app?vid=aa262170-281b-4556-817d-784dc19f9c9b","ios":"levelo://app?vid=aa262170-281b-4556-817d-784dc19f9c9b"},"vehicle_type_id":"4","last_reported":1732748934,"current_range_meters":40000,"station_id":"ce4bhs12rcd13ifvqhvg","pricing_plan_id":"cebpf4jnsgd1na2vs0mg"},{"bike_id":"560cab59-408d-4efc-9f21-18478b0efad3","system_id":"levelo_inurba_marseille","lat":43.32,"lon":5.38153,"is_reserved":false,"is_disabled":false,"rental_uris":{"android":"levelo://app?vid=560cab59-408d-4efc-9f21-18478b0efad3","ios":"levelo://app?vid=560cab59-408d-4efc-9f21-18478b0efad3"},"vehicle_type_id":"4","last_reported":1732748934,"current_range_meters":16000,"station_id":"ce4bhr12rcd13ifvqhpg","pricing_plan_id":"cebpf4jnsgd1na2vs0mg"},{"bike_id":"dc203ad5-9db6-4f06-8535-a03ca2ae706d","system_id":"levelo_inurba_marseille","lat":43.30889,"lon":5.39642,"is_reserved":false,"is_disabled":false,"rental_uris":{"android":"levelo://app?vid=dc203ad5-9db6-4f06-8535-a03ca2ae706d","ios":"levelo://app?vid=dc203ad5-9db6-4f06-8535-a03ca2ae706d"},"vehicle_type_id":"4","last_reported":1732748934,"current_range_meters":37600,"station_id":"ce4bh012rcd13ifvqcv0","pricing_plan_id":"cebpf4jnsgd1na2vs0mg"},{"bike_id":"48a97e07-bd1e-4284-a0a9-41ce086ce527","system_id":"levelo_inurba_marseille","lat":43.23183,"lon":5.39985,"is_reserved":false,"is_disabled":false,"rental_uris":{"android":"levelo://app?vid=48a97e07-bd1e-4284-a0a9-41ce086ce527","ios":"levelo://app?vid=48a97e07-bd1e-4284-a0a9-41ce086ce527"},"vehicle_type_id":"4","last_reported":1732748934,"current_range_meters":40000,"station_id":"ce4bhn12rcd13ifvqgqg","pricing_plan_id":"cebpf4jnsgd1na2vs0mg"},{"bike_id":"006ceb2c-d7f2-46e5-9f96-4d6d7ec2fe19","system_id":"levelo_inurba_marseille","lat":43.306,"lon":5.37213,"is_reserved":false,"is_disabled":false,"rental_uris":{"android":"levelo://app?vid=006ceb2c-d7f2-46e5-9f96-4d6d7ec2fe19","ios":"levelo://app?vid=006ceb2c-d7f2-46e5-9f96-4d6d7ec2fe19"},"vehicle_type_id":"4","last_reported":1732748934,"current_range_meters":33600,"station_id":"ce4bgqh2rcd13ifvqc4g","pricing_plan_id":"cebpf4jnsgd1na2vs0mg"},{"bike_id":"5e3b0a85-88ba-4899-8090-39bcc8e21d38","system_id":"levelo_inurba_marseille","lat":43.25828,"lon":5.39436,"is_reserved":false,"is_disabled":false,"rental_uris":{"android":"levelo://app?vid=5e3b0a85-88ba-4899-8090-39bcc8e21d38","ios":"levelo://app?vid=5e3b0a85-88ba-4899-8090-39bcc8e21d38"},"vehicle_type_id":"4","last_reported":1732748934,"current_range_meters":11600,"station_id":"ce4bhip2rcd13ifvqft0","pricing_plan_id":"cebpf4jnsgd1na2vs0mg"},{"bike_id":"b561f31a-791e-4786-96f8-2cd500c94695","system_id":"levelo_inurba_marseille","lat":43.31275,"lon":5.40166,"is_reserved":false,"is_disabled":false,"rental_uris":{"android":"levelo://app?vid=b561f31a-791e-4786-96f8-2cd500c94695","ios":"levelo://app?vid=b561f31a-791e-4786-96f8-2cd500c94695"},"vehicle_type_id":"4","last_reported":1732748934,"current_range_meters":37600,"station_id":"ce4bh092rcd13ifvqd30","pricing_plan_id":"cebpf4jnsgd1na2vs0mg"},{"bike_id":"858b65e1-94fc-4151-a71e-8b168cb19dcb","system_id":"levelo_inurba_marseille","lat":43.32249,"lon":5.39241,"is_reserved":false,"is_disabled":true,"rental_uris":{"android":"levelo://app?vid=858b65e1-94fc-4151-a71e-8b168cb19dcb","ios":"levelo://app?vid=858b65e1-94fc-4151-a71e-8b168cb19dcb"},"vehicle_type_id":"4","last_reported":1732748934,"current_range_meters":0,"station_id":"","pricing_plan_id":"cebpf4jnsgd1na2vs0mg"},{"bike_id":"01b93923-340e-49e1-bd86-d2463565502f","system_id":"levelo_inurba_marseille","lat":43.2931,"lon":5.38577,"is_reserved":false,"is_disabled":true,"rental_uris":{"android":"levelo://app?vid=01b93923-340e-49e1-bd86-d2463565502f","ios":"levelo://app?vid=01b93923-340e-49e1-bd86-d2463565502f"},"vehicle_type_id":"4","last_reported":1732748934,"current_range_meters":0,"station_id":"","pricing_plan_id":"cebpf4jnsgd1na2vs0mg"},{"bike_id":"e51b2acb-d883-446b-9ce9-347608453ece","system_id":"levelo_inurba_marseille","lat":43.22931,"lon":5.35377,"is_reserved":false,"is_disabled":false,"rental_uris":{"android":"levelo://app?vid=e51b2acb-d883-446b-9ce9-347608453ece","ios":"levelo://app?vid=e51b2acb-d883-446b-9ce9-347608453ece"},"vehicle_type_id":"4","last_reported":1732748934,"current_range_meters":35600,"station_id":"cpo3532slgdg3j2ikp40","pricing_plan_id":"cebpf4jnsgd1na2vs0mg"},{"bike_id":"844ec8e9-1291-4e83-a299-880eb52e8b86","system_id":"levelo_inurba_marseille","lat":43.2809,"lon":5.39686,"is_reserved":false,"is_disabled":false,"rental_uris":{"android":"levelo://app?vid=844ec8e9-1291-4e83-a299-880eb52e8b86","ios":"levelo://app?vid=844ec8e9-1291-4e83-a299-880eb52e8b86"},"vehicle_type_id":"4","last_reported":1732748934,"current_range_meters":14400,"station_id":"ce4bho12rcd13ifvqh2g","pricing_plan_id":"cebpf4jnsgd1na2vs0mg"},{"bike_id":"54d92e45-0c73-4cef-bfa3-0fc84870e3ef","system_id":"levelo_inurba_marseille","lat":43.25938,"lon":5.40917,"is_reserved":false,"is_disabled":false,"rental_uris":{"android":"levelo://app?vid=54d92e45-0c73-4cef-bfa3-0fc84870e3ef","ios":"levelo://app?vid=54d92e45-0c73-4cef-bfa3-0fc84870e3ef"},"vehicle_type_id":"4","last_reported":1732748934,"current_range_meters":16400,"station_id":"ce4bhm92rcd13ifvqglg","pricing_plan_id":"cebpf4jnsgd1na2vs0mg"},{"bike_id":"0c176c56-6108-4f25-9ca2-a2bb07a621e3","system_id":"levelo_inurba_marseille","lat":43.29255,"lon":5.40911,"is_reserved":false,"is_disabled":false,"rental_uris":{"android":"levelo://app?vid=0c176c56-6108-4f25-9ca2-a2bb07a621e3","ios":"levelo://app?vid=0c176c56-6108-4f25-9ca2-a2bb07a621e3"},"vehicle_type_id":"4","last_reported":1732748934,"current_range_meters":37600,"station_id":"ce4bh192rcd13ifvqdc0","pricing_plan_id":"cebpf4jnsgd1na2vs0mg"},{"bike_id":"3e44251d-70e2-4510-bbe8-9c2f8f78c087","system_id":"levelo_inurba_marseille","lat":43.28459,"lon":5.35887,"is_reserved":false,"is_disabled":false,"rental_uris":{"android":"levelo://app?vid=3e44251d-70e2-4510-bbe8-9c2f8f78c087","ios":"levelo://app?vid=3e44251d-70e2-4510-bbe8-9c2f8f78c087"},"vehicle_type_id":"4","last_reported":1732748934,"current_range_meters":28400,"station_id":"ce4bhah2rcd13ifvqei0","pricing_plan_id":"cebpf4jnsgd1na2vs0mg"},{"bike_id":"6a4001d6-d444-4013-81f0-795a143d0522","system_id":"levelo_inurba_marseille","lat":43.30148,"lon":5.38774,"is_reserved":false,"is_disabled":true,"rental_uris":{"android":"levelo://app?vid=6a4001d6-d444-4013-81f0-795a143d0522","ios":"levelo://app?vid=6a4001d6-d444-4013-81f0-795a143d0522"},"vehicle_type_id":"4","last_reported":1732748934,"current_range_meters":30800,"station_id":"ce4bghh2rcd13ifvqb60","pricing_plan_id":"cebpf4jnsgd1na2vs0mg"},{"bike_id":"d780dcb9-f59c-40f0-b143-449b09e9e802","system_id":"levelo_inurba_marseille","lat":43.30586,"lon":5.3722,"is_reserved":false,"is_disabled":false,"rental_uris":{"android":"levelo://app?vid=d780dcb9-f59c-40f0-b143-449b09e9e802","ios":"levelo://app?vid=d780dcb9-f59c-40f0-b143-449b09e9e802"},"vehicle_type_id":"4","last_reported":1732748934,"current_range_meters":39200,"station_id":"ce4bgqh2rcd13ifvqc4g","pricing_plan_id":"cebpf4jnsgd1na2vs0mg"},{"bike_id":"432e1d43-5d8a-4b04-a51e-e9a2066ccbb5","system_id":"levelo_inurba_marseille","lat":43.31332,"lon":5.39697,"is_reserved":false,"is_disabled":false,"rental_uris":{"android":"levelo://app?vid=432e1d43-5d8a-4b04-a51e-e9a2066ccbb5","ios":"levelo://app?vid=432e1d43-5d8a-4b04-a51e-e9a2066ccbb5"},"vehicle_type_id":"4","last_reported":1732748934,"current_range_meters":39200,"station_id":"ce4bgvp2rcd13ifvqcu0","pricing_plan_id":"cebpf4jnsgd1na2vs0mg"},{"bike_id":"a2db4d62-6b58-46e1-8f7f-2dceae750c0d","system_id":"levelo_inurba_marseille","lat":43.28078,"lon":5.39664,"is_reserved":false,"is_disabled":false,"rental_uris":{"android":"levelo://app?vid=a2db4d62-6b58-46e1-8f7f-2dceae750c0d","ios":"levelo://app?vid=a2db4d62-6b58-46e1-8f7f-2dceae750c0d"},"vehicle_type_id":"4","last_reported":1732748934,"current_range_meters":39200,"station_id":"ce4bho12rcd13ifvqh2g","pricing_plan_id":"cebpf4jnsgd1na2vs0mg"},{"bike_id":"f7f3756c-1ec7-4782-9c87-6273f87b6774","system_id":"levelo_inurba_marseille","lat":43.337444,"lon":5.374475,"is_reserved":false,"is_disabled":true,"rental_uris":{"android":"levelo://app?vid=f7f3756c-1ec7-4782-9c87-6273f87b6774","ios":"levelo://app?vid=f7f3756c-1ec7-4782-9c87-6273f87b6774"},"vehicle_type_id":"4","last_reported":1732748934,"current_range_meters":12800,"station_id":"","pricing_plan_id":"cebpf4jnsgd1na2vs0mg"},{"bike_id":"98e6547b-d826-4413-a8a5-f760ae410d11","system_id":"levelo_inurba_marseille","lat":43.27376,"lon":5.36258,"is_reserved":false,"is_disabled":false,"rental_uris":{"android":"levelo://app?vid=98e6547b-d826-4413-a8a5-f760ae410d11","ios":"levelo://app?vid=98e6547b-d826-4413-a8a5-f760ae410d11"},"vehicle_type_id":"4","last_reported":1732748934,"current_range_meters":38000,"station_id":"ce4bhbh2rcd13ifvqeo0","pricing_plan_id":"cebpf4jnsgd1na2vs0mg"},{"bike_id":"703e8aa1-dcfb-4cea-8282-43c583c4255c","system_id":"levelo_inurba_marseille","lat":43.24546,"lon":5.395258,"is_reserved":false,"is_disabled":false,"rental_uris":{"android":"levelo://app?vid=703e8aa1-dcfb-4cea-8282-43c583c4255c","ios":"levelo://app?vid=703e8aa1-dcfb-4cea-8282-43c583c4255c"},"vehicle_type_id":"4","last_reported":1732748934,"current_range_meters":38000,"station_id":"ce4bhlp2rcd13ifvqgjg","pricing_plan_id":"cebpf4jnsgd1na2vs0mg"},{"bike_id":"36e71be3-591e-41df-b393-dafcab23c079","system_id":"levelo_inurba_marseille","lat":43.31082,"lon":5.42442,"is_reserved":false,"is_disabled":false,"rental_uris":{"android":"levelo://app?vid=36e71be3-591e-41df-b393-dafcab23c079","ios":"levelo://app?vid=36e71be3-591e-41df-b393-dafcab23c079"},"vehicle_type_id":"4","last_reported":1732748934,"current_range_meters":38800,"station_id":"ce4bhp92rcd13ifvqhag","pricing_plan_id":"cebpf4jnsgd1na2vs0mg"},{"bike_id":"7f39e402-e277-4500-a2c0-b0f371dadd6c","system_id":"levelo_inurba_marseille","lat":43.31071,"lon":5.38345,"is_reserved":false,"is_disabled":false,"rental_uris":{"android":"levelo://app?vid=7f39e402-e277-4500-a2c0-b0f371dadd6c","ios":"levelo://app?vid=7f39e402-e277-4500-a2c0-b0f371dadd6c"},"vehicle_type_id":"4","last_reported":1732748934,"current_range_meters":21600,"station_id":"ce4bgv92rcd13ifvqcr0","pricing_plan_id":"cebpf4jnsgd1na2vs0mg"},{"bike_id":"791bec6d-3c3b-4d18-8591-b9f656448fbd","system_id":"levelo_inurba_marseille","lat":43.32365,"lon":5.38885,"is_reserved":false,"is_disabled":false,"rental_uris":{"android":"levelo://app?vid=791bec6d-3c3b-4d18-8591-b9f656448fbd","ios":"levelo://app?vid=791bec6d-3c3b-4d18-8591-b9f656448fbd"},"vehicle_type_id":"4","last_reported":1732748934,"current_range_meters":26800,"station_id":"ce4bhqp2rcd13ifvqhog","pricing_plan_id":"cebpf4jnsgd1na2vs0mg"},{"bike_id":"8a457629-ab34-402a-bfd6-c26d85244407","system_id":"levelo_inurba_marseille","lat":43.31324,"lon":5.39692,"is_reserved":false,"is_disabled":false,"rental_uris":{"android":"levelo://app?vid=8a457629-ab34-402a-bfd6-c26d85244407","ios":"levelo://app?vid=8a457629-ab34-402a-bfd6-c26d85244407"},"vehicle_type_id":"4","last_reported":1732748934,"current_range_meters":20400,"station_id":"ce4bgvp2rcd13ifvqcu0","pricing_plan_id":"cebpf4jnsgd1na2vs0mg"},{"bike_id":"5c2e80bf-8a77-43b1-a986-1489fc3343c0","system_id":"levelo_inurba_marseille","lat":43.286652,"lon":5.363535,"is_reserved":false,"is_disabled":false,"rental_uris":{"android":"levelo://app?vid=5c2e80bf-8a77-43b1-a986-1489fc3343c0","ios":"levelo://app?vid=5c2e80bf-8a77-43b1-a986-1489fc3343c0"},"vehicle_type_id":"4","last_reported":1732748934,"current_range_meters":20000,"station_id":"ce4bhah2rcd13ifvqej0","pricing_plan_id":"cebpf4jnsgd1na2vs0mg"},{"bike_id":"73817fd5-eb67-4e9b-aa4f-ab7ce88111ba","system_id":"levelo_inurba_marseille","lat":43.2573,"lon":5.41105,"is_reserved":false,"is_disabled":false,"rental_uris":{"android":"levelo://app?vid=73817fd5-eb67-4e9b-aa4f-ab7ce88111ba","ios":"levelo://app?vid=73817fd5-eb67-4e9b-aa4f-ab7ce88111ba"},"vehicle_type_id":"4","last_reported":1732748934,"current_range_meters":20000,"station_id":"ce4bhkp2rcd13ifvqgd0","pricing_plan_id":"cebpf4jnsgd1na2vs0mg"},{"bike_id":"dc65d38a-6822-4f34-b22f-40093f5ca5fa","system_id":"levelo_inurba_marseille","lat":43.28406,"lon":5.37522,"is_reserved":false,"is_disabled":false,"rental_uris":{"android":"levelo://app?vid=dc65d38a-6822-4f34-b22f-40093f5ca5fa","ios":"levelo://app?vid=dc65d38a-6822-4f34-b22f-40093f5ca5fa"},"vehicle_type_id":"4","last_reported":1732748934,"current_range_meters":36800,"station_id":"ce4bh412rcd13ifvqds0","pricing_plan_id":"cebpf4jnsgd1na2vs0mg"},{"bike_id":"810de900-937f-468c-b6ad-8fdcbec8d392","system_id":"levelo_inurba_marseille","lat":43.27827,"lon":5.39209,"is_reserved":false,"is_disabled":false,"rental_uris":{"android":"levelo://app?vid=810de900-937f-468c-b6ad-8fdcbec8d392","ios":"levelo://app?vid=810de900-937f-468c-b6ad-8fdcbec8d392"},"vehicle_type_id":"4","last_reported":1732748934,"current_range_meters":28400,"station_id":"ce4bhjp2rcd13ifvqga0","pricing_plan_id":"cebpf4jnsgd1na2vs0mg"},{"bike_id":"3abfdef8-3762-4e22-b960-35cbb7733ab8","system_id":"levelo_inurba_marseille","lat":43.28463,"lon":5.35893,"is_reserved":false,"is_disabled":false,"rental_uris":{"android":"levelo://app?vid=3abfdef8-3762-4e22-b960-35cbb7733ab8","ios":"levelo://app?vid=3abfdef8-3762-4e22-b960-35cbb7733ab8"},"vehicle_type_id":"4","last_reported":1732748934,"current_range_meters":28800,"station_id":"ce4bhah2rcd13ifvqei0","pricing_plan_id":"cebpf4jnsgd1na2vs0mg"},{"bike_id":"a7d21e0b-9544-42dc-a0c6-5e884f578af9","system_id":"levelo_inurba_marseille","lat":43.24622,"lon":5.43487,"is_reserved":false,"is_disabled":true,"rental_uris":{"android":"levelo://app?vid=a7d21e0b-9544-42dc-a0c6-5e884f578af9","ios":"levelo://app?vid=a7d21e0b-9544-42dc-a0c6-5e884f578af9"},"vehicle_type_id":"4","last_reported":1732748934,"current_range_meters":0,"station_id":"","pricing_plan_id":"cebpf4jnsgd1na2vs0mg"},{"bike_id":"20b42cbe-1db3-480e-b1a5-07f44851e2c4","system_id":"levelo_inurba_marseille","lat":43.25827,"lon":5.39441,"is_reserved":false,"is_disabled":false,"rental_uris":{"android":"levelo://app?vid=20b42cbe-1db3-480e-b1a5-07f44851e2c4","ios":"levelo://app?vid=20b42cbe-1db3-480e-b1a5-07f44851e2c4"},"vehicle_type_id":"4","last_reported":1732748934,"current_range_meters":30400,"station_id":"ce4bhip2rcd13ifvqft0","pricing_plan_id":"cebpf4jnsgd1na2vs0mg"},{"bike_id":"a5909545-3e09-4859-9fda-9ffe4e6e4883","system_id":"levelo_inurba_marseille","lat":43.23065,"lon":5.35491,"is_reserved":false,"is_disabled":false,"rental_uris":{"android":"levelo://app?vid=a5909545-3e09-4859-9fda-9ffe4e6e4883","ios":"levelo://app?vid=a5909545-3e09-4859-9fda-9ffe4e6e4883"},"vehicle_type_id":"4","last_reported":1732748934,"current_range_meters":25600,"station_id":"cpo3342slgdg3j2ifvpg","pricing_plan_id":"cebpf4jnsgd1na2vs0mg"},{"bike_id":"0adc1c20-926a-4db7-b93d-54cc70d28ec3","system_id":"levelo_inurba_marseille","lat":43.25116,"lon":5.40312,"is_reserved":false,"is_disabled":false,"rental_uris":{"android":"levelo://app?vid=0adc1c20-926a-4db7-b93d-54cc70d28ec3","ios":"levelo://app?vid=0adc1c20-926a-4db7-b93d-54cc70d28ec3"},"vehicle_type_id":"4","last_reported":1732748934,"current_range_meters":36400,"station_id":"ce4bhlh2rcd13ifvqgig","pricing_plan_id":"cebpf4jnsgd1na2vs0mg"},{"bike_id":"c125dd6f-3ad5-427c-a31b-f983259d1b39","system_id":"levelo_inurba_marseille","lat":43.33728,"lon":5.39186,"is_reserved":false,"is_disabled":false,"rental_uris":{"android":"levelo://app?vid=c125dd6f-3ad5-427c-a31b-f983259d1b39","ios":"levelo://app?vid=c125dd6f-3ad5-427c-a31b-f983259d1b39"},"vehicle_type_id":"4","last_reported":1732748934,"current_range_meters":28400,"station_id":"ce4bhr92rcd13ifvqhsg","pricing_plan_id":"cebpf4jnsgd1na2vs0mg"},{"bike_id":"636c38c7-b57f-44ef-879f-37f296bc8e0a","system_id":"levelo_inurba_marseille","lat":43.32079,"lon":5.36893,"is_reserved":false,"is_disabled":false,"rental_uris":{"android":"levelo://app?vid=636c38c7-b57f-44ef-879f-37f296bc8e0a","ios":"levelo://app?vid=636c38c7-b57f-44ef-879f-37f296bc8e0a"},"vehicle_type_id":"4","last_reported":1732748934,"current_range_meters":22000,"station_id":"","pricing_plan_id":"cebpf4jnsgd1na2vs0mg"},{"bike_id":"083a6ae4-20fc-40cb-87a4-6105439cdbcb","system_id":"levelo_inurba_marseille","lat":43.30422,"lon":5.41284,"is_reserved":false,"is_disabled":false,"rental_uris":{"android":"levelo://app?vid=083a6ae4-20fc-40cb-87a4-6105439cdbcb","ios":"levelo://app?vid=083a6ae4-20fc-40cb-87a4-6105439cdbcb"},"vehicle_type_id":"4","last_reported":1732748934,"current_range_meters":17200,"station_id":"ce4bhop2rcd13ifvqh8g","pricing_plan_id":"cebpf4jnsgd1na2vs0mg"},{"bike_id":"180fc64f-9e71-41d9-8429-bb3416744e00","system_id":"levelo_inurba_marseille","lat":43.23184,"lon":5.39987,"is_reserved":false,"is_disabled":false,"rental_uris":{"android":"levelo://app?vid=180fc64f-9e71-41d9-8429-bb3416744e00","ios":"levelo://app?vid=180fc64f-9e71-41d9-8429-bb3416744e00"},"vehicle_type_id":"4","last_reported":1732748934,"current_range_meters":11200,"station_id":"ce4bhn12rcd13ifvqgqg","pricing_plan_id":"cebpf4jnsgd1na2vs0mg"},{"bike_id":"2ebbdd41-e563-46b6-8d59-a188a14eb635","system_id":"levelo_inurba_marseille","lat":43.28846,"lon":5.39302,"is_reserved":false,"is_disabled":false,"rental_uris":{"android":"levelo://app?vid=2ebbdd41-e563-46b6-8d59-a188a14eb635","ios":"levelo://app?vid=2ebbdd41-e563-46b6-8d59-a188a14eb635"},"vehicle_type_id":"4","last_reported":1732748934,"current_range_meters":9200,"station_id":"ce4bh2p2rcd13ifvqdi0","pricing_plan_id":"cebpf4jnsgd1na2vs0mg"},{"bike_id":"e5951ee3-4a5a-4ebb-b469-096c5188dfa3","system_id":"levelo_inurba_marseille","lat":43.23189,"lon":5.35553,"is_reserved":false,"is_disabled":false,"rental_uris":{"android":"levelo://app?vid=e5951ee3-4a5a-4ebb-b469-096c5188dfa3","ios":"levelo://app?vid=e5951ee3-4a5a-4ebb-b469-096c5188dfa3"},"vehicle_type_id":"4","last_reported":1732748934,"current_range_meters":30000,"station_id":"ce4bhu92rcd13ifvqi70","pricing_plan_id":"cebpf4jnsgd1na2vs0mg"},{"bike_id":"551079ac-62f6-4029-9579-63ffc464325f","system_id":"levelo_inurba_marseille","lat":43.23219,"lon":5.35548,"is_reserved":false,"is_disabled":false,"rental_uris":{"android":"levelo://app?vid=551079ac-62f6-4029-9579-63ffc464325f","ios":"levelo://app?vid=551079ac-62f6-4029-9579-63ffc464325f"},"vehicle_type_id":"4","last_reported":1732748934,"current_range_meters":40000,"station_id":"ce4bhu92rcd13ifvqi70","pricing_plan_id":"cebpf4jnsgd1na2vs0mg"},{"bike_id":"624e6175-be5f-4045-8e88-380633336063","system_id":"levelo_inurba_marseille","lat":43.2906,"lon":5.35883,"is_reserved":false,"is_disabled":false,"rental_uris":{"android":"levelo://app?vid=624e6175-be5f-4045-8e88-380633336063","ios":"levelo://app?vid=624e6175-be5f-4045-8e88-380633336063"},"vehicle_type_id":"4","last_reported":1732748934,"current_range_meters":39200,"station_id":"ce4bha92rcd13ifvqeg0","pricing_plan_id":"cebpf4jnsgd1na2vs0mg"},{"bike_id":"6c948e9c-d5b3-4fe5-a918-1bd2f7c83b02","system_id":"levelo_inurba_marseille","lat":43.32109,"lon":5.36783,"is_reserved":false,"is_disabled":false,"rental_uris":{"android":"levelo://app?vid=6c948e9c-d5b3-4fe5-a918-1bd2f7c83b02","ios":"levelo://app?vid=6c948e9c-d5b3-4fe5-a918-1bd2f7c83b02"},"vehicle_type_id":"4","last_reported":1732748934,"current_range_meters":10000,"station_id":"ce4bhrh2rcd13ifvqhug","pricing_plan_id":"cebpf4jnsgd1na2vs0mg"},{"bike_id":"8a25f1be-b341-4f0b-aa4f-bac9c23c0cac","system_id":"levelo_inurba_marseille","lat":43.29205,"lon":5.39319,"is_reserved":false,"is_disabled":false,"rental_uris":{"android":"levelo://app?vid=8a25f1be-b341-4f0b-aa4f-bac9c23c0cac","ios":"levelo://app?vid=8a25f1be-b341-4f0b-aa4f-bac9c23c0cac"},"vehicle_type_id":"4","last_reported":1732748934,"current_range_meters":38800,"station_id":"ce4bh192rcd13ifvqdd0","pricing_plan_id":"cebpf4jnsgd1na2vs0mg"},{"bike_id":"b249cf00-90dd-475d-9a1d-2e42cfd11456","system_id":"levelo_inurba_marseille","lat":43.25087,"lon":5.39526,"is_reserved":false,"is_disabled":false,"rental_uris":{"android":"levelo://app?vid=b249cf00-90dd-475d-9a1d-2e42cfd11456","ios":"levelo://app?vid=b249cf00-90dd-475d-9a1d-2e42cfd11456"},"vehicle_type_id":"4","last_reported":1732748934,"current_range_meters":9200,"station_id":"ce4bhm12rcd13ifvqgkg","pricing_plan_id":"cebpf4jnsgd1na2vs0mg"},{"bike_id":"eb6d1fc3-1e4c-45f6-8da3-b997e84ded88","system_id":"levelo_inurba_marseille","lat":43.31362,"lon":5.385,"is_reserved":false,"is_disabled":false,"rental_uris":{"android":"levelo://app?vid=eb6d1fc3-1e4c-45f6-8da3-b997e84ded88","ios":"levelo://app?vid=eb6d1fc3-1e4c-45f6-8da3-b997e84ded88"},"vehicle_type_id":"4","last_reported":1732748934,"current_range_meters":38400,"station_id":"ce4bgt92rcd13ifvqcf0","pricing_plan_id":"cebpf4jnsgd1na2vs0mg"},{"bike_id":"2d149c63-2e52-4a03-8078-d4b06c755a3c","system_id":"levelo_inurba_marseille","lat":43.2979,"lon":5.39354,"is_reserved":false,"is_disabled":false,"rental_uris":{"android":"levelo://app?vid=2d149c63-2e52-4a03-8078-d4b06c755a3c","ios":"levelo://app?vid=2d149c63-2e52-4a03-8078-d4b06c755a3c"},"vehicle_type_id":"4","last_reported":1732748934,"current_range_meters":18000,"station_id":"chh1huq6cuj3fo74tm60","pricing_plan_id":"cebpf4jnsgd1na2vs0mg"},{"bike_id":"82e363e6-d522-4571-8afd-433e336680cd","system_id":"levelo_inurba_marseille","lat":43.32364,"lon":5.38882,"is_reserved":false,"is_disabled":false,"rental_uris":{"android":"levelo://app?vid=82e363e6-d522-4571-8afd-433e336680cd","ios":"levelo://app?vid=82e363e6-d522-4571-8afd-433e336680cd"},"vehicle_type_id":"4","last_reported":1732748934,"current_range_meters":24800,"station_id":"ce4bhqp2rcd13ifvqhog","pricing_plan_id":"cebpf4jnsgd1na2vs0mg"},{"bike_id":"e5a2aa86-a214-44f1-a6db-bab7850d4c65","system_id":"levelo_inurba_marseille","lat":43.26056,"lon":5.39396,"is_reserved":false,"is_disabled":false,"rental_uris":{"android":"levelo://app?vid=e5a2aa86-a214-44f1-a6db-bab7850d4c65","ios":"levelo://app?vid=e5a2aa86-a214-44f1-a6db-bab7850d4c65"},"vehicle_type_id":"4","last_reported":1732748934,"current_range_meters":29600,"station_id":"ce4bhh92rcd13ifvqfj0","pricing_plan_id":"cebpf4jnsgd1na2vs0mg"},{"bike_id":"8595a025-fd8d-490e-9ea6-4747802c64c6","system_id":"levelo_inurba_marseille","lat":43.28849,"lon":5.35857,"is_reserved":false,"is_disabled":false,"rental_uris":{"android":"levelo://app?vid=8595a025-fd8d-490e-9ea6-4747802c64c6","ios":"levelo://app?vid=8595a025-fd8d-490e-9ea6-4747802c64c6"},"vehicle_type_id":"4","last_reported":1732748934,"current_range_meters":29600,"station_id":"ce4bhb12rcd13ifvqem0","pricing_plan_id":"cebpf4jnsgd1na2vs0mg"},{"bike_id":"d3efb947-d654-41a1-abd2-d361454367fc","system_id":"levelo_inurba_marseille","lat":43.30891,"lon":5.39653,"is_reserved":false,"is_disabled":false,"rental_uris":{"android":"levelo://app?vid=d3efb947-d654-41a1-abd2-d361454367fc","ios":"levelo://app?vid=d3efb947-d654-41a1-abd2-d361454367fc"},"vehicle_type_id":"4","last_reported":1732748934,"current_range_meters":39200,"station_id":"ce4bh012rcd13ifvqcv0","pricing_plan_id":"cebpf4jnsgd1na2vs0mg"},{"bike_id":"1b5d7164-7019-4f8c-9dd6-e73c0a02afbe","system_id":"levelo_inurba_marseille","lat":43.28701,"lon":5.374,"is_reserved":false,"is_disabled":false,"rental_uris":{"android":"levelo://app?vid=1b5d7164-7019-4f8c-9dd6-e73c0a02afbe","ios":"levelo://app?vid=1b5d7164-7019-4f8c-9dd6-e73c0a02afbe"},"vehicle_type_id":"4","last_reported":1732748934,"current_range_meters":12000,"station_id":"ce4bh3p2rcd13ifvqdq0","pricing_plan_id":"cebpf4jnsgd1na2vs0mg"},{"bike_id":"c32aafd8-8905-4559-a1d0-f74aa7efcf0e","system_id":"levelo_inurba_marseille","lat":43.338,"lon":5.37474,"is_reserved":false,"is_disabled":false,"rental_uris":{"android":"levelo://app?vid=c32aafd8-8905-4559-a1d0-f74aa7efcf0e","ios":"levelo://app?vid=c32aafd8-8905-4559-a1d0-f74aa7efcf0e"},"vehicle_type_id":"4","last_reported":1732748934,"current_range_meters":36000,"station_id":"","pricing_plan_id":"cebpf4jnsgd1na2vs0mg"},{"bike_id":"18d8bd5b-c9b0-4cff-b1de-dd186bbca058","system_id":"levelo_inurba_marseille","lat":43.27815,"lon":5.40709,"is_reserved":false,"is_disabled":false,"rental_uris":{"android":"levelo://app?vid=18d8bd5b-c9b0-4cff-b1de-dd186bbca058","ios":"levelo://app?vid=18d8bd5b-c9b0-4cff-b1de-dd186bbca058"},"vehicle_type_id":"4","last_reported":1732748934,"current_range_meters":38400,"station_id":"ce4bhnh2rcd13ifvqgtg","pricing_plan_id":"cebpf4jnsgd1na2vs0mg"},{"bike_id":"619e1390-368b-421f-9966-c9348f5b7c16","system_id":"levelo_inurba_marseille","lat":43.3093,"lon":5.40146,"is_reserved":false,"is_disabled":false,"rental_uris":{"android":"levelo://app?vid=619e1390-368b-421f-9966-c9348f5b7c16","ios":"levelo://app?vid=619e1390-368b-421f-9966-c9348f5b7c16"},"vehicle_type_id":"4","last_reported":1732748934,"current_range_meters":8400,"station_id":"ce4bgvp2rcd13ifvqct0","pricing_plan_id":"cebpf4jnsgd1na2vs0mg"},{"bike_id":"110511e7-d418-46d7-a5e9-c916da14f3dc","system_id":"levelo_inurba_marseille","lat":43.3088,"lon":5.378,"is_reserved":false,"is_disabled":false,"rental_uris":{"android":"levelo://app?vid=110511e7-d418-46d7-a5e9-c916da14f3dc","ios":"levelo://app?vid=110511e7-d418-46d7-a5e9-c916da14f3dc"},"vehicle_type_id":"4","last_reported":1732748934,"current_range_meters":23200,"station_id":"","pricing_plan_id":"cebpf4jnsgd1na2vs0mg"},{"bike_id":"f1d4a92f-1be8-4b1d-9eae-4dd0769cd87e","system_id":"levelo_inurba_marseille","lat":43.28855,"lon":5.35855,"is_reserved":false,"is_disabled":false,"rental_uris":{"android":"levelo://app?vid=f1d4a92f-1be8-4b1d-9eae-4dd0769cd87e","ios":"levelo://app?vid=f1d4a92f-1be8-4b1d-9eae-4dd0769cd87e"},"vehicle_type_id":"4","last_reported":1732748934,"current_range_meters":39200,"station_id":"ce4bhb12rcd13ifvqem0","pricing_plan_id":"cebpf4jnsgd1na2vs0mg"},{"bike_id":"b0532d77-a652-43de-8ae1-079cd29bfc13","system_id":"levelo_inurba_marseille","lat":43.32371,"lon":5.38879,"is_reserved":false,"is_disabled":false,"rental_uris":{"android":"levelo://app?vid=b0532d77-a652-43de-8ae1-079cd29bfc13","ios":"levelo://app?vid=b0532d77-a652-43de-8ae1-079cd29bfc13"},"vehicle_type_id":"4","last_reported":1732748934,"current_range_meters":17200,"station_id":"ce4bhqp2rcd13ifvqhog","pricing_plan_id":"cebpf4jnsgd1na2vs0mg"},{"bike_id":"43746d86-8a13-4845-9faf-ae69b548d714","system_id":"levelo_inurba_marseille","lat":43.29459,"lon":5.37917,"is_reserved":false,"is_disabled":true,"rental_uris":{"android":"levelo://app?vid=43746d86-8a13-4845-9faf-ae69b548d714","ios":"levelo://app?vid=43746d86-8a13-4845-9faf-ae69b548d714"},"vehicle_type_id":"4","last_reported":1732748934,"current_range_meters":0,"station_id":"","pricing_plan_id":"cebpf4jnsgd1na2vs0mg"},{"bike_id":"3a9ea7fa-185b-4cfe-a8e5-1509981ec4e0","system_id":"levelo_inurba_marseille","lat":43.29858,"lon":5.39754,"is_reserved":false,"is_disabled":false,"rental_uris":{"android":"levelo://app?vid=3a9ea7fa-185b-4cfe-a8e5-1509981ec4e0","ios":"levelo://app?vid=3a9ea7fa-185b-4cfe-a8e5-1509981ec4e0"},"vehicle_type_id":"4","last_reported":1732748934,"current_range_meters":39200,"station_id":"ce4bh0h2rcd13ifvqd50","pricing_plan_id":"cebpf4jnsgd1na2vs0mg"},{"bike_id":"6530cb66-0617-4277-9d8e-13ae7d1b36cc","system_id":"levelo_inurba_marseille","lat":43.27057,"lon":5.40261,"is_reserved":false,"is_disabled":false,"rental_uris":{"android":"levelo://app?vid=6530cb66-0617-4277-9d8e-13ae7d1b36cc","ios":"levelo://app?vid=6530cb66-0617-4277-9d8e-13ae7d1b36cc"},"vehicle_type_id":"4","last_reported":1732748934,"current_range_meters":22800,"station_id":"ce4bhk92rcd13ifvqgc0","pricing_plan_id":"cebpf4jnsgd1na2vs0mg"},{"bike_id":"df76b7bf-b879-4e94-9796-439ee296ef0a","system_id":"levelo_inurba_marseille","lat":43.22922,"lon":5.35379,"is_reserved":false,"is_disabled":false,"rental_uris":{"android":"levelo://app?vid=df76b7bf-b879-4e94-9796-439ee296ef0a","ios":"levelo://app?vid=df76b7bf-b879-4e94-9796-439ee296ef0a"},"vehicle_type_id":"4","last_reported":1732748934,"current_range_meters":36000,"station_id":"cpo3532slgdg3j2ikp40","pricing_plan_id":"cebpf4jnsgd1na2vs0mg"},{"bike_id":"8f9e6250-611f-4afd-a647-f14a9ad7a78a","system_id":"levelo_inurba_marseille","lat":43.28458,"lon":5.35889,"is_reserved":false,"is_disabled":false,"rental_uris":{"android":"levelo://app?vid=8f9e6250-611f-4afd-a647-f14a9ad7a78a","ios":"levelo://app?vid=8f9e6250-611f-4afd-a647-f14a9ad7a78a"},"vehicle_type_id":"4","last_reported":1732748934,"current_range_meters":27200,"station_id":"ce4bhah2rcd13ifvqei0","pricing_plan_id":"cebpf4jnsgd1na2vs0mg"},{"bike_id":"56d6833c-ee84-4d38-b47a-c9ab4a7d9a71","system_id":"levelo_inurba_marseille","lat":43.28463,"lon":5.35888,"is_reserved":false,"is_disabled":false,"rental_uris":{"android":"levelo://app?vid=56d6833c-ee84-4d38-b47a-c9ab4a7d9a71","ios":"levelo://app?vid=56d6833c-ee84-4d38-b47a-c9ab4a7d9a71"},"vehicle_type_id":"4","last_reported":1732748934,"current_range_meters":28000,"station_id":"ce4bhah2rcd13ifvqei0","pricing_plan_id":"cebpf4jnsgd1na2vs0mg"},{"bike_id":"8e457dbc-7b93-43d1-bcb4-109cdfadc9b7","system_id":"levelo_inurba_marseille","lat":43.30249,"lon":5.40067,"is_reserved":false,"is_disabled":false,"rental_uris":{"android":"levelo://app?vid=8e457dbc-7b93-43d1-bcb4-109cdfadc9b7","ios":"levelo://app?vid=8e457dbc-7b93-43d1-bcb4-109cdfadc9b7"},"vehicle_type_id":"4","last_reported":1732748934,"current_range_meters":29600,"station_id":"ce4bgvh2rcd13ifvqcs0","pricing_plan_id":"cebpf4jnsgd1na2vs0mg"},{"bike_id":"a18f9ea9-5461-4b1b-b899-12c04cd50e66","system_id":"levelo_inurba_marseille","lat":43.27993,"lon":5.40012,"is_reserved":false,"is_disabled":false,"rental_uris":{"android":"levelo://app?vid=a18f9ea9-5461-4b1b-b899-12c04cd50e66","ios":"levelo://app?vid=a18f9ea9-5461-4b1b-b899-12c04cd50e66"},"vehicle_type_id":"4","last_reported":1732748934,"current_range_meters":30800,"station_id":"ce4bho92rcd13ifvqh4g","pricing_plan_id":"cebpf4jnsgd1na2vs0mg"},{"bike_id":"ab23c5de-ac23-4b3f-8459-64b4cc367420","system_id":"levelo_inurba_marseille","lat":43.27376,"lon":5.36258,"is_reserved":false,"is_disabled":false,"rental_uris":{"android":"levelo://app?vid=ab23c5de-ac23-4b3f-8459-64b4cc367420","ios":"levelo://app?vid=ab23c5de-ac23-4b3f-8459-64b4cc367420"},"vehicle_type_id":"4","last_reported":1732748934,"current_range_meters":39200,"station_id":"ce4bhbh2rcd13ifvqeo0","pricing_plan_id":"cebpf4jnsgd1na2vs0mg"},{"bike_id":"7850b5a3-047b-4ac7-ba36-9800297e2ebc","system_id":"levelo_inurba_marseille","lat":43.27382,"lon":5.36247,"is_reserved":false,"is_disabled":false,"rental_uris":{"android":"levelo://app?vid=7850b5a3-047b-4ac7-ba36-9800297e2ebc","ios":"levelo://app?vid=7850b5a3-047b-4ac7-ba36-9800297e2ebc"},"vehicle_type_id":"4","last_reported":1732748934,"current_range_meters":28400,"station_id":"ce4bhbh2rcd13ifvqeo0","pricing_plan_id":"cebpf4jnsgd1na2vs0mg"},{"bike_id":"e5ce1533-ade7-4488-af7b-f8fe018c3b0a","system_id":"levelo_inurba_marseille","lat":43.278093,"lon":5.407107,"is_reserved":false,"is_disabled":false,"rental_uris":{"android":"levelo://app?vid=e5ce1533-ade7-4488-af7b-f8fe018c3b0a","ios":"levelo://app?vid=e5ce1533-ade7-4488-af7b-f8fe018c3b0a"},"vehicle_type_id":"4","last_reported":1732748934,"current_range_meters":12400,"station_id":"ce4bhnh2rcd13ifvqgtg","pricing_plan_id":"cebpf4jnsgd1na2vs0mg"},{"bike_id":"5c7828b5-432d-4bfc-a997-270297ed167c","system_id":"levelo_inurba_marseille","lat":43.28083,"lon":5.3967,"is_reserved":false,"is_disabled":false,"rental_uris":{"android":"levelo://app?vid=5c7828b5-432d-4bfc-a997-270297ed167c","ios":"levelo://app?vid=5c7828b5-432d-4bfc-a997-270297ed167c"},"vehicle_type_id":"4","last_reported":1732748934,"current_range_meters":13600,"station_id":"ce4bho12rcd13ifvqh2g","pricing_plan_id":"cebpf4jnsgd1na2vs0mg"},{"bike_id":"c7c8eb9f-a72f-46cc-a7d7-36fb49eb8a83","system_id":"levelo_inurba_marseille","lat":43.337444,"lon":5.374475,"is_reserved":false,"is_disabled":true,"rental_uris":{"android":"levelo://app?vid=c7c8eb9f-a72f-46cc-a7d7-36fb49eb8a83","ios":"levelo://app?vid=c7c8eb9f-a72f-46cc-a7d7-36fb49eb8a83"},"vehicle_type_id":"4","last_reported":1732748934,"current_range_meters":0,"station_id":"","pricing_plan_id":"cebpf4jnsgd1na2vs0mg"},{"bike_id":"c4533e52-a368-458f-a862-f00c66347ca9","system_id":"levelo_inurba_marseille","lat":43.30942,"lon":5.4015,"is_reserved":false,"is_disabled":false,"rental_uris":{"android":"levelo://app?vid=c4533e52-a368-458f-a862-f00c66347ca9","ios":"levelo://app?vid=c4533e52-a368-458f-a862-f00c66347ca9"},"vehicle_type_id":"4","last_reported":1732748934,"current_range_meters":38800,"station_id":"ce4bgvp2rcd13ifvqct0","pricing_plan_id":"cebpf4jnsgd1na2vs0mg"},{"bike_id":"a7b41fcb-4a77-4915-b2b9-38ad872925d6","system_id":"levelo_inurba_marseille","lat":43.27499,"lon":5.42454,"is_reserved":false,"is_disabled":false,"rental_uris":{"android":"levelo://app?vid=a7b41fcb-4a77-4915-b2b9-38ad872925d6","ios":"levelo://app?vid=a7b41fcb-4a77-4915-b2b9-38ad872925d6"},"vehicle_type_id":"4","last_reported":1732748934,"current_range_meters":30000,"station_id":"ce4bhn92rcd13ifvqgrg","pricing_plan_id":"cebpf4jnsgd1na2vs0mg"},{"bike_id":"6b123aa2-ccbc-411a-8098-55d07e88a7a8","system_id":"levelo_inurba_marseille","lat":43.31487,"lon":5.37303,"is_reserved":false,"is_disabled":false,"rental_uris":{"android":"levelo://app?vid=6b123aa2-ccbc-411a-8098-55d07e88a7a8","ios":"levelo://app?vid=6b123aa2-ccbc-411a-8098-55d07e88a7a8"},"vehicle_type_id":"4","last_reported":1732748934,"current_range_meters":39200,"station_id":"ce4bgt12rcd13ifvqcd0","pricing_plan_id":"cebpf4jnsgd1na2vs0mg"},{"bike_id":"7ec5c363-4e30-4fcb-a037-8419092f34af","system_id":"levelo_inurba_marseille","lat":43.2781,"lon":5.40708,"is_reserved":false,"is_disabled":false,"rental_uris":{"android":"levelo://app?vid=7ec5c363-4e30-4fcb-a037-8419092f34af","ios":"levelo://app?vid=7ec5c363-4e30-4fcb-a037-8419092f34af"},"vehicle_type_id":"4","last_reported":1732748934,"current_range_meters":16000,"station_id":"ce4bhnh2rcd13ifvqgtg","pricing_plan_id":"cebpf4jnsgd1na2vs0mg"},{"bike_id":"85874c6c-3a4d-49b7-a03b-d454290a88fc","system_id":"levelo_inurba_marseille","lat":43.23189,"lon":5.39987,"is_reserved":false,"is_disabled":false,"rental_uris":{"android":"levelo://app?vid=85874c6c-3a4d-49b7-a03b-d454290a88fc","ios":"levelo://app?vid=85874c6c-3a4d-49b7-a03b-d454290a88fc"},"vehicle_type_id":"4","last_reported":1732748934,"current_range_meters":23200,"station_id":"ce4bhn12rcd13ifvqgqg","pricing_plan_id":"cebpf4jnsgd1na2vs0mg"},{"bike_id":"f63adcdc-7762-465d-90eb-d1a63676c13e","system_id":"levelo_inurba_marseille","lat":43.24075,"lon":5.37763,"is_reserved":false,"is_disabled":false,"rental_uris":{"android":"levelo://app?vid=f63adcdc-7762-465d-90eb-d1a63676c13e","ios":"levelo://app?vid=f63adcdc-7762-465d-90eb-d1a63676c13e"},"vehicle_type_id":"4","last_reported":1732748934,"current_range_meters":38000,"station_id":"ce4bhnp2rcd13ifvqgvg","pricing_plan_id":"cebpf4jnsgd1na2vs0mg"},{"bike_id":"3bda0192-441f-448b-a44b-62afdb2df3e6","system_id":"levelo_inurba_marseille","lat":43.27811,"lon":5.40707,"is_reserved":false,"is_disabled":true,"rental_uris":{"android":"levelo://app?vid=3bda0192-441f-448b-a44b-62afdb2df3e6","ios":"levelo://app?vid=3bda0192-441f-448b-a44b-62afdb2df3e6"},"vehicle_type_id":"4","last_reported":1732748934,"current_range_meters":39200,"station_id":"ce4bhnh2rcd13ifvqgtg","pricing_plan_id":"cebpf4jnsgd1na2vs0mg"},{"bike_id":"c88f8730-1176-4717-97e2-17c27b15274f","system_id":"levelo_inurba_marseille","lat":43.23197,"lon":5.35548,"is_reserved":false,"is_disabled":true,"rental_uris":{"android":"levelo://app?vid=c88f8730-1176-4717-97e2-17c27b15274f","ios":"levelo://app?vid=c88f8730-1176-4717-97e2-17c27b15274f"},"vehicle_type_id":"4","last_reported":1732748934,"current_range_meters":0,"station_id":"ce4bhu92rcd13ifvqi70","pricing_plan_id":"cebpf4jnsgd1na2vs0mg"},{"bike_id":"a22a0ba7-8867-481c-80b2-866a2e1b4899","system_id":"levelo_inurba_marseille","lat":43.33554,"lon":5.41029,"is_reserved":false,"is_disabled":false,"rental_uris":{"android":"levelo://app?vid=a22a0ba7-8867-481c-80b2-866a2e1b4899","ios":"levelo://app?vid=a22a0ba7-8867-481c-80b2-866a2e1b4899"},"vehicle_type_id":"4","last_reported":1732748934,"current_range_meters":34800,"station_id":"ce4bhqh2rcd13ifvqhmg","pricing_plan_id":"cebpf4jnsgd1na2vs0mg"},{"bike_id":"e57d3f38-b2a5-4ce2-a6fd-c0d71c923c42","system_id":"levelo_inurba_marseille","lat":43.28728,"lon":5.37946,"is_reserved":false,"is_disabled":false,"rental_uris":{"android":"levelo://app?vid=e57d3f38-b2a5-4ce2-a6fd-c0d71c923c42","ios":"levelo://app?vid=e57d3f38-b2a5-4ce2-a6fd-c0d71c923c42"},"vehicle_type_id":"4","last_reported":1732748934,"current_range_meters":18800,"station_id":"ce4bh9p2rcd13ifvqec0","pricing_plan_id":"cebpf4jnsgd1na2vs0mg"},{"bike_id":"d1f94dd4-9601-4826-9123-429c805265c9","system_id":"levelo_inurba_marseille","lat":43.3229,"lon":5.3828,"is_reserved":false,"is_disabled":false,"rental_uris":{"android":"levelo://app?vid=d1f94dd4-9601-4826-9123-429c805265c9","ios":"levelo://app?vid=d1f94dd4-9601-4826-9123-429c805265c9"},"vehicle_type_id":"4","last_reported":1732748934,"current_range_meters":24400,"station_id":"ce4bhr12rcd13ifvqhqg","pricing_plan_id":"cebpf4jnsgd1na2vs0mg"},{"bike_id":"394c58f2-a871-46c0-abd0-4b645b6015e3","system_id":"levelo_inurba_marseille","lat":43.31327,"lon":5.3969,"is_reserved":false,"is_disabled":false,"rental_uris":{"android":"levelo://app?vid=394c58f2-a871-46c0-abd0-4b645b6015e3","ios":"levelo://app?vid=394c58f2-a871-46c0-abd0-4b645b6015e3"},"vehicle_type_id":"4","last_reported":1732748934,"current_range_meters":29600,"station_id":"ce4bgvp2rcd13ifvqcu0","pricing_plan_id":"cebpf4jnsgd1na2vs0mg"},{"bike_id":"b6ed1910-de57-401d-8b1d-af35755f9004","system_id":"levelo_inurba_marseille","lat":43.27947,"lon":5.4106,"is_reserved":false,"is_disabled":true,"rental_uris":{"android":"levelo://app?vid=b6ed1910-de57-401d-8b1d-af35755f9004","ios":"levelo://app?vid=b6ed1910-de57-401d-8b1d-af35755f9004"},"vehicle_type_id":"4","last_reported":1732748934,"current_range_meters":33200,"station_id":"ce4bhnp2rcd13ifvqh0g","pricing_plan_id":"cebpf4jnsgd1na2vs0mg"},{"bike_id":"574fe830-0081-4a08-930a-d520f5f2c27e","system_id":"levelo_inurba_marseille","lat":43.23186,"lon":5.39986,"is_reserved":false,"is_disabled":false,"rental_uris":{"android":"levelo://app?vid=574fe830-0081-4a08-930a-d520f5f2c27e","ios":"levelo://app?vid=574fe830-0081-4a08-930a-d520f5f2c27e"},"vehicle_type_id":"4","last_reported":1732748934,"current_range_meters":30800,"station_id":"ce4bhn12rcd13ifvqgqg","pricing_plan_id":"cebpf4jnsgd1na2vs0mg"},{"bike_id":"ee1212a5-bcfa-4a27-be52-297f1699b3a9","system_id":"levelo_inurba_marseille","lat":43.29571,"lon":5.39983,"is_reserved":false,"is_disabled":false,"rental_uris":{"android":"levelo://app?vid=ee1212a5-bcfa-4a27-be52-297f1699b3a9","ios":"levelo://app?vid=ee1212a5-bcfa-4a27-be52-297f1699b3a9"},"vehicle_type_id":"4","last_reported":1732748934,"current_range_meters":37600,"station_id":"ce4bh312rcd13ifvqdj0","pricing_plan_id":"cebpf4jnsgd1na2vs0mg"},{"bike_id":"c05c1c6d-a827-405f-9cd9-5ebfead7cd76","system_id":"levelo_inurba_marseille","lat":43.29192,"lon":5.39328,"is_reserved":false,"is_disabled":false,"rental_uris":{"android":"levelo://app?vid=c05c1c6d-a827-405f-9cd9-5ebfead7cd76","ios":"levelo://app?vid=c05c1c6d-a827-405f-9cd9-5ebfead7cd76"},"vehicle_type_id":"4","last_reported":1732748934,"current_range_meters":8000,"station_id":"ce4bh192rcd13ifvqdd0","pricing_plan_id":"cebpf4jnsgd1na2vs0mg"},{"bike_id":"c25e8970-badd-4e89-91d5-4b07e79f2ae0","system_id":"levelo_inurba_marseille","lat":43.27809,"lon":5.4071,"is_reserved":false,"is_disabled":false,"rental_uris":{"android":"levelo://app?vid=c25e8970-badd-4e89-91d5-4b07e79f2ae0","ios":"levelo://app?vid=c25e8970-badd-4e89-91d5-4b07e79f2ae0"},"vehicle_type_id":"4","last_reported":1732748934,"current_range_meters":28000,"station_id":"ce4bhnh2rcd13ifvqgtg","pricing_plan_id":"cebpf4jnsgd1na2vs0mg"},{"bike_id":"ff9a459e-e517-41ab-9a69-684d87f67a8d","system_id":"levelo_inurba_marseille","lat":43.23196,"lon":5.39989,"is_reserved":false,"is_disabled":false,"rental_uris":{"android":"levelo://app?vid=ff9a459e-e517-41ab-9a69-684d87f67a8d","ios":"levelo://app?vid=ff9a459e-e517-41ab-9a69-684d87f67a8d"},