{"last_updated":1685732673,"ttl":30,"version":"2.2","data":{"bikes":[{"bike_id":"db50a2c9-d127-4b1a-a8c6-1bb3cfcd227c","system_id":"levelo_inurba_marseille","lat":43.3114,"lon":5.3708,"is_reserved":false,"is_disabled":false,"rental_uris":{"android":"levelo://app?vid=db50a2c9-d127-4b1a-a8c6-1bb3cfcd227c","ios":"levelo://app?vid=db50a2c9-d127-4b1a-a8c6-1bb3cfcd227c"},"vehicle_type_id":"4","last_reported":1685732673,"current_range_meters":3600,"station_id":"","pricing_plan_id":"free"},{"bike_id":"4d43e892-ec90-4fce-8475-f727fed3851f","system_id":"levelo_inurba_marseille","lat":43.3197,"lon":5.36599,"is_reserved":false,"is_disabled":false,"rental_uris":{"android":"levelo://app?vid=4d43e892-ec90-4fce-8475-f727fed3851f","ios":"levelo://app?vid=4d43e892-ec90-4fce-8475-f727fed3851f"},"vehicle_type_id":"4","last_reported":1685732673,"current_range_meters":8400,"station_id":"","pricing_plan_id":"free"},{"bike_id":"890e93ac-4bac-484a-baff-b468d73fa7c8","system_id":"levelo_inurba_marseille","lat":43.31347,"lon":5.37695,"is_reserved":false,"is_disabled":false,"rental_uris":{"android":"levelo://app?vid=890e93ac-4bac-484a-baff-b468d73fa7c8","ios":"levelo://app?vid=890e93ac-4bac-484a-baff-b468d73fa7c8"},"vehicle_type_id":"4","last_reported":1685732673,"current_range_meters":12400,"station_id":"","pricing_plan_id":"free"},{"bike_id":"bee17334-b616-4989-83f5-3561a0ba3aec","system_id":"levelo_inurba_marseille","lat":43.30537,"lon":5.36549,"is_reserved":false,"is_disabled":false,"rental_uris":{"android":"levelo://app?vid=bee17334-b616-4989-83f5-3561a0ba3aec","ios":"levelo://app?vid=bee17334-b616-4989-83f5-3561a0ba3aec"},"vehicle_type_id":"4","last_reported":1685732673,"current_range_meters":11200,"station_id":"","pricing_plan_id":"free"},{"bike_id":"aea7f148-98f0-46bb-b212-f218e98938d4","system_id":"levelo_inurba_marseille","lat":43.317075,"lon":5.377367,"is_reserved":false,"is_disabled":false,"rental_uris":{"android":"levelo://app?vid=aea7f148-98f0-46bb-b212-f218e98938d4","ios":"levelo://app?vid=aea7f148-98f0-46bb-b212-f218e98938d4"},"vehicle_type_id":"4","last_reported":1685732673,"current_range_meters":28000,"station_id":"ce4bgth2rcd13ifvqch0","pricing_plan_id":"free"},{"bike_id":"4f0ac690-a12e-4b88-9abd-a29f0ba92a6e","system_id":"levelo_inurba_marseille","lat":43.317075,"lon":5.377367,"is_reserved":false,"is_disabled":false,"rental_uris":{"android":"levelo://app?vid=4f0ac690-a12e-4b88-9abd-a29f0ba92a6e","ios":"levelo://app?vid=4f0ac690-a12e-4b88-9abd-a29f0ba92a6e"},"vehicle_type_id":"4","last_reported":1685732673,"current_range_meters":19600,"station_id":"ce4bgth2rcd13ifvqch0","pricing_plan_id":"free"},{"bike_id":"1d0fadcb-8867-4330-b461-6bee337d7e30","system_id":"levelo_inurba_marseille","lat":43.317075,"lon":5.377367,"is_reserved":false,"is_disabled":false,"rental_uris":{"android":"levelo://app?vid=1d0fadcb-8867-4330-b461-6bee337d7e30","ios":"levelo://app?vid=1d0fadcb-8867-4330-b461-6bee337d7e30"},"vehicle_type_id":"4","last_reported":1685732673,"current_range_meters":25200,"station_id":"ce4bgth2rcd13ifvqch0","pricing_plan_id":"free"},{"bike_id":"f5db6686-8328-44e7-a9da-9d2774a5ea39","system_id":"levelo_inurba_marseille","lat":43.317075,"lon":5.377367,"is_reserved":false,"is_disabled":false,"rental_uris":{"android":"levelo://app?vid=f5db6686-8328-44e7-a9da-9d2774a5ea39","ios":"levelo://app?vid=f5db6686-8328-44e7-a9da-9d2774a5ea39"},"vehicle_type_id":"4","last_reported":1685732673,"current_range_meters":24800,"station_id":"ce4bgth2rcd13ifvqch0","pricing_plan_id":"free"},{"bike_id":"64668d62-2c56-40da-9e4a-cb84a2c2ea4d","system_id":"levelo_inurba_marseille","lat":43.31002,"lon":5.38021,"is_reserved":false,"is_disabled":false,"rental_uris":{"android":"levelo://app?vid=64668d62-2c56-40da-9e4a-cb84a2c2ea4d","ios":"levelo://app?vid=64668d62-2c56-40da-9e4a-cb84a2c2ea4d"},"vehicle_type_id":"4","last_reported":1685732673,"current_range_meters":0,"station_id":"","pricing_plan_id":"free"},{"bike_id":"8ab6870c-82dd-4c42-b705-fc65e848c63a","system_id":"levelo_inurba_marseille","lat":43.308012,"lon":5.381511,"is_reserved":false,"is_disabled":false,"rental_uris":{"android":"levelo://app?vid=8ab6870c-82dd-4c42-b705-fc65e848c63a","ios":"levelo://app?vid=8ab6870c-82dd-4c42-b705-fc65e848c63a"},"vehicle_type_id":"4","last_reported":1685732673,"current_range_meters":8400,"station_id":"ce4bgt12rcd13ifvqce0","pricing_plan_id":"free"},{"bike_id":"8f47bcdc-04f8-4487-8927-8cb690a18b0c","system_id":"levelo_inurba_marseille","lat":43.308012,"lon":5.381511,"is_reserved":false,"is_disabled":false,"rental_uris":{"android":"levelo://app?vid=8f47bcdc-04f8-4487-8927-8cb690a18b0c","ios":"levelo://app?vid=8f47bcdc-04f8-4487-8927-8cb690a18b0c"},"vehicle_type_id":"4","last_reported":1685732673,"current_range_meters":6000,"station_id":"ce4bgt12rcd13ifvqce0","pricing_plan_id":"free"},{"bike_id":"133b9b06-d9f5-42f4-8129-f03e6f8bc3a3","system_id":"levelo_inurba_marseille","lat":43.308012,"lon":5.381511,"is_reserved":false,"is_disabled":false,"rental_uris":{"android":"levelo://app?vid=133b9b06-d9f5-42f4-8129-f03e6f8bc3a3","ios":"levelo://app?vid=133b9b06-d9f5-42f4-8129-f03e6f8bc3a3"},"vehicle_type_id":"4","last_reported":1685732673,"current_range_meters":8800,"station_id":"ce4bgt12rcd13ifvqce0","pricing_plan_id":"free"},{"bike_id":"11f08902-0279-4963-87cf-c830791adf73","system_id":"levelo_inurba_marseille","lat":43.308012,"lon":5.381511,"is_reserved":false,"is_disabled":false,"rental_uris":{"android":"levelo://app?vid=11f08902-0279-4963-87cf-c830791adf73","ios":"levelo://app?vid=11f08902-0279-4963-87cf-c830791adf73"},"vehicle_type_id":"4","last_reported":1685732673,"current_range_meters":17600,"station_id":"ce4bgt12rcd13ifvqce0","pricing_plan_id":"free"},{"bike_id":"50719f45-5474-4ba0-aa33-821c6aebe9b1","system_id":"levelo_inurba_marseille","lat":43.304611,"lon":5.379076,"is_reserved":false,"is_disabled":false,"rental_uris":{"android":"levelo://app?vid=50719f45-5474-4ba0-aa33-821c6aebe9b1","ios":"levelo://app?vid=50719f45-5474-4ba0-aa33-821c6aebe9b1"},"vehicle_type_id":"4","last_reported":1685732673,"current_range_meters":400,"station_id":"","pricing_plan_id":"free"},{"bike_id":"8c3cbb59-cd72-4768-8a58-eb62ab11aad1","system_id":"levelo_inurba_marseille","lat":43.319935,"lon":5.381699,"is_reserved":false,"is_disabled":false,"rental_uris":{"android":"levelo://app?vid=8c3cbb59-cd72-4768-8a58-eb62ab11aad1","ios":"levelo://app?vid=8c3cbb59-cd72-4768-8a58-eb62ab11aad1"},"vehicle_type_id":"4","last_reported":1685732673,"current_range_meters":31600,"station_id":"ce4bhr12rcd13ifvqhpg","pricing_plan_id":"free"},{"bike_id":"b6af2cee-22c0-4696-a3cc-c5ab5878f58f","system_id":"levelo_inurba_marseille","lat":43.319935,"lon":5.381699,"is_reserved":false,"is_disabled":false,"rental_uris":{"android":"levelo://app?vid=b6af2cee-22c0-4696-a3cc-c5ab5878f58f","ios":"levelo://app?vid=b6af2cee-22c0-4696-a3cc-c5ab5878f58f"},"vehicle_type_id":"4","last_reported":1685732673,"current_range_meters":30800,"station_id":"ce4bhr12rcd13ifvqhpg","pricing_plan_id":"free"},{"bike_id":"ad129339-b339-4ccc-9ee0-2774c8b55114","system_id":"levelo_inurba_marseille","lat":43.32001,"lon":5.38146,"is_reserved":false,"is_disabled":false,"rental_uris":{"android":"levelo://app?vid=ad129339-b339-4ccc-9ee0-2774c8b55114","ios":"levelo://app?vid=ad129339-b339-4ccc-9ee0-2774c8b55114"},"vehicle_type_id":"4","last_reported":1685732673,"current_range_meters":27600,"station_id":"ce4bhr12rcd13ifvqhpg","pricing_plan_id":"free"},{"bike_id":"f00ef6d6-b8c9-4ca8-9822-2b485c8f30cc","system_id":"levelo_inurba_marseille","lat":43.29932,"lon":5.36544,"is_reserved":false,"is_disabled":false,"rental_uris":{"android":"levelo://app?vid=f00ef6d6-b8c9-4ca8-9822-2b485c8f30cc","ios":"levelo://app?vid=f00ef6d6-b8c9-4ca8-9822-2b485c8f30cc"},"vehicle_type_id":"4","last_reported":1685732673,"current_range_meters":25200,"station_id":"","pricing_plan_id":"free"},{"bike_id":"24ed24b1-fbf3-44fe-82bf-8ca241464875","system_id":"levelo_inurba_marseille","lat":43.305364,"lon":5.384119,"is_reserved":false,"is_disabled":false,"rental_uris":{"android":"levelo://app?vid=24ed24b1-fbf3-44fe-82bf-8ca241464875","ios":"levelo://app?vid=24ed24b1-fbf3-44fe-82bf-8ca241464875"},"vehicle_type_id":"4","last_reported":1685732673,"current_range_meters":26400,"station_id":"ce4bgg92rcd13ifvqb30","pricing_plan_id":"free"},{"bike_id":"ed0bfaaa-d4c8-4210-8e3f-428f66db8ce1","system_id":"levelo_inurba_marseille","lat":43.305364,"lon":5.384119,"is_reserved":false,"is_disabled":false,"rental_uris":{"android":"levelo://app?vid=ed0bfaaa-d4c8-4210-8e3f-428f66db8ce1","ios":"levelo://app?vid=ed0bfaaa-d4c8-4210-8e3f-428f66db8ce1"},"vehicle_type_id":"4","last_reported":1685732673,"current_range_meters":2800,"station_id":"ce4bgg92rcd13ifvqb30","pricing_plan_id":"free"},{"bike_id":"897e2b6c-63a0-49d9-a1ef-afd62f5667cc","system_id":"levelo_inurba_marseille","lat":43.314811,"lon":5.373103,"is_reserved":false,"is_disabled":false,"rental_uris":{"android":"levelo://app?vid=897e2b6c-63a0-49d9-a1ef-afd62f5667cc","ios":"levelo://app?vid=897e2b6c-63a0-49d9-a1ef-afd62f5667cc"},"vehicle_type_id":"4","last_reported":1685732673,"current_range_meters":3200,"station_id":"ce4bgt12rcd13ifvqcd0","pricing_plan_id":"free"},{"bike_id":"e00c51ef-a02f-416a-927a-e098f1a0dbb7","system_id":"levelo_inurba_marseille","lat":43.297794,"lon":5.370888,"is_reserved":false,"is_disabled":false,"rental_uris":{"android":"levelo://app?vid=e00c51ef-a02f-416a-927a-e098f1a0dbb7","ios":"levelo://app?vid=e00c51ef-a02f-416a-927a-e098f1a0dbb7"},"vehicle_type_id":"4","last_reported":1685732673,"current_range_meters":6800,"station_id":"ce4bgop2rcd13ifvqc1g","pricing_plan_id":"free"},{"bike_id":"4cbd26d9-34db-45e9-b3d6-b4bf0e47f9d2","system_id":"levelo_inurba_marseille","lat":43.29763,"lon":5.37107,"is_reserved":false,"is_disabled":false,"rental_uris":{"android":"levelo://app?vid=4cbd26d9-34db-45e9-b3d6-b4bf0e47f9d2","ios":"levelo://app?vid=4cbd26d9-34db-45e9-b3d6-b4bf0e47f9d2"},"vehicle_type_id":"4","last_reported":1685732673,"current_range_meters":1600,"station_id":"","pricing_plan_id":"free"},{"bike_id":"7652560c-7deb-42f7-934b-ad6212fb0a0d","system_id":"levelo_inurba_marseille","lat":43.328371,"lon":5.366909,"is_reserved":false,"is_disabled":false,"rental_uris":{"android":"levelo://app?vid=7652560c-7deb-42f7-934b-ad6212fb0a0d","ios":"levelo://app?vid=7652560c-7deb-42f7-934b-ad6212fb0a0d"},"vehicle_type_id":"4","last_reported":1685732673,"current_range_meters":19200,"station_id":"ce4bhs92rcd13ifvqi0g","pricing_plan_id":"free"},{"bike_id":"048d6a5e-97c9-4f67-bf89-16ecba2081b0","system_id":"levelo_inurba_marseille","lat":43.328371,"lon":5.366909,"is_reserved":false,"is_disabled":false,"rental_uris":{"android":"levelo://app?vid=048d6a5e-97c9-4f67-bf89-16ecba2081b0","ios":"levelo://app?vid=048d6a5e-97c9-4f67-bf89-16ecba2081b0"},"vehicle_type_id":"4","last_reported":1685732673,"current_range_meters":2400,"station_id":"ce4bhs92rcd13ifvqi0g","pricing_plan_id":"free"},{"bike_id":"e6cbf63b-75c9-4c66-abd2-147ff5b08f36","system_id":"levelo_inurba_marseille","lat":43.29716,"lon":5.36606,"is_reserved":false,"is_disabled":false,"rental_uris":{"android":"levelo://app?vid=e6cbf63b-75c9-4c66-abd2-147ff5b08f36","ios":"levelo://app?vid=e6cbf63b-75c9-4c66-abd2-147ff5b08f36"},"vehicle_type_id":"4","last_reported":1685732673,"current_range_meters":22000,"station_id":"","pricing_plan_id":"free"},{"bike_id":"6dab6eca-b352-49ea-add2-026ea7782376","system_id":"levelo_inurba_marseille","lat":43.328371,"lon":5.366909,"is_reserved":false,"is_disabled":false,"rental_uris":{"android":"levelo://app?vid=6dab6eca-b352-49ea-add2-026ea7782376","ios":"levelo://app?vid=6dab6eca-b352-49ea-add2-026ea7782376"},"vehicle_type_id":"4","last_reported":1685732673,"current_range_meters":12000,"station_id":"ce4bhs92rcd13ifvqi0g","pricing_plan_id":"free"},{"bike_id":"e034009e-8931-4a39-bccf-cd7f5ebb92bc","system_id":"levelo_inurba_marseille","lat":43.29573,"lon":5.367355,"is_reserved":false,"is_disabled":false,"rental_uris":{"android":"levelo://app?vid=e034009e-8931-4a39-bccf-cd7f5ebb92bc","ios":"levelo://app?vid=e034009e-8931-4a39-bccf-cd7f5ebb92bc"},"vehicle_type_id":"4","last_reported":1685732673,"current_range_meters":800,"station_id":"ce4bgph2rcd13ifvqc2g","pricing_plan_id":"free"},{"bike_id":"53fcb008-fff8-4318-9122-01cff2525ed1","system_id":"levelo_inurba_marseille","lat":43.29573,"lon":5.367355,"is_reserved":false,"is_disabled":false,"rental_uris":{"android":"levelo://app?vid=53fcb008-fff8-4318-9122-01cff2525ed1","ios":"levelo://app?vid=53fcb008-fff8-4318-9122-01cff2525ed1"},"vehicle_type_id":"4","last_reported":1685732673,"current_range_meters":5600,"station_id":"ce4bgph2rcd13ifvqc2g","pricing_plan_id":"free"},{"bike_id":"aefa4145-bb69-46fc-8755-0647fda6e663","system_id":"levelo_inurba_marseille","lat":43.299028,"lon":5.381509,"is_reserved":false,"is_disabled":false,"rental_uris":{"android":"levelo://app?vid=aefa4145-bb69-46fc-8755-0647fda6e663","ios":"levelo://app?vid=aefa4145-bb69-46fc-8755-0647fda6e663"},"vehicle_type_id":"4","last_reported":1685732673,"current_range_meters":0,"station_id":"ce4bgj12rcd13ifvqbc0","pricing_plan_id":"free"},{"bike_id":"c1d74a0c-f2ed-4aec-8077-c3aa35ff21f9","system_id":"levelo_inurba_marseille","lat":43.299028,"lon":5.381509,"is_reserved":false,"is_disabled":false,"rental_uris":{"android":"levelo://app?vid=c1d74a0c-f2ed-4aec-8077-c3aa35ff21f9","ios":"levelo://app?vid=c1d74a0c-f2ed-4aec-8077-c3aa35ff21f9"},"vehicle_type_id":"4","last_reported":1685732673,"current_range_meters":9200,"station_id":"ce4bgj12rcd13ifvqbc0","pricing_plan_id":"free"},{"bike_id":"3e61ee82-87aa-4827-a45a-0f5796d0c902","system_id":"levelo_inurba_marseille","lat":43.309589,"lon":5.390258,"is_reserved":false,"is_disabled":false,"rental_uris":{"android":"levelo://app?vid=3e61ee82-87aa-4827-a45a-0f5796d0c902","ios":"levelo://app?vid=3e61ee82-87aa-4827-a45a-0f5796d0c902"},"vehicle_type_id":"4","last_reported":1685732673,"current_range_meters":14400,"station_id":"ce4bgup2rcd13ifvqco0","pricing_plan_id":"free"},{"bike_id":"ed2ae788-c5db-4683-ba36-f73e68c76be3","system_id":"levelo_inurba_marseille","lat":43.30954,"lon":5.39032,"is_reserved":false,"is_disabled":false,"rental_uris":{"android":"levelo://app?vid=ed2ae788-c5db-4683-ba36-f73e68c76be3","ios":"levelo://app?vid=ed2ae788-c5db-4683-ba36-f73e68c76be3"},"vehicle_type_id":"4","last_reported":1685732673,"current_range_meters":16800,"station_id":"ce4bgup2rcd13ifvqco0","pricing_plan_id":"free"},{"bike_id":"75d779f0-92ce-46c4-8542-720d7bcc0574","system_id":"levelo_inurba_marseille","lat":43.309589,"lon":5.390258,"is_reserved":false,"is_disabled":false,"rental_uris":{"android":"levelo://app?vid=75d779f0-92ce-46c4-8542-720d7bcc0574","ios":"levelo://app?vid=75d779f0-92ce-46c4-8542-720d7bcc0574"},"vehicle_type_id":"4","last_reported":1685732673,"current_range_meters":6000,"station_id":"ce4bgup2rcd13ifvqco0","pricing_plan_id":"free"},{"bike_id":"5676e87f-ef4b-4a7f-bcad-313722765296","system_id":"levelo_inurba_marseille","lat":43.309589,"lon":5.390258,"is_reserved":false,"is_disabled":false,"rental_uris":{"android":"levelo://app?vid=5676e87f-ef4b-4a7f-bcad-313722765296","ios":"levelo://app?vid=5676e87f-ef4b-4a7f-bcad-313722765296"},"vehicle_type_id":"4","last_reported":1685732673,"current_range_meters":20800,"station_id":"ce4bgup2rcd13ifvqco0","pricing_plan_id":"free"},{"bike_id":"99a6573b-d996-4c33-983e-97fe582ab924","system_id":"levelo_inurba_marseille","lat":43.309589,"lon":5.390258,"is_reserved":false,"is_disabled":false,"rental_uris":{"android":"levelo://app?vid=99a6573b-d996-4c33-983e-97fe582ab924","ios":"levelo://app?vid=99a6573b-d996-4c33-983e-97fe582ab924"},"vehicle_type_id":"4","last_reported":1685732673,"current_range_meters":11600,"station_id":"ce4bgup2rcd13ifvqco0","pricing_plan_id":"free"},{"bike_id":"f3993249-924e-479f-a81b-2c4f60c51487","system_id":"levelo_inurba_marseille","lat":43.309589,"lon":5.390258,"is_reserved":false,"is_disabled":false,"rental_uris":{"android":"levelo://app?vid=f3993249-924e-479f-a81b-2c4f60c51487","ios":"levelo://app?vid=f3993249-924e-479f-a81b-2c4f60c51487"},"vehicle_type_id":"4","last_reported":1685732673,"current_range_meters":9600,"station_id":"ce4bgup2rcd13ifvqco0","pricing_plan_id":"free"},{"bike_id":"e633f974-b244-4c5f-9098-86dcaed2f7b2","system_id":"levelo_inurba_marseille","lat":43.309589,"lon":5.390258,"is_reserved":false,"is_disabled":false,"rental_uris":{"android":"levelo://app?vid=e633f974-b244-4c5f-9098-86dcaed2f7b2","ios":"levelo://app?vid=e633f974-b244-4c5f-9098-86dcaed2f7b2"},"vehicle_type_id":"4","last_reported":1685732673,"current_range_meters":16000,"station_id":"ce4bgup2rcd13ifvqco0","pricing_plan_id":"free"},{"bike_id":"47d72970-de8e-41d7-a65e-ef7ac7f437ac","system_id":"levelo_inurba_marseille","lat":43.309589,"lon":5.390258,"is_reserved":false,"is_disabled":false,"rental_uris":{"android":"levelo://app?vid=47d72970-de8e-41d7-a65e-ef7ac7f437ac","ios":"levelo://app?vid=47d72970-de8e-41d7-a65e-ef7ac7f437ac"},"vehicle_type_id":"4","last_reported":1685732673,"current_range_meters":10000,"station_id":"ce4bgup2rcd13ifvqco0","pricing_plan_id":"free"},{"bike_id":"7066edc4-1b63-4228-b65f-2471afbc3daa","system_id":"levelo_inurba_marseille","lat":43.309589,"lon":5.390258,"is_reserved":false,"is_disabled":false,"rental_uris":{"android":"levelo://app?vid=7066edc4-1b63-4228-b65f-2471afbc3daa","ios":"levelo://app?vid=7066edc4-1b63-4228-b65f-2471afbc3daa"},"vehicle_type_id":"4","last_reported":1685732673,"current_range_meters":8800,"station_id":"ce4bgup2rcd13ifvqco0","pricing_plan_id":"free"},{"bike_id":"e524b04f-e7ab-4385-a510-dde838fdca44","system_id":"levelo_inurba_marseille","lat":43.309589,"lon":5.390258,"is_reserved":false,"is_disabled":false,"rental_uris":{"android":"levelo://app?vid=e524b04f-e7ab-4385-a510-dde838fdca44","ios":"levelo://app?vid=e524b04f-e7ab-4385-a510-dde838fdca44"},"vehicle_type_id":"4","last_reported":1685732673,"current_range_meters":12800,"station_id":"ce4bgup2rcd13ifvqco0","pricing_plan_id":"free"},{"bike_id":"33d3c139-01b6-4045-afdb-60b4e24965b0","system_id":"levelo_inurba_marseille","lat":43.309589,"lon":5.390258,"is_reserved":false,"is_disabled":false,"rental_uris":{"android":"levelo://app?vid=33d3c139-01b6-4045-afdb-60b4e24965b0","ios":"levelo://app?vid=33d3c139-01b6-4045-afdb-60b4e24965b0"},"vehicle_type_id":"4","last_reported":1685732673,"current_range_meters":4000,"station_id":"ce4bgup2rcd13ifvqco0","pricing_plan_id":"free"},{"bike_id":"5a886bf7-4cd5-486a-8aa5-5033011631be","system_id":"levelo_inurba_marseille","lat":43.309589,"lon":5.390258,"is_reserved":false,"is_disabled":false,"rental_uris":{"android":"levelo://app?vid=5a886bf7-4cd5-486a-8aa5-5033011631be","ios":"levelo://app?vid=5a886bf7-4cd5-486a-8aa5-5033011631be"},"vehicle_type_id":"4","last_reported":1685732673,"current_range_meters":21200,"station_id":"ce4bgup2rcd13ifvqco0","pricing_plan_id":"free"},{"bike_id":"11bb5bbc-864c-47e1-9f03-c9c194bd04b3","system_id":"levelo_inurba_marseille","lat":43.31772,"lon":5.38993,"is_reserved":false,"is_disabled":false,"rental_uris":{"android":"levelo://app?vid=11bb5bbc-864c-47e1-9f03-c9c194bd04b3","ios":"levelo://app?vid=11bb5bbc-864c-47e1-9f03-c9c194bd04b3"},"vehicle_type_id":"4","last_reported":1685732673,"current_range_meters":24400,"station_id":"ce4bhqp2rcd13ifvqhng","pricing_plan_id":"free"},{"bike_id":"7bd80476-7eb2-4616-adc4-14c8d31ad9fe","system_id":"levelo_inurba_marseille","lat":43.309589,"lon":5.390258,"is_reserved":false,"is_disabled":false,"rental_uris":{"android":"levelo://app?vid=7bd80476-7eb2-4616-adc4-14c8d31ad9fe","ios":"levelo://app?vid=7bd80476-7eb2-4616-adc4-14c8d31ad9fe"},"vehicle_type_id":"4","last_reported":1685732673,"current_range_meters":4400,"station_id":"ce4bgup2rcd13ifvqco0","pricing_plan_id":"free"},{"bike_id":"0bba8e8a-f48b-4061-8d9c-e09d8e2912a6","system_id":"levelo_inurba_marseille","lat":43.29647,"lon":5.37598,"is_reserved":false,"is_disabled":false,"rental_uris":{"android":"levelo://app?vid=0bba8e8a-f48b-4061-8d9c-e09d8e2912a6","ios":"levelo://app?vid=0bba8e8a-f48b-4061-8d9c-e09d8e2912a6"},"vehicle_type_id":"4","last_reported":1685732673,"current_range_meters":0,"station_id":"ce4bgi92rcd13ifvqb90","pricing_plan_id":"free"},{"bike_id":"77a92bc1-87d3-4a8c-a745-4a7c02a18dcf","system_id":"levelo_inurba_marseille","lat":43.29623,"lon":5.37703,"is_reserved":false,"is_disabled":false,"rental_uris":{"android":"levelo://app?vid=77a92bc1-87d3-4a8c-a745-4a7c02a18dcf","ios":"levelo://app?vid=77a92bc1-87d3-4a8c-a745-4a7c02a18dcf"},"vehicle_type_id":"4","last_reported":1685732673,"current_range_meters":0,"station_id":"ce4bgi92rcd13ifvqb90","pricing_plan_id":"free"},{"bike_id":"15e0e885-728f-4370-8c2c-bf35f9b30a04","system_id":"levelo_inurba_marseille","lat":43.304278,"lon":5.388868,"is_reserved":false,"is_disabled":false,"rental_uris":{"android":"levelo://app?vid=15e0e885-728f-4370-8c2c-bf35f9b30a04","ios":"levelo://app?vid=15e0e885-728f-4370-8c2c-bf35f9b30a04"},"vehicle_type_id":"4","last_reported":1685732673,"current_range_meters":2000,"station_id":"ce4bgk12rcd13ifvqbi0","pricing_plan_id":"free"},{"bike_id":"5e9b34cc-6637-41d2-9da1-d051e3333375","system_id":"levelo_inurba_marseille","lat":43.296263,"lon":5.377094,"is_reserved":false,"is_disabled":false,"rental_uris":{"android":"levelo://app?vid=5e9b34cc-6637-41d2-9da1-d051e3333375","ios":"levelo://app?vid=5e9b34cc-6637-41d2-9da1-d051e3333375"},"vehicle_type_id":"4","last_reported":1685732673,"current_range_meters":0,"station_id":"ce4bgi92rcd13ifvqb90","pricing_plan_id":"free"},{"bike_id":"739f14eb-07fb-4b2e-9301-d87bf4d07905","system_id":"levelo_inurba_marseille","lat":43.299707,"lon":5.384859,"is_reserved":false,"is_disabled":false,"rental_uris":{"android":"levelo://app?vid=739f14eb-07fb-4b2e-9301-d87bf4d07905","ios":"levelo://app?vid=739f14eb-07fb-4b2e-9301-d87bf4d07905"},"vehicle_type_id":"4","last_reported":1685732673,"current_range_meters":0,"station_id":"ce4bgj92rcd13ifvqbd0","pricing_plan_id":"free"},{"bike_id":"5590c375-64f4-41d1-bdea-75549c55cb0c","system_id":"levelo_inurba_marseille","lat":43.287154,"lon":5.399979,"is_reserved":false,"is_disabled":false,"rental_uris":{"android":"levelo://app?vid=5590c375-64f4-41d1-bdea-75549c55cb0c","ios":"levelo://app?vid=5590c375-64f4-41d1-bdea-75549c55cb0c"},"vehicle_type_id":"4","last_reported":1685732673,"current_range_meters":16400,"station_id":"ce4bho92rcd13ifvqh3g","pricing_plan_id":"free"},{"bike_id":"d9b3487e-4661-4b3b-a198-2212de300ca1","system_id":"levelo_inurba_marseille","lat":43.32359,"lon":5.38894,"is_reserved":false,"is_disabled":false,"rental_uris":{"android":"levelo://app?vid=d9b3487e-4661-4b3b-a198-2212de300ca1","ios":"levelo://app?vid=d9b3487e-4661-4b3b-a198-2212de300ca1"},"vehicle_type_id":"4","last_reported":1685732673,"current_range_meters":4400,"station_id":"ce4bhqp2rcd13ifvqhog","pricing_plan_id":"free"},{"bike_id":"ddd14c95-b246-46e8-8dd6-10414be08902","system_id":"levelo_inurba_marseille","lat":43.29601,"lon":5.381084,"is_reserved":false,"is_disabled":false,"rental_uris":{"android":"levelo://app?vid=ddd14c95-b246-46e8-8dd6-10414be08902","ios":"levelo://app?vid=ddd14c95-b246-46e8-8dd6-10414be08902"},"vehicle_type_id":"4","last_reported":1685732673,"current_range_meters":12400,"station_id":"ce4bgl12rcd13ifvqbo0","pricing_plan_id":"free"},{"bike_id":"24632d58-0432-49db-8e33-4c21a3af13b9","system_id":"levelo_inurba_marseille","lat":43.29601,"lon":5.381084,"is_reserved":false,"is_disabled":false,"rental_uris":{"android":"levelo://app?vid=24632d58-0432-49db-8e33-4c21a3af13b9","ios":"levelo://app?vid=24632d58-0432-49db-8e33-4c21a3af13b9"},"vehicle_type_id":"4","last_reported":1685732673,"current_range_meters":0,"station_id":"ce4bgl12rcd13ifvqbo0","pricing_plan_id":"free"},{"bike_id":"1ba9ec5c-cdef-453d-b4b6-d7d08eaaccc7","system_id":"levelo_inurba_marseille","lat":43.293249,"lon":5.371578,"is_reserved":false,"is_disabled":false,"rental_uris":{"android":"levelo://app?vid=1ba9ec5c-cdef-453d-b4b6-d7d08eaaccc7","ios":"levelo://app?vid=1ba9ec5c-cdef-453d-b4b6-d7d08eaaccc7"},"vehicle_type_id":"4","last_reported":1685732673,"current_range_meters":8400,"station_id":"ce4bgh92rcd13ifvqb40","pricing_plan_id":"free"},{"bike_id":"b539cb61-648e-41cb-8923-9e7f4838fb28","system_id":"levelo_inurba_marseille","lat":43.293249,"lon":5.371578,"is_reserved":false,"is_disabled":false,"rental_uris":{"android":"levelo://app?vid=b539cb61-648e-41cb-8923-9e7f4838fb28","ios":"levelo://app?vid=b539cb61-648e-41cb-8923-9e7f4838fb28"},"vehicle_type_id":"4","last_reported":1685732673,"current_range_meters":28000,"station_id":"ce4bgh92rcd13ifvqb40","pricing_plan_id":"free"},{"bike_id":"6fa6f9ab-0c81-4ef1-b586-afb90e07044b","system_id":"levelo_inurba_marseille","lat":43.293009,"lon":5.374584,"is_reserved":false,"is_disabled":false,"rental_uris":{"android":"levelo://app?vid=6fa6f9ab-0c81-4ef1-b586-afb90e07044b","ios":"levelo://app?vid=6fa6f9ab-0c81-4ef1-b586-afb90e07044b"},"vehicle_type_id":"4","last_reported":1685732673,"current_range_meters":0,"station_id":"ce4bgi12rcd13ifvqb70","pricing_plan_id":"free"},{"bike_id":"e71ea125-e565-4c3e-b864-b973a7f7daa6","system_id":"levelo_inurba_marseille","lat":43.305994,"lon":5.393687,"is_reserved":false,"is_disabled":false,"rental_uris":{"android":"levelo://app?vid=e71ea125-e565-4c3e-b864-b973a7f7daa6","ios":"levelo://app?vid=e71ea125-e565-4c3e-b864-b973a7f7daa6"},"vehicle_type_id":"4","last_reported":1685732673,"current_range_meters":800,"station_id":"ce4bh0p2rcd13ifvqd80","pricing_plan_id":"free"},{"bike_id":"396fa976-3d3b-4c60-a76e-14d599680df4","system_id":"levelo_inurba_marseille","lat":43.302992,"lon":5.392136,"is_reserved":false,"is_disabled":false,"rental_uris":{"android":"levelo://app?vid=396fa976-3d3b-4c60-a76e-14d599680df4","ios":"levelo://app?vid=396fa976-3d3b-4c60-a76e-14d599680df4"},"vehicle_type_id":"4","last_reported":1685732673,"current_range_meters":5200,"station_id":"ce4bgkh2rcd13ifvqbk0","pricing_plan_id":"free"},{"bike_id":"4e163e42-7d19-42be-bf77-064f5d08bd5f","system_id":"levelo_inurba_marseille","lat":43.302992,"lon":5.392136,"is_reserved":false,"is_disabled":false,"rental_uris":{"android":"levelo://app?vid=4e163e42-7d19-42be-bf77-064f5d08bd5f","ios":"levelo://app?vid=4e163e42-7d19-42be-bf77-064f5d08bd5f"},"vehicle_type_id":"4","last_reported":1685732673,"current_range_meters":14000,"station_id":"ce4bgkh2rcd13ifvqbk0","pricing_plan_id":"free"},{"bike_id":"389d442b-52f9-4bba-8a4a-c02f7dcde5c3","system_id":"levelo_inurba_marseille","lat":43.302992,"lon":5.392136,"is_reserved":false,"is_disabled":false,"rental_uris":{"android":"levelo://app?vid=389d442b-52f9-4bba-8a4a-c02f7dcde5c3","ios":"levelo://app?vid=389d442b-52f9-4bba-8a4a-c02f7dcde5c3"},"vehicle_type_id":"4","last_reported":1685732673,"current_range_meters":10400,"station_id":"ce4bgkh2rcd13ifvqbk0","pricing_plan_id":"free"},{"bike_id":"34a640f2-df39-44ba-af2e-57db29c6e2b1","system_id":"levelo_inurba_marseille","lat":43.302992,"lon":5.392136,"is_reserved":false,"is_disabled":false,"rental_uris":{"android":"levelo://app?vid=34a640f2-df39-44ba-af2e-57db29c6e2b1","ios":"levelo://app?vid=34a640f2-df39-44ba-af2e-57db29c6e2b1"},"vehicle_type_id":"4","last_reported":1685732673,"current_range_meters":15600,"station_id":"ce4bgkh2rcd13ifvqbk0","pricing_plan_id":"free"},{"bike_id":"a31a67ba-dc83-46e5-b131-0d4e91e62137","system_id":"levelo_inurba_marseille","lat":43.292276,"lon":5.360535,"is_reserved":false,"is_disabled":false,"rental_uris":{"android":"levelo://app?vid=a31a67ba-dc83-46e5-b131-0d4e91e62137","ios":"levelo://app?vid=a31a67ba-dc83-46e5-b131-0d4e91e62137"},"vehicle_type_id":"4","last_reported":1685732673,"current_range_meters":10400,"station_id":"","pricing_plan_id":"free"},{"bike_id":"7b717d68-6a07-48e9-86c9-8b349ec836e9","system_id":"levelo_inurba_marseille","lat":43.292663,"lon":5.376389,"is_reserved":false,"is_disabled":false,"rental_uris":{"android":"levelo://app?vid=7b717d68-6a07-48e9-86c9-8b349ec836e9","ios":"levelo://app?vid=7b717d68-6a07-48e9-86c9-8b349ec836e9"},"vehicle_type_id":"4","last_reported":1685732673,"current_range_meters":0,"station_id":"ce4bgi12rcd13ifvqb80","pricing_plan_id":"free"},{"bike_id":"16d58d11-d207-4f85-b55d-c32be8a1d2e0","system_id":"levelo_inurba_marseille","lat":43.291675,"lon":5.371583,"is_reserved":false,"is_disabled":false,"rental_uris":{"android":"levelo://app?vid=16d58d11-d207-4f85-b55d-c32be8a1d2e0","ios":"levelo://app?vid=16d58d11-d207-4f85-b55d-c32be8a1d2e0"},"vehicle_type_id":"4","last_reported":1685732673,"current_range_meters":0,"station_id":"ce4bha92rcd13ifvqeh0","pricing_plan_id":"free"},{"bike_id":"dd3bbe6a-a3a9-4dcd-85c7-7d0c38bebdad","system_id":"levelo_inurba_marseille","lat":43.291675,"lon":5.371583,"is_reserved":false,"is_disabled":false,"rental_uris":{"android":"levelo://app?vid=dd3bbe6a-a3a9-4dcd-85c7-7d0c38bebdad","ios":"levelo://app?vid=dd3bbe6a-a3a9-4dcd-85c7-7d0c38bebdad"},"vehicle_type_id":"4","last_reported":1685732673,"current_range_meters":2400,"station_id":"ce4bha92rcd13ifvqeh0","pricing_plan_id":"free"},{"bike_id":"3625b783-1b4d-43aa-ba1b-96e3f43a076c","system_id":"levelo_inurba_marseille","lat":43.29162,"lon":5.37166,"is_reserved":false,"is_disabled":false,"rental_uris":{"android":"levelo://app?vid=3625b783-1b4d-43aa-ba1b-96e3f43a076c","ios":"levelo://app?vid=3625b783-1b4d-43aa-ba1b-96e3f43a076c"},"vehicle_type_id":"4","last_reported":1685732673,"current_range_meters":4400,"station_id":"ce4bha92rcd13ifvqeh0","pricing_plan_id":"free"},{"bike_id":"1fec19ee-1098-46a8-aadc-1a58dd59bc74","system_id":"levelo_inurba_marseille","lat":43.291675,"lon":5.371583,"is_reserved":false,"is_disabled":false,"rental_uris":{"android":"levelo://app?vid=1fec19ee-1098-46a8-aadc-1a58dd59bc74","ios":"levelo://app?vid=1fec19ee-1098-46a8-aadc-1a58dd59bc74"},"vehicle_type_id":"4","last_reported":1685732673,"current_range_meters":0,"station_id":"ce4bha92rcd13ifvqeh0","pricing_plan_id":"free"},{"bike_id":"d1a6650d-935a-419a-a873-62e13d60b6c2","system_id":"levelo_inurba_marseille","lat":43.309038,"lon":5.396546,"is_reserved":false,"is_disabled":false,"rental_uris":{"android":"levelo://app?vid=d1a6650d-935a-419a-a873-62e13d60b6c2","ios":"levelo://app?vid=d1a6650d-935a-419a-a873-62e13d60b6c2"},"vehicle_type_id":"4","last_reported":1685732673,"current_range_meters":14000,"station_id":"ce4bh012rcd13ifvqcv0","pricing_plan_id":"free"},{"bike_id":"5a660338-3281-43aa-affc-986af7b1f5e7","system_id":"levelo_inurba_marseille","lat":43.31938,"lon":5.39565,"is_reserved":false,"is_disabled":false,"rental_uris":{"android":"levelo://app?vid=5a660338-3281-43aa-affc-986af7b1f5e7","ios":"levelo://app?vid=5a660338-3281-43aa-affc-986af7b1f5e7"},"vehicle_type_id":"4","last_reported":1685732673,"current_range_meters":2000,"station_id":"","pricing_plan_id":"free"},{"bike_id":"94a0100b-6a8c-4bb7-87df-360a51af980a","system_id":"levelo_inurba_marseille","lat":43.309038,"lon":5.396546,"is_reserved":false,"is_disabled":false,"rental_uris":{"android":"levelo://app?vid=94a0100b-6a8c-4bb7-87df-360a51af980a","ios":"levelo://app?vid=94a0100b-6a8c-4bb7-87df-360a51af980a"},"vehicle_type_id":"4","last_reported":1685732673,"current_range_meters":15200,"station_id":"ce4bh012rcd13ifvqcv0","pricing_plan_id":"free"},{"bike_id":"75a9601f-24f7-4bdd-88f5-c3d43619659e","system_id":"levelo_inurba_marseille","lat":43.309038,"lon":5.396546,"is_reserved":false,"is_disabled":false,"rental_uris":{"android":"levelo://app?vid=75a9601f-24f7-4bdd-88f5-c3d43619659e","ios":"levelo://app?vid=75a9601f-24f7-4bdd-88f5-c3d43619659e"},"vehicle_type_id":"4","last_reported":1685732673,"current_range_meters":2800,"station_id":"ce4bh012rcd13ifvqcv0","pricing_plan_id":"free"},{"bike_id":"5d214d27-d183-4632-bba1-69507e37084a","system_id":"levelo_inurba_marseille","lat":43.29529,"lon":5.385581,"is_reserved":false,"is_disabled":false,"rental_uris":{"android":"levelo://app?vid=5d214d27-d183-4632-bba1-69507e37084a","ios":"levelo://app?vid=5d214d27-d183-4632-bba1-69507e37084a"},"vehicle_type_id":"4","last_reported":1685732673,"current_range_meters":0,"station_id":"ce4bgih2rcd13ifvqba0","pricing_plan_id":"free"},{"bike_id":"9a073a0c-a658-420e-bee0-970db77a5fa3","system_id":"levelo_inurba_marseille","lat":43.295274,"lon":5.385449,"is_reserved":false,"is_disabled":false,"rental_uris":{"android":"levelo://app?vid=9a073a0c-a658-420e-bee0-970db77a5fa3","ios":"levelo://app?vid=9a073a0c-a658-420e-bee0-970db77a5fa3"},"vehicle_type_id":"4","last_reported":1685732673,"current_range_meters":10000,"station_id":"ce4bgih2rcd13ifvqba0","pricing_plan_id":"free"},{"bike_id":"a1d588f9-8125-4a8f-9f59-c1cf1bdc5430","system_id":"levelo_inurba_marseille","lat":43.32817,"lon":5.38917,"is_reserved":false,"is_disabled":false,"rental_uris":{"android":"levelo://app?vid=a1d588f9-8125-4a8f-9f59-c1cf1bdc5430","ios":"levelo://app?vid=a1d588f9-8125-4a8f-9f59-c1cf1bdc5430"},"vehicle_type_id":"4","last_reported":1685732673,"current_range_meters":20000,"station_id":"","pricing_plan_id":"free"},{"bike_id":"20600db3-62d7-4574-a480-a00649a0076a","system_id":"levelo_inurba_marseille","lat":43.302008,"lon":5.394694,"is_reserved":false,"is_disabled":false,"rental_uris":{"android":"levelo://app?vid=20600db3-62d7-4574-a480-a00649a0076a","ios":"levelo://app?vid=20600db3-62d7-4574-a480-a00649a0076a"},"vehicle_type_id":"4","last_reported":1685732673,"current_range_meters":21200,"station_id":"ce4bh0p2rcd13ifvqd70","pricing_plan_id":"free"},{"bike_id":"5ca216cf-762f-4b7c-9fa7-cf94a074bcaa","system_id":"levelo_inurba_marseille","lat":43.289184,"lon":5.366408,"is_reserved":false,"is_disabled":false,"rental_uris":{"android":"levelo://app?vid=5ca216cf-762f-4b7c-9fa7-cf94a074bcaa","ios":"levelo://app?vid=5ca216cf-762f-4b7c-9fa7-cf94a074bcaa"},"vehicle_type_id":"4","last_reported":1685732673,"current_range_meters":31200,"station_id":"ce4bhap2rcd13ifvqek0","pricing_plan_id":"free"},{"bike_id":"c3a46492-6d62-410e-ac28-072375fe3469","system_id":"levelo_inurba_marseille","lat":43.29278,"lon":5.38445,"is_reserved":false,"is_disabled":false,"rental_uris":{"android":"levelo://app?vid=c3a46492-6d62-410e-ac28-072375fe3469","ios":"levelo://app?vid=c3a46492-6d62-410e-ac28-072375fe3469"},"vehicle_type_id":"4","last_reported":1685732673,"current_range_meters":0,"station_id":"ce4bh692rcd13ifvqea0","pricing_plan_id":"free"},{"bike_id":"2364282a-cb9d-46e5-8a93-f3855a133753","system_id":"levelo_inurba_marseille","lat":43.330384,"lon":5.389044,"is_reserved":false,"is_disabled":false,"rental_uris":{"android":"levelo://app?vid=2364282a-cb9d-46e5-8a93-f3855a133753","ios":"levelo://app?vid=2364282a-cb9d-46e5-8a93-f3855a133753"},"vehicle_type_id":"4","last_reported":1685732673,"current_range_meters":23200,"station_id":"ce4bhr92rcd13ifvqhrg","pricing_plan_id":"free"},{"bike_id":"ebde85b7-18e2-4a7f-8795-64dcad98cb8f","system_id":"levelo_inurba_marseille","lat":43.292644,"lon":5.384257,"is_reserved":false,"is_disabled":false,"rental_uris":{"android":"levelo://app?vid=ebde85b7-18e2-4a7f-8795-64dcad98cb8f","ios":"levelo://app?vid=ebde85b7-18e2-4a7f-8795-64dcad98cb8f"},"vehicle_type_id":"4","last_reported":1685732673,"current_range_meters":0,"station_id":"ce4bh692rcd13ifvqea0","pricing_plan_id":"free"},{"bike_id":"0e002b3e-9b1c-4faa-bbbf-4ab2a68c35b8","system_id":"levelo_inurba_marseille","lat":43.330442,"lon":5.389148,"is_reserved":false,"is_disabled":false,"rental_uris":{"android":"levelo://app?vid=0e002b3e-9b1c-4faa-bbbf-4ab2a68c35b8","ios":"levelo://app?vid=0e002b3e-9b1c-4faa-bbbf-4ab2a68c35b8"},"vehicle_type_id":"4","last_reported":1685732673,"current_range_meters":22800,"station_id":"ce4bhr92rcd13ifvqhrg","pricing_plan_id":"free"},{"bike_id":"a05aa7b2-65ae-4c00-9ac7-36200056da53","system_id":"levelo_inurba_marseille","lat":43.330442,"lon":5.389148,"is_reserved":false,"is_disabled":false,"rental_uris":{"android":"levelo://app?vid=a05aa7b2-65ae-4c00-9ac7-36200056da53","ios":"levelo://app?vid=a05aa7b2-65ae-4c00-9ac7-36200056da53"},"vehicle_type_id":"4","last_reported":1685732673,"current_range_meters":13600,"station_id":"ce4bhr92rcd13ifvqhrg","pricing_plan_id":"free"},{"bike_id":"b25a414f-80bf-4d82-8a89-d9d09c7452d8","system_id":"levelo_inurba_marseille","lat":43.33043,"lon":5.38921,"is_reserved":false,"is_disabled":false,"rental_uris":{"android":"levelo://app?vid=b25a414f-80bf-4d82-8a89-d9d09c7452d8","ios":"levelo://app?vid=b25a414f-80bf-4d82-8a89-d9d09c7452d8"},"vehicle_type_id":"4","last_reported":1685732673,"current_range_meters":400,"station_id":"ce4bhr92rcd13ifvqhrg","pricing_plan_id":"free"},{"bike_id":"7c995a4d-09b5-4768-beec-77d13020da45","system_id":"levelo_inurba_marseille","lat":43.29526,"lon":5.3904,"is_reserved":false,"is_disabled":false,"rental_uris":{"android":"levelo://app?vid=7c995a4d-09b5-4768-beec-77d13020da45","ios":"levelo://app?vid=7c995a4d-09b5-4768-beec-77d13020da45"},"vehicle_type_id":"4","last_reported":1685732673,"current_range_meters":0,"station_id":"ce4bh3p2rcd13ifvqdp0","pricing_plan_id":"free"},{"bike_id":"b96c54d0-1b4f-42a0-8ad2-ab0153b35ff8","system_id":"levelo_inurba_marseille","lat":43.295169,"lon":5.390426,"is_reserved":false,"is_disabled":false,"rental_uris":{"android":"levelo://app?vid=b96c54d0-1b4f-42a0-8ad2-ab0153b35ff8","ios":"levelo://app?vid=b96c54d0-1b4f-42a0-8ad2-ab0153b35ff8"},"vehicle_type_id":"4","last_reported":1685732673,"current_range_meters":4800,"station_id":"ce4bh3p2rcd13ifvqdp0","pricing_plan_id":"free"},{"bike_id":"ad5b4840-e614-40b9-9c19-ed4b3608048c","system_id":"levelo_inurba_marseille","lat":43.29017,"lon":5.38144,"is_reserved":false,"is_disabled":false,"rental_uris":{"android":"levelo://app?vid=ad5b4840-e614-40b9-9c19-ed4b3608048c","ios":"levelo://app?vid=ad5b4840-e614-40b9-9c19-ed4b3608048c"},"vehicle_type_id":"4","last_reported":1685732673,"current_range_meters":13200,"station_id":"ce4bh4p2rcd13ifvqe1g","pricing_plan_id":"free"},{"bike_id":"d6f96bce-653c-4ee0-ade6-68a5a5f0bcde","system_id":"levelo_inurba_marseille","lat":43.30642,"lon":5.401031,"is_reserved":false,"is_disabled":false,"rental_uris":{"android":"levelo://app?vid=d6f96bce-653c-4ee0-ade6-68a5a5f0bcde","ios":"levelo://app?vid=d6f96bce-653c-4ee0-ade6-68a5a5f0bcde"},"vehicle_type_id":"4","last_reported":1685732673,"current_range_meters":22000,"station_id":"ce4bh112rcd13ifvqda0","pricing_plan_id":"free"},{"bike_id":"178c8f48-bd41-4e96-a8d8-8f6b997a2dd2","system_id":"levelo_inurba_marseille","lat":43.298681,"lon":5.397225,"is_reserved":false,"is_disabled":false,"rental_uris":{"android":"levelo://app?vid=178c8f48-bd41-4e96-a8d8-8f6b997a2dd2","ios":"levelo://app?vid=178c8f48-bd41-4e96-a8d8-8f6b997a2dd2"},"vehicle_type_id":"4","last_reported":1685732673,"current_range_meters":20000,"station_id":"ce4bh0h2rcd13ifvqd50","pricing_plan_id":"free"},{"bike_id":"1cda9fc5-d11b-461e-bc6f-ba5e3d60c2c0","system_id":"levelo_inurba_marseille","lat":43.30642,"lon":5.401031,"is_reserved":false,"is_disabled":false,"rental_uris":{"android":"levelo://app?vid=1cda9fc5-d11b-461e-bc6f-ba5e3d60c2c0","ios":"levelo://app?vid=1cda9fc5-d11b-461e-bc6f-ba5e3d60c2c0"},"vehicle_type_id":"4","last_reported":1685732673,"current_range_meters":12000,"station_id":"ce4bh112rcd13ifvqda0","pricing_plan_id":"free"},{"bike_id":"a22bbed6-86a8-4dc1-be06-1dd12fd25a1f","system_id":"levelo_inurba_marseille","lat":43.337733,"lon":5.374753,"is_reserved":false,"is_disabled":false,"rental_uris":{"android":"levelo://app?vid=a22bbed6-86a8-4dc1-be06-1dd12fd25a1f","ios":"levelo://app?vid=a22bbed6-86a8-4dc1-be06-1dd12fd25a1f"},"vehicle_type_id":"4","last_reported":1685732673,"current_range_meters":0,"station_id":"","pricing_plan_id":"free"},{"bike_id":"cf0caa37-cec8-408b-98f7-37211a80813c","system_id":"levelo_inurba_marseille","lat":43.33783,"lon":5.37415,"is_reserved":false,"is_disabled":false,"rental_uris":{"android":"levelo://app?vid=cf0caa37-cec8-408b-98f7-37211a80813c","ios":"levelo://app?vid=cf0caa37-cec8-408b-98f7-37211a80813c"},"vehicle_type_id":"4","last_reported":1685732673,"current_range_meters":26000,"station_id":"","pricing_plan_id":"free"},{"bike_id":"7917f349-e1ff-4ad8-9141-6ec7a8cfd55e","system_id":"levelo_inurba_marseille","lat":43.30133,"lon":5.39863,"is_reserved":false,"is_disabled":false,"rental_uris":{"android":"levelo://app?vid=7917f349-e1ff-4ad8-9141-6ec7a8cfd55e","ios":"levelo://app?vid=7917f349-e1ff-4ad8-9141-6ec7a8cfd55e"},"vehicle_type_id":"4","last_reported":1685732673,"current_range_meters":16000,"station_id":"","pricing_plan_id":"free"},{"bike_id":"c3d6c2b9-bf7b-4786-ad36-c71f780b8565","system_id":"levelo_inurba_marseille","lat":43.301117,"lon":5.398795,"is_reserved":false,"is_disabled":false,"rental_uris":{"android":"levelo://app?vid=c3d6c2b9-bf7b-4786-ad36-c71f780b8565","ios":"levelo://app?vid=c3d6c2b9-bf7b-4786-ad36-c71f780b8565"},"vehicle_type_id":"4","last_reported":1685732673,"current_range_meters":17600,"station_id":"ce4bh0h2rcd13ifvqd40","pricing_plan_id":"free"},{"bike_id":"84db466a-95a3-4e13-91d5-52c81762dee2","system_id":"levelo_inurba_marseille","lat":43.28697,"lon":5.37398,"is_reserved":false,"is_disabled":false,"rental_uris":{"android":"levelo://app?vid=84db466a-95a3-4e13-91d5-52c81762dee2","ios":"levelo://app?vid=84db466a-95a3-4e13-91d5-52c81762dee2"},"vehicle_type_id":"4","last_reported":1685732673,"current_range_meters":400,"station_id":"","pricing_plan_id":"free"},{"bike_id":"1291281c-7acf-4ec3-84ef-209abb2795a3","system_id":"levelo_inurba_marseille","lat":43.30421,"lon":5.40131,"is_reserved":false,"is_disabled":false,"rental_uris":{"android":"levelo://app?vid=1291281c-7acf-4ec3-84ef-209abb2795a3","ios":"levelo://app?vid=1291281c-7acf-4ec3-84ef-209abb2795a3"},"vehicle_type_id":"4","last_reported":1685732673,"current_range_meters":3600,"station_id":"","pricing_plan_id":"free"},{"bike_id":"6ad14265-21da-489c-9657-0e9d03fb3019","system_id":"levelo_inurba_marseille","lat":43.302759,"lon":5.400793,"is_reserved":false,"is_disabled":false,"rental_uris":{"android":"levelo://app?vid=6ad14265-21da-489c-9657-0e9d03fb3019","ios":"levelo://app?vid=6ad14265-21da-489c-9657-0e9d03fb3019"},"vehicle_type_id":"4","last_reported":1685732673,"current_range_meters":12800,"station_id":"ce4bgvh2rcd13ifvqcs0","pricing_plan_id":"free"},{"bike_id":"82dbddc5-ac34-4c33-a673-c36681520e7e","system_id":"levelo_inurba_marseille","lat":43.302759,"lon":5.400793,"is_reserved":false,"is_disabled":false,"rental_uris":{"android":"levelo://app?vid=82dbddc5-ac34-4c33-a673-c36681520e7e","ios":"levelo://app?vid=82dbddc5-ac34-4c33-a673-c36681520e7e"},"vehicle_type_id":"4","last_reported":1685732673,"current_range_meters":800,"station_id":"ce4bgvh2rcd13ifvqcs0","pricing_plan_id":"free"},{"bike_id":"3e8cc21f-7152-4365-ab38-b5c5320de485","system_id":"levelo_inurba_marseille","lat":43.29024,"lon":5.38649,"is_reserved":false,"is_disabled":false,"rental_uris":{"android":"levelo://app?vid=3e8cc21f-7152-4365-ab38-b5c5320de485","ios":"levelo://app?vid=3e8cc21f-7152-4365-ab38-b5c5320de485"},"vehicle_type_id":"4","last_reported":1685732673,"current_range_meters":29600,"station_id":"ce4bh4p2rcd13ifvqe0g","pricing_plan_id":"free"},{"bike_id":"d38c839b-0f3d-4c02-87df-4abe0eda6afc","system_id":"levelo_inurba_marseille","lat":43.287184,"lon":5.37937,"is_reserved":false,"is_disabled":false,"rental_uris":{"android":"levelo://app?vid=d38c839b-0f3d-4c02-87df-4abe0eda6afc","ios":"levelo://app?vid=d38c839b-0f3d-4c02-87df-4abe0eda6afc"},"vehicle_type_id":"4","last_reported":1685732673,"current_range_meters":25600,"station_id":"ce4bh9p2rcd13ifvqec0","pricing_plan_id":"free"},{"bike_id":"9ee292ea-b24c-4a6f-9e43-1afe92b1aead","system_id":"levelo_inurba_marseille","lat":43.291994,"lon":5.392907,"is_reserved":false,"is_disabled":false,"rental_uris":{"android":"levelo://app?vid=9ee292ea-b24c-4a6f-9e43-1afe92b1aead","ios":"levelo://app?vid=9ee292ea-b24c-4a6f-9e43-1afe92b1aead"},"vehicle_type_id":"4","last_reported":1685732673,"current_range_meters":11200,"station_id":"ce4bh192rcd13ifvqdd0","pricing_plan_id":"free"},{"bike_id":"0ab2bb99-5423-4870-b6db-949f0e3d1789","system_id":"levelo_inurba_marseille","lat":43.28463,"lon":5.35892,"is_reserved":false,"is_disabled":false,"rental_uris":{"android":"levelo://app?vid=0ab2bb99-5423-4870-b6db-949f0e3d1789","ios":"levelo://app?vid=0ab2bb99-5423-4870-b6db-949f0e3d1789"},"vehicle_type_id":"4","last_reported":1685732673,"current_range_meters":0,"station_id":"ce4bhah2rcd13ifvqei0","pricing_plan_id":"free"},{"bike_id":"331e9842-19b6-49b6-8a58-383553e2b3c8","system_id":"levelo_inurba_marseille","lat":43.286595,"lon":5.386795,"is_reserved":false,"is_disabled":false,"rental_uris":{"android":"levelo://app?vid=331e9842-19b6-49b6-8a58-383553e2b3c8","ios":"levelo://app?vid=331e9842-19b6-49b6-8a58-383553e2b3c8"},"vehicle_type_id":"4","last_reported":1685732673,"current_range_meters":25600,"station_id":"ce4bh492rcd13ifvqdug","pricing_plan_id":"free"},{"bike_id":"b205e703-9cc6-479d-b47b-dcec15459f4d","system_id":"levelo_inurba_marseille","lat":43.32706,"lon":5.40364,"is_reserved":false,"is_disabled":false,"rental_uris":{"android":"levelo://app?vid=b205e703-9cc6-479d-b47b-dcec15459f4d","ios":"levelo://app?vid=b205e703-9cc6-479d-b47b-dcec15459f4d"},"vehicle_type_id":"4","last_reported":1685732673,"current_range_meters":20800,"station_id":"","pricing_plan_id":"free"},{"bike_id":"9b0f1e77-ed70-468a-bee9-4933c54bd71a","system_id":"levelo_inurba_marseille","lat":43.284793,"lon":5.384119,"is_reserved":false,"is_disabled":false,"rental_uris":{"android":"levelo://app?vid=9b0f1e77-ed70-468a-bee9-4933c54bd71a","ios":"levelo://app?vid=9b0f1e77-ed70-468a-bee9-4933c54bd71a"},"vehicle_type_id":"4","last_reported":1685732673,"current_range_meters":0,"station_id":"ce4bh512rcd13ifvqe3g","pricing_plan_id":"free"},{"bike_id":"6068172f-e269-4882-b7da-3bd77b7229d0","system_id":"levelo_inurba_marseille","lat":43.2479,"lon":5.374457,"is_reserved":false,"is_disabled":false,"rental_uris":{"android":"levelo://app?vid=6068172f-e269-4882-b7da-3bd77b7229d0","ios":"levelo://app?vid=6068172f-e269-4882-b7da-3bd77b7229d0"},"vehicle_type_id":"4","last_reported":1685732673,"current_range_meters":12800,"station_id":"ce4bhgh2rcd13ifvqfb0","pricing_plan_id":"free"},{"bike_id":"c38b2f5f-8aa1-48f7-ae03-e09b06e5b549","system_id":"levelo_inurba_marseille","lat":43.28479,"lon":5.38462,"is_reserved":false,"is_disabled":false,"rental_uris":{"android":"levelo://app?vid=c38b2f5f-8aa1-48f7-ae03-e09b06e5b549","ios":"levelo://app?vid=c38b2f5f-8aa1-48f7-ae03-e09b06e5b549"},"vehicle_type_id":"4","last_reported":1685732673,"current_range_meters":0,"station_id":"ce4bh4p2rcd13ifvqe1g","pricing_plan_id":"free"},{"bike_id":"24611358-82be-4b69-8bfa-f95698fb6643","system_id":"levelo_inurba_marseille","lat":43.284192,"lon":5.349725,"is_reserved":false,"is_disabled":false,"rental_uris":{"android":"levelo://app?vid=24611358-82be-4b69-8bfa-f95698fb6643","ios":"levelo://app?vid=24611358-82be-4b69-8bfa-f95698fb6643"},"vehicle_type_id":"4","last_reported":1685732673,"current_range_meters":20000,"station_id":"ce4bhbh2rcd13ifvqepg","pricing_plan_id":"free"},{"bike_id":"0d8a4852-bbf0-48bb-9174-fa85323c764e","system_id":"levelo_inurba_marseille","lat":43.283502,"lon":5.386471,"is_reserved":false,"is_disabled":false,"rental_uris":{"android":"levelo://app?vid=0d8a4852-bbf0-48bb-9174-fa85323c764e","ios":"levelo://app?vid=0d8a4852-bbf0-48bb-9174-fa85323c764e"},"vehicle_type_id":"4","last_reported":1685732673,"current_range_meters":0,"station_id":"ce4bh492rcd13ifvqdvg","pricing_plan_id":"free"},{"bike_id":"e3986019-5c24-4c23-8d6b-5d838e8ec3bb","system_id":"levelo_inurba_marseille","lat":43.280382,"lon":5.369291,"is_reserved":false,"is_disabled":false,"rental_uris":{"android":"levelo://app?vid=e3986019-5c24-4c23-8d6b-5d838e8ec3bb","ios":"levelo://app?vid=e3986019-5c24-4c23-8d6b-5d838e8ec3bb"},"vehicle_type_id":"4","last_reported":1685732673,"current_range_meters":26800,"station_id":"ce4bha12rcd13ifvqef0","pricing_plan_id":"free"},{"bike_id":"2ccc2411-aa29-4a0b-9fbb-b2ba7eded689","system_id":"levelo_inurba_marseille","lat":43.284462,"lon":5.392121,"is_reserved":false,"is_disabled":false,"rental_uris":{"android":"levelo://app?vid=2ccc2411-aa29-4a0b-9fbb-b2ba7eded689","ios":"levelo://app?vid=2ccc2411-aa29-4a0b-9fbb-b2ba7eded689"},"vehicle_type_id":"4","last_reported":1685732673,"current_range_meters":12000,"station_id":"ce4bhoh2rcd13ifvqh5g","pricing_plan_id":"free"},{"bike_id":"b1abc047-b03a-4f97-bc76-2fe640179450","system_id":"levelo_inurba_marseille","lat":43.284462,"lon":5.392121,"is_reserved":false,"is_disabled":false,"rental_uris":{"android":"levelo://app?vid=b1abc047-b03a-4f97-bc76-2fe640179450","ios":"levelo://app?vid=b1abc047-b03a-4f97-bc76-2fe640179450"},"vehicle_type_id":"4","last_reported":1685732673,"current_range_meters":10000,"station_id":"ce4bhoh2rcd13ifvqh5g","pricing_plan_id":"free"},{"bike_id":"38937141-658c-46c5-8d7f-46d86900887d","system_id":"levelo_inurba_marseille","lat":43.284462,"lon":5.392121,"is_reserved":false,"is_disabled":false,"rental_uris":{"android":"levelo://app?vid=38937141-658c-46c5-8d7f-46d86900887d","ios":"levelo://app?vid=38937141-658c-46c5-8d7f-46d86900887d"},"vehicle_type_id":"4","last_reported":1685732673,"current_range_meters":0,"station_id":"ce4bhoh2rcd13ifvqh5g","pricing_plan_id":"free"},{"bike_id":"d29a18ef-f374-4efc-9083-4246d90a6a44","system_id":"levelo_inurba_marseille","lat":43.287154,"lon":5.399979,"is_reserved":false,"is_disabled":false,"rental_uris":{"android":"levelo://app?vid=d29a18ef-f374-4efc-9083-4246d90a6a44","ios":"levelo://app?vid=d29a18ef-f374-4efc-9083-4246d90a6a44"},"vehicle_type_id":"4","last_reported":1685732673,"current_range_meters":0,"station_id":"ce4bho92rcd13ifvqh3g","pricing_plan_id":"free"},{"bike_id":"54e5dd1d-dc1a-47b6-87ac-0f7bebf5753d","system_id":"levelo_inurba_marseille","lat":43.28715,"lon":5.3999,"is_reserved":false,"is_disabled":false,"rental_uris":{"android":"levelo://app?vid=54e5dd1d-dc1a-47b6-87ac-0f7bebf5753d","ios":"levelo://app?vid=54e5dd1d-dc1a-47b6-87ac-0f7bebf5753d"},"vehicle_type_id":"4","last_reported":1685732673,"current_range_meters":0,"station_id":"ce4bho92rcd13ifvqh3g","pricing_plan_id":"free"},{"bike_id":"1369d806-cbd0-4ac2-8e15-76f31fe68db0","system_id":"levelo_inurba_marseille","lat":43.287154,"lon":5.399979,"is_reserved":false,"is_disabled":false,"rental_uris":{"android":"levelo://app?vid=1369d806-cbd0-4ac2-8e15-76f31fe68db0","ios":"levelo://app?vid=1369d806-cbd0-4ac2-8e15-76f31fe68db0"},"vehicle_type_id":"4","last_reported":1685732673,"current_range_meters":14400,"station_id":"ce4bho92rcd13ifvqh3g","pricing_plan_id":"free"},{"bike_id":"e48eb9d0-c53c-4647-8a80-7c5d8ff7d3f0","system_id":"levelo_inurba_marseille","lat":43.28705,"lon":5.399857,"is_reserved":false,"is_disabled":false,"rental_uris":{"android":"levelo://app?vid=e48eb9d0-c53c-4647-8a80-7c5d8ff7d3f0","ios":"levelo://app?vid=e48eb9d0-c53c-4647-8a80-7c5d8ff7d3f0"},"vehicle_type_id":"4","last_reported":1685732673,"current_range_meters":17600,"station_id":"","pricing_plan_id":"free"},{"bike_id":"35e274e7-a809-4024-93ad-28e60b2703fb","system_id":"levelo_inurba_marseille","lat":43.299579,"lon":5.413255,"is_reserved":false,"is_disabled":false,"rental_uris":{"android":"levelo://app?vid=35e274e7-a809-4024-93ad-28e60b2703fb","ios":"levelo://app?vid=35e274e7-a809-4024-93ad-28e60b2703fb"},"vehicle_type_id":"4","last_reported":1685732673,"current_range_meters":7600,"station_id":"ce4bhp12rcd13ifvqh9g","pricing_plan_id":"free"},{"bike_id":"e5ae0101-db1d-447f-bbea-ea84dcbceac3","system_id":"levelo_inurba_marseille","lat":43.299579,"lon":5.413255,"is_reserved":false,"is_disabled":false,"rental_uris":{"android":"levelo://app?vid=e5ae0101-db1d-447f-bbea-ea84dcbceac3","ios":"levelo://app?vid=e5ae0101-db1d-447f-bbea-ea84dcbceac3"},"vehicle_type_id":"4","last_reported":1685732673,"current_range_meters":12400,"station_id":"ce4bhp12rcd13ifvqh9g","pricing_plan_id":"free"},{"bike_id":"8d76fbbb-bd82-49ac-8501-3064a2cef743","system_id":"levelo_inurba_marseille","lat":43.27702,"lon":5.37789,"is_reserved":false,"is_disabled":false,"rental_uris":{"android":"levelo://app?vid=8d76fbbb-bd82-49ac-8501-3064a2cef743","ios":"levelo://app?vid=8d76fbbb-bd82-49ac-8501-3064a2cef743"},"vehicle_type_id":"4","last_reported":1685732673,"current_range_meters":400,"station_id":"","pricing_plan_id":"free"},{"bike_id":"0868fe83-cce3-4e6a-b51e-0e0cb2b430dd","system_id":"levelo_inurba_marseille","lat":43.276179,"lon":5.361009,"is_reserved":false,"is_disabled":false,"rental_uris":{"android":"levelo://app?vid=0868fe83-cce3-4e6a-b51e-0e0cb2b430dd","ios":"levelo://app?vid=0868fe83-cce3-4e6a-b51e-0e0cb2b430dd"},"vehicle_type_id":"4","last_reported":1685732673,"current_range_meters":15600,"station_id":"ce4bgj92rcd13ifvqbe0","pricing_plan_id":"free"},{"bike_id":"e3dea942-ac98-4a36-b548-71bf8e01eec9","system_id":"levelo_inurba_marseille","lat":43.278401,"lon":5.392152,"is_reserved":false,"is_disabled":false,"rental_uris":{"android":"levelo://app?vid=e3dea942-ac98-4a36-b548-71bf8e01eec9","ios":"levelo://app?vid=e3dea942-ac98-4a36-b548-71bf8e01eec9"},"vehicle_type_id":"4","last_reported":1685732673,"current_range_meters":5600,"station_id":"ce4bhjp2rcd13ifvqga0","pricing_plan_id":"free"},{"bike_id":"11a3b2b8-3b55-4e1e-80c6-8a2307949caf","system_id":"levelo_inurba_marseille","lat":43.317121,"lon":5.423936,"is_reserved":false,"is_disabled":false,"rental_uris":{"android":"levelo://app?vid=11a3b2b8-3b55-4e1e-80c6-8a2307949caf","ios":"levelo://app?vid=11a3b2b8-3b55-4e1e-80c6-8a2307949caf"},"vehicle_type_id":"4","last_reported":1685732673,"current_range_meters":26800,"station_id":"ce4bhp92rcd13ifvqhbg","pricing_plan_id":"free"},{"bike_id":"e55a8298-55fa-41b7-a03c-2e4c0294cff8","system_id":"levelo_inurba_marseille","lat":43.28079,"lon":5.40554,"is_reserved":false,"is_disabled":false,"rental_uris":{"android":"levelo://app?vid=e55a8298-55fa-41b7-a03c-2e4c0294cff8","ios":"levelo://app?vid=e55a8298-55fa-41b7-a03c-2e4c0294cff8"},"vehicle_type_id":"4","last_reported":1685732673,"current_range_meters":1600,"station_id":"","pricing_plan_id":"free"},{"bike_id":"df298060-3922-4ed5-afa6-fd870bff818d","system_id":"levelo_inurba_marseille","lat":43.273125,"lon":5.390731,"is_reserved":false,"is_disabled":false,"rental_uris":{"android":"levelo://app?vid=df298060-3922-4ed5-afa6-fd870bff818d","ios":"levelo://app?vid=df298060-3922-4ed5-afa6-fd870bff818d"},"vehicle_type_id":"4","last_reported":1685732673,"current_range_meters":30000,"station_id":"ce4bhgp2rcd13ifvqfe0","pricing_plan_id":"free"},{"bike_id":"79588439-e9fc-4623-be00-11f562b4b75f","system_id":"levelo_inurba_marseille","lat":43.272116,"lon":5.391763,"is_reserved":false,"is_disabled":false,"rental_uris":{"android":"levelo://app?vid=79588439-e9fc-4623-be00-11f562b4b75f","ios":"levelo://app?vid=79588439-e9fc-4623-be00-11f562b4b75f"},"vehicle_type_id":"4","last_reported":1685732673,"current_range_meters":5600,"station_id":"ce4bhhp2rcd13ifvqfm0","pricing_plan_id":"free"},{"bike_id":"477c9b24-a1bd-4af2-9e3a-7a10b9af13d1","system_id":"levelo_inurba_marseille","lat":43.3171,"lon":5.43306,"is_reserved":false,"is_disabled":false,"rental_uris":{"android":"levelo://app?vid=477c9b24-a1bd-4af2-9e3a-7a10b9af13d1","ios":"levelo://app?vid=477c9b24-a1bd-4af2-9e3a-7a10b9af13d1"},"vehicle_type_id":"4","last_reported":1685732673,"current_range_meters":0,"station_id":"","pricing_plan_id":"free"},{"bike_id":"97911575-0740-4ace-9259-7ac6b2b09d9e","system_id":"levelo_inurba_marseille","lat":43.28321,"lon":5.42397,"is_reserved":false,"is_disabled":false,"rental_uris":{"android":"levelo://app?vid=97911575-0740-4ace-9259-7ac6b2b09d9e","ios":"levelo://app?vid=97911575-0740-4ace-9259-7ac6b2b09d9e"},"vehicle_type_id":"4","last_reported":1685732673,"current_range_meters":5600,"station_id":"","pricing_plan_id":"free"},{"bike_id":"f112a29f-a3ea-41f9-a998-74310cf98574","system_id":"levelo_inurba_marseille","lat":43.26186,"lon":5.37442,"is_reserved":false,"is_disabled":false,"rental_uris":{"android":"levelo://app?vid=f112a29f-a3ea-41f9-a998-74310cf98574","ios":"levelo://app?vid=f112a29f-a3ea-41f9-a998-74310cf98574"},"vehicle_type_id":"4","last_reported":1685732673,"current_range_meters":5600,"station_id":"ce4bhgp2rcd13ifvqfc0","pricing_plan_id":"free"},{"bike_id":"450651b5-5e98-4a29-acd8-67acccbd55ad","system_id":"levelo_inurba_marseille","lat":43.26202,"lon":5.379299,"is_reserved":false,"is_disabled":false,"rental_uris":{"android":"levelo://app?vid=450651b5-5e98-4a29-acd8-67acccbd55ad","ios":"levelo://app?vid=450651b5-5e98-4a29-acd8-67acccbd55ad"},"vehicle_type_id":"4","last_reported":1685732673,"current_range_meters":0,"station_id":"ce4bhjp2rcd13ifvqg90","pricing_plan_id":"free"},{"bike_id":"90e5336b-ed61-4342-91f1-88dce211301d","system_id":"levelo_inurba_marseille","lat":43.2621,"lon":5.37927,"is_reserved":false,"is_disabled":false,"rental_uris":{"android":"levelo://app?vid=90e5336b-ed61-4342-91f1-88dce211301d","ios":"levelo://app?vid=90e5336b-ed61-4342-91f1-88dce211301d"},"vehicle_type_id":"4","last_reported":1685732673,"current_range_meters":27200,"station_id":"","pricing_plan_id":"free"},{"bike_id":"ab86ba0b-7516-46af-919e-b0998a18ec8d","system_id":"levelo_inurba_marseille","lat":43.267959,"lon":5.402685,"is_reserved":false,"is_disabled":false,"rental_uris":{"android":"levelo://app?vid=ab86ba0b-7516-46af-919e-b0998a18ec8d","ios":"levelo://app?vid=ab86ba0b-7516-46af-919e-b0998a18ec8d"},"vehicle_type_id":"4","last_reported":1685732673,"current_range_meters":4000,"station_id":"ce501612rcd8frsf0b60","pricing_plan_id":"free"},{"bike_id":"08a78d37-e4b4-401d-9bef-8be72191754e","system_id":"levelo_inurba_marseille","lat":43.267959,"lon":5.402687,"is_reserved":false,"is_disabled":false,"rental_uris":{"android":"levelo://app?vid=08a78d37-e4b4-401d-9bef-8be72191754e","ios":"levelo://app?vid=08a78d37-e4b4-401d-9bef-8be72191754e"},"vehicle_type_id":"4","last_reported":1685732673,"current_range_meters":4800,"station_id":"ce501612rcd8frsf0b60","pricing_plan_id":"free"},{"bike_id":"8458c228-4155-4fea-8301-ac2dbf744726","system_id":"levelo_inurba_marseille","lat":43.260219,"lon":5.37546,"is_reserved":false,"is_disabled":false,"rental_uris":{"android":"levelo://app?vid=8458c228-4155-4fea-8301-ac2dbf744726","ios":"levelo://app?vid=8458c228-4155-4fea-8301-ac2dbf744726"},"vehicle_type_id":"4","last_reported":1685732673,"current_range_meters":2800,"station_id":"ce4bhgh2rcd13ifvqfa0","pricing_plan_id":"free"},{"bike_id":"719aa484-f76a-4b30-b2fd-8ade819965af","system_id":"levelo_inurba_marseille","lat":43.255756,"lon":5.382303,"is_reserved":false,"is_disabled":false,"rental_uris":{"android":"levelo://app?vid=719aa484-f76a-4b30-b2fd-8ade819965af","ios":"levelo://app?vid=719aa484-f76a-4b30-b2fd-8ade819965af"},"vehicle_type_id":"4","last_reported":1685732673,"current_range_meters":7600,"station_id":"ce4bhih2rcd13ifvqfs0","pricing_plan_id":"free"},{"bike_id":"0a3adffc-5c28-4831-9fb5-b37fc9aefbf3","system_id":"levelo_inurba_marseille","lat":43.270721,"lon":5.422764,"is_reserved":false,"is_disabled":false,"rental_uris":{"android":"levelo://app?vid=0a3adffc-5c28-4831-9fb5-b37fc9aefbf3","ios":"levelo://app?vid=0a3adffc-5c28-4831-9fb5-b37fc9aefbf3"},"vehicle_type_id":"4","last_reported":1685732673,"current_range_meters":20000,"station_id":"ce4bhk92rcd13ifvqgb0","pricing_plan_id":"free"},{"bike_id":"d1ee41e5-606e-4a2e-bc77-7ba40ac75fd1","system_id":"levelo_inurba_marseille","lat":43.25934,"lon":5.4091,"is_reserved":false,"is_disabled":false,"rental_uris":{"android":"levelo://app?vid=d1ee41e5-606e-4a2e-bc77-7ba40ac75fd1","ios":"levelo://app?vid=d1ee41e5-606e-4a2e-bc77-7ba40ac75fd1"},"vehicle_type_id":"4","last_reported":1685732673,"current_range_meters":5600,"station_id":"","pricing_plan_id":"free"},{"bike_id":"41c2590e-164d-41e9-b96b-588d43dd2f8b","system_id":"levelo_inurba_marseille","lat":43.28121,"lon":5.44042,"is_reserved":false,"is_disabled":false,"rental_uris":{"android":"levelo://app?vid=41c2590e-164d-41e9-b96b-588d43dd2f8b","ios":"levelo://app?vid=41c2590e-164d-41e9-b96b-588d43dd2f8b"},"vehicle_type_id":"4","last_reported":1685732673,"current_range_meters":11200,"station_id":"","pricing_plan_id":"free"},{"bike_id":"690c8e90-9aef-467a-8ac3-d1d46596a699","system_id":"levelo_inurba_marseille","lat":43.25007,"lon":5.38912,"is_reserved":false,"is_disabled":false,"rental_uris":{"android":"levelo://app?vid=690c8e90-9aef-467a-8ac3-d1d46596a699","ios":"levelo://app?vid=690c8e90-9aef-467a-8ac3-d1d46596a699"},"vehicle_type_id":"4","last_reported":1685732673,"current_range_meters":25200,"station_id":"ce4bhgp2rcd13ifvqfd0","pricing_plan_id":"free"},{"bike_id":"84d670f2-1f38-4780-92f5-e5fceb43ddb5","system_id":"levelo_inurba_marseille","lat":43.250966,"lon":5.395186,"is_reserved":false,"is_disabled":false,"rental_uris":{"android":"levelo://app?vid=84d670f2-1f38-4780-92f5-e5fceb43ddb5","ios":"levelo://app?vid=84d670f2-1f38-4780-92f5-e5fceb43ddb5"},"vehicle_type_id":"4","last_reported":1685732673,"current_range_meters":18000,"station_id":"ce4bhm12rcd13ifvqgkg","pricing_plan_id":"free"},{"bike_id":"6b440d25-859d-4fd4-82cc-330fdaec9ad2","system_id":"levelo_inurba_marseille","lat":43.25102,"lon":5.403214,"is_reserved":false,"is_disabled":false,"rental_uris":{"android":"levelo://app?vid=6b440d25-859d-4fd4-82cc-330fdaec9ad2","ios":"levelo://app?vid=6b440d25-859d-4fd4-82cc-330fdaec9ad2"},"vehicle_type_id":"4","last_reported":1685732673,"current_range_meters":13600,"station_id":"ce4bhlh2rcd13ifvqgig","pricing_plan_id":"free"},{"bike_id":"3304eb17-432b-4485-82a0-2a0deee18c9d","system_id":"levelo_inurba_marseille","lat":43.24886,"lon":5.39759,"is_reserved":false,"is_disabled":false,"rental_uris":{"android":"levelo://app?vid=3304eb17-432b-4485-82a0-2a0deee18c9d","ios":"levelo://app?vid=3304eb17-432b-4485-82a0-2a0deee18c9d"},"vehicle_type_id":"4","last_reported":1685732673,"current_range_meters":19200,"station_id":"","pricing_plan_id":"free"},{"bike_id":"4c7ac30f-1987-4616-9a77-3602d9d6d5df","system_id":"levelo_inurba_marseille","lat":43.246467,"lon":5.388984,"is_reserved":false,"is_disabled":false,"rental_uris":{"android":"levelo://app?vid=4c7ac30f-1987-4616-9a77-3602d9d6d5df","ios":"levelo://app?vid=4c7ac30f-1987-4616-9a77-3602d9d6d5df"},"vehicle_type_id":"4","last_reported":1685732673,"current_range_meters":4800,"station_id":"ce4bhg12rcd13ifvqf60","pricing_plan_id":"free"},{"bike_id":"90ec6158-08ad-4670-8a96-0a5e300cb0d7","system_id":"levelo_inurba_marseille","lat":43.246467,"lon":5.388984,"is_reserved":false,"is_disabled":false,"rental_uris":{"android":"levelo://app?vid=90ec6158-08ad-4670-8a96-0a5e300cb0d7","ios":"levelo://app?vid=90ec6158-08ad-4670-8a96-0a5e300cb0d7"},"vehicle_type_id":"4","last_reported":1685732673,"current_range_meters":14800,"station_id":"ce4bhg12rcd13ifvqf60","pricing_plan_id":"free"},{"bike_id":"bf443b40-d18b-424a-8fde-3cb92af8115a","system_id":"levelo_inurba_marseille","lat":43.246467,"lon":5.388984,"is_reserved":false,"is_disabled":false,"rental_uris":{"android":"levelo://app?vid=bf443b40-d18b-424a-8fde-3cb92af8115a","ios":"levelo://app?vid=bf443b40-d18b-424a-8fde-3cb92af8115a"},"vehicle_type_id":"4","last_reported":1685732673,"current_range_meters":4000,"station_id":"ce4bhg12rcd13ifvqf60","pricing_plan_id":"free"},{"bike_id":"53116f07-6fab-4ec5-ac5b-60c0cff86803","system_id":"levelo_inurba_marseille","lat":43.246467,"lon":5.388984,"is_reserved":false,"is_disabled":false,"rental_uris":{"android":"levelo://app?vid=53116f07-6fab-4ec5-ac5b-60c0cff86803","ios":"levelo://app?vid=53116f07-6fab-4ec5-ac5b-60c0cff86803"},"vehicle_type_id":"4","last_reported":1685732673,"current_range_meters":25600,"station_id":"ce4bhg12rcd13ifvqf60","pricing_plan_id":"free"},{"bike_id":"ce324e1d-1eca-48c9-bfff-46fe98b2a32b","system_id":"levelo_inurba_marseille","lat":43.246467,"lon":5.388984,"is_reserved":false,"is_disabled":false,"rental_uris":{"android":"levelo://app?vid=ce324e1d-1eca-48c9-bfff-46fe98b2a32b","ios":"levelo://app?vid=ce324e1d-1eca-48c9-bfff-46fe98b2a32b"},"vehicle_type_id":"4","last_reported":1685732673,"current_range_meters":22800,"station_id":"ce4bhg12rcd13ifvqf60","pricing_plan_id":"free"},{"bike_id":"ac42859d-78a6-42e7-8fc2-69b154946a53","system_id":"levelo_inurba_marseille","lat":43.24494,"lon":5.38154,"is_reserved":false,"is_disabled":false,"rental_uris":{"android":"levelo://app?vid=ac42859d-78a6-42e7-8fc2-69b154946a53","ios":"levelo://app?vid=ac42859d-78a6-42e7-8fc2-69b154946a53"},"vehicle_type_id":"4","last_reported":1685732673,"current_range_meters":16800,"station_id":"","pricing_plan_id":"free"},{"bike_id":"0a3c5d01-eb7d-4239-96ac-2c09f14b8540","system_id":"levelo_inurba_marseille","lat":43.243884,"lon":5.370736,"is_reserved":false,"is_disabled":false,"rental_uris":{"android":"levelo://app?vid=0a3c5d01-eb7d-4239-96ac-2c09f14b8540","ios":"levelo://app?vid=0a3c5d01-eb7d-4239-96ac-2c09f14b8540"},"vehicle_type_id":"4","last_reported":1685732673,"current_range_meters":28400,"station_id":"ce4bhhh2rcd13ifvqfk0","pricing_plan_id":"free"},{"bike_id":"fe99c974-8a59-4185-82e3-fe3937c01989","system_id":"levelo_inurba_marseille","lat":43.24603,"lon":5.39293,"is_reserved":false,"is_disabled":false,"rental_uris":{"android":"levelo://app?vid=fe99c974-8a59-4185-82e3-fe3937c01989","ios":"levelo://app?vid=fe99c974-8a59-4185-82e3-fe3937c01989"},"vehicle_type_id":"4","last_reported":1685732673,"current_range_meters":3200,"station_id":"","pricing_plan_id":"free"},{"bike_id":"2c8cb84b-1112-4638-840b-42a6227cf279","system_id":"levelo_inurba_marseille","lat":43.28914,"lon":5.45709,"is_reserved":false,"is_disabled":false,"rental_uris":{"android":"levelo://app?vid=2c8cb84b-1112-4638-840b-42a6227cf279","ios":"levelo://app?vid=2c8cb84b-1112-4638-840b-42a6227cf279"},"vehicle_type_id":"4","last_reported":1685732673,"current_range_meters":14800,"station_id":"","pricing_plan_id":"free"},{"bike_id":"4f75d099-967d-4701-ac5f-49783fcd6b5f","system_id":"levelo_inurba_marseille","lat":43.239588,"lon":5.366238,"is_reserved":false,"is_disabled":false,"rental_uris":{"android":"levelo://app?vid=4f75d099-967d-4701-ac5f-49783fcd6b5f","ios":"levelo://app?vid=4f75d099-967d-4701-ac5f-49783fcd6b5f"},"vehicle_type_id":"4","last_reported":1685732673,"current_range_meters":29200,"station_id":"ce4bhi12rcd13ifvqfp0","pricing_plan_id":"free"},{"bike_id":"67eda6ed-fc2d-4ac8-b55f-f024c6c4c96a","system_id":"levelo_inurba_marseille","lat":43.239588,"lon":5.366238,"is_reserved":false,"is_disabled":false,"rental_uris":{"android":"levelo://app?vid=67eda6ed-fc2d-4ac8-b55f-f024c6c4c96a","ios":"levelo://app?vid=67eda6ed-fc2d-4ac8-b55f-f024c6c4c96a"},"vehicle_type_id":"4","last_reported":1685732673,"current_range_meters":17200,"station_id":"ce4bhi12rcd13ifvqfp0","pricing_plan_id":"free"},{"bike_id":"e6da453c-4933-43de-9871-6f873e7471dd","system_id":"levelo_inurba_marseille","lat":43.239588,"lon":5.366238,"is_reserved":false,"is_disabled":false,"rental_uris":{"android":"levelo://app?vid=e6da453c-4933-43de-9871-6f873e7471dd","ios":"levelo://app?vid=e6da453c-4933-43de-9871-6f873e7471dd"},"vehicle_type_id":"4","last_reported":1685732673,"current_range_meters":11600,"station_id":"ce4bhi12rcd13ifvqfp0","pricing_plan_id":"free"},{"bike_id":"34e808b4-d511-4d39-9e91-b7f8adafcc41","system_id":"levelo_inurba_marseille","lat":43.239588,"lon":5.366238,"is_reserved":false,"is_disabled":false,"rental_uris":{"android":"levelo://app?vid=34e808b4-d511-4d39-9e91-b7f8adafcc41","ios":"levelo://app?vid=34e808b4-d511-4d39-9e91-b7f8adafcc41"},"vehicle_type_id":"4","last_reported":1685732673,"current_range_meters":31600,"station_id":"ce4bhi12rcd13ifvqfp0","pricing_plan_id":"free"},{"bike_id":"8578c116-8b5e-45f6-bb2d-aed645160b90","system_id":"levelo_inurba_marseille","lat":43.23967,"lon":5.36638,"is_reserved":false,"is_disabled":false,"rental_uris":{"android":"levelo://app?vid=8578c116-8b5e-45f6-bb2d-aed645160b90","ios":"levelo://app?vid=8578c116-8b5e-45f6-bb2d-aed645160b90"},"vehicle_type_id":"4","last_reported":1685732673,"current_range_meters":21600,"station_id":"ce4bhi12rcd13ifvqfp0","pricing_plan_id":"free"},{"bike_id":"06167619-bb78-4592-8a71-45647d6ba669","system_id":"levelo_inurba_marseille","lat":43.239588,"lon":5.366238,"is_reserved":false,"is_disabled":false,"rental_uris":{"android":"levelo://app?vid=06167619-bb78-4592-8a71-45647d6ba669","ios":"levelo://app?vid=06167619-bb78-4592-8a71-45647d6ba669"},"vehicle_type_id":"4","last_reported":1685732673,"current_range_meters":7200,"station_id":"ce4bhi12rcd13ifvqfp0","pricing_plan_id":"free"},{"bike_id":"b4dac424-3077-4360-8793-1673c3eeae93","system_id":"levelo_inurba_marseille","lat":43.239588,"lon":5.366238,"is_reserved":false,"is_disabled":false,"rental_uris":{"android":"levelo://app?vid=b4dac424-3077-4360-8793-1673c3eeae93","ios":"levelo://app?vid=b4dac424-3077-4360-8793-1673c3eeae93"},"vehicle_type_id":"4","last_reported":1685732673,"current_range_meters":4400,"station_id":"ce4bhi12rcd13ifvqfp0","pricing_plan_id":"free"},{"bike_id":"53f08f08-69f5-4767-bd69-93f505062dcf","system_id":"levelo_inurba_marseille","lat":43.23965,"lon":5.36625,"is_reserved":false,"is_disabled":false,"rental_uris":{"android":"levelo://app?vid=53f08f08-69f5-4767-bd69-93f505062dcf","ios":"levelo://app?vid=53f08f08-69f5-4767-bd69-93f505062dcf"},"vehicle_type_id":"4","last_reported":1685732673,"current_range_meters":3600,"station_id":"ce4bhi12rcd13ifvqfp0","pricing_plan_id":"free"},{"bike_id":"f3050c6c-b3b7-4cd4-8d5f-2a4e0bed16bd","system_id":"levelo_inurba_marseille","lat":43.23962,"lon":5.36631,"is_reserved":false,"is_disabled":false,"rental_uris":{"android":"levelo://app?vid=f3050c6c-b3b7-4cd4-8d5f-2a4e0bed16bd","ios":"levelo://app?vid=f3050c6c-b3b7-4cd4-8d5f-2a4e0bed16bd"},"vehicle_type_id":"4","last_reported":1685732673,"current_range_meters":16400,"station_id":"ce4bhi12rcd13ifvqfp0","pricing_plan_id":"free"},{"bike_id":"978bb450-2c3a-491c-bfd6-3b663299ad4f","system_id":"levelo_inurba_marseille","lat":43.239588,"lon":5.366238,"is_reserved":false,"is_disabled":false,"rental_uris":{"android":"levelo://app?vid=978bb450-2c3a-491c-bfd6-3b663299ad4f","ios":"levelo://app?vid=978bb450-2c3a-491c-bfd6-3b663299ad4f"},"vehicle_type_id":"4","last_reported":1685732673,"current_range_meters":29200,"station_id":"ce4bhi12rcd13ifvqfp0","pricing_plan_id":"free"},{"bike_id":"36be0654-a594-495b-a31c-6463ea32f1be","system_id":"levelo_inurba_marseille","lat":43.30383,"lon":5.47464,"is_reserved":false,"is_disabled":false,"rental_uris":{"android":"levelo://app?vid=36be0654-a594-495b-a31c-6463ea32f1be","ios":"levelo://app?vid=36be0654-a594-495b-a31c-6463ea32f1be"},"vehicle_type_id":"4","last_reported":1685732673,"current_range_meters":6400,"station_id":"","pricing_plan_id":"free"},{"bike_id":"8e00e7d7-6d57-4467-bd86-2dce8784d558","system_id":"levelo_inurba_marseille","lat":43.231923,"lon":5.355545,"is_reserved":false,"is_disabled":false,"rental_uris":{"android":"levelo://app?vid=8e00e7d7-6d57-4467-bd86-2dce8784d558","ios":"levelo://app?vid=8e00e7d7-6d57-4467-bd86-2dce8784d558"},"vehicle_type_id":"4","last_reported":1685732673,"current_range_meters":31200,"station_id":"ce4bhu92rcd13ifvqi70","pricing_plan_id":"free"},{"bike_id":"89d5863a-d9df-4ac2-b3ac-d07d2351cde5","system_id":"levelo_inurba_marseille","lat":43.231923,"lon":5.355545,"is_reserved":false,"is_disabled":false,"rental_uris":{"android":"levelo://app?vid=89d5863a-d9df-4ac2-b3ac-d07d2351cde5","ios":"levelo://app?vid=89d5863a-d9df-4ac2-b3ac-d07d2351cde5"},"vehicle_type_id":"4","last_reported":1685732673,"current_range_meters":10000,"station_id":"ce4bhu92rcd13ifvqi70","pricing_plan_id":"free"},{"bike_id":"f1bea723-3b9c-4b54-8892-1f065b738df5","system_id":"levelo_inurba_marseille","lat":43.23198,"lon":5.35564,"is_reserved":false,"is_disabled":false,"rental_uris":{"android":"levelo://app?vid=f1bea723-3b9c-4b54-8892-1f065b738df5","ios":"levelo://app?vid=f1bea723-3b9c-4b54-8892-1f065b738df5"},"vehicle_type_id":"4","last_reported":1685732673,"current_range_meters":24800,"station_id":"ce4bhu92rcd13ifvqi70","pricing_plan_id":"free"},{"bike_id":"427aa080-7321-4d38-93e0-34a08c73c3ab","system_id":"levelo_inurba_marseille","lat":43.231923,"lon":5.355545,"is_reserved":false,"is_disabled":false,"rental_uris":{"android":"levelo://app?vid=427aa080-7321-4d38-93e0-34a08c73c3ab","ios":"levelo://app?vid=427aa080-7321-4d38-93e0-34a08c73c3ab"},"vehicle_type_id":"4","last_reported":1685732673,"current_range_meters":12000,"station_id":"ce4bhu92rcd13ifvqi70","pricing_plan_id":"free"},{"bike_id":"cbb7bd5f-a90a-4bac-a3db-75103487be10","system_id":"levelo_inurba_marseille","lat":43.231923,"lon":5.355545,"is_reserved":false,"is_disabled":false,"rental_uris":{"android":"levelo://app?vid=cbb7bd5f-a90a-4bac-a3db-75103487be10","ios":"levelo://app?vid=cbb7bd5f-a90a-4bac-a3db-75103487be10"},"vehicle_type_id":"4","last_reported":1685732673,"current_range_meters":22400,"station_id":"ce4bhu92rcd13ifvqi70","pricing_plan_id":"free"},{"bike_id":"3f1e5d01-8baa-4a51-afda-94074bdbe22d","system_id":"levelo_inurba_marseille","lat":43.231923,"lon":5.355545,"is_reserved":false,"is_disabled":false,"rental_uris":{"android":"levelo://app?vid=3f1e5d01-8baa-4a51-afda-94074bdbe22d","ios":"levelo://app?vid=3f1e5d01-8baa-4a51-afda-94074bdbe22d"},"vehicle_type_id":"4","last_reported":1685732673,"current_range_meters":6400,"station_id":"ce4bhu92rcd13ifvqi70","pricing_plan_id":"free"},{"bike_id":"2a2e6820-ea61-463e-8945-882c6a5f8bef","system_id":"levelo_inurba_marseille","lat":43.23196,"lon":5.35561,"is_reserved":false,"is_disabled":false,"rental_uris":{"android":"levelo://app?vid=2a2e6820-ea61-463e-8945-882c6a5f8bef","ios":"levelo://app?vid=2a2e6820-ea61-463e-8945-882c6a5f8bef"},"vehicle_type_id":"4","last_reported":1685732673,"current_range_meters":17600,"station_id":"ce4bhu92rcd13ifvqi70","pricing_plan_id":"free"},{"bike_id":"836ef873-5387-4690-8868-8360617ae71f","system_id":"levelo_inurba_marseille","lat":43.23196,"lon":5.3556,"is_reserved":false,"is_disabled":false,"rental_uris":{"android":"levelo://app?vid=836ef873-5387-4690-8868-8360617ae71f","ios":"levelo://app?vid=836ef873-5387-4690-8868-8360617ae71f"},"vehicle_type_id":"4","last_reported":1685732673,"current_range_meters":25600,"station_id":"ce4bhu92rcd13ifvqi70","pricing_plan_id":"free"},{"bike_id":"3233067d-bfd0-4db8-beba-cdb04f6af2ff","system_id":"levelo_inurba_marseille","lat":43.231923,"lon":5.355545,"is_reserved":false,"is_disabled":false,"rental_uris":{"android":"levelo://app?vid=3233067d-bfd0-4db8-beba-cdb04f6af2ff","ios":"levelo://app?vid=3233067d-bfd0-4db8-beba-cdb04f6af2ff"},"vehicle_type_id":"4","last_reported":1685732673,"current_range_meters":16800,"station_id":"ce4bhu92rcd13ifvqi70","pricing_plan_id":"free"},{"bike_id":"1bf4f659-3dfb-4cd9-a96d-61138ce0752b","system_id":"levelo_inurba_marseille","lat":43.231923,"lon":5.355545,"is_reserved":false,"is_disabled":false,"rental_uris":{"android":"levelo://app?vid=1bf4f659-3dfb-4cd9-a96d-61138ce0752b","ios":"levelo://app?vid=1bf4f659-3dfb-4cd9-a96d-61138ce0752b"},"vehicle_type_id":"4","last_reported":1685732673,"current_range_meters":14000,"station_id":"ce4bhu92rcd13ifvqi70","pricing_plan_id":"free"},{"bike_id":"632820bc-e4a0-4878-877f-cea161bce7a0","system_id":"levelo_inurba_marseille","lat":43.23192,"lon":5.35556,"is_reserved":false,"is_disabled":false,"rental_uris":{"android":"levelo://app?vid=632820bc-e4a0-4878-877f-cea161bce7a0","ios":"levelo://app?vid=632820bc-e4a0-4878-877f-cea161bce7a0"},"vehicle_type_id":"4","last_reported":1685732673,"current_range_meters":10800,"station_id":"ce4bhu92rcd13ifvqi70","pricing_plan_id":"free"},{"bike_id":"fe6b2939-a513-4dd9-b556-3dfc5f2115f2","system_id":"levelo_inurba_marseille","lat":43.23192,"lon":5.35555,"is_reserved":false,"is_disabled":false,"rental_uris":{"android":"levelo://app?vid=fe6b2939-a513-4dd9-b556-3dfc5f2115f2","ios":"levelo://app?vid=fe6b2939-a513-4dd9-b556-3dfc5f2115f2"},"vehicle_type_id":"4","last_reported":1685732673,"current_range_meters":23600,"station_id":"ce4bhu92rcd13ifvqi70","pricing_plan_id":"free"},{"bike_id":"d591bc7e-b1c1-41fb-9408-36bb5ec2af01","system_id":"levelo_inurba_marseille","lat":43.23191,"lon":5.35556,"is_reserved":false,"is_disabled":false,"rental_uris":{"android":"levelo://app?vid=d591bc7e-b1c1-41fb-9408-36bb5ec2af01","ios":"levelo://app?vid=d591bc7e-b1c1-41fb-9408-36bb5ec2af01"},"vehicle_type_id":"4","last_reported":1685732673,"current_range_meters":28000,"station_id":"ce4bhu92rcd13ifvqi70","pricing_plan_id":"free"},{"bike_id":"8a16b42b-59d0-4b4d-bf27-134027b1c282","system_id":"levelo_inurba_marseille","lat":43.23191,"lon":5.35556,"is_reserved":false,"is_disabled":false,"rental_uris":{"android":"levelo://app?vid=8a16b42b-59d0-4b4d-bf27-134027b1c282","ios":"levelo://app?vid=8a16b42b-59d0-4b4d-bf27-134027b1c282"},"vehicle_type_id":"4","last_reported":1685732673,"current_range_meters":13600,"station_id":"ce4bhu92rcd13ifvqi70","pricing_plan_id":"free"},{"bike_id":"a04dc097-9951-4a9d-9c8c-aa30a8e2ff65","system_id":"levelo_inurba_marseille","lat":43.2319,"lon":5.35558,"is_reserved":false,"is_disabled":false,"rental_uris":{"android":"levelo://app?vid=a04dc097-9951-4a9d-9c8c-aa30a8e2ff65","ios":"levelo://app?vid=a04dc097-9951-4a9d-9c8c-aa30a8e2ff65"},"vehicle_type_id":"4","last_reported":1685732673,"current_range_meters":8800,"station_id":"ce4bhu92rcd13ifvqi70","pricing_plan_id":"free"},{"bike_id":"ccdd659d-d1f3-423b-8596-d04101dbe64d","system_id":"levelo_inurba_marseille","lat":43.231923,"lon":5.355545,"is_reserved":false,"is_disabled":false,"rental_uris":{"android":"levelo://app?vid=ccdd659d-d1f3-423b-8596-d04101dbe64d","ios":"levelo://app?vid=ccdd659d-d1f3-423b-8596-d04101dbe64d"},"vehicle_type_id":"4","last_reported":1685732673,"current_range_meters":31600,"station_id":"ce4bhu92rcd13ifvqi70","pricing_plan_id":"free"},{"bike_id":"327922dd-97e5-4dce-a6af-917065566420","system_id":"levelo_inurba_marseille","lat":43.231923,"lon":5.355545,"is_reserved":false,"is_disabled":false,"rental_uris":{"android":"levelo://app?vid=327922dd-97e5-4dce-a6af-917065566420","ios":"levelo://app?vid=327922dd-97e5-4dce-a6af-917065566420"},"vehicle_type_id":"4","last_reported":1685732673,"current_range_meters":4800,"station_id":"ce4bhu92rcd13ifvqi70","pricing_plan_id":"free"},{"bike_id":"517b5adf-f053-423a-bf94-3157b15923dc","system_id":"levelo_inurba_marseille","lat":43.23187,"lon":5.35552,"is_reserved":false,"is_disabled":false,"rental_uris":{"android":"levelo://app?vid=517b5adf-f053-423a-bf94-3157b15923dc","ios":"levelo://app?vid=517b5adf-f053-423a-bf94-3157b15923dc"},"vehicle_type_id":"4","last_reported":1685732673,"current_range_meters":8000,"station_id":"ce4bhu92rcd13ifvqi70","pricing_plan_id":"free"},{"bike_id":"28482e00-7034-4413-b356-d983b48fb55f","system_id":"levelo_inurba_marseille","lat":43.23183,"lon":5.35554,"is_reserved":false,"is_disabled":false,"rental_uris":{"android":"levelo://app?vid=28482e00-7034-4413-b356-d983b48fb55f","ios":"levelo://app?vid=28482e00-7034-4413-b356-d983b48fb55f"},"vehicle_type_id":"4","last_reported":1685732673,"current_range_meters":12800,"station_id":"ce4bhu92rcd13ifvqi70","pricing_plan_id":"free"},{"bike_id":"4c757bea-cafc-44ff-b8a0-4af7d65f6992","system_id":"levelo_inurba_marseille","lat":43.231793,"lon":5.400044,"is_reserved":false,"is_disabled":false,"rental_uris":{"android":"levelo://app?vid=4c757bea-cafc-44ff-b8a0-4af7d65f6992","ios":"levelo://app?vid=4c757bea-cafc-44ff-b8a0-4af7d65f6992"},"vehicle_type_id":"4","last_reported":1685732673,"current_range_meters":25200,"station_id":"ce4bhn12rcd13ifvqgqg","pricing_plan_id":"free"},{"bike_id":"0a3ede2b-0f81-4088-9354-f7d9cdad5383","system_id":"levelo_inurba_marseille","lat":43.231794,"lon":5.400052,"is_reserved":false,"is_disabled":false,"rental_uris":{"android":"levelo://app?vid=0a3ede2b-0f81-4088-9354-f7d9cdad5383","ios":"levelo://app?vid=0a3ede2b-0f81-4088-9354-f7d9cdad5383"},"vehicle_type_id":"4","last_reported":1685732673,"current_range_meters":10000,"station_id":"ce4bhn12rcd13ifvqgqg","pricing_plan_id":"free"},{"bike_id":"1ad3f919-8ac3-47d7-b9ec-69b41ef47389","system_id":"levelo_inurba_marseille","lat":43.231794,"lon":5.400052,"is_reserved":false,"is_disabled":false,"rental_uris":{"android":"levelo://app?vid=1ad3f919-8ac3-47d7-b9ec-69b41ef47389","ios":"levelo://app?vid=1ad3f919-8ac3-47d7-b9ec-69b41ef47389"},"vehicle_type_id":"4","last_reported":1685732673,"current_range_meters":29600,"station_id":"ce4bhn12rcd13ifvqgqg","pricing_plan_id":"free"},{"bike_id":"b1fb5ae5-82c0-4c4b-8cdb-25c35b8c07da","system_id":"levelo_inurba_marseille","lat":43.231794,"lon":5.400052,"is_reserved":false,"is_disabled":false,"rental_uris":{"android":"levelo://app?vid=b1fb5ae5-82c0-4c4b-8cdb-25c35b8c07da","ios":"levelo://app?vid=b1fb5ae5-82c0-4c4b-8cdb-25c35b8c07da"},"vehicle_type_id":"4","last_reported":1685732673,"current_range_meters":10800,"station_id":"ce4bhn12rcd13ifvqgqg","pricing_plan_id":"free"},{"bike_id":"17d4dd21-727a-4cca-a171-6ee88694f458","system_id":"levelo_inurba_marseille","lat":43.231793,"lon":5.400044,"is_reserved":false,"is_disabled":false,"rental_uris":{"android":"levelo://app?vid=17d4dd21-727a-4cca-a171-6ee88694f458","ios":"levelo://app?vid=17d4dd21-727a-4cca-a171-6ee88694f458"},"vehicle_type_id":"4","last_reported":1685732673,"current_range_meters":31600,"station_id":"ce4bhn12rcd13ifvqgqg","pricing_plan_id":"free"},{"bike_id":"f2d87a61-c207-4729-aa4c-3a34c4776e59","system_id":"levelo_inurba_marseille","lat":43.231794,"lon":5.400052,"is_reserved":false,"is_disabled":false,"rental_uris":{"android":"levelo://app?vid=f2d87a61-c207-4729-aa4c-3a34c4776e59","ios":"levelo://app?vid=f2d87a61-c207-4729-aa4c-3a34c4776e59"},"vehicle_type_id":"4","last_reported":1685732673,"current_range_meters":24000,"station_id":"ce4bhn12rcd13ifvqgqg","pricing_plan_id":"free"},{"bike_id":"742920f7-e51e-445d-82e4-3c6b04889a32","system_id":"levelo_inurba_marseille","lat":43.231794,"lon":5.400052,"is_reserved":false,"is_disabled":false,"rental_uris":{"android":"levelo://app?vid=742920f7-e51e-445d-82e4-3c6b04889a32","ios":"levelo://app?vid=742920f7-e51e-445d-82e4-3c6b04889a32"},"vehicle_type_id":"4","last_reported":1685732673,"current_range_meters":10400,"station_id":"ce4bhn12rcd13ifvqgqg","pricing_plan_id":"free"}]}}