{"last_updated":1732702253,"ttl":60,"version":"2.2","data":{"bikes":[{"bike_id":"c6a7d785-3704-497f-a4a1-3b79a59f06ec","system_id":"levelo_inurba_marseille","lat":43.25728,"lon":5.41109,"is_reserved":false,"is_disabled":false,"rental_uris":{"android":"levelo://app?vid=c6a7d785-3704-497f-a4a1-3b79a59f06ec","ios":"levelo://app?vid=c6a7d785-3704-497f-a4a1-3b79a59f06ec"},"vehicle_type_id":"4","last_reported":1732702253,"current_range_meters":22000,"station_id":"ce4bhkp2rcd13ifvqgd0","pricing_plan_id":"cebpf4jnsgd1na2vs0mg"},{"bike_id":"bf2cd157-98d0-4e6e-818c-0734b30a6a82","system_id":"levelo_inurba_marseille","lat":43.27814,"lon":5.40713,"is_reserved":false,"is_disabled":true,"rental_uris":{"android":"levelo://app?vid=bf2cd157-98d0-4e6e-818c-0734b30a6a82","ios":"levelo://app?vid=bf2cd157-98d0-4e6e-818c-0734b30a6a82"},"vehicle_type_id":"4","last_reported":1732702253,"current_range_meters":0,"station_id":"ce4bhnh2rcd13ifvqgtg","pricing_plan_id":"cebpf4jnsgd1na2vs0mg"},{"bike_id":"f63a2a00-2c2b-41cf-9bf2-46b189bba93c","system_id":"levelo_inurba_marseille","lat":43.25936,"lon":5.40901,"is_reserved":false,"is_disabled":false,"rental_uris":{"android":"levelo://app?vid=f63a2a00-2c2b-41cf-9bf2-46b189bba93c","ios":"levelo://app?vid=f63a2a00-2c2b-41cf-9bf2-46b189bba93c"},"vehicle_type_id":"4","last_reported":1732702253,"current_range_meters":22000,"station_id":"ce4bhm92rcd13ifvqglg","pricing_plan_id":"cebpf4jnsgd1na2vs0mg"},{"bike_id":"b856c8b4-412d-4c25-bdd4-e6b29aed04cb","system_id":"levelo_inurba_marseille","lat":43.22939,"lon":5.35375,"is_reserved":false,"is_disabled":false,"rental_uris":{"android":"levelo://app?vid=b856c8b4-412d-4c25-bdd4-e6b29aed04cb","ios":"levelo://app?vid=b856c8b4-412d-4c25-bdd4-e6b29aed04cb"},"vehicle_type_id":"4","last_reported":1732702253,"current_range_meters":38800,"station_id":"cpo3532slgdg3j2ikp40","pricing_plan_id":"cebpf4jnsgd1na2vs0mg"},{"bike_id":"15f93f3a-f398-4842-8c41-ad2d598cde47","system_id":"levelo_inurba_marseille","lat":43.30543,"lon":5.36696,"is_reserved":false,"is_disabled":false,"rental_uris":{"android":"levelo://app?vid=15f93f3a-f398-4842-8c41-ad2d598cde47","ios":"levelo://app?vid=15f93f3a-f398-4842-8c41-ad2d598cde47"},"vehicle_type_id":"4","last_reported":1732702253,"current_range_meters":12400,"station_id":"ce4bgrp2rcd13ifvqc9g","pricing_plan_id":"cebpf4jnsgd1na2vs0mg"},{"bike_id":"b51d31e3-b561-4c0d-b4c9-74c74d6a4aa9","system_id":"levelo_inurba_marseille","lat":43.33026,"lon":5.39042,"is_reserved":false,"is_disabled":false,"rental_uris":{"android":"levelo://app?vid=b51d31e3-b561-4c0d-b4c9-74c74d6a4aa9","ios":"levelo://app?vid=b51d31e3-b561-4c0d-b4c9-74c74d6a4aa9"},"vehicle_type_id":"4","last_reported":1732702253,"current_range_meters":37600,"station_id":"ce4bhr92rcd13ifvqhrg","pricing_plan_id":"cebpf4jnsgd1na2vs0mg"},{"bike_id":"13b69a4c-c9d5-4b43-b76b-633ca739dbed","system_id":"levelo_inurba_marseille","lat":43.31364,"lon":5.36693,"is_reserved":false,"is_disabled":false,"rental_uris":{"android":"levelo://app?vid=13b69a4c-c9d5-4b43-b76b-633ca739dbed","ios":"levelo://app?vid=13b69a4c-c9d5-4b43-b76b-633ca739dbed"},"vehicle_type_id":"4","last_reported":1732702253,"current_range_meters":11600,"station_id":"ce4bgr92rcd13ifvqc6g","pricing_plan_id":"cebpf4jnsgd1na2vs0mg"},{"bike_id":"d2cf7a78-7eb1-4d32-aa77-ae8ed51e3e3f","system_id":"levelo_inurba_marseille","lat":43.337623,"lon":5.374406,"is_reserved":false,"is_disabled":false,"rental_uris":{"android":"levelo://app?vid=d2cf7a78-7eb1-4d32-aa77-ae8ed51e3e3f","ios":"levelo://app?vid=d2cf7a78-7eb1-4d32-aa77-ae8ed51e3e3f"},"vehicle_type_id":"4","last_reported":1732702253,"current_range_meters":18800,"station_id":"","pricing_plan_id":"cebpf4jnsgd1na2vs0mg"},{"bike_id":"a481b9a0-9c57-4f11-a4b3-9fcac54c7392","system_id":"levelo_inurba_marseille","lat":43.24074,"lon":5.37759,"is_reserved":false,"is_disabled":false,"rental_uris":{"android":"levelo://app?vid=a481b9a0-9c57-4f11-a4b3-9fcac54c7392","ios":"levelo://app?vid=a481b9a0-9c57-4f11-a4b3-9fcac54c7392"},"vehicle_type_id":"4","last_reported":1732702253,"current_range_meters":38000,"station_id":"ce4bhnp2rcd13ifvqgvg","pricing_plan_id":"cebpf4jnsgd1na2vs0mg"},{"bike_id":"a2d84150-f3bd-4fd6-8cf8-40da80737380","system_id":"levelo_inurba_marseille","lat":43.28699,"lon":5.39985,"is_reserved":false,"is_disabled":false,"rental_uris":{"android":"levelo://app?vid=a2d84150-f3bd-4fd6-8cf8-40da80737380","ios":"levelo://app?vid=a2d84150-f3bd-4fd6-8cf8-40da80737380"},"vehicle_type_id":"4","last_reported":1732702253,"current_range_meters":32000,"station_id":"ce4bho92rcd13ifvqh3g","pricing_plan_id":"cebpf4jnsgd1na2vs0mg"},{"bike_id":"0fa82e23-4a3f-460a-a0a9-6383841fe087","system_id":"levelo_inurba_marseille","lat":43.27999,"lon":5.40016,"is_reserved":false,"is_disabled":false,"rental_uris":{"android":"levelo://app?vid=0fa82e23-4a3f-460a-a0a9-6383841fe087","ios":"levelo://app?vid=0fa82e23-4a3f-460a-a0a9-6383841fe087"},"vehicle_type_id":"4","last_reported":1732702253,"current_range_meters":31200,"station_id":"ce4bho92rcd13ifvqh4g","pricing_plan_id":"cebpf4jnsgd1na2vs0mg"},{"bike_id":"fdbf19ce-3666-482f-9d97-402ec817541e","system_id":"levelo_inurba_marseille","lat":43.30133,"lon":5.37427,"is_reserved":false,"is_disabled":false,"rental_uris":{"android":"levelo://app?vid=fdbf19ce-3666-482f-9d97-402ec817541e","ios":"levelo://app?vid=fdbf19ce-3666-482f-9d97-402ec817541e"},"vehicle_type_id":"4","last_reported":1732702253,"current_range_meters":28400,"station_id":"ce4bgs92rcd13ifvqcc0","pricing_plan_id":"cebpf4jnsgd1na2vs0mg"},{"bike_id":"4a6f40e9-24aa-48ac-9ef2-a1bddf93539a","system_id":"levelo_inurba_marseille","lat":43.24072,"lon":5.37757,"is_reserved":false,"is_disabled":false,"rental_uris":{"android":"levelo://app?vid=4a6f40e9-24aa-48ac-9ef2-a1bddf93539a","ios":"levelo://app?vid=4a6f40e9-24aa-48ac-9ef2-a1bddf93539a"},"vehicle_type_id":"4","last_reported":1732702253,"current_range_meters":35600,"station_id":"ce4bhnp2rcd13ifvqgvg","pricing_plan_id":"cebpf4jnsgd1na2vs0mg"},{"bike_id":"522f5c9a-37f2-4533-9aa9-c80c579cb6b6","system_id":"levelo_inurba_marseille","lat":43.30147,"lon":5.38085,"is_reserved":false,"is_disabled":false,"rental_uris":{"android":"levelo://app?vid=522f5c9a-37f2-4533-9aa9-c80c579cb6b6","ios":"levelo://app?vid=522f5c9a-37f2-4533-9aa9-c80c579cb6b6"},"vehicle_type_id":"4","last_reported":1732702253,"current_range_meters":12800,"station_id":"ce4bgjp2rcd13ifvqbh0","pricing_plan_id":"cebpf4jnsgd1na2vs0mg"},{"bike_id":"5f4579b9-e38c-4b01-9fab-982a39608e58","system_id":"levelo_inurba_marseille","lat":43.29531,"lon":5.38545,"is_reserved":false,"is_disabled":false,"rental_uris":{"android":"levelo://app?vid=5f4579b9-e38c-4b01-9fab-982a39608e58","ios":"levelo://app?vid=5f4579b9-e38c-4b01-9fab-982a39608e58"},"vehicle_type_id":"4","last_reported":1732702253,"current_range_meters":27600,"station_id":"ce4bgih2rcd13ifvqba0","pricing_plan_id":"cebpf4jnsgd1na2vs0mg"},{"bike_id":"e7d61961-f2fb-44c4-9ee3-a227626b507f","system_id":"levelo_inurba_marseille","lat":43.230676,"lon":5.354934,"is_reserved":false,"is_disabled":false,"rental_uris":{"android":"levelo://app?vid=e7d61961-f2fb-44c4-9ee3-a227626b507f","ios":"levelo://app?vid=e7d61961-f2fb-44c4-9ee3-a227626b507f"},"vehicle_type_id":"4","last_reported":1732702253,"current_range_meters":38000,"station_id":"cpo3342slgdg3j2ifvpg","pricing_plan_id":"cebpf4jnsgd1na2vs0mg"},{"bike_id":"8410319f-806a-4b83-8885-4666ae292b99","system_id":"levelo_inurba_marseille","lat":43.25584,"lon":5.38235,"is_reserved":false,"is_disabled":false,"rental_uris":{"android":"levelo://app?vid=8410319f-806a-4b83-8885-4666ae292b99","ios":"levelo://app?vid=8410319f-806a-4b83-8885-4666ae292b99"},"vehicle_type_id":"4","last_reported":1732702253,"current_range_meters":18800,"station_id":"ce4bhih2rcd13ifvqfs0","pricing_plan_id":"cebpf4jnsgd1na2vs0mg"},{"bike_id":"f8701991-8c40-432f-accb-db30a9ac6844","system_id":"levelo_inurba_marseille","lat":43.31351,"lon":5.36714,"is_reserved":false,"is_disabled":false,"rental_uris":{"android":"levelo://app?vid=f8701991-8c40-432f-accb-db30a9ac6844","ios":"levelo://app?vid=f8701991-8c40-432f-accb-db30a9ac6844"},"vehicle_type_id":"4","last_reported":1732702253,"current_range_meters":36400,"station_id":"ce4bgr92rcd13ifvqc6g","pricing_plan_id":"cebpf4jnsgd1na2vs0mg"},{"bike_id":"f98cf346-2f95-41c1-a190-288b7ed6e557","system_id":"levelo_inurba_marseille","lat":43.24085,"lon":5.37737,"is_reserved":false,"is_disabled":false,"rental_uris":{"android":"levelo://app?vid=f98cf346-2f95-41c1-a190-288b7ed6e557","ios":"levelo://app?vid=f98cf346-2f95-41c1-a190-288b7ed6e557"},"vehicle_type_id":"4","last_reported":1732702253,"current_range_meters":38400,"station_id":"ce4bhnp2rcd13ifvqgvg","pricing_plan_id":"cebpf4jnsgd1na2vs0mg"},{"bike_id":"3e74510c-d86b-4186-a956-0b286b8b0c60","system_id":"levelo_inurba_marseille","lat":43.24672,"lon":5.3816,"is_reserved":false,"is_disabled":false,"rental_uris":{"android":"levelo://app?vid=3e74510c-d86b-4186-a956-0b286b8b0c60","ios":"levelo://app?vid=3e74510c-d86b-4186-a956-0b286b8b0c60"},"vehicle_type_id":"4","last_reported":1732702253,"current_range_meters":38800,"station_id":"ce4bhih2rcd13ifvqfr0","pricing_plan_id":"cebpf4jnsgd1na2vs0mg"},{"bike_id":"b5533476-8cbe-405c-a4fd-2be9c55df1ae","system_id":"levelo_inurba_marseille","lat":43.27426,"lon":5.39396,"is_reserved":false,"is_disabled":false,"rental_uris":{"android":"levelo://app?vid=b5533476-8cbe-405c-a4fd-2be9c55df1ae","ios":"levelo://app?vid=b5533476-8cbe-405c-a4fd-2be9c55df1ae"},"vehicle_type_id":"4","last_reported":1732702253,"current_range_meters":26800,"station_id":"ce4bhdp2rcd13ifvqf20","pricing_plan_id":"cebpf4jnsgd1na2vs0mg"},{"bike_id":"9789e421-83e5-4329-a1b2-4d098e373920","system_id":"levelo_inurba_marseille","lat":43.30946,"lon":5.39033,"is_reserved":false,"is_disabled":false,"rental_uris":{"android":"levelo://app?vid=9789e421-83e5-4329-a1b2-4d098e373920","ios":"levelo://app?vid=9789e421-83e5-4329-a1b2-4d098e373920"},"vehicle_type_id":"4","last_reported":1732702253,"current_range_meters":20400,"station_id":"ce4bgup2rcd13ifvqco0","pricing_plan_id":"cebpf4jnsgd1na2vs0mg"},{"bike_id":"63969398-aead-4450-9204-3c1d2cb164b4","system_id":"levelo_inurba_marseille","lat":43.2749,"lon":5.42452,"is_reserved":false,"is_disabled":false,"rental_uris":{"android":"levelo://app?vid=63969398-aead-4450-9204-3c1d2cb164b4","ios":"levelo://app?vid=63969398-aead-4450-9204-3c1d2cb164b4"},"vehicle_type_id":"4","last_reported":1732702253,"current_range_meters":34800,"station_id":"ce4bhn92rcd13ifvqgrg","pricing_plan_id":"cebpf4jnsgd1na2vs0mg"},{"bike_id":"6f7949e1-de87-4a49-8620-fec27e04447f","system_id":"levelo_inurba_marseille","lat":43.33732,"lon":5.39194,"is_reserved":false,"is_disabled":true,"rental_uris":{"android":"levelo://app?vid=6f7949e1-de87-4a49-8620-fec27e04447f","ios":"levelo://app?vid=6f7949e1-de87-4a49-8620-fec27e04447f"},"vehicle_type_id":"4","last_reported":1732702253,"current_range_meters":0,"station_id":"ce4bhr92rcd13ifvqhsg","pricing_plan_id":"cebpf4jnsgd1na2vs0mg"},{"bike_id":"64c32c12-6135-4609-9367-8c88c6ffc2a1","system_id":"levelo_inurba_marseille","lat":43.313517,"lon":5.367174,"is_reserved":false,"is_disabled":false,"rental_uris":{"android":"levelo://app?vid=64c32c12-6135-4609-9367-8c88c6ffc2a1","ios":"levelo://app?vid=64c32c12-6135-4609-9367-8c88c6ffc2a1"},"vehicle_type_id":"4","last_reported":1732702253,"current_range_meters":17200,"station_id":"ce4bgr92rcd13ifvqc6g","pricing_plan_id":"cebpf4jnsgd1na2vs0mg"},{"bike_id":"e217d5e7-1236-4a81-b77e-8ced163fc58c","system_id":"levelo_inurba_marseille","lat":43.30539,"lon":5.36549,"is_reserved":false,"is_disabled":false,"rental_uris":{"android":"levelo://app?vid=e217d5e7-1236-4a81-b77e-8ced163fc58c","ios":"levelo://app?vid=e217d5e7-1236-4a81-b77e-8ced163fc58c"},"vehicle_type_id":"4","last_reported":1732702253,"current_range_meters":22400,"station_id":"ce4bgs12rcd13ifvqcag","pricing_plan_id":"cebpf4jnsgd1na2vs0mg"},{"bike_id":"b7a5ba08-0df7-41f9-ad5a-ea7e176429d7","system_id":"levelo_inurba_marseille","lat":43.24673,"lon":5.38158,"is_reserved":false,"is_disabled":false,"rental_uris":{"android":"levelo://app?vid=b7a5ba08-0df7-41f9-ad5a-ea7e176429d7","ios":"levelo://app?vid=b7a5ba08-0df7-41f9-ad5a-ea7e176429d7"},"vehicle_type_id":"4","last_reported":1732702253,"current_range_meters":6400,"station_id":"ce4bhih2rcd13ifvqfr0","pricing_plan_id":"cebpf4jnsgd1na2vs0mg"},{"bike_id":"a5b7304e-9e8b-4ee2-856c-5b94eb8532f6","system_id":"levelo_inurba_marseille","lat":43.31488,"lon":5.373,"is_reserved":false,"is_disabled":false,"rental_uris":{"android":"levelo://app?vid=a5b7304e-9e8b-4ee2-856c-5b94eb8532f6","ios":"levelo://app?vid=a5b7304e-9e8b-4ee2-856c-5b94eb8532f6"},"vehicle_type_id":"4","last_reported":1732702253,"current_range_meters":26800,"station_id":"ce4bgt12rcd13ifvqcd0","pricing_plan_id":"cebpf4jnsgd1na2vs0mg"},{"bike_id":"88c0a23c-decf-469d-95fc-e70f9cd8eb3b","system_id":"levelo_inurba_marseille","lat":43.33756,"lon":5.37442,"is_reserved":false,"is_disabled":false,"rental_uris":{"android":"levelo://app?vid=88c0a23c-decf-469d-95fc-e70f9cd8eb3b","ios":"levelo://app?vid=88c0a23c-decf-469d-95fc-e70f9cd8eb3b"},"vehicle_type_id":"4","last_reported":1732702253,"current_range_meters":36400,"station_id":"","pricing_plan_id":"cebpf4jnsgd1na2vs0mg"},{"bike_id":"05ad44e5-d7ad-40e4-b78e-31a67af522c0","system_id":"levelo_inurba_marseille","lat":43.25725,"lon":5.41111,"is_reserved":false,"is_disabled":true,"rental_uris":{"android":"levelo://app?vid=05ad44e5-d7ad-40e4-b78e-31a67af522c0","ios":"levelo://app?vid=05ad44e5-d7ad-40e4-b78e-31a67af522c0"},"vehicle_type_id":"4","last_reported":1732702253,"current_range_meters":36400,"station_id":"ce4bhkp2rcd13ifvqgd0","pricing_plan_id":"cebpf4jnsgd1na2vs0mg"},{"bike_id":"947b4ae5-6d27-48cd-83df-1d5aa4a4dc55","system_id":"levelo_inurba_marseille","lat":43.24672,"lon":5.38149,"is_reserved":false,"is_disabled":false,"rental_uris":{"android":"levelo://app?vid=947b4ae5-6d27-48cd-83df-1d5aa4a4dc55","ios":"levelo://app?vid=947b4ae5-6d27-48cd-83df-1d5aa4a4dc55"},"vehicle_type_id":"4","last_reported":1732702253,"current_range_meters":30000,"station_id":"ce4bhih2rcd13ifvqfr0","pricing_plan_id":"cebpf4jnsgd1na2vs0mg"},{"bike_id":"6b7ccf7e-484a-4f22-baf0-4737914f5815","system_id":"levelo_inurba_marseille","lat":43.29833,"lon":5.362819,"is_reserved":false,"is_disabled":false,"rental_uris":{"android":"levelo://app?vid=6b7ccf7e-484a-4f22-baf0-4737914f5815","ios":"levelo://app?vid=6b7ccf7e-484a-4f22-baf0-4737914f5815"},"vehicle_type_id":"4","last_reported":1732702253,"current_range_meters":30800,"station_id":"ce4bgpp2rcd13ifvqc3g","pricing_plan_id":"cebpf4jnsgd1na2vs0mg"},{"bike_id":"a55c6f12-65cb-4ae6-ac80-319ec8553925","system_id":"levelo_inurba_marseille","lat":43.27054,"lon":5.40258,"is_reserved":false,"is_disabled":true,"rental_uris":{"android":"levelo://app?vid=a55c6f12-65cb-4ae6-ac80-319ec8553925","ios":"levelo://app?vid=a55c6f12-65cb-4ae6-ac80-319ec8553925"},"vehicle_type_id":"4","last_reported":1732702253,"current_range_meters":3600,"station_id":"ce4bhk92rcd13ifvqgc0","pricing_plan_id":"cebpf4jnsgd1na2vs0mg"},{"bike_id":"e0c961bb-3054-4cc0-b997-7f2f52b9a9c0","system_id":"levelo_inurba_marseille","lat":43.26942,"lon":5.40254,"is_reserved":false,"is_disabled":false,"rental_uris":{"android":"levelo://app?vid=e0c961bb-3054-4cc0-b997-7f2f52b9a9c0","ios":"levelo://app?vid=e0c961bb-3054-4cc0-b997-7f2f52b9a9c0"},"vehicle_type_id":"4","last_reported":1732702253,"current_range_meters":12400,"station_id":"cjm6bp8fraef2m0cb0m0","pricing_plan_id":"cebpf4jnsgd1na2vs0mg"},{"bike_id":"59798445-8d70-4aa0-82ea-c70c3f2d0df4","system_id":"levelo_inurba_marseille","lat":43.24648,"lon":5.38886,"is_reserved":false,"is_disabled":false,"rental_uris":{"android":"levelo://app?vid=59798445-8d70-4aa0-82ea-c70c3f2d0df4","ios":"levelo://app?vid=59798445-8d70-4aa0-82ea-c70c3f2d0df4"},"vehicle_type_id":"4","last_reported":1732702253,"current_range_meters":18000,"station_id":"ce4bhg12rcd13ifvqf60","pricing_plan_id":"cebpf4jnsgd1na2vs0mg"},{"bike_id":"450ecd21-f4be-4a7b-b50b-6570dbf71196","system_id":"levelo_inurba_marseille","lat":43.29007,"lon":5.35603,"is_reserved":false,"is_disabled":false,"rental_uris":{"android":"levelo://app?vid=450ecd21-f4be-4a7b-b50b-6570dbf71196","ios":"levelo://app?vid=450ecd21-f4be-4a7b-b50b-6570dbf71196"},"vehicle_type_id":"4","last_reported":1732702253,"current_range_meters":38000,"station_id":"ce4bhb92rcd13ifvqen0","pricing_plan_id":"cebpf4jnsgd1na2vs0mg"},{"bike_id":"835a170b-9333-4a62-9af0-a89a87c1a309","system_id":"levelo_inurba_marseille","lat":43.24651,"lon":5.38156,"is_reserved":false,"is_disabled":false,"rental_uris":{"android":"levelo://app?vid=835a170b-9333-4a62-9af0-a89a87c1a309","ios":"levelo://app?vid=835a170b-9333-4a62-9af0-a89a87c1a309"},"vehicle_type_id":"4","last_reported":1732702253,"current_range_meters":6800,"station_id":"ce4bhih2rcd13ifvqfr0","pricing_plan_id":"cebpf4jnsgd1na2vs0mg"},{"bike_id":"97c2c548-fa5a-490c-8822-5a059a882cbe","system_id":"levelo_inurba_marseille","lat":43.30539,"lon":5.36539,"is_reserved":false,"is_disabled":false,"rental_uris":{"android":"levelo://app?vid=97c2c548-fa5a-490c-8822-5a059a882cbe","ios":"levelo://app?vid=97c2c548-fa5a-490c-8822-5a059a882cbe"},"vehicle_type_id":"4","last_reported":1732702253,"current_range_meters":27200,"station_id":"ce4bgs12rcd13ifvqcag","pricing_plan_id":"cebpf4jnsgd1na2vs0mg"},{"bike_id":"6dfcb08d-2515-4f50-bb77-97697ce8e122","system_id":"levelo_inurba_marseille","lat":43.28701,"lon":5.37394,"is_reserved":false,"is_disabled":false,"rental_uris":{"android":"levelo://app?vid=6dfcb08d-2515-4f50-bb77-97697ce8e122","ios":"levelo://app?vid=6dfcb08d-2515-4f50-bb77-97697ce8e122"},"vehicle_type_id":"4","last_reported":1732702253,"current_range_meters":38800,"station_id":"ce4bgpp2rcd13ifvqc3g","pricing_plan_id":"cebpf4jnsgd1na2vs0mg"},{"bike_id":"420715cd-a1d1-4018-9350-4ed900c113e0","system_id":"levelo_inurba_marseille","lat":43.24077,"lon":5.37758,"is_reserved":false,"is_disabled":false,"rental_uris":{"android":"levelo://app?vid=420715cd-a1d1-4018-9350-4ed900c113e0","ios":"levelo://app?vid=420715cd-a1d1-4018-9350-4ed900c113e0"},"vehicle_type_id":"4","last_reported":1732702253,"current_range_meters":5600,"station_id":"ce4bhnp2rcd13ifvqgvg","pricing_plan_id":"cebpf4jnsgd1na2vs0mg"},{"bike_id":"84bc1918-640e-461e-91bb-d26811758e80","system_id":"levelo_inurba_marseille","lat":43.29574,"lon":5.39966,"is_reserved":false,"is_disabled":false,"rental_uris":{"android":"levelo://app?vid=84bc1918-640e-461e-91bb-d26811758e80","ios":"levelo://app?vid=84bc1918-640e-461e-91bb-d26811758e80"},"vehicle_type_id":"4","last_reported":1732702253,"current_range_meters":28400,"station_id":"ce4bh312rcd13ifvqdj0","pricing_plan_id":"cebpf4jnsgd1na2vs0mg"},{"bike_id":"6a22ad77-bf89-4086-ba71-c13e8aabce49","system_id":"levelo_inurba_marseille","lat":43.29582,"lon":5.3674,"is_reserved":false,"is_disabled":false,"rental_uris":{"android":"levelo://app?vid=6a22ad77-bf89-4086-ba71-c13e8aabce49","ios":"levelo://app?vid=6a22ad77-bf89-4086-ba71-c13e8aabce49"},"vehicle_type_id":"4","last_reported":1732702253,"current_range_meters":9600,"station_id":"ce4bgph2rcd13ifvqc2g","pricing_plan_id":"cebpf4jnsgd1na2vs0mg"},{"bike_id":"ecdb3743-a3d9-4afc-bb51-ff07b746abac","system_id":"levelo_inurba_marseille","lat":43.29039,"lon":5.39986,"is_reserved":false,"is_disabled":true,"rental_uris":{"android":"levelo://app?vid=ecdb3743-a3d9-4afc-bb51-ff07b746abac","ios":"levelo://app?vid=ecdb3743-a3d9-4afc-bb51-ff07b746abac"},"vehicle_type_id":"4","last_reported":1732702253,"current_range_meters":38800,"station_id":"ce4bh392rcd13ifvqdm0","pricing_plan_id":"cebpf4jnsgd1na2vs0mg"},{"bike_id":"8e46b2c9-0288-44ad-a5dd-399cf4cb50ae","system_id":"levelo_inurba_marseille","lat":43.33609,"lon":5.41027,"is_reserved":false,"is_disabled":false,"rental_uris":{"android":"levelo://app?vid=8e46b2c9-0288-44ad-a5dd-399cf4cb50ae","ios":"levelo://app?vid=8e46b2c9-0288-44ad-a5dd-399cf4cb50ae"},"vehicle_type_id":"4","last_reported":1732702253,"current_range_meters":8000,"station_id":"ce4bhqh2rcd13ifvqhmg","pricing_plan_id":"cebpf4jnsgd1na2vs0mg"},{"bike_id":"71ea389b-bf82-4d35-978d-31410b2765f8","system_id":"levelo_inurba_marseille","lat":43.30914,"lon":5.36846,"is_reserved":false,"is_disabled":false,"rental_uris":{"android":"levelo://app?vid=71ea389b-bf82-4d35-978d-31410b2765f8","ios":"levelo://app?vid=71ea389b-bf82-4d35-978d-31410b2765f8"},"vehicle_type_id":"4","last_reported":1732702253,"current_range_meters":28400,"station_id":"ce4bgn92rcd13ifvqbvg","pricing_plan_id":"cebpf4jnsgd1na2vs0mg"},{"bike_id":"958ae39c-ac6d-4685-adb6-01dd774c93e1","system_id":"levelo_inurba_marseille","lat":43.30308,"lon":5.36892,"is_reserved":false,"is_disabled":false,"rental_uris":{"android":"levelo://app?vid=958ae39c-ac6d-4685-adb6-01dd774c93e1","ios":"levelo://app?vid=958ae39c-ac6d-4685-adb6-01dd774c93e1"},"vehicle_type_id":"4","last_reported":1732702253,"current_range_meters":27200,"station_id":"ce4bgqh2rcd13ifvqc5g","pricing_plan_id":"cebpf4jnsgd1na2vs0mg"},{"bike_id":"7a0400d2-ebb9-4d66-9e7c-45bd1b294b09","system_id":"levelo_inurba_marseille","lat":43.27494,"lon":5.42449,"is_reserved":false,"is_disabled":false,"rental_uris":{"android":"levelo://app?vid=7a0400d2-ebb9-4d66-9e7c-45bd1b294b09","ios":"levelo://app?vid=7a0400d2-ebb9-4d66-9e7c-45bd1b294b09"},"vehicle_type_id":"4","last_reported":1732702253,"current_range_meters":24400,"station_id":"ce4bhn92rcd13ifvqgrg","pricing_plan_id":"cebpf4jnsgd1na2vs0mg"},{"bike_id":"a6a7a918-1329-43a3-b75e-e559ca6a9d9a","system_id":"levelo_inurba_marseille","lat":43.30547,"lon":5.36704,"is_reserved":false,"is_disabled":false,"rental_uris":{"android":"levelo://app?vid=a6a7a918-1329-43a3-b75e-e559ca6a9d9a","ios":"levelo://app?vid=a6a7a918-1329-43a3-b75e-e559ca6a9d9a"},"vehicle_type_id":"4","last_reported":1732702253,"current_range_meters":37600,"station_id":"ce4bgrp2rcd13ifvqc9g","pricing_plan_id":"cebpf4jnsgd1na2vs0mg"},{"bike_id":"a4f5ec09-594b-4d89-bf3e-08aaf07da9b6","system_id":"levelo_inurba_marseille","lat":43.30151,"lon":5.38086,"is_reserved":false,"is_disabled":false,"rental_uris":{"android":"levelo://app?vid=a4f5ec09-594b-4d89-bf3e-08aaf07da9b6","ios":"levelo://app?vid=a4f5ec09-594b-4d89-bf3e-08aaf07da9b6"},"vehicle_type_id":"4","last_reported":1732702253,"current_range_meters":37600,"station_id":"ce4bgjp2rcd13ifvqbh0","pricing_plan_id":"cebpf4jnsgd1na2vs0mg"},{"bike_id":"49837428-87a0-46bb-82a8-815c90e0cabe","system_id":"levelo_inurba_marseille","lat":43.28669,"lon":5.38657,"is_reserved":false,"is_disabled":true,"rental_uris":{"android":"levelo://app?vid=49837428-87a0-46bb-82a8-815c90e0cabe","ios":"levelo://app?vid=49837428-87a0-46bb-82a8-815c90e0cabe"},"vehicle_type_id":"4","last_reported":1732702253,"current_range_meters":400,"station_id":"ce4bh492rcd13ifvqdug","pricing_plan_id":"cebpf4jnsgd1na2vs0mg"},{"bike_id":"df66ebba-47dd-4a6a-8649-d05d6fbfe6e9","system_id":"levelo_inurba_marseille","lat":43.28268,"lon":5.35064,"is_reserved":false,"is_disabled":false,"rental_uris":{"android":"levelo://app?vid=df66ebba-47dd-4a6a-8649-d05d6fbfe6e9","ios":"levelo://app?vid=df66ebba-47dd-4a6a-8649-d05d6fbfe6e9"},"vehicle_type_id":"4","last_reported":1732702253,"current_range_meters":30400,"station_id":"ce4bhbp2rcd13ifvqerg","pricing_plan_id":"cebpf4jnsgd1na2vs0mg"},{"bike_id":"7d93fd60-b8d7-46a8-b162-5641b5ce3bda","system_id":"levelo_inurba_marseille","lat":43.25,"lon":5.38934,"is_reserved":false,"is_disabled":false,"rental_uris":{"android":"levelo://app?vid=7d93fd60-b8d7-46a8-b162-5641b5ce3bda","ios":"levelo://app?vid=7d93fd60-b8d7-46a8-b162-5641b5ce3bda"},"vehicle_type_id":"4","last_reported":1732702253,"current_range_meters":31200,"station_id":"ce4bhgp2rcd13ifvqfd0","pricing_plan_id":"cebpf4jnsgd1na2vs0mg"},{"bike_id":"bdf7cdd5-b944-4076-96a8-e3c71b31059b","system_id":"levelo_inurba_marseille","lat":43.2512,"lon":5.40321,"is_reserved":false,"is_disabled":false,"rental_uris":{"android":"levelo://app?vid=bdf7cdd5-b944-4076-96a8-e3c71b31059b","ios":"levelo://app?vid=bdf7cdd5-b944-4076-96a8-e3c71b31059b"},"vehicle_type_id":"4","last_reported":1732702253,"current_range_meters":8000,"station_id":"ce4bhlh2rcd13ifvqgig","pricing_plan_id":"cebpf4jnsgd1na2vs0mg"},{"bike_id":"c6323cc4-3a8d-4794-8c5c-c47ccfb2ec44","system_id":"levelo_inurba_marseille","lat":43.3055,"lon":5.36693,"is_reserved":false,"is_disabled":false,"rental_uris":{"android":"levelo://app?vid=c6323cc4-3a8d-4794-8c5c-c47ccfb2ec44","ios":"levelo://app?vid=c6323cc4-3a8d-4794-8c5c-c47ccfb2ec44"},"vehicle_type_id":"4","last_reported":1732702253,"current_range_meters":33600,"station_id":"ce4bgrp2rcd13ifvqc9g","pricing_plan_id":"cebpf4jnsgd1na2vs0mg"},{"bike_id":"95325ef4-b0bb-4faf-9063-24e1813c7845","system_id":"levelo_inurba_marseille","lat":43.28701,"lon":5.39987,"is_reserved":false,"is_disabled":false,"rental_uris":{"android":"levelo://app?vid=95325ef4-b0bb-4faf-9063-24e1813c7845","ios":"levelo://app?vid=95325ef4-b0bb-4faf-9063-24e1813c7845"},"vehicle_type_id":"4","last_reported":1732702253,"current_range_meters":20800,"station_id":"ce4bho92rcd13ifvqh3g","pricing_plan_id":"cebpf4jnsgd1na2vs0mg"},{"bike_id":"287fa067-0159-4a80-8436-f002b330f07a","system_id":"levelo_inurba_marseille","lat":43.27071,"lon":5.42278,"is_reserved":false,"is_disabled":false,"rental_uris":{"android":"levelo://app?vid=287fa067-0159-4a80-8436-f002b330f07a","ios":"levelo://app?vid=287fa067-0159-4a80-8436-f002b330f07a"},"vehicle_type_id":"4","last_reported":1732702253,"current_range_meters":38800,"station_id":"ce4bhk92rcd13ifvqgb0","pricing_plan_id":"cebpf4jnsgd1na2vs0mg"},{"bike_id":"b6df706b-8a11-4fb1-814d-c19eff907861","system_id":"levelo_inurba_marseille","lat":43.28614,"lon":5.35101,"is_reserved":false,"is_disabled":false,"rental_uris":{"android":"levelo://app?vid=b6df706b-8a11-4fb1-814d-c19eff907861","ios":"levelo://app?vid=b6df706b-8a11-4fb1-814d-c19eff907861"},"vehicle_type_id":"4","last_reported":1732702253,"current_range_meters":8400,"station_id":"ce4bhch2rcd13ifvqeug","pricing_plan_id":"cebpf4jnsgd1na2vs0mg"},{"bike_id":"4d4c884f-6933-49c0-8899-f9856d90f44d","system_id":"levelo_inurba_marseille","lat":43.29734,"lon":5.37962,"is_reserved":false,"is_disabled":true,"rental_uris":{"android":"levelo://app?vid=4d4c884f-6933-49c0-8899-f9856d90f44d","ios":"levelo://app?vid=4d4c884f-6933-49c0-8899-f9856d90f44d"},"vehicle_type_id":"4","last_reported":1732702253,"current_range_meters":0,"station_id":"","pricing_plan_id":"cebpf4jnsgd1na2vs0mg"},{"bike_id":"24b38645-9029-4d4b-97da-190c683f379b","system_id":"levelo_inurba_marseille","lat":43.29307,"lon":5.3716,"is_reserved":false,"is_disabled":false,"rental_uris":{"android":"levelo://app?vid=24b38645-9029-4d4b-97da-190c683f379b","ios":"levelo://app?vid=24b38645-9029-4d4b-97da-190c683f379b"},"vehicle_type_id":"4","last_reported":1732702253,"current_range_meters":39200,"station_id":"ce4bgh92rcd13ifvqb40","pricing_plan_id":"cebpf4jnsgd1na2vs0mg"},{"bike_id":"5c3c158a-0c99-4031-acc1-993876943ecb","system_id":"levelo_inurba_marseille","lat":43.29221,"lon":5.36063,"is_reserved":false,"is_disabled":false,"rental_uris":{"android":"levelo://app?vid=5c3c158a-0c99-4031-acc1-993876943ecb","ios":"levelo://app?vid=5c3c158a-0c99-4031-acc1-993876943ecb"},"vehicle_type_id":"4","last_reported":1732702253,"current_range_meters":30400,"station_id":"ce4bhbh2rcd13ifvqeqg","pricing_plan_id":"cebpf4jnsgd1na2vs0mg"},{"bike_id":"d6f624f5-a6fb-4f00-9e87-93689e9b021b","system_id":"levelo_inurba_marseille","lat":43.30937,"lon":5.39054,"is_reserved":false,"is_disabled":false,"rental_uris":{"android":"levelo://app?vid=d6f624f5-a6fb-4f00-9e87-93689e9b021b","ios":"levelo://app?vid=d6f624f5-a6fb-4f00-9e87-93689e9b021b"},"vehicle_type_id":"4","last_reported":1732702253,"current_range_meters":27200,"station_id":"ce4bgup2rcd13ifvqco0","pricing_plan_id":"cebpf4jnsgd1na2vs0mg"},{"bike_id":"43e60175-b97e-4e64-9a5a-2bf86d2f77ca","system_id":"levelo_inurba_marseille","lat":43.30274,"lon":5.376901,"is_reserved":false,"is_disabled":false,"rental_uris":{"android":"levelo://app?vid=43e60175-b97e-4e64-9a5a-2bf86d2f77ca","ios":"levelo://app?vid=43e60175-b97e-4e64-9a5a-2bf86d2f77ca"},"vehicle_type_id":"4","last_reported":1732702253,"current_range_meters":32800,"station_id":"ce4bguh2rcd13ifvqcj0","pricing_plan_id":"cebpf4jnsgd1na2vs0mg"},{"bike_id":"20b3d934-42a7-42b9-bb49-0833cf2f0412","system_id":"levelo_inurba_marseille","lat":43.29298,"lon":5.37166,"is_reserved":false,"is_disabled":true,"rental_uris":{"android":"levelo://app?vid=20b3d934-42a7-42b9-bb49-0833cf2f0412","ios":"levelo://app?vid=20b3d934-42a7-42b9-bb49-0833cf2f0412"},"vehicle_type_id":"4","last_reported":1732702253,"current_range_meters":38400,"station_id":"ce4bgh92rcd13ifvqb40","pricing_plan_id":"cebpf4jnsgd1na2vs0mg"},{"bike_id":"06f12833-6caa-48b0-98f2-17b68d4e3b10","system_id":"levelo_inurba_marseille","lat":43.23179,"lon":5.3999,"is_reserved":false,"is_disabled":false,"rental_uris":{"android":"levelo://app?vid=06f12833-6caa-48b0-98f2-17b68d4e3b10","ios":"levelo://app?vid=06f12833-6caa-48b0-98f2-17b68d4e3b10"},"vehicle_type_id":"4","last_reported":1732702253,"current_range_meters":6400,"station_id":"ce4bhn12rcd13ifvqgqg","pricing_plan_id":"cebpf4jnsgd1na2vs0mg"},{"bike_id":"27ad8271-c5fe-415f-845b-8714a7c98d76","system_id":"levelo_inurba_marseille","lat":43.28108,"lon":5.37831,"is_reserved":false,"is_disabled":false,"rental_uris":{"android":"levelo://app?vid=27ad8271-c5fe-415f-845b-8714a7c98d76","ios":"levelo://app?vid=27ad8271-c5fe-415f-845b-8714a7c98d76"},"vehicle_type_id":"4","last_reported":1732702253,"current_range_meters":35600,"station_id":"ce4bha12rcd13ifvqee0","pricing_plan_id":"cebpf4jnsgd1na2vs0mg"},{"bike_id":"c2c67871-d14a-4a79-ade3-c2da12334478","system_id":"levelo_inurba_marseille","lat":43.25502,"lon":5.37648,"is_reserved":false,"is_disabled":false,"rental_uris":{"android":"levelo://app?vid=c2c67871-d14a-4a79-ade3-c2da12334478","ios":"levelo://app?vid=c2c67871-d14a-4a79-ade3-c2da12334478"},"vehicle_type_id":"4","last_reported":1732702253,"current_range_meters":37600,"station_id":"ce4bhh12rcd13ifvqff0","pricing_plan_id":"cebpf4jnsgd1na2vs0mg"},{"bike_id":"f9ca3389-f0b0-42e9-b890-7ec20aa8d35e","system_id":"levelo_inurba_marseille","lat":43.29267,"lon":5.36841,"is_reserved":false,"is_disabled":true,"rental_uris":{"android":"levelo://app?vid=f9ca3389-f0b0-42e9-b890-7ec20aa8d35e","ios":"levelo://app?vid=f9ca3389-f0b0-42e9-b890-7ec20aa8d35e"},"vehicle_type_id":"4","last_reported":1732702253,"current_range_meters":11200,"station_id":"ce4bhbp2rcd13ifvqesg","pricing_plan_id":"cebpf4jnsgd1na2vs0mg"},{"bike_id":"4d809776-4d2b-4bf5-8aa6-666b5b1fd18f","system_id":"levelo_inurba_marseille","lat":43.337234,"lon":5.391912,"is_reserved":false,"is_disabled":false,"rental_uris":{"android":"levelo://app?vid=4d809776-4d2b-4bf5-8aa6-666b5b1fd18f","ios":"levelo://app?vid=4d809776-4d2b-4bf5-8aa6-666b5b1fd18f"},"vehicle_type_id":"4","last_reported":1732702253,"current_range_meters":38400,"station_id":"ce4bhr92rcd13ifvqhsg","pricing_plan_id":"cebpf4jnsgd1na2vs0mg"},{"bike_id":"55857015-4925-4b83-9c73-4a782a962aeb","system_id":"levelo_inurba_marseille","lat":43.309525,"lon":5.390362,"is_reserved":false,"is_disabled":false,"rental_uris":{"android":"levelo://app?vid=55857015-4925-4b83-9c73-4a782a962aeb","ios":"levelo://app?vid=55857015-4925-4b83-9c73-4a782a962aeb"},"vehicle_type_id":"4","last_reported":1732702253,"current_range_meters":28800,"station_id":"ce4bgup2rcd13ifvqco0","pricing_plan_id":"cebpf4jnsgd1na2vs0mg"},{"bike_id":"b08e20b5-f00e-4042-93cf-68b043595c11","system_id":"levelo_inurba_marseille","lat":43.2668,"lon":5.38266,"is_reserved":false,"is_disabled":false,"rental_uris":{"android":"levelo://app?vid=b08e20b5-f00e-4042-93cf-68b043595c11","ios":"levelo://app?vid=b08e20b5-f00e-4042-93cf-68b043595c11"},"vehicle_type_id":"4","last_reported":1732702253,"current_range_meters":34000,"station_id":"ce4bhg92rcd13ifvqf90","pricing_plan_id":"cebpf4jnsgd1na2vs0mg"},{"bike_id":"7dccca16-9c81-46ba-8ec7-8ac114550316","system_id":"levelo_inurba_marseille","lat":43.337444,"lon":5.374475,"is_reserved":false,"is_disabled":false,"rental_uris":{"android":"levelo://app?vid=7dccca16-9c81-46ba-8ec7-8ac114550316","ios":"levelo://app?vid=7dccca16-9c81-46ba-8ec7-8ac114550316"},"vehicle_type_id":"4","last_reported":1732702253,"current_range_meters":38400,"station_id":"","pricing_plan_id":"cebpf4jnsgd1na2vs0mg"},{"bike_id":"339850c3-d6a6-49d9-9bea-bb2f74b15c16","system_id":"levelo_inurba_marseille","lat":43.29534,"lon":5.38546,"is_reserved":false,"is_disabled":true,"rental_uris":{"android":"levelo://app?vid=339850c3-d6a6-49d9-9bea-bb2f74b15c16","ios":"levelo://app?vid=339850c3-d6a6-49d9-9bea-bb2f74b15c16"},"vehicle_type_id":"4","last_reported":1732702253,"current_range_meters":33600,"station_id":"ce4bgih2rcd13ifvqba0","pricing_plan_id":"cebpf4jnsgd1na2vs0mg"},{"bike_id":"7b0fcf71-fb01-419a-9848-4fa145dcb1f7","system_id":"levelo_inurba_marseille","lat":43.30596,"lon":5.3723,"is_reserved":false,"is_disabled":false,"rental_uris":{"android":"levelo://app?vid=7b0fcf71-fb01-419a-9848-4fa145dcb1f7","ios":"levelo://app?vid=7b0fcf71-fb01-419a-9848-4fa145dcb1f7"},"vehicle_type_id":"4","last_reported":1732702253,"current_range_meters":28800,"station_id":"ce4bgqh2rcd13ifvqc4g","pricing_plan_id":"cebpf4jnsgd1na2vs0mg"},{"bike_id":"632211cd-b346-4150-9c78-c71d7b11441f","system_id":"levelo_inurba_marseille","lat":43.33603,"lon":5.41024,"is_reserved":false,"is_disabled":true,"rental_uris":{"android":"levelo://app?vid=632211cd-b346-4150-9c78-c71d7b11441f","ios":"levelo://app?vid=632211cd-b346-4150-9c78-c71d7b11441f"},"vehicle_type_id":"4","last_reported":1732702253,"current_range_meters":12400,"station_id":"ce4bhqh2rcd13ifvqhmg","pricing_plan_id":"cebpf4jnsgd1na2vs0mg"},{"bike_id":"834fa57d-9857-4cdc-bc18-1867eaf6f20a","system_id":"levelo_inurba_marseille","lat":43.30543,"lon":5.36527,"is_reserved":false,"is_disabled":true,"rental_uris":{"android":"levelo://app?vid=834fa57d-9857-4cdc-bc18-1867eaf6f20a","ios":"levelo://app?vid=834fa57d-9857-4cdc-bc18-1867eaf6f20a"},"vehicle_type_id":"4","last_reported":1732702253,"current_range_meters":14400,"station_id":"ce4bgs12rcd13ifvqcag","pricing_plan_id":"cebpf4jnsgd1na2vs0mg"},{"bike_id":"242eba8c-5633-44b9-9a97-b18308730ded","system_id":"levelo_inurba_marseille","lat":43.2408,"lon":5.37746,"is_reserved":false,"is_disabled":false,"rental_uris":{"android":"levelo://app?vid=242eba8c-5633-44b9-9a97-b18308730ded","ios":"levelo://app?vid=242eba8c-5633-44b9-9a97-b18308730ded"},"vehicle_type_id":"4","last_reported":1732702253,"current_range_meters":25200,"station_id":"ce4bhnp2rcd13ifvqgvg","pricing_plan_id":"cebpf4jnsgd1na2vs0mg"},{"bike_id":"9ca0bee1-3ee3-42dd-bd49-56d5f853d816","system_id":"levelo_inurba_marseille","lat":43.24073,"lon":5.37754,"is_reserved":false,"is_disabled":false,"rental_uris":{"android":"levelo://app?vid=9ca0bee1-3ee3-42dd-bd49-56d5f853d816","ios":"levelo://app?vid=9ca0bee1-3ee3-42dd-bd49-56d5f853d816"},"vehicle_type_id":"4","last_reported":1732702253,"current_range_meters":34000,"station_id":"ce4bhnp2rcd13ifvqgvg","pricing_plan_id":"cebpf4jnsgd1na2vs0mg"},{"bike_id":"a438eb2a-f094-45fb-9d9f-e3104e454d1d","system_id":"levelo_inurba_marseille","lat":43.27323,"lon":5.39076,"is_reserved":false,"is_disabled":false,"rental_uris":{"android":"levelo://app?vid=a438eb2a-f094-45fb-9d9f-e3104e454d1d","ios":"levelo://app?vid=a438eb2a-f094-45fb-9d9f-e3104e454d1d"},"vehicle_type_id":"4","last_reported":1732702253,"current_range_meters":8000,"station_id":"ce4bhgp2rcd13ifvqfe0","pricing_plan_id":"cebpf4jnsgd1na2vs0mg"},{"bike_id":"a71d24b9-b22e-418c-be0b-37629e71fe9a","system_id":"levelo_inurba_marseille","lat":43.24073,"lon":5.37748,"is_reserved":false,"is_disabled":false,"rental_uris":{"android":"levelo://app?vid=a71d24b9-b22e-418c-be0b-37629e71fe9a","ios":"levelo://app?vid=a71d24b9-b22e-418c-be0b-37629e71fe9a"},"vehicle_type_id":"4","last_reported":1732702253,"current_range_meters":27200,"station_id":"ce4bhnp2rcd13ifvqgvg","pricing_plan_id":"cebpf4jnsgd1na2vs0mg"},{"bike_id":"bc313ab8-a6b4-45fb-89b7-ffdf65698691","system_id":"levelo_inurba_marseille","lat":43.27493,"lon":5.42446,"is_reserved":false,"is_disabled":false,"rental_uris":{"android":"levelo://app?vid=bc313ab8-a6b4-45fb-89b7-ffdf65698691","ios":"levelo://app?vid=bc313ab8-a6b4-45fb-89b7-ffdf65698691"},"vehicle_type_id":"4","last_reported":1732702253,"current_range_meters":22800,"station_id":"ce4bhn92rcd13ifvqgrg","pricing_plan_id":"cebpf4jnsgd1na2vs0mg"},{"bike_id":"ef8fb3cc-7d24-4ab9-bc53-e2e3dcae106a","system_id":"levelo_inurba_marseille","lat":43.30527,"lon":5.3671,"is_reserved":false,"is_disabled":false,"rental_uris":{"android":"levelo://app?vid=ef8fb3cc-7d24-4ab9-bc53-e2e3dcae106a","ios":"levelo://app?vid=ef8fb3cc-7d24-4ab9-bc53-e2e3dcae106a"},"vehicle_type_id":"4","last_reported":1732702253,"current_range_meters":30000,"station_id":"ce4bgrp2rcd13ifvqc9g","pricing_plan_id":"cebpf4jnsgd1na2vs0mg"},{"bike_id":"6a243988-d267-4e1e-bafc-c091870de6a8","system_id":"levelo_inurba_marseille","lat":43.24168,"lon":5.36403,"is_reserved":false,"is_disabled":false,"rental_uris":{"android":"levelo://app?vid=6a243988-d267-4e1e-bafc-c091870de6a8","ios":"levelo://app?vid=6a243988-d267-4e1e-bafc-c091870de6a8"},"vehicle_type_id":"4","last_reported":1732702253,"current_range_meters":35600,"station_id":"cpo36qri1sfpv3e86is0","pricing_plan_id":"cebpf4jnsgd1na2vs0mg"},{"bike_id":"1d52e8b3-c48e-4170-8a24-4c34b66e4851","system_id":"levelo_inurba_marseille","lat":43.25823,"lon":5.39432,"is_reserved":false,"is_disabled":false,"rental_uris":{"android":"levelo://app?vid=1d52e8b3-c48e-4170-8a24-4c34b66e4851","ios":"levelo://app?vid=1d52e8b3-c48e-4170-8a24-4c34b66e4851"},"vehicle_type_id":"4","last_reported":1732702253,"current_range_meters":38800,"station_id":"ce4bhip2rcd13ifvqft0","pricing_plan_id":"cebpf4jnsgd1na2vs0mg"},{"bike_id":"73e79c68-7a90-47f8-9922-2353c41d96e7","system_id":"levelo_inurba_marseille","lat":43.28452,"lon":5.39547,"is_reserved":false,"is_disabled":false,"rental_uris":{"android":"levelo://app?vid=73e79c68-7a90-47f8-9922-2353c41d96e7","ios":"levelo://app?vid=73e79c68-7a90-47f8-9922-2353c41d96e7"},"vehicle_type_id":"4","last_reported":1732702253,"current_range_meters":6800,"station_id":"","pricing_plan_id":"cebpf4jnsgd1na2vs0mg"},{"bike_id":"d67c5e4f-7e3f-4816-a7a8-21590cc279a6","system_id":"levelo_inurba_marseille","lat":43.30783,"lon":5.38169,"is_reserved":false,"is_disabled":true,"rental_uris":{"android":"levelo://app?vid=d67c5e4f-7e3f-4816-a7a8-21590cc279a6","ios":"levelo://app?vid=d67c5e4f-7e3f-4816-a7a8-21590cc279a6"},"vehicle_type_id":"4","last_reported":1732702253,"current_range_meters":800,"station_id":"ce4bgt12rcd13ifvqce0","pricing_plan_id":"cebpf4jnsgd1na2vs0mg"},{"bike_id":"b2cad061-f3e8-4d8f-88a3-a15f8a131ef2","system_id":"levelo_inurba_marseille","lat":43.30644,"lon":5.40099,"is_reserved":false,"is_disabled":true,"rental_uris":{"android":"levelo://app?vid=b2cad061-f3e8-4d8f-88a3-a15f8a131ef2","ios":"levelo://app?vid=b2cad061-f3e8-4d8f-88a3-a15f8a131ef2"},"vehicle_type_id":"4","last_reported":1732702253,"current_range_meters":1200,"station_id":"ce4bh112rcd13ifvqda0","pricing_plan_id":"cebpf4jnsgd1na2vs0mg"},{"bike_id":"39b04c21-6a6a-40a7-a489-741c2b67c9bd","system_id":"levelo_inurba_marseille","lat":43.33726,"lon":5.39191,"is_reserved":false,"is_disabled":false,"rental_uris":{"android":"levelo://app?vid=39b04c21-6a6a-40a7-a489-741c2b67c9bd","ios":"levelo://app?vid=39b04c21-6a6a-40a7-a489-741c2b67c9bd"},"vehicle_type_id":"4","last_reported":1732702253,"current_range_meters":10800,"station_id":"ce4bhr92rcd13ifvqhsg","pricing_plan_id":"cebpf4jnsgd1na2vs0mg"},{"bike_id":"e465c5d0-0923-4e47-9eed-14fbda58d8e8","system_id":"levelo_inurba_marseille","lat":43.262,"lon":5.37926,"is_reserved":false,"is_disabled":false,"rental_uris":{"android":"levelo://app?vid=e465c5d0-0923-4e47-9eed-14fbda58d8e8","ios":"levelo://app?vid=e465c5d0-0923-4e47-9eed-14fbda58d8e8"},"vehicle_type_id":"4","last_reported":1732702253,"current_range_meters":26000,"station_id":"ce4bhjp2rcd13ifvqg90","pricing_plan_id":"cebpf4jnsgd1na2vs0mg"},{"bike_id":"fed165e5-8382-4dd2-865b-69f1cdb3e32b","system_id":"levelo_inurba_marseille","lat":43.31358,"lon":5.36712,"is_reserved":false,"is_disabled":false,"rental_uris":{"android":"levelo://app?vid=fed165e5-8382-4dd2-865b-69f1cdb3e32b","ios":"levelo://app?vid=fed165e5-8382-4dd2-865b-69f1cdb3e32b"},"vehicle_type_id":"4","last_reported":1732702253,"current_range_meters":20400,"station_id":"ce4bgr92rcd13ifvqc6g","pricing_plan_id":"cebpf4jnsgd1na2vs0mg"},{"bike_id":"6399fd12-8aa7-4c62-b7cd-b0948e694e6d","system_id":"levelo_inurba_marseille","lat":43.30138,"lon":5.37404,"is_reserved":false,"is_disabled":false,"rental_uris":{"android":"levelo://app?vid=6399fd12-8aa7-4c62-b7cd-b0948e694e6d","ios":"levelo://app?vid=6399fd12-8aa7-4c62-b7cd-b0948e694e6d"},"vehicle_type_id":"4","last_reported":1732702253,"current_range_meters":9200,"station_id":"ce4bgs92rcd13ifvqcc0","pricing_plan_id":"cebpf4jnsgd1na2vs0mg"},{"bike_id":"65b3b4ff-fcad-4392-8d5a-6429e3110950","system_id":"levelo_inurba_marseille","lat":43.30531,"lon":5.38427,"is_reserved":false,"is_disabled":false,"rental_uris":{"android":"levelo://app?vid=65b3b4ff-fcad-4392-8d5a-6429e3110950","ios":"levelo://app?vid=65b3b4ff-fcad-4392-8d5a-6429e3110950"},"vehicle_type_id":"4","last_reported":1732702253,"current_range_meters":24400,"station_id":"ce4bgg92rcd13ifvqb30","pricing_plan_id":"cebpf4jnsgd1na2vs0mg"},{"bike_id":"7d51e624-0ea6-4353-a684-c3afe6c0bb90","system_id":"levelo_inurba_marseille","lat":43.25583,"lon":5.38245,"is_reserved":false,"is_disabled":false,"rental_uris":{"android":"levelo://app?vid=7d51e624-0ea6-4353-a684-c3afe6c0bb90","ios":"levelo://app?vid=7d51e624-0ea6-4353-a684-c3afe6c0bb90"},"vehicle_type_id":"4","last_reported":1732702253,"current_range_meters":39200,"station_id":"ce4bhih2rcd13ifvqfs0","pricing_plan_id":"cebpf4jnsgd1na2vs0mg"},{"bike_id":"0d187e76-66aa-4367-ae99-cbcc7b08c514","system_id":"levelo_inurba_marseille","lat":43.27429,"lon":5.39416,"is_reserved":false,"is_disabled":false,"rental_uris":{"android":"levelo://app?vid=0d187e76-66aa-4367-ae99-cbcc7b08c514","ios":"levelo://app?vid=0d187e76-66aa-4367-ae99-cbcc7b08c514"},"vehicle_type_id":"4","last_reported":1732702253,"current_range_meters":34800,"station_id":"ce4bhdp2rcd13ifvqf20","pricing_plan_id":"cebpf4jnsgd1na2vs0mg"},{"bike_id":"d0efdbb4-8350-4368-8476-c95f775462d2","system_id":"levelo_inurba_marseille","lat":43.29254,"lon":5.40906,"is_reserved":false,"is_disabled":true,"rental_uris":{"android":"levelo://app?vid=d0efdbb4-8350-4368-8476-c95f775462d2","ios":"levelo://app?vid=d0efdbb4-8350-4368-8476-c95f775462d2"},"vehicle_type_id":"4","last_reported":1732702253,"current_range_meters":8400,"station_id":"ce4bh192rcd13ifvqdc0","pricing_plan_id":"cebpf4jnsgd1na2vs0mg"},{"bike_id":"77a7c74a-5fc3-4221-a223-9185f3e6bfc6","system_id":"levelo_inurba_marseille","lat":43.313019,"lon":5.385717,"is_reserved":false,"is_disabled":false,"rental_uris":{"android":"levelo://app?vid=77a7c74a-5fc3-4221-a223-9185f3e6bfc6","ios":"levelo://app?vid=77a7c74a-5fc3-4221-a223-9185f3e6bfc6"},"vehicle_type_id":"4","last_reported":1732702253,"current_range_meters":38800,"station_id":"ce4bgt92rcd13ifvqcf0","pricing_plan_id":"cebpf4jnsgd1na2vs0mg"},{"bike_id":"e1407f29-7f53-45cb-a6d7-81bbf060b4eb","system_id":"levelo_inurba_marseille","lat":43.304299,"lon":5.397489,"is_reserved":false,"is_disabled":true,"rental_uris":{"android":"levelo://app?vid=e1407f29-7f53-45cb-a6d7-81bbf060b4eb","ios":"levelo://app?vid=e1407f29-7f53-45cb-a6d7-81bbf060b4eb"},"vehicle_type_id":"4","last_reported":1732702253,"current_range_meters":18000,"station_id":"ce4bh092rcd13ifvqd20","pricing_plan_id":"cebpf4jnsgd1na2vs0mg"},{"bike_id":"f3b2cf9b-41cc-4bae-8991-d9221e0e0cfc","system_id":"levelo_inurba_marseille","lat":43.28267,"lon":5.35062,"is_reserved":false,"is_disabled":false,"rental_uris":{"android":"levelo://app?vid=f3b2cf9b-41cc-4bae-8991-d9221e0e0cfc","ios":"levelo://app?vid=f3b2cf9b-41cc-4bae-8991-d9221e0e0cfc"},"vehicle_type_id":"4","last_reported":1732702253,"current_range_meters":39200,"station_id":"ce4bhbp2rcd13ifvqerg","pricing_plan_id":"cebpf4jnsgd1na2vs0mg"},{"bike_id":"36296f5c-0176-4be0-97c8-7930cda9c369","system_id":"levelo_inurba_marseille","lat":43.32101,"lon":5.36769,"is_reserved":false,"is_disabled":false,"rental_uris":{"android":"levelo://app?vid=36296f5c-0176-4be0-97c8-7930cda9c369","ios":"levelo://app?vid=36296f5c-0176-4be0-97c8-7930cda9c369"},"vehicle_type_id":"4","last_reported":1732702253,"current_range_meters":16800,"station_id":"ce4bhrh2rcd13ifvqhug","pricing_plan_id":"cebpf4jnsgd1na2vs0mg"},{"bike_id":"2015b399-7b63-48fc-9f8f-3dc77f0f11c3","system_id":"levelo_inurba_marseille","lat":43.2396,"lon":5.36645,"is_reserved":false,"is_disabled":false,"rental_uris":{"android":"levelo://app?vid=2015b399-7b63-48fc-9f8f-3dc77f0f11c3","ios":"levelo://app?vid=2015b399-7b63-48fc-9f8f-3dc77f0f11c3"},"vehicle_type_id":"4","last_reported":1732702253,"current_range_meters":38800,"station_id":"ce4bhi12rcd13ifvqfp0","pricing_plan_id":"cebpf4jnsgd1na2vs0mg"},{"bike_id":"9a92641d-a635-431b-8e25-61f1390e0ac8","system_id":"levelo_inurba_marseille","lat":43.32066,"lon":5.41549,"is_reserved":false,"is_disabled":false,"rental_uris":{"android":"levelo://app?vid=9a92641d-a635-431b-8e25-61f1390e0ac8","ios":"levelo://app?vid=9a92641d-a635-431b-8e25-61f1390e0ac8"},"vehicle_type_id":"4","last_reported":1732702253,"current_range_meters":30400,"station_id":"ce4bhq92rcd13ifvqhkg","pricing_plan_id":"cebpf4jnsgd1na2vs0mg"},{"bike_id":"be4d2d1c-e4ca-47d5-a123-024b21714b07","system_id":"levelo_inurba_marseille","lat":43.30914,"lon":5.36848,"is_reserved":false,"is_disabled":false,"rental_uris":{"android":"levelo://app?vid=be4d2d1c-e4ca-47d5-a123-024b21714b07","ios":"levelo://app?vid=be4d2d1c-e4ca-47d5-a123-024b21714b07"},"vehicle_type_id":"4","last_reported":1732702253,"current_range_meters":39200,"station_id":"ce4bgn92rcd13ifvqbvg","pricing_plan_id":"cebpf4jnsgd1na2vs0mg"},{"bike_id":"4ec7edb8-f70c-40c0-bb02-70e998cefbe6","system_id":"levelo_inurba_marseille","lat":43.29804,"lon":5.38189,"is_reserved":false,"is_disabled":false,"rental_uris":{"android":"levelo://app?vid=4ec7edb8-f70c-40c0-bb02-70e998cefbe6","ios":"levelo://app?vid=4ec7edb8-f70c-40c0-bb02-70e998cefbe6"},"vehicle_type_id":"4","last_reported":1732702253,"current_range_meters":28000,"station_id":"ce4bgkh2rcd13ifvqbl0","pricing_plan_id":"cebpf4jnsgd1na2vs0mg"},{"bike_id":"06632664-fc16-44fe-8964-80c9649dbbe2","system_id":"levelo_inurba_marseille","lat":43.28269,"lon":5.35055,"is_reserved":false,"is_disabled":false,"rental_uris":{"android":"levelo://app?vid=06632664-fc16-44fe-8964-80c9649dbbe2","ios":"levelo://app?vid=06632664-fc16-44fe-8964-80c9649dbbe2"},"vehicle_type_id":"4","last_reported":1732702253,"current_range_meters":21600,"station_id":"ce4bhbp2rcd13ifvqerg","pricing_plan_id":"cebpf4jnsgd1na2vs0mg"},{"bike_id":"a6d7a9b9-988c-45e5-b37b-3a86475a2324","system_id":"levelo_inurba_marseille","lat":43.24072,"lon":5.37761,"is_reserved":false,"is_disabled":false,"rental_uris":{"android":"levelo://app?vid=a6d7a9b9-988c-45e5-b37b-3a86475a2324","ios":"levelo://app?vid=a6d7a9b9-988c-45e5-b37b-3a86475a2324"},"vehicle_type_id":"4","last_reported":1732702253,"current_range_meters":38800,"station_id":"ce4bhnp2rcd13ifvqgvg","pricing_plan_id":"cebpf4jnsgd1na2vs0mg"},{"bike_id":"39337a25-0d00-439d-b466-b5cba86f9c46","system_id":"levelo_inurba_marseille","lat":43.26568,"lon":5.38994,"is_reserved":false,"is_disabled":false,"rental_uris":{"android":"levelo://app?vid=39337a25-0d00-439d-b466-b5cba86f9c46","ios":"levelo://app?vid=39337a25-0d00-439d-b466-b5cba86f9c46"},"vehicle_type_id":"4","last_reported":1732702253,"current_range_meters":24800,"station_id":"ce4bhe12rcd13ifvqf30","pricing_plan_id":"cebpf4jnsgd1na2vs0mg"},{"bike_id":"31647841-3a41-42b3-9b41-120f2c141ef3","system_id":"levelo_inurba_marseille","lat":43.30149,"lon":5.38071,"is_reserved":false,"is_disabled":false,"rental_uris":{"android":"levelo://app?vid=31647841-3a41-42b3-9b41-120f2c141ef3","ios":"levelo://app?vid=31647841-3a41-42b3-9b41-120f2c141ef3"},"vehicle_type_id":"4","last_reported":1732702253,"current_range_meters":32800,"station_id":"ce4bgjp2rcd13ifvqbh0","pricing_plan_id":"cebpf4jnsgd1na2vs0mg"},{"bike_id":"3fb4bf40-3244-4e47-8fea-9dc5b0fd98ab","system_id":"levelo_inurba_marseille","lat":43.34149,"lon":5.40903,"is_reserved":false,"is_disabled":false,"rental_uris":{"android":"levelo://app?vid=3fb4bf40-3244-4e47-8fea-9dc5b0fd98ab","ios":"levelo://app?vid=3fb4bf40-3244-4e47-8fea-9dc5b0fd98ab"},"vehicle_type_id":"4","last_reported":1732702253,"current_range_meters":20000,"station_id":"ce4bhqh2rcd13ifvqhlg","pricing_plan_id":"cebpf4jnsgd1na2vs0mg"},{"bike_id":"829a0840-8576-4508-91f6-9853744029c7","system_id":"levelo_inurba_marseille","lat":43.24544,"lon":5.39521,"is_reserved":false,"is_disabled":false,"rental_uris":{"android":"levelo://app?vid=829a0840-8576-4508-91f6-9853744029c7","ios":"levelo://app?vid=829a0840-8576-4508-91f6-9853744029c7"},"vehicle_type_id":"4","last_reported":1732702253,"current_range_meters":25600,"station_id":"ce4bhlp2rcd13ifvqgjg","pricing_plan_id":"cebpf4jnsgd1na2vs0mg"},{"bike_id":"18830488-d9e3-436c-91df-d574eaa7bdd7","system_id":"levelo_inurba_marseille","lat":43.2953,"lon":5.39025,"is_reserved":false,"is_disabled":true,"rental_uris":{"android":"levelo://app?vid=18830488-d9e3-436c-91df-d574eaa7bdd7","ios":"levelo://app?vid=18830488-d9e3-436c-91df-d574eaa7bdd7"},"vehicle_type_id":"4","last_reported":1732702253,"current_range_meters":38800,"station_id":"ce4bh3p2rcd13ifvqdp0","pricing_plan_id":"cebpf4jnsgd1na2vs0mg"},{"bike_id":"699a92ef-9bdf-44a5-b698-21e6b9fa89fb","system_id":"levelo_inurba_marseille","lat":43.29908,"lon":5.38133,"is_reserved":false,"is_disabled":true,"rental_uris":{"android":"levelo://app?vid=699a92ef-9bdf-44a5-b698-21e6b9fa89fb","ios":"levelo://app?vid=699a92ef-9bdf-44a5-b698-21e6b9fa89fb"},"vehicle_type_id":"4","last_reported":1732702253,"current_range_meters":38400,"station_id":"ce4bgj12rcd13ifvqbc0","pricing_plan_id":"cebpf4jnsgd1na2vs0mg"},{"bike_id":"604dd96f-5e5b-41a0-9904-5b7d85d376d6","system_id":"levelo_inurba_marseille","lat":43.29565,"lon":5.37505,"is_reserved":false,"is_disabled":true,"rental_uris":{"android":"levelo://app?vid=604dd96f-5e5b-41a0-9904-5b7d85d376d6","ios":"levelo://app?vid=604dd96f-5e5b-41a0-9904-5b7d85d376d6"},"vehicle_type_id":"4","last_reported":1732702253,"current_range_meters":9200,"station_id":"ce4bgh92rcd13ifvqb50","pricing_plan_id":"cebpf4jnsgd1na2vs0mg"},{"bike_id":"f02d1dd8-2f4d-4901-ac52-3ec3998b87a7","system_id":"levelo_inurba_marseille","lat":43.30444,"lon":5.37918,"is_reserved":false,"is_disabled":false,"rental_uris":{"android":"levelo://app?vid=f02d1dd8-2f4d-4901-ac52-3ec3998b87a7","ios":"levelo://app?vid=f02d1dd8-2f4d-4901-ac52-3ec3998b87a7"},"vehicle_type_id":"4","last_reported":1732702253,"current_range_meters":38400,"station_id":"ce4bgup2rcd13ifvqcn0","pricing_plan_id":"cebpf4jnsgd1na2vs0mg"},{"bike_id":"1cd78e3c-eca2-430e-a00b-3450b52eb373","system_id":"levelo_inurba_marseille","lat":43.22928,"lon":5.3538,"is_reserved":false,"is_disabled":false,"rental_uris":{"android":"levelo://app?vid=1cd78e3c-eca2-430e-a00b-3450b52eb373","ios":"levelo://app?vid=1cd78e3c-eca2-430e-a00b-3450b52eb373"},"vehicle_type_id":"4","last_reported":1732702253,"current_range_meters":37600,"station_id":"cpo3532slgdg3j2ikp40","pricing_plan_id":"cebpf4jnsgd1na2vs0mg"},{"bike_id":"f6bfaf70-a9dc-4d17-af73-2831edc13099","system_id":"levelo_inurba_marseille","lat":43.25579,"lon":5.38233,"is_reserved":false,"is_disabled":false,"rental_uris":{"android":"levelo://app?vid=f6bfaf70-a9dc-4d17-af73-2831edc13099","ios":"levelo://app?vid=f6bfaf70-a9dc-4d17-af73-2831edc13099"},"vehicle_type_id":"4","last_reported":1732702253,"current_range_meters":26800,"station_id":"ce4bhih2rcd13ifvqfs0","pricing_plan_id":"cebpf4jnsgd1na2vs0mg"},{"bike_id":"3384cba6-44e1-4691-9025-2f078c945faf","system_id":"levelo_inurba_marseille","lat":43.24672,"lon":5.38154,"is_reserved":false,"is_disabled":false,"rental_uris":{"android":"levelo://app?vid=3384cba6-44e1-4691-9025-2f078c945faf","ios":"levelo://app?vid=3384cba6-44e1-4691-9025-2f078c945faf"},"vehicle_type_id":"4","last_reported":1732702253,"current_range_meters":23200,"station_id":"ce4bhih2rcd13ifvqfr0","pricing_plan_id":"cebpf4jnsgd1na2vs0mg"},{"bike_id":"28915062-1464-41e4-bc41-88c2d611d1e3","system_id":"levelo_inurba_marseille","lat":43.27991,"lon":5.40007,"is_reserved":false,"is_disabled":false,"rental_uris":{"android":"levelo://app?vid=28915062-1464-41e4-bc41-88c2d611d1e3","ios":"levelo://app?vid=28915062-1464-41e4-bc41-88c2d611d1e3"},"vehicle_type_id":"4","last_reported":1732702253,"current_range_meters":37600,"station_id":"ce4bho92rcd13ifvqh4g","pricing_plan_id":"cebpf4jnsgd1na2vs0mg"},{"bike_id":"6a391aae-96f8-4c1b-aad8-816e21ee8300","system_id":"levelo_inurba_marseille","lat":43.29015,"lon":5.35583,"is_reserved":false,"is_disabled":false,"rental_uris":{"android":"levelo://app?vid=6a391aae-96f8-4c1b-aad8-816e21ee8300","ios":"levelo://app?vid=6a391aae-96f8-4c1b-aad8-816e21ee8300"},"vehicle_type_id":"4","last_reported":1732702253,"current_range_meters":26000,"station_id":"ce4bhb92rcd13ifvqen0","pricing_plan_id":"cebpf4jnsgd1na2vs0mg"},{"bike_id":"f1b41902-7b26-496c-8015-7bbf805aeb52","system_id":"levelo_inurba_marseille","lat":43.292748,"lon":5.368334,"is_reserved":false,"is_disabled":true,"rental_uris":{"android":"levelo://app?vid=f1b41902-7b26-496c-8015-7bbf805aeb52","ios":"levelo://app?vid=f1b41902-7b26-496c-8015-7bbf805aeb52"},"vehicle_type_id":"4","last_reported":1732702253,"current_range_meters":36000,"station_id":"ce4bhbp2rcd13ifvqesg","pricing_plan_id":"cebpf4jnsgd1na2vs0mg"},{"bike_id":"b229d446-8386-4daf-9dc9-16d46d904c92","system_id":"levelo_inurba_marseille","lat":43.24075,"lon":5.37762,"is_reserved":false,"is_disabled":false,"rental_uris":{"android":"levelo://app?vid=b229d446-8386-4daf-9dc9-16d46d904c92","ios":"levelo://app?vid=b229d446-8386-4daf-9dc9-16d46d904c92"},"vehicle_type_id":"4","last_reported":1732702253,"current_range_meters":19600,"station_id":"ce4bhnp2rcd13ifvqgvg","pricing_plan_id":"cebpf4jnsgd1na2vs0mg"},{"bike_id":"7cdd16fa-31b7-4813-a58f-0b924932b71e","system_id":"levelo_inurba_marseille","lat":43.27209,"lon":5.39184,"is_reserved":false,"is_disabled":false,"rental_uris":{"android":"levelo://app?vid=7cdd16fa-31b7-4813-a58f-0b924932b71e","ios":"levelo://app?vid=7cdd16fa-31b7-4813-a58f-0b924932b71e"},"vehicle_type_id":"4","last_reported":1732702253,"current_range_meters":8000,"station_id":"ce4bhhp2rcd13ifvqfm0","pricing_plan_id":"cebpf4jnsgd1na2vs0mg"},{"bike_id":"11004d7b-4c65-40af-bcfc-c714ae5f9afc","system_id":"levelo_inurba_marseille","lat":43.29916,"lon":5.37472,"is_reserved":false,"is_disabled":false,"rental_uris":{"android":"levelo://app?vid=11004d7b-4c65-40af-bcfc-c714ae5f9afc","ios":"levelo://app?vid=11004d7b-4c65-40af-bcfc-c714ae5f9afc"},"vehicle_type_id":"4","last_reported":1732702253,"current_range_meters":28800,"station_id":"ce4bgjh2rcd13ifvqbg0","pricing_plan_id":"cebpf4jnsgd1na2vs0mg"},{"bike_id":"7661e34e-ac55-4dca-b4c7-31a506d67932","system_id":"levelo_inurba_marseille","lat":43.2594,"lon":5.40903,"is_reserved":false,"is_disabled":false,"rental_uris":{"android":"levelo://app?vid=7661e34e-ac55-4dca-b4c7-31a506d67932","ios":"levelo://app?vid=7661e34e-ac55-4dca-b4c7-31a506d67932"},"vehicle_type_id":"4","last_reported":1732702253,"current_range_meters":11200,"station_id":"ce4bhm92rcd13ifvqglg","pricing_plan_id":"cebpf4jnsgd1na2vs0mg"},{"bike_id":"bdf3672a-3699-4daf-8d40-46a3aead35d3","system_id":"levelo_inurba_marseille","lat":43.24546,"lon":5.3952,"is_reserved":false,"is_disabled":false,"rental_uris":{"android":"levelo://app?vid=bdf3672a-3699-4daf-8d40-46a3aead35d3","ios":"levelo://app?vid=bdf3672a-3699-4daf-8d40-46a3aead35d3"},"vehicle_type_id":"4","last_reported":1732702253,"current_range_meters":25200,"station_id":"ce4bhlp2rcd13ifvqgjg","pricing_plan_id":"cebpf4jnsgd1na2vs0mg"},{"bike_id":"2e95a691-d7d8-426b-8dba-47b6b56c6a41","system_id":"levelo_inurba_marseille","lat":43.28153,"lon":5.42639,"is_reserved":false,"is_disabled":true,"rental_uris":{"android":"levelo://app?vid=2e95a691-d7d8-426b-8dba-47b6b56c6a41","ios":"levelo://app?vid=2e95a691-d7d8-426b-8dba-47b6b56c6a41"},"vehicle_type_id":"4","last_reported":1732702253,"current_range_meters":2000,"station_id":"ce4bhnh2rcd13ifvqgug","pricing_plan_id":"cebpf4jnsgd1na2vs0mg"},{"bike_id":"10000ca8-7170-445c-9849-3362a6f7f388","system_id":"levelo_inurba_marseille","lat":43.29225,"lon":5.36068,"is_reserved":false,"is_disabled":false,"rental_uris":{"android":"levelo://app?vid=10000ca8-7170-445c-9849-3362a6f7f388","ios":"levelo://app?vid=10000ca8-7170-445c-9849-3362a6f7f388"},"vehicle_type_id":"4","last_reported":1732702253,"current_range_meters":26000,"station_id":"ce4bhbh2rcd13ifvqeqg","pricing_plan_id":"cebpf4jnsgd1na2vs0mg"},{"bike_id":"cbc9f954-8758-40c7-a093-276daeb1d283","system_id":"levelo_inurba_marseille","lat":43.31361,"lon":5.36706,"is_reserved":false,"is_disabled":false,"rental_uris":{"android":"levelo://app?vid=cbc9f954-8758-40c7-a093-276daeb1d283","ios":"levelo://app?vid=cbc9f954-8758-40c7-a093-276daeb1d283"},"vehicle_type_id":"4","last_reported":1732702253,"current_range_meters":20800,"station_id":"ce4bgr92rcd13ifvqc6g","pricing_plan_id":"cebpf4jnsgd1na2vs0mg"},{"bike_id":"fba1ceb6-3cef-4b3a-8f1d-cb2909f800c4","system_id":"levelo_inurba_marseille","lat":43.31363,"lon":5.3668,"is_reserved":false,"is_disabled":false,"rental_uris":{"android":"levelo://app?vid=fba1ceb6-3cef-4b3a-8f1d-cb2909f800c4","ios":"levelo://app?vid=fba1ceb6-3cef-4b3a-8f1d-cb2909f800c4"},"vehicle_type_id":"4","last_reported":1732702253,"current_range_meters":38400,"station_id":"ce4bgr92rcd13ifvqc6g","pricing_plan_id":"cebpf4jnsgd1na2vs0mg"},{"bike_id":"a5848fc1-9c38-4c0f-8cd3-7a1f74903e08","system_id":"levelo_inurba_marseille","lat":43.23188,"lon":5.39979,"is_reserved":false,"is_disabled":false,"rental_uris":{"android":"levelo://app?vid=a5848fc1-9c38-4c0f-8cd3-7a1f74903e08","ios":"levelo://app?vid=a5848fc1-9c38-4c0f-8cd3-7a1f74903e08"},"vehicle_type_id":"4","last_reported":1732702253,"current_range_meters":23200,"station_id":"ce4bhn12rcd13ifvqgqg","pricing_plan_id":"cebpf4jnsgd1na2vs0mg"},{"bike_id":"bf85c0ae-48e0-4e50-a503-48187d5c9650","system_id":"levelo_inurba_marseille","lat":43.30148,"lon":5.37409,"is_reserved":false,"is_disabled":false,"rental_uris":{"android":"levelo://app?vid=bf85c0ae-48e0-4e50-a503-48187d5c9650","ios":"levelo://app?vid=bf85c0ae-48e0-4e50-a503-48187d5c9650"},"vehicle_type_id":"4","last_reported":1732702253,"current_range_meters":38800,"station_id":"ce4bgs92rcd13ifvqcc0","pricing_plan_id":"cebpf4jnsgd1na2vs0mg"},{"bike_id":"bae4f94f-12b8-48d5-8a1d-6ab60a6fba6b","system_id":"levelo_inurba_marseille","lat":43.2315,"lon":5.43705,"is_reserved":false,"is_disabled":false,"rental_uris":{"android":"levelo://app?vid=bae4f94f-12b8-48d5-8a1d-6ab60a6fba6b","ios":"levelo://app?vid=bae4f94f-12b8-48d5-8a1d-6ab60a6fba6b"},"vehicle_type_id":"4","last_reported":1732702253,"current_range_meters":11200,"station_id":"ce4bhmp2rcd13ifvqgog","pricing_plan_id":"cebpf4jnsgd1na2vs0mg"},{"bike_id":"1606c510-b735-4fc8-8ac9-1879292672fd","system_id":"levelo_inurba_marseille","lat":43.25866,"lon":5.39898,"is_reserved":false,"is_disabled":true,"rental_uris":{"android":"levelo://app?vid=1606c510-b735-4fc8-8ac9-1879292672fd","ios":"levelo://app?vid=1606c510-b735-4fc8-8ac9-1879292672fd"},"vehicle_type_id":"4","last_reported":1732702253,"current_range_meters":7200,"station_id":"ce4bhl92rcd13ifvqghg","pricing_plan_id":"cebpf4jnsgd1na2vs0mg"},{"bike_id":"858b65e1-94fc-4151-a71e-8b168cb19dcb","system_id":"levelo_inurba_marseille","lat":43.32249,"lon":5.39241,"is_reserved":false,"is_disabled":true,"rental_uris":{"android":"levelo://app?vid=858b65e1-94fc-4151-a71e-8b168cb19dcb","ios":"levelo://app?vid=858b65e1-94fc-4151-a71e-8b168cb19dcb"},"vehicle_type_id":"4","last_reported":1732702253,"current_range_meters":0,"station_id":"","pricing_plan_id":"cebpf4jnsgd1na2vs0mg"},{"bike_id":"e781059d-da8e-4788-a890-601d56f448d1","system_id":"levelo_inurba_marseille","lat":43.30089,"lon":5.39079,"is_reserved":false,"is_disabled":false,"rental_uris":{"android":"levelo://app?vid=e781059d-da8e-4788-a890-601d56f448d1","ios":"levelo://app?vid=e781059d-da8e-4788-a890-601d56f448d1"},"vehicle_type_id":"4","last_reported":1732702253,"current_range_meters":25200,"station_id":"ce4bh192rcd13ifvqdb0","pricing_plan_id":"cebpf4jnsgd1na2vs0mg"},{"bike_id":"e51b2acb-d883-446b-9ce9-347608453ece","system_id":"levelo_inurba_marseille","lat":43.2293,"lon":5.35372,"is_reserved":false,"is_disabled":false,"rental_uris":{"android":"levelo://app?vid=e51b2acb-d883-446b-9ce9-347608453ece","ios":"levelo://app?vid=e51b2acb-d883-446b-9ce9-347608453ece"},"vehicle_type_id":"4","last_reported":1732702253,"current_range_meters":37600,"station_id":"cpo3532slgdg3j2ikp40","pricing_plan_id":"cebpf4jnsgd1na2vs0mg"},{"bike_id":"f72ad362-5906-4bc9-a9ce-34d15bfedd9d","system_id":"levelo_inurba_marseille","lat":43.29927,"lon":5.37473,"is_reserved":false,"is_disabled":false,"rental_uris":{"android":"levelo://app?vid=f72ad362-5906-4bc9-a9ce-34d15bfedd9d","ios":"levelo://app?vid=f72ad362-5906-4bc9-a9ce-34d15bfedd9d"},"vehicle_type_id":"4","last_reported":1732702253,"current_range_meters":19600,"station_id":"ce4bgjh2rcd13ifvqbg0","pricing_plan_id":"cebpf4jnsgd1na2vs0mg"},{"bike_id":"92c6c2b8-814a-4a18-ba1a-e771f58bc8ef","system_id":"levelo_inurba_marseille","lat":43.2409,"lon":5.37766,"is_reserved":false,"is_disabled":false,"rental_uris":{"android":"levelo://app?vid=92c6c2b8-814a-4a18-ba1a-e771f58bc8ef","ios":"levelo://app?vid=92c6c2b8-814a-4a18-ba1a-e771f58bc8ef"},"vehicle_type_id":"4","last_reported":1732702253,"current_range_meters":38800,"station_id":"ce4bhnp2rcd13ifvqgvg","pricing_plan_id":"cebpf4jnsgd1na2vs0mg"},{"bike_id":"687bcf23-a5c0-4a08-836b-545238d7de20","system_id":"levelo_inurba_marseille","lat":43.27493,"lon":5.42449,"is_reserved":false,"is_disabled":false,"rental_uris":{"android":"levelo://app?vid=687bcf23-a5c0-4a08-836b-545238d7de20","ios":"levelo://app?vid=687bcf23-a5c0-4a08-836b-545238d7de20"},"vehicle_type_id":"4","last_reported":1732702253,"current_range_meters":17200,"station_id":"ce4bhn92rcd13ifvqgrg","pricing_plan_id":"cebpf4jnsgd1na2vs0mg"},{"bike_id":"6a84fe5c-81fa-4ede-b74d-0690303fc0a8","system_id":"levelo_inurba_marseille","lat":43.30559,"lon":5.36533,"is_reserved":false,"is_disabled":false,"rental_uris":{"android":"levelo://app?vid=6a84fe5c-81fa-4ede-b74d-0690303fc0a8","ios":"levelo://app?vid=6a84fe5c-81fa-4ede-b74d-0690303fc0a8"},"vehicle_type_id":"4","last_reported":1732702253,"current_range_meters":39200,"station_id":"ce4bgs12rcd13ifvqcag","pricing_plan_id":"cebpf4jnsgd1na2vs0mg"},{"bike_id":"1aba9999-861f-4a36-85bd-515c27a2a462","system_id":"levelo_inurba_marseille","lat":43.24085,"lon":5.37733,"is_reserved":false,"is_disabled":false,"rental_uris":{"android":"levelo://app?vid=1aba9999-861f-4a36-85bd-515c27a2a462","ios":"levelo://app?vid=1aba9999-861f-4a36-85bd-515c27a2a462"},"vehicle_type_id":"4","last_reported":1732702253,"current_range_meters":16000,"station_id":"ce4bhnp2rcd13ifvqgvg","pricing_plan_id":"cebpf4jnsgd1na2vs0mg"},{"bike_id":"4a5edd1c-4bfe-4fd8-af74-a6a894c0c2cb","system_id":"levelo_inurba_marseille","lat":43.25869,"lon":5.3989,"is_reserved":false,"is_disabled":false,"rental_uris":{"android":"levelo://app?vid=4a5edd1c-4bfe-4fd8-af74-a6a894c0c2cb","ios":"levelo://app?vid=4a5edd1c-4bfe-4fd8-af74-a6a894c0c2cb"},"vehicle_type_id":"4","last_reported":1732702253,"current_range_meters":36800,"station_id":"ce4bhl92rcd13ifvqghg","pricing_plan_id":"cebpf4jnsgd1na2vs0mg"},{"bike_id":"f7f3756c-1ec7-4782-9c87-6273f87b6774","system_id":"levelo_inurba_marseille","lat":43.337444,"lon":5.374475,"is_reserved":false,"is_disabled":true,"rental_uris":{"android":"levelo://app?vid=f7f3756c-1ec7-4782-9c87-6273f87b6774","ios":"levelo://app?vid=f7f3756c-1ec7-4782-9c87-6273f87b6774"},"vehicle_type_id":"4","last_reported":1732702253,"current_range_meters":15200,"station_id":"","pricing_plan_id":"cebpf4jnsgd1na2vs0mg"},{"bike_id":"9a7fc65c-a473-4df1-8da8-b97e38cbdb89","system_id":"levelo_inurba_marseille","lat":43.2315,"lon":5.43721,"is_reserved":false,"is_disabled":false,"rental_uris":{"android":"levelo://app?vid=9a7fc65c-a473-4df1-8da8-b97e38cbdb89","ios":"levelo://app?vid=9a7fc65c-a473-4df1-8da8-b97e38cbdb89"},"vehicle_type_id":"4","last_reported":1732702253,"current_range_meters":7200,"station_id":"ce4bhmp2rcd13ifvqgog","pricing_plan_id":"cebpf4jnsgd1na2vs0mg"},{"bike_id":"5ad94f11-d0cb-4d81-815c-d14c511fb2a1","system_id":"levelo_inurba_marseille","lat":43.24154,"lon":5.39714,"is_reserved":false,"is_disabled":true,"rental_uris":{"android":"levelo://app?vid=5ad94f11-d0cb-4d81-815c-d14c511fb2a1","ios":"levelo://app?vid=5ad94f11-d0cb-4d81-815c-d14c511fb2a1"},"vehicle_type_id":"4","last_reported":1732702253,"current_range_meters":18000,"station_id":"ce4bhn12rcd13ifvqgpg","pricing_plan_id":"cebpf4jnsgd1na2vs0mg"},{"bike_id":"5ac84619-8500-415b-9629-5dc640523aaa","system_id":"levelo_inurba_marseille","lat":43.29519,"lon":5.375,"is_reserved":false,"is_disabled":true,"rental_uris":{"android":"levelo://app?vid=5ac84619-8500-415b-9629-5dc640523aaa","ios":"levelo://app?vid=5ac84619-8500-415b-9629-5dc640523aaa"},"vehicle_type_id":"4","last_reported":1732702253,"current_range_meters":12000,"station_id":"ce4bgkp2rcd13ifvqbmg","pricing_plan_id":"cebpf4jnsgd1na2vs0mg"},{"bike_id":"5dadf578-e948-48ee-a51f-0528253f70a2","system_id":"levelo_inurba_marseille","lat":43.28083,"lon":5.38514,"is_reserved":false,"is_disabled":false,"rental_uris":{"android":"levelo://app?vid=5dadf578-e948-48ee-a51f-0528253f70a2","ios":"levelo://app?vid=5dadf578-e948-48ee-a51f-0528253f70a2"},"vehicle_type_id":"4","last_reported":1732702253,"current_range_meters":33600,"station_id":"","pricing_plan_id":"cebpf4jnsgd1na2vs0mg"},{"bike_id":"79248b71-e381-4425-958e-44a988ca2b76","system_id":"levelo_inurba_marseille","lat":43.23151,"lon":5.43717,"is_reserved":false,"is_disabled":true,"rental_uris":{"android":"levelo://app?vid=79248b71-e381-4425-958e-44a988ca2b76","ios":"levelo://app?vid=79248b71-e381-4425-958e-44a988ca2b76"},"vehicle_type_id":"4","last_reported":1732702253,"current_range_meters":0,"station_id":"ce4bhmp2rcd13ifvqgog","pricing_plan_id":"cebpf4jnsgd1na2vs0mg"},{"bike_id":"3e2ee879-ff2e-4801-b72c-a459f067b0a6","system_id":"levelo_inurba_marseille","lat":43.24075,"lon":5.37759,"is_reserved":false,"is_disabled":false,"rental_uris":{"android":"levelo://app?vid=3e2ee879-ff2e-4801-b72c-a459f067b0a6","ios":"levelo://app?vid=3e2ee879-ff2e-4801-b72c-a459f067b0a6"},"vehicle_type_id":"4","last_reported":1732702253,"current_range_meters":33200,"station_id":"ce4bhnp2rcd13ifvqgvg","pricing_plan_id":"cebpf4jnsgd1na2vs0mg"},{"bike_id":"aafa7b12-3750-47ea-ad34-1e9e60140baa","system_id":"levelo_inurba_marseille","lat":43.30535,"lon":5.36551,"is_reserved":false,"is_disabled":false,"rental_uris":{"android":"levelo://app?vid=aafa7b12-3750-47ea-ad34-1e9e60140baa","ios":"levelo://app?vid=aafa7b12-3750-47ea-ad34-1e9e60140baa"},"vehicle_type_id":"4","last_reported":1732702253,"current_range_meters":27600,"station_id":"ce4bgs12rcd13ifvqcag","pricing_plan_id":"cebpf4jnsgd1na2vs0mg"},{"bike_id":"5beeafd9-fc35-4444-8f38-3d5aae2d23a8","system_id":"levelo_inurba_marseille","lat":43.3248,"lon":5.36561,"is_reserved":false,"is_disabled":false,"rental_uris":{"android":"levelo://app?vid=5beeafd9-fc35-4444-8f38-3d5aae2d23a8","ios":"levelo://app?vid=5beeafd9-fc35-4444-8f38-3d5aae2d23a8"},"vehicle_type_id":"4","last_reported":1732702253,"current_range_meters":14400,"station_id":"ce4bhs12rcd13ifvqhvg","pricing_plan_id":"cebpf4jnsgd1na2vs0mg"},{"bike_id":"82e831e5-33ec-4f29-965f-70e9753ca3d0","system_id":"levelo_inurba_marseille","lat":43.30308,"lon":5.36897,"is_reserved":false,"is_disabled":false,"rental_uris":{"android":"levelo://app?vid=82e831e5-33ec-4f29-965f-70e9753ca3d0","ios":"levelo://app?vid=82e831e5-33ec-4f29-965f-70e9753ca3d0"},"vehicle_type_id":"4","last_reported":1732702253,"current_range_meters":11200,"station_id":"ce4bgqh2rcd13ifvqc5g","pricing_plan_id":"cebpf4jnsgd1na2vs0mg"},{"bike_id":"e937af93-4cba-4da6-a421-b49c77f1a0ab","system_id":"levelo_inurba_marseille","lat":43.24072,"lon":5.3776,"is_reserved":false,"is_disabled":false,"rental_uris":{"android":"levelo://app?vid=e937af93-4cba-4da6-a421-b49c77f1a0ab","ios":"levelo://app?vid=e937af93-4cba-4da6-a421-b49c77f1a0ab"},"vehicle_type_id":"4","last_reported":1732702253,"current_range_meters":17200,"station_id":"ce4bhnp2rcd13ifvqgvg","pricing_plan_id":"cebpf4jnsgd1na2vs0mg"},{"bike_id":"74015d98-f5f3-4c5c-95af-d7eed1c906ae","system_id":"levelo_inurba_marseille","lat":43.28001,"lon":5.40003,"is_reserved":false,"is_disabled":false,"rental_uris":{"android":"levelo://app?vid=74015d98-f5f3-4c5c-95af-d7eed1c906ae","ios":"levelo://app?vid=74015d98-f5f3-4c5c-95af-d7eed1c906ae"},"vehicle_type_id":"4","last_reported":1732702253,"current_range_meters":18000,"station_id":"ce4bho92rcd13ifvqh4g","pricing_plan_id":"cebpf4jnsgd1na2vs0mg"},{"bike_id":"c87d933d-4ef2-4709-8918-ec2d85365e86","system_id":"levelo_inurba_marseille","lat":43.30324,"lon":5.36893,"is_reserved":false,"is_disabled":false,"rental_uris":{"android":"levelo://app?vid=c87d933d-4ef2-4709-8918-ec2d85365e86","ios":"levelo://app?vid=c87d933d-4ef2-4709-8918-ec2d85365e86"},"vehicle_type_id":"4","last_reported":1732702253,"current_range_meters":16000,"station_id":"ce4bgqh2rcd13ifvqc5g","pricing_plan_id":"cebpf4jnsgd1na2vs0mg"},{"bike_id":"a5909545-3e09-4859-9fda-9ffe4e6e4883","system_id":"levelo_inurba_marseille","lat":43.23065,"lon":5.35491,"is_reserved":false,"is_disabled":false,"rental_uris":{"android":"levelo://app?vid=a5909545-3e09-4859-9fda-9ffe4e6e4883","ios":"levelo://app?vid=a5909545-3e09-4859-9fda-9ffe4e6e4883"},"vehicle_type_id":"4","last_reported":1732702253,"current_range_meters":27600,"station_id":"cpo3342slgdg3j2ifvpg","pricing_plan_id":"cebpf4jnsgd1na2vs0mg"},{"bike_id":"25d969bd-1673-4ce9-b5e4-4e443f43c31d","system_id":"levelo_inurba_marseille","lat":43.294437,"lon":5.397327,"is_reserved":false,"is_disabled":false,"rental_uris":{"android":"levelo://app?vid=25d969bd-1673-4ce9-b5e4-4e443f43c31d","ios":"levelo://app?vid=25d969bd-1673-4ce9-b5e4-4e443f43c31d"},"vehicle_type_id":"4","last_reported":1732702253,"current_range_meters":36000,"station_id":"ce4bh3h2rcd13ifvqdo0","pricing_plan_id":"cebpf4jnsgd1na2vs0mg"},{"bike_id":"2d7a2bb6-d4df-4627-8c77-207c49dff95f","system_id":"levelo_inurba_marseille","lat":43.30186,"lon":5.36623,"is_reserved":false,"is_disabled":false,"rental_uris":{"android":"levelo://app?vid=2d7a2bb6-d4df-4627-8c77-207c49dff95f","ios":"levelo://app?vid=2d7a2bb6-d4df-4627-8c77-207c49dff95f"},"vehicle_type_id":"4","last_reported":1732702253,"current_range_meters":36800,"station_id":"ce4bgrh2rcd13ifvqc8g","pricing_plan_id":"cebpf4jnsgd1na2vs0mg"},{"bike_id":"0dce6a32-9976-459b-9a44-64b10ff4b95d","system_id":"levelo_inurba_marseille","lat":43.25861,"lon":5.39903,"is_reserved":false,"is_disabled":true,"rental_uris":{"android":"levelo://app?vid=0dce6a32-9976-459b-9a44-64b10ff4b95d","ios":"levelo://app?vid=0dce6a32-9976-459b-9a44-64b10ff4b95d"},"vehicle_type_id":"4","last_reported":1732702253,"current_range_meters":400,"station_id":"ce4bhl92rcd13ifvqghg","pricing_plan_id":"cebpf4jnsgd1na2vs0mg"},{"bike_id":"22917d5b-6486-47a4-933f-4a69db519f8a","system_id":"levelo_inurba_marseille","lat":43.2783,"lon":5.39198,"is_reserved":false,"is_disabled":false,"rental_uris":{"android":"levelo://app?vid=22917d5b-6486-47a4-933f-4a69db519f8a","ios":"levelo://app?vid=22917d5b-6486-47a4-933f-4a69db519f8a"},"vehicle_type_id":"4","last_reported":1732702253,"current_range_meters":38000,"station_id":"ce4bhjp2rcd13ifvqga0","pricing_plan_id":"cebpf4jnsgd1na2vs0mg"},{"bike_id":"410be458-26df-4ab6-b673-ac23590e9546","system_id":"levelo_inurba_marseille","lat":43.24074,"lon":5.3776,"is_reserved":false,"is_disabled":false,"rental_uris":{"android":"levelo://app?vid=410be458-26df-4ab6-b673-ac23590e9546","ios":"levelo://app?vid=410be458-26df-4ab6-b673-ac23590e9546"},"vehicle_type_id":"4","last_reported":1732702253,"current_range_meters":18800,"station_id":"ce4bhnp2rcd13ifvqgvg","pricing_plan_id":"cebpf4jnsgd1na2vs0mg"},{"bike_id":"e5951ee3-4a5a-4ebb-b469-096c5188dfa3","system_id":"levelo_inurba_marseille","lat":43.23187,"lon":5.35557,"is_reserved":false,"is_disabled":false,"rental_uris":{"android":"levelo://app?vid=e5951ee3-4a5a-4ebb-b469-096c5188dfa3","ios":"levelo://app?vid=e5951ee3-4a5a-4ebb-b469-096c5188dfa3"},"vehicle_type_id":"4","last_reported":1732702253,"current_range_meters":32400,"station_id":"ce4bhu92rcd13ifvqi70","pricing_plan_id":"cebpf4jnsgd1na2vs0mg"},{"bike_id":"f5ced30d-226f-4346-bf62-37f37846f9d7","system_id":"levelo_inurba_marseille","lat":43.29793,"lon":5.38093,"is_reserved":false,"is_disabled":true,"rental_uris":{"android":"levelo://app?vid=f5ced30d-226f-4346-bf62-37f37846f9d7","ios":"levelo://app?vid=f5ced30d-226f-4346-bf62-37f37846f9d7"},"vehicle_type_id":"4","last_reported":1732702253,"current_range_meters":14000,"station_id":"ce4bgip2rcd13ifvqbb0","pricing_plan_id":"cebpf4jnsgd1na2vs0mg"},{"bike_id":"c4ff3c2c-87d7-4575-9335-5f53ac047a46","system_id":"levelo_inurba_marseille","lat":43.270706,"lon":5.422767,"is_reserved":false,"is_disabled":false,"rental_uris":{"android":"levelo://app?vid=c4ff3c2c-87d7-4575-9335-5f53ac047a46","ios":"levelo://app?vid=c4ff3c2c-87d7-4575-9335-5f53ac047a46"},"vehicle_type_id":"4","last_reported":1732702253,"current_range_meters":38800,"station_id":"ce4bhk92rcd13ifvqgb0","pricing_plan_id":"cebpf4jnsgd1na2vs0mg"},{"bike_id":"8b90e280-1859-48e5-8cc1-f1521436ad0b","system_id":"levelo_inurba_marseille","lat":43.25575,"lon":5.38238,"is_reserved":false,"is_disabled":false,"rental_uris":{"android":"levelo://app?vid=8b90e280-1859-48e5-8cc1-f1521436ad0b","ios":"levelo://app?vid=8b90e280-1859-48e5-8cc1-f1521436ad0b"},"vehicle_type_id":"4","last_reported":1732702253,"current_range_meters":16400,"station_id":"ce4bhih2rcd13ifvqfs0","pricing_plan_id":"cebpf4jnsgd1na2vs0mg"},{"bike_id":"3379f44f-c07d-4ec3-b622-4c7ff9c0b74e","system_id":"levelo_inurba_marseille","lat":43.2319,"lon":5.35549,"is_reserved":false,"is_disabled":true,"rental_uris":{"android":"levelo://app?vid=3379f44f-c07d-4ec3-b622-4c7ff9c0b74e","ios":"levelo://app?vid=3379f44f-c07d-4ec3-b622-4c7ff9c0b74e"},"vehicle_type_id":"4","last_reported":1732702253,"current_range_meters":6400,"station_id":"ce4bhu92rcd13ifvqi70","pricing_plan_id":"cebpf4jnsgd1na2vs0mg"},{"bike_id":"6c948e9c-d5b3-4fe5-a918-1bd2f7c83b02","system_id":"levelo_inurba_marseille","lat":43.32111,"lon":5.3677,"is_reserved":false,"is_disabled":false,"rental_uris":{"android":"levelo://app?vid=6c948e9c-d5b3-4fe5-a918-1bd2f7c83b02","ios":"levelo://app?vid=6c948e9c-d5b3-4fe5-a918-1bd2f7c83b02"},"vehicle_type_id":"4","last_reported":1732702253,"current_range_meters":13600,"station_id":"ce4bhrh2rcd13ifvqhug","pricing_plan_id":"cebpf4jnsgd1na2vs0mg"},{"bike_id":"d326bb42-e923-4c54-9b19-485d5722e5b2","system_id":"levelo_inurba_marseille","lat":43.30632,"lon":5.40092,"is_reserved":false,"is_disabled":false,"rental_uris":{"android":"levelo://app?vid=d326bb42-e923-4c54-9b19-485d5722e5b2","ios":"levelo://app?vid=d326bb42-e923-4c54-9b19-485d5722e5b2"},"vehicle_type_id":"4","last_reported":1732702253,"current_range_meters":37600,"station_id":"ce4bh112rcd13ifvqda0","pricing_plan_id":"cebpf4jnsgd1na2vs0mg"},{"bike_id":"d2126d19-a5ad-4033-9c12-053d758d7fb0","system_id":"levelo_inurba_marseille","lat":43.2462,"lon":5.38932,"is_reserved":false,"is_disabled":false,"rental_uris":{"android":"levelo://app?vid=d2126d19-a5ad-4033-9c12-053d758d7fb0","ios":"levelo://app?vid=d2126d19-a5ad-4033-9c12-053d758d7fb0"},"vehicle_type_id":"4","last_reported":1732702253,"current_range_meters":29600,"station_id":"ce4bhg12rcd13ifvqf60","pricing_plan_id":"cebpf4jnsgd1na2vs0mg"},{"bike_id":"319db8f6-ad1c-4b46-ad57-5033d5ed25eb","system_id":"levelo_inurba_marseille","lat":43.25726,"lon":5.4109,"is_reserved":false,"is_disabled":false,"rental_uris":{"android":"levelo://app?vid=319db8f6-ad1c-4b46-ad57-5033d5ed25eb","ios":"levelo://app?vid=319db8f6-ad1c-4b46-ad57-5033d5ed25eb"},"vehicle_type_id":"4","last_reported":1732702253,"current_range_meters":19200,"station_id":"ce4bhkp2rcd13ifvqgd0","pricing_plan_id":"cebpf4jnsgd1na2vs0mg"},{"bike_id":"5c53cfbd-2547-413a-b79a-f8cc3b1ca992","system_id":"levelo_inurba_marseille","lat":43.3211,"lon":5.3678,"is_reserved":false,"is_disabled":false,"rental_uris":{"android":"levelo://app?vid=5c53cfbd-2547-413a-b79a-f8cc3b1ca992","ios":"levelo://app?vid=5c53cfbd-2547-413a-b79a-f8cc3b1ca992"},"vehicle_type_id":"4","last_reported":1732702253,"current_range_meters":28000,"station_id":"ce4bhrh2rcd13ifvqhug","pricing_plan_id":"cebpf4jnsgd1na2vs0mg"},{"bike_id":"579facde-334f-493a-99b8-076f2ddc010f","system_id":"levelo_inurba_marseille","lat":43.29678,"lon":5.3728,"is_reserved":false,"is_disabled":false,"rental_uris":{"android":"levelo://app?vid=579facde-334f-493a-99b8-076f2ddc010f","ios":"levelo://app?vid=579facde-334f-493a-99b8-076f2ddc010f"},"vehicle_type_id":"4","last_reported":1732702253,"current_range_meters":39200,"station_id":"ce4bgk12rcd13ifvqbj0","pricing_plan_id":"cebpf4jnsgd1na2vs0mg"},{"bike_id":"d857c7ff-0eae-417a-a283-d08c196b617c","system_id":"levelo_inurba_marseille","lat":43.23161,"lon":5.43694,"is_reserved":false,"is_disabled":false,"rental_uris":{"android":"levelo://app?vid=d857c7ff-0eae-417a-a283-d08c196b617c","ios":"levelo://app?vid=d857c7ff-0eae-417a-a283-d08c196b617c"},"vehicle_type_id":"4","last_reported":1732702253,"current_range_meters":38800,"station_id":"ce4bhmp2rcd13ifvqgog","pricing_plan_id":"cebpf4jnsgd1na2vs0mg"},{"bike_id":"e3910269-0960-41ab-9a5c-2f153c15e14c","system_id":"levelo_inurba_marseille","lat":43.25576,"lon":5.38227,"is_reserved":false,"is_disabled":false,"rental_uris":{"android":"levelo://app?vid=e3910269-0960-41ab-9a5c-2f153c15e14c","ios":"levelo://app?vid=e3910269-0960-41ab-9a5c-2f153c15e14c"},"vehicle_type_id":"4","last_reported":1732702253,"current_range_meters":37600,"station_id":"ce4bhih2rcd13ifvqfs0","pricing_plan_id":"cebpf4jnsgd1na2vs0mg"},{"bike_id":"e58a03b6-eed8-44b9-815a-6f38c2c24efa","system_id":"levelo_inurba_marseille","lat":43.33716,"lon":5.39184,"is_reserved":false,"is_disabled":false,"rental_uris":{"android":"levelo://app?vid=e58a03b6-eed8-44b9-815a-6f38c2c24efa","ios":"levelo://app?vid=e58a03b6-eed8-44b9-815a-6f38c2c24efa"},"vehicle_type_id":"4","last_reported":1732702253,"current_range_meters":38000,"station_id":"ce4bhr92rcd13ifvqhsg","pricing_plan_id":"cebpf4jnsgd1na2vs0mg"},{"bike_id":"be5670d9-9f9d-41aa-9542-4591ad1fe316","system_id":"levelo_inurba_marseille","lat":43.24544,"lon":5.39529,"is_reserved":false,"is_disabled":false,"rental_uris":{"android":"levelo://app?vid=be5670d9-9f9d-41aa-9542-4591ad1fe316","ios":"levelo://app?vid=be5670d9-9f9d-41aa-9542-4591ad1fe316"},"vehicle_type_id":"4","last_reported":1732702253,"current_range_meters":12800,"station_id":"ce4bhlp2rcd13ifvqgjg","pricing_plan_id":"cebpf4jnsgd1na2vs0mg"},{"bike_id":"d7d3efe9-1788-45c6-bd51-33c58ae43549","system_id":"levelo_inurba_marseille","lat":43.30536,"lon":5.36534,"is_reserved":false,"is_disabled":false,"rental_uris":{"android":"levelo://app?vid=d7d3efe9-1788-45c6-bd51-33c58ae43549","ios":"levelo://app?vid=d7d3efe9-1788-45c6-bd51-33c58ae43549"},"vehicle_type_id":"4","last_reported":1732702253,"current_range_meters":23200,"station_id":"ce4bgs12rcd13ifvqcag","pricing_plan_id":"cebpf4jnsgd1na2vs0mg"},{"bike_id":"41ef6e9a-6e79-4aa0-a7fb-748c8b32e486","system_id":"levelo_inurba_marseille","lat":43.30909,"lon":5.36849,"is_reserved":false,"is_disabled":false,"rental_uris":{"android":"levelo://app?vid=41ef6e9a-6e79-4aa0-a7fb-748c8b32e486","ios":"levelo://app?vid=41ef6e9a-6e79-4aa0-a7fb-748c8b32e486"},"vehicle_type_id":"4","last_reported":1732702253,"current_range_meters":38800,"station_id":"ce4bgn92rcd13ifvqbvg","pricing_plan_id":"cebpf4jnsgd1na2vs0mg"},{"bike_id":"c32aafd8-8905-4559-a1d0-f74aa7efcf0e","system_id":"levelo_inurba_marseille","lat":43.338,"lon":5.37474,"is_reserved":false,"is_disabled":false,"rental_uris":{"android":"levelo://app?vid=c32aafd8-8905-4559-a1d0-f74aa7efcf0e","ios":"levelo://app?vid=c32aafd8-8905-4559-a1d0-f74aa7efcf0e"},"vehicle_type_id":"4","last_reported":1732702253,"current_range_meters":38400,"station_id":"","pricing_plan_id":"cebpf4jnsgd1na2vs0mg"},{"bike_id":"fc17c41a-b334-4870-ae03-e7b919a2d987","system_id":"levelo_inurba_marseille","lat":43.30146,"lon":5.37418,"is_reserved":false,"is_disabled":false,"rental_uris":{"android":"levelo://app?vid=fc17c41a-b334-4870-ae03-e7b919a2d987","ios":"levelo://app?vid=fc17c41a-b334-4870-ae03-e7b919a2d987"},"vehicle_type_id":"4","last_reported":1732702253,"current_range_meters":34000,"station_id":"ce4bgs92rcd13ifvqcc0","pricing_plan_id":"cebpf4jnsgd1na2vs0mg"},{"bike_id":"8e7a8f5b-a69c-4614-90ca-4a8edbc75f89","system_id":"levelo_inurba_marseille","lat":43.25585,"lon":5.38241,"is_reserved":false,"is_disabled":false,"rental_uris":{"android":"levelo://app?vid=8e7a8f5b-a69c-4614-90ca-4a8edbc75f89","ios":"levelo://app?vid=8e7a8f5b-a69c-4614-90ca-4a8edbc75f89"},"vehicle_type_id":"4","last_reported":1732702253,"current_range_meters":27600,"station_id":"ce4bhih2rcd13ifvqfs0","pricing_plan_id":"cebpf4jnsgd1na2vs0mg"},{"bike_id":"0dbf4a25-0b81-4076-980f-2de46488ffa7","system_id":"levelo_inurba_marseille","lat":43.28605,"lon":5.35122,"is_reserved":false,"is_disabled":true,"rental_uris":{"android":"levelo://app?vid=0dbf4a25-0b81-4076-980f-2de46488ffa7","ios":"levelo://app?vid=0dbf4a25-0b81-4076-980f-2de46488ffa7"},"vehicle_type_id":"4","last_reported":1732702253,"current_range_meters":14000,"station_id":"","pricing_plan_id":"cebpf4jnsgd1na2vs0mg"},{"bike_id":"4490893b-651f-4a29-8a23-f841e9f73902","system_id":"levelo_inurba_marseille","lat":43.33118,"lon":5.38218,"is_reserved":false,"is_disabled":false,"rental_uris":{"android":"levelo://app?vid=4490893b-651f-4a29-8a23-f841e9f73902","ios":"levelo://app?vid=4490893b-651f-4a29-8a23-f841e9f73902"},"vehicle_type_id":"4","last_reported":1732702253,"current_range_meters":24400,"station_id":"","pricing_plan_id":"cebpf4jnsgd1na2vs0mg"},{"bike_id":"43746d86-8a13-4845-9faf-ae69b548d714","system_id":"levelo_inurba_marseille","lat":43.29459,"lon":5.37917,"is_reserved":false,"is_disabled":true,"rental_uris":{"android":"levelo://app?vid=43746d86-8a13-4845-9faf-ae69b548d714","ios":"levelo://app?vid=43746d86-8a13-4845-9faf-ae69b548d714"},"vehicle_type_id":"4","last_reported":1732702253,"current_range_meters":0,"station_id":"","pricing_plan_id":"cebpf4jnsgd1na2vs0mg"},{"bike_id":"e6a98e09-efc5-4507-9fb0-a56012aa8712","system_id":"levelo_inurba_marseille","lat":43.28152,"lon":5.42636,"is_reserved":false,"is_disabled":false,"rental_uris":{"android":"levelo://app?vid=e6a98e09-efc5-4507-9fb0-a56012aa8712","ios":"levelo://app?vid=e6a98e09-efc5-4507-9fb0-a56012aa8712"},"vehicle_type_id":"4","last_reported":1732702253,"current_range_meters":36000,"station_id":"ce4bhnh2rcd13ifvqgug","pricing_plan_id":"cebpf4jnsgd1na2vs0mg"},{"bike_id":"49ad9574-b0d7-498d-8456-68bdd40aec93","system_id":"levelo_inurba_marseille","lat":43.24673,"lon":5.38158,"is_reserved":false,"is_disabled":false,"rental_uris":{"android":"levelo://app?vid=49ad9574-b0d7-498d-8456-68bdd40aec93","ios":"levelo://app?vid=49ad9574-b0d7-498d-8456-68bdd40aec93"},"vehicle_type_id":"4","last_reported":1732702253,"current_range_meters":35200,"station_id":"ce4bhih2rcd13ifvqfr0","pricing_plan_id":"cebpf4jnsgd1na2vs0mg"},{"bike_id":"df76b7bf-b879-4e94-9796-439ee296ef0a","system_id":"levelo_inurba_marseille","lat":43.22925,"lon":5.35381,"is_reserved":false,"is_disabled":false,"rental_uris":{"android":"levelo://app?vid=df76b7bf-b879-4e94-9796-439ee296ef0a","ios":"levelo://app?vid=df76b7bf-b879-4e94-9796-439ee296ef0a"},"vehicle_type_id":"4","last_reported":1732702253,"current_range_meters":38000,"station_id":"cpo3532slgdg3j2ikp40","pricing_plan_id":"cebpf4jnsgd1na2vs0mg"},{"bike_id":"bb079e97-5287-4d2e-98e5-c2c44945d341","system_id":"levelo_inurba_marseille","lat":43.30557,"lon":5.36534,"is_reserved":false,"is_disabled":false,"rental_uris":{"android":"levelo://app?vid=bb079e97-5287-4d2e-98e5-c2c44945d341","ios":"levelo://app?vid=bb079e97-5287-4d2e-98e5-c2c44945d341"},"vehicle_type_id":"4","last_reported":1732702253,"current_range_meters":36400,"station_id":"ce4bgs12rcd13ifvqcag","pricing_plan_id":"cebpf4jnsgd1na2vs0mg"},{"bike_id":"f971abee-70f8-43dc-afe4-4050ccc8c3f7","system_id":"levelo_inurba_marseille","lat":43.25867,"lon":5.39893,"is_reserved":false,"is_disabled":true,"rental_uris":{"android":"levelo://app?vid=f971abee-70f8-43dc-afe4-4050ccc8c3f7","ios":"levelo://app?vid=f971abee-70f8-43dc-afe4-4050ccc8c3f7"},"vehicle_type_id":"4","last_reported":1732702253,"current_range_meters":38400,"station_id":"ce4bhl92rcd13ifvqghg","pricing_plan_id":"cebpf4jnsgd1na2vs0mg"},{"bike_id":"e429a23d-08fa-43bc-a99f-41dd20232034","system_id":"levelo_inurba_marseille","lat":43.26301,"lon":5.39862,"is_reserved":false,"is_disabled":true,"rental_uris":{"android":"levelo://app?vid=e429a23d-08fa-43bc-a99f-41dd20232034","ios":"levelo://app?vid=e429a23d-08fa-43bc-a99f-41dd20232034"},"vehicle_type_id":"4","last_reported":1732702253,"current_range_meters":0,"station_id":"","pricing_plan_id":"cebpf4jnsgd1na2vs0mg"},{"bike_id":"d6123075-2fba-4221-aa8c-5200cee15b19","system_id":"levelo_inurba_marseille","lat":43.3149,"lon":5.373,"is_reserved":false,"is_disabled":false,"rental_uris":{"android":"levelo://app?vid=d6123075-2fba-4221-aa8c-5200cee15b19","ios":"levelo://app?vid=d6123075-2fba-4221-aa8c-5200cee15b19"},"vehicle_type_id":"4","last_reported":1732702253,"current_range_meters":18800,"station_id":"ce4bgt12rcd13ifvqcd0","pricing_plan_id":"cebpf4jnsgd1na2vs0mg"},{"bike_id":"433594dd-3143-4e7f-a22e-08a0d43cb146","system_id":"levelo_inurba_marseille","lat":43.26946,"lon":5.40249,"is_reserved":false,"is_disabled":false,"rental_uris":{"android":"levelo://app?vid=433594dd-3143-4e7f-a22e-08a0d43cb146","ios":"levelo://app?vid=433594dd-3143-4e7f-a22e-08a0d43cb146"},"vehicle_type_id":"4","last_reported":1732702253,"current_range_meters":36400,"station_id":"cjm6bp8fraef2m0cb0m0","pricing_plan_id":"cebpf4jnsgd1na2vs0mg"},{"bike_id":"3faf8b2f-845f-4fd3-8bc7-04d1158d9692","system_id":"levelo_inurba_marseille","lat":43.33019,"lon":5.39032,"is_reserved":false,"is_disabled":false,"rental_uris":{"android":"levelo://app?vid=3faf8b2f-845f-4fd3-8bc7-04d1158d9692","ios":"levelo://app?vid=3faf8b2f-845f-4fd3-8bc7-04d1158d9692"},"vehicle_type_id":"4","last_reported":1732702253,"current_range_meters":24400,"station_id":"ce4bhr92rcd13ifvqhrg","pricing_plan_id":"cebpf4jnsgd1na2vs0mg"},{"bike_id":"c38bafd9-d2ff-4d8a-8bf3-f36a7e655c1d","system_id":"levelo_inurba_marseille","lat":43.24657,"lon":5.38894,"is_reserved":false,"is_disabled":false,"rental_uris":{"android":"levelo://app?vid=c38bafd9-d2ff-4d8a-8bf3-f36a7e655c1d","ios":"levelo://app?vid=c38bafd9-d2ff-4d8a-8bf3-f36a7e655c1d"},"vehicle_type_id":"4","last_reported":1732702253,"current_range_meters":28000,"station_id":"ce4bhg12rcd13ifvqf60","pricing_plan_id":"cebpf4jnsgd1na2vs0mg"},{"bike_id":"925d9d68-1b01-45a4-af19-d1a58d7476b9","system_id":"levelo_inurba_marseille","lat":43.312042,"lon":5.367348,"is_reserved":false,"is_disabled":true,"rental_uris":{"android":"levelo://app?vid=925d9d68-1b01-45a4-af19-d1a58d7476b9","ios":"levelo://app?vid=925d9d68-1b01-45a4-af19-d1a58d7476b9"},"vehicle_type_id":"4","last_reported":1732702253,"current_range_meters":0,"station_id":"","pricing_plan_id":"cebpf4jnsgd1na2vs0mg"},{"bike_id":"b85ab8e4-b623-4c2f-a6fb-707134f169c8","system_id":"levelo_inurba_marseille","lat":43.34145,"lon":5.40904,"is_reserved":false,"is_disabled":false,"rental_uris":{"android":"levelo://app?vid=b85ab8e4-b623-4c2f-a6fb-707134f169c8","ios":"levelo://app?vid=b85ab8e4-b623-4c2f-a6fb-707134f169c8"},"vehicle_type_id":"4","last_reported":1732702253,"current_range_meters":20000,"station_id":"ce4bhqh2rcd13ifvqhlg","pricing_plan_id":"cebpf4jnsgd1na2vs0mg"},{"bike_id":"cf298d8c-a0c9-4883-b341-ff4459ca7832","system_id":"levelo_inurba_marseille","lat":43.22932,"lon":5.35378,"is_reserved":false,"is_disabled":false,"rental_uris":{"android":"levelo://app?vid=cf298d8c-a0c9-4883-b341-ff4459ca7832","ios":"levelo://app?vid=cf298d8c-a0c9-4883-b341-ff4459ca7832"},"vehicle_type_id":"4","last_reported":1732702253,"current_range_meters":38000,"station_id":"cpo3532slgdg3j2ikp40","pricing_plan_id":"cebpf4jnsgd1na2vs0mg"},{"bike_id":"d93d1461-f523-408d-9ecd-c0d362744ea1","system_id":"levelo_inurba_marseille","lat":43.27495,"lon":5.4245,"is_reserved":false,"is_disabled":false,"rental_uris":{"android":"levelo://app?vid=d93d1461-f523-408d-9ecd-c0d362744ea1","ios":"levelo://app?vid=d93d1461-f523-408d-9ecd-c0d362744ea1"},"vehicle_type_id":"4","last_reported":1732702253,"current_range_meters":30800,"station_id":"ce4bhn92rcd13ifvqgrg","pricing_plan_id":"cebpf4jnsgd1na2vs0mg"},{"bike_id":"eab1f542-11da-482a-a42e-8c2a8f4da854","system_id":"levelo_inurba_marseille","lat":43.29572,"lon":5.37503,"is_reserved":false,"is_disabled":false,"rental_uris":{"android":"levelo://app?vid=eab1f542-11da-482a-a42e-8c2a8f4da854","ios":"levelo://app?vid=eab1f542-11da-482a-a42e-8c2a8f4da854"},"vehicle_type_id":"4","last_reported":1732702253,"current_range_meters":9600,"station_id":"ce4bgh92rcd13ifvqb50","pricing_plan_id":"cebpf4jnsgd1na2vs0mg"},{"bike_id":"d9ef5ed5-65f4-4a4b-8dbb-274b0e908852","system_id":"levelo_inurba_marseille","lat":43.24171,"lon":5.36396,"is_reserved":false,"is_disabled":false,"rental_uris":{"android":"levelo://app?vid=d9ef5ed5-65f4-4a4b-8dbb-274b0e908852","ios":"levelo://app?vid=d9ef5ed5-65f4-4a4b-8dbb-274b0e908852"},"vehicle_type_id":"4","last_reported":1732702253,"current_range_meters":25200,"station_id":"cpo36qri1sfpv3e86is0","pricing_plan_id":"cebpf4jnsgd1na2vs0mg"},{"bike_id":"66132751-c0dc-4e27-8cb1-86ddd363280c","system_id":"levelo_inurba_marseille","lat":43.337444,"lon":5.374475,"is_reserved":false,"is_disabled":false,"rental_uris":{"android":"levelo://app?vid=66132751-c0dc-4e27-8cb1-86ddd363280c","ios":"levelo://app?vid=66132751-c0dc-4e27-8cb1-86ddd363280c"},"vehicle_type_id":"4","last_reported":1732702253,"current_range_meters":38800,"station_id":"","pricing_plan_id":"cebpf4jnsgd1na2vs0mg"},{"bike_id":"835b8644-8eb5-432a-a7e5-6db42e504b1f","system_id":"levelo_inurba_marseille","lat":43.24181,"lon":5.39723,"is_reserved":false,"is_disabled":false,"rental_uris":{"android":"levelo://app?vid=835b8644-8eb5-432a-a7e5-6db42e504b1f","ios":"levelo://app?vid=835b8644-8eb5-432a-a7e5-6db42e504b1f"},"vehicle_type_id":"4","last_reported":1732702253,"current_range_meters":8000,"station_id":"ce4bhn12rcd13ifvqgpg","pricing_plan_id":"cebpf4jnsgd1na2vs0mg"},{"bike_id":"3b165868-2624-4bdf-8ddd-3873d400d10d","system_id":"levelo_inurba_marseille","lat":43.30947,"lon":5.39028,"is_reserved":false,"is_disabled":false,"rental_uris":{"android":"levelo://app?vid=3b165868-2624-4bdf-8ddd-3873d400d10d","ios":"levelo://app?vid=3b165868-2624-4bdf-8ddd-3873d400d10d"},"vehicle_type_id":"4","last_reported":1732702253,"current_range_meters":15200,"station_id":"ce4bgup2rcd13ifvqco0","pricing_plan_id":"cebpf4jnsgd1na2vs0mg"},{"bike_id":"fff4f664-5802-4c02-9d19-7a4fe673134b","system_id":"levelo_inurba_marseille","lat":43.33756,"lon":5.37412,"is_reserved":false,"is_disabled":false,"rental_uris":{"android":"levelo://app?vid=fff4f664-5802-4c02-9d19-7a4fe673134b","ios":"levelo://app?vid=fff4f664-5802-4c02-9d19-7a4fe673134b"},"vehicle_type_id":"4","last_reported":1732702253,"current_range_meters":28800,"station_id":"","pricing_plan_id":"cebpf4jnsgd1na2vs0mg"},{"bike_id":"3d7b3159-7cf7-4f96-9b7e-e7cb8499ce61","system_id":"levelo_inurba_marseille","lat":43.27208,"lon":5.39185,"is_reserved":false,"is_disabled":false,"rental_uris":{"android":"levelo://app?vid=3d7b3159-7cf7-4f96-9b7e-e7cb8499ce61","ios":"levelo://app?vid=3d7b3159-7cf7-4f96-9b7e-e7cb8499ce61"},"vehicle_type_id":"4","last_reported":1732702253,"current_range_meters":20400,"station_id":"ce4bhhp2rcd13ifvqfm0","pricing_plan_id":"cebpf4jnsgd1na2vs0mg"},{"bike_id":"0473e25a-aacf-4a52-947c-6dc304b28f57","system_id":"levelo_inurba_marseille","lat":43.30151,"lon":5.38082,"is_reserved":false,"is_disabled":false,"rental_uris":{"android":"levelo://app?vid=0473e25a-aacf-4a52-947c-6dc304b28f57","ios":"levelo://app?vid=0473e25a-aacf-4a52-947c-6dc304b28f57"},"vehicle_type_id":"4","last_reported":1732702253,"current_range_meters":29600,"station_id":"ce4bgjp2rcd13ifvqbh0","pricing_plan_id":"cebpf4jnsgd1na2vs0mg"},{"bike_id":"76273592-9879-490a-9f64-c33340e3af5c","system_id":"levelo_inurba_marseille","lat":43.24082,"lon":5.37749,"is_reserved":false,"is_disabled":false,"rental_uris":{"android":"levelo://app?vid=76273592-9879-490a-9f64-c33340e3af5c","ios":"levelo://app?vid=76273592-9879-490a-9f64-c33340e3af5c"},"vehicle_type_id":"4","last_reported":1732702253,"current_range_meters":30000,"station_id":"ce4bhnp2rcd13ifvqgvg","pricing_plan_id":"cebpf4jnsgd1na2vs0mg"},{"bike_id":"006b9058-6efe-481f-aea3-cd4a774043f3","system_id":"levelo_inurba_marseille","lat":43.28286,"lon":5.39963,"is_reserved":false,"is_disabled":true,"rental_uris":{"android":"levelo://app?vid=006b9058-6efe-481f-aea3-cd4a774043f3","ios":"levelo://app?vid=006b9058-6efe-481f-aea3-cd4a774043f3"},"vehicle_type_id":"4","last_reported":1732702253,"current_range_meters":0,"station_id":"","pricing_plan_id":"cebpf4jnsgd1na2vs0mg"},{"bike_id":"bcd7cb67-f028-46b0-a4bd-9b02a58281a5","system_id":"levelo_inurba_marseille","lat":43.29005,"lon":5.35614,"is_reserved":false,"is_disabled":false,"rental_uris":{"android":"levelo://app?vid=bcd7cb67-f028-46b0-a4bd-9b02a58281a5","ios":"levelo://app?vid=bcd7cb67-f028-46b0-a4bd-9b02a58281a5"},"vehicle_type_id":"4","last_reported":1732702253,"current_range_meters":34800,"station_id":"ce4bhb92rcd13ifvqen0","pricing_plan_id":"cebpf4jnsgd1na2vs0mg"},{"bike_id":"07166161-57d3-4ee1-aa7a-80001a63ee93","system_id":"levelo_inurba_marseille","lat":43.23177,"lon":5.3998,"is_reserved":false,"is_disabled":false,"rental_uris":{"android":"levelo://app?vid=07166161-57d3-4ee1-aa7a-80001a63ee93","ios":"levelo://app?vid=07166161-57d3-4ee1-aa7a-80001a63ee93"},"vehicle_type_id":"4","last_reported":1732702253,"current_range_meters":36400,"station_id":"ce4bhn12rcd13ifvqgqg","pricing_plan_id":"cebpf4jnsgd1na2vs0mg"},{"bike_id":"e25b69e2-93a4-40b5-ae2e-fc6df166f1c9","system_id":"levelo_inurba_marseille","lat":43.29551,"lon":5.42286,"is_reserved":false,"is_disabled":false,"rental_uris":{"android":"levelo://app?vid=e25b69e2-93a4-40b5-ae2e-fc6df166f1c9","ios":"levelo://app?vid=e25b69e2-93a4-40b5-ae2e-fc6df166f1c9"},"vehicle_type_id":"4","last_reported":1732702253,"current_range_meters":38800,"station_id":"ce4bhph2rcd13ifvqhdg","pricing_plan_id":"cebpf4jnsgd1na2vs0mg"},{"bike_id":"ee05ac60-a365-4a07-8df9-f1d6a7c1f3f4","system_id":"levelo_inurba_marseille","lat":43.30149,"lon":5.38083,"is_reserved":false,"is_disabled":false,"rental_uris":{"android":"levelo://app?vid=ee05ac60-a365-4a07-8df9-f1d6a7c1f3f4","ios":"levelo://app?vid=ee05ac60-a365-4a07-8df9-f1d6a7c1f3f4"},"vehicle_type_id":"4","last_reported":1732702253,"current_range_meters":34800,"station_id":"ce4bgjp2rcd13ifvqbh0","pricing_plan_id":"cebpf4jnsgd1na2vs0mg"},{"bike_id":"c0a03619-2a05-45c6-80fe-ea5187c716d5","system_id":"levelo_inurba_marseille","lat":43.31701,"lon":5.40467,"is_reserved":false,"is_disabled":false,"rental_uris":{"android":"levelo://app?vid=c0a03619-2a05-45c6-80fe-ea5187c716d5","ios":"levelo://app?vid=c0a03619-2a05-45c6-80fe-ea5187c716d5"},"vehicle_type_id":"4","last_reported":1732702253,"current_range_meters":4000,"station_id":"ce4bh012rcd13ifvqd00","pricing_plan_id":"cebpf4jnsgd1na2vs0mg"},{"bike_id":"441a1c08-ade8-4870-a513-9986867f0aab","system_id":"levelo_inurba_marseille","lat":43.31332,"lon":5.39698,"is_reserved":false,"is_disabled":true,"rental_uris":{"android":"levelo://app?vid=441a1c08-ade8-4870-a513-9986867f0aab","ios":"levelo://app?vid=441a1c08-ade8-4870-a513-9986867f0aab"},"vehicle_type_id":"4","last_reported":1732702253,"current_range_meters":0,"station_id":"ce4bgvp2rcd13ifvqcu0","pricing_plan_id":"cebpf4jnsgd1na2vs0mg"},{"bike_id":"e9c17faa-0a50-4311-9b95-9e8911926bd0","system_id":"levelo_inurba_marseille","lat":43.30541,"lon":5.36694,"is_reserved":false,"is_disabled":false,"rental_uris":{"android":"levelo://app?vid=e9c17faa-0a50-4311-9b95-9e8911926bd0","ios":"levelo://app?vid=e9c17faa-0a50-4311-9b95-9e8911926bd0"},"vehicle_type_id":"4","last_reported":1732702253,"current_range_meters":16000,"station_id":"ce4bgrp2rcd13ifvqc9g","pricing_plan_id":"cebpf4jnsgd1na2vs0mg"},{"bike_id":"5c64b618-f514-4c74-ac9f-250948202701","system_id":"levelo_inurba_marseille","lat":43.27681,"lon":5.38892,"is_reserved":false,"is_disabled":false,"rental_uris":{"android":"levelo://app?vid=5c64b618-f514-4c74-ac9f-250948202701","ios":"levelo://app?vid=5c64b618-f514-4c74-ac9f-250948202701"},"vehicle_type_id":"4","last_reported":1732702253,"current_range_meters":38800,"station_id":"ce4bhi12rcd13ifvqfo0","pricing_plan_id":"cebpf4jnsgd1na2vs0mg"},{"bike_id":"c79ad5a1-15d5-4a2e-90af-df09e53e4346","system_id":"levelo_inurba_marseille","lat":43.248,"lon":5.37451,"is_reserved":false,"is_disabled":false,"rental_uris":{"android":"levelo://app?vid=c79ad5a1-15d5-4a2e-90af-df09e53e4346","ios":"levelo://app?vid=c79ad5a1-15d5-4a2e-90af-df09e53e4346"},"vehicle_type_id":"4","last_reported":1732702253,"current_range_meters":34800,"station_id":"ce4bhgh2rcd13ifvqfb0","pricing_plan_id":"cebpf4jnsgd1na2vs0mg"},{"bike_id":"d7476d4e-b96c-4c66-a413-8e05589dc234","system_id":"levelo_inurba_marseille","lat":43.29447,"lon":5.397517,"is_reserved":false,"is_disabled":true,"rental_uris":{"android":"levelo://app?vid=d7476d4e-b96c-4c66-a413-8e05589dc234","ios":"levelo://app?vid=d7476d4e-b96c-4c66-a413-8e05589dc234"},"vehicle_type_id":"4","last_reported":1732702253,"current_range_meters":9600,"station_id":"ce4bh3h2rcd13ifvqdo0","pricing_plan_id":"cebpf4jnsgd1na2vs0mg"},{"bike_id":"820497e3-7943-4778-b0ef-51ed90221c19","system_id":"levelo_inurba_marseille","lat":43.29686,"lon":5.37288,"is_reserved":false,"is_disabled":false,"rental_uris":{"android":"levelo://app?vid=820497e3-7943-4778-b0ef-51ed90221c19","ios":"levelo://app?vid=820497e3-7943-4778-b0ef-51ed90221c19"},"vehicle_type_id":"4","last_reported":1732702253,"current_range_meters":38800,"station_id":"ce4bgk12rcd13ifvqbj0","pricing_plan_id":"cebpf4jnsgd1na2vs0mg"},{"bike_id":"9e001124-a5af-4971-88ef-0ce675620918","system_id":"levelo_inurba_marseille","lat":43.27964,"lon":5.38723,"is_reserved":false,"is_disabled":true,"rental_uris":{"android":"levelo://app?vid=9e001124-a5af-4971-88ef-0ce675620918","ios":"levelo://app?vid=9e001124-a5af-4971-88ef-0ce675620918"},"vehicle_type_id":"4","last_reported":1732702253,"current_range_meters":0,"station_id":"ce4bhg12rcd13ifvqf80","pricing_plan_id":"cebpf4jnsgd1na2vs0mg"},{"bike_id":"ddfc40d7-f1dc-4fba-ad92-f1cb84dbec8b","system_id":"levelo_inurba_marseille","lat":43.27059,"lon":5.40257,"is_reserved":false,"is_disabled":false,"rental_uris":{"android":"levelo://app?vid=ddfc40d7-f1dc-4fba-ad92-f1cb84dbec8b","ios":"levelo://app?vid=ddfc40d7-f1dc-4fba-ad92-f1cb84dbec8b"},"vehicle_type_id":"4","last_reported":1732702253,"current_range_meters":24000,"station_id":"ce4bhk92rcd13ifvqgc0","pricing_plan_id":"cebpf4jnsgd1na2vs0mg"},{"bike_id":"841cc266-395b-4212-9f71-d71007d312d1","system_id":"levelo_inurba_marseille","lat":43.30157,"lon":5.38079,"is_reserved":false,"is_disabled":false,"rental_uris":{"android":"levelo://app?vid=841cc266-395b-4212-9f71-d71007d312d1","ios":"levelo://app?vid=841cc266-395b-4212-9f71-d71007d312d1"},