{"last_updated":1732792108,"ttl":60,"version":"2.2","data":{"bikes":[{"bike_id":"2a75e0b5-ea55-47da-90e1-27ddaec067b7","system_id":"levelo_inurba_marseille","lat":43.30139,"lon":5.37417,"is_reserved":false,"is_disabled":false,"rental_uris":{"android":"levelo://app?vid=2a75e0b5-ea55-47da-90e1-27ddaec067b7","ios":"levelo://app?vid=2a75e0b5-ea55-47da-90e1-27ddaec067b7"},"vehicle_type_id":"4","last_reported":1732792108,"current_range_meters":11200,"station_id":"ce4bgs92rcd13ifvqcc0","pricing_plan_id":"cebpf4jnsgd1na2vs0mg"},{"bike_id":"927924fc-8a74-47c2-8b69-b7e14b1090b9","system_id":"levelo_inurba_marseille","lat":43.27811,"lon":5.40719,"is_reserved":false,"is_disabled":true,"rental_uris":{"android":"levelo://app?vid=927924fc-8a74-47c2-8b69-b7e14b1090b9","ios":"levelo://app?vid=927924fc-8a74-47c2-8b69-b7e14b1090b9"},"vehicle_type_id":"4","last_reported":1732792108,"current_range_meters":10000,"station_id":"ce4bhnh2rcd13ifvqgtg","pricing_plan_id":"cebpf4jnsgd1na2vs0mg"},{"bike_id":"b856c8b4-412d-4c25-bdd4-e6b29aed04cb","system_id":"levelo_inurba_marseille","lat":43.22932,"lon":5.35379,"is_reserved":false,"is_disabled":false,"rental_uris":{"android":"levelo://app?vid=b856c8b4-412d-4c25-bdd4-e6b29aed04cb","ios":"levelo://app?vid=b856c8b4-412d-4c25-bdd4-e6b29aed04cb"},"vehicle_type_id":"4","last_reported":1732792108,"current_range_meters":38800,"station_id":"cpo3532slgdg3j2ikp40","pricing_plan_id":"cebpf4jnsgd1na2vs0mg"},{"bike_id":"863c9696-d78b-4e98-be5f-966913ade150","system_id":"levelo_inurba_marseille","lat":43.26936,"lon":5.38903,"is_reserved":false,"is_disabled":false,"rental_uris":{"android":"levelo://app?vid=863c9696-d78b-4e98-be5f-966913ade150","ios":"levelo://app?vid=863c9696-d78b-4e98-be5f-966913ade150"},"vehicle_type_id":"4","last_reported":1732792108,"current_range_meters":38800,"station_id":"ce4bhhh2rcd13ifvqfl0","pricing_plan_id":"cebpf4jnsgd1na2vs0mg"},{"bike_id":"5b88791c-5474-4c17-8542-3e41ea5a4e1a","system_id":"levelo_inurba_marseille","lat":43.26061,"lon":5.39396,"is_reserved":false,"is_disabled":false,"rental_uris":{"android":"levelo://app?vid=5b88791c-5474-4c17-8542-3e41ea5a4e1a","ios":"levelo://app?vid=5b88791c-5474-4c17-8542-3e41ea5a4e1a"},"vehicle_type_id":"4","last_reported":1732792108,"current_range_meters":38000,"station_id":"ce4bhh92rcd13ifvqfj0","pricing_plan_id":"cebpf4jnsgd1na2vs0mg"},{"bike_id":"71cf8534-4c71-4a87-b3f7-fbbb731ae674","system_id":"levelo_inurba_marseille","lat":43.24076,"lon":5.37753,"is_reserved":false,"is_disabled":false,"rental_uris":{"android":"levelo://app?vid=71cf8534-4c71-4a87-b3f7-fbbb731ae674","ios":"levelo://app?vid=71cf8534-4c71-4a87-b3f7-fbbb731ae674"},"vehicle_type_id":"4","last_reported":1732792108,"current_range_meters":13600,"station_id":"ce4bhnp2rcd13ifvqgvg","pricing_plan_id":"cebpf4jnsgd1na2vs0mg"},{"bike_id":"b05ede17-a4c0-4295-9b02-d3197b6d7c98","system_id":"levelo_inurba_marseille","lat":43.27418,"lon":5.39421,"is_reserved":false,"is_disabled":false,"rental_uris":{"android":"levelo://app?vid=b05ede17-a4c0-4295-9b02-d3197b6d7c98","ios":"levelo://app?vid=b05ede17-a4c0-4295-9b02-d3197b6d7c98"},"vehicle_type_id":"4","last_reported":1732792108,"current_range_meters":25600,"station_id":"ce4bhdp2rcd13ifvqf20","pricing_plan_id":"cebpf4jnsgd1na2vs0mg"},{"bike_id":"be460f49-dd16-4ee6-8ded-115392398c71","system_id":"levelo_inurba_marseille","lat":43.23178,"lon":5.39995,"is_reserved":false,"is_disabled":false,"rental_uris":{"android":"levelo://app?vid=be460f49-dd16-4ee6-8ded-115392398c71","ios":"levelo://app?vid=be460f49-dd16-4ee6-8ded-115392398c71"},"vehicle_type_id":"4","last_reported":1732792108,"current_range_meters":22800,"station_id":"ce4bhn12rcd13ifvqgqg","pricing_plan_id":"cebpf4jnsgd1na2vs0mg"},{"bike_id":"890f737b-cd69-4ea1-b121-1a499e00f5b8","system_id":"levelo_inurba_marseille","lat":43.270766,"lon":5.42267,"is_reserved":false,"is_disabled":false,"rental_uris":{"android":"levelo://app?vid=890f737b-cd69-4ea1-b121-1a499e00f5b8","ios":"levelo://app?vid=890f737b-cd69-4ea1-b121-1a499e00f5b8"},"vehicle_type_id":"4","last_reported":1732792108,"current_range_meters":27600,"station_id":"ce4bhk92rcd13ifvqgb0","pricing_plan_id":"cebpf4jnsgd1na2vs0mg"},{"bike_id":"e810c3e5-3c1b-49af-9710-40939f8f1be2","system_id":"levelo_inurba_marseille","lat":43.26781,"lon":5.39414,"is_reserved":false,"is_disabled":false,"rental_uris":{"android":"levelo://app?vid=e810c3e5-3c1b-49af-9710-40939f8f1be2","ios":"levelo://app?vid=e810c3e5-3c1b-49af-9710-40939f8f1be2"},"vehicle_type_id":"4","last_reported":1732792108,"current_range_meters":19600,"station_id":"ce4bhh12rcd13ifvqfg0","pricing_plan_id":"cebpf4jnsgd1na2vs0mg"},{"bike_id":"113ec61c-057a-4335-a2b2-22183d6987e0","system_id":"levelo_inurba_marseille","lat":43.27485,"lon":5.4246,"is_reserved":false,"is_disabled":false,"rental_uris":{"android":"levelo://app?vid=113ec61c-057a-4335-a2b2-22183d6987e0","ios":"levelo://app?vid=113ec61c-057a-4335-a2b2-22183d6987e0"},"vehicle_type_id":"4","last_reported":1732792108,"current_range_meters":12000,"station_id":"ce4bhn92rcd13ifvqgrg","pricing_plan_id":"cebpf4jnsgd1na2vs0mg"},{"bike_id":"ff9a69bf-a379-43ca-b464-6dbf4ebaaf3d","system_id":"levelo_inurba_marseille","lat":43.30546,"lon":5.36551,"is_reserved":false,"is_disabled":false,"rental_uris":{"android":"levelo://app?vid=ff9a69bf-a379-43ca-b464-6dbf4ebaaf3d","ios":"levelo://app?vid=ff9a69bf-a379-43ca-b464-6dbf4ebaaf3d"},"vehicle_type_id":"4","last_reported":1732792108,"current_range_meters":36000,"station_id":"ce4bgs12rcd13ifvqcag","pricing_plan_id":"cebpf4jnsgd1na2vs0mg"},{"bike_id":"2e912540-8917-42c0-a200-917afa7a5eb9","system_id":"levelo_inurba_marseille","lat":43.28078,"lon":5.39644,"is_reserved":false,"is_disabled":false,"rental_uris":{"android":"levelo://app?vid=2e912540-8917-42c0-a200-917afa7a5eb9","ios":"levelo://app?vid=2e912540-8917-42c0-a200-917afa7a5eb9"},"vehicle_type_id":"4","last_reported":1732792108,"current_range_meters":18000,"station_id":"ce4bho12rcd13ifvqh2g","pricing_plan_id":"cebpf4jnsgd1na2vs0mg"},{"bike_id":"02f937c3-681a-41c4-a04e-d4667e8340e1","system_id":"levelo_inurba_marseille","lat":43.29585,"lon":5.36736,"is_reserved":false,"is_disabled":false,"rental_uris":{"android":"levelo://app?vid=02f937c3-681a-41c4-a04e-d4667e8340e1","ios":"levelo://app?vid=02f937c3-681a-41c4-a04e-d4667e8340e1"},"vehicle_type_id":"4","last_reported":1732792108,"current_range_meters":33600,"station_id":"ce4bgph2rcd13ifvqc2g","pricing_plan_id":"cebpf4jnsgd1na2vs0mg"},{"bike_id":"ce15a521-8a1d-47b7-92c8-091ca367d00e","system_id":"levelo_inurba_marseille","lat":43.3368,"lon":5.37194,"is_reserved":false,"is_disabled":false,"rental_uris":{"android":"levelo://app?vid=ce15a521-8a1d-47b7-92c8-091ca367d00e","ios":"levelo://app?vid=ce15a521-8a1d-47b7-92c8-091ca367d00e"},"vehicle_type_id":"4","last_reported":1732792108,"current_range_meters":38400,"station_id":"","pricing_plan_id":"cebpf4jnsgd1na2vs0mg"},{"bike_id":"6f6a2a2a-466a-48ad-b705-d5887c808530","system_id":"levelo_inurba_marseille","lat":43.26934,"lon":5.3892,"is_reserved":false,"is_disabled":false,"rental_uris":{"android":"levelo://app?vid=6f6a2a2a-466a-48ad-b705-d5887c808530","ios":"levelo://app?vid=6f6a2a2a-466a-48ad-b705-d5887c808530"},"vehicle_type_id":"4","last_reported":1732792108,"current_range_meters":21600,"station_id":"ce4bhhh2rcd13ifvqfl0","pricing_plan_id":"cebpf4jnsgd1na2vs0mg"},{"bike_id":"da25abaf-ac74-4efd-8868-8894c4d1385f","system_id":"levelo_inurba_marseille","lat":43.30133,"lon":5.39875,"is_reserved":false,"is_disabled":false,"rental_uris":{"android":"levelo://app?vid=da25abaf-ac74-4efd-8868-8894c4d1385f","ios":"levelo://app?vid=da25abaf-ac74-4efd-8868-8894c4d1385f"},"vehicle_type_id":"4","last_reported":1732792108,"current_range_meters":36800,"station_id":"ce4bh0h2rcd13ifvqd40","pricing_plan_id":"cebpf4jnsgd1na2vs0mg"},{"bike_id":"908a91b4-f74f-4175-9a94-be2178948b1b","system_id":"levelo_inurba_marseille","lat":43.25931,"lon":5.40911,"is_reserved":false,"is_disabled":true,"rental_uris":{"android":"levelo://app?vid=908a91b4-f74f-4175-9a94-be2178948b1b","ios":"levelo://app?vid=908a91b4-f74f-4175-9a94-be2178948b1b"},"vehicle_type_id":"4","last_reported":1732792108,"current_range_meters":0,"station_id":"ce4bhm92rcd13ifvqglg","pricing_plan_id":"cebpf4jnsgd1na2vs0mg"},{"bike_id":"ac49a3ad-a016-4fdc-9cb8-2368eb4bc863","system_id":"levelo_inurba_marseille","lat":43.25099,"lon":5.39528,"is_reserved":false,"is_disabled":false,"rental_uris":{"android":"levelo://app?vid=ac49a3ad-a016-4fdc-9cb8-2368eb4bc863","ios":"levelo://app?vid=ac49a3ad-a016-4fdc-9cb8-2368eb4bc863"},"vehicle_type_id":"4","last_reported":1732792108,"current_range_meters":19200,"station_id":"ce4bhm12rcd13ifvqgkg","pricing_plan_id":"cebpf4jnsgd1na2vs0mg"},{"bike_id":"ff9a1ec5-be80-43ec-9b6e-d2bb637a4f30","system_id":"levelo_inurba_marseille","lat":43.2873,"lon":5.39976,"is_reserved":false,"is_disabled":true,"rental_uris":{"android":"levelo://app?vid=ff9a1ec5-be80-43ec-9b6e-d2bb637a4f30","ios":"levelo://app?vid=ff9a1ec5-be80-43ec-9b6e-d2bb637a4f30"},"vehicle_type_id":"4","last_reported":1732792108,"current_range_meters":36400,"station_id":"ce4bho92rcd13ifvqh3g","pricing_plan_id":"cebpf4jnsgd1na2vs0mg"},{"bike_id":"6f7949e1-de87-4a49-8620-fec27e04447f","system_id":"levelo_inurba_marseille","lat":43.33728,"lon":5.39186,"is_reserved":false,"is_disabled":false,"rental_uris":{"android":"levelo://app?vid=6f7949e1-de87-4a49-8620-fec27e04447f","ios":"levelo://app?vid=6f7949e1-de87-4a49-8620-fec27e04447f"},"vehicle_type_id":"4","last_reported":1732792108,"current_range_meters":35600,"station_id":"ce4bhr92rcd13ifvqhsg","pricing_plan_id":"cebpf4jnsgd1na2vs0mg"},{"bike_id":"6480c18a-3b77-4a38-a7fb-64542ed59d94","system_id":"levelo_inurba_marseille","lat":43.29571,"lon":5.39975,"is_reserved":false,"is_disabled":false,"rental_uris":{"android":"levelo://app?vid=6480c18a-3b77-4a38-a7fb-64542ed59d94","ios":"levelo://app?vid=6480c18a-3b77-4a38-a7fb-64542ed59d94"},"vehicle_type_id":"4","last_reported":1732792108,"current_range_meters":30000,"station_id":"ce4bh312rcd13ifvqdj0","pricing_plan_id":"cebpf4jnsgd1na2vs0mg"},{"bike_id":"db061391-173a-46a3-8c7f-679ed9d30a0c","system_id":"levelo_inurba_marseille","lat":43.30536,"lon":5.36515,"is_reserved":false,"is_disabled":false,"rental_uris":{"android":"levelo://app?vid=db061391-173a-46a3-8c7f-679ed9d30a0c","ios":"levelo://app?vid=db061391-173a-46a3-8c7f-679ed9d30a0c"},"vehicle_type_id":"4","last_reported":1732792108,"current_range_meters":22400,"station_id":"ce4bgs12rcd13ifvqcag","pricing_plan_id":"cebpf4jnsgd1na2vs0mg"},{"bike_id":"2f0cb11d-2f6f-49b3-9f8d-4f2c839a038d","system_id":"levelo_inurba_marseille","lat":43.3013,"lon":5.37438,"is_reserved":false,"is_disabled":false,"rental_uris":{"android":"levelo://app?vid=2f0cb11d-2f6f-49b3-9f8d-4f2c839a038d","ios":"levelo://app?vid=2f0cb11d-2f6f-49b3-9f8d-4f2c839a038d"},"vehicle_type_id":"4","last_reported":1732792108,"current_range_meters":38800,"station_id":"ce4bgs92rcd13ifvqcc0","pricing_plan_id":"cebpf4jnsgd1na2vs0mg"},{"bike_id":"8035e00b-0c1a-42ea-a613-33d98eefcc7f","system_id":"levelo_inurba_marseille","lat":43.24537,"lon":5.39532,"is_reserved":false,"is_disabled":false,"rental_uris":{"android":"levelo://app?vid=8035e00b-0c1a-42ea-a613-33d98eefcc7f","ios":"levelo://app?vid=8035e00b-0c1a-42ea-a613-33d98eefcc7f"},"vehicle_type_id":"4","last_reported":1732792108,"current_range_meters":5600,"station_id":"ce4bhlp2rcd13ifvqgjg","pricing_plan_id":"cebpf4jnsgd1na2vs0mg"},{"bike_id":"27da9bf1-a2e8-426b-acc7-134169cebef6","system_id":"levelo_inurba_marseille","lat":43.25492,"lon":5.37657,"is_reserved":false,"is_disabled":false,"rental_uris":{"android":"levelo://app?vid=27da9bf1-a2e8-426b-acc7-134169cebef6","ios":"levelo://app?vid=27da9bf1-a2e8-426b-acc7-134169cebef6"},"vehicle_type_id":"4","last_reported":1732792108,"current_range_meters":37600,"station_id":"ce4bhh12rcd13ifvqff0","pricing_plan_id":"cebpf4jnsgd1na2vs0mg"},{"bike_id":"4eb855f4-0c33-4e46-b9c3-fb652c131a25","system_id":"levelo_inurba_marseille","lat":43.26777,"lon":5.3942,"is_reserved":false,"is_disabled":true,"rental_uris":{"android":"levelo://app?vid=4eb855f4-0c33-4e46-b9c3-fb652c131a25","ios":"levelo://app?vid=4eb855f4-0c33-4e46-b9c3-fb652c131a25"},"vehicle_type_id":"4","last_reported":1732792108,"current_range_meters":1200,"station_id":"ce4bhh12rcd13ifvqfg0","pricing_plan_id":"cebpf4jnsgd1na2vs0mg"},{"bike_id":"5249c720-4ecf-407f-95ee-f4da1041dcb5","system_id":"levelo_inurba_marseille","lat":43.26678,"lon":5.38268,"is_reserved":false,"is_disabled":true,"rental_uris":{"android":"levelo://app?vid=5249c720-4ecf-407f-95ee-f4da1041dcb5","ios":"levelo://app?vid=5249c720-4ecf-407f-95ee-f4da1041dcb5"},"vehicle_type_id":"4","last_reported":1732792108,"current_range_meters":29600,"station_id":"ce4bhg92rcd13ifvqf90","pricing_plan_id":"cebpf4jnsgd1na2vs0mg"},{"bike_id":"b1422ff8-74e2-4dc1-94ac-a145ceea1d5e","system_id":"levelo_inurba_marseille","lat":43.32362,"lon":5.36744,"is_reserved":false,"is_disabled":false,"rental_uris":{"android":"levelo://app?vid=b1422ff8-74e2-4dc1-94ac-a145ceea1d5e","ios":"levelo://app?vid=b1422ff8-74e2-4dc1-94ac-a145ceea1d5e"},"vehicle_type_id":"4","last_reported":1732792108,"current_range_meters":14400,"station_id":"ce4bhsh2rcd13ifvqi2g","pricing_plan_id":"cebpf4jnsgd1na2vs0mg"},{"bike_id":"4709c438-f4af-415a-a919-d27302b75dca","system_id":"levelo_inurba_marseille","lat":43.23196,"lon":5.35553,"is_reserved":false,"is_disabled":false,"rental_uris":{"android":"levelo://app?vid=4709c438-f4af-415a-a919-d27302b75dca","ios":"levelo://app?vid=4709c438-f4af-415a-a919-d27302b75dca"},"vehicle_type_id":"4","last_reported":1732792108,"current_range_meters":39200,"station_id":"ce4bhu92rcd13ifvqi70","pricing_plan_id":"cebpf4jnsgd1na2vs0mg"},{"bike_id":"2b921899-1359-49b6-a793-ffb9ef50e656","system_id":"levelo_inurba_marseille","lat":43.29597,"lon":5.37706,"is_reserved":false,"is_disabled":true,"rental_uris":{"android":"levelo://app?vid=2b921899-1359-49b6-a793-ffb9ef50e656","ios":"levelo://app?vid=2b921899-1359-49b6-a793-ffb9ef50e656"},"vehicle_type_id":"4","last_reported":1732792108,"current_range_meters":38000,"station_id":"ce4bgi92rcd13ifvqb90","pricing_plan_id":"cebpf4jnsgd1na2vs0mg"},{"bike_id":"eccc2b38-428e-448c-a061-33d23a7d1135","system_id":"levelo_inurba_marseille","lat":43.30191,"lon":5.36582,"is_reserved":false,"is_disabled":false,"rental_uris":{"android":"levelo://app?vid=eccc2b38-428e-448c-a061-33d23a7d1135","ios":"levelo://app?vid=eccc2b38-428e-448c-a061-33d23a7d1135"},"vehicle_type_id":"4","last_reported":1732792108,"current_range_meters":38400,"station_id":"ce4bgrh2rcd13ifvqc8g","pricing_plan_id":"cebpf4jnsgd1na2vs0mg"},{"bike_id":"9829457d-ec1e-44f7-a513-cb3474ffb5e7","system_id":"levelo_inurba_marseille","lat":43.337444,"lon":5.374475,"is_reserved":false,"is_disabled":false,"rental_uris":{"android":"levelo://app?vid=9829457d-ec1e-44f7-a513-cb3474ffb5e7","ios":"levelo://app?vid=9829457d-ec1e-44f7-a513-cb3474ffb5e7"},"vehicle_type_id":"4","last_reported":1732792108,"current_range_meters":36800,"station_id":"","pricing_plan_id":"cebpf4jnsgd1na2vs0mg"},{"bike_id":"c6974d8a-fa0d-413f-a1ad-1956b49fc8fb","system_id":"levelo_inurba_marseille","lat":43.28075,"lon":5.3964,"is_reserved":false,"is_disabled":false,"rental_uris":{"android":"levelo://app?vid=c6974d8a-fa0d-413f-a1ad-1956b49fc8fb","ios":"levelo://app?vid=c6974d8a-fa0d-413f-a1ad-1956b49fc8fb"},"vehicle_type_id":"4","last_reported":1732792108,"current_range_meters":39200,"station_id":"ce4bho12rcd13ifvqh2g","pricing_plan_id":"cebpf4jnsgd1na2vs0mg"},{"bike_id":"869146c7-107f-4a8d-a9de-076457eea766","system_id":"levelo_inurba_marseille","lat":43.21678,"lon":5.34647,"is_reserved":false,"is_disabled":false,"rental_uris":{"android":"levelo://app?vid=869146c7-107f-4a8d-a9de-076457eea766","ios":"levelo://app?vid=869146c7-107f-4a8d-a9de-076457eea766"},"vehicle_type_id":"4","last_reported":1732792108,"current_range_meters":10800,"station_id":"","pricing_plan_id":"cebpf4jnsgd1na2vs0mg"},{"bike_id":"d5ed981a-0b8c-44dd-9549-b8ddb501f7bc","system_id":"levelo_inurba_marseille","lat":43.25929,"lon":5.40911,"is_reserved":false,"is_disabled":false,"rental_uris":{"android":"levelo://app?vid=d5ed981a-0b8c-44dd-9549-b8ddb501f7bc","ios":"levelo://app?vid=d5ed981a-0b8c-44dd-9549-b8ddb501f7bc"},"vehicle_type_id":"4","last_reported":1732792108,"current_range_meters":25600,"station_id":"ce4bhm92rcd13ifvqglg","pricing_plan_id":"cebpf4jnsgd1na2vs0mg"},{"bike_id":"b8f46e0e-fb8b-45c0-82ed-2c919bfcc6ab","system_id":"levelo_inurba_marseille","lat":43.29518,"lon":5.37509,"is_reserved":false,"is_disabled":false,"rental_uris":{"android":"levelo://app?vid=b8f46e0e-fb8b-45c0-82ed-2c919bfcc6ab","ios":"levelo://app?vid=b8f46e0e-fb8b-45c0-82ed-2c919bfcc6ab"},"vehicle_type_id":"4","last_reported":1732792108,"current_range_meters":2800,"station_id":"ce4bgkp2rcd13ifvqbmg","pricing_plan_id":"cebpf4jnsgd1na2vs0mg"},{"bike_id":"50619f29-2818-465e-a8a5-fb302e713714","system_id":"levelo_inurba_marseille","lat":43.29967,"lon":5.38495,"is_reserved":false,"is_disabled":false,"rental_uris":{"android":"levelo://app?vid=50619f29-2818-465e-a8a5-fb302e713714","ios":"levelo://app?vid=50619f29-2818-465e-a8a5-fb302e713714"},"vehicle_type_id":"4","last_reported":1732792108,"current_range_meters":8800,"station_id":"ce4bgj92rcd13ifvqbd0","pricing_plan_id":"cebpf4jnsgd1na2vs0mg"},{"bike_id":"f55ec180-dbd7-4667-921c-25040ac5bf5a","system_id":"levelo_inurba_marseille","lat":43.30198,"lon":5.3658,"is_reserved":false,"is_disabled":false,"rental_uris":{"android":"levelo://app?vid=f55ec180-dbd7-4667-921c-25040ac5bf5a","ios":"levelo://app?vid=f55ec180-dbd7-4667-921c-25040ac5bf5a"},"vehicle_type_id":"4","last_reported":1732792108,"current_range_meters":37600,"station_id":"ce4bgrh2rcd13ifvqc8g","pricing_plan_id":"cebpf4jnsgd1na2vs0mg"},{"bike_id":"13748854-c7ec-4486-bb35-86cbf66f8ec7","system_id":"levelo_inurba_marseille","lat":43.23152,"lon":5.43703,"is_reserved":false,"is_disabled":true,"rental_uris":{"android":"levelo://app?vid=13748854-c7ec-4486-bb35-86cbf66f8ec7","ios":"levelo://app?vid=13748854-c7ec-4486-bb35-86cbf66f8ec7"},"vehicle_type_id":"4","last_reported":1732792108,"current_range_meters":0,"station_id":"ce4bhmp2rcd13ifvqgog","pricing_plan_id":"cebpf4jnsgd1na2vs0mg"},{"bike_id":"95ae37b5-add4-404e-b606-18569c489f38","system_id":"levelo_inurba_marseille","lat":43.23153,"lon":5.43706,"is_reserved":false,"is_disabled":false,"rental_uris":{"android":"levelo://app?vid=95ae37b5-add4-404e-b606-18569c489f38","ios":"levelo://app?vid=95ae37b5-add4-404e-b606-18569c489f38"},"vehicle_type_id":"4","last_reported":1732792108,"current_range_meters":14800,"station_id":"ce4bhmp2rcd13ifvqgog","pricing_plan_id":"cebpf4jnsgd1na2vs0mg"},{"bike_id":"9a0d92ca-9d17-493c-8662-281d5ca64075","system_id":"levelo_inurba_marseille","lat":43.28032,"lon":5.3694,"is_reserved":false,"is_disabled":false,"rental_uris":{"android":"levelo://app?vid=9a0d92ca-9d17-493c-8662-281d5ca64075","ios":"levelo://app?vid=9a0d92ca-9d17-493c-8662-281d5ca64075"},"vehicle_type_id":"4","last_reported":1732792108,"current_range_meters":18800,"station_id":"ce4bha12rcd13ifvqef0","pricing_plan_id":"cebpf4jnsgd1na2vs0mg"},{"bike_id":"2d7186fb-0e28-404f-9652-82b0a87e8635","system_id":"levelo_inurba_marseille","lat":43.27204,"lon":5.39181,"is_reserved":false,"is_disabled":false,"rental_uris":{"android":"levelo://app?vid=2d7186fb-0e28-404f-9652-82b0a87e8635","ios":"levelo://app?vid=2d7186fb-0e28-404f-9652-82b0a87e8635"},"vehicle_type_id":"4","last_reported":1732792108,"current_range_meters":16400,"station_id":"ce4bhhp2rcd13ifvqfm0","pricing_plan_id":"cebpf4jnsgd1na2vs0mg"},{"bike_id":"dff7b4b8-6866-4d8b-b080-9ffa997cfe7d","system_id":"levelo_inurba_marseille","lat":43.28658,"lon":5.38675,"is_reserved":false,"is_disabled":false,"rental_uris":{"android":"levelo://app?vid=dff7b4b8-6866-4d8b-b080-9ffa997cfe7d","ios":"levelo://app?vid=dff7b4b8-6866-4d8b-b080-9ffa997cfe7d"},"vehicle_type_id":"4","last_reported":1732792108,"current_range_meters":24800,"station_id":"ce4bh492rcd13ifvqdug","pricing_plan_id":"cebpf4jnsgd1na2vs0mg"},{"bike_id":"4d4c884f-6933-49c0-8899-f9856d90f44d","system_id":"levelo_inurba_marseille","lat":43.29748,"lon":5.37971,"is_reserved":false,"is_disabled":true,"rental_uris":{"android":"levelo://app?vid=4d4c884f-6933-49c0-8899-f9856d90f44d","ios":"levelo://app?vid=4d4c884f-6933-49c0-8899-f9856d90f44d"},"vehicle_type_id":"4","last_reported":1732792108,"current_range_meters":0,"station_id":"","pricing_plan_id":"cebpf4jnsgd1na2vs0mg"},{"bike_id":"1c576067-3ce4-4a98-92cf-7b18a70eaaea","system_id":"levelo_inurba_marseille","lat":43.27572,"lon":5.38426,"is_reserved":false,"is_disabled":false,"rental_uris":{"android":"levelo://app?vid=1c576067-3ce4-4a98-92cf-7b18a70eaaea","ios":"levelo://app?vid=1c576067-3ce4-4a98-92cf-7b18a70eaaea"},"vehicle_type_id":"4","last_reported":1732792108,"current_range_meters":18000,"station_id":"ce4bhh92rcd13ifvqfi0","pricing_plan_id":"cebpf4jnsgd1na2vs0mg"},{"bike_id":"9009be37-c6b1-406b-b0a8-fbab355f715e","system_id":"levelo_inurba_marseille","lat":43.33762,"lon":5.37493,"is_reserved":false,"is_disabled":false,"rental_uris":{"android":"levelo://app?vid=9009be37-c6b1-406b-b0a8-fbab355f715e","ios":"levelo://app?vid=9009be37-c6b1-406b-b0a8-fbab355f715e"},"vehicle_type_id":"4","last_reported":1732792108,"current_range_meters":37600,"station_id":"","pricing_plan_id":"cebpf4jnsgd1na2vs0mg"},{"bike_id":"53062f0e-5ec4-476d-9554-027b2041fa7c","system_id":"levelo_inurba_marseille","lat":43.30202,"lon":5.39463,"is_reserved":false,"is_disabled":false,"rental_uris":{"android":"levelo://app?vid=53062f0e-5ec4-476d-9554-027b2041fa7c","ios":"levelo://app?vid=53062f0e-5ec4-476d-9554-027b2041fa7c"},"vehicle_type_id":"4","last_reported":1732792108,"current_range_meters":38000,"station_id":"ce4bh0p2rcd13ifvqd70","pricing_plan_id":"cebpf4jnsgd1na2vs0mg"},{"bike_id":"dad09c6f-2611-4c34-9738-7e2a9fb47005","system_id":"levelo_inurba_marseille","lat":43.26056,"lon":5.39391,"is_reserved":false,"is_disabled":false,"rental_uris":{"android":"levelo://app?vid=dad09c6f-2611-4c34-9738-7e2a9fb47005","ios":"levelo://app?vid=dad09c6f-2611-4c34-9738-7e2a9fb47005"},"vehicle_type_id":"4","last_reported":1732792108,"current_range_meters":36800,"station_id":"ce4bhh92rcd13ifvqfj0","pricing_plan_id":"cebpf4jnsgd1na2vs0mg"},{"bike_id":"49d5aed3-a8cd-4d8f-9d68-9984fe9a770a","system_id":"levelo_inurba_marseille","lat":43.30205,"lon":5.39468,"is_reserved":false,"is_disabled":false,"rental_uris":{"android":"levelo://app?vid=49d5aed3-a8cd-4d8f-9d68-9984fe9a770a","ios":"levelo://app?vid=49d5aed3-a8cd-4d8f-9d68-9984fe9a770a"},"vehicle_type_id":"4","last_reported":1732792108,"current_range_meters":38800,"station_id":"ce4bh0p2rcd13ifvqd70","pricing_plan_id":"cebpf4jnsgd1na2vs0mg"},{"bike_id":"de93f962-86a2-4563-b1b9-8b6483fb8202","system_id":"levelo_inurba_marseille","lat":43.27923,"lon":5.39583,"is_reserved":false,"is_disabled":false,"rental_uris":{"android":"levelo://app?vid=de93f962-86a2-4563-b1b9-8b6483fb8202","ios":"levelo://app?vid=de93f962-86a2-4563-b1b9-8b6483fb8202"},"vehicle_type_id":"4","last_reported":1732792108,"current_range_meters":36400,"station_id":"ce4bhf92rcd13ifvqf40","pricing_plan_id":"cebpf4jnsgd1na2vs0mg"},{"bike_id":"bf99cea1-442c-4fd7-80ac-93d09ee04d41","system_id":"levelo_inurba_marseille","lat":43.29266,"lon":5.38441,"is_reserved":false,"is_disabled":false,"rental_uris":{"android":"levelo://app?vid=bf99cea1-442c-4fd7-80ac-93d09ee04d41","ios":"levelo://app?vid=bf99cea1-442c-4fd7-80ac-93d09ee04d41"},"vehicle_type_id":"4","last_reported":1732792108,"current_range_meters":36800,"station_id":"ce4bh692rcd13ifvqea0","pricing_plan_id":"cebpf4jnsgd1na2vs0mg"},{"bike_id":"4d809776-4d2b-4bf5-8aa6-666b5b1fd18f","system_id":"levelo_inurba_marseille","lat":43.33714,"lon":5.39177,"is_reserved":false,"is_disabled":false,"rental_uris":{"android":"levelo://app?vid=4d809776-4d2b-4bf5-8aa6-666b5b1fd18f","ios":"levelo://app?vid=4d809776-4d2b-4bf5-8aa6-666b5b1fd18f"},"vehicle_type_id":"4","last_reported":1732792108,"current_range_meters":38800,"station_id":"ce4bhr92rcd13ifvqhsg","pricing_plan_id":"cebpf4jnsgd1na2vs0mg"},{"bike_id":"2b539107-529c-4a94-900a-48d38a7e5032","system_id":"levelo_inurba_marseille","lat":43.30137,"lon":5.37415,"is_reserved":false,"is_disabled":false,"rental_uris":{"android":"levelo://app?vid=2b539107-529c-4a94-900a-48d38a7e5032","ios":"levelo://app?vid=2b539107-529c-4a94-900a-48d38a7e5032"},"vehicle_type_id":"4","last_reported":1732792108,"current_range_meters":27200,"station_id":"ce4bgs92rcd13ifvqcc0","pricing_plan_id":"cebpf4jnsgd1na2vs0mg"},{"bike_id":"c8ec8766-7d46-4894-a612-ffece75c0618","system_id":"levelo_inurba_marseille","lat":43.27913,"lon":5.39584,"is_reserved":false,"is_disabled":false,"rental_uris":{"android":"levelo://app?vid=c8ec8766-7d46-4894-a612-ffece75c0618","ios":"levelo://app?vid=c8ec8766-7d46-4894-a612-ffece75c0618"},"vehicle_type_id":"4","last_reported":1732792108,"current_range_meters":28800,"station_id":"ce4bhf92rcd13ifvqf40","pricing_plan_id":"cebpf4jnsgd1na2vs0mg"},{"bike_id":"7dccca16-9c81-46ba-8ec7-8ac114550316","system_id":"levelo_inurba_marseille","lat":43.33748,"lon":5.37436,"is_reserved":false,"is_disabled":false,"rental_uris":{"android":"levelo://app?vid=7dccca16-9c81-46ba-8ec7-8ac114550316","ios":"levelo://app?vid=7dccca16-9c81-46ba-8ec7-8ac114550316"},"vehicle_type_id":"4","last_reported":1732792108,"current_range_meters":38000,"station_id":"","pricing_plan_id":"cebpf4jnsgd1na2vs0mg"},{"bike_id":"0a417164-0306-41c4-a1ad-88b6fd0c5270","system_id":"levelo_inurba_marseille","lat":43.31113,"lon":5.37766,"is_reserved":false,"is_disabled":false,"rental_uris":{"android":"levelo://app?vid=0a417164-0306-41c4-a1ad-88b6fd0c5270","ios":"levelo://app?vid=0a417164-0306-41c4-a1ad-88b6fd0c5270"},"vehicle_type_id":"4","last_reported":1732792108,"current_range_meters":37600,"station_id":"ce4bgt92rcd13ifvqcg0","pricing_plan_id":"cebpf4jnsgd1na2vs0mg"},{"bike_id":"2c1f78d7-443a-49a8-b893-537bb7c5b702","system_id":"levelo_inurba_marseille","lat":43.29039,"lon":5.37566,"is_reserved":false,"is_disabled":true,"rental_uris":{"android":"levelo://app?vid=2c1f78d7-443a-49a8-b893-537bb7c5b702","ios":"levelo://app?vid=2c1f78d7-443a-49a8-b893-537bb7c5b702"},"vehicle_type_id":"4","last_reported":1732792108,"current_range_meters":18800,"station_id":"ce4bh692rcd13ifvqe90","pricing_plan_id":"cebpf4jnsgd1na2vs0mg"},{"bike_id":"c6503f95-a2da-4b3b-82b1-0e08a76abfd0","system_id":"levelo_inurba_marseille","lat":43.25931,"lon":5.409,"is_reserved":false,"is_disabled":false,"rental_uris":{"android":"levelo://app?vid=c6503f95-a2da-4b3b-82b1-0e08a76abfd0","ios":"levelo://app?vid=c6503f95-a2da-4b3b-82b1-0e08a76abfd0"},"vehicle_type_id":"4","last_reported":1732792108,"current_range_meters":25600,"station_id":"ce4bhm92rcd13ifvqglg","pricing_plan_id":"cebpf4jnsgd1na2vs0mg"},{"bike_id":"00f34ecb-5a8f-48a2-8e72-7e35f3f0ba4a","system_id":"levelo_inurba_marseille","lat":43.27825,"lon":5.40712,"is_reserved":false,"is_disabled":false,"rental_uris":{"android":"levelo://app?vid=00f34ecb-5a8f-48a2-8e72-7e35f3f0ba4a","ios":"levelo://app?vid=00f34ecb-5a8f-48a2-8e72-7e35f3f0ba4a"},"vehicle_type_id":"4","last_reported":1732792108,"current_range_meters":36800,"station_id":"ce4bhnh2rcd13ifvqgtg","pricing_plan_id":"cebpf4jnsgd1na2vs0mg"},{"bike_id":"95c39abd-631b-4674-8877-bb71fdbca347","system_id":"levelo_inurba_marseille","lat":43.29612,"lon":5.3771,"is_reserved":false,"is_disabled":true,"rental_uris":{"android":"levelo://app?vid=95c39abd-631b-4674-8877-bb71fdbca347","ios":"levelo://app?vid=95c39abd-631b-4674-8877-bb71fdbca347"},"vehicle_type_id":"4","last_reported":1732792108,"current_range_meters":0,"station_id":"ce4bgi92rcd13ifvqb90","pricing_plan_id":"cebpf4jnsgd1na2vs0mg"},{"bike_id":"35637c9f-d6c4-4d75-82b5-13284fd1c1f7","system_id":"levelo_inurba_marseille","lat":43.3122,"lon":5.36862,"is_reserved":false,"is_disabled":false,"rental_uris":{"android":"levelo://app?vid=35637c9f-d6c4-4d75-82b5-13284fd1c1f7","ios":"levelo://app?vid=35637c9f-d6c4-4d75-82b5-13284fd1c1f7"},"vehicle_type_id":"4","last_reported":1732792108,"current_range_meters":20000,"station_id":"ce4bgl92rcd13ifvqbq0","pricing_plan_id":"cebpf4jnsgd1na2vs0mg"},{"bike_id":"df1919fe-5865-46fa-9ab6-059b74a4fb31","system_id":"levelo_inurba_marseille","lat":43.23146,"lon":5.43707,"is_reserved":false,"is_disabled":false,"rental_uris":{"android":"levelo://app?vid=df1919fe-5865-46fa-9ab6-059b74a4fb31","ios":"levelo://app?vid=df1919fe-5865-46fa-9ab6-059b74a4fb31"},"vehicle_type_id":"4","last_reported":1732792108,"current_range_meters":28000,"station_id":"ce4bhmp2rcd13ifvqgog","pricing_plan_id":"cebpf4jnsgd1na2vs0mg"},{"bike_id":"1dee5398-ece1-4217-b5b9-984f22c2ff59","system_id":"levelo_inurba_marseille","lat":43.29249,"lon":5.38438,"is_reserved":false,"is_disabled":true,"rental_uris":{"android":"levelo://app?vid=1dee5398-ece1-4217-b5b9-984f22c2ff59","ios":"levelo://app?vid=1dee5398-ece1-4217-b5b9-984f22c2ff59"},"vehicle_type_id":"4","last_reported":1732792108,"current_range_meters":0,"station_id":"ce4bh692rcd13ifvqea0","pricing_plan_id":"cebpf4jnsgd1na2vs0mg"},{"bike_id":"f102ebd2-a724-4c51-a0b4-8237d294e4b1","system_id":"levelo_inurba_marseille","lat":43.28272,"lon":5.35082,"is_reserved":false,"is_disabled":false,"rental_uris":{"android":"levelo://app?vid=f102ebd2-a724-4c51-a0b4-8237d294e4b1","ios":"levelo://app?vid=f102ebd2-a724-4c51-a0b4-8237d294e4b1"},"vehicle_type_id":"4","last_reported":1732792108,"current_range_meters":32800,"station_id":"ce4bhbp2rcd13ifvqerg","pricing_plan_id":"cebpf4jnsgd1na2vs0mg"},{"bike_id":"8a1851c7-7da8-44f3-8388-9b666b5aa841","system_id":"levelo_inurba_marseille","lat":43.29259,"lon":5.40909,"is_reserved":false,"is_disabled":false,"rental_uris":{"android":"levelo://app?vid=8a1851c7-7da8-44f3-8388-9b666b5aa841","ios":"levelo://app?vid=8a1851c7-7da8-44f3-8388-9b666b5aa841"},"vehicle_type_id":"4","last_reported":1732792108,"current_range_meters":20000,"station_id":"ce4bh192rcd13ifvqdc0","pricing_plan_id":"cebpf4jnsgd1na2vs0mg"},{"bike_id":"e85a1ce9-3f41-4952-8db7-c28edca7b098","system_id":"levelo_inurba_marseille","lat":43.29074,"lon":5.37182,"is_reserved":false,"is_disabled":false,"rental_uris":{"android":"levelo://app?vid=e85a1ce9-3f41-4952-8db7-c28edca7b098","ios":"levelo://app?vid=e85a1ce9-3f41-4952-8db7-c28edca7b098"},"vehicle_type_id":"4","last_reported":1732792108,"current_range_meters":34800,"station_id":"ce4bh5p2rcd13ifvqe4g","pricing_plan_id":"cebpf4jnsgd1na2vs0mg"},{"bike_id":"80f4ea0a-f40f-482d-ad25-da02fbec78bb","system_id":"levelo_inurba_marseille","lat":43.30132,"lon":5.37425,"is_reserved":false,"is_disabled":false,"rental_uris":{"android":"levelo://app?vid=80f4ea0a-f40f-482d-ad25-da02fbec78bb","ios":"levelo://app?vid=80f4ea0a-f40f-482d-ad25-da02fbec78bb"},"vehicle_type_id":"4","last_reported":1732792108,"current_range_meters":38800,"station_id":"ce4bgs92rcd13ifvqcc0","pricing_plan_id":"cebpf4jnsgd1na2vs0mg"},{"bike_id":"d2cde64d-cc85-4e27-93d3-a1b98c8c93e6","system_id":"levelo_inurba_marseille","lat":43.2842,"lon":5.34985,"is_reserved":false,"is_disabled":false,"rental_uris":{"android":"levelo://app?vid=d2cde64d-cc85-4e27-93d3-a1b98c8c93e6","ios":"levelo://app?vid=d2cde64d-cc85-4e27-93d3-a1b98c8c93e6"},"vehicle_type_id":"4","last_reported":1732792108,"current_range_meters":35600,"station_id":"ce4bhbh2rcd13ifvqepg","pricing_plan_id":"cebpf4jnsgd1na2vs0mg"},{"bike_id":"8865b31a-2279-430c-9a34-3ceeb68419a6","system_id":"levelo_inurba_marseille","lat":43.29552,"lon":5.42282,"is_reserved":false,"is_disabled":false,"rental_uris":{"android":"levelo://app?vid=8865b31a-2279-430c-9a34-3ceeb68419a6","ios":"levelo://app?vid=8865b31a-2279-430c-9a34-3ceeb68419a6"},"vehicle_type_id":"4","last_reported":1732792108,"current_range_meters":18800,"station_id":"ce4bhph2rcd13ifvqhdg","pricing_plan_id":"cebpf4jnsgd1na2vs0mg"},{"bike_id":"0d6ad86a-d679-4803-96ca-14041613c9a8","system_id":"levelo_inurba_marseille","lat":43.29835,"lon":5.36255,"is_reserved":false,"is_disabled":false,"rental_uris":{"android":"levelo://app?vid=0d6ad86a-d679-4803-96ca-14041613c9a8","ios":"levelo://app?vid=0d6ad86a-d679-4803-96ca-14041613c9a8"},"vehicle_type_id":"4","last_reported":1732792108,"current_range_meters":28800,"station_id":"ce4bgpp2rcd13ifvqc3g","pricing_plan_id":"cebpf4jnsgd1na2vs0mg"},{"bike_id":"cf3d2476-4e33-4721-8f4b-b823be28d4ca","system_id":"levelo_inurba_marseille","lat":43.31527,"lon":5.38041,"is_reserved":false,"is_disabled":false,"rental_uris":{"android":"levelo://app?vid=cf3d2476-4e33-4721-8f4b-b823be28d4ca","ios":"levelo://app?vid=cf3d2476-4e33-4721-8f4b-b823be28d4ca"},"vehicle_type_id":"4","last_reported":1732792108,"current_range_meters":37600,"station_id":"ce4bhsp2rcd13ifvqi50","pricing_plan_id":"cebpf4jnsgd1na2vs0mg"},{"bike_id":"39b04c21-6a6a-40a7-a489-741c2b67c9bd","system_id":"levelo_inurba_marseille","lat":43.337237,"lon":5.391907,"is_reserved":false,"is_disabled":false,"rental_uris":{"android":"levelo://app?vid=39b04c21-6a6a-40a7-a489-741c2b67c9bd","ios":"levelo://app?vid=39b04c21-6a6a-40a7-a489-741c2b67c9bd"},"vehicle_type_id":"4","last_reported":1732792108,"current_range_meters":38800,"station_id":"ce4bhr92rcd13ifvqhsg","pricing_plan_id":"cebpf4jnsgd1na2vs0mg"},{"bike_id":"aad31ce2-dbcd-43f6-aac9-4e6816ee049c","system_id":"levelo_inurba_marseille","lat":43.28403,"lon":5.37523,"is_reserved":false,"is_disabled":false,"rental_uris":{"android":"levelo://app?vid=aad31ce2-dbcd-43f6-aac9-4e6816ee049c","ios":"levelo://app?vid=aad31ce2-dbcd-43f6-aac9-4e6816ee049c"},"vehicle_type_id":"4","last_reported":1732792108,"current_range_meters":39200,"station_id":"ce4bh412rcd13ifvqds0","pricing_plan_id":"cebpf4jnsgd1na2vs0mg"},{"bike_id":"16c373ba-d346-4b2d-bc4b-37db0bb4d7d1","system_id":"levelo_inurba_marseille","lat":43.25,"lon":5.3894,"is_reserved":false,"is_disabled":false,"rental_uris":{"android":"levelo://app?vid=16c373ba-d346-4b2d-bc4b-37db0bb4d7d1","ios":"levelo://app?vid=16c373ba-d346-4b2d-bc4b-37db0bb4d7d1"},"vehicle_type_id":"4","last_reported":1732792108,"current_range_meters":33600,"station_id":"ce4bhgp2rcd13ifvqfd0","pricing_plan_id":"cebpf4jnsgd1na2vs0mg"},{"bike_id":"59310c24-aada-47db-9c55-db87d9c8f60e","system_id":"levelo_inurba_marseille","lat":43.28968,"lon":5.37834,"is_reserved":false,"is_disabled":true,"rental_uris":{"android":"levelo://app?vid=59310c24-aada-47db-9c55-db87d9c8f60e","ios":"levelo://app?vid=59310c24-aada-47db-9c55-db87d9c8f60e"},"vehicle_type_id":"4","last_reported":1732792108,"current_range_meters":38800,"station_id":"ce4bh9p2rcd13ifvqed0","pricing_plan_id":"cebpf4jnsgd1na2vs0mg"},{"bike_id":"5d63a013-db17-43dc-bd8d-bc2b66f59bbd","system_id":"levelo_inurba_marseille","lat":43.27946,"lon":5.41055,"is_reserved":false,"is_disabled":false,"rental_uris":{"android":"levelo://app?vid=5d63a013-db17-43dc-bd8d-bc2b66f59bbd","ios":"levelo://app?vid=5d63a013-db17-43dc-bd8d-bc2b66f59bbd"},"vehicle_type_id":"4","last_reported":1732792108,"current_range_meters":19600,"station_id":"ce4bhnp2rcd13ifvqh0g","pricing_plan_id":"cebpf4jnsgd1na2vs0mg"},{"bike_id":"53acd5a8-ce0f-41f0-96bc-8786e46cf6d2","system_id":"levelo_inurba_marseille","lat":43.27993,"lon":5.41656,"is_reserved":false,"is_disabled":true,"rental_uris":{"android":"levelo://app?vid=53acd5a8-ce0f-41f0-96bc-8786e46cf6d2","ios":"levelo://app?vid=53acd5a8-ce0f-41f0-96bc-8786e46cf6d2"},"vehicle_type_id":"4","last_reported":1732792108,"current_range_meters":1600,"station_id":"ce4bho12rcd13ifvqh1g","pricing_plan_id":"cebpf4jnsgd1na2vs0mg"},{"bike_id":"4d76aa46-38ce-4912-828f-6aa7c3ebd017","system_id":"levelo_inurba_marseille","lat":43.30535,"lon":5.36533,"is_reserved":false,"is_disabled":false,"rental_uris":{"android":"levelo://app?vid=4d76aa46-38ce-4912-828f-6aa7c3ebd017","ios":"levelo://app?vid=4d76aa46-38ce-4912-828f-6aa7c3ebd017"},"vehicle_type_id":"4","last_reported":1732792108,"current_range_meters":36800,"station_id":"ce4bgs12rcd13ifvqcag","pricing_plan_id":"cebpf4jnsgd1na2vs0mg"},{"bike_id":"16259231-83f4-4c0b-b4de-0dcb1d03ab7a","system_id":"levelo_inurba_marseille","lat":43.337444,"lon":5.374475,"is_reserved":false,"is_disabled":false,"rental_uris":{"android":"levelo://app?vid=16259231-83f4-4c0b-b4de-0dcb1d03ab7a","ios":"levelo://app?vid=16259231-83f4-4c0b-b4de-0dcb1d03ab7a"},"vehicle_type_id":"4","last_reported":1732792108,"current_range_meters":38000,"station_id":"","pricing_plan_id":"cebpf4jnsgd1na2vs0mg"},{"bike_id":"3ffbdda6-fdaa-44ad-bfc4-06a10d723e22","system_id":"levelo_inurba_marseille","lat":43.24992,"lon":5.38923,"is_reserved":false,"is_disabled":false,"rental_uris":{"android":"levelo://app?vid=3ffbdda6-fdaa-44ad-bfc4-06a10d723e22","ios":"levelo://app?vid=3ffbdda6-fdaa-44ad-bfc4-06a10d723e22"},"vehicle_type_id":"4","last_reported":1732792108,"current_range_meters":12400,"station_id":"ce4bhgp2rcd13ifvqfd0","pricing_plan_id":"cebpf4jnsgd1na2vs0mg"},{"bike_id":"1ed8a65a-e7c4-46a8-9bbb-f6e42997c9a1","system_id":"levelo_inurba_marseille","lat":43.31157,"lon":5.3962,"is_reserved":false,"is_disabled":false,"rental_uris":{"android":"levelo://app?vid=1ed8a65a-e7c4-46a8-9bbb-f6e42997c9a1","ios":"levelo://app?vid=1ed8a65a-e7c4-46a8-9bbb-f6e42997c9a1"},"vehicle_type_id":"4","last_reported":1732792108,"current_range_meters":35200,"station_id":"ce4bh0p2rcd13ifvqd70","pricing_plan_id":"cebpf4jnsgd1na2vs0mg"},{"bike_id":"220ce8bf-6055-439a-932f-70112f24c52b","system_id":"levelo_inurba_marseille","lat":43.32111,"lon":5.36768,"is_reserved":false,"is_disabled":false,"rental_uris":{"android":"levelo://app?vid=220ce8bf-6055-439a-932f-70112f24c52b","ios":"levelo://app?vid=220ce8bf-6055-439a-932f-70112f24c52b"},"vehicle_type_id":"4","last_reported":1732792108,"current_range_meters":10800,"station_id":"ce4bhrh2rcd13ifvqhug","pricing_plan_id":"cebpf4jnsgd1na2vs0mg"},{"bike_id":"24404b8c-92d5-4ffc-a704-f49736075a77","system_id":"levelo_inurba_marseille","lat":43.32368,"lon":5.38883,"is_reserved":false,"is_disabled":false,"rental_uris":{"android":"levelo://app?vid=24404b8c-92d5-4ffc-a704-f49736075a77","ios":"levelo://app?vid=24404b8c-92d5-4ffc-a704-f49736075a77"},"vehicle_type_id":"4","last_reported":1732792108,"current_range_meters":18800,"station_id":"ce4bhqp2rcd13ifvqhog","pricing_plan_id":"cebpf4jnsgd1na2vs0mg"},{"bike_id":"a3671314-194f-49ad-ad3a-9bf1b446be31","system_id":"levelo_inurba_marseille","lat":43.26556,"lon":5.37283,"is_reserved":false,"is_disabled":false,"rental_uris":{"android":"levelo://app?vid=a3671314-194f-49ad-ad3a-9bf1b446be31","ios":"levelo://app?vid=a3671314-194f-49ad-ad3a-9bf1b446be31"},"vehicle_type_id":"4","last_reported":1732792108,"current_range_meters":16400,"station_id":"ce4bhg12rcd13ifvqf70","pricing_plan_id":"cebpf4jnsgd1na2vs0mg"},{"bike_id":"64dc3df7-5393-4f51-8d74-30b62d65eb1d","system_id":"levelo_inurba_marseille","lat":43.29968,"lon":5.38496,"is_reserved":false,"is_disabled":false,"rental_uris":{"android":"levelo://app?vid=64dc3df7-5393-4f51-8d74-30b62d65eb1d","ios":"levelo://app?vid=64dc3df7-5393-4f51-8d74-30b62d65eb1d"},"vehicle_type_id":"4","last_reported":1732792108,"current_range_meters":28400,"station_id":"ce4bgj92rcd13ifvqbd0","pricing_plan_id":"cebpf4jnsgd1na2vs0mg"},{"bike_id":"0c3f0065-2629-4882-a0cc-4fb91969615e","system_id":"levelo_inurba_marseille","lat":43.25491,"lon":5.37653,"is_reserved":false,"is_disabled":false,"rental_uris":{"android":"levelo://app?vid=0c3f0065-2629-4882-a0cc-4fb91969615e","ios":"levelo://app?vid=0c3f0065-2629-4882-a0cc-4fb91969615e"},"vehicle_type_id":"4","last_reported":1732792108,"current_range_meters":23200,"station_id":"ce4bhh12rcd13ifvqff0","pricing_plan_id":"cebpf4jnsgd1na2vs0mg"},{"bike_id":"fa3cc2c8-e552-4d78-8b53-b0029dd3141b","system_id":"levelo_inurba_marseille","lat":43.27205,"lon":5.39172,"is_reserved":false,"is_disabled":true,"rental_uris":{"android":"levelo://app?vid=fa3cc2c8-e552-4d78-8b53-b0029dd3141b","ios":"levelo://app?vid=fa3cc2c8-e552-4d78-8b53-b0029dd3141b"},"vehicle_type_id":"4","last_reported":1732792108,"current_range_meters":0,"station_id":"ce4bhhp2rcd13ifvqfm0","pricing_plan_id":"cebpf4jnsgd1na2vs0mg"},{"bike_id":"1796fd38-1595-4063-b03c-450037c66bf0","system_id":"levelo_inurba_marseille","lat":43.307495,"lon":5.373777,"is_reserved":false,"is_disabled":false,"rental_uris":{"android":"levelo://app?vid=1796fd38-1595-4063-b03c-450037c66bf0","ios":"levelo://app?vid=1796fd38-1595-4063-b03c-450037c66bf0"},"vehicle_type_id":"4","last_reported":1732792108,"current_range_meters":22800,"station_id":"ce4bgt92rcd13ifvqcf0","pricing_plan_id":"cebpf4jnsgd1na2vs0mg"},{"bike_id":"a8b4f1f4-cdee-4357-9110-d09729393d15","system_id":"levelo_inurba_marseille","lat":43.29585,"lon":5.37529,"is_reserved":false,"is_disabled":false,"rental_uris":{"android":"levelo://app?vid=a8b4f1f4-cdee-4357-9110-d09729393d15","ios":"levelo://app?vid=a8b4f1f4-cdee-4357-9110-d09729393d15"},"vehicle_type_id":"4","last_reported":1732792108,"current_range_meters":11600,"station_id":"ce4bgh92rcd13ifvqb50","pricing_plan_id":"cebpf4jnsgd1na2vs0mg"},{"bike_id":"3cd72365-5cdf-42ef-a58d-a298a6ccfeba","system_id":"levelo_inurba_marseille","lat":43.28569,"lon":5.39496,"is_reserved":false,"is_disabled":false,"rental_uris":{"android":"levelo://app?vid=3cd72365-5cdf-42ef-a58d-a298a6ccfeba","ios":"levelo://app?vid=3cd72365-5cdf-42ef-a58d-a298a6ccfeba"},"vehicle_type_id":"4","last_reported":1732792108,"current_range_meters":38400,"station_id":"ce4bh292rcd13ifvqdg0","pricing_plan_id":"cebpf4jnsgd1na2vs0mg"},{"bike_id":"fab79947-e52f-48a0-9e1b-09c103b132db","system_id":"levelo_inurba_marseille","lat":43.25495,"lon":5.3766,"is_reserved":false,"is_disabled":false,"rental_uris":{"android":"levelo://app?vid=fab79947-e52f-48a0-9e1b-09c103b132db","ios":"levelo://app?vid=fab79947-e52f-48a0-9e1b-09c103b132db"},"vehicle_type_id":"4","last_reported":1732792108,"current_range_meters":30400,"station_id":"ce4bhh12rcd13ifvqff0","pricing_plan_id":"cebpf4jnsgd1na2vs0mg"},{"bike_id":"1cd78e3c-eca2-430e-a00b-3450b52eb373","system_id":"levelo_inurba_marseille","lat":43.22931,"lon":5.35377,"is_reserved":false,"is_disabled":false,"rental_uris":{"android":"levelo://app?vid=1cd78e3c-eca2-430e-a00b-3450b52eb373","ios":"levelo://app?vid=1cd78e3c-eca2-430e-a00b-3450b52eb373"},"vehicle_type_id":"4","last_reported":1732792108,"current_range_meters":33200,"station_id":"cpo3532slgdg3j2ikp40","pricing_plan_id":"cebpf4jnsgd1na2vs0mg"},{"bike_id":"e8a8f6ce-56ed-4695-a217-49bcb5a1326f","system_id":"levelo_inurba_marseille","lat":43.31224,"lon":5.36863,"is_reserved":false,"is_disabled":false,"rental_uris":{"android":"levelo://app?vid=e8a8f6ce-56ed-4695-a217-49bcb5a1326f","ios":"levelo://app?vid=e8a8f6ce-56ed-4695-a217-49bcb5a1326f"},"vehicle_type_id":"4","last_reported":1732792108,"current_range_meters":38800,"station_id":"ce4bgl92rcd13ifvqbq0","pricing_plan_id":"cebpf4jnsgd1na2vs0mg"},{"bike_id":"c84e813f-00fb-4f38-96a1-af4553320909","system_id":"levelo_inurba_marseille","lat":43.28497,"lon":5.38414,"is_reserved":false,"is_disabled":false,"rental_uris":{"android":"levelo://app?vid=c84e813f-00fb-4f38-96a1-af4553320909","ios":"levelo://app?vid=c84e813f-00fb-4f38-96a1-af4553320909"},"vehicle_type_id":"4","last_reported":1732792108,"current_range_meters":36000,"station_id":"ce4bh512rcd13ifvqe3g","pricing_plan_id":"cebpf4jnsgd1na2vs0mg"},{"bike_id":"8781107a-bca3-4fb5-8e13-c1a0e84595bc","system_id":"levelo_inurba_marseille","lat":43.27071,"lon":5.42269,"is_reserved":false,"is_disabled":false,"rental_uris":{"android":"levelo://app?vid=8781107a-bca3-4fb5-8e13-c1a0e84595bc","ios":"levelo://app?vid=8781107a-bca3-4fb5-8e13-c1a0e84595bc"},"vehicle_type_id":"4","last_reported":1732792108,"current_range_meters":8400,"station_id":"ce4bhk92rcd13ifvqgb0","pricing_plan_id":"cebpf4jnsgd1na2vs0mg"},{"bike_id":"5644bf9f-9934-463c-8e02-a6b31cb09331","system_id":"levelo_inurba_marseille","lat":43.29714,"lon":5.37707,"is_reserved":false,"is_disabled":false,"rental_uris":{"android":"levelo://app?vid=5644bf9f-9934-463c-8e02-a6b31cb09331","ios":"levelo://app?vid=5644bf9f-9934-463c-8e02-a6b31cb09331"},"vehicle_type_id":"4","last_reported":1732792108,"current_range_meters":16400,"station_id":"ce4bgkh2rcd13ifvqbl0","pricing_plan_id":"cebpf4jnsgd1na2vs0mg"},{"bike_id":"1a7a1372-149c-42be-bb59-fd67dec54e71","system_id":"levelo_inurba_marseille","lat":43.25822,"lon":5.39431,"is_reserved":false,"is_disabled":false,"rental_uris":{"android":"levelo://app?vid=1a7a1372-149c-42be-bb59-fd67dec54e71","ios":"levelo://app?vid=1a7a1372-149c-42be-bb59-fd67dec54e71"},"vehicle_type_id":"4","last_reported":1732792108,"current_range_meters":28000,"station_id":"ce4bhip2rcd13ifvqft0","pricing_plan_id":"cebpf4jnsgd1na2vs0mg"},{"bike_id":"fa8a9680-c70c-422f-8033-c66e027a8587","system_id":"levelo_inurba_marseille","lat":43.30464,"lon":5.37903,"is_reserved":false,"is_disabled":true,"rental_uris":{"android":"levelo://app?vid=fa8a9680-c70c-422f-8033-c66e027a8587","ios":"levelo://app?vid=fa8a9680-c70c-422f-8033-c66e027a8587"},"vehicle_type_id":"4","last_reported":1732792108,"current_range_meters":36800,"station_id":"ce4bgup2rcd13ifvqcn0","pricing_plan_id":"cebpf4jnsgd1na2vs0mg"},{"bike_id":"08b51c95-4e77-4807-a865-5ecf5be3e8c8","system_id":"levelo_inurba_marseille","lat":43.27806,"lon":5.40707,"is_reserved":false,"is_disabled":false,"rental_uris":{"android":"levelo://app?vid=08b51c95-4e77-4807-a865-5ecf5be3e8c8","ios":"levelo://app?vid=08b51c95-4e77-4807-a865-5ecf5be3e8c8"},"vehicle_type_id":"4","last_reported":1732792108,"current_range_meters":30400,"station_id":"ce4bhnh2rcd13ifvqgtg","pricing_plan_id":"cebpf4jnsgd1na2vs0mg"},{"bike_id":"3dd27f14-51ec-4d1e-8d64-1ea7632555f3","system_id":"levelo_inurba_marseille","lat":43.32108,"lon":5.36772,"is_reserved":false,"is_disabled":false,"rental_uris":{"android":"levelo://app?vid=3dd27f14-51ec-4d1e-8d64-1ea7632555f3","ios":"levelo://app?vid=3dd27f14-51ec-4d1e-8d64-1ea7632555f3"},"vehicle_type_id":"4","last_reported":1732792108,"current_range_meters":36400,"station_id":"ce4bhrh2rcd13ifvqhug","pricing_plan_id":"cebpf4jnsgd1na2vs0mg"},{"bike_id":"ef7faf07-a670-4e15-b564-bded5c7ce834","system_id":"levelo_inurba_marseille","lat":43.32354,"lon":5.36752,"is_reserved":false,"is_disabled":false,"rental_uris":{"android":"levelo://app?vid=ef7faf07-a670-4e15-b564-bded5c7ce834","ios":"levelo://app?vid=ef7faf07-a670-4e15-b564-bded5c7ce834"},"vehicle_type_id":"4","last_reported":1732792108,"current_range_meters":37600,"station_id":"ce4bhsh2rcd13ifvqi2g","pricing_plan_id":"cebpf4jnsgd1na2vs0mg"},{"bike_id":"ffe6d5b2-deed-4a6c-ab21-096950ec3bde","system_id":"levelo_inurba_marseille","lat":43.28478,"lon":5.38554,"is_reserved":false,"is_disabled":true,"rental_uris":{"android":"levelo://app?vid=ffe6d5b2-deed-4a6c-ab21-096950ec3bde","ios":"levelo://app?vid=ffe6d5b2-deed-4a6c-ab21-096950ec3bde"},"vehicle_type_id":"4","last_reported":1732792108,"current_range_meters":36800,"station_id":"ce4bh8p2rcd13ifvqeb0","pricing_plan_id":"cebpf4jnsgd1na2vs0mg"},{"bike_id":"7acf64e6-102c-4b24-bfca-4cd2f2ab9f83","system_id":"levelo_inurba_marseille","lat":43.3054,"lon":5.36534,"is_reserved":false,"is_disabled":false,"rental_uris":{"android":"levelo://app?vid=7acf64e6-102c-4b24-bfca-4cd2f2ab9f83","ios":"levelo://app?vid=7acf64e6-102c-4b24-bfca-4cd2f2ab9f83"},"vehicle_type_id":"4","last_reported":1732792108,"current_range_meters":38800,"station_id":"","pricing_plan_id":"cebpf4jnsgd1na2vs0mg"},{"bike_id":"2e95a691-d7d8-426b-8dba-47b6b56c6a41","system_id":"levelo_inurba_marseille","lat":43.28151,"lon":5.42641,"is_reserved":false,"is_disabled":false,"rental_uris":{"android":"levelo://app?vid=2e95a691-d7d8-426b-8dba-47b6b56c6a41","ios":"levelo://app?vid=2e95a691-d7d8-426b-8dba-47b6b56c6a41"},"vehicle_type_id":"4","last_reported":1732792108,"current_range_meters":2000,"station_id":"ce4bhnh2rcd13ifvqgug","pricing_plan_id":"cebpf4jnsgd1na2vs0mg"},{"bike_id":"aa262170-281b-4556-817d-784dc19f9c9b","system_id":"levelo_inurba_marseille","lat":43.32463,"lon":5.36576,"is_reserved":false,"is_disabled":false,"rental_uris":{"android":"levelo://app?vid=aa262170-281b-4556-817d-784dc19f9c9b","ios":"levelo://app?vid=aa262170-281b-4556-817d-784dc19f9c9b"},"vehicle_type_id":"4","last_reported":1732792108,"current_range_meters":38800,"station_id":"ce4bhs12rcd13ifvqhvg","pricing_plan_id":"cebpf4jnsgd1na2vs0mg"},{"bike_id":"1ea927a8-6f8d-4261-ade9-d38f804277b8","system_id":"levelo_inurba_marseille","lat":43.29573,"lon":5.3998,"is_reserved":false,"is_disabled":false,"rental_uris":{"android":"levelo://app?vid=1ea927a8-6f8d-4261-ade9-d38f804277b8","ios":"levelo://app?vid=1ea927a8-6f8d-4261-ade9-d38f804277b8"},"vehicle_type_id":"4","last_reported":1732792108,"current_range_meters":24400,"station_id":"ce4bh312rcd13ifvqdj0","pricing_plan_id":"cebpf4jnsgd1na2vs0mg"},{"bike_id":"07f90926-1d24-4f0a-a41f-e2e2032964cf","system_id":"levelo_inurba_marseille","lat":43.27812,"lon":5.4071,"is_reserved":false,"is_disabled":false,"rental_uris":{"android":"levelo://app?vid=07f90926-1d24-4f0a-a41f-e2e2032964cf","ios":"levelo://app?vid=07f90926-1d24-4f0a-a41f-e2e2032964cf"},"vehicle_type_id":"4","last_reported":1732792108,"current_range_meters":22800,"station_id":"ce4bhnh2rcd13ifvqgtg","pricing_plan_id":"cebpf4jnsgd1na2vs0mg"},{"bike_id":"4a9daa61-99a2-4432-9d9e-9e34b708865a","system_id":"levelo_inurba_marseille","lat":43.28998,"lon":5.35614,"is_reserved":false,"is_disabled":false,"rental_uris":{"android":"levelo://app?vid=4a9daa61-99a2-4432-9d9e-9e34b708865a","ios":"levelo://app?vid=4a9daa61-99a2-4432-9d9e-9e34b708865a"},"vehicle_type_id":"4","last_reported":1732792108,"current_range_meters":32400,"station_id":"ce4bhb92rcd13ifvqen0","pricing_plan_id":"cebpf4jnsgd1na2vs0mg"},{"bike_id":"e51b2acb-d883-446b-9ce9-347608453ece","system_id":"levelo_inurba_marseille","lat":43.22928,"lon":5.35375,"is_reserved":false,"is_disabled":false,"rental_uris":{"android":"levelo://app?vid=e51b2acb-d883-446b-9ce9-347608453ece","ios":"levelo://app?vid=e51b2acb-d883-446b-9ce9-347608453ece"},"vehicle_type_id":"4","last_reported":1732792108,"current_range_meters":32400,"station_id":"cpo3532slgdg3j2ikp40","pricing_plan_id":"cebpf4jnsgd1na2vs0mg"},{"bike_id":"4a5647dd-7d07-447c-8ab3-700a1f99ece0","system_id":"levelo_inurba_marseille","lat":43.25193,"lon":5.40281,"is_reserved":false,"is_disabled":false,"rental_uris":{"android":"levelo://app?vid=4a5647dd-7d07-447c-8ab3-700a1f99ece0","ios":"levelo://app?vid=4a5647dd-7d07-447c-8ab3-700a1f99ece0"},"vehicle_type_id":"4","last_reported":1732792108,"current_range_meters":22800,"station_id":"ce4bhlh2rcd13ifvqgig","pricing_plan_id":"cebpf4jnsgd1na2vs0mg"},{"bike_id":"54d92e45-0c73-4cef-bfa3-0fc84870e3ef","system_id":"levelo_inurba_marseille","lat":43.2595,"lon":5.4089,"is_reserved":false,"is_disabled":false,"rental_uris":{"android":"levelo://app?vid=54d92e45-0c73-4cef-bfa3-0fc84870e3ef","ios":"levelo://app?vid=54d92e45-0c73-4cef-bfa3-0fc84870e3ef"},"vehicle_type_id":"4","last_reported":1732792108,"current_range_meters":14000,"station_id":"ce4bhm92rcd13ifvqglg","pricing_plan_id":"cebpf4jnsgd1na2vs0mg"},{"bike_id":"d6eb640d-a009-44a3-8951-f77541c5af2e","system_id":"levelo_inurba_marseille","lat":43.29935,"lon":5.36535,"is_reserved":false,"is_disabled":false,"rental_uris":{"android":"levelo://app?vid=d6eb640d-a009-44a3-8951-f77541c5af2e","ios":"levelo://app?vid=d6eb640d-a009-44a3-8951-f77541c5af2e"},"vehicle_type_id":"4","last_reported":1732792108,"current_range_meters":9600,"station_id":"ce4bgm92rcd13ifvqbr0","pricing_plan_id":"cebpf4jnsgd1na2vs0mg"},{"bike_id":"f5f4e3ff-5939-4058-95e9-0ce7505e213c","system_id":"levelo_inurba_marseille","lat":43.32478,"lon":5.36566,"is_reserved":false,"is_disabled":false,"rental_uris":{"android":"levelo://app?vid=f5f4e3ff-5939-4058-95e9-0ce7505e213c","ios":"levelo://app?vid=f5f4e3ff-5939-4058-95e9-0ce7505e213c"},"vehicle_type_id":"4","last_reported":1732792108,"current_range_meters":14000,"station_id":"ce4bhs12rcd13ifvqhvg","pricing_plan_id":"cebpf4jnsgd1na2vs0mg"},{"bike_id":"6a4001d6-d444-4013-81f0-795a143d0522","system_id":"levelo_inurba_marseille","lat":43.30137,"lon":5.38775,"is_reserved":false,"is_disabled":true,"rental_uris":{"android":"levelo://app?vid=6a4001d6-d444-4013-81f0-795a143d0522","ios":"levelo://app?vid=6a4001d6-d444-4013-81f0-795a143d0522"},"vehicle_type_id":"4","last_reported":1732792108,"current_range_meters":28400,"station_id":"ce4bghh2rcd13ifvqb60","pricing_plan_id":"cebpf4jnsgd1na2vs0mg"},{"bike_id":"77852efd-269f-4905-ba17-c7ed5be1f9f0","system_id":"levelo_inurba_marseille","lat":43.29,"lon":5.35617,"is_reserved":false,"is_disabled":false,"rental_uris":{"android":"levelo://app?vid=77852efd-269f-4905-ba17-c7ed5be1f9f0","ios":"levelo://app?vid=77852efd-269f-4905-ba17-c7ed5be1f9f0"},"vehicle_type_id":"4","last_reported":1732792108,"current_range_meters":14800,"station_id":"ce4bhb92rcd13ifvqen0","pricing_plan_id":"cebpf4jnsgd1na2vs0mg"},{"bike_id":"36c2e099-818d-4574-9908-042aa295646a","system_id":"levelo_inurba_marseille","lat":43.25941,"lon":5.409,"is_reserved":false,"is_disabled":true,"rental_uris":{"android":"levelo://app?vid=36c2e099-818d-4574-9908-042aa295646a","ios":"levelo://app?vid=36c2e099-818d-4574-9908-042aa295646a"},"vehicle_type_id":"4","last_reported":1732792108,"current_range_meters":38800,"station_id":"ce4bhm92rcd13ifvqglg","pricing_plan_id":"cebpf4jnsgd1na2vs0mg"},{"bike_id":"f7f3756c-1ec7-4782-9c87-6273f87b6774","system_id":"levelo_inurba_marseille","lat":43.337444,"lon":5.374475,"is_reserved":false,"is_disabled":true,"rental_uris":{"android":"levelo://app?vid=f7f3756c-1ec7-4782-9c87-6273f87b6774","ios":"levelo://app?vid=f7f3756c-1ec7-4782-9c87-6273f87b6774"},"vehicle_type_id":"4","last_reported":1732792108,"current_range_meters":10800,"station_id":"","pricing_plan_id":"cebpf4jnsgd1na2vs0mg"},{"bike_id":"44692518-f307-4d34-bde3-20456f8e1767","system_id":"levelo_inurba_marseille","lat":43.27428,"lon":5.39061,"is_reserved":false,"is_disabled":false,"rental_uris":{"android":"levelo://app?vid=44692518-f307-4d34-bde3-20456f8e1767","ios":"levelo://app?vid=44692518-f307-4d34-bde3-20456f8e1767"},"vehicle_type_id":"4","last_reported":1732792108,"current_range_meters":30000,"station_id":"","pricing_plan_id":"cebpf4jnsgd1na2vs0mg"},{"bike_id":"86b3eb09-0bce-4f11-936c-9d67af3242bd","system_id":"levelo_inurba_marseille","lat":43.2455,"lon":5.3953,"is_reserved":false,"is_disabled":false,"rental_uris":{"android":"levelo://app?vid=86b3eb09-0bce-4f11-936c-9d67af3242bd","ios":"levelo://app?vid=86b3eb09-0bce-4f11-936c-9d67af3242bd"},"vehicle_type_id":"4","last_reported":1732792108,"current_range_meters":37600,"station_id":"ce4bhlp2rcd13ifvqgjg","pricing_plan_id":"cebpf4jnsgd1na2vs0mg"},{"bike_id":"d6ba942f-ca0b-440f-9f45-547d7b3093c0","system_id":"levelo_inurba_marseille","lat":43.31991,"lon":5.38153,"is_reserved":false,"is_disabled":false,"rental_uris":{"android":"levelo://app?vid=d6ba942f-ca0b-440f-9f45-547d7b3093c0","ios":"levelo://app?vid=d6ba942f-ca0b-440f-9f45-547d7b3093c0"},"vehicle_type_id":"4","last_reported":1732792108,"current_range_meters":39200,"station_id":"ce4bhr12rcd13ifvqhpg","pricing_plan_id":"cebpf4jnsgd1na2vs0mg"},{"bike_id":"14a07e9f-d93e-40cc-8d97-dbe081911bb1","system_id":"levelo_inurba_marseille","lat":43.28269,"lon":5.35061,"is_reserved":false,"is_disabled":false,"rental_uris":{"android":"levelo://app?vid=14a07e9f-d93e-40cc-8d97-dbe081911bb1","ios":"levelo://app?vid=14a07e9f-d93e-40cc-8d97-dbe081911bb1"},"vehicle_type_id":"4","last_reported":1732792108,"current_range_meters":28400,"station_id":"ce4bhbp2rcd13ifvqerg","pricing_plan_id":"cebpf4jnsgd1na2vs0mg"},{"bike_id":"c2fa67ab-c54a-4f53-9403-06dbb317af48","system_id":"levelo_inurba_marseille","lat":43.337444,"lon":5.374475,"is_reserved":false,"is_disabled":false,"rental_uris":{"android":"levelo://app?vid=c2fa67ab-c54a-4f53-9403-06dbb317af48","ios":"levelo://app?vid=c2fa67ab-c54a-4f53-9403-06dbb317af48"},"vehicle_type_id":"4","last_reported":1732792108,"current_range_meters":20000,"station_id":"ce4bhh12rcd13ifvqff0","pricing_plan_id":"cebpf4jnsgd1na2vs0mg"},{"bike_id":"1f3fce59-8a74-44f2-b989-7ad8feb15f1a","system_id":"levelo_inurba_marseille","lat":43.25495,"lon":5.37655,"is_reserved":false,"is_disabled":false,"rental_uris":{"android":"levelo://app?vid=1f3fce59-8a74-44f2-b989-7ad8feb15f1a","ios":"levelo://app?vid=1f3fce59-8a74-44f2-b989-7ad8feb15f1a"},"vehicle_type_id":"4","last_reported":1732792108,"current_range_meters":22800,"station_id":"ce4bhh12rcd13ifvqff0","pricing_plan_id":"cebpf4jnsgd1na2vs0mg"},{"bike_id":"40153f7e-e943-44f9-9a5c-c9c0bbb9caee","system_id":"levelo_inurba_marseille","lat":43.27486,"lon":5.42454,"is_reserved":false,"is_disabled":false,"rental_uris":{"android":"levelo://app?vid=40153f7e-e943-44f9-9a5c-c9c0bbb9caee","ios":"levelo://app?vid=40153f7e-e943-44f9-9a5c-c9c0bbb9caee"},"vehicle_type_id":"4","last_reported":1732792108,"current_range_meters":16800,"station_id":"ce4bhn92rcd13ifvqgrg","pricing_plan_id":"cebpf4jnsgd1na2vs0mg"},{"bike_id":"8da30d17-86c4-499e-b595-06448896a233","system_id":"levelo_inurba_marseille","lat":43.31222,"lon":5.36856,"is_reserved":false,"is_disabled":false,"rental_uris":{"android":"levelo://app?vid=8da30d17-86c4-499e-b595-06448896a233","ios":"levelo://app?vid=8da30d17-86c4-499e-b595-06448896a233"},"vehicle_type_id":"4","last_reported":1732792108,"current_range_meters":32800,"station_id":"ce4bgl92rcd13ifvqbq0","pricing_plan_id":"cebpf4jnsgd1na2vs0mg"},{"bike_id":"df744899-6467-4a2d-8132-101284d5d795","system_id":"levelo_inurba_marseille","lat":43.27833,"lon":5.39196,"is_reserved":false,"is_disabled":false,"rental_uris":{"android":"levelo://app?vid=df744899-6467-4a2d-8132-101284d5d795","ios":"levelo://app?vid=df744899-6467-4a2d-8132-101284d5d795"},"vehicle_type_id":"4","last_reported":1732792108,"current_range_meters":33200,"station_id":"ce4bhjp2rcd13ifvqga0","pricing_plan_id":"cebpf4jnsgd1na2vs0mg"},{"bike_id":"bc6040f1-df60-4d6f-99de-06d4962fb67a","system_id":"levelo_inurba_marseille","lat":43.30139,"lon":5.37427,"is_reserved":false,"is_disabled":false,"rental_uris":{"android":"levelo://app?vid=bc6040f1-df60-4d6f-99de-06d4962fb67a","ios":"levelo://app?vid=bc6040f1-df60-4d6f-99de-06d4962fb67a"},"vehicle_type_id":"4","last_reported":1732792108,"current_range_meters":15200,"station_id":"ce4bgs92rcd13ifvqcc0","pricing_plan_id":"cebpf4jnsgd1na2vs0mg"},{"bike_id":"a5909545-3e09-4859-9fda-9ffe4e6e4883","system_id":"levelo_inurba_marseille","lat":43.23067,"lon":5.35489,"is_reserved":false,"is_disabled":false,"rental_uris":{"android":"levelo://app?vid=a5909545-3e09-4859-9fda-9ffe4e6e4883","ios":"levelo://app?vid=a5909545-3e09-4859-9fda-9ffe4e6e4883"},"vehicle_type_id":"4","last_reported":1732792108,"current_range_meters":24000,"station_id":"cpo3342slgdg3j2ifvpg","pricing_plan_id":"cebpf4jnsgd1na2vs0mg"},{"bike_id":"5a9fb4e8-5925-406e-b78a-0ab368ca9aa5","system_id":"levelo_inurba_marseille","lat":43.29523,"lon":5.37506,"is_reserved":false,"is_disabled":false,"rental_uris":{"android":"levelo://app?vid=5a9fb4e8-5925-406e-b78a-0ab368ca9aa5","ios":"levelo://app?vid=5a9fb4e8-5925-406e-b78a-0ab368ca9aa5"},"vehicle_type_id":"4","last_reported":1732792108,"current_range_meters":38400,"station_id":"ce4bgkp2rcd13ifvqbmg","pricing_plan_id":"cebpf4jnsgd1na2vs0mg"},{"bike_id":"30e75930-93d9-4945-ae8f-a0ff63cf8c87","system_id":"levelo_inurba_marseille","lat":43.29573,"lon":5.37515,"is_reserved":false,"is_disabled":false,"rental_uris":{"android":"levelo://app?vid=30e75930-93d9-4945-ae8f-a0ff63cf8c87","ios":"levelo://app?vid=30e75930-93d9-4945-ae8f-a0ff63cf8c87"},"vehicle_type_id":"4","last_reported":1732792108,"current_range_meters":38800,"station_id":"ce4bgh92rcd13ifvqb50","pricing_plan_id":"cebpf4jnsgd1na2vs0mg"},{"bike_id":"636c38c7-b57f-44ef-879f-37f296bc8e0a","system_id":"levelo_inurba_marseille","lat":43.3212,"lon":5.3677,"is_reserved":false,"is_disabled":false,"rental_uris":{"android":"levelo://app?vid=636c38c7-b57f-44ef-879f-37f296bc8e0a","ios":"levelo://app?vid=636c38c7-b57f-44ef-879f-37f296bc8e0a"},"vehicle_type_id":"4","last_reported":1732792108,"current_range_meters":18800,"station_id":"ce4bhrh2rcd13ifvqhug","pricing_plan_id":"cebpf4jnsgd1na2vs0mg"},{"bike_id":"5bb8cf62-0150-4ee3-b4f2-70f8ee9dbb8a","system_id":"levelo_inurba_marseille","lat":43.26206,"lon":5.37439,"is_reserved":false,"is_disabled":false,"rental_uris":{"android":"levelo://app?vid=5bb8cf62-0150-4ee3-b4f2-70f8ee9dbb8a","ios":"levelo://app?vid=5bb8cf62-0150-4ee3-b4f2-70f8ee9dbb8a"},"vehicle_type_id":"4","last_reported":1732792108,"current_range_meters":28400,"station_id":"ce4bhgp2rcd13ifvqfc0","pricing_plan_id":"cebpf4jnsgd1na2vs0mg"},{"bike_id":"ae934905-edbe-426a-b615-778d21c28ba5","system_id":"levelo_inurba_marseille","lat":43.31342,"lon":5.36724,"is_reserved":false,"is_disabled":false,"rental_uris":{"android":"levelo://app?vid=ae934905-edbe-426a-b615-778d21c28ba5","ios":"levelo://app?vid=ae934905-edbe-426a-b615-778d21c28ba5"},"vehicle_type_id":"4","last_reported":1732792108,"current_range_meters":38800,"station_id":"ce4bgr92rcd13ifvqc6g","pricing_plan_id":"cebpf4jnsgd1na2vs0mg"},{"bike_id":"e5951ee3-4a5a-4ebb-b469-096c5188dfa3","system_id":"levelo_inurba_marseille","lat":43.23186,"lon":5.35552,"is_reserved":false,"is_disabled":false,"rental_uris":{"android":"levelo://app?vid=e5951ee3-4a5a-4ebb-b469-096c5188dfa3","ios":"levelo://app?vid=e5951ee3-4a5a-4ebb-b469-096c5188dfa3"},"vehicle_type_id":"4","last_reported":1732792108,"current_range_meters":28000,"station_id":"ce4bhu92rcd13ifvqi70","pricing_plan_id":"cebpf4jnsgd1na2vs0mg"},{"bike_id":"a1f77444-ef16-4ca0-b202-de4073cedd35","system_id":"levelo_inurba_marseille","lat":43.3046,"lon":5.37897,"is_reserved":false,"is_disabled":false,"rental_uris":{"android":"levelo://app?vid=a1f77444-ef16-4ca0-b202-de4073cedd35","ios":"levelo://app?vid=a1f77444-ef16-4ca0-b202-de4073cedd35"},"vehicle_type_id":"4","last_reported":1732792108,"current_range_meters":8400,"station_id":"ce4bgup2rcd13ifvqcn0","pricing_plan_id":"cebpf4jnsgd1na2vs0mg"},{"bike_id":"551079ac-62f6-4029-9579-63ffc464325f","system_id":"levelo_inurba_marseille","lat":43.23225,"lon":5.35543,"is_reserved":false,"is_disabled":false,"rental_uris":{"android":"levelo://app?vid=551079ac-62f6-4029-9579-63ffc464325f","ios":"levelo://app?vid=551079ac-62f6-4029-9579-63ffc464325f"},"vehicle_type_id":"4","last_reported":1732792108,"current_range_meters":38800,"station_id":"ce4bhu92rcd13ifvqi70","pricing_plan_id":"cebpf4jnsgd1na2vs0mg"},{"bike_id":"cbe0d9ab-f4b9-49c0-9298-050cb9cbc18d","system_id":"levelo_inurba_marseille","lat":43.24074,"lon":5.37744,"is_reserved":false,"is_disabled":false,"rental_uris":{"android":"levelo://app?vid=cbe0d9ab-f4b9-49c0-9298-050cb9cbc18d","ios":"levelo://app?vid=cbe0d9ab-f4b9-49c0-9298-050cb9cbc18d"},"vehicle_type_id":"4","last_reported":1732792108,"current_range_meters":19200,"station_id":"ce4bhnp2rcd13ifvqgvg","pricing_plan_id":"cebpf4jnsgd1na2vs0mg"},{"bike_id":"6c948e9c-d5b3-4fe5-a918-1bd2f7c83b02","system_id":"levelo_inurba_marseille","lat":43.32106,"lon":5.3678,"is_reserved":false,"is_disabled":false,"rental_uris":{"android":"levelo://app?vid=6c948e9c-d5b3-4fe5-a918-1bd2f7c83b02","ios":"levelo://app?vid=6c948e9c-d5b3-4fe5-a918-1bd2f7c83b02"},"vehicle_type_id":"4","last_reported":1732792108,"current_range_meters":8800,"station_id":"ce4bhrh2rcd13ifvqhug","pricing_plan_id":"cebpf4jnsgd1na2vs0mg"},{"bike_id":"81d5315b-ecf8-4a90-acd8-dcf42a7aa5bc","system_id":"levelo_inurba_marseille","lat":43.2749,"lon":5.42456,"is_reserved":false,"is_disabled":true,"rental_uris":{"android":"levelo://app?vid=81d5315b-ecf8-4a90-acd8-dcf42a7aa5bc","ios":"levelo://app?vid=81d5315b-ecf8-4a90-acd8-dcf42a7aa5bc"},"vehicle_type_id":"4","last_reported":1732792108,"current_range_meters":0,"station_id":"ce4bhn92rcd13ifvqgrg","pricing_plan_id":"cebpf4jnsgd1na2vs0mg"},{"bike_id":"4fadface-1536-4d4a-ba8b-fa07eea2d686","system_id":"levelo_inurba_marseille","lat":43.27934,"lon":5.41043,"is_reserved":false,"is_disabled":false,"rental_uris":{"android":"levelo://app?vid=4fadface-1536-4d4a-ba8b-fa07eea2d686","ios":"levelo://app?vid=4fadface-1536-4d4a-ba8b-fa07eea2d686"},"vehicle_type_id":"4","last_reported":1732792108,"current_range_meters":32800,"station_id":"ce4bhnp2rcd13ifvqh0g","pricing_plan_id":"cebpf4jnsgd1na2vs0mg"},{"bike_id":"d62cca3a-d7c7-4fe7-84f1-2d0237b15498","system_id":"levelo_inurba_marseille","lat":43.33754,"lon":5.37435,"is_reserved":false,"is_disabled":false,"rental_uris":{"android":"levelo://app?vid=d62cca3a-d7c7-4fe7-84f1-2d0237b15498","ios":"levelo://app?vid=d62cca3a-d7c7-4fe7-84f1-2d0237b15498"},"vehicle_type_id":"4","last_reported":1732792108,"current_range_meters":35200,"station_id":"","pricing_plan_id":"cebpf4jnsgd1na2vs0mg"},{"bike_id":"22b3929f-f9eb-4ea9-862c-2301fb498736","system_id":"levelo_inurba_marseille","lat":43.24805,"lon":5.37454,"is_reserved":false,"is_disabled":false,"rental_uris":{"android":"levelo://app?vid=22b3929f-f9eb-4ea9-862c-2301fb498736","ios":"levelo://app?vid=22b3929f-f9eb-4ea9-862c-2301fb498736"},"vehicle_type_id":"4","last_reported":1732792108,"current_range_meters":38800,"station_id":"ce4bhgh2rcd13ifvqfb0","pricing_plan_id":"cebpf4jnsgd1na2vs0mg"},{"bike_id":"45ba5f73-ec93-4f07-a828-0cb625a1ae35","system_id":"levelo_inurba_marseille","lat":43.27067,"lon":5.42273,"is_reserved":false,"is_disabled":true,"rental_uris":{"android":"levelo://app?vid=45ba5f73-ec93-4f07-a828-0cb625a1ae35","ios":"levelo://app?vid=45ba5f73-ec93-4f07-a828-0cb625a1ae35"},"vehicle_type_id":"4","last_reported":1732792108,"current_range_meters":3200,"station_id":"ce4bhk92rcd13ifvqgb0","pricing_plan_id":"cebpf4jnsgd1na2vs0mg"},{"bike_id":"a266235d-36a2-424d-b11a-6faa3aaa9904","system_id":"levelo_inurba_marseille","lat":43.25938,"lon":5.40905,"is_reserved":false,"is_disabled":false,"rental_uris":{"android":"levelo://app?vid=a266235d-36a2-424d-b11a-6faa3aaa9904","ios":"levelo://app?vid=a266235d-36a2-424d-b11a-6faa3aaa9904"},"vehicle_type_id":"4","last_reported":1732792108,"current_range_meters":8400,"station_id":"ce4bhm92rcd13ifvqglg","pricing_plan_id":"cebpf4jnsgd1na2vs0mg"},{"bike_id":"3cadd369-1736-4a17-aec0-717db3df6c0f","system_id":"levelo_inurba_marseille","lat":43.26554,"lon":5.37284,"is_reserved":false,"is_disabled":true,"rental_uris":{"android":"levelo://app?vid=3cadd369-1736-4a17-aec0-717db3df6c0f","ios":"levelo://app?vid=3cadd369-1736-4a17-aec0-717db3df6c0f"},"vehicle_type_id":"4","last_reported":1732792108,"current_range_meters":0,"station_id":"ce4bhg12rcd13ifvqf70","pricing_plan_id":"cebpf4jnsgd1na2vs0mg"},{"bike_id":"bfa7c1a2-f54e-402a-a2db-4de6455ffddf","system_id":"levelo_inurba_marseille","lat":43.32471,"lon":5.36568,"is_reserved":false,"is_disabled":false,"rental_uris":{"android":"levelo://app?vid=bfa7c1a2-f54e-402a-a2db-4de6455ffddf","ios":"levelo://app?vid=bfa7c1a2-f54e-402a-a2db-4de6455ffddf"},"vehicle_type_id":"4","last_reported":1732792108,"current_range_meters":8800,"station_id":"ce4bhs12rcd13ifvqhvg","pricing_plan_id":"cebpf4jnsgd1na2vs0mg"},{"bike_id":"e14587dc-7f13-44f8-abd4-ea0dfa860ab0","system_id":"levelo_inurba_marseille","lat":43.32475,"lon":5.36565,"is_reserved":false,"is_disabled":true,"rental_uris":{"android":"levelo://app?vid=e14587dc-7f13-44f8-abd4-ea0dfa860ab0","ios":"levelo://app?vid=e14587dc-7f13-44f8-abd4-ea0dfa860ab0"},"vehicle_type_id":"4","last_reported":1732792108,"current_range_meters":1200,"station_id":"ce4bhs12rcd13ifvqhvg","pricing_plan_id":"cebpf4jnsgd1na2vs0mg"},{"bike_id":"3e27baf8-2d95-4329-8c8c-892d5596181c","system_id":"levelo_inurba_marseille","lat":43.30209,"lon":5.39463,"is_reserved":false,"is_disabled":false,"rental_uris":{"android":"levelo://app?vid=3e27baf8-2d95-4329-8c8c-892d5596181c","ios":"levelo://app?vid=3e27baf8-2d95-4329-8c8c-892d5596181c"},"vehicle_type_id":"4","last_reported":1732792108,"current_range_meters":36000,"station_id":"ce4bh0p2rcd13ifvqd70","pricing_plan_id":"cebpf4jnsgd1na2vs0mg"},{"bike_id":"9b767232-5c2b-49ff-b0f6-3592aae87a3d","system_id":"levelo_inurba_marseille","lat":43.23155,"lon":5.43706,"is_reserved":false,"is_disabled":false,"rental_uris":{"android":"levelo://app?vid=9b767232-5c2b-49ff-b0f6-3592aae87a3d","ios":"levelo://app?vid=9b767232-5c2b-49ff-b0f6-3592aae87a3d"},"vehicle_type_id":"4","last_reported":1732792108,"current_range_meters":9600,"station_id":"ce4bhmp2rcd13ifvqgog","pricing_plan_id":"cebpf4jnsgd1na2vs0mg"},{"bike_id":"dc87c326-700a-4406-b562-6e0a2f16a630","system_id":"levelo_inurba_marseille","lat":43.29831,"lon":5.36261,"is_reserved":false,"is_disabled":false,"rental_uris":{"android":"levelo://app?vid=dc87c326-700a-4406-b562-6e0a2f16a630","ios":"levelo://app?vid=dc87c326-700a-4406-b562-6e0a2f16a630"},"vehicle_type_id":"4","last_reported":1732792108,"current_range_meters":30400,"station_id":"ce4bgpp2rcd13ifvqc3g","pricing_plan_id":"cebpf4jnsgd1na2vs0mg"},{"bike_id":"2ab5c70e-8ed6-49e2-9f82-1257fc4ac461","system_id":"levelo_inurba_marseille","lat":43.303,"lon":5.36887,"is_reserved":false,"is_disabled":false,"rental_uris":{"android":"levelo://app?vid=2ab5c70e-8ed6-49e2-9f82-1257fc4ac461","ios":"levelo://app?vid=2ab5c70e-8ed6-49e2-9f82-1257fc4ac461"},"vehicle_type_id":"4","last_reported":1732792108,"current_range_meters":4000,"station_id":"ce4bgqh2rcd13ifvqc5g","pricing_plan_id":"cebpf4jnsgd1na2vs0mg"},{"bike_id":"60f23062-e767-482f-8b25-2ef722ca2fc5","system_id":"levelo_inurba_marseille","lat":43.34135,"lon":5.40906,"is_reserved":false,"is_disabled":true,"rental_uris":{"android":"levelo://app?vid=60f23062-e767-482f-8b25-2ef722ca2fc5","ios":"levelo://app?vid=60f23062-e767-482f-8b25-2ef722ca2fc5"},"vehicle_type_id":"4","last_reported":1732792108,"current_range_meters":2800,"station_id":"ce4bhqh2rcd13ifvqhlg","pricing_plan_id":"cebpf4jnsgd1na2vs0mg"},{"bike_id":"43746d86-8a13-4845-9faf-ae69b548d714","system_id":"levelo_inurba_marseille","lat":43.29459,"lon":5.37917,"is_reserved":false,"is_disabled":true,"rental_uris":{"android":"levelo://app?vid=43746d86-8a13-4845-9faf-ae69b548d714","ios":"levelo://app?vid=43746d86-8a13-4845-9faf-ae69b548d714"},"vehicle_type_id":"4","last_reported":1732792108,"current_range_meters":0,"station_id":"","pricing_plan_id":"cebpf4jnsgd1na2vs0mg"},{"bike_id":"cea419d5-9bbc-44b0-87d2-ea55fd4752be","system_id":"levelo_inurba_marseille","lat":43.23151,"lon":5.437,"is_reserved":false,"is_disabled":true,"rental_uris":{"android":"levelo://app?vid=cea419d5-9bbc-44b0-87d2-ea55fd4752be","ios":"levelo://app?vid=cea419d5-9bbc-44b0-87d2-ea55fd4752be"},"vehicle_type_id":"4","last_reported":1732792108,"current_range_meters":0,"station_id":"ce4bhmp2rcd13ifvqgog","pricing_plan_id":"cebpf4jnsgd1na2vs0mg"},{"bike_id":"b7c66e26-d673-4000-904f-e33fbf12cadf","system_id":"levelo_inurba_marseille","lat":43.26201,"lon":5.37926,"is_reserved":false,"is_disabled":false,"rental_uris":{"android":"levelo://app?vid=b7c66e26-d673-4000-904f-e33fbf12cadf","ios":"levelo://app?vid=b7c66e26-d673-4000-904f-e33fbf12cadf"},"vehicle_type_id":"4","last_reported":1732792108,"current_range_meters":14400,"station_id":"ce4bhjp2rcd13ifvqg90","pricing_plan_id":"cebpf4jnsgd1na2vs0mg"},{"bike_id":"493e69bc-180e-41ac-9372-c813b9214afc","system_id":"levelo_inurba_marseille","lat":43.337444,"lon":5.374475,"is_reserved":false,"is_disabled":true,"rental_uris":{"android":"levelo://app?vid=493e69bc-180e-41ac-9372-c813b9214afc","ios":"levelo://app?vid=493e69bc-180e-41ac-9372-c813b9214afc"},"vehicle_type_id":"4","last_reported":1732792108,"current_range_meters":34000,"station_id":"","pricing_plan_id":"cebpf4jnsgd1na2vs0mg"},{"bike_id":"df76b7bf-b879-4e94-9796-439ee296ef0a","system_id":"levelo_inurba_marseille","lat":43.22929,"lon":5.35377,"is_reserved":false,"is_disabled":false,"rental_uris":{"android":"levelo://app?vid=df76b7bf-b879-4e94-9796-439ee296ef0a","ios":"levelo://app?vid=df76b7bf-b879-4e94-9796-439ee296ef0a"},"vehicle_type_id":"4","last_reported":1732792108,"current_range_meters":32400,"station_id":"cpo3532slgdg3j2ikp40","pricing_plan_id":"cebpf4jnsgd1na2vs0mg"},{"bike_id":"206766ee-92c6-4c16-90ce-cc251e811fe8","system_id":"levelo_inurba_marseille","lat":43.24077,"lon":5.37757,"is_reserved":false,"is_disabled":false,"rental_uris":{"android":"levelo://app?vid=206766ee-92c6-4c16-90ce-cc251e811fe8","ios":"levelo://app?vid=206766ee-92c6-4c16-90ce-cc251e811fe8"},"vehicle_type_id":"4","last_reported":1732792108,"current_range_meters":14400,"station_id":"ce4bhnp2rcd13ifvqgvg","pricing_plan_id":"cebpf4jnsgd1na2vs0mg"},{"bike_id":"f18f9cf8-2ad6-440c-910c-6c4650cdcd26","system_id":"levelo_inurba_marseille","lat":43.27938,"lon":5.41048,"is_reserved":false,"is_disabled":false,"rental_uris":{"android":"levelo://app?vid=f18f9cf8-2ad6-440c-910c-6c4650cdcd26","ios":"levelo://app?vid=f18f9cf8-2ad6-440c-910c-6c4650cdcd26"},"vehicle_type_id":"4","last_reported":1732792108,"current_range_meters":34000,"station_id":"ce4bhnp2rcd13ifvqh0g","pricing_plan_id":"cebpf4jnsgd1na2vs0mg"},{"bike_id":"42f4e685-2b6f-45da-b7dd-73e74f8c66d0","system_id":"levelo_inurba_marseille","lat":43.25488,"lon":5.37656,"is_reserved":false,"is_disabled":false,"rental_uris":{"android":"levelo://app?vid=42f4e685-2b6f-45da-b7dd-73e74f8c66d0","ios":"levelo://app?vid=42f4e685-2b6f-45da-b7dd-73e74f8c66d0"},"vehicle_type_id":"4","last_reported":1732792108,"current_range_meters":38400,"station_id":"ce4bhh12rcd13ifvqff0","pricing_plan_id":"cebpf4jnsgd1na2vs0mg"},{"bike_id":"96f0aabf-09ee-495e-bd7c-ed1ce17fa2b8","system_id":"levelo_inurba_marseille","lat":43.2721,"lon":5.39194,"is_reserved":false,"is_disabled":false,"rental_uris":{"android":"levelo://app?vid=96f0aabf-09ee-495e-bd7c-ed1ce17fa2b8","ios":"levelo://app?vid=96f0aabf-09ee-495e-bd7c-ed1ce17fa2b8"},"vehicle_type_id":"4","last_reported":1732792108,"current_range_meters":35600,"station_id":"ce4bhhp2rcd13ifvqfm0","pricing_plan_id":"cebpf4jnsgd1na2vs0mg"},{"bike_id":"334802f9-02ac-41be-8df3-96a040cbca24","system_id":"levelo_inurba_marseille","lat":43.24077,"lon":5.37739,"is_reserved":false,"is_disabled":false,"rental_uris":{"android":"levelo://app?vid=334802f9-02ac-41be-8df3-96a040cbca24","ios":"levelo://app?vid=334802f9-02ac-41be-8df3-96a040cbca24"},"vehicle_type_id":"4","last_reported":1732792108,"current_range_meters":22800,"station_id":"ce4bhnp2rcd13ifvqgvg","pricing_plan_id":"cebpf4jnsgd1na2vs0mg"},{"bike_id":"8e4fc7bb-fccf-4550-846f-6e004dcdff9a","system_id":"levelo_inurba_marseille","lat":43.31343,"lon":5.3671,"is_reserved":false,"is_disabled":true,"rental_uris":{"android":"levelo://app?vid=8e4fc7bb-fccf-4550-846f-6e004dcdff9a","ios":"levelo://app?vid=8e4fc7bb-fccf-4550-846f-6e004dcdff9a"},"vehicle_type_id":"4","last_reported":1732792108,"current_range_meters":0,"station_id":"ce4bgr92rcd13ifvqc6g","pricing_plan_id":"cebpf4jnsgd1na2vs0mg"},{"bike_id":"c7c8eb9f-a72f-46cc-a7d7-36fb49eb8a83","system_id":"levelo_inurba_marseille","lat":43.337444,"lon":5.374475,"is_reserved":false,"is_disabled":true,"rental_uris":{"android":"levelo://app?vid=c7c8eb9f-a72f-46cc-a7d7-36fb49eb8a83","ios":"levelo://app?vid=c7c8eb9f-a72f-46cc-a7d7-36fb49eb8a83"},"vehicle_type_id":"4","last_reported":1732792108,"current_range_meters":0,"station_id":"","pricing_plan_id":"cebpf4jnsgd1na2vs0mg"},{"bike_id":"340bf529-ee40-4dd6-9e78-ea8c481ada51","system_id":"levelo_inurba_marseille","lat":43.25001,"lon":5.38924,"is_reserved":false,"is_disabled":false,"rental_uris":{"android":"levelo://app?vid=340bf529-ee40-4dd6-9e78-ea8c481ada51","ios":"levelo://app?vid=340bf529-ee40-4dd6-9e78-ea8c481ada51"},"vehicle_type_id":"4","last_reported":1732792108,"current_range_meters":30000,"station_id":"ce4bhgp2rcd13ifvqfd0","pricing_plan_id":"cebpf4jnsgd1na2vs0mg"},{"bike_id":"fc4d15f5-6256-45a3-90d6-77bb4c676955","system_id":"levelo_inurba_marseille","lat":43.296284,"lon":5.377877,"is_reserved":false,"is_disabled":true,"rental_uris":{"android":"levelo://app?vid=fc4d15f5-6256-45a3-90d6-77bb4c676955","ios":"levelo://app?vid=fc4d15f5-6256-45a3-90d6-77bb4c676955"},"vehicle_type_id":"4","last_reported":1732792108,"current_range_meters":34000,"station_id":"","pricing_plan_id":"cebpf4jnsgd1na2vs0mg"},{"bike_id":"8a6d2d87-b63e-4f2d-a6bb-a798f0427308","system_id":"levelo_inurba_marseille","lat":43.27809,"lon":5.40713,"is_reserved":false,"is_disabled":true,"rental_uris":{"android":"levelo://app?vid=8a6d2d87-b63e-4f2d-a6bb-a798f0427308","ios":"levelo://app?vid=8a6d2d87-b63e-4f2d-a6bb-a798f0427308"},"vehicle_type_id":"4","last_reported":1732792108,"current_range_meters":38800,"station_id":"ce4bhnh2rcd13ifvqgtg","pricing_plan_id":"cebpf4jnsgd1na2vs0mg"},{"bike_id":"c88f8730-1176-4717-97e2-17c27b15274f","system_id":"levelo_inurba_marseille","lat":43.23193,"lon":5.35553,"is_reserved":false,"is_disabled":true,"rental_uris":{"android":"levelo://app?vid=c88f8730-1176-4717-97e2-17c27b15274f","ios":"levelo://app?vid=c88f8730-1176-4717-97e2-17c27b15274f"},"vehicle_type_id":"4","last_reported":1732792108,"current_range_meters":0,"station_id":"ce4bhu92rcd13ifvqi70","pricing_plan_id":"cebpf4jnsgd1na2vs0mg"},{"bike_id":"5a3bedb7-1847-4379-8d5b-4c8784c4e390","system_id":"levelo_inurba_marseille","lat":43.30146,"lon":5.38081,"is_reserved":false,"is_disabled":false,"rental_uris":{"android":"levelo://app?vid=5a3bedb7-1847-4379-8d5b-4c8784c4e390","ios":"levelo://app?vid=5a3bedb7-1847-4379-8d5b-4c8784c4e390"},"vehicle_type_id":"4","last_reported":1732792108,"current_range_meters":38800,"station_id":"ce4bgjp2rcd13ifvqbh0","pricing_plan_id":"cebpf4jnsgd1na2vs0mg"},{"bike_id":"945b597d-b543-4da7-b399-193747953a10","system_id":"levelo_inurba_marseille","lat":43.31064,"lon":5.38343,"is_reserved":false,"is_disabled":true,"rental_uris":{"android":"levelo://app?vid=945b597d-b543-4da7-b399-193747953a10","ios":"levelo://app?vid=945b597d-b543-4da7-b399-193747953a10"},"vehicle_type_id":"4","last_reported":1732792108,"current_range_meters":19600,"station_id":"ce4bgv92rcd13ifvqcr0","pricing_plan_id":"cebpf4jnsgd1na2vs0mg"},{"bike_id":"b6ed1910-de57-401d-8b1d-af35755f9004","system_id":"levelo_inurba_marseille","lat":43.27946,"lon":5.41051,"is_reserved":false,"is_disabled":true,"rental_uris":{"android":"levelo://app?vid=b6ed1910-de57-401d-8b1d-af35755f9004","ios":"levelo://app?vid=b6ed1910-de57-401d-8b1d-af35755f9004"},"vehicle_type_id":"4","last_reported":1732792108,"current_range_meters":30400,"station_id":"ce4bhnp2rcd13ifvqh0g","pricing_plan_id":"cebpf4jnsgd1na2vs0mg"},{"bike_id":"32a151d9-7005-40eb-a8f7-814ea7e149e3","system_id":"levelo_inurba_marseille","lat":43.30549,"lon":5.36516,"is_reserved":false,"is_disabled":false,"rental_uris":{"android":"levelo://app?vid=32a151d9-7005-40eb-a8f7-814ea7e149e3","ios":"levelo://app?vid=32a151d9-7005-40eb-a8f7-814ea7e149e3"},"vehicle_type_id":"4","last_reported":1732792108,"current_range_meters":38400,"station_id":"ce4bgs12rcd13ifvqcag","pricing_plan_id":"cebpf4jnsgd1na2vs0mg"},{"bike_id":"1f6ae1cf-1ac5-4fe1-97d9-e9f56ba88faf","system_id":"levelo_inurba_marseille","lat":43.24175,"lon":5.39742,"is_reserved":false,"is_disabled":false,"rental_uris":{"android":"levelo://app?vid=1f6ae1cf-1ac5-4fe1-97d9-e9f56ba88faf","ios":"levelo://app?vid=1f6ae1cf-1ac5-4fe1-97d9-e9f56ba88faf"},"vehicle_type_id":"4","last_reported":1732792108,"current_range_meters":31200,"station_id":"ce4bhn12rcd13ifvqgpg","pricing_plan_id":"cebpf4jnsgd1na2vs0mg"},{"bike_id":"c0c814f8-5da5-485f-b863-3458dcd8a348","system_id":"levelo_inurba_marseille","lat":43.24544,"lon":5.39515,"is_reserved":false,"is_disabled":false,"rental_uris":{"android":"levelo://app?vid=c0c814f8-5da5-485f-b863-3458dcd8a348","ios":"levelo://app?vid=c0c814f8-5da5-485f-b863-3458dcd8a348"},"vehicle_type_id":"4","last_reported":1732792108,"current_range_meters":29600,"station_id":"ce4bhlp2rcd13ifvqgjg","pricing_plan_id":"cebpf4jnsgd1na2vs0mg"},{"bike_id":"3d27800c-ba66-4de2-aa12-1100555b8cf4","system_id":"levelo_inurba_marseille","lat":43.23153,"lon":5.43711,"is_reserved":false,"is_disabled":false,"rental_uris":{"android":"levelo://app?vid=3d27800c-ba66-4de2-aa12-1100555b8cf4","ios":"levelo://app?vid=3d27800c-ba66-4de2-aa12-1100555b8cf4"},"vehicle_type_id":"4","last_reported":1732792108,"current_range_meters":38800,"station_id":"ce4bhmp2rcd13ifvqgog","pricing_plan_id":"cebpf4jnsgd1na2vs0mg"},{"bike_id":"0944514c-fd8a-4609-b843-31c371a1b22d","system_id":"levelo_inurba_marseille","lat":43.25491,"lon":5.37649,"is_reserved":false,"is_disabled":false,"rental_uris":{"android":"levelo://app?vid=0944514c-fd8a-4609-b843-31c371a1b22d","ios":"levelo://app?vid=0944514c-fd8a-4609-b843-31c371a1b22d"},"vehicle_type_id":"4","last_reported":1732792108,"current_range_meters":25600,"station_id":"ce4bhh12rcd13ifvqff0","pricing_plan_id":"cebpf4jnsgd1na2vs0mg"},{"bike_id":"b0f1ce1e-c418-49ef-b530-c1fdf2a69736","system_id":"levelo_inurba_marseille","lat":43.28922,"lon":5.38399,"is_reserved":false,"is_disabled":false,"rental_uris":{"android":"levelo://app?vid=b0f1ce1e-c418-49ef-b530-c1fdf2a69736","ios":"levelo://app?vid=b0f1ce1e-c418-49ef-b530-c1fdf2a69736"},"vehicle_type_id":"4","last_reported":1732792108,"current_range_meters":2000,"station_id":"ce4bh612rcd13ifvqe6g","pricing_plan_id":"cebpf4jnsgd1na2vs0mg"},{"bike_id":"e54f0174-c7bd-4711-b39d-83487d0a1cd5","system_id":"levelo_inurba_marseille","lat":43.29551,"lon":5.4227,"is_reserved":false,"is_disabled":false,"rental_uris":{"android":"levelo://app?vid=e54f0174-c7bd-4711-b39d-83487d0a1cd5","ios":"levelo://app?vid=e54f0174-c7bd-4711-b39d-83487d0a1cd5"},"vehicle_type_id":"4","last_reported":1732792108,"current_range_meters":40000,"station_id":"ce4bhph2rcd13ifvqhdg","pricing_plan_id":"cebpf4jnsgd1na2vs0mg"},{"bike_id":"e346be1f-cb6c-4e2a-aa7c-fddf98fe41bc","system_id":"levelo_inurba_marseille","lat":43.27171,"lon":5.40991,"is_reserved":false,"is_disabled":false,"rental_uris":{"android":"levelo://app?vid=e346be1f-cb6c-4e2a-aa7c-fddf98fe41bc","ios":"levelo://app?vid=e346be1f-cb6c-4e2a-aa7c-fddf98fe41bc"},"vehicle_type_id":"4","last_reported":1732792108,"current_range_meters":38800,"station_id":"ce4bhl12rcd13ifvqgf0","pricing_plan_id":"cebpf4jnsgd1na2vs0mg"},{"bike_id":"14924596-047c-4ead-8bcb-e98dbe3cf02d","system_id":"levelo_inurba_marseille","lat":43.30642,"lon":5.40101,"is_reserved":false,"is_disabled":false,"rental_uris":{"android":"levelo://app?vid=14924596-047c-4ead-8bcb-e98dbe3cf02d","ios":"levelo://app?vid=14924596-047c-4ead-8bcb-e98dbe3cf02d"},"vehicle_type_id":"4","last_reported":1732792108,"current_range_meters":26800,"station_id":"ce4bh112rcd13ifvqda0","pricing_plan_id":"cebpf4jnsgd1na2vs0mg"},{"bike_id":"c01a1642-7db2-4ee8-acf6-104f0db5bca7","system_id":"levelo_inurba_marseille","lat":43.24662,"lon":5.38168,"is_reserved":false,"is_disabled":false,"rental_uris":{"android":"levelo://app?vid=c01a1642-7db2-4ee8-acf6-104f0db5bca7","ios":"levelo://app?vid=c01a1642-7db2-4ee8-acf6-104f0db5bca7"},"vehicle_type_id":"4","last_reported":1732792108,"current_range_meters":3600,"station_id":"ce4bhih2rcd13ifvqfr0","pricing_plan_id":"cebpf4jnsgd1na2vs0mg"},{"bike_id":"05cfa539-ec97-4cdc-9bc3-7fe8ca07ab1d","system_id":"levelo_inurba_marseille","lat":43.30556,"lon":5.36519,"is_reserved":false,"is_disabled":false,"rental_uris":{"android":"levelo://app?vid=05cfa539-ec97-4cdc-9bc3-7fe8ca07ab1d","ios":"levelo://app?vid=05cfa539-ec97-4cdc-9bc3-7fe8ca07ab1d"},"vehicle_type_id":"4","last_reported":1732792108,"current_range_meters":19200,"station_id":"ce4bgs12rcd13ifvqcag","pricing_plan_id":"cebpf4jnsgd1na2vs0mg"},{"bike_id":"d149a54a-651c-4bc7-aafc-8875d1e3b92b","system_id":"levelo_inurba_marseille","lat":43.30948,"lon":5.39037,"is_reserved":false,"is_disabled":false,"rental_uris":{"android":"levelo://app?vid=d149a54a-651c-4bc7-aafc-8875d1e3b92b","ios":"levelo://app?vid=d149a54a-651c-4bc7-aafc-8875d1e3b92b"},"vehicle_type_id":"4","last_reported":1732792108,"current_range_meters":17200,"station_id":"ce4bgup2rcd13ifvqco0","pricing_plan_id":"cebpf4jnsgd1na2vs0mg"},{"bike_id":"3f7a16b4-3563-44fe-998d-265b83c078d0","system_id":"levelo_inurba_marseille","lat":43.29528,"lon":5.38543,"is_reserved":false,"is_disabled":false,"rental_uris":{"android":"levelo://app?vid=3f7a16b4-3563-44fe-998d-265b83c078d0","ios":"levelo://app?vid=3f7a16b4-3563-44fe-998d-265b83c078d0"},"vehicle_type_id":"4","last_reported":1732792108,"current_range_meters":20800,"station_id":"ce4bgih2rcd13ifvqba0","pricing_plan_id":"cebpf4jnsgd1na2vs0mg"},{"bike_id":"0e45148f-1a7e-42d3-9cc8-08bc63689057","system_id":"levelo_inurba_marseille","lat":43.23197,"lon":5.35557,"is_reserved":false,"is_disabled":false,"rental_uris":{"android":"levelo://app?vid=0e45148f-1a7e-42d3-9cc8-08bc63689057","ios":"levelo://app?vid=0e45148f-1a7e-42d3-9cc8-08bc63689057"},"vehicle_type_id":"4","last_reported":1732792108,"current_range_meters":8400,"station_id":"ce4bhu92rcd13ifvqi70","pricing_plan_id":"cebpf4jnsgd1na2vs0mg"},{"bike_id":"5aee8f34-f29b-4446-a958-d36daab9b202","system_id":"levelo_inurba_marseille","lat":43.23153,"lon":5.43718,"is_reserved":false,"is_disabled":true,"rental_uris":{"android":"levelo://app?vid=5aee8f34-f29b-4446-a958-d36daab9b202","ios":"levelo://app?vid=5aee8f34-f29b-4446-a958-d36daab9b202"},"vehicle_type_id":"4","last_reported":1732792108,"current_range_meters":0,"station_id":"ce4bhmp2rcd13ifvqgog","pricing_plan_id":"cebpf4jnsgd1na2vs0mg"},{"bike_id":"e4a3ee64-8c9f-47fa-ba19-5213f5308e81","system_id":"levelo_inurba_marseille","lat":43.27209,"lon":5.39194,"is_reserved":false,"is_disabled":true,"rental_uris":{"android":"levelo://app?vid=e4a3ee64-8c9f-47fa-ba19-5213f5308e81","ios":"levelo://app?vid=e4a3ee64-8c9f-47fa-ba19-5213f5308e81"},"vehicle_type_id":"4","last_reported":1732792108,"current_range_meters":400,"station_id":"ce4bhhp2rcd13ifvqfm0","pricing_plan_id":"cebpf4jnsgd1na2vs0mg"},{"bike_id":"fcdcc896-5e70-4811-80ef-834dd8ca3fdf","system_id":"levelo_inurba_marseille","lat":43.26754,"lon":5.39462,"is_reserved":false,"is_disabled":false,"rental_uris":{"android":"levelo://app?vid=fcdcc896-5e70-4811-80ef-834dd8ca3fdf","ios":"levelo://app?vid=fcdcc896-5e70-4811-80ef-834dd8ca3fdf"},"vehicle_type_id":"4","last_reported":1732792108,"current_range_meters":39200,"station_id":"ce4bhh12rcd13ifvqfg0","pricing_plan_id":"cebpf4jnsgd1na2vs0mg"},{"bike_id":"0963a0a7-6b59-4f21-8c23-d2110dec0c86","system_id":"levelo_inurba_marseille","lat":43.33606,"lon":5.41018,"is_reserved":false,"is_disabled":false,"rental_uris":{"android":"levelo://app?vid=0963a0a7-6b59-4f21-8c23-d2110dec0c86","ios":"levelo://app?vid=0963a0a7-6b59-4f21-8c23-d2110dec0c86"},"vehicle_type_id":"4","last_reported":1732792108,"current_range_meters":30000,"station_id":"ce4bhqh2rcd13ifvqhmg","pricing_plan_id":"cebpf4jnsgd1na2vs0mg"},{"bike_id":"0a89018b-8bf8-419f-beb0-9cc6952c27dc","system_id":"levelo_inurba_marseille","lat":43.29035,"lon":5.38648,"is_reserved":false,"is_disabled":false,"rental_uris":{"android":"levelo://app?vid=0a89018b-8bf8-419f-beb0-9cc6952c27dc","ios":"levelo://app?vid=0a89018b-8bf8-419f-beb0-9cc6952c27dc"},"vehicle_type_id":"4","last_reported":1732792108,"current_range_meters":19600,"station_id":"ce4bh4p2rcd13ifvqe0g","pricing_plan_id":"cebpf4jnsgd1na2vs0mg"},{"bike_id":"50299ad5-129c-4797-a340-5ac3a93e5ef4","system_id":"levelo_inurba_marseille","lat":43.29928,"lon":5.36536,"is_reserved":false,"is_disabled":false,"rental_uris":{"android":"levelo://app?vid=50299ad5-129c-4797-a340-5ac3a93e5ef4","ios":"levelo://app?vid=50299ad5-129c-4797-a340-5ac3a93e5ef4"},"vehicle_type_id":"4","last_reported":1732792108,"current_range_meters":34800,"station_id":"ce4bgm92rcd13ifvqbr0","pricing_plan_id":"cebpf4jnsgd1na2vs0mg"},{"bike_id":"6f8f7372-ecd4-442e-95dd-7b099b7e1a39","system_id":"levelo_inurba_marseille","lat":43.29892,"lon":5.43661,"is_reserved":false,"is_disabled":false,"rental_uris":{"android":"levelo://app?vid=6f8f7372-ecd4-442e-95dd-7b099b7e1a39","ios":"levelo://app?vid=6f8f7372-ecd4-442e-95dd-7b099b7e1a39"},"vehicle_type_id":"4","last_reported":1732792108,"current_range_meters":37600,"station_id":"ce4bhpp2rcd13ifvqhfg","pricing_plan_id":"cebpf4jnsgd1na2vs0mg"},{"bike_id":"dc1f4c2c-7043-457f-8ba6-d7881223a41b","system_id":"levelo_inurba_marseille","lat":43.28153,"lon":5.42649,"is_reserved":false,"is_disabled":false,"rental_uris":{"android":"levelo://app?vid=dc1f4c2c-7043-457f-8ba6-d7881223a41b","ios":"levelo://app?vid=dc1f4c2c-7043-457f-8ba6-d7881223a41b"},"vehicle_type_id":"4","last_reported":1732792108,"current_range_meters":36400,"station_id":"ce4bhnh2rcd13ifvqgug","pricing_plan_id":"cebpf4jnsgd1na2vs0mg"},{"bike_id":"7db9c639-3177-4805-92ec-95540cb7e1d6","system_id":"levelo_inurba_marseille","lat":43.30543,"lon":5.36708,"is_reserved":false,"is_disabled":false,"rental_uris":{"android":"levelo://app?vid=7db9c639-3177-4805-92ec-95540cb7e1d6","ios":"levelo://app?vid=7db9c639-3177-4805-92ec-95540cb7e1d6"},"vehicle_type_id":"4","last_reported":1732792108,"current_range_meters":39200,"station_id":"ce4bgrp2rcd13ifvqc9g","pricing_plan_id":"cebpf4jnsgd1na2vs0mg"},{"bike_id":"0e4efa40-24db-42af-a316-073fc45ae0fe","system_id":"levelo_inurba_marseille","lat":43.23153,"lon":5.43723,"is_reserved":false,"is_disabled":false,"rental_uris":{"android":"levelo://app?vid=0e4efa40-24db-42af-a316-073fc45ae0fe","ios":"levelo://app?vid=0e4efa40-24db-42af-a316-073fc45ae0fe"},"vehicle_type_id":"4","last_reported":1732792108,"current_range_meters":12400,"station_id":"ce4bhmp2rcd13ifvqgog","pricing_plan_id":"cebpf4jnsgd1na2vs0mg"},{"bike_id":"cfc9c78a-7757-46c9-b444-6fc7ff69d97a","system_id":"levelo_inurba_marseille","lat":43.32472,"lon":5.36567,"is_reserved":false,"is_disabled":false,"rental_uris":{"android":"levelo://app?vid=cfc9c78a-7757-46c9-b444-6fc7ff69d97a","ios":"levelo://app?vid=cfc9c78a-7757-46c9-b444-6fc7ff69d97a"},"vehicle_type_id":"4","last_reported":1732792108,"current_range_meters":2800,"station_id":"ce4bhs12rcd13ifvqhvg","pricing_plan_id":"cebpf4jnsgd1na2vs0mg"},{"bike_id":"9e944db9-d48e-4848-b5fa-4af701aee80b","system_id":"levelo_inurba_marseille","lat":48.80797,"lon":2.40127,"is_reserved":false,"is_disabled":true,"rental_uris":{"android":"levelo://app?vid=9e944db9-d48e-4848-b5fa-4af701aee80b","ios":"levelo://app?vid=9e944db9-d48e-4848-b5fa-4af701aee80b"},"vehicle_type_id":"4","last_reported":1732792108,"current_range_meters":24400,"station_id":"","pricing_plan_id":"cebpf4jnsgd1na2vs0mg"},{"bike_id":"95faa02e-7327-4dbf-a97d-99e668b10a3f","system_id":"levelo_inurba_marseille","lat":43.31117,"lon":5.37769,"is_reserved":false,"is_disabled":false,"rental_uris":{"android":"levelo://app?vid=95faa02e-7327-4dbf-a97d-99e668b10a3f","ios":"levelo://app?vid=95faa02e-7327-4dbf-a97d-99e668b10a3f"},"vehicle_type_id":"4","last_reported":1732792108,"current_range_meters":39200,"station_id":"ce4bgt92rcd13ifvqcg0","pricing_plan_id":"cebpf4jnsgd1na2vs0mg"},{"bike_id":"853dce9c-704d-4c69-8665-fee2463ece47","system_id":"levelo_inurba_marseille","lat":43.32366,"lon":5.38878,"is_reserved":false,"is_disabled":false,"rental_uris":{"android":"levelo://app?vid=853dce9c-704d-4c69-8665-fee2463ece47","ios":"levelo://app?vid=853dce9c-704d-4c69-8665-fee2463ece47"},"vehicle_type_id":"4","last_reported":1732792108,"current_range_meters":38000,"station_id":"ce4bhqp2rcd13ifvqhog","pricing_plan_id":"cebpf4jnsgd1na2vs0mg"},{"bike_id":"9f131acf-0dc0-4bb5-afd1-e7d3c47ab64a","system_id":"levelo_inurba_marseille","lat":43.28273,"lon":5.35064,"is_reserved":false,"is_disabled":true,"rental_uris":{"android":"levelo://app?vid=9f131acf-0dc0-4bb5-afd1-e7d3c47ab64a","ios":"levelo://app?vid=9f131acf-0dc0-4bb5-afd1-e7d3c47ab64a"},"vehicle_type_id":"4","last_reported":1732792108,"current_range_meters":8400,"station_id":"ce4bhbp2rcd13ifvqerg","pricing_plan_id":"cebpf4jnsgd1na2vs0mg"},{"bike_id":"cb6ee3d2-2b62-4531-a7e1-8dcead8b3b06","system_id":"levelo_inurba_marseille","lat":43.23146,"lon":5.43722,"is_reserved":false,"is_disabled":false,"rental_uris":{"android":"levelo://app?vid=cb6ee3d2-2b62-4531-a7e1-8dcead8b3b06","ios":"levelo://app?vid=cb6ee3d2-2b62-4531-a7e1-8dcead8b3b06"},"vehicle_type_id":"4","last_reported":1732792108,"current_range_meters":28400,"station_id":"ce4bhmp2rcd13ifvqgog","pricing_plan_id":"cebpf4jnsgd1na2vs0mg"},{"bike_id":"2bb700fd-9a57-4135-8636-919d8a62f75a","system_id":"levelo_inurba_marseille","lat":43.29156,"lon":5.37152,"is_reserved":false,"is_disabled":true,"rental_uris":{"android":"levelo://app?vid=2bb700fd-9a57-4135-8636-919d8a62f75a","ios":"levelo://app?vid=2bb700fd-9a57-4135-8636-919d8a62f75a"},"vehicle_type_id":"4","last_reported":1732792108,"current_range_meters":36000,"station_id":"ce4bha92rcd13ifvqeh0","pricing_plan_id":"cebpf4jnsgd1na2vs0mg"},{"bike_id":"0b1026ed-9fec-4a2b-8872-ac477ec81b52","system_id":"levelo_inurba_marseille","lat":43.30303,"lon":5.36893,"is_reserved":false,"is_disabled":false,"rental_uris":{"android":"levelo://app?vid=0b1026ed-9fec-4a2b-8872-ac477ec81b52","ios":"levelo://app?vid=0b1026ed-9fec-4a2b-8872-ac477ec81b52"},"vehicle_type_id":"4","last_reported":1732792108,"current_range_meters":17600,"station_id":"ce4bgqh2rcd13ifvqc5g","pricing_plan_id":"cebpf4jnsgd1na2vs0mg"},{"bike_id":"14f3f24f-660f-48ad-9bd5-aa0d3f007b63","system_id":"levelo_inurba_marseille","lat":43.30169,"lon":5.36599,"is_reserved":false,"is_disabled":false,"rental_uris":{"android":"levelo://app?vid=14f3f24f-660f-48ad-9bd5-aa0d3f007b63","ios":"levelo://app?vid=14f3f24f-660f-48ad-9bd5-aa0d3f007b63"},"vehicle_type_id":"4","last_reported":1732792108,"current_range_meters":38800,"station_id":"ce4bgrh2rcd13ifvqc8g","pricing_plan_id":"cebpf4jnsgd1na2vs0mg"},{"bike_id":"32fc4063-b2f0-46fe-9334-78997ce9ebee","system_id":"levelo_inurba_marseille","lat":43.27053,"lon":5.40258,"is_reserved":false,"is_disabled":false,"rental_uris":{"android":"levelo://app?vid=32fc4063-b2f0-46fe-9334-78997ce9ebee","ios":"levelo://app?vid=32fc4063-b2f0-46fe-9334-78997ce9ebee"},"vehicle_type_id":"4","last_reported":1732792108,"current_range_meters":10000,"station_id":"ce4bhk92rcd13ifvqgc0","pricing_plan_id":"cebpf4jnsgd1na2vs0mg"},{"bike_id":"bde55354-683b-473e-903e-7091881822c3","system_id":"levelo_inurba_marseille","lat":43.33752,"lon":5.37437,"is_reserved":false,"is_disabled":false,"rental_uris":{"android":"levelo://app?vid=bde55354-683b-473e-903e-7091881822c3","ios":"levelo://app?vid=bde55354-683b-473e-903e-7091881822c3"},"vehicle_type_id":"4","last_reported":1732792108,"current_range_meters":24000,"station_id":"","pricing_plan_id":"cebpf4jnsgd1na2vs0mg"},{"bike_id":"1130996c-ba07-491b-a538-69e310f93db2","system_id":"levelo_inurba_marseille","lat":43.27372,"lon":5.36258,"is_reserved":false,"is_disabled":false,"rental_uris":{"android":"levelo://app?vid=1130996c-ba07-491b-a538-69e310f93db2","ios":"levelo://app?vid=1130996c-ba07-491b-a538-69e310f93db2"},"vehicle_type_id":"4","last_reported":1732792108,"current_range_meters":38800,"station_id":"ce4bhbh2rcd13ifvqeo0","pricing_plan_id":"cebpf4jnsgd1na2vs0mg"},{"bike_id":"42082d0a-1655-4f43-9c22-24bee70e05aa","system_id":"levelo_inurba_marseille","lat":43.33787,"lon":5.37456,"is_reserved":false,"is_disabled":false,"rental_uris":{"android":"levelo://app?vid=42082d0a-1655-4f43-9c22-24bee70e05aa","ios":"levelo://app?vid=42082d0a-1655-4f43-9c22-24bee70e05aa"},"vehicle_type_id":"4","last_reported":1732792108,"current_range_meters":35600,"station_id":"","pricing_plan_id":"cebpf4jnsgd1na2vs0mg"},{"bike_id":"cf957ea7-8d97-4cc4-9f65-fa2628a9f557","system_id":"levelo_inurba_marseille","lat":43.29557,"lon":5.42282,"is_reserved":false,"is_disabled":true,"rental_uris":{"android":"levelo://app?vid=cf957ea7-8d97-4cc4-9f65-fa2628a9f557","ios":"levelo://app?vid=cf957ea7-8d97-4cc4-9f65-fa2628a9f557"},"vehicle_type_id":"4","last_reported":1732792108,"current_range_meters":0,"station_id":"ce4bhph2rcd13ifvqhdg","pricing_plan_id":"cebpf4jnsgd1na2vs0mg"},{"bike_id":"7a3c8073-4799-43ae-8cbb-c96d441ba2c2","system_id":"levelo_inurba_marseille","lat":43.30804,"lon":5.38151,"is_reserved":false,"is_disabled":true,"rental_uris":{"android":"levelo://app?vid=7a3c8073-4799-43ae-8cbb-c96d441ba2c2","ios":"levelo://app?vid=7a3c8073-4799-43ae-8cbb-c96d441ba2c2"},"vehicle_type_id":"4","last_reported":1732792108,"current_range_meters":0,"station_id":"ce4bgt12rcd13ifvqce0","pricing_plan_id":"cebpf4jnsgd1na2vs0mg"},{"bike_id":"14552cc0-cd0a-43fa-b27a-4d805973e466","system_id":"levelo_inurba_marseille","lat":43.27992,"lon":5.40014,"is_reserved":false,"is_disabled":false,"rental_uris":{"android":"levelo://app?vid=14552cc0-cd0a-43fa-b27a-4d805973e466","ios":"levelo://app?vid=14552cc0-cd0a-43fa-b27a-4d805973e466"},"vehicle_type_id":"4","last_reported":1732792108,"current_range_meters":38800,"station_id":"ce4bho92rcd13ifvqh4g","pricing_plan_id":"cebpf4jnsgd1na2vs0mg"},{"bike_id":"1d53b8a4-d427-47ed-a67e-5baca0b22496","system_id":"levelo_inurba_marseille","lat":43.29585,"lon":5.3751,"is_reserved":false,"is_disabled":true,"rental_uris":{"android":"levelo://app?vid=1d53b8a4-d427-47ed-a67e-5baca0b22496","ios":"levelo://app?vid=1d53b8a4-d427-47ed-a67e-5baca0b22496"},"vehicle_type_id":"4","last_reported":1732792108,"current_range_meters":38800,"station_id":"ce4bgh92rcd13ifvqb50","pricing_plan_id":"cebpf4jnsgd1na2vs0mg"},{"bike_id":"a2acfdb1-7e98-46e5-ab43-c51e78821d84","system_id":"levelo_inurba_marseille","lat":43.29004,"lon":5.35608,"is_reserved":false,"is_disabled":false,"rental_uris":{"android":"levelo://app?vid=a2acfdb1-7e98-46e5-ab43-c51e78821d84","ios":"levelo://app?vid=a2acfdb1-7e98-46e5-ab43-c51e78821d84"},"vehicle_type_id":"4","last_reported":1732792108,"current_range_meters":8000,"station_id":"ce4bhb92rcd13ifvqen0","pricing_plan_id":"cebpf4jnsgd1na2vs0mg"},{"bike_id":"617d0220-e70a-479c-a975-2b4daa5c4166","system_id":"levelo_inurba_marseille","lat":43.23152,"lon":5.43716,"is_reserved":false,"is_disabled":true,"rental_uris":{"android":"levelo://app?vid=617d0220-e70a-479c-a975-2b4daa5c4166","ios":"levelo://app?vid=617d0220-e70a-479c-a975-2b4daa5c4166"},"vehicle_type_id":"4","last_reported":1732792108,"current_range_meters":0,"station_id":"ce4bhmp2rcd13ifvqgog","pricing_plan_id":"cebpf4jnsgd1na2vs0mg"},{"bike_id":"40018b31-c67e-42ac-a399-afcd3dbd2b6d","system_id":"levelo_inurba_marseille","lat":43.24546,"lon":5.39523,"is_reserved":false,"is_disabled":false,"rental_uris":{"android":"levelo://app?vid=40018b31-c67e-42ac-a399-afcd3dbd2b6d","ios":"levelo://app?vid=40018b31-c67e-42ac-a399-afcd3dbd2b6d"},"vehicle_type_id":"4","last_reported":1732792108,"current_range_meters":38800,"station_id":"ce4bhlp2rcd13ifvqgjg","pricing_plan_id":"cebpf4jnsgd1na2vs0mg"},{"bike_id":"eb0d9bd9-a2ac-459f-8e11-33a7b6f014aa","system_id":"levelo_inurba_marseille","lat":43.30279,"lon":5.37695,"is_reserved":false,"is_disabled":false,"rental_uris":{"android":"levelo://app?vid=eb0d9bd9-a2ac-459f-8e11-33a7b6f014aa","ios":"levelo://app?vid=eb0d9bd9-a2ac-459f-8e11-33a7b6f014aa"},"vehicle_type_id":"4","last_reported":1732792108,"current_range_meters":8000,"station_id":"ce4bguh2rcd13ifvqcj0","pricing_plan_id":"cebpf4jnsgd1na2vs0mg"},{"bike_id":"bbf65033-7a72-4692-b3b7-121e998aeb46","system_id":"levelo_inurba_marseille","lat":43.30869,"lon":5.37049,"is_reserved":false,"is_disabled":false,"rental_uris":{"android":"levelo://app?vid=bbf65033-7a72-4692-b3b7-121e998aeb46","ios":"levelo://app?vid=bbf65033-7a72-4692-b3b7-121e998aeb46"},"vehicle_type_id":"4","last_reported":1732792108,"current_range_meters":28000,"station_id":"","pricing_plan_id":"cebpf4jnsgd1na2vs0mg"},{"bike_id":"ff469734-944a-41a0-a9ce-8da3497c8056","system_id":"levelo_inurba_marseille","lat":43.28707,"lon":5.39991,"is_reserved":false,"is_disabled":false,"rental_uris":{"android":"levelo://app?vid=ff469734-944a-41a0-a9ce-8da3497c8056","ios":"levelo://app?vid=ff469734-944a-41a0-a9ce-8da3497c8056"},"vehicle_type_id":"4","last_reported":1732792108,"current_range_meters":14000,"station_id":"ce4bho92rcd13ifvqh3g","pricing_plan_id":"cebpf4jnsgd1na2vs0mg"},{"bike_id":"b4d58e23-01ae-4c65-b568-c25ecb787930","system_id":"levelo_inurba_marseille","lat":43.26536,"lon":5.39356,"is_reserved":false,"is_disabled":true,"rental_uris":{"android":"levelo://app?vid=b4d58e23-01ae-4c65-b568-c25ecb787930","ios":"levelo://app?vid=b4d58e23-01ae-4c65-b568-c25ecb787930"},