{"last_updated":1730362337,"ttl":60,"version":"2.2","data":{"bikes":[{"bike_id":"cff4c6c9-6f1d-42eb-aa93-5e57000071a7","system_id":"levelo_inurba_marseille","lat":43.307814,"lon":5.376548,"is_reserved":false,"is_disabled":false,"rental_uris":{"android":"levelo://app?vid=cff4c6c9-6f1d-42eb-aa93-5e57000071a7","ios":"levelo://app?vid=cff4c6c9-6f1d-42eb-aa93-5e57000071a7"},"vehicle_type_id":"4","last_reported":1730362337,"current_range_meters":38800,"station_id":"ce4bgv92rcd13ifvqcq0","pricing_plan_id":"cebpf4jnsgd1na2vs0mg"},{"bike_id":"e4bbc832-436f-482e-8a94-66135373f59d","system_id":"levelo_inurba_marseille","lat":43.30523,"lon":5.36511,"is_reserved":false,"is_disabled":false,"rental_uris":{"android":"levelo://app?vid=e4bbc832-436f-482e-8a94-66135373f59d","ios":"levelo://app?vid=e4bbc832-436f-482e-8a94-66135373f59d"},"vehicle_type_id":"4","last_reported":1730362337,"current_range_meters":39200,"station_id":"ce4bgs12rcd13ifvqcag","pricing_plan_id":"cebpf4jnsgd1na2vs0mg"},{"bike_id":"f68da85f-dcfd-4576-ba3a-6c8404f553e5","system_id":"levelo_inurba_marseille","lat":43.293091,"lon":5.374545,"is_reserved":false,"is_disabled":false,"rental_uris":{"android":"levelo://app?vid=f68da85f-dcfd-4576-ba3a-6c8404f553e5","ios":"levelo://app?vid=f68da85f-dcfd-4576-ba3a-6c8404f553e5"},"vehicle_type_id":"4","last_reported":1730362337,"current_range_meters":28800,"station_id":"ce4bgr92rcd13ifvqc7g","pricing_plan_id":"cebpf4jnsgd1na2vs0mg"},{"bike_id":"dfc6f97e-4b5e-4af1-92bd-30b8df867029","system_id":"levelo_inurba_marseille","lat":43.25578,"lon":5.38241,"is_reserved":false,"is_disabled":false,"rental_uris":{"android":"levelo://app?vid=dfc6f97e-4b5e-4af1-92bd-30b8df867029","ios":"levelo://app?vid=dfc6f97e-4b5e-4af1-92bd-30b8df867029"},"vehicle_type_id":"4","last_reported":1730362337,"current_range_meters":39200,"station_id":"ce4bhih2rcd13ifvqfs0","pricing_plan_id":"cebpf4jnsgd1na2vs0mg"},{"bike_id":"1bb25134-81bd-4255-931c-d93d2143e7cd","system_id":"levelo_inurba_marseille","lat":43.30944,"lon":5.39035,"is_reserved":false,"is_disabled":false,"rental_uris":{"android":"levelo://app?vid=1bb25134-81bd-4255-931c-d93d2143e7cd","ios":"levelo://app?vid=1bb25134-81bd-4255-931c-d93d2143e7cd"},"vehicle_type_id":"4","last_reported":1730362337,"current_range_meters":24800,"station_id":"ce4bgup2rcd13ifvqco0","pricing_plan_id":"cebpf4jnsgd1na2vs0mg"},{"bike_id":"f64c1e7d-3ae9-4dfc-8ec2-0a90d036364f","system_id":"levelo_inurba_marseille","lat":43.32104,"lon":5.36775,"is_reserved":false,"is_disabled":false,"rental_uris":{"android":"levelo://app?vid=f64c1e7d-3ae9-4dfc-8ec2-0a90d036364f","ios":"levelo://app?vid=f64c1e7d-3ae9-4dfc-8ec2-0a90d036364f"},"vehicle_type_id":"4","last_reported":1730362337,"current_range_meters":22000,"station_id":"ce4bhrh2rcd13ifvqhug","pricing_plan_id":"cebpf4jnsgd1na2vs0mg"},{"bike_id":"fb92e37d-6e41-4bd0-b08c-5c9feccebdbc","system_id":"levelo_inurba_marseille","lat":43.30531,"lon":5.38433,"is_reserved":false,"is_disabled":false,"rental_uris":{"android":"levelo://app?vid=fb92e37d-6e41-4bd0-b08c-5c9feccebdbc","ios":"levelo://app?vid=fb92e37d-6e41-4bd0-b08c-5c9feccebdbc"},"vehicle_type_id":"4","last_reported":1730362337,"current_range_meters":33200,"station_id":"ce4bgg92rcd13ifvqb30","pricing_plan_id":"cebpf4jnsgd1na2vs0mg"},{"bike_id":"5372a642-d5b3-44d2-bd95-093c5716325a","system_id":"levelo_inurba_marseille","lat":43.2957,"lon":5.39968,"is_reserved":false,"is_disabled":false,"rental_uris":{"android":"levelo://app?vid=5372a642-d5b3-44d2-bd95-093c5716325a","ios":"levelo://app?vid=5372a642-d5b3-44d2-bd95-093c5716325a"},"vehicle_type_id":"4","last_reported":1730362337,"current_range_meters":38400,"station_id":"ce4bh312rcd13ifvqdj0","pricing_plan_id":"cebpf4jnsgd1na2vs0mg"},{"bike_id":"04ef021f-5fb0-4f7d-b895-3802422ee510","system_id":"levelo_inurba_marseille","lat":43.29016,"lon":5.38136,"is_reserved":false,"is_disabled":false,"rental_uris":{"android":"levelo://app?vid=04ef021f-5fb0-4f7d-b895-3802422ee510","ios":"levelo://app?vid=04ef021f-5fb0-4f7d-b895-3802422ee510"},"vehicle_type_id":"4","last_reported":1730362337,"current_range_meters":38800,"station_id":"ce4bh4p2rcd13ifvqe1g","pricing_plan_id":"cebpf4jnsgd1na2vs0mg"},{"bike_id":"8b9878c9-4f62-4ff3-978f-a3c62ecd88e5","system_id":"levelo_inurba_marseille","lat":43.25938,"lon":5.409,"is_reserved":false,"is_disabled":false,"rental_uris":{"android":"levelo://app?vid=8b9878c9-4f62-4ff3-978f-a3c62ecd88e5","ios":"levelo://app?vid=8b9878c9-4f62-4ff3-978f-a3c62ecd88e5"},"vehicle_type_id":"4","last_reported":1730362337,"current_range_meters":17200,"station_id":"ce4bhm92rcd13ifvqglg","pricing_plan_id":"cebpf4jnsgd1na2vs0mg"},{"bike_id":"7a5b30e6-bcdd-46db-9d3e-ec2105890f98","system_id":"levelo_inurba_marseille","lat":43.31164,"lon":5.38712,"is_reserved":false,"is_disabled":false,"rental_uris":{"android":"levelo://app?vid=7a5b30e6-bcdd-46db-9d3e-ec2105890f98","ios":"levelo://app?vid=7a5b30e6-bcdd-46db-9d3e-ec2105890f98"},"vehicle_type_id":"4","last_reported":1730362337,"current_range_meters":38800,"station_id":"ce4bgv12rcd13ifvqcp0","pricing_plan_id":"cebpf4jnsgd1na2vs0mg"},{"bike_id":"bbf8f708-5e9b-41bf-bc19-afef39d244c3","system_id":"levelo_inurba_marseille","lat":43.27492,"lon":5.42445,"is_reserved":false,"is_disabled":false,"rental_uris":{"android":"levelo://app?vid=bbf8f708-5e9b-41bf-bc19-afef39d244c3","ios":"levelo://app?vid=bbf8f708-5e9b-41bf-bc19-afef39d244c3"},"vehicle_type_id":"4","last_reported":1730362337,"current_range_meters":30400,"station_id":"ce4bhn92rcd13ifvqgrg","pricing_plan_id":"cebpf4jnsgd1na2vs0mg"},{"bike_id":"b5beb8be-724a-4713-95e9-911c76389d06","system_id":"levelo_inurba_marseille","lat":43.30148,"lon":5.38082,"is_reserved":false,"is_disabled":false,"rental_uris":{"android":"levelo://app?vid=b5beb8be-724a-4713-95e9-911c76389d06","ios":"levelo://app?vid=b5beb8be-724a-4713-95e9-911c76389d06"},"vehicle_type_id":"4","last_reported":1730362337,"current_range_meters":36800,"station_id":"ce4bgjp2rcd13ifvqbh0","pricing_plan_id":"cebpf4jnsgd1na2vs0mg"},{"bike_id":"e35a8ca0-a448-45a9-9f0c-b3ec619fcd4b","system_id":"levelo_inurba_marseille","lat":43.30529,"lon":5.36546,"is_reserved":false,"is_disabled":false,"rental_uris":{"android":"levelo://app?vid=e35a8ca0-a448-45a9-9f0c-b3ec619fcd4b","ios":"levelo://app?vid=e35a8ca0-a448-45a9-9f0c-b3ec619fcd4b"},"vehicle_type_id":"4","last_reported":1730362337,"current_range_meters":39200,"station_id":"ce4bgs12rcd13ifvqcag","pricing_plan_id":"cebpf4jnsgd1na2vs0mg"},{"bike_id":"91f75106-8073-486e-8037-1d5f2fa10c75","system_id":"levelo_inurba_marseille","lat":43.31998,"lon":5.3815,"is_reserved":false,"is_disabled":false,"rental_uris":{"android":"levelo://app?vid=91f75106-8073-486e-8037-1d5f2fa10c75","ios":"levelo://app?vid=91f75106-8073-486e-8037-1d5f2fa10c75"},"vehicle_type_id":"4","last_reported":1730362337,"current_range_meters":39200,"station_id":"ce4bhr12rcd13ifvqhpg","pricing_plan_id":"cebpf4jnsgd1na2vs0mg"},{"bike_id":"4075e605-7e2d-4335-883e-4292dc011012","system_id":"levelo_inurba_marseille","lat":43.2396,"lon":5.36626,"is_reserved":false,"is_disabled":false,"rental_uris":{"android":"levelo://app?vid=4075e605-7e2d-4335-883e-4292dc011012","ios":"levelo://app?vid=4075e605-7e2d-4335-883e-4292dc011012"},"vehicle_type_id":"4","last_reported":1730362337,"current_range_meters":6400,"station_id":"ce4bhi12rcd13ifvqfp0","pricing_plan_id":"cebpf4jnsgd1na2vs0mg"},{"bike_id":"604871c7-01b3-4e91-ad66-3472f5cb2bd9","system_id":"levelo_inurba_marseille","lat":43.24166,"lon":5.36395,"is_reserved":false,"is_disabled":false,"rental_uris":{"android":"levelo://app?vid=604871c7-01b3-4e91-ad66-3472f5cb2bd9","ios":"levelo://app?vid=604871c7-01b3-4e91-ad66-3472f5cb2bd9"},"vehicle_type_id":"4","last_reported":1730362337,"current_range_meters":33600,"station_id":"cpo36qri1sfpv3e86is0","pricing_plan_id":"cebpf4jnsgd1na2vs0mg"},{"bike_id":"66f87c05-90dc-43a7-acd2-2870fbee0cc8","system_id":"levelo_inurba_marseille","lat":43.23151,"lon":5.43715,"is_reserved":false,"is_disabled":false,"rental_uris":{"android":"levelo://app?vid=66f87c05-90dc-43a7-acd2-2870fbee0cc8","ios":"levelo://app?vid=66f87c05-90dc-43a7-acd2-2870fbee0cc8"},"vehicle_type_id":"4","last_reported":1730362337,"current_range_meters":38800,"station_id":"ce4bhmp2rcd13ifvqgog","pricing_plan_id":"cebpf4jnsgd1na2vs0mg"},{"bike_id":"88b41abc-7a6a-4d0c-8b4c-c5a28531c90c","system_id":"levelo_inurba_marseille","lat":43.31687,"lon":5.40469,"is_reserved":false,"is_disabled":false,"rental_uris":{"android":"levelo://app?vid=88b41abc-7a6a-4d0c-8b4c-c5a28531c90c","ios":"levelo://app?vid=88b41abc-7a6a-4d0c-8b4c-c5a28531c90c"},"vehicle_type_id":"4","last_reported":1730362337,"current_range_meters":28400,"station_id":"ce4bh012rcd13ifvqd00","pricing_plan_id":"cebpf4jnsgd1na2vs0mg"},{"bike_id":"cd0cbb9f-7000-4b9d-876f-c81791f5191a","system_id":"levelo_inurba_marseille","lat":43.30891,"lon":5.37205,"is_reserved":false,"is_disabled":false,"rental_uris":{"android":"levelo://app?vid=cd0cbb9f-7000-4b9d-876f-c81791f5191a","ios":"levelo://app?vid=cd0cbb9f-7000-4b9d-876f-c81791f5191a"},"vehicle_type_id":"4","last_reported":1730362337,"current_range_meters":24800,"station_id":"ce4bguh2rcd13ifvqckg","pricing_plan_id":"cebpf4jnsgd1na2vs0mg"},{"bike_id":"830a36e9-6e3e-49e4-add0-59b63459e2f2","system_id":"levelo_inurba_marseille","lat":43.29167,"lon":5.38595,"is_reserved":false,"is_disabled":false,"rental_uris":{"android":"levelo://app?vid=830a36e9-6e3e-49e4-add0-59b63459e2f2","ios":"levelo://app?vid=830a36e9-6e3e-49e4-add0-59b63459e2f2"},"vehicle_type_id":"4","last_reported":1730362337,"current_range_meters":22800,"station_id":"","pricing_plan_id":"cebpf4jnsgd1na2vs0mg"},{"bike_id":"8b049b91-cb4b-4f38-bffb-00ce29c795e2","system_id":"levelo_inurba_marseille","lat":43.27943,"lon":5.41049,"is_reserved":false,"is_disabled":false,"rental_uris":{"android":"levelo://app?vid=8b049b91-cb4b-4f38-bffb-00ce29c795e2","ios":"levelo://app?vid=8b049b91-cb4b-4f38-bffb-00ce29c795e2"},"vehicle_type_id":"4","last_reported":1730362337,"current_range_meters":36000,"station_id":"ce4bhnp2rcd13ifvqh0g","pricing_plan_id":"cebpf4jnsgd1na2vs0mg"},{"bike_id":"327a54a1-6731-42d1-84d8-1ec906b0ebe8","system_id":"levelo_inurba_marseille","lat":43.25932,"lon":5.40895,"is_reserved":false,"is_disabled":false,"rental_uris":{"android":"levelo://app?vid=327a54a1-6731-42d1-84d8-1ec906b0ebe8","ios":"levelo://app?vid=327a54a1-6731-42d1-84d8-1ec906b0ebe8"},"vehicle_type_id":"4","last_reported":1730362337,"current_range_meters":26800,"station_id":"ce4bhm92rcd13ifvqglg","pricing_plan_id":"cebpf4jnsgd1na2vs0mg"},{"bike_id":"2d65310e-a7ab-47d2-aed2-2ce5aa88e32d","system_id":"levelo_inurba_marseille","lat":43.25087,"lon":5.39525,"is_reserved":false,"is_disabled":false,"rental_uris":{"android":"levelo://app?vid=2d65310e-a7ab-47d2-aed2-2ce5aa88e32d","ios":"levelo://app?vid=2d65310e-a7ab-47d2-aed2-2ce5aa88e32d"},"vehicle_type_id":"4","last_reported":1730362337,"current_range_meters":8000,"station_id":"ce4bhm12rcd13ifvqgkg","pricing_plan_id":"cebpf4jnsgd1na2vs0mg"},{"bike_id":"65f38e5c-38a7-4a68-912b-a1b944454db0","system_id":"levelo_inurba_marseille","lat":43.2718,"lon":5.40994,"is_reserved":false,"is_disabled":false,"rental_uris":{"android":"levelo://app?vid=65f38e5c-38a7-4a68-912b-a1b944454db0","ios":"levelo://app?vid=65f38e5c-38a7-4a68-912b-a1b944454db0"},"vehicle_type_id":"4","last_reported":1730362337,"current_range_meters":35600,"station_id":"ce4bhl12rcd13ifvqgf0","pricing_plan_id":"cebpf4jnsgd1na2vs0mg"},{"bike_id":"e4135fb1-128c-4498-8011-011092115ff6","system_id":"levelo_inurba_marseille","lat":43.29278,"lon":5.40117,"is_reserved":false,"is_disabled":false,"rental_uris":{"android":"levelo://app?vid=e4135fb1-128c-4498-8011-011092115ff6","ios":"levelo://app?vid=e4135fb1-128c-4498-8011-011092115ff6"},"vehicle_type_id":"4","last_reported":1730362337,"current_range_meters":3600,"station_id":"ce4bh312rcd13ifvqdk0","pricing_plan_id":"cebpf4jnsgd1na2vs0mg"},{"bike_id":"5eebf32b-3bf1-4f67-bf6b-c0b6ebd48931","system_id":"levelo_inurba_marseille","lat":43.29549,"lon":5.37533,"is_reserved":false,"is_disabled":false,"rental_uris":{"android":"levelo://app?vid=5eebf32b-3bf1-4f67-bf6b-c0b6ebd48931","ios":"levelo://app?vid=5eebf32b-3bf1-4f67-bf6b-c0b6ebd48931"},"vehicle_type_id":"4","last_reported":1730362337,"current_range_meters":33200,"station_id":"ce4bgh92rcd13ifvqb50","pricing_plan_id":"cebpf4jnsgd1na2vs0mg"},{"bike_id":"7ab2f1bd-7151-4559-9622-b212f0480b3f","system_id":"levelo_inurba_marseille","lat":43.25726,"lon":5.41105,"is_reserved":false,"is_disabled":false,"rental_uris":{"android":"levelo://app?vid=7ab2f1bd-7151-4559-9622-b212f0480b3f","ios":"levelo://app?vid=7ab2f1bd-7151-4559-9622-b212f0480b3f"},"vehicle_type_id":"4","last_reported":1730362337,"current_range_meters":30000,"station_id":"ce4bhkp2rcd13ifvqgd0","pricing_plan_id":"cebpf4jnsgd1na2vs0mg"},{"bike_id":"663d7289-24c9-4ec0-8217-00a97e5c48af","system_id":"levelo_inurba_marseille","lat":43.29038,"lon":5.37562,"is_reserved":false,"is_disabled":false,"rental_uris":{"android":"levelo://app?vid=663d7289-24c9-4ec0-8217-00a97e5c48af","ios":"levelo://app?vid=663d7289-24c9-4ec0-8217-00a97e5c48af"},"vehicle_type_id":"4","last_reported":1730362337,"current_range_meters":34800,"station_id":"ce4bh692rcd13ifvqe90","pricing_plan_id":"cebpf4jnsgd1na2vs0mg"},{"bike_id":"ca42fafc-ec68-46ec-b376-f0ffa70f6fe6","system_id":"levelo_inurba_marseille","lat":43.32653,"lon":5.40996,"is_reserved":false,"is_disabled":false,"rental_uris":{"android":"levelo://app?vid=ca42fafc-ec68-46ec-b376-f0ffa70f6fe6","ios":"levelo://app?vid=ca42fafc-ec68-46ec-b376-f0ffa70f6fe6"},"vehicle_type_id":"4","last_reported":1730362337,"current_range_meters":38800,"station_id":"ce4bhpp2rcd13ifvqhgg","pricing_plan_id":"cebpf4jnsgd1na2vs0mg"},{"bike_id":"42e61598-64ce-4f84-97eb-90c09ebd9abe","system_id":"levelo_inurba_marseille","lat":43.23191,"lon":5.39995,"is_reserved":false,"is_disabled":false,"rental_uris":{"android":"levelo://app?vid=42e61598-64ce-4f84-97eb-90c09ebd9abe","ios":"levelo://app?vid=42e61598-64ce-4f84-97eb-90c09ebd9abe"},"vehicle_type_id":"4","last_reported":1730362337,"current_range_meters":10800,"station_id":"ce4bhn12rcd13ifvqgqg","pricing_plan_id":"cebpf4jnsgd1na2vs0mg"},{"bike_id":"bd1d597a-6cd5-4f41-9039-86c74516aebb","system_id":"levelo_inurba_marseille","lat":43.3236,"lon":5.38885,"is_reserved":false,"is_disabled":false,"rental_uris":{"android":"levelo://app?vid=bd1d597a-6cd5-4f41-9039-86c74516aebb","ios":"levelo://app?vid=bd1d597a-6cd5-4f41-9039-86c74516aebb"},"vehicle_type_id":"4","last_reported":1730362337,"current_range_meters":27600,"station_id":"ce4bhqp2rcd13ifvqhog","pricing_plan_id":"cebpf4jnsgd1na2vs0mg"},{"bike_id":"64dab1a2-9a19-4671-8d0b-fe98cb5d329f","system_id":"levelo_inurba_marseille","lat":43.27997,"lon":5.40017,"is_reserved":false,"is_disabled":false,"rental_uris":{"android":"levelo://app?vid=64dab1a2-9a19-4671-8d0b-fe98cb5d329f","ios":"levelo://app?vid=64dab1a2-9a19-4671-8d0b-fe98cb5d329f"},"vehicle_type_id":"4","last_reported":1730362337,"current_range_meters":37600,"station_id":"ce4bho92rcd13ifvqh4g","pricing_plan_id":"cebpf4jnsgd1na2vs0mg"},{"bike_id":"06c9b00f-da2b-4bac-841c-4dbab79a3a62","system_id":"levelo_inurba_marseille","lat":43.32656,"lon":5.40997,"is_reserved":false,"is_disabled":false,"rental_uris":{"android":"levelo://app?vid=06c9b00f-da2b-4bac-841c-4dbab79a3a62","ios":"levelo://app?vid=06c9b00f-da2b-4bac-841c-4dbab79a3a62"},"vehicle_type_id":"4","last_reported":1730362337,"current_range_meters":28400,"station_id":"ce4bhpp2rcd13ifvqhgg","pricing_plan_id":"cebpf4jnsgd1na2vs0mg"},{"bike_id":"c573c73f-75e4-475a-bcd6-666ce297695e","system_id":"levelo_inurba_marseille","lat":43.23186,"lon":5.3998,"is_reserved":false,"is_disabled":false,"rental_uris":{"android":"levelo://app?vid=c573c73f-75e4-475a-bcd6-666ce297695e","ios":"levelo://app?vid=c573c73f-75e4-475a-bcd6-666ce297695e"},"vehicle_type_id":"4","last_reported":1730362337,"current_range_meters":27200,"station_id":"ce4bhn12rcd13ifvqgqg","pricing_plan_id":"cebpf4jnsgd1na2vs0mg"},{"bike_id":"dd4e7c20-198d-45df-8475-5acb86d9d35a","system_id":"levelo_inurba_marseille","lat":43.31211,"lon":5.36867,"is_reserved":false,"is_disabled":false,"rental_uris":{"android":"levelo://app?vid=dd4e7c20-198d-45df-8475-5acb86d9d35a","ios":"levelo://app?vid=dd4e7c20-198d-45df-8475-5acb86d9d35a"},"vehicle_type_id":"4","last_reported":1730362337,"current_range_meters":38800,"station_id":"ce4bgl92rcd13ifvqbq0","pricing_plan_id":"cebpf4jnsgd1na2vs0mg"},{"bike_id":"a65b7600-bc14-4cb1-bd98-91e0257743b9","system_id":"levelo_inurba_marseille","lat":43.24071,"lon":5.37753,"is_reserved":false,"is_disabled":false,"rental_uris":{"android":"levelo://app?vid=a65b7600-bc14-4cb1-bd98-91e0257743b9","ios":"levelo://app?vid=a65b7600-bc14-4cb1-bd98-91e0257743b9"},"vehicle_type_id":"4","last_reported":1730362337,"current_range_meters":6800,"station_id":"ce4bhnp2rcd13ifvqgvg","pricing_plan_id":"cebpf4jnsgd1na2vs0mg"},{"bike_id":"4b3b8390-599e-4374-a644-4a4f57a51edc","system_id":"levelo_inurba_marseille","lat":43.31213,"lon":5.36844,"is_reserved":false,"is_disabled":false,"rental_uris":{"android":"levelo://app?vid=4b3b8390-599e-4374-a644-4a4f57a51edc","ios":"levelo://app?vid=4b3b8390-599e-4374-a644-4a4f57a51edc"},"vehicle_type_id":"4","last_reported":1730362337,"current_range_meters":33600,"station_id":"ce4bgl92rcd13ifvqbq0","pricing_plan_id":"cebpf4jnsgd1na2vs0mg"},{"bike_id":"1549777b-33eb-4a32-9567-d6c31d0710f5","system_id":"levelo_inurba_marseille","lat":43.3248,"lon":5.36567,"is_reserved":false,"is_disabled":false,"rental_uris":{"android":"levelo://app?vid=1549777b-33eb-4a32-9567-d6c31d0710f5","ios":"levelo://app?vid=1549777b-33eb-4a32-9567-d6c31d0710f5"},"vehicle_type_id":"4","last_reported":1730362337,"current_range_meters":36800,"station_id":"ce4bhs12rcd13ifvqhvg","pricing_plan_id":"cebpf4jnsgd1na2vs0mg"},{"bike_id":"60b71c7c-4918-47ba-8287-329d23746782","system_id":"levelo_inurba_marseille","lat":43.29899,"lon":5.43654,"is_reserved":false,"is_disabled":false,"rental_uris":{"android":"levelo://app?vid=60b71c7c-4918-47ba-8287-329d23746782","ios":"levelo://app?vid=60b71c7c-4918-47ba-8287-329d23746782"},"vehicle_type_id":"4","last_reported":1730362337,"current_range_meters":38000,"station_id":"ce4bhpp2rcd13ifvqhfg","pricing_plan_id":"cebpf4jnsgd1na2vs0mg"},{"bike_id":"3378bdaf-8bf5-4fb4-8699-7579466024df","system_id":"levelo_inurba_marseille","lat":43.25497,"lon":5.37644,"is_reserved":false,"is_disabled":false,"rental_uris":{"android":"levelo://app?vid=3378bdaf-8bf5-4fb4-8699-7579466024df","ios":"levelo://app?vid=3378bdaf-8bf5-4fb4-8699-7579466024df"},"vehicle_type_id":"4","last_reported":1730362337,"current_range_meters":24400,"station_id":"ce4bhh12rcd13ifvqff0","pricing_plan_id":"cebpf4jnsgd1na2vs0mg"},{"bike_id":"7402b7e8-b1f4-4735-bca8-18b131717534","system_id":"levelo_inurba_marseille","lat":43.24388,"lon":5.3705,"is_reserved":false,"is_disabled":false,"rental_uris":{"android":"levelo://app?vid=7402b7e8-b1f4-4735-bca8-18b131717534","ios":"levelo://app?vid=7402b7e8-b1f4-4735-bca8-18b131717534"},"vehicle_type_id":"4","last_reported":1730362337,"current_range_meters":39200,"station_id":"ce4bhhh2rcd13ifvqfk0","pricing_plan_id":"cebpf4jnsgd1na2vs0mg"},{"bike_id":"555b2a7d-3240-43cd-a02b-2f8ec7074aab","system_id":"levelo_inurba_marseille","lat":43.29603,"lon":5.37703,"is_reserved":false,"is_disabled":false,"rental_uris":{"android":"levelo://app?vid=555b2a7d-3240-43cd-a02b-2f8ec7074aab","ios":"levelo://app?vid=555b2a7d-3240-43cd-a02b-2f8ec7074aab"},"vehicle_type_id":"4","last_reported":1730362337,"current_range_meters":38400,"station_id":"ce4bgi92rcd13ifvqb90","pricing_plan_id":"cebpf4jnsgd1na2vs0mg"},{"bike_id":"f37824e9-31ed-4919-b825-9e575822459a","system_id":"levelo_inurba_marseille","lat":43.2904,"lon":5.39969,"is_reserved":false,"is_disabled":false,"rental_uris":{"android":"levelo://app?vid=f37824e9-31ed-4919-b825-9e575822459a","ios":"levelo://app?vid=f37824e9-31ed-4919-b825-9e575822459a"},"vehicle_type_id":"4","last_reported":1730362337,"current_range_meters":33200,"station_id":"ce4bh392rcd13ifvqdm0","pricing_plan_id":"cebpf4jnsgd1na2vs0mg"},{"bike_id":"7d1fe817-f784-45b3-a7f6-2e79abcfa29c","system_id":"levelo_inurba_marseille","lat":43.337444,"lon":5.374475,"is_reserved":false,"is_disabled":false,"rental_uris":{"android":"levelo://app?vid=7d1fe817-f784-45b3-a7f6-2e79abcfa29c","ios":"levelo://app?vid=7d1fe817-f784-45b3-a7f6-2e79abcfa29c"},"vehicle_type_id":"4","last_reported":1730362337,"current_range_meters":35600,"station_id":"","pricing_plan_id":"cebpf4jnsgd1na2vs0mg"},{"bike_id":"e097a33c-2c22-46ab-8ca7-78ef23f95842","system_id":"levelo_inurba_marseille","lat":43.30534,"lon":5.36541,"is_reserved":false,"is_disabled":false,"rental_uris":{"android":"levelo://app?vid=e097a33c-2c22-46ab-8ca7-78ef23f95842","ios":"levelo://app?vid=e097a33c-2c22-46ab-8ca7-78ef23f95842"},"vehicle_type_id":"4","last_reported":1730362337,"current_range_meters":17600,"station_id":"ce4bgs12rcd13ifvqcag","pricing_plan_id":"cebpf4jnsgd1na2vs0mg"},{"bike_id":"c47bc041-f0d2-46d5-9fa7-e1c498cbadb0","system_id":"levelo_inurba_marseille","lat":43.26941,"lon":5.40248,"is_reserved":false,"is_disabled":false,"rental_uris":{"android":"levelo://app?vid=c47bc041-f0d2-46d5-9fa7-e1c498cbadb0","ios":"levelo://app?vid=c47bc041-f0d2-46d5-9fa7-e1c498cbadb0"},"vehicle_type_id":"4","last_reported":1730362337,"current_range_meters":28400,"station_id":"cjm6bp8fraef2m0cb0m0","pricing_plan_id":"cebpf4jnsgd1na2vs0mg"},{"bike_id":"0bf4058a-4237-4752-8b73-c17cbd3821d7","system_id":"levelo_inurba_marseille","lat":43.30196,"lon":5.36623,"is_reserved":false,"is_disabled":false,"rental_uris":{"android":"levelo://app?vid=0bf4058a-4237-4752-8b73-c17cbd3821d7","ios":"levelo://app?vid=0bf4058a-4237-4752-8b73-c17cbd3821d7"},"vehicle_type_id":"4","last_reported":1730362337,"current_range_meters":31200,"station_id":"ce4bgrh2rcd13ifvqc8g","pricing_plan_id":"cebpf4jnsgd1na2vs0mg"},{"bike_id":"689c83af-37e7-4634-a9dc-9628477c7e62","system_id":"levelo_inurba_marseille","lat":43.26496,"lon":5.39539,"is_reserved":false,"is_disabled":false,"rental_uris":{"android":"levelo://app?vid=689c83af-37e7-4634-a9dc-9628477c7e62","ios":"levelo://app?vid=689c83af-37e7-4634-a9dc-9628477c7e62"},"vehicle_type_id":"4","last_reported":1730362337,"current_range_meters":20800,"station_id":"ce4bhi12rcd13ifvqfq0","pricing_plan_id":"cebpf4jnsgd1na2vs0mg"},{"bike_id":"d9756f3c-8cb0-46d7-bc3b-462c65789eef","system_id":"levelo_inurba_marseille","lat":43.308851,"lon":5.396378,"is_reserved":false,"is_disabled":false,"rental_uris":{"android":"levelo://app?vid=d9756f3c-8cb0-46d7-bc3b-462c65789eef","ios":"levelo://app?vid=d9756f3c-8cb0-46d7-bc3b-462c65789eef"},"vehicle_type_id":"4","last_reported":1730362337,"current_range_meters":39200,"station_id":"ce4bh012rcd13ifvqcv0","pricing_plan_id":"cebpf4jnsgd1na2vs0mg"},{"bike_id":"d32d0833-125f-41dd-a5e5-a5e9c67caf51","system_id":"levelo_inurba_marseille","lat":43.29914,"lon":5.37468,"is_reserved":false,"is_disabled":false,"rental_uris":{"android":"levelo://app?vid=d32d0833-125f-41dd-a5e5-a5e9c67caf51","ios":"levelo://app?vid=d32d0833-125f-41dd-a5e5-a5e9c67caf51"},"vehicle_type_id":"4","last_reported":1730362337,"current_range_meters":38400,"station_id":"ce4bgjh2rcd13ifvqbg0","pricing_plan_id":"cebpf4jnsgd1na2vs0mg"},{"bike_id":"723e0b01-6bc5-4130-b1ca-1741cc239d60","system_id":"levelo_inurba_marseille","lat":43.3056,"lon":5.38417,"is_reserved":false,"is_disabled":false,"rental_uris":{"android":"levelo://app?vid=723e0b01-6bc5-4130-b1ca-1741cc239d60","ios":"levelo://app?vid=723e0b01-6bc5-4130-b1ca-1741cc239d60"},"vehicle_type_id":"4","last_reported":1730362337,"current_range_meters":39200,"station_id":"ce4bgg92rcd13ifvqb30","pricing_plan_id":"cebpf4jnsgd1na2vs0mg"},{"bike_id":"3210c7bd-c928-4bd6-bcae-b60c5d106284","system_id":"levelo_inurba_marseille","lat":43.28448,"lon":5.39205,"is_reserved":false,"is_disabled":false,"rental_uris":{"android":"levelo://app?vid=3210c7bd-c928-4bd6-bcae-b60c5d106284","ios":"levelo://app?vid=3210c7bd-c928-4bd6-bcae-b60c5d106284"},"vehicle_type_id":"4","last_reported":1730362337,"current_range_meters":6400,"station_id":"ce4bhoh2rcd13ifvqh5g","pricing_plan_id":"cebpf4jnsgd1na2vs0mg"},{"bike_id":"c2239f0f-2e5a-4e3b-b7d8-c85fc6ae78ac","system_id":"levelo_inurba_marseille","lat":43.31333,"lon":5.36705,"is_reserved":false,"is_disabled":false,"rental_uris":{"android":"levelo://app?vid=c2239f0f-2e5a-4e3b-b7d8-c85fc6ae78ac","ios":"levelo://app?vid=c2239f0f-2e5a-4e3b-b7d8-c85fc6ae78ac"},"vehicle_type_id":"4","last_reported":1730362337,"current_range_meters":25600,"station_id":"ce4bgr92rcd13ifvqc6g","pricing_plan_id":"cebpf4jnsgd1na2vs0mg"},{"bike_id":"92adf987-4779-4b78-ad9c-8e29ab9175f3","system_id":"levelo_inurba_marseille","lat":43.2319,"lon":5.35554,"is_reserved":false,"is_disabled":false,"rental_uris":{"android":"levelo://app?vid=92adf987-4779-4b78-ad9c-8e29ab9175f3","ios":"levelo://app?vid=92adf987-4779-4b78-ad9c-8e29ab9175f3"},"vehicle_type_id":"4","last_reported":1730362337,"current_range_meters":8400,"station_id":"ce4bhu92rcd13ifvqi70","pricing_plan_id":"cebpf4jnsgd1na2vs0mg"},{"bike_id":"0d9e2dc0-7e48-44a4-9d02-16fb20798af5","system_id":"levelo_inurba_marseille","lat":43.23182,"lon":5.39985,"is_reserved":false,"is_disabled":false,"rental_uris":{"android":"levelo://app?vid=0d9e2dc0-7e48-44a4-9d02-16fb20798af5","ios":"levelo://app?vid=0d9e2dc0-7e48-44a4-9d02-16fb20798af5"},"vehicle_type_id":"4","last_reported":1730362337,"current_range_meters":39200,"station_id":"ce4bhn12rcd13ifvqgqg","pricing_plan_id":"cebpf4jnsgd1na2vs0mg"},{"bike_id":"070c162b-8711-4689-82f8-ef565587512e","system_id":"levelo_inurba_marseille","lat":43.24661,"lon":5.38156,"is_reserved":false,"is_disabled":false,"rental_uris":{"android":"levelo://app?vid=070c162b-8711-4689-82f8-ef565587512e","ios":"levelo://app?vid=070c162b-8711-4689-82f8-ef565587512e"},"vehicle_type_id":"4","last_reported":1730362337,"current_range_meters":38000,"station_id":"ce4bhih2rcd13ifvqfr0","pricing_plan_id":"cebpf4jnsgd1na2vs0mg"},{"bike_id":"09cb6800-2f3b-4d5b-bb19-9286a8569287","system_id":"levelo_inurba_marseille","lat":43.29767,"lon":5.37108,"is_reserved":false,"is_disabled":false,"rental_uris":{"android":"levelo://app?vid=09cb6800-2f3b-4d5b-bb19-9286a8569287","ios":"levelo://app?vid=09cb6800-2f3b-4d5b-bb19-9286a8569287"},"vehicle_type_id":"4","last_reported":1730362337,"current_range_meters":26000,"station_id":"ce4bgop2rcd13ifvqc1g","pricing_plan_id":"cebpf4jnsgd1na2vs0mg"},{"bike_id":"cd5e14ba-5d12-4250-adc9-26dfd3912809","system_id":"levelo_inurba_marseille","lat":43.2928,"lon":5.40115,"is_reserved":false,"is_disabled":false,"rental_uris":{"android":"levelo://app?vid=cd5e14ba-5d12-4250-adc9-26dfd3912809","ios":"levelo://app?vid=cd5e14ba-5d12-4250-adc9-26dfd3912809"},"vehicle_type_id":"4","last_reported":1730362337,"current_range_meters":28400,"station_id":"ce4bhnh2rcd13ifvqgug","pricing_plan_id":"cebpf4jnsgd1na2vs0mg"},{"bike_id":"7dfaf496-2e50-463a-a103-b8570a0c6a9a","system_id":"levelo_inurba_marseille","lat":43.24389,"lon":5.37053,"is_reserved":false,"is_disabled":false,"rental_uris":{"android":"levelo://app?vid=7dfaf496-2e50-463a-a103-b8570a0c6a9a","ios":"levelo://app?vid=7dfaf496-2e50-463a-a103-b8570a0c6a9a"},"vehicle_type_id":"4","last_reported":1730362337,"current_range_meters":39200,"station_id":"ce4bhhh2rcd13ifvqfk0","pricing_plan_id":"cebpf4jnsgd1na2vs0mg"},{"bike_id":"4dd6221d-58fd-4727-83d0-eb38bf15d5e4","system_id":"levelo_inurba_marseille","lat":43.29581,"lon":5.37515,"is_reserved":false,"is_disabled":false,"rental_uris":{"android":"levelo://app?vid=4dd6221d-58fd-4727-83d0-eb38bf15d5e4","ios":"levelo://app?vid=4dd6221d-58fd-4727-83d0-eb38bf15d5e4"},"vehicle_type_id":"4","last_reported":1730362337,"current_range_meters":39200,"station_id":"ce4bgrh2rcd13ifvqc8g","pricing_plan_id":"cebpf4jnsgd1na2vs0mg"},{"bike_id":"d03c35fb-1792-400d-a166-aa2c9d3126c6","system_id":"levelo_inurba_marseille","lat":43.31337,"lon":5.36708,"is_reserved":false,"is_disabled":false,"rental_uris":{"android":"levelo://app?vid=d03c35fb-1792-400d-a166-aa2c9d3126c6","ios":"levelo://app?vid=d03c35fb-1792-400d-a166-aa2c9d3126c6"},"vehicle_type_id":"4","last_reported":1730362337,"current_range_meters":22000,"station_id":"ce4bgr92rcd13ifvqc6g","pricing_plan_id":"cebpf4jnsgd1na2vs0mg"},{"bike_id":"e1981257-13d9-4ca8-88d5-098a3facc54d","system_id":"levelo_inurba_marseille","lat":43.22937,"lon":5.35379,"is_reserved":false,"is_disabled":false,"rental_uris":{"android":"levelo://app?vid=e1981257-13d9-4ca8-88d5-098a3facc54d","ios":"levelo://app?vid=e1981257-13d9-4ca8-88d5-098a3facc54d"},"vehicle_type_id":"4","last_reported":1730362337,"current_range_meters":28400,"station_id":"cpo3532slgdg3j2ikp40","pricing_plan_id":"cebpf4jnsgd1na2vs0mg"},{"bike_id":"ec6bf2c6-81ba-4965-828b-92e734ee6e46","system_id":"levelo_inurba_marseille","lat":43.23186,"lon":5.35557,"is_reserved":false,"is_disabled":false,"rental_uris":{"android":"levelo://app?vid=ec6bf2c6-81ba-4965-828b-92e734ee6e46","ios":"levelo://app?vid=ec6bf2c6-81ba-4965-828b-92e734ee6e46"},"vehicle_type_id":"4","last_reported":1730362337,"current_range_meters":25200,"station_id":"ce4bhu92rcd13ifvqi70","pricing_plan_id":"cebpf4jnsgd1na2vs0mg"},{"bike_id":"d67c2a8c-5175-4ec6-a54b-8e643d3e99bf","system_id":"levelo_inurba_marseille","lat":43.27495,"lon":5.42451,"is_reserved":false,"is_disabled":false,"rental_uris":{"android":"levelo://app?vid=d67c2a8c-5175-4ec6-a54b-8e643d3e99bf","ios":"levelo://app?vid=d67c2a8c-5175-4ec6-a54b-8e643d3e99bf"},"vehicle_type_id":"4","last_reported":1730362337,"current_range_meters":38400,"station_id":"ce4bhn92rcd13ifvqgrg","pricing_plan_id":"cebpf4jnsgd1na2vs0mg"},{"bike_id":"7a8c11b5-1fd1-46b2-a450-783f9c461089","system_id":"levelo_inurba_marseille","lat":43.299236,"lon":5.374625,"is_reserved":false,"is_disabled":false,"rental_uris":{"android":"levelo://app?vid=7a8c11b5-1fd1-46b2-a450-783f9c461089","ios":"levelo://app?vid=7a8c11b5-1fd1-46b2-a450-783f9c461089"},"vehicle_type_id":"4","last_reported":1730362337,"current_range_meters":30800,"station_id":"ce4bgjh2rcd13ifvqbg0","pricing_plan_id":"cebpf4jnsgd1na2vs0mg"},{"bike_id":"de965c17-0fea-46be-9be4-3593657f97c6","system_id":"levelo_inurba_marseille","lat":43.26066,"lon":5.39394,"is_reserved":false,"is_disabled":false,"rental_uris":{"android":"levelo://app?vid=de965c17-0fea-46be-9be4-3593657f97c6","ios":"levelo://app?vid=de965c17-0fea-46be-9be4-3593657f97c6"},"vehicle_type_id":"4","last_reported":1730362337,"current_range_meters":25600,"station_id":"ce4bhh92rcd13ifvqfj0","pricing_plan_id":"cebpf4jnsgd1na2vs0mg"},{"bike_id":"6eb7bd44-f33d-4e96-95f4-f3994a575e68","system_id":"levelo_inurba_marseille","lat":43.27171,"lon":5.40994,"is_reserved":false,"is_disabled":false,"rental_uris":{"android":"levelo://app?vid=6eb7bd44-f33d-4e96-95f4-f3994a575e68","ios":"levelo://app?vid=6eb7bd44-f33d-4e96-95f4-f3994a575e68"},"vehicle_type_id":"4","last_reported":1730362337,"current_range_meters":8000,"station_id":"ce4bhl12rcd13ifvqgf0","pricing_plan_id":"cebpf4jnsgd1na2vs0mg"},{"bike_id":"ea167c01-6113-4dc8-be0a-0b280cd8055a","system_id":"levelo_inurba_marseille","lat":43.23958,"lon":5.3662,"is_reserved":false,"is_disabled":false,"rental_uris":{"android":"levelo://app?vid=ea167c01-6113-4dc8-be0a-0b280cd8055a","ios":"levelo://app?vid=ea167c01-6113-4dc8-be0a-0b280cd8055a"},"vehicle_type_id":"4","last_reported":1730362337,"current_range_meters":12800,"station_id":"ce4bhi12rcd13ifvqfp0","pricing_plan_id":"cebpf4jnsgd1na2vs0mg"},{"bike_id":"1da32dc0-a897-402a-b341-e72baba91ef2","system_id":"levelo_inurba_marseille","lat":43.291622,"lon":5.371639,"is_reserved":false,"is_disabled":false,"rental_uris":{"android":"levelo://app?vid=1da32dc0-a897-402a-b341-e72baba91ef2","ios":"levelo://app?vid=1da32dc0-a897-402a-b341-e72baba91ef2"},"vehicle_type_id":"4","last_reported":1730362337,"current_range_meters":10000,"station_id":"ce4bha92rcd13ifvqeh0","pricing_plan_id":"cebpf4jnsgd1na2vs0mg"},{"bike_id":"7a0bc947-7d75-41b5-97b2-28097da79325","system_id":"levelo_inurba_marseille","lat":43.313513,"lon":5.367127,"is_reserved":false,"is_disabled":false,"rental_uris":{"android":"levelo://app?vid=7a0bc947-7d75-41b5-97b2-28097da79325","ios":"levelo://app?vid=7a0bc947-7d75-41b5-97b2-28097da79325"},"vehicle_type_id":"4","last_reported":1730362337,"current_range_meters":11200,"station_id":"ce4bgr92rcd13ifvqc6g","pricing_plan_id":"cebpf4jnsgd1na2vs0mg"},{"bike_id":"08357609-d88b-42bb-b8b9-5fb931a14263","system_id":"levelo_inurba_marseille","lat":43.29708,"lon":5.377,"is_reserved":false,"is_disabled":false,"rental_uris":{"android":"levelo://app?vid=08357609-d88b-42bb-b8b9-5fb931a14263","ios":"levelo://app?vid=08357609-d88b-42bb-b8b9-5fb931a14263"},"vehicle_type_id":"4","last_reported":1730362337,"current_range_meters":14000,"station_id":"ce4bgkh2rcd13ifvqbl0","pricing_plan_id":"cebpf4jnsgd1na2vs0mg"},{"bike_id":"c9a49a0a-1d50-453b-833d-4f68ee000596","system_id":"levelo_inurba_marseille","lat":43.26951,"lon":5.38639,"is_reserved":false,"is_disabled":false,"rental_uris":{"android":"levelo://app?vid=c9a49a0a-1d50-453b-833d-4f68ee000596","ios":"levelo://app?vid=c9a49a0a-1d50-453b-833d-4f68ee000596"},"vehicle_type_id":"4","last_reported":1730362337,"current_range_meters":10000,"station_id":"ce4bhh92rcd13ifvqfh0","pricing_plan_id":"cebpf4jnsgd1na2vs0mg"},{"bike_id":"6a6508a8-9f6b-4810-96a4-0ad7e19de049","system_id":"levelo_inurba_marseille","lat":43.30133,"lon":5.38795,"is_reserved":false,"is_disabled":false,"rental_uris":{"android":"levelo://app?vid=6a6508a8-9f6b-4810-96a4-0ad7e19de049","ios":"levelo://app?vid=6a6508a8-9f6b-4810-96a4-0ad7e19de049"},"vehicle_type_id":"4","last_reported":1730362337,"current_range_meters":38000,"station_id":"ce4bghh2rcd13ifvqb60","pricing_plan_id":"cebpf4jnsgd1na2vs0mg"},{"bike_id":"feb81372-24dc-4260-bcdd-6a2bbf5b6167","system_id":"levelo_inurba_marseille","lat":43.264946,"lon":5.395355,"is_reserved":false,"is_disabled":false,"rental_uris":{"android":"levelo://app?vid=feb81372-24dc-4260-bcdd-6a2bbf5b6167","ios":"levelo://app?vid=feb81372-24dc-4260-bcdd-6a2bbf5b6167"},"vehicle_type_id":"4","last_reported":1730362337,"current_range_meters":28400,"station_id":"ce4bhi12rcd13ifvqfq0","pricing_plan_id":"cebpf4jnsgd1na2vs0mg"},{"bike_id":"014a60cd-d725-46c2-9076-759dd505e218","system_id":"levelo_inurba_marseille","lat":43.28937,"lon":5.39619,"is_reserved":false,"is_disabled":false,"rental_uris":{"android":"levelo://app?vid=014a60cd-d725-46c2-9076-759dd505e218","ios":"levelo://app?vid=014a60cd-d725-46c2-9076-759dd505e218"},"vehicle_type_id":"4","last_reported":1730362337,"current_range_meters":37600,"station_id":"ce4bh3h2rcd13ifvqdn0","pricing_plan_id":"cebpf4jnsgd1na2vs0mg"},{"bike_id":"cc6217b1-a54f-4c01-b0f8-1ae9e75a5121","system_id":"levelo_inurba_marseille","lat":43.29786,"lon":5.37094,"is_reserved":false,"is_disabled":false,"rental_uris":{"android":"levelo://app?vid=cc6217b1-a54f-4c01-b0f8-1ae9e75a5121","ios":"levelo://app?vid=cc6217b1-a54f-4c01-b0f8-1ae9e75a5121"},"vehicle_type_id":"4","last_reported":1730362337,"current_range_meters":20800,"station_id":"ce4bgop2rcd13ifvqc1g","pricing_plan_id":"cebpf4jnsgd1na2vs0mg"},{"bike_id":"2370a04e-d358-4a29-b67a-890bf50b34fd","system_id":"levelo_inurba_marseille","lat":43.24168,"lon":5.364,"is_reserved":false,"is_disabled":false,"rental_uris":{"android":"levelo://app?vid=2370a04e-d358-4a29-b67a-890bf50b34fd","ios":"levelo://app?vid=2370a04e-d358-4a29-b67a-890bf50b34fd"},"vehicle_type_id":"4","last_reported":1730362337,"current_range_meters":38000,"station_id":"cpo36qri1sfpv3e86is0","pricing_plan_id":"cebpf4jnsgd1na2vs0mg"},{"bike_id":"1958ad22-f12f-4926-b7d7-e2ed53459b7c","system_id":"levelo_inurba_marseille","lat":43.241913,"lon":5.396948,"is_reserved":false,"is_disabled":false,"rental_uris":{"android":"levelo://app?vid=1958ad22-f12f-4926-b7d7-e2ed53459b7c","ios":"levelo://app?vid=1958ad22-f12f-4926-b7d7-e2ed53459b7c"},"vehicle_type_id":"4","last_reported":1730362337,"current_range_meters":3200,"station_id":"ce4bhn12rcd13ifvqgpg","pricing_plan_id":"cebpf4jnsgd1na2vs0mg"},{"bike_id":"04a7e763-166e-4987-9ffa-b71b1d2f0cae","system_id":"levelo_inurba_marseille","lat":43.29273,"lon":5.40124,"is_reserved":false,"is_disabled":false,"rental_uris":{"android":"levelo://app?vid=04a7e763-166e-4987-9ffa-b71b1d2f0cae","ios":"levelo://app?vid=04a7e763-166e-4987-9ffa-b71b1d2f0cae"},"vehicle_type_id":"4","last_reported":1730362337,"current_range_meters":34000,"station_id":"ce4bh312rcd13ifvqdk0","pricing_plan_id":"cebpf4jnsgd1na2vs0mg"},{"bike_id":"dae91eeb-9b42-4212-8f6c-fb2f4dbc955a","system_id":"levelo_inurba_marseille","lat":43.30535,"lon":5.36559,"is_reserved":false,"is_disabled":false,"rental_uris":{"android":"levelo://app?vid=dae91eeb-9b42-4212-8f6c-fb2f4dbc955a","ios":"levelo://app?vid=dae91eeb-9b42-4212-8f6c-fb2f4dbc955a"},"vehicle_type_id":"4","last_reported":1730362337,"current_range_meters":30800,"station_id":"ce4bgs12rcd13ifvqcag","pricing_plan_id":"cebpf4jnsgd1na2vs0mg"},{"bike_id":"546f9ccb-7511-4248-967e-654c019ef883","system_id":"levelo_inurba_marseille","lat":43.31168,"lon":5.38741,"is_reserved":false,"is_disabled":false,"rental_uris":{"android":"levelo://app?vid=546f9ccb-7511-4248-967e-654c019ef883","ios":"levelo://app?vid=546f9ccb-7511-4248-967e-654c019ef883"},"vehicle_type_id":"4","last_reported":1730362337,"current_range_meters":36400,"station_id":"ce4bgv12rcd13ifvqcp0","pricing_plan_id":"cebpf4jnsgd1na2vs0mg"},{"bike_id":"221109af-4300-4eeb-88a8-ac84874c15da","system_id":"levelo_inurba_marseille","lat":43.286612,"lon":5.363495,"is_reserved":false,"is_disabled":false,"rental_uris":{"android":"levelo://app?vid=221109af-4300-4eeb-88a8-ac84874c15da","ios":"levelo://app?vid=221109af-4300-4eeb-88a8-ac84874c15da"},"vehicle_type_id":"4","last_reported":1730362337,"current_range_meters":31200,"station_id":"ce4bhah2rcd13ifvqej0","pricing_plan_id":"cebpf4jnsgd1na2vs0mg"},{"bike_id":"2074bf2c-abe6-416b-8ac6-0453ab94f8bf","system_id":"levelo_inurba_marseille","lat":43.30536,"lon":5.36536,"is_reserved":false,"is_disabled":false,"rental_uris":{"android":"levelo://app?vid=2074bf2c-abe6-416b-8ac6-0453ab94f8bf","ios":"levelo://app?vid=2074bf2c-abe6-416b-8ac6-0453ab94f8bf"},"vehicle_type_id":"4","last_reported":1730362337,"current_range_meters":35200,"station_id":"ce4bgs12rcd13ifvqcag","pricing_plan_id":"cebpf4jnsgd1na2vs0mg"},{"bike_id":"168abd29-75d6-4c2d-9224-e49823c14670","system_id":"levelo_inurba_marseille","lat":43.32286,"lon":5.38258,"is_reserved":false,"is_disabled":false,"rental_uris":{"android":"levelo://app?vid=168abd29-75d6-4c2d-9224-e49823c14670","ios":"levelo://app?vid=168abd29-75d6-4c2d-9224-e49823c14670"},"vehicle_type_id":"4","last_reported":1730362337,"current_range_meters":24800,"station_id":"ce4bhr12rcd13ifvqhqg","pricing_plan_id":"cebpf4jnsgd1na2vs0mg"},{"bike_id":"f170cca7-e910-4441-8226-2be979790cf4","system_id":"levelo_inurba_marseille","lat":43.31324,"lon":5.39712,"is_reserved":false,"is_disabled":false,"rental_uris":{"android":"levelo://app?vid=f170cca7-e910-4441-8226-2be979790cf4","ios":"levelo://app?vid=f170cca7-e910-4441-8226-2be979790cf4"},"vehicle_type_id":"4","last_reported":1730362337,"current_range_meters":24400,"station_id":"ce4bgvp2rcd13ifvqcu0","pricing_plan_id":"cebpf4jnsgd1na2vs0mg"},{"bike_id":"b598b506-bfb7-46e1-8127-efc9d45965c7","system_id":"levelo_inurba_marseille","lat":43.30353,"lon":5.41876,"is_reserved":false,"is_disabled":false,"rental_uris":{"android":"levelo://app?vid=b598b506-bfb7-46e1-8127-efc9d45965c7","ios":"levelo://app?vid=b598b506-bfb7-46e1-8127-efc9d45965c7"},"vehicle_type_id":"4","last_reported":1730362337,"current_range_meters":38800,"station_id":"ce4bhop2rcd13ifvqh7g","pricing_plan_id":"cebpf4jnsgd1na2vs0mg"},{"bike_id":"599f087a-0d72-4a42-a196-c89c14e1947a","system_id":"levelo_inurba_marseille","lat":43.3117,"lon":5.38708,"is_reserved":false,"is_disabled":false,"rental_uris":{"android":"levelo://app?vid=599f087a-0d72-4a42-a196-c89c14e1947a","ios":"levelo://app?vid=599f087a-0d72-4a42-a196-c89c14e1947a"},"vehicle_type_id":"4","last_reported":1730362337,"current_range_meters":38800,"station_id":"ce4bgv12rcd13ifvqcp0","pricing_plan_id":"cebpf4jnsgd1na2vs0mg"},{"bike_id":"afb21f3b-5449-401d-ad02-ea13874a1d43","system_id":"levelo_inurba_marseille","lat":43.2679,"lon":5.39406,"is_reserved":false,"is_disabled":false,"rental_uris":{"android":"levelo://app?vid=afb21f3b-5449-401d-ad02-ea13874a1d43","ios":"levelo://app?vid=afb21f3b-5449-401d-ad02-ea13874a1d43"},"vehicle_type_id":"4","last_reported":1730362337,"current_range_meters":38000,"station_id":"ce4bhh12rcd13ifvqfg0","pricing_plan_id":"cebpf4jnsgd1na2vs0mg"},{"bike_id":"7e8c9aae-6e99-4e12-870a-c8665e5dc26c","system_id":"levelo_inurba_marseille","lat":43.3189,"lon":5.4073,"is_reserved":false,"is_disabled":false,"rental_uris":{"android":"levelo://app?vid=7e8c9aae-6e99-4e12-870a-c8665e5dc26c","ios":"levelo://app?vid=7e8c9aae-6e99-4e12-870a-c8665e5dc26c"},"vehicle_type_id":"4","last_reported":1730362337,"current_range_meters":35600,"station_id":"ce4bhq12rcd13ifvqhig","pricing_plan_id":"cebpf4jnsgd1na2vs0mg"},{"bike_id":"5266335c-fb51-4166-a0ab-8099a4c09e4b","system_id":"levelo_inurba_marseille","lat":43.32287,"lon":5.38276,"is_reserved":false,"is_disabled":false,"rental_uris":{"android":"levelo://app?vid=5266335c-fb51-4166-a0ab-8099a4c09e4b","ios":"levelo://app?vid=5266335c-fb51-4166-a0ab-8099a4c09e4b"},"vehicle_type_id":"4","last_reported":1730362337,"current_range_meters":38000,"station_id":"ce4bhr12rcd13ifvqhqg","pricing_plan_id":"cebpf4jnsgd1na2vs0mg"},{"bike_id":"9d3de218-82a9-40c0-95a9-e5e5d318bf6f","system_id":"levelo_inurba_marseille","lat":43.32332,"lon":5.40624,"is_reserved":false,"is_disabled":false,"rental_uris":{"android":"levelo://app?vid=9d3de218-82a9-40c0-95a9-e5e5d318bf6f","ios":"levelo://app?vid=9d3de218-82a9-40c0-95a9-e5e5d318bf6f"},"vehicle_type_id":"4","last_reported":1730362337,"current_range_meters":39200,"station_id":"ce4bhq92rcd13ifvqhjg","pricing_plan_id":"cebpf4jnsgd1na2vs0mg"},{"bike_id":"57d352ad-813a-4158-a3f7-ff1a8ddf0cc5","system_id":"levelo_inurba_marseille","lat":43.2668,"lon":5.38272,"is_reserved":false,"is_disabled":false,"rental_uris":{"android":"levelo://app?vid=57d352ad-813a-4158-a3f7-ff1a8ddf0cc5","ios":"levelo://app?vid=57d352ad-813a-4158-a3f7-ff1a8ddf0cc5"},"vehicle_type_id":"4","last_reported":1730362337,"current_range_meters":25600,"station_id":"ce4bhg92rcd13ifvqf90","pricing_plan_id":"cebpf4jnsgd1na2vs0mg"},{"bike_id":"8547d5b8-6846-4db8-a0d1-41af48fdc868","system_id":"levelo_inurba_marseille","lat":43.26947,"lon":5.38631,"is_reserved":false,"is_disabled":false,"rental_uris":{"android":"levelo://app?vid=8547d5b8-6846-4db8-a0d1-41af48fdc868","ios":"levelo://app?vid=8547d5b8-6846-4db8-a0d1-41af48fdc868"},"vehicle_type_id":"4","last_reported":1730362337,"current_range_meters":36400,"station_id":"ce4bhh92rcd13ifvqfh0","pricing_plan_id":"cebpf4jnsgd1na2vs0mg"},{"bike_id":"5c8a3d27-90bf-489f-9d69-22f7a10082dd","system_id":"levelo_inurba_marseille","lat":43.32471,"lon":5.36579,"is_reserved":false,"is_disabled":false,"rental_uris":{"android":"levelo://app?vid=5c8a3d27-90bf-489f-9d69-22f7a10082dd","ios":"levelo://app?vid=5c8a3d27-90bf-489f-9d69-22f7a10082dd"},"vehicle_type_id":"4","last_reported":1730362337,"current_range_meters":36400,"station_id":"ce4bhs12rcd13ifvqhvg","pricing_plan_id":"cebpf4jnsgd1na2vs0mg"},{"bike_id":"f13da5c6-fe3d-40a5-ae0b-3d1c747e437a","system_id":"levelo_inurba_marseille","lat":43.29553,"lon":5.4228,"is_reserved":false,"is_disabled":false,"rental_uris":{"android":"levelo://app?vid=f13da5c6-fe3d-40a5-ae0b-3d1c747e437a","ios":"levelo://app?vid=f13da5c6-fe3d-40a5-ae0b-3d1c747e437a"},"vehicle_type_id":"4","last_reported":1730362337,"current_range_meters":38800,"station_id":"ce4bhph2rcd13ifvqhdg","pricing_plan_id":"cebpf4jnsgd1na2vs0mg"},{"bike_id":"7697d30c-c810-4d07-a0b8-274137f4cee2","system_id":"levelo_inurba_marseille","lat":43.29631,"lon":5.40597,"is_reserved":false,"is_disabled":false,"rental_uris":{"android":"levelo://app?vid=7697d30c-c810-4d07-a0b8-274137f4cee2","ios":"levelo://app?vid=7697d30c-c810-4d07-a0b8-274137f4cee2"},"vehicle_type_id":"4","last_reported":1730362337,"current_range_meters":14800,"station_id":"ce4bh0h2rcd13ifvqd60","pricing_plan_id":"cebpf4jnsgd1na2vs0mg"},{"bike_id":"cc0e4508-e6af-46d0-8d0e-7d98d9e9d8d3","system_id":"levelo_inurba_marseille","lat":43.314909,"lon":5.37305,"is_reserved":false,"is_disabled":false,"rental_uris":{"android":"levelo://app?vid=cc0e4508-e6af-46d0-8d0e-7d98d9e9d8d3","ios":"levelo://app?vid=cc0e4508-e6af-46d0-8d0e-7d98d9e9d8d3"},"vehicle_type_id":"4","last_reported":1730362337,"current_range_meters":32000,"station_id":"ce4bgt12rcd13ifvqcd0","pricing_plan_id":"cebpf4jnsgd1na2vs0mg"},{"bike_id":"53facf4a-a53f-4009-81d5-6390ac637137","system_id":"levelo_inurba_marseille","lat":43.3248,"lon":5.36551,"is_reserved":false,"is_disabled":false,"rental_uris":{"android":"levelo://app?vid=53facf4a-a53f-4009-81d5-6390ac637137","ios":"levelo://app?vid=53facf4a-a53f-4009-81d5-6390ac637137"},"vehicle_type_id":"4","last_reported":1730362337,"current_range_meters":38400,"station_id":"ce4bhs12rcd13ifvqhvg","pricing_plan_id":"cebpf4jnsgd1na2vs0mg"},{"bike_id":"bb5e11b9-de90-4ada-a4c5-63111ecbb490","system_id":"levelo_inurba_marseille","lat":43.298197,"lon":5.362451,"is_reserved":false,"is_disabled":false,"rental_uris":{"android":"levelo://app?vid=bb5e11b9-de90-4ada-a4c5-63111ecbb490","ios":"levelo://app?vid=bb5e11b9-de90-4ada-a4c5-63111ecbb490"},"vehicle_type_id":"4","last_reported":1730362337,"current_range_meters":32400,"station_id":"ce4bgpp2rcd13ifvqc3g","pricing_plan_id":"cebpf4jnsgd1na2vs0mg"},{"bike_id":"2f986fee-bfda-40ad-85c3-d385265561cf","system_id":"levelo_inurba_marseille","lat":43.24187,"lon":5.39734,"is_reserved":false,"is_disabled":false,"rental_uris":{"android":"levelo://app?vid=2f986fee-bfda-40ad-85c3-d385265561cf","ios":"levelo://app?vid=2f986fee-bfda-40ad-85c3-d385265561cf"},"vehicle_type_id":"4","last_reported":1730362337,"current_range_meters":39200,"station_id":"ce4bhn12rcd13ifvqgpg","pricing_plan_id":"cebpf4jnsgd1na2vs0mg"},{"bike_id":"860d8f1d-e27b-4bf3-826f-4f426df5a901","system_id":"levelo_inurba_marseille","lat":43.27615,"lon":5.36112,"is_reserved":false,"is_disabled":false,"rental_uris":{"android":"levelo://app?vid=860d8f1d-e27b-4bf3-826f-4f426df5a901","ios":"levelo://app?vid=860d8f1d-e27b-4bf3-826f-4f426df5a901"},"vehicle_type_id":"4","last_reported":1730362337,"current_range_meters":22800,"station_id":"ce4bgj92rcd13ifvqbe0","pricing_plan_id":"cebpf4jnsgd1na2vs0mg"},{"bike_id":"67b75dc5-76e9-47e8-9f50-b697c520c036","system_id":"levelo_inurba_marseille","lat":43.24667,"lon":5.38155,"is_reserved":false,"is_disabled":false,"rental_uris":{"android":"levelo://app?vid=67b75dc5-76e9-47e8-9f50-b697c520c036","ios":"levelo://app?vid=67b75dc5-76e9-47e8-9f50-b697c520c036"},"vehicle_type_id":"4","last_reported":1730362337,"current_range_meters":35600,"station_id":"ce4bhih2rcd13ifvqfr0","pricing_plan_id":"cebpf4jnsgd1na2vs0mg"},{"bike_id":"93ace286-6034-4635-9877-01f81adae12d","system_id":"levelo_inurba_marseille","lat":43.30943,"lon":5.39045,"is_reserved":false,"is_disabled":false,"rental_uris":{"android":"levelo://app?vid=93ace286-6034-4635-9877-01f81adae12d","ios":"levelo://app?vid=93ace286-6034-4635-9877-01f81adae12d"},"vehicle_type_id":"4","last_reported":1730362337,"current_range_meters":30800,"station_id":"ce4bgup2rcd13ifvqco0","pricing_plan_id":"cebpf4jnsgd1na2vs0mg"},{"bike_id":"ecf118ca-4185-452f-9020-81d1f189f592","system_id":"levelo_inurba_marseille","lat":43.30772,"lon":5.37665,"is_reserved":false,"is_disabled":false,"rental_uris":{"android":"levelo://app?vid=ecf118ca-4185-452f-9020-81d1f189f592","ios":"levelo://app?vid=ecf118ca-4185-452f-9020-81d1f189f592"},"vehicle_type_id":"4","last_reported":1730362337,"current_range_meters":24800,"station_id":"ce4bgv92rcd13ifvqcq0","pricing_plan_id":"cebpf4jnsgd1na2vs0mg"},{"bike_id":"daf909ff-b76e-448a-8ba4-6dd8959a4394","system_id":"levelo_inurba_marseille","lat":43.2977,"lon":5.37112,"is_reserved":false,"is_disabled":false,"rental_uris":{"android":"levelo://app?vid=daf909ff-b76e-448a-8ba4-6dd8959a4394","ios":"levelo://app?vid=daf909ff-b76e-448a-8ba4-6dd8959a4394"},"vehicle_type_id":"4","last_reported":1730362337,"current_range_meters":10000,"station_id":"ce4bgop2rcd13ifvqc1g","pricing_plan_id":"cebpf4jnsgd1na2vs0mg"},{"bike_id":"05cc26ad-c696-4013-afc6-a085e20687ef","system_id":"levelo_inurba_marseille","lat":43.28078,"lon":5.3966,"is_reserved":false,"is_disabled":false,"rental_uris":{"android":"levelo://app?vid=05cc26ad-c696-4013-afc6-a085e20687ef","ios":"levelo://app?vid=05cc26ad-c696-4013-afc6-a085e20687ef"},"vehicle_type_id":"4","last_reported":1730362337,"current_range_meters":38000,"station_id":"ce4bho12rcd13ifvqh2g","pricing_plan_id":"cebpf4jnsgd1na2vs0mg"},{"bike_id":"baae2461-dd1f-4fc6-a5eb-38669ae7257a","system_id":"levelo_inurba_marseille","lat":43.31344,"lon":5.36727,"is_reserved":false,"is_disabled":false,"rental_uris":{"android":"levelo://app?vid=baae2461-dd1f-4fc6-a5eb-38669ae7257a","ios":"levelo://app?vid=baae2461-dd1f-4fc6-a5eb-38669ae7257a"},"vehicle_type_id":"4","last_reported":1730362337,"current_range_meters":30400,"station_id":"ce4bgr92rcd13ifvqc6g","pricing_plan_id":"cebpf4jnsgd1na2vs0mg"},{"bike_id":"28d1366c-c20a-4401-b730-03faffc2064a","system_id":"levelo_inurba_marseille","lat":43.29036,"lon":5.39971,"is_reserved":false,"is_disabled":false,"rental_uris":{"android":"levelo://app?vid=28d1366c-c20a-4401-b730-03faffc2064a","ios":"levelo://app?vid=28d1366c-c20a-4401-b730-03faffc2064a"},"vehicle_type_id":"4","last_reported":1730362337,"current_range_meters":36000,"station_id":"ce4bh392rcd13ifvqdm0","pricing_plan_id":"cebpf4jnsgd1na2vs0mg"},{"bike_id":"672245d2-354a-4038-9bd5-2aebc544d3d2","system_id":"levelo_inurba_marseille","lat":43.29277,"lon":5.40132,"is_reserved":false,"is_disabled":false,"rental_uris":{"android":"levelo://app?vid=672245d2-354a-4038-9bd5-2aebc544d3d2","ios":"levelo://app?vid=672245d2-354a-4038-9bd5-2aebc544d3d2"},"vehicle_type_id":"4","last_reported":1730362337,"current_range_meters":38800,"station_id":"ce4bh312rcd13ifvqdk0","pricing_plan_id":"cebpf4jnsgd1na2vs0mg"},{"bike_id":"58588f98-d979-4a89-a14d-d0d4a329cc8e","system_id":"levelo_inurba_marseille","lat":43.26806,"lon":5.4026,"is_reserved":false,"is_disabled":false,"rental_uris":{"android":"levelo://app?vid=58588f98-d979-4a89-a14d-d0d4a329cc8e","ios":"levelo://app?vid=58588f98-d979-4a89-a14d-d0d4a329cc8e"},"vehicle_type_id":"4","last_reported":1730362337,"current_range_meters":38000,"station_id":"ce501612rcd8frsf0b60","pricing_plan_id":"cebpf4jnsgd1na2vs0mg"},{"bike_id":"6a0f5fa6-b3e4-4a53-be40-64d2313f88ad","system_id":"levelo_inurba_marseille","lat":43.29041,"lon":5.39964,"is_reserved":false,"is_disabled":false,"rental_uris":{"android":"levelo://app?vid=6a0f5fa6-b3e4-4a53-be40-64d2313f88ad","ios":"levelo://app?vid=6a0f5fa6-b3e4-4a53-be40-64d2313f88ad"},"vehicle_type_id":"4","last_reported":1730362337,"current_range_meters":25600,"station_id":"ce4bh392rcd13ifvqdm0","pricing_plan_id":"cebpf4jnsgd1na2vs0mg"},{"bike_id":"5ff74640-5d39-40f8-808a-e5695df59fd4","system_id":"levelo_inurba_marseille","lat":43.27185,"lon":5.41018,"is_reserved":false,"is_disabled":false,"rental_uris":{"android":"levelo://app?vid=5ff74640-5d39-40f8-808a-e5695df59fd4","ios":"levelo://app?vid=5ff74640-5d39-40f8-808a-e5695df59fd4"},"vehicle_type_id":"4","last_reported":1730362337,"current_range_meters":8400,"station_id":"ce4bhl12rcd13ifvqgf0","pricing_plan_id":"cebpf4jnsgd1na2vs0mg"},{"bike_id":"84e2b042-2c79-4878-a2d2-5d6cd154cfca","system_id":"levelo_inurba_marseille","lat":43.28422,"lon":5.34978,"is_reserved":false,"is_disabled":false,"rental_uris":{"android":"levelo://app?vid=84e2b042-2c79-4878-a2d2-5d6cd154cfca","ios":"levelo://app?vid=84e2b042-2c79-4878-a2d2-5d6cd154cfca"},"vehicle_type_id":"4","last_reported":1730362337,"current_range_meters":12800,"station_id":"ce4bhbh2rcd13ifvqepg","pricing_plan_id":"cebpf4jnsgd1na2vs0mg"},{"bike_id":"d4829a7e-16fe-4e76-9a47-d409e1283694","system_id":"levelo_inurba_marseille","lat":43.2572,"lon":5.41115,"is_reserved":false,"is_disabled":false,"rental_uris":{"android":"levelo://app?vid=d4829a7e-16fe-4e76-9a47-d409e1283694","ios":"levelo://app?vid=d4829a7e-16fe-4e76-9a47-d409e1283694"},"vehicle_type_id":"4","last_reported":1730362337,"current_range_meters":20400,"station_id":"ce4bhkp2rcd13ifvqgd0","pricing_plan_id":"cebpf4jnsgd1na2vs0mg"},{"bike_id":"b9ef87cb-7521-4035-8177-31a394342a45","system_id":"levelo_inurba_marseille","lat":43.29139,"lon":5.36682,"is_reserved":false,"is_disabled":false,"rental_uris":{"android":"levelo://app?vid=b9ef87cb-7521-4035-8177-31a394342a45","ios":"levelo://app?vid=b9ef87cb-7521-4035-8177-31a394342a45"},"vehicle_type_id":"4","last_reported":1730362337,"current_range_meters":27200,"station_id":"","pricing_plan_id":"cebpf4jnsgd1na2vs0mg"},{"bike_id":"c625e662-171c-48bb-8deb-4d880bea6bb1","system_id":"levelo_inurba_marseille","lat":43.26495,"lon":5.39538,"is_reserved":false,"is_disabled":false,"rental_uris":{"android":"levelo://app?vid=c625e662-171c-48bb-8deb-4d880bea6bb1","ios":"levelo://app?vid=c625e662-171c-48bb-8deb-4d880bea6bb1"},"vehicle_type_id":"4","last_reported":1730362337,"current_range_meters":38800,"station_id":"ce4bhi12rcd13ifvqfq0","pricing_plan_id":"cebpf4jnsgd1na2vs0mg"},{"bike_id":"d3144195-5738-4842-a23f-c22e2860827e","system_id":"levelo_inurba_marseille","lat":43.28151,"lon":5.42643,"is_reserved":false,"is_disabled":false,"rental_uris":{"android":"levelo://app?vid=d3144195-5738-4842-a23f-c22e2860827e","ios":"levelo://app?vid=d3144195-5738-4842-a23f-c22e2860827e"},"vehicle_type_id":"4","last_reported":1730362337,"current_range_meters":20400,"station_id":"ce4bhnh2rcd13ifvqgug","pricing_plan_id":"cebpf4jnsgd1na2vs0mg"},{"bike_id":"8174d648-eff1-41d4-b5d8-7b28c7c08b17","system_id":"levelo_inurba_marseille","lat":43.26947,"lon":5.38626,"is_reserved":false,"is_disabled":false,"rental_uris":{"android":"levelo://app?vid=8174d648-eff1-41d4-b5d8-7b28c7c08b17","ios":"levelo://app?vid=8174d648-eff1-41d4-b5d8-7b28c7c08b17"},"vehicle_type_id":"4","last_reported":1730362337,"current_range_meters":20400,"station_id":"ce4bhh92rcd13ifvqfh0","pricing_plan_id":"cebpf4jnsgd1na2vs0mg"},{"bike_id":"eb1c85b5-9dca-4766-9212-a1d68ad0acad","system_id":"levelo_inurba_marseille","lat":43.255802,"lon":5.382353,"is_reserved":false,"is_disabled":false,"rental_uris":{"android":"levelo://app?vid=eb1c85b5-9dca-4766-9212-a1d68ad0acad","ios":"levelo://app?vid=eb1c85b5-9dca-4766-9212-a1d68ad0acad"},"vehicle_type_id":"4","last_reported":1730362337,"current_range_meters":34000,"station_id":"cjm6bp8fraef2m0cb0m0","pricing_plan_id":"cebpf4jnsgd1na2vs0mg"},{"bike_id":"8a07f8d7-b2c1-4bce-a7c1-cda18ff08934","system_id":"levelo_inurba_marseille","lat":43.294922,"lon":5.375297,"is_reserved":false,"is_disabled":false,"rental_uris":{"android":"levelo://app?vid=8a07f8d7-b2c1-4bce-a7c1-cda18ff08934","ios":"levelo://app?vid=8a07f8d7-b2c1-4bce-a7c1-cda18ff08934"},"vehicle_type_id":"4","last_reported":1730362337,"current_range_meters":35600,"station_id":"ce4bgkp2rcd13ifvqbmg","pricing_plan_id":"cebpf4jnsgd1na2vs0mg"},{"bike_id":"62e9561e-ad05-4f0e-b75e-5d2e36048b40","system_id":"levelo_inurba_marseille","lat":43.31711,"lon":5.43698,"is_reserved":false,"is_disabled":false,"rental_uris":{"android":"levelo://app?vid=62e9561e-ad05-4f0e-b75e-5d2e36048b40","ios":"levelo://app?vid=62e9561e-ad05-4f0e-b75e-5d2e36048b40"},"vehicle_type_id":"4","last_reported":1730362337,"current_range_meters":38000,"station_id":"ce4bhp92rcd13ifvqhcg","pricing_plan_id":"cebpf4jnsgd1na2vs0mg"},{"bike_id":"8aacafcb-8a19-4596-9f56-4094e4f5ba1c","system_id":"levelo_inurba_marseille","lat":43.29773,"lon":5.37095,"is_reserved":false,"is_disabled":false,"rental_uris":{"android":"levelo://app?vid=8aacafcb-8a19-4596-9f56-4094e4f5ba1c","ios":"levelo://app?vid=8aacafcb-8a19-4596-9f56-4094e4f5ba1c"},"vehicle_type_id":"4","last_reported":1730362337,"current_range_meters":36800,"station_id":"ce4bgop2rcd13ifvqc1g","pricing_plan_id":"cebpf4jnsgd1na2vs0mg"},{"bike_id":"3998c2d7-91a5-4d44-9a9a-9052ff445560","system_id":"levelo_inurba_marseille","lat":43.30583,"lon":5.36524,"is_reserved":false,"is_disabled":false,"rental_uris":{"android":"levelo://app?vid=3998c2d7-91a5-4d44-9a9a-9052ff445560","ios":"levelo://app?vid=3998c2d7-91a5-4d44-9a9a-9052ff445560"},"vehicle_type_id":"4","last_reported":1730362337,"current_range_meters":18000,"station_id":"ce4bgs12rcd13ifvqcag","pricing_plan_id":"cebpf4jnsgd1na2vs0mg"},{"bike_id":"cc43bf4d-496d-47ec-aa99-164bc1536ac8","system_id":"levelo_inurba_marseille","lat":43.2499,"lon":5.38936,"is_reserved":false,"is_disabled":false,"rental_uris":{"android":"levelo://app?vid=cc43bf4d-496d-47ec-aa99-164bc1536ac8","ios":"levelo://app?vid=cc43bf4d-496d-47ec-aa99-164bc1536ac8"},"vehicle_type_id":"4","last_reported":1730362337,"current_range_meters":34000,"station_id":"ce4bhgp2rcd13ifvqfd0","pricing_plan_id":"cebpf4jnsgd1na2vs0mg"},{"bike_id":"5e3e5e15-a26a-4370-a4d7-22b0461d60e4","system_id":"levelo_inurba_marseille","lat":43.31997,"lon":5.38147,"is_reserved":false,"is_disabled":false,"rental_uris":{"android":"levelo://app?vid=5e3e5e15-a26a-4370-a4d7-22b0461d60e4","ios":"levelo://app?vid=5e3e5e15-a26a-4370-a4d7-22b0461d60e4"},"vehicle_type_id":"4","last_reported":1730362337,"current_range_meters":40000,"station_id":"ce4bhr12rcd13ifvqhpg","pricing_plan_id":"cebpf4jnsgd1na2vs0mg"},{"bike_id":"067ec41c-8b09-4c04-a4ee-0b8bbd269bd5","system_id":"levelo_inurba_marseille","lat":43.25493,"lon":5.37652,"is_reserved":false,"is_disabled":false,"rental_uris":{"android":"levelo://app?vid=067ec41c-8b09-4c04-a4ee-0b8bbd269bd5","ios":"levelo://app?vid=067ec41c-8b09-4c04-a4ee-0b8bbd269bd5"},"vehicle_type_id":"4","last_reported":1730362337,"current_range_meters":38800,"station_id":"ce4bhh12rcd13ifvqff0","pricing_plan_id":"cebpf4jnsgd1na2vs0mg"},{"bike_id":"3271d7f6-0f65-475f-8b65-c5efde785335","system_id":"levelo_inurba_marseille","lat":43.23191,"lon":5.35552,"is_reserved":false,"is_disabled":false,"rental_uris":{"android":"levelo://app?vid=3271d7f6-0f65-475f-8b65-c5efde785335","ios":"levelo://app?vid=3271d7f6-0f65-475f-8b65-c5efde785335"},"vehicle_type_id":"4","last_reported":1730362337,"current_range_meters":36400,"station_id":"ce4bhu92rcd13ifvqi70","pricing_plan_id":"cebpf4jnsgd1na2vs0mg"},{"bike_id":"477bd4a0-15ea-4fb7-8fa3-544983b9d7ca","system_id":"levelo_inurba_marseille","lat":43.32331,"lon":5.40617,"is_reserved":false,"is_disabled":false,"rental_uris":{"android":"levelo://app?vid=477bd4a0-15ea-4fb7-8fa3-544983b9d7ca","ios":"levelo://app?vid=477bd4a0-15ea-4fb7-8fa3-544983b9d7ca"},"vehicle_type_id":"4","last_reported":1730362337,"current_range_meters":37600,"station_id":"ce4bhq92rcd13ifvqhjg","pricing_plan_id":"cebpf4jnsgd1na2vs0mg"},{"bike_id":"653c425c-e6c0-4b47-bce6-7f81508e12ee","system_id":"levelo_inurba_marseille","lat":43.23954,"lon":5.36634,"is_reserved":false,"is_disabled":false,"rental_uris":{"android":"levelo://app?vid=653c425c-e6c0-4b47-bce6-7f81508e12ee","ios":"levelo://app?vid=653c425c-e6c0-4b47-bce6-7f81508e12ee"},"vehicle_type_id":"4","last_reported":1730362337,"current_range_meters":20800,"station_id":"ce4bhi12rcd13ifvqfp0","pricing_plan_id":"cebpf4jnsgd1na2vs0mg"},{"bike_id":"715917a5-6de3-47ae-ad38-5276848fea5e","system_id":"levelo_inurba_marseille","lat":43.30916,"lon":5.40145,"is_reserved":false,"is_disabled":false,"rental_uris":{"android":"levelo://app?vid=715917a5-6de3-47ae-ad38-5276848fea5e","ios":"levelo://app?vid=715917a5-6de3-47ae-ad38-5276848fea5e"},"vehicle_type_id":"4","last_reported":1730362337,"current_range_meters":36800,"station_id":"ce4bgvp2rcd13ifvqct0","pricing_plan_id":"cebpf4jnsgd1na2vs0mg"},{"bike_id":"f99547b6-e0b7-4a86-b4bb-f600f8ca5cb2","system_id":"levelo_inurba_marseille","lat":43.24168,"lon":5.36401,"is_reserved":false,"is_disabled":false,"rental_uris":{"android":"levelo://app?vid=f99547b6-e0b7-4a86-b4bb-f600f8ca5cb2","ios":"levelo://app?vid=f99547b6-e0b7-4a86-b4bb-f600f8ca5cb2"},"vehicle_type_id":"4","last_reported":1730362337,"current_range_meters":11600,"station_id":"cpo36qri1sfpv3e86is0","pricing_plan_id":"cebpf4jnsgd1na2vs0mg"},{"bike_id":"e102b7c5-a4ed-4645-b11f-4d05e39a0ce4","system_id":"levelo_inurba_marseille","lat":43.32369,"lon":5.3889,"is_reserved":false,"is_disabled":false,"rental_uris":{"android":"levelo://app?vid=e102b7c5-a4ed-4645-b11f-4d05e39a0ce4","ios":"levelo://app?vid=e102b7c5-a4ed-4645-b11f-4d05e39a0ce4"},"vehicle_type_id":"4","last_reported":1730362337,"current_range_meters":20000,"station_id":"ce4bhqp2rcd13ifvqhog","pricing_plan_id":"cebpf4jnsgd1na2vs0mg"},{"bike_id":"80092705-4989-4e56-ac2b-d582d70f3c41","system_id":"levelo_inurba_marseille","lat":43.30775,"lon":5.37655,"is_reserved":false,"is_disabled":false,"rental_uris":{"android":"levelo://app?vid=80092705-4989-4e56-ac2b-d582d70f3c41","ios":"levelo://app?vid=80092705-4989-4e56-ac2b-d582d70f3c41"},"vehicle_type_id":"4","last_reported":1730362337,"current_range_meters":20000,"station_id":"ce4bgv92rcd13ifvqcq0","pricing_plan_id":"cebpf4jnsgd1na2vs0mg"},{"bike_id":"16fbc739-344e-44c8-a2dd-1303bdf6f153","system_id":"levelo_inurba_marseille","lat":43.28609,"lon":5.35542,"is_reserved":false,"is_disabled":false,"rental_uris":{"android":"levelo://app?vid=16fbc739-344e-44c8-a2dd-1303bdf6f153","ios":"levelo://app?vid=16fbc739-344e-44c8-a2dd-1303bdf6f153"},"vehicle_type_id":"4","last_reported":1730362337,"current_range_meters":12400,"station_id":"","pricing_plan_id":"cebpf4jnsgd1na2vs0mg"},{"bike_id":"9184f106-990f-439b-ab9f-d6ad1438786c","system_id":"levelo_inurba_marseille","lat":43.25088,"lon":5.39528,"is_reserved":false,"is_disabled":false,"rental_uris":{"android":"levelo://app?vid=9184f106-990f-439b-ab9f-d6ad1438786c","ios":"levelo://app?vid=9184f106-990f-439b-ab9f-d6ad1438786c"},"vehicle_type_id":"4","last_reported":1730362337,"current_range_meters":28000,"station_id":"ce4bhm12rcd13ifvqgkg","pricing_plan_id":"cebpf4jnsgd1na2vs0mg"},{"bike_id":"afc8a59e-718c-432c-b226-d6be0903e5fb","system_id":"levelo_inurba_marseille","lat":43.24389,"lon":5.37061,"is_reserved":false,"is_disabled":false,"rental_uris":{"android":"levelo://app?vid=afc8a59e-718c-432c-b226-d6be0903e5fb","ios":"levelo://app?vid=afc8a59e-718c-432c-b226-d6be0903e5fb"},"vehicle_type_id":"4","last_reported":1730362337,"current_range_meters":28800,"station_id":"ce4bhhh2rcd13ifvqfk0","pricing_plan_id":"cebpf4jnsgd1na2vs0mg"},{"bike_id":"faebc9c2-fb60-41ec-ba56-ad4409ec8321","system_id":"levelo_inurba_marseille","lat":43.27421,"lon":5.39414,"is_reserved":false,"is_disabled":false,"rental_uris":{"android":"levelo://app?vid=faebc9c2-fb60-41ec-ba56-ad4409ec8321","ios":"levelo://app?vid=faebc9c2-fb60-41ec-ba56-ad4409ec8321"},"vehicle_type_id":"4","last_reported":1730362337,"current_range_meters":31200,"station_id":"ce4bhdp2rcd13ifvqf20","pricing_plan_id":"cebpf4jnsgd1na2vs0mg"},{"bike_id":"72e37474-1bc8-4568-aec8-ce5464e6b828","system_id":"levelo_inurba_marseille","lat":43.23192,"lon":5.35562,"is_reserved":false,"is_disabled":false,"rental_uris":{"android":"levelo://app?vid=72e37474-1bc8-4568-aec8-ce5464e6b828","ios":"levelo://app?vid=72e37474-1bc8-4568-aec8-ce5464e6b828"},"vehicle_type_id":"4","last_reported":1730362337,"current_range_meters":25600,"station_id":"ce4bhu92rcd13ifvqi70","pricing_plan_id":"cebpf4jnsgd1na2vs0mg"},{"bike_id":"097ed70f-f4e5-4c24-94d9-7e001d1c4737","system_id":"levelo_inurba_marseille","lat":43.25926,"lon":5.40913,"is_reserved":false,"is_disabled":false,"rental_uris":{"android":"levelo://app?vid=097ed70f-f4e5-4c24-94d9-7e001d1c4737","ios":"levelo://app?vid=097ed70f-f4e5-4c24-94d9-7e001d1c4737"},"vehicle_type_id":"4","last_reported":1730362337,"current_range_meters":22000,"station_id":"ce4bhm92rcd13ifvqglg","pricing_plan_id":"cebpf4jnsgd1na2vs0mg"},{"bike_id":"1205d633-4986-4c67-9432-2d423a89c40d","system_id":"levelo_inurba_marseille","lat":43.27172,"lon":5.40989,"is_reserved":false,"is_disabled":false,"rental_uris":{"android":"levelo://app?vid=1205d633-4986-4c67-9432-2d423a89c40d","ios":"levelo://app?vid=1205d633-4986-4c67-9432-2d423a89c40d"},"vehicle_type_id":"4","last_reported":1730362337,"current_range_meters":36400,"station_id":"ce4bhl12rcd13ifvqgf0","pricing_plan_id":"cebpf4jnsgd1na2vs0mg"},{"bike_id":"c11d9197-f9d3-4e33-aaf5-5254563be766","system_id":"levelo_inurba_marseille","lat":43.3108,"lon":5.42429,"is_reserved":false,"is_disabled":false,"rental_uris":{"android":"levelo://app?vid=c11d9197-f9d3-4e33-aaf5-5254563be766","ios":"levelo://app?vid=c11d9197-f9d3-4e33-aaf5-5254563be766"},"vehicle_type_id":"4","last_reported":1730362337,"current_range_meters":8400,"station_id":"ce4bhp92rcd13ifvqhag","pricing_plan_id":"cebpf4jnsgd1na2vs0mg"},{"bike_id":"bb4f2c4f-f5c6-4f2d-a68f-18541d36e2e9","system_id":"levelo_inurba_marseille","lat":43.32472,"lon":5.36569,"is_reserved":false,"is_disabled":false,"rental_uris":{"android":"levelo://app?vid=bb4f2c4f-f5c6-4f2d-a68f-18541d36e2e9","ios":"levelo://app?vid=bb4f2c4f-f5c6-4f2d-a68f-18541d36e2e9"},"vehicle_type_id":"4","last_reported":1730362337,"current_range_meters":28400,"station_id":"ce4bhs12rcd13ifvqhvg","pricing_plan_id":"cebpf4jnsgd1na2vs0mg"},{"bike_id":"88dc58c8-a632-450d-98e1-c0f672ee9cc5","system_id":"levelo_inurba_marseille","lat":43.24386,"lon":5.37049,"is_reserved":false,"is_disabled":false,"rental_uris":{"android":"levelo://app?vid=88dc58c8-a632-450d-98e1-c0f672ee9cc5","ios":"levelo://app?vid=88dc58c8-a632-450d-98e1-c0f672ee9cc5"},"vehicle_type_id":"4","last_reported":1730362337,"current_range_meters":31200,"station_id":"ce4bhhh2rcd13ifvqfk0","pricing_plan_id":"cebpf4jnsgd1na2vs0mg"},{"bike_id":"54d2e7c1-0997-4e85-b497-01eca9eb4f00","system_id":"levelo_inurba_marseille","lat":43.23191,"lon":5.35552,"is_reserved":false,"is_disabled":false,"rental_uris":{"android":"levelo://app?vid=54d2e7c1-0997-4e85-b497-01eca9eb4f00","ios":"levelo://app?vid=54d2e7c1-0997-4e85-b497-01eca9eb4f00"},"vehicle_type_id":"4","last_reported":1730362337,"current_range_meters":10000,"station_id":"ce4bhu92rcd13ifvqi70","pricing_plan_id":"cebpf4jnsgd1na2vs0mg"},{"bike_id":"03a568f6-414d-4d28-9207-f96676ac1d4f","system_id":"levelo_inurba_marseille","lat":43.24177,"lon":5.39723,"is_reserved":false,"is_disabled":false,"rental_uris":{"android":"levelo://app?vid=03a568f6-414d-4d28-9207-f96676ac1d4f","ios":"levelo://app?vid=03a568f6-414d-4d28-9207-f96676ac1d4f"},"vehicle_type_id":"4","last_reported":1730362337,"current_range_meters":37600,"station_id":"ce4bhn12rcd13ifvqgpg","pricing_plan_id":"cebpf4jnsgd1na2vs0mg"},{"bike_id":"55fc5511-69f4-42fb-8124-dad70ce6f573","system_id":"levelo_inurba_marseille","lat":43.28443,"lon":5.39194,"is_reserved":false,"is_disabled":false,"rental_uris":{"android":"levelo://app?vid=55fc5511-69f4-42fb-8124-dad70ce6f573","ios":"levelo://app?vid=55fc5511-69f4-42fb-8124-dad70ce6f573"},"vehicle_type_id":"4","last_reported":1730362337,"current_range_meters":38800,"station_id":"ce4bhoh2rcd13ifvqh5g","pricing_plan_id":"cebpf4jnsgd1na2vs0mg"},{"bike_id":"f8584fbd-b266-46f3-88c6-4cc95ff7fcfd","system_id":"levelo_inurba_marseille","lat":43.28153,"lon":5.42648,"is_reserved":false,"is_disabled":false,"rental_uris":{"android":"levelo://app?vid=f8584fbd-b266-46f3-88c6-4cc95ff7fcfd","ios":"levelo://app?vid=f8584fbd-b266-46f3-88c6-4cc95ff7fcfd"},"vehicle_type_id":"4","last_reported":1730362337,"current_range_meters":38000,"station_id":"ce4bhnh2rcd13ifvqgug","pricing_plan_id":"cebpf4jnsgd1na2vs0mg"},{"bike_id":"c843d4b3-e307-4a3f-9b6d-4ef36e881079","system_id":"levelo_inurba_marseille","lat":43.24068,"lon":5.3776,"is_reserved":false,"is_disabled":false,"rental_uris":{"android":"levelo://app?vid=c843d4b3-e307-4a3f-9b6d-4ef36e881079","ios":"levelo://app?vid=c843d4b3-e307-4a3f-9b6d-4ef36e881079"},"vehicle_type_id":"4","last_reported":1730362337,"current_range_meters":28800,"station_id":"ce4bhnp2rcd13ifvqgvg","pricing_plan_id":"cebpf4jnsgd1na2vs0mg"},{"bike_id":"70f9df5f-e594-4a8f-a0ea-98a6648da6ec","system_id":"levelo_inurba_marseille","lat":43.28611,"lon":5.37063,"is_reserved":false,"is_disabled":false,"rental_uris":{"android":"levelo://app?vid=70f9df5f-e594-4a8f-a0ea-98a6648da6ec","ios":"levelo://app?vid=70f9df5f-e594-4a8f-a0ea-98a6648da6ec"},"vehicle_type_id":"4","last_reported":1730362337,"current_range_meters":36000,"station_id":"ce4bht12rcd13ifvqi60","pricing_plan_id":"cebpf4jnsgd1na2vs0mg"},{"bike_id":"358476ef-3fe4-4564-b4f6-558008d6a500","system_id":"levelo_inurba_marseille","lat":43.28152,"lon":5.42643,"is_reserved":false,"is_disabled":false,"rental_uris":{"android":"levelo://app?vid=358476ef-3fe4-4564-b4f6-558008d6a500","ios":"levelo://app?vid=358476ef-3fe4-4564-b4f6-558008d6a500"},"vehicle_type_id":"4","last_reported":1730362337,"current_range_meters":8800,"station_id":"ce4bhnh2rcd13ifvqgug","pricing_plan_id":"cebpf4jnsgd1na2vs0mg"},{"bike_id":"ea9d42a3-8d88-4632-a9d2-19ca043c436c","system_id":"levelo_inurba_marseille","lat":43.313445,"lon":5.367209,"is_reserved":false,"is_disabled":false,"rental_uris":{"android":"levelo://app?vid=ea9d42a3-8d88-4632-a9d2-19ca043c436c","ios":"levelo://app?vid=ea9d42a3-8d88-4632-a9d2-19ca043c436c"},"vehicle_type_id":"4","last_reported":1730362337,"current_range_meters":39200,"station_id":"ce4bgr92rcd13ifvqc6g","pricing_plan_id":"cebpf4jnsgd1na2vs0mg"},{"bike_id":"3813e25f-c205-49d4-a6f5-7e7ea96246e0","system_id":"levelo_inurba_marseille","lat":43.305419,"lon":5.367293,"is_reserved":false,"is_disabled":false,"rental_uris":{"android":"levelo://app?vid=3813e25f-c205-49d4-a6f5-7e7ea96246e0","ios":"levelo://app?vid=3813e25f-c205-49d4-a6f5-7e7ea96246e0"},"vehicle_type_id":"4","last_reported":1730362337,"current_range_meters":38400,"station_id":"ce4bgrp2rcd13ifvqc9g","pricing_plan_id":"cebpf4jnsgd1na2vs0mg"},{"bike_id":"40330a8b-afc9-49cb-8bba-c576895dbc20","system_id":"levelo_inurba_marseille","lat":43.28974,"lon":5.37832,"is_reserved":false,"is_disabled":false,"rental_uris":{"android":"levelo://app?vid=40330a8b-afc9-49cb-8bba-c576895dbc20","ios":"levelo://app?vid=40330a8b-afc9-49cb-8bba-c576895dbc20"},"vehicle_type_id":"4","last_reported":1730362337,"current_range_meters":25200,"station_id":"ce4bh9p2rcd13ifvqed0","pricing_plan_id":"cebpf4jnsgd1na2vs0mg"},{"bike_id":"50ddc3b9-0445-4606-8f39-393c248368e8","system_id":"levelo_inurba_marseille","lat":43.31172,"lon":5.38711,"is_reserved":false,"is_disabled":false,"rental_uris":{"android":"levelo://app?vid=50ddc3b9-0445-4606-8f39-393c248368e8","ios":"levelo://app?vid=50ddc3b9-0445-4606-8f39-393c248368e8"},"vehicle_type_id":"4","last_reported":1730362337,"current_range_meters":38800,"station_id":"ce4bgv12rcd13ifvqcp0","pricing_plan_id":"cebpf4jnsgd1na2vs0mg"},{"bike_id":"cbd6e71b-da90-49a9-852e-9e6ceb2a79ce","system_id":"levelo_inurba_marseille","lat":43.23186,"lon":5.39973,"is_reserved":false,"is_disabled":false,"rental_uris":{"android":"levelo://app?vid=cbd6e71b-da90-49a9-852e-9e6ceb2a79ce","ios":"levelo://app?vid=cbd6e71b-da90-49a9-852e-9e6ceb2a79ce"},"vehicle_type_id":"4","last_reported":1730362337,"current_range_meters":39200,"station_id":"ce4bhn12rcd13ifvqgqg","pricing_plan_id":"cebpf4jnsgd1na2vs0mg"},{"bike_id":"d9c81dda-374e-45ac-9901-285da1317888","system_id":"levelo_inurba_marseille","lat":43.2903,"lon":5.39972,"is_reserved":false,"is_disabled":false,"rental_uris":{"android":"levelo://app?vid=d9c81dda-374e-45ac-9901-285da1317888","ios":"levelo://app?vid=d9c81dda-374e-45ac-9901-285da1317888"},"vehicle_type_id":"4","last_reported":1730362337,"current_range_meters":10000,"station_id":"ce4bh392rcd13ifvqdm0","pricing_plan_id":"cebpf4jnsgd1na2vs0mg"},{"bike_id":"c91458d1-ceed-4be8-a581-1461e0ef89ad","system_id":"levelo_inurba_marseille","lat":43.31166,"lon":5.38729,"is_reserved":false,"is_disabled":false,"rental_uris":{"android":"levelo://app?vid=c91458d1-ceed-4be8-a581-1461e0ef89ad","ios":"levelo://app?vid=c91458d1-ceed-4be8-a581-1461e0ef89ad"},"vehicle_type_id":"4","last_reported":1730362337,"current_range_meters":37600,"station_id":"ce4bgv12rcd13ifvqcp0","pricing_plan_id":"cebpf4jnsgd1na2vs0mg"},{"bike_id":"ec887f96-3e7c-4cc5-bffc-e14c99385849","system_id":"levelo_inurba_marseille","lat":43.32105,"lon":5.36767,"is_reserved":false,"is_disabled":false,"rental_uris":{"android":"levelo://app?vid=ec887f96-3e7c-4cc5-bffc-e14c99385849","ios":"levelo://app?vid=ec887f96-3e7c-4cc5-bffc-e14c99385849"},"vehicle_type_id":"4","last_reported":1730362337,"current_range_meters":10000,"station_id":"ce4bhrh2rcd13ifvqhug","pricing_plan_id":"cebpf4jnsgd1na2vs0mg"},{"bike_id":"ef84f4b6-01b2-4a53-bdf2-0d57923d3ba7","system_id":"levelo_inurba_marseille","lat":43.28152,"lon":5.42648,"is_reserved":false,"is_disabled":false,"rental_uris":{"android":"levelo://app?vid=ef84f4b6-01b2-4a53-bdf2-0d57923d3ba7","ios":"levelo://app?vid=ef84f4b6-01b2-4a53-bdf2-0d57923d3ba7"},"vehicle_type_id":"4","last_reported":1730362337,"current_range_meters":39200,"station_id":"ce4bhnh2rcd13ifvqgug","pricing_plan_id":"cebpf4jnsgd1na2vs0mg"},{"bike_id":"1995d42f-9bb2-423e-a419-1706f5fab24e","system_id":"levelo_inurba_marseille","lat":43.27073,"lon":5.42275,"is_reserved":false,"is_disabled":false,"rental_uris":{"android":"levelo://app?vid=1995d42f-9bb2-423e-a419-1706f5fab24e","ios":"levelo://app?vid=1995d42f-9bb2-423e-a419-1706f5fab24e"},"vehicle_type_id":"4","last_reported":1730362337,"current_range_meters":29600,"station_id":"ce4bhk92rcd13ifvqgb0","pricing_plan_id":"cebpf4jnsgd1na2vs0mg"},{"bike_id":"d75a5f39-6d7e-41fe-bdc2-13c4c09528e6","system_id":"levelo_inurba_marseille","lat":43.23189,"lon":5.39986,"is_reserved":false,"is_disabled":false,"rental_uris":{"android":"levelo://app?vid=d75a5f39-6d7e-41fe-bdc2-13c4c09528e6","ios":"levelo://app?vid=d75a5f39-6d7e-41fe-bdc2-13c4c09528e6"},"vehicle_type_id":"4","last_reported":1730362337,"current_range_meters":38800,"station_id":"ce4bhn12rcd13ifvqgqg","pricing_plan_id":"cebpf4jnsgd1na2vs0mg"},{"bike_id":"be4cec61-2fbe-4c41-bc8f-6cef6f495468","system_id":"levelo_inurba_marseille","lat":43.31331,"lon":5.39697,"is_reserved":false,"is_disabled":false,"rental_uris":{"android":"levelo://app?vid=be4cec61-2fbe-4c41-bc8f-6cef6f495468","ios":"levelo://app?vid=be4cec61-2fbe-4c41-bc8f-6cef6f495468"},"vehicle_type_id":"4","last_reported":1730362337,"current_range_meters":37600,"station_id":"ce4bgvp2rcd13ifvqcu0","pricing_plan_id":"cebpf4jnsgd1na2vs0mg"},{"bike_id":"43f2a08e-1c4c-4949-a02f-6557846d7016","system_id":"levelo_inurba_marseille","lat":43.29037,"lon":5.39959,"is_reserved":false,"is_disabled":false,"rental_uris":{"android":"levelo://app?vid=43f2a08e-1c4c-4949-a02f-6557846d7016","ios":"levelo://app?vid=43f2a08e-1c4c-4949-a02f-6557846d7016"},"vehicle_type_id":"4","last_reported":1730362337,"current_range_meters":38800,"station_id":"ce4bh392rcd13ifvqdm0","pricing_plan_id":"cebpf4jnsgd1na2vs0mg"},{"bike_id":"c26bb6f5-2c68-4c3f-ae19-c7ed99652366","system_id":"levelo_inurba_marseille","lat":43.31535,"lon":5.38043,"is_reserved":false,"is_disabled":false,"rental_uris":{"android":"levelo://app?vid=c26bb6f5-2c68-4c3f-ae19-c7ed99652366","ios":"levelo://app?vid=c26bb6f5-2c68-4c3f-ae19-c7ed99652366"},"vehicle_type_id":"4","last_reported":1730362337,"current_range_meters":9200,"station_id":"ce4bhsp2rcd13ifvqi50","pricing_plan_id":"cebpf4jnsgd1na2vs0mg"},{"bike_id":"8877ec31-3d26-4e36-af93-87cf4a845940","system_id":"levelo_inurba_marseille","lat":43.31214,"lon":5.3684,"is_reserved":false,"is_disabled":false,"rental_uris":{"android":"levelo://app?vid=8877ec31-3d26-4e36-af93-87cf4a845940","ios":"levelo://app?vid=8877ec31-3d26-4e36-af93-87cf4a845940"},"vehicle_type_id":"4","last_reported":1730362337,"current_range_meters":4000,"station_id":"ce4bgl92rcd13ifvqbq0","pricing_plan_id":"cebpf4jnsgd1na2vs0mg"},{"bike_id":"ad71909a-5e64-40ea-9e77-8ddc67ff4428","system_id":"levelo_inurba_marseille","lat":43.323416,"lon":5.406259,"is_reserved":false,"is_disabled":false,"rental_uris":{"android":"levelo://app?vid=ad71909a-5e64-40ea-9e77-8ddc67ff4428","ios":"levelo://app?vid=ad71909a-5e64-40ea-9e77-8ddc67ff4428"},"vehicle_type_id":"4","last_reported":1730362337,"current_range_meters":38400,"station_id":"ce4bhq92rcd13ifvqhjg","pricing_plan_id":"cebpf4jnsgd1na2vs0mg"},{"bike_id":"7fe47fb9-82e9-4736-9ec4-bd04360bdec1","system_id":"levelo_inurba_marseille","lat":43.28938,"lon":5.39631,"is_reserved":false,"is_disabled":false,"rental_uris":{"android":"levelo://app?vid=7fe47fb9-82e9-4736-9ec4-bd04360bdec1","ios":"levelo://app?vid=7fe47fb9-82e9-4736-9ec4-bd04360bdec1"},"vehicle_type_id":"4","last_reported":1730362337,"current_range_meters":7200,"station_id":"ce4bh3h2rcd13ifvqdn0","pricing_plan_id":"cebpf4jnsgd1na2vs0mg"},{"bike_id":"0bedfaf2-aa46-4609-9e3d-c36cecfcb84d","system_id":"levelo_inurba_marseille","lat":43.30157,"lon":5.38079,"is_reserved":false,"is_disabled":false,"rental_uris":{"android":"levelo://app?vid=0bedfaf2-aa46-4609-9e3d-c36cecfcb84d","ios":"levelo://app?vid=0bedfaf2-aa46-4609-9e3d-c36cecfcb84d"},"vehicle_type_id":"4","last_reported":1730362337,"current_range_meters":38800,"station_id":"ce4bgjp2rcd13ifvqbh0","pricing_plan_id":"cebpf4jnsgd1na2vs0mg"},{"bike_id":"1ace14c5-1992-46b1-87cf-4a1d3c62f592","system_id":"levelo_inurba_marseille","lat":43.28154,"lon":5.42643,"is_reserved":false,"is_disabled":false,"rental_uris":{"android":"levelo://app?vid=1ace14c5-1992-46b1-87cf-4a1d3c62f592","ios":"levelo://app?vid=1ace14c5-1992-46b1-87cf-4a1d3c62f592"},"vehicle_type_id":"4","last_reported":1730362337,"current_range_meters":17200,"station_id":"ce4bhnh2rcd13ifvqgug","pricing_plan_id":"cebpf4jnsgd1na2vs0mg"},{"bike_id":"0d1d919a-0ac6-4b40-add0-6ce675499ae9","system_id":"levelo_inurba_marseille","lat":43.2407,"lon":5.37767,"is_reserved":false,"is_disabled":false,"rental_uris":{"android":"levelo://app?vid=0d1d919a-0ac6-4b40-add0-6ce675499ae9","ios":"levelo://app?vid=0d1d919a-0ac6-4b40-add0-6ce675499ae9"},"vehicle_type_id":"4","last_reported":1730362337,"current_range_meters":12000,"station_id":"ce4bhnp2rcd13ifvqgvg","pricing_plan_id":"cebpf4jnsgd1na2vs0mg"},{"bike_id":"8785c527-ebc9-4d4b-a104-dc84f78b82df","system_id":"levelo_inurba_marseille","lat":43.2408,"lon":5.37736,"is_reserved":false,"is_disabled":false,"rental_uris":{"android":"levelo://app?vid=8785c527-ebc9-4d4b-a104-dc84f78b82df","ios":"levelo://app?vid=8785c527-ebc9-4d4b-a104-dc84f78b82df"},"vehicle_type_id":"4","last_reported":1730362337,"current_range_meters":3600,"station_id":"ce4bhnp2rcd13ifvqgvg","pricing_plan_id":"cebpf4jnsgd1na2vs0mg"},{"bike_id":"a08c82e9-ab5b-491e-bd05-9261274c0ad8","system_id":"levelo_inurba_marseille","lat":43.30543,"lon":5.38438,"is_reserved":false,"is_disabled":false,"rental_uris":{"android":"levelo://app?vid=a08c82e9-ab5b-491e-bd05-9261274c0ad8","ios":"levelo://app?vid=a08c82e9-ab5b-491e-bd05-9261274c0ad8"},"vehicle_type_id":"4","last_reported":1730362337,"current_range_meters":28000,"station_id":"ce4bgjh2rcd13ifvqbf0","pricing_plan_id":"cebpf4jnsgd1na2vs0mg"},{"bike_id":"d57a1092-3bd9-4874-b509-2b8a74c2ad8c","system_id":"levelo_inurba_marseille","lat":43.33107,"lon":5.38223,"is_reserved":false,"is_disabled":false,"rental_uris":{"android":"levelo://app?vid=d57a1092-3bd9-4874-b509-2b8a74c2ad8c","ios":"levelo://app?vid=d57a1092-3bd9-4874-b509-2b8a74c2ad8c"},"vehicle_type_id":"4","last_reported":1730362337,"current_range_meters":26800,"station_id":"","pricing_plan_id":"cebpf4jnsgd1na2vs0mg"},{"bike_id":"290764c0-04f9-4aae-9bc4-9ccac7ef2857","system_id":"levelo_inurba_marseille","lat":43.30303,"lon":5.36892,"is_reserved":false,"is_disabled":false,"rental_uris":{"android":"levelo://app?vid=290764c0-04f9-4aae-9bc4-9ccac7ef2857","ios":"levelo://app?vid=290764c0-04f9-4aae-9bc4-9ccac7ef2857"},"vehicle_type_id":"4","last_reported":1730362337,"current_range_meters":34000,"station_id":"ce4bgqh2rcd13ifvqc5g","pricing_plan_id":"cebpf4jnsgd1na2vs0mg"},{"bike_id":"73b91a5c-462b-445d-ac2c-3b2ae6e44141","system_id":"levelo_inurba_marseille","lat":43.286554,"lon":5.363466,"is_reserved":false,"is_disabled":false,"rental_uris":{"android":"levelo://app?vid=73b91a5c-462b-445d-ac2c-3b2ae6e44141","ios":"levelo://app?vid=73b91a5c-462b-445d-ac2c-3b2ae6e44141"},"vehicle_type_id":"4","last_reported":1730362337,"current_range_meters":32000,"station_id":"ce4bhah2rcd13ifvqej0","pricing_plan_id":"cebpf4jnsgd1na2vs0mg"},{"bike_id":"ddd2b1e9-334f-4882-9f41-cc127a3a9d93","system_id":"levelo_inurba_marseille","lat":43.29271,"lon":5.4013,"is_reserved":false,"is_disabled":false,"rental_uris":{"android":"levelo://app?vid=ddd2b1e9-334f-4882-9f41-cc127a3a9d93","ios":"levelo://app?vid=ddd2b1e9-334f-4882-9f41-cc127a3a9d93"},"vehicle_type_id":"4","last_reported":1730362337,"current_range_meters":34000,"station_id":"ce4bh312rcd13ifvqdk0","pricing_plan_id":"cebpf4jnsgd1na2vs0mg"},{"bike_id":"6c93d9a7-41fb-47dd-a9da-4a36446ca6ef","system_id":"levelo_inurba_marseille","lat":43.29035,"lon":5.39974,"is_reserved":false,"is_disabled":false,"rental_uris":{"android":"levelo://app?vid=6c93d9a7-41fb-47dd-a9da-4a36446ca6ef","ios":"levelo://app?vid=6c93d9a7-41fb-47dd-a9da-4a36446ca6ef"},"vehicle_type_id":"4","last_reported":1730362337,"current_range_meters":8000,"station_id":"ce4bh392rcd13ifvqdm0","pricing_plan_id":"cebpf4jnsgd1na2vs0mg"},{"bike_id":"0e6dd02c-46ea-478c-9dc6-e1b5bd3823e1","system_id":"levelo_inurba_marseille","lat":43.30136,"lon":5.3742,"is_reserved":false,"is_disabled":false,"rental_uris":{"android":"levelo://app?vid=0e6dd02c-46ea-478c-9dc6-e1b5bd3823e1","ios":"levelo://app?vid=0e6dd02c-46ea-478c-9dc6-e1b5bd3823e1"},"vehicle_type_id":"4","last_reported":1730362337,"current_range_meters":39200,"station_id":"ce4bgs92rcd13ifvqcc0","pricing_plan_id":"cebpf4jnsgd1na2vs0mg"},{"bike_id":"33d7239f-73a3-4ee6-886d-d4f39be7304a","system_id":"levelo_inurba_marseille","lat":43.31822,"lon":5.37428,"is_reserved":false,"is_disabled":false,"rental_uris":{"android":"levelo://app?vid=33d7239f-73a3-4ee6-886d-d4f39be7304a","ios":"levelo://app?vid=33d7239f-73a3-4ee6-886d-d4f39be7304a"},"vehicle_type_id":"4","last_reported":1730362337,"current_range_meters":16400,"station_id":"","pricing_plan_id":"cebpf4jnsgd1na2vs0mg"},{"bike_id":"d4d25f17-ad9b-42bf-b062-519e99dfaeca","system_id":"levelo_inurba_marseille","lat":43.28722,"lon":5.37934,"is_reserved":false,"is_disabled":false,"rental_uris":{"android":"levelo://app?vid=d4d25f17-ad9b-42bf-b062-519e99dfaeca","ios":"levelo://app?vid=d4d25f17-ad9b-42bf-b062-519e99dfaeca"},"vehicle_type_id":"4","last_reported":1730362337,"current_range_meters":23200,"station_id":"ce4bh9p2rcd13ifvqec0","pricing_plan_id":"cebpf4jnsgd1na2vs0mg"},{"bike_id":"aa2015c6-5e62-4dea-8186-a9b71d3f394b","system_id":"levelo_inurba_marseille","lat":43.30274,"lon":5.37705,"is_reserved":false,"is_disabled":false,"rental_uris":{"android":"levelo://app?vid=aa2015c6-5e62-4dea-8186-a9b71d3f394b","ios":"levelo://app?vid=aa2015c6-5e62-4dea-8186-a9b71d3f394b"},"vehicle_type_id":"4","last_reported":1730362337,"current_range_meters":38400,"station_id":"ce4bguh2rcd13ifvqcj0","pricing_plan_id":"cebpf4jnsgd1na2vs0mg"},{"bike_id":"d2e0efbb-61ff-424a-9cde-183324d21273","system_id":"levelo_inurba_marseille","lat":43.23958,"lon":5.36637,"is_reserved":false,"is_disabled":false,"rental_uris":{"android":"levelo://app?vid=d2e0efbb-61ff-424a-9cde-183324d21273","ios":"levelo://app?vid=d2e0efbb-61ff-424a-9cde-183324d21273"},"vehicle_type_id":"4","last_reported":1730362337,"current_range_meters":27200,"station_id":"ce4bhi12rcd13ifvqfp0","pricing_plan_id":"cebpf4jnsgd1na2vs0mg"},{"bike_id":"73e9d24a-2fc7-40cb-a46d-ca1afd2daf32","system_id":"levelo_inurba_marseille","lat":43.26954,"lon":5.3863,"is_reserved":false,"is_disabled":false,"rental_uris":{"android":"levelo://app?vid=73e9d24a-2fc7-40cb-a46d-ca1afd2daf32","ios":"levelo://app?vid=73e9d24a-2fc7-40cb-a46d-ca1afd2daf32"},"vehicle_type_id":"4","last_reported":1730362337,"current_range_meters":14000,"station_id":"ce4bhh92rcd13ifvqfh0","pricing_plan_id":"cebpf4jnsgd1na2vs0mg"},{"bike_id":"a7ce43d3-1f8f-454c-b2a7-e386262205fe","system_id":"levelo_inurba_marseille","lat":43.274933,"lon":5.424559,"is_reserved":false,"is_disabled":false,"rental_uris":{"android":"levelo://app?vid=a7ce43d3-1f8f-454c-b2a7-e386262205fe","ios":"levelo://app?vid=a7ce43d3-1f8f-454c-b2a7-e386262205fe"},"vehicle_type_id":"4","last_reported":1730362337,"current_range_meters":28000,"station_id":"ce4bhn92rcd13ifvqgrg","pricing_plan_id":"cebpf4jnsgd1na2vs0mg"},{"bike_id":"8c8e59ef-b64a-4a77-a1d2-fae27bbc97eb","system_id":"levelo_inurba_marseille","lat":43.28442,"lon":5.39187,"is_reserved":false,"is_disabled":false,"rental_uris":{"android":"levelo://app?vid=8c8e59ef-b64a-4a77-a1d2-fae27bbc97eb","ios":"levelo://app?vid=8c8e59ef-b64a-4a77-a1d2-fae27bbc97eb"},"vehicle_type_id":"4","last_reported":1730362337,"current_range_meters":24800,"station_id":"ce4bhoh2rcd13ifvqh5g","pricing_plan_id":"cebpf4jnsgd1na2vs0mg"},{"bike_id":"3e68ff33-06ed-4f58-92d6-c7e8e60269c9","system_id":"levelo_inurba_marseille","lat":43.32485,"lon":5.3656,"is_reserved":false,"is_disabled":false,"rental_uris":{"android":"levelo://app?vid=3e68ff33-06ed-4f58-92d6-c7e8e60269c9","ios":"levelo://app?vid=3e68ff33-06ed-4f58-92d6-c7e8e60269c9"},"vehicle_type_id":"4","last_reported":1730362337,"current_range_meters":36400,"station_id":"ce4bhs12rcd13ifvqhvg","pricing_plan_id":"cebpf4jnsgd1na2vs0mg"},{"bike_id":"ddfcc088-55bb-432d-9e58-bfabae87f10a","system_id":"levelo_inurba_marseille","lat":43.24663,"lon":5.38165,"is_reserved":false,"is_disabled":false,"rental_uris":{"android":"levelo://app?vid=ddfcc088-55bb-432d-9e58-bfabae87f10a","ios":"levelo://app?vid=ddfcc088-55bb-432d-9e58-bfabae87f10a"},"vehicle_type_id":"4","last_reported":1730362337,"current_range_meters":27600,"station_id":"ce4bhih2rcd13ifvqfr0","pricing_plan_id":"cebpf4jnsgd1na2vs0mg"},{"bike_id":"c14d09d1-3823-4a39-b14a-554f05542178","system_id":"levelo_inurba_marseille","lat":43.30278,"lon":5.37699,"is_reserved":false,"is_disabled":false,"rental_uris":{"android":"levelo://app?vid=c14d09d1-3823-4a39-b14a-554f05542178","ios":"levelo://app?vid=c14d09d1-3823-4a39-b14a-554f05542178"},"vehicle_type_id":"4","last_reported":1730362337,"current_range_meters":39200,"station_id":"ce4bguh2rcd13ifvqcj0","pricing_plan_id":"cebpf4jnsgd1na2vs0mg"},{"bike_id":"15917a3a-e307-4459-a0e9-7c5e049e9d5d","system_id":"levelo_inurba_marseille","lat":43.27615,"lon":5.36114,"is_reserved":false,"is_disabled":false,"rental_uris":{"android":"levelo://app?vid=15917a3a-e307-4459-a0e9-7c5e049e9d5d","ios":"levelo://app?vid=15917a3a-e307-4459-a0e9-7c5e049e9d5d"},"vehicle_type_id":"4","last_reported":1730362337,"current_range_meters":38400,"station_id":"ce4bgj92rcd13ifvqbe0","pricing_plan_id":"cebpf4jnsgd1na2vs0mg"},{"bike_id":"8fbee397-c726-4d42-ae6d-7e6a955a3eb5","system_id":"levelo_inurba_marseille","lat":43.23062,"lon":5.35491,"is_reserved":false,"is_disabled":false,"rental_uris":{"android":"levelo://app?vid=8fbee397-c726-4d42-ae6d-7e6a955a3eb5","ios":"levelo://app?vid=8fbee397-c726-4d42-ae6d-7e6a955a3eb5"},"vehicle_type_id":"4","last_reported":1730362337,"current_range_meters":37600,"station_id":"cpo3342slgdg3j2ifvpg","pricing_plan_id":"cebpf4jnsgd1na2vs0mg"},{"bike_id":"e9637a0f-11e5-4127-a13f-75047ca6a5cc","system_id":"levelo_inurba_marseille","lat":43.30906,"lon":5.36849,"is_reserved":false,"is_disabled":false,"rental_uris":{"android":"levelo://app?vid=e9637a0f-11e5-4127-a13f-75047ca6a5cc","ios":"levelo://app?vid=e9637a0f-11e5-4127-a13f-75047ca6a5cc"},"vehicle_type_id":"4","last_reported":1730362337,"current_range_meters":28000,"station_id":"ce4bgn92rcd13ifvqbvg","pricing_plan_id":"cebpf4jnsgd1na2vs0mg"},{"bike_id":"fea23d88-9bbb-4ffa-af08-7b03ca37348f","system_id":"levelo_inurba_marseille","lat":43.23183,"lon":5.39992,"is_reserved":false,"is_disabled":false,"rental_uris":{"android":"levelo://app?vid=fea23d88-9bbb-4ffa-af08-7b03ca37348f","ios":"levelo://app?vid=fea23d88-9bbb-4ffa-af08-7b03ca37348f"},"vehicle_type_id":"4","last_reported":1730362337,"current_range_meters":27200,"station_id":"ce4bhn12rcd13ifvqgqg","pricing_plan_id":"cebpf4jnsgd1na2vs0mg"},{"bike_id":"5c8e0bfd-6260-4bdb-8c3c-9be915f2fe5e","system_id":"levelo_inurba_marseille","lat":43.29031,"lon":5.39981,"is_reserved":false,"is_disabled":false,"rental_uris":{"android":"levelo://app?vid=5c8e0bfd-6260-4bdb-8c3c-9be915f2fe5e","ios":"levelo://app?vid=5c8e0bfd-6260-4bdb-8c3c-9be915f2fe5e"},"vehicle_type_id":"4","last_reported":1730362337,"current_range_meters":38000,"station_id":"ce4bh392rcd13ifvqdm0","pricing_plan_id":"cebpf4jnsgd1na2vs0mg"},{"bike_id":"a54b557d-1ec0-40c5-95fd-8df5189b7b95","system_id":"levelo_inurba_marseille","lat":43.30895,"lon":5.372,"is_reserved":false,"is_disabled":false,"rental_uris":{"android":"levelo://app?vid=a54b557d-1ec0-40c5-95fd-8df5189b7b95","ios":"levelo://app?vid=a54b557d-1ec0-40c5-95fd-8df5189b7b95"},"vehicle_type_id":"4","last_reported":1730362337,"current_range_meters":38000,"station_id":"ce4bguh2rcd13ifvqckg","pricing_plan_id":"cebpf4jnsgd1na2vs0mg"},{"bike_id":"160c3125-d109-49e3-a687-ede78b99dea2","system_id":"levelo_inurba_marseille","lat":43.232,"lon":5.35545,"is_reserved":false,"is_disabled":false,"rental_uris":{"android":"levelo://app?vid=160c3125-d109-49e3-a687-ede78b99dea2","ios":"levelo://app?vid=160c3125-d109-49e3-a687-ede78b99dea2"},"vehicle_type_id":"4","last_reported":1730362337,"current_range_meters":36000,"station_id":"ce4bhu92rcd13ifvqi70","pricing_plan_id":"cebpf4jnsgd1na2vs0mg"},{"bike_id":"8cc83f5a-4853-4709-8212-c799233781a7","system_id":"levelo_inurba_marseille","lat":43.2707,"lon":5.42274,"is_reserved":false,"is_disabled":false,"rental_uris":{"android":"levelo://app?vid=8cc83f5a-4853-4709-8212-c799233781a7","ios":"levelo://app?vid=8cc83f5a-4853-4709-8212-c799233781a7"},"vehicle_type_id":"4","last_reported":1730362337,"current_range_meters":39200,"station_id":"ce4bhk92rcd13ifvqgb0","pricing_plan_id":"cebpf4jnsgd1na2vs0mg"},{"bike_id":"566b3766-23aa-4de7-95da-bd50573922ec","system_id":"levelo_inurba_marseille","lat":43.23182,"lon":5.39992,"is_reserved":false,"is_disabled":false,"rental_uris":{"android":"levelo://app?vid=566b3766-23aa-4de7-95da-bd50573922ec","ios":"levelo://app?vid=566b3766-23aa-4de7-95da-bd50573922ec"},"vehicle_type_id":"4","last_reported":1730362337,"current_range_meters":3600,"station_id":"ce4bhn12rcd13ifvqgqg","pricing_plan_id":"cebpf4jnsgd1na2vs0mg"},{"bike_id":"840e269a-4e9a-4c87-b253-ce574ca10b17","system_id":"levelo_inurba_marseille","lat":43.28962,"lon":5.37822,"is_reserved":false,"is_disabled":false,"rental_uris":{"android":"levelo://app?vid=840e269a-4e9a-4c87-b253-ce574ca10b17","ios":"levelo://app?vid=840e269a-4e9a-4c87-b253-ce574ca10b17"},"vehicle_type_id":"4","last_reported":1730362337,"current_range_meters":36400,"station_id":"ce4bh9p2rcd13ifvqed0","pricing_plan_id":"cebpf4jnsgd1na2vs0mg"},{"bike_id":"4d18b5d4-7277-4d5f-aad9-36361b09753f","system_id":"levelo_inurba_marseille","lat":43.27934,"lon":5.41047,"is_reserved":false,"is_disabled":false,"rental_uris":{"android":"levelo://app?vid=4d18b5d4-7277-4d5f-aad9-36361b09753f","ios":"levelo://app?vid=4d18b5d4-7277-4d5f-aad9-36361b09753f"},"vehicle_type_id":"4","last_reported":1730362337,"current_range_meters":36400,"station_id":"ce4bhnp2rcd13ifvqh0g","pricing_plan_id":"cebpf4jnsgd1na2vs0mg"},{"bike_id":"b5786939-88c9-40c0-84f5-48960baee95d","system_id":"levelo_inurba_marseille","lat":43.3266,"lon":5.40984,"is_reserved":false,"is_disabled":false,"rental_uris":{"android":"levelo://app?vid=b5786939-88c9-40c0-84f5-48960baee95d","ios":"levelo://app?vid=b5786939-88c9-40c0-84f5-48960baee95d"},"vehicle_type_id":"4","last_reported":1730362337,"current_range_meters":35600,"station_id":"ce4bhpp2rcd13ifvqhgg","pricing_plan_id":"cebpf4jnsgd1na2vs0mg"},{"bike_id":"59ea661b-f3b4-4778-8f8b-b2fab405285d","system_id":"levelo_inurba_marseille","lat":43.23148,"lon":5.43727,"is_reserved":false,"is_disabled":false,"rental_uris":{"android":"levelo://app?vid=59ea661b-f3b4-4778-8f8b-b2fab405285d","ios":"levelo://app?vid=59ea661b-f3b4-4778-8f8b-b2fab405285d"},"vehicle_type_id":"4","last_reported":1730362337,"current_range_meters":34000,"station_id":"ce4bhmp2rcd13ifvqgog","pricing_plan_id":"cebpf4jnsgd1na2vs0mg"},{"bike_id":"6d48a8f4-2226-4758-a557-cb446c186a59","system_id":"levelo_inurba_marseille","lat":43.28158,"lon":5.42642,"is_reserved":false,"is_disabled":false,"rental_uris":{"android":"levelo://app?vid=6d48a8f4-2226-4758-a557-cb446c186a59","ios":"levelo://app?vid=6d48a8f4-2226-4758-a557-cb446c186a59"},"vehicle_type_id":"4","last_reported":1730362337,"current_range_meters":30000,"station_id":"ce4bhnh2rcd13ifvqgug","pricing_plan_id":"cebpf4jnsgd1na2vs0mg"},{"bike_id":"a64bb7d8-62c8-4dbb-93d6-894bc307b399","system_id":"levelo_inurba_marseille","lat":43.309305,"lon":5.390786,"is_reserved":false,"is_disabled":false,"rental_uris":{"android":"levelo://app?vid=a64bb7d8-62c8-4dbb-93d6-894bc307b399","ios":"levelo://app?vid=a64bb7d8-62c8-4dbb-93d6-894bc307b399"},"vehicle_type_id":"4","last_reported":1730362337,"current_range_meters":22000,"station_id":"ce4bgup2rcd13ifvqco0","pricing_plan_id":"cebpf4jnsgd1na2vs0mg"},{"bike_id":"911686b8-7ffa-4c17-af8f-4d6e36252319","system_id":"levelo_inurba_marseille","lat":43.25099,"lon":5.40326,"is_reserved":false,"is_disabled":false,"rental_uris":{"android":"levelo://app?vid=911686b8-7ffa-4c17-af8f-4d6e36252319","ios":"levelo://app?vid=911686b8-7ffa-4c17-af8f-4d6e36252319"},"vehicle_type_id":"4","last_reported":1730362337,"current_range_meters":22000,"station_id":"ce4bhlh2rcd13ifvqgig","pricing_plan_id":"cebpf4jnsgd1na2vs0mg"},{"bike_id":"1ec5fbdb-3921-4774-84ff-8c5a89056322","system_id":"levelo_inurba_marseille","lat":43.29566,"lon":5.37525,"is_reserved":false,"is_disabled":false,"rental_uris":{"android":"levelo://app?vid=1ec5fbdb-3921-4774-84ff-8c5a89056322","ios":"levelo://app?vid=1ec5fbdb-3921-4774-84ff-8c5a89056322"},"vehicle_type_id":"4","last_reported":1730362337,"current_range_meters":35600,"station_id":"ce4bgh92rcd13ifvqb50","pricing_plan_id":"cebpf4jnsgd1na2vs0mg"},{"bike_id":"f35881c0-255a-4542-ab0a-c2d00db196cb","system_id":"levelo_inurba_marseille","lat":43.28718,"lon":5.37938,"is_reserved":false,"is_disabled":false,"rental_uris":{"android":"levelo://app?vid=f35881c0-255a-4542-ab0a-c2d00db196cb","ios":"levelo://app?vid=f35881c0-255a-4542-ab0a-c2d00db196cb"},"vehicle_type_id":"4","last_reported":1730362337,"current_range_meters":34800,"station_id":"ce4bh9p2rcd13ifvqec0","pricing_plan_id":"cebpf4jnsgd1na2vs0mg"},{"bike_id":"05a5cca4-7cca-427a-b87b-18476b5ff641","system_id":"levelo_inurba_marseille","lat":43.30904,"lon":5.36833,"is_reserved":false,"is_disabled":false,"rental_uris":{"android":"levelo://app?vid=05a5cca4-7cca-427a-b87b-18476b5ff641","ios":"levelo://app?vid=05a5cca4-7cca-427a-b87b-18476b5ff641"},"vehicle_type_id":"4","last_reported":1730362337,"current_range_meters":9600,"station_id":"ce4bgn92rcd13ifvqbvg","pricing_plan_id":"cebpf4jnsgd1na2vs0mg"},{"bike_id":"59c14d9b-4823-424d-8c3d-75071815bf43","system_id":"levelo_inurba_marseille","lat":43.24386,"lon":5.37059,"is_reserved":false,"is_disabled":false,"rental_uris":{"android":"levelo://app?vid=59c14d9b-4823-424d-8c3d-75071815bf43","ios":"levelo://app?vid=59c14d9b-4823-424d-8c3d-75071815bf43"},"vehicle_type_id":"4","last_reported":1730362337,"current_range_meters":18800,"station_id":"ce4bhhh2rcd13ifvqfk0","pricing_plan_id":"cebpf4jnsgd1na2vs0mg"},{"bike_id":"2e809025-5e8a-42c1-bf86-4d20f51e1fb4","system_id":"levelo_inurba_marseille","lat":43.28075,"lon":5.39663,"is_reserved":false,"is_disabled":false,"rental_uris":{"android":"levelo://app?vid=2e809025-5e8a-42c1-bf86-4d20f51e1fb4","ios":"levelo://app?vid=2e809025-5e8a-42c1-bf86-4d20f51e1fb4"},"vehicle_type_id":"4","last_reported":1730362337,"current_range_meters":38800,"station_id":"ce4bho12rcd13ifvqh2g","pricing_plan_id":"cebpf4jnsgd1na2vs0mg"},{"bike_id":"a5479bdb-5353-4424-ba7d-c18a19a75155","system_id":"levelo_inurba_marseille","lat":43.25935,"lon":5.40902,"is_reserved":false,"is_disabled":false,"rental_uris":{"android":"levelo://app?vid=a5479bdb-5353-4424-ba7d-c18a19a75155","ios":"levelo://app?vid=a5479bdb-5353-4424-ba7d-c18a19a75155"},"vehicle_type_id":"4","last_reported":1730362337,"current_range_meters":32000,"station_id":"ce4bhm92rcd13ifvqglg","pricing_plan_id":"cebpf4jnsgd1na2vs0mg"},{"bike_id":"340e3dcc-f2d9-47c7-9698-5ba1c60d2984","system_id":"levelo_inurba_marseille","lat":43.301488,"lon":5.380869,"is_reserved":false,"is_disabled":false,"rental_uris":{"android":"levelo://app?vid=340e3dcc-f2d9-47c7-9698-5ba1c60d2984","ios":"levelo://app?vid=340e3dcc-f2d9-47c7-9698-5ba1c60d2984"},"vehicle_type_id":"4","last_reported":1730362337,"current_range_meters":16800,"station_id":"ce4bgjp2rcd13ifvqbh0","pricing_plan_id":"cebpf4jnsgd1na2vs0mg"},{"bike_id":"d030ab21-bdeb-4ed5-af1d-8487d428eb2d","system_id":"levelo_inurba_marseille","lat":43.28092,"lon":5.37845,"is_reserved":false,"is_disabled":false,"rental_uris":{"android":"levelo://app?vid=d030ab21-bdeb-4ed5-af1d-8487d428eb2d","ios":"levelo://app?vid=d030ab21-bdeb-4ed5-af1d-8487d428eb2d"},"vehicle_type_id":"4","last_reported":1730362337,"current_range_meters":33600,"station_id":"ce4bha12rcd13ifvqee0","pricing_plan_id":"cebpf4jnsgd1na2vs0mg"},{"bike_id":"e8293b4e-059a-4396-9bed-846c599622d5","system_id":"levelo_inurba_marseille","lat":43.2718,"lon":5.40985,"is_reserved":false,"is_disabled":false,"rental_uris":{"android":"levelo://app?vid=e8293b4e-059a-4396-9bed-846c599622d5","ios":"levelo://app?vid=e8293b4e-059a-4396-9bed-846c599622d5"},"vehicle_type_id":"4","last_reported":1730362337,"current_range_meters":39200,"station_id":"ce4bhl12rcd13ifvqgf0","pricing_plan_id":"cebpf4jnsgd1na2vs0mg"},{"bike_id":"b2676636-0873-4e47-ac17-f5e4f7c2e2c8","system_id":"levelo_inurba_marseille","lat":43.27943,"lon":5.41052,"is_reserved":false,"is_disabled":false,"rental_uris":{"android":"levelo://app?vid=b2676636-0873-4e47-ac17-f5e4f7c2e2c8","ios":"levelo://app?vid=b2676636-0873-4e47-ac17-f5e4f7c2e2c8"},"vehicle_type_id":"4","last_reported":1730362337,"current_range_meters":28800,"station_id":"ce4bhnp2rcd13ifvqh0g","pricing_plan_id":"cebpf4jnsgd1na2vs0mg"},{"bike_id":"0e74805e-97ff-4990-a94d-8b9e488cb48d","system_id":"levelo_inurba_marseille","lat":43.23146,"lon":5.43721,"is_reserved":false,"is_disabled":false,"rental_uris":{"android":"levelo://app?vid=0e74805e-97ff-4990-a94d-8b9e488cb48d","ios":"levelo://app?vid=0e74805e-97ff-4990-a94d-8b9e488cb48d"},"vehicle_type_id":"4","last_reported":1730362337,"current_range_meters":17200,"station_id":"ce4bhmp2rcd13ifvqgog","pricing_plan_id":"cebpf4jnsgd1na2vs0mg"},{"bike_id":"1f891675-16b0-4a24-aaa3-e59260de9b4e","system_id":"levelo_inurba_marseille","lat":43.25931,"lon":5.40911,"is_reserved":false,"is_disabled":false,"rental_uris":{"android":"levelo://app?vid=1f891675-16b0-4a24-aaa3-e59260de9b4e","ios":"levelo://app?vid=1f891675-16b0-4a24-aaa3-e59260de9b4e"},"vehicle_type_id":"4","last_reported":1730362337,"current_range_meters":32800,"station_id":"ce4bhm92rcd13ifvqglg","pricing_plan_id":"cebpf4jnsgd1na2vs0mg"},{"bike_id":"b43b132b-80ee-4fe6-bd8d-75e631f9b63b","system_id":"levelo_inurba_marseille","lat":43.25938,"lon":5.409,"is_reserved":false,"is_disabled":false,"rental_uris":{"android":"levelo://app?vid=b43b132b-80ee-4fe6-bd8d-75e631f9b63b","ios":"levelo://app?vid=b43b132b-80ee-4fe6-bd8d-75e631f9b63b"},"vehicle_type_id":"4","last_reported":1730362337,"current_range_meters":17200,"station_id":"ce4bhm92rcd13ifvqglg","pricing_plan_id":"cebpf4jnsgd1na2vs0mg"},{"bike_id":"4c477001-7701-4787-914b-3189a3bf4179","system_id":"levelo_inurba_marseille","lat":43.30131,"lon":5.39847,"is_reserved":false,"is_disabled":false,"rental_uris":{"android":"levelo://app?vid=4c477001-7701-4787-914b-3189a3bf4179","ios":"levelo://app?vid=4c477001-7701-4787-914b-3189a3bf4179"},