{"last_updated":1776783739,"ttl":60,"version":"2.2","data":{"bikes":[{"bike_id":"f2a13eaa-f6ae-41c9-ba12-be1fb5b470a3","system_id":"levelo_inurba_marseille","lat":43.28246,"lon":5.37078,"is_reserved":false,"is_disabled":false,"rental_uris":{"android":"levelo://app?vid=f2a13eaa-f6ae-41c9-ba12-be1fb5b470a3","ios":"levelo://app?vid=f2a13eaa-f6ae-41c9-ba12-be1fb5b470a3"},"vehicle_type_id":"4","last_reported":1776783740,"current_range_meters":2800,"station_id":"","pricing_plan_id":"cebpf4jnsgd1na2vs0mg"},{"bike_id":"fd8b40b7-becf-4893-bd8d-27e23340a297","system_id":"levelo_inurba_marseille","lat":43.22972,"lon":5.40067,"is_reserved":false,"is_disabled":true,"rental_uris":{"android":"levelo://app?vid=fd8b40b7-becf-4893-bd8d-27e23340a297","ios":"levelo://app?vid=fd8b40b7-becf-4893-bd8d-27e23340a297"},"vehicle_type_id":"4","last_reported":1776783740,"current_range_meters":2800,"station_id":"","pricing_plan_id":"cebpf4jnsgd1na2vs0mg"},{"bike_id":"1d0458c6-3e47-4f62-b7cf-3bfe37942f6e","system_id":"levelo_inurba_marseille","lat":43.28037,"lon":5.36951,"is_reserved":false,"is_disabled":false,"rental_uris":{"android":"levelo://app?vid=1d0458c6-3e47-4f62-b7cf-3bfe37942f6e","ios":"levelo://app?vid=1d0458c6-3e47-4f62-b7cf-3bfe37942f6e"},"vehicle_type_id":"4","last_reported":1776783740,"current_range_meters":2800,"station_id":"ce4bha12rcd13ifvqef0","pricing_plan_id":"cebpf4jnsgd1na2vs0mg"},{"bike_id":"9c6e58ae-9787-4dfb-be18-60355e4f0f27","system_id":"levelo_inurba_marseille","lat":43.30132,"lon":5.38777,"is_reserved":false,"is_disabled":false,"rental_uris":{"android":"levelo://app?vid=9c6e58ae-9787-4dfb-be18-60355e4f0f27","ios":"levelo://app?vid=9c6e58ae-9787-4dfb-be18-60355e4f0f27"},"vehicle_type_id":"4","last_reported":1776783740,"current_range_meters":2800,"station_id":"ce4bghh2rcd13ifvqb60","pricing_plan_id":"cebpf4jnsgd1na2vs0mg"},{"bike_id":"7732f874-5c53-42ec-81c8-9c6d56a80e57","system_id":"levelo_inurba_marseille","lat":43.2893,"lon":5.36647,"is_reserved":false,"is_disabled":false,"rental_uris":{"android":"levelo://app?vid=7732f874-5c53-42ec-81c8-9c6d56a80e57","ios":"levelo://app?vid=7732f874-5c53-42ec-81c8-9c6d56a80e57"},"vehicle_type_id":"4","last_reported":1776783740,"current_range_meters":2800,"station_id":"ce4bhap2rcd13ifvqek0","pricing_plan_id":"cebpf4jnsgd1na2vs0mg"},{"bike_id":"ae327807-d8ff-45af-b8c4-c90d3303c082","system_id":"levelo_inurba_marseille","lat":43.28481,"lon":5.48391,"is_reserved":false,"is_disabled":false,"rental_uris":{"android":"levelo://app?vid=ae327807-d8ff-45af-b8c4-c90d3303c082","ios":"levelo://app?vid=ae327807-d8ff-45af-b8c4-c90d3303c082"},"vehicle_type_id":"4","last_reported":1776783740,"current_range_meters":3200,"station_id":"","pricing_plan_id":"cebpf4jnsgd1na2vs0mg"},{"bike_id":"a2e0a403-6fb6-4418-9b19-ecf66709fae6","system_id":"levelo_inurba_marseille","lat":43.28694,"lon":5.46673,"is_reserved":false,"is_disabled":false,"rental_uris":{"android":"levelo://app?vid=a2e0a403-6fb6-4418-9b19-ecf66709fae6","ios":"levelo://app?vid=a2e0a403-6fb6-4418-9b19-ecf66709fae6"},"vehicle_type_id":"4","last_reported":1776783740,"current_range_meters":3200,"station_id":"st_d6tc3vkotcvc738tfjhg","pricing_plan_id":"cebpf4jnsgd1na2vs0mg"},{"bike_id":"428a3e1f-0c14-4644-9951-f64ac1c47a29","system_id":"levelo_inurba_marseille","lat":43.33543,"lon":5.37473,"is_reserved":false,"is_disabled":false,"rental_uris":{"android":"levelo://app?vid=428a3e1f-0c14-4644-9951-f64ac1c47a29","ios":"levelo://app?vid=428a3e1f-0c14-4644-9951-f64ac1c47a29"},"vehicle_type_id":"4","last_reported":1776783740,"current_range_meters":3200,"station_id":"st_d46tts09ee8s73dlu43g","pricing_plan_id":"cebpf4jnsgd1na2vs0mg"},{"bike_id":"973797d2-0b74-4f66-a28c-727366823c4e","system_id":"levelo_inurba_marseille","lat":43.27178,"lon":5.41001,"is_reserved":false,"is_disabled":false,"rental_uris":{"android":"levelo://app?vid=973797d2-0b74-4f66-a28c-727366823c4e","ios":"levelo://app?vid=973797d2-0b74-4f66-a28c-727366823c4e"},"vehicle_type_id":"4","last_reported":1776783740,"current_range_meters":3200,"station_id":"ce4bhl12rcd13ifvqgf0","pricing_plan_id":"cebpf4jnsgd1na2vs0mg"},{"bike_id":"0f5113d1-d0df-41dd-a910-454fc6a0c468","system_id":"levelo_inurba_marseille","lat":43.2738,"lon":5.36255,"is_reserved":false,"is_disabled":false,"rental_uris":{"android":"levelo://app?vid=0f5113d1-d0df-41dd-a910-454fc6a0c468","ios":"levelo://app?vid=0f5113d1-d0df-41dd-a910-454fc6a0c468"},"vehicle_type_id":"4","last_reported":1776783740,"current_range_meters":3200,"station_id":"ce4bhbh2rcd13ifvqeo0","pricing_plan_id":"cebpf4jnsgd1na2vs0mg"},{"bike_id":"82e4a329-5952-4081-9814-b1ad72240a02","system_id":"levelo_inurba_marseille","lat":43.26069,"lon":5.39937,"is_reserved":false,"is_disabled":false,"rental_uris":{"android":"levelo://app?vid=82e4a329-5952-4081-9814-b1ad72240a02","ios":"levelo://app?vid=82e4a329-5952-4081-9814-b1ad72240a02"},"vehicle_type_id":"4","last_reported":1776783740,"current_range_meters":3200,"station_id":"","pricing_plan_id":"cebpf4jnsgd1na2vs0mg"},{"bike_id":"48713af2-72c3-4ac6-97df-5f2e919c9f23","system_id":"levelo_inurba_marseille","lat":43.29051,"lon":5.4271,"is_reserved":false,"is_disabled":false,"rental_uris":{"android":"levelo://app?vid=48713af2-72c3-4ac6-97df-5f2e919c9f23","ios":"levelo://app?vid=48713af2-72c3-4ac6-97df-5f2e919c9f23"},"vehicle_type_id":"4","last_reported":1776783740,"current_range_meters":3600,"station_id":"","pricing_plan_id":"cebpf4jnsgd1na2vs0mg"},{"bike_id":"13e58907-65ee-4d3b-98a1-d78a9e22b950","system_id":"levelo_inurba_marseille","lat":43.21201,"lon":5.35087,"is_reserved":false,"is_disabled":false,"rental_uris":{"android":"levelo://app?vid=13e58907-65ee-4d3b-98a1-d78a9e22b950","ios":"levelo://app?vid=13e58907-65ee-4d3b-98a1-d78a9e22b950"},"vehicle_type_id":"4","last_reported":1776783740,"current_range_meters":3600,"station_id":"st_cvj6sg6p6f1abm77japg","pricing_plan_id":"cebpf4jnsgd1na2vs0mg"},{"bike_id":"6397283a-7235-40d7-a24d-6658359cea1b","system_id":"levelo_inurba_marseille","lat":43.30907,"lon":5.3684,"is_reserved":false,"is_disabled":false,"rental_uris":{"android":"levelo://app?vid=6397283a-7235-40d7-a24d-6658359cea1b","ios":"levelo://app?vid=6397283a-7235-40d7-a24d-6658359cea1b"},"vehicle_type_id":"4","last_reported":1776783740,"current_range_meters":3600,"station_id":"ce4bgn92rcd13ifvqbvg","pricing_plan_id":"cebpf4jnsgd1na2vs0mg"},{"bike_id":"2e75062d-c547-4b09-8a84-d770634fabc7","system_id":"levelo_inurba_marseille","lat":43.28937,"lon":5.36645,"is_reserved":false,"is_disabled":false,"rental_uris":{"android":"levelo://app?vid=2e75062d-c547-4b09-8a84-d770634fabc7","ios":"levelo://app?vid=2e75062d-c547-4b09-8a84-d770634fabc7"},"vehicle_type_id":"4","last_reported":1776783740,"current_range_meters":3600,"station_id":"ce4bhap2rcd13ifvqek0","pricing_plan_id":"cebpf4jnsgd1na2vs0mg"},{"bike_id":"a2f16209-a68b-401b-91f8-28a5abbac2b6","system_id":"levelo_inurba_marseille","lat":43.29426,"lon":5.37384,"is_reserved":false,"is_disabled":false,"rental_uris":{"android":"levelo://app?vid=a2f16209-a68b-401b-91f8-28a5abbac2b6","ios":"levelo://app?vid=a2f16209-a68b-401b-91f8-28a5abbac2b6"},"vehicle_type_id":"4","last_reported":1776783740,"current_range_meters":3600,"station_id":"","pricing_plan_id":"cebpf4jnsgd1na2vs0mg"},{"bike_id":"b2011645-cbc6-44f3-8c33-1aca90ae2d9e","system_id":"levelo_inurba_marseille","lat":43.23213,"lon":5.35093,"is_reserved":false,"is_disabled":false,"rental_uris":{"android":"levelo://app?vid=b2011645-cbc6-44f3-8c33-1aca90ae2d9e","ios":"levelo://app?vid=b2011645-cbc6-44f3-8c33-1aca90ae2d9e"},"vehicle_type_id":"4","last_reported":1776783740,"current_range_meters":3600,"station_id":"","pricing_plan_id":"cebpf4jnsgd1na2vs0mg"},{"bike_id":"91f13632-e19e-4a44-8ac2-0ec92c0781b9","system_id":"levelo_inurba_marseille","lat":43.31042,"lon":5.39366,"is_reserved":false,"is_disabled":false,"rental_uris":{"android":"levelo://app?vid=91f13632-e19e-4a44-8ac2-0ec92c0781b9","ios":"levelo://app?vid=91f13632-e19e-4a44-8ac2-0ec92c0781b9"},"vehicle_type_id":"4","last_reported":1776783740,"current_range_meters":3600,"station_id":"","pricing_plan_id":"cebpf4jnsgd1na2vs0mg"},{"bike_id":"30d87ff1-3522-4098-a0b4-a7d36c1bced3","system_id":"levelo_inurba_marseille","lat":43.2762,"lon":5.36109,"is_reserved":false,"is_disabled":false,"rental_uris":{"android":"levelo://app?vid=30d87ff1-3522-4098-a0b4-a7d36c1bced3","ios":"levelo://app?vid=30d87ff1-3522-4098-a0b4-a7d36c1bced3"},"vehicle_type_id":"4","last_reported":1776783740,"current_range_meters":4000,"station_id":"ce4bgj92rcd13ifvqbe0","pricing_plan_id":"cebpf4jnsgd1na2vs0mg"},{"bike_id":"4d54bfc1-70f5-49c8-b480-e9b21c7bba03","system_id":"levelo_inurba_marseille","lat":43.30543,"lon":5.36713,"is_reserved":false,"is_disabled":false,"rental_uris":{"android":"levelo://app?vid=4d54bfc1-70f5-49c8-b480-e9b21c7bba03","ios":"levelo://app?vid=4d54bfc1-70f5-49c8-b480-e9b21c7bba03"},"vehicle_type_id":"4","last_reported":1776783740,"current_range_meters":4000,"station_id":"ce4bgrp2rcd13ifvqc9g","pricing_plan_id":"cebpf4jnsgd1na2vs0mg"},{"bike_id":"2ccb1bd9-4014-4aff-b51f-304a85d9c982","system_id":"levelo_inurba_marseille","lat":43.28713,"lon":5.37934,"is_reserved":false,"is_disabled":false,"rental_uris":{"android":"levelo://app?vid=2ccb1bd9-4014-4aff-b51f-304a85d9c982","ios":"levelo://app?vid=2ccb1bd9-4014-4aff-b51f-304a85d9c982"},"vehicle_type_id":"4","last_reported":1776783740,"current_range_meters":4000,"station_id":"ce4bh9p2rcd13ifvqec0","pricing_plan_id":"cebpf4jnsgd1na2vs0mg"},{"bike_id":"2ae58b2a-85f4-4c8a-a571-751716d44890","system_id":"levelo_inurba_marseille","lat":43.30428,"lon":5.38876,"is_reserved":false,"is_disabled":false,"rental_uris":{"android":"levelo://app?vid=2ae58b2a-85f4-4c8a-a571-751716d44890","ios":"levelo://app?vid=2ae58b2a-85f4-4c8a-a571-751716d44890"},"vehicle_type_id":"4","last_reported":1776783740,"current_range_meters":4000,"station_id":"ce4bgk12rcd13ifvqbi0","pricing_plan_id":"cebpf4jnsgd1na2vs0mg"},{"bike_id":"22033817-0b57-4aac-b4c2-cb663c9a4002","system_id":"levelo_inurba_marseille","lat":43.31136,"lon":5.38998,"is_reserved":false,"is_disabled":false,"rental_uris":{"android":"levelo://app?vid=22033817-0b57-4aac-b4c2-cb663c9a4002","ios":"levelo://app?vid=22033817-0b57-4aac-b4c2-cb663c9a4002"},"vehicle_type_id":"4","last_reported":1776783740,"current_range_meters":4000,"station_id":"","pricing_plan_id":"cebpf4jnsgd1na2vs0mg"},{"bike_id":"678be1e3-7bf2-4e61-8458-42d5abd6c5bd","system_id":"levelo_inurba_marseille","lat":43.33758,"lon":5.37483,"is_reserved":false,"is_disabled":false,"rental_uris":{"android":"levelo://app?vid=678be1e3-7bf2-4e61-8458-42d5abd6c5bd","ios":"levelo://app?vid=678be1e3-7bf2-4e61-8458-42d5abd6c5bd"},"vehicle_type_id":"4","last_reported":1776783740,"current_range_meters":4400,"station_id":"","pricing_plan_id":"cebpf4jnsgd1na2vs0mg"},{"bike_id":"1f7a2d29-0ba7-4b8b-9cac-6ff894aac21f","system_id":"levelo_inurba_marseille","lat":43.32933,"lon":5.39025,"is_reserved":false,"is_disabled":false,"rental_uris":{"android":"levelo://app?vid=1f7a2d29-0ba7-4b8b-9cac-6ff894aac21f","ios":"levelo://app?vid=1f7a2d29-0ba7-4b8b-9cac-6ff894aac21f"},"vehicle_type_id":"4","last_reported":1776783740,"current_range_meters":4400,"station_id":"","pricing_plan_id":"cebpf4jnsgd1na2vs0mg"},{"bike_id":"098c362d-0801-4643-a782-076f5147f183","system_id":"levelo_inurba_marseille","lat":43.25886,"lon":5.39914,"is_reserved":false,"is_disabled":false,"rental_uris":{"android":"levelo://app?vid=098c362d-0801-4643-a782-076f5147f183","ios":"levelo://app?vid=098c362d-0801-4643-a782-076f5147f183"},"vehicle_type_id":"4","last_reported":1776783740,"current_range_meters":4400,"station_id":"ce4bhl92rcd13ifvqghg","pricing_plan_id":"cebpf4jnsgd1na2vs0mg"},{"bike_id":"d4af3848-d3ee-4c5e-a59d-5931b1ed678e","system_id":"levelo_inurba_marseille","lat":43.2707,"lon":5.42281,"is_reserved":false,"is_disabled":false,"rental_uris":{"android":"levelo://app?vid=d4af3848-d3ee-4c5e-a59d-5931b1ed678e","ios":"levelo://app?vid=d4af3848-d3ee-4c5e-a59d-5931b1ed678e"},"vehicle_type_id":"4","last_reported":1776783740,"current_range_meters":4400,"station_id":"ce4bhk92rcd13ifvqgb0","pricing_plan_id":"cebpf4jnsgd1na2vs0mg"},{"bike_id":"fdde59fb-e056-425c-9fdc-14b94359e5a7","system_id":"levelo_inurba_marseille","lat":43.31779,"lon":5.38452,"is_reserved":false,"is_disabled":false,"rental_uris":{"android":"levelo://app?vid=fdde59fb-e056-425c-9fdc-14b94359e5a7","ios":"levelo://app?vid=fdde59fb-e056-425c-9fdc-14b94359e5a7"},"vehicle_type_id":"4","last_reported":1776783740,"current_range_meters":4400,"station_id":"","pricing_plan_id":"cebpf4jnsgd1na2vs0mg"},{"bike_id":"df9d2cb4-4e43-4791-b05d-23be672eb1ed","system_id":"levelo_inurba_marseille","lat":43.27422,"lon":5.3942,"is_reserved":false,"is_disabled":false,"rental_uris":{"android":"levelo://app?vid=df9d2cb4-4e43-4791-b05d-23be672eb1ed","ios":"levelo://app?vid=df9d2cb4-4e43-4791-b05d-23be672eb1ed"},"vehicle_type_id":"4","last_reported":1776783740,"current_range_meters":4400,"station_id":"ce4bhdp2rcd13ifvqf20","pricing_plan_id":"cebpf4jnsgd1na2vs0mg"},{"bike_id":"0fdc542d-acd2-4025-8d63-512d2f4432f7","system_id":"levelo_inurba_marseille","lat":43.292316,"lon":5.360695,"is_reserved":false,"is_disabled":false,"rental_uris":{"android":"levelo://app?vid=0fdc542d-acd2-4025-8d63-512d2f4432f7","ios":"levelo://app?vid=0fdc542d-acd2-4025-8d63-512d2f4432f7"},"vehicle_type_id":"4","last_reported":1776783740,"current_range_meters":4400,"station_id":"ce4bh192rcd13ifvqdd0","pricing_plan_id":"cebpf4jnsgd1na2vs0mg"},{"bike_id":"da65f3db-feba-49fc-a198-9a8bd771aca3","system_id":"levelo_inurba_marseille","lat":43.28851,"lon":5.39309,"is_reserved":false,"is_disabled":false,"rental_uris":{"android":"levelo://app?vid=da65f3db-feba-49fc-a198-9a8bd771aca3","ios":"levelo://app?vid=da65f3db-feba-49fc-a198-9a8bd771aca3"},"vehicle_type_id":"4","last_reported":1776783740,"current_range_meters":4800,"station_id":"ce4bh2p2rcd13ifvqdi0","pricing_plan_id":"cebpf4jnsgd1na2vs0mg"},{"bike_id":"72e7de6b-aac4-4dcc-8b49-b21b487d3dd7","system_id":"levelo_inurba_marseille","lat":43.22562,"lon":5.41632,"is_reserved":false,"is_disabled":false,"rental_uris":{"android":"levelo://app?vid=72e7de6b-aac4-4dcc-8b49-b21b487d3dd7","ios":"levelo://app?vid=72e7de6b-aac4-4dcc-8b49-b21b487d3dd7"},"vehicle_type_id":"4","last_reported":1776783740,"current_range_meters":4800,"station_id":"st_d2o4gvlbi1j2169b742g","pricing_plan_id":"cebpf4jnsgd1na2vs0mg"},{"bike_id":"2b91d518-5095-4415-99e4-124095a25fff","system_id":"levelo_inurba_marseille","lat":43.33692,"lon":5.39839,"is_reserved":false,"is_disabled":false,"rental_uris":{"android":"levelo://app?vid=2b91d518-5095-4415-99e4-124095a25fff","ios":"levelo://app?vid=2b91d518-5095-4415-99e4-124095a25fff"},"vehicle_type_id":"4","last_reported":1776783740,"current_range_meters":4800,"station_id":"","pricing_plan_id":"cebpf4jnsgd1na2vs0mg"},{"bike_id":"a65809da-7d87-4f4c-9251-b7b2777b97bc","system_id":"levelo_inurba_marseille","lat":43.31315,"lon":5.36725,"is_reserved":false,"is_disabled":false,"rental_uris":{"android":"levelo://app?vid=a65809da-7d87-4f4c-9251-b7b2777b97bc","ios":"levelo://app?vid=a65809da-7d87-4f4c-9251-b7b2777b97bc"},"vehicle_type_id":"4","last_reported":1776783740,"current_range_meters":4800,"station_id":"ce4bgr92rcd13ifvqc6g","pricing_plan_id":"cebpf4jnsgd1na2vs0mg"},{"bike_id":"8d3a70bf-bfe4-48ea-9261-dddd5bc9cdaa","system_id":"levelo_inurba_marseille","lat":43.26212,"lon":5.37445,"is_reserved":false,"is_disabled":false,"rental_uris":{"android":"levelo://app?vid=8d3a70bf-bfe4-48ea-9261-dddd5bc9cdaa","ios":"levelo://app?vid=8d3a70bf-bfe4-48ea-9261-dddd5bc9cdaa"},"vehicle_type_id":"4","last_reported":1776783740,"current_range_meters":4800,"station_id":"ce4bhgp2rcd13ifvqfc0","pricing_plan_id":"cebpf4jnsgd1na2vs0mg"},{"bike_id":"b357578c-7d34-42e5-a7cf-f58b2e7561d1","system_id":"levelo_inurba_marseille","lat":43.30529,"lon":5.36534,"is_reserved":false,"is_disabled":false,"rental_uris":{"android":"levelo://app?vid=b357578c-7d34-42e5-a7cf-f58b2e7561d1","ios":"levelo://app?vid=b357578c-7d34-42e5-a7cf-f58b2e7561d1"},"vehicle_type_id":"4","last_reported":1776783740,"current_range_meters":4800,"station_id":"ce4bgs12rcd13ifvqcag","pricing_plan_id":"cebpf4jnsgd1na2vs0mg"},{"bike_id":"c42aba59-3e9b-4802-ad20-d7f6fbee54b5","system_id":"levelo_inurba_marseille","lat":43.29386,"lon":5.39516,"is_reserved":false,"is_disabled":false,"rental_uris":{"android":"levelo://app?vid=c42aba59-3e9b-4802-ad20-d7f6fbee54b5","ios":"levelo://app?vid=c42aba59-3e9b-4802-ad20-d7f6fbee54b5"},"vehicle_type_id":"4","last_reported":1776783740,"current_range_meters":4800,"station_id":"","pricing_plan_id":"cebpf4jnsgd1na2vs0mg"},{"bike_id":"96bc24e1-014f-4761-8431-a57fac597c23","system_id":"levelo_inurba_marseille","lat":43.28268,"lon":5.35073,"is_reserved":false,"is_disabled":false,"rental_uris":{"android":"levelo://app?vid=96bc24e1-014f-4761-8431-a57fac597c23","ios":"levelo://app?vid=96bc24e1-014f-4761-8431-a57fac597c23"},"vehicle_type_id":"4","last_reported":1776783740,"current_range_meters":5600,"station_id":"ce4bhbp2rcd13ifvqerg","pricing_plan_id":"cebpf4jnsgd1na2vs0mg"},{"bike_id":"c58bf936-979d-4f01-9463-0f426a32afe0","system_id":"levelo_inurba_marseille","lat":43.2862,"lon":5.3511,"is_reserved":false,"is_disabled":false,"rental_uris":{"android":"levelo://app?vid=c58bf936-979d-4f01-9463-0f426a32afe0","ios":"levelo://app?vid=c58bf936-979d-4f01-9463-0f426a32afe0"},"vehicle_type_id":"4","last_reported":1776783740,"current_range_meters":5600,"station_id":"ce4bhch2rcd13ifvqeug","pricing_plan_id":"cebpf4jnsgd1na2vs0mg"},{"bike_id":"34aae84b-2d22-4719-b122-df9a41c71c2d","system_id":"levelo_inurba_marseille","lat":43.29735,"lon":5.37664,"is_reserved":false,"is_disabled":false,"rental_uris":{"android":"levelo://app?vid=34aae84b-2d22-4719-b122-df9a41c71c2d","ios":"levelo://app?vid=34aae84b-2d22-4719-b122-df9a41c71c2d"},"vehicle_type_id":"4","last_reported":1776783740,"current_range_meters":5600,"station_id":"ce4bgkh2rcd13ifvqbl0","pricing_plan_id":"cebpf4jnsgd1na2vs0mg"},{"bike_id":"f3b0ab3d-d909-40bf-9a37-cb242a2415bb","system_id":"levelo_inurba_marseille","lat":43.31337,"lon":5.36725,"is_reserved":false,"is_disabled":false,"rental_uris":{"android":"levelo://app?vid=f3b0ab3d-d909-40bf-9a37-cb242a2415bb","ios":"levelo://app?vid=f3b0ab3d-d909-40bf-9a37-cb242a2415bb"},"vehicle_type_id":"4","last_reported":1776783740,"current_range_meters":5600,"station_id":"ce4bgr92rcd13ifvqc6g","pricing_plan_id":"cebpf4jnsgd1na2vs0mg"},{"bike_id":"65c36df8-a7fe-4010-8370-f48b0c45f206","system_id":"levelo_inurba_marseille","lat":43.33548,"lon":5.3747,"is_reserved":false,"is_disabled":false,"rental_uris":{"android":"levelo://app?vid=65c36df8-a7fe-4010-8370-f48b0c45f206","ios":"levelo://app?vid=65c36df8-a7fe-4010-8370-f48b0c45f206"},"vehicle_type_id":"4","last_reported":1776783740,"current_range_meters":5600,"station_id":"st_d46tts09ee8s73dlu43g","pricing_plan_id":"cebpf4jnsgd1na2vs0mg"},{"bike_id":"eb0dd92c-7777-4aff-ab88-96a22419386b","system_id":"levelo_inurba_marseille","lat":43.30138,"lon":5.38108,"is_reserved":false,"is_disabled":true,"rental_uris":{"android":"levelo://app?vid=eb0dd92c-7777-4aff-ab88-96a22419386b","ios":"levelo://app?vid=eb0dd92c-7777-4aff-ab88-96a22419386b"},"vehicle_type_id":"4","last_reported":1776783740,"current_range_meters":5600,"station_id":"ce4bgjp2rcd13ifvqbh0","pricing_plan_id":"cebpf4jnsgd1na2vs0mg"},{"bike_id":"14b782ba-c06d-4a3c-ad07-1fdd0de514ae","system_id":"levelo_inurba_marseille","lat":43.23062,"lon":5.35491,"is_reserved":false,"is_disabled":false,"rental_uris":{"android":"levelo://app?vid=14b782ba-c06d-4a3c-ad07-1fdd0de514ae","ios":"levelo://app?vid=14b782ba-c06d-4a3c-ad07-1fdd0de514ae"},"vehicle_type_id":"4","last_reported":1776783740,"current_range_meters":5600,"station_id":"cpo3342slgdg3j2ifvpg","pricing_plan_id":"cebpf4jnsgd1na2vs0mg"},{"bike_id":"be5348a3-1499-4f44-9d7a-d050ef9268e8","system_id":"levelo_inurba_marseille","lat":43.32699,"lon":5.38328,"is_reserved":false,"is_disabled":false,"rental_uris":{"android":"levelo://app?vid=be5348a3-1499-4f44-9d7a-d050ef9268e8","ios":"levelo://app?vid=be5348a3-1499-4f44-9d7a-d050ef9268e8"},"vehicle_type_id":"4","last_reported":1776783740,"current_range_meters":5600,"station_id":"","pricing_plan_id":"cebpf4jnsgd1na2vs0mg"},{"bike_id":"9e72c0f0-8b9e-41c5-a761-b739636ae434","system_id":"levelo_inurba_marseille","lat":43.28259,"lon":5.35071,"is_reserved":false,"is_disabled":false,"rental_uris":{"android":"levelo://app?vid=9e72c0f0-8b9e-41c5-a761-b739636ae434","ios":"levelo://app?vid=9e72c0f0-8b9e-41c5-a761-b739636ae434"},"vehicle_type_id":"4","last_reported":1776783740,"current_range_meters":5600,"station_id":"ce4bhbp2rcd13ifvqerg","pricing_plan_id":"cebpf4jnsgd1na2vs0mg"},{"bike_id":"756714fc-7c90-4788-95a1-19b1f4212e93","system_id":"levelo_inurba_marseille","lat":43.28282,"lon":5.35082,"is_reserved":false,"is_disabled":false,"rental_uris":{"android":"levelo://app?vid=756714fc-7c90-4788-95a1-19b1f4212e93","ios":"levelo://app?vid=756714fc-7c90-4788-95a1-19b1f4212e93"},"vehicle_type_id":"4","last_reported":1776783740,"current_range_meters":5600,"station_id":"ce4bhbp2rcd13ifvqerg","pricing_plan_id":"cebpf4jnsgd1na2vs0mg"},{"bike_id":"53c700b8-845b-473e-b238-598a75d59a87","system_id":"levelo_inurba_marseille","lat":43.308004,"lon":5.381417,"is_reserved":false,"is_disabled":false,"rental_uris":{"android":"levelo://app?vid=53c700b8-845b-473e-b238-598a75d59a87","ios":"levelo://app?vid=53c700b8-845b-473e-b238-598a75d59a87"},"vehicle_type_id":"4","last_reported":1776783740,"current_range_meters":5600,"station_id":"ce4bgt12rcd13ifvqce0","pricing_plan_id":"cebpf4jnsgd1na2vs0mg"},{"bike_id":"58ed09d9-0aa1-471f-818a-54c432b83970","system_id":"levelo_inurba_marseille","lat":43.26589,"lon":5.42829,"is_reserved":false,"is_disabled":false,"rental_uris":{"android":"levelo://app?vid=58ed09d9-0aa1-471f-818a-54c432b83970","ios":"levelo://app?vid=58ed09d9-0aa1-471f-818a-54c432b83970"},"vehicle_type_id":"4","last_reported":1776783740,"current_range_meters":6000,"station_id":"","pricing_plan_id":"cebpf4jnsgd1na2vs0mg"},{"bike_id":"e3cb4e7a-e192-4496-b719-7cc0b747e800","system_id":"levelo_inurba_marseille","lat":43.28267,"lon":5.35085,"is_reserved":false,"is_disabled":false,"rental_uris":{"android":"levelo://app?vid=e3cb4e7a-e192-4496-b719-7cc0b747e800","ios":"levelo://app?vid=e3cb4e7a-e192-4496-b719-7cc0b747e800"},"vehicle_type_id":"4","last_reported":1776783740,"current_range_meters":6000,"station_id":"ce4bhbp2rcd13ifvqerg","pricing_plan_id":"cebpf4jnsgd1na2vs0mg"},{"bike_id":"857e2f06-fddd-4147-a100-37225d64a549","system_id":"levelo_inurba_marseille","lat":43.25573,"lon":5.38243,"is_reserved":false,"is_disabled":false,"rental_uris":{"android":"levelo://app?vid=857e2f06-fddd-4147-a100-37225d64a549","ios":"levelo://app?vid=857e2f06-fddd-4147-a100-37225d64a549"},"vehicle_type_id":"4","last_reported":1776783740,"current_range_meters":6000,"station_id":"ce4bhih2rcd13ifvqfs0","pricing_plan_id":"cebpf4jnsgd1na2vs0mg"},{"bike_id":"595494a8-4052-4c6a-9535-2b84dd157f3e","system_id":"levelo_inurba_marseille","lat":43.2737,"lon":5.36248,"is_reserved":false,"is_disabled":false,"rental_uris":{"android":"levelo://app?vid=595494a8-4052-4c6a-9535-2b84dd157f3e","ios":"levelo://app?vid=595494a8-4052-4c6a-9535-2b84dd157f3e"},"vehicle_type_id":"4","last_reported":1776783740,"current_range_meters":6000,"station_id":"ce4bhbh2rcd13ifvqeo0","pricing_plan_id":"cebpf4jnsgd1na2vs0mg"},{"bike_id":"55b9e363-aef1-4e55-a55c-7c19ee416703","system_id":"levelo_inurba_marseille","lat":43.31844,"lon":5.37299,"is_reserved":false,"is_disabled":false,"rental_uris":{"android":"levelo://app?vid=55b9e363-aef1-4e55-a55c-7c19ee416703","ios":"levelo://app?vid=55b9e363-aef1-4e55-a55c-7c19ee416703"},"vehicle_type_id":"4","last_reported":1776783740,"current_range_meters":6000,"station_id":"","pricing_plan_id":"cebpf4jnsgd1na2vs0mg"},{"bike_id":"15b11722-0bc8-4d21-b06c-ec02d50030ae","system_id":"levelo_inurba_marseille","lat":43.26671,"lon":5.38245,"is_reserved":false,"is_disabled":false,"rental_uris":{"android":"levelo://app?vid=15b11722-0bc8-4d21-b06c-ec02d50030ae","ios":"levelo://app?vid=15b11722-0bc8-4d21-b06c-ec02d50030ae"},"vehicle_type_id":"4","last_reported":1776783740,"current_range_meters":6000,"station_id":"ce4bhg92rcd13ifvqf90","pricing_plan_id":"cebpf4jnsgd1na2vs0mg"},{"bike_id":"72dd192c-a8e4-4de1-9584-29edb6eb93c4","system_id":"levelo_inurba_marseille","lat":43.28995,"lon":5.35607,"is_reserved":false,"is_disabled":false,"rental_uris":{"android":"levelo://app?vid=72dd192c-a8e4-4de1-9584-29edb6eb93c4","ios":"levelo://app?vid=72dd192c-a8e4-4de1-9584-29edb6eb93c4"},"vehicle_type_id":"4","last_reported":1776783740,"current_range_meters":6000,"station_id":"ce4bhb92rcd13ifvqen0","pricing_plan_id":"cebpf4jnsgd1na2vs0mg"},{"bike_id":"f50abb5a-c46f-4f50-8bf5-012dc508e7bf","system_id":"levelo_inurba_marseille","lat":43.27272,"lon":5.36268,"is_reserved":false,"is_disabled":false,"rental_uris":{"android":"levelo://app?vid=f50abb5a-c46f-4f50-8bf5-012dc508e7bf","ios":"levelo://app?vid=f50abb5a-c46f-4f50-8bf5-012dc508e7bf"},"vehicle_type_id":"4","last_reported":1776783740,"current_range_meters":6000,"station_id":"","pricing_plan_id":"cebpf4jnsgd1na2vs0mg"},{"bike_id":"3ce2b2d7-459f-4ac5-bb98-449c1b19d4b4","system_id":"levelo_inurba_marseille","lat":43.2721,"lon":5.39173,"is_reserved":false,"is_disabled":false,"rental_uris":{"android":"levelo://app?vid=3ce2b2d7-459f-4ac5-bb98-449c1b19d4b4","ios":"levelo://app?vid=3ce2b2d7-459f-4ac5-bb98-449c1b19d4b4"},"vehicle_type_id":"4","last_reported":1776783740,"current_range_meters":6000,"station_id":"ce4bhhp2rcd13ifvqfm0","pricing_plan_id":"cebpf4jnsgd1na2vs0mg"},{"bike_id":"624daf69-f815-4f9b-8f7c-0a5468b5d0f6","system_id":"levelo_inurba_marseille","lat":43.26195,"lon":5.37046,"is_reserved":false,"is_disabled":false,"rental_uris":{"android":"levelo://app?vid=624daf69-f815-4f9b-8f7c-0a5468b5d0f6","ios":"levelo://app?vid=624daf69-f815-4f9b-8f7c-0a5468b5d0f6"},"vehicle_type_id":"4","last_reported":1776783740,"current_range_meters":6000,"station_id":"","pricing_plan_id":"cebpf4jnsgd1na2vs0mg"},{"bike_id":"949c5406-bc07-4d75-bfe0-a9130ab19074","system_id":"levelo_inurba_marseille","lat":43.24388,"lon":5.37055,"is_reserved":false,"is_disabled":false,"rental_uris":{"android":"levelo://app?vid=949c5406-bc07-4d75-bfe0-a9130ab19074","ios":"levelo://app?vid=949c5406-bc07-4d75-bfe0-a9130ab19074"},"vehicle_type_id":"4","last_reported":1776783740,"current_range_meters":6400,"station_id":"ce4bhhh2rcd13ifvqfk0","pricing_plan_id":"cebpf4jnsgd1na2vs0mg"},{"bike_id":"ac881409-e7c1-4dc7-868f-5470aa726fd2","system_id":"levelo_inurba_marseille","lat":43.29823,"lon":5.44052,"is_reserved":false,"is_disabled":false,"rental_uris":{"android":"levelo://app?vid=ac881409-e7c1-4dc7-868f-5470aa726fd2","ios":"levelo://app?vid=ac881409-e7c1-4dc7-868f-5470aa726fd2"},"vehicle_type_id":"4","last_reported":1776783740,"current_range_meters":6400,"station_id":"st_d3jp68qikq2c7381ktn0","pricing_plan_id":"cebpf4jnsgd1na2vs0mg"},{"bike_id":"841d1520-01a5-4df4-a125-b0a83adb7bf3","system_id":"levelo_inurba_marseille","lat":43.26688,"lon":5.38297,"is_reserved":false,"is_disabled":false,"rental_uris":{"android":"levelo://app?vid=841d1520-01a5-4df4-a125-b0a83adb7bf3","ios":"levelo://app?vid=841d1520-01a5-4df4-a125-b0a83adb7bf3"},"vehicle_type_id":"4","last_reported":1776783740,"current_range_meters":6400,"station_id":"ce4bhg92rcd13ifvqf90","pricing_plan_id":"cebpf4jnsgd1na2vs0mg"},{"bike_id":"318cec8e-ba8f-41c7-8604-e1352426e5a2","system_id":"levelo_inurba_marseille","lat":43.26799,"lon":5.39416,"is_reserved":false,"is_disabled":false,"rental_uris":{"android":"levelo://app?vid=318cec8e-ba8f-41c7-8604-e1352426e5a2","ios":"levelo://app?vid=318cec8e-ba8f-41c7-8604-e1352426e5a2"},"vehicle_type_id":"4","last_reported":1776783740,"current_range_meters":6400,"station_id":"ce4bhh12rcd13ifvqfg0","pricing_plan_id":"cebpf4jnsgd1na2vs0mg"},{"bike_id":"e4470980-b65c-4b6a-adf3-8e9408816e0b","system_id":"levelo_inurba_marseille","lat":43.28416,"lon":5.34979,"is_reserved":false,"is_disabled":false,"rental_uris":{"android":"levelo://app?vid=e4470980-b65c-4b6a-adf3-8e9408816e0b","ios":"levelo://app?vid=e4470980-b65c-4b6a-adf3-8e9408816e0b"},"vehicle_type_id":"4","last_reported":1776783740,"current_range_meters":6400,"station_id":"ce4bhbh2rcd13ifvqepg","pricing_plan_id":"cebpf4jnsgd1na2vs0mg"},{"bike_id":"f1af22c7-2d0c-4e3a-98f6-cc4563eecffb","system_id":"levelo_inurba_marseille","lat":43.29797,"lon":5.40405,"is_reserved":false,"is_disabled":false,"rental_uris":{"android":"levelo://app?vid=f1af22c7-2d0c-4e3a-98f6-cc4563eecffb","ios":"levelo://app?vid=f1af22c7-2d0c-4e3a-98f6-cc4563eecffb"},"vehicle_type_id":"4","last_reported":1776783740,"current_range_meters":6400,"station_id":"ce4bh112rcd13ifvqd90","pricing_plan_id":"cebpf4jnsgd1na2vs0mg"},{"bike_id":"85d008d7-db23-4109-8c7e-d94d301d8f6b","system_id":"levelo_inurba_marseille","lat":43.26319,"lon":5.3736,"is_reserved":false,"is_disabled":false,"rental_uris":{"android":"levelo://app?vid=85d008d7-db23-4109-8c7e-d94d301d8f6b","ios":"levelo://app?vid=85d008d7-db23-4109-8c7e-d94d301d8f6b"},"vehicle_type_id":"4","last_reported":1776783740,"current_range_meters":6400,"station_id":"","pricing_plan_id":"cebpf4jnsgd1na2vs0mg"},{"bike_id":"908ae91c-1c71-4e49-862b-992bd94d477a","system_id":"levelo_inurba_marseille","lat":43.28409,"lon":5.35,"is_reserved":false,"is_disabled":false,"rental_uris":{"android":"levelo://app?vid=908ae91c-1c71-4e49-862b-992bd94d477a","ios":"levelo://app?vid=908ae91c-1c71-4e49-862b-992bd94d477a"},"vehicle_type_id":"4","last_reported":1776783740,"current_range_meters":6800,"station_id":"ce4bhbh2rcd13ifvqepg","pricing_plan_id":"cebpf4jnsgd1na2vs0mg"},{"bike_id":"aa4f590b-c14a-4d10-9805-506b31366221","system_id":"levelo_inurba_marseille","lat":43.27616,"lon":5.3612,"is_reserved":false,"is_disabled":false,"rental_uris":{"android":"levelo://app?vid=aa4f590b-c14a-4d10-9805-506b31366221","ios":"levelo://app?vid=aa4f590b-c14a-4d10-9805-506b31366221"},"vehicle_type_id":"4","last_reported":1776783740,"current_range_meters":6800,"station_id":"ce4bgj92rcd13ifvqbe0","pricing_plan_id":"cebpf4jnsgd1na2vs0mg"},{"bike_id":"f93d0c16-f1ee-477a-90f6-f6389909c625","system_id":"levelo_inurba_marseille","lat":43.31326,"lon":5.39689,"is_reserved":false,"is_disabled":false,"rental_uris":{"android":"levelo://app?vid=f93d0c16-f1ee-477a-90f6-f6389909c625","ios":"levelo://app?vid=f93d0c16-f1ee-477a-90f6-f6389909c625"},"vehicle_type_id":"4","last_reported":1776783740,"current_range_meters":6800,"station_id":"ce4bgvp2rcd13ifvqcu0","pricing_plan_id":"cebpf4jnsgd1na2vs0mg"},{"bike_id":"2bf658ef-a912-4563-9f63-3110eb25e849","system_id":"levelo_inurba_marseille","lat":43.29723,"lon":5.35979,"is_reserved":false,"is_disabled":false,"rental_uris":{"android":"levelo://app?vid=2bf658ef-a912-4563-9f63-3110eb25e849","ios":"levelo://app?vid=2bf658ef-a912-4563-9f63-3110eb25e849"},"vehicle_type_id":"4","last_reported":1776783740,"current_range_meters":6800,"station_id":"","pricing_plan_id":"cebpf4jnsgd1na2vs0mg"},{"bike_id":"71876fdf-04f6-4545-b4f2-a740d6faadde","system_id":"levelo_inurba_marseille","lat":43.27617,"lon":5.36118,"is_reserved":false,"is_disabled":false,"rental_uris":{"android":"levelo://app?vid=71876fdf-04f6-4545-b4f2-a740d6faadde","ios":"levelo://app?vid=71876fdf-04f6-4545-b4f2-a740d6faadde"},"vehicle_type_id":"4","last_reported":1776783740,"current_range_meters":6800,"station_id":"ce4bgj92rcd13ifvqbe0","pricing_plan_id":"cebpf4jnsgd1na2vs0mg"},{"bike_id":"c5eb009f-3480-4876-add3-608c0b457401","system_id":"levelo_inurba_marseille","lat":43.27383,"lon":5.36258,"is_reserved":false,"is_disabled":false,"rental_uris":{"android":"levelo://app?vid=c5eb009f-3480-4876-add3-608c0b457401","ios":"levelo://app?vid=c5eb009f-3480-4876-add3-608c0b457401"},"vehicle_type_id":"4","last_reported":1776783740,"current_range_meters":6800,"station_id":"ce4bhbh2rcd13ifvqeo0","pricing_plan_id":"cebpf4jnsgd1na2vs0mg"},{"bike_id":"96f3d08d-0a02-4358-8e01-497d14b705a0","system_id":"levelo_inurba_marseille","lat":43.30556,"lon":5.3656,"is_reserved":false,"is_disabled":false,"rental_uris":{"android":"levelo://app?vid=96f3d08d-0a02-4358-8e01-497d14b705a0","ios":"levelo://app?vid=96f3d08d-0a02-4358-8e01-497d14b705a0"},"vehicle_type_id":"4","last_reported":1776783740,"current_range_meters":6800,"station_id":"ce4bgs12rcd13ifvqcag","pricing_plan_id":"cebpf4jnsgd1na2vs0mg"},{"bike_id":"c0a72292-1b55-4b16-ac6b-3b6ae56ef455","system_id":"levelo_inurba_marseille","lat":43.28267,"lon":5.35081,"is_reserved":false,"is_disabled":false,"rental_uris":{"android":"levelo://app?vid=c0a72292-1b55-4b16-ac6b-3b6ae56ef455","ios":"levelo://app?vid=c0a72292-1b55-4b16-ac6b-3b6ae56ef455"},"vehicle_type_id":"4","last_reported":1776783740,"current_range_meters":6800,"station_id":"ce4bhbp2rcd13ifvqerg","pricing_plan_id":"cebpf4jnsgd1na2vs0mg"},{"bike_id":"c224c9cf-d497-4bf6-82cd-eee25423f927","system_id":"levelo_inurba_marseille","lat":43.29639,"lon":5.37376,"is_reserved":false,"is_disabled":true,"rental_uris":{"android":"levelo://app?vid=c224c9cf-d497-4bf6-82cd-eee25423f927","ios":"levelo://app?vid=c224c9cf-d497-4bf6-82cd-eee25423f927"},"vehicle_type_id":"4","last_reported":1776783740,"current_range_meters":6800,"station_id":"","pricing_plan_id":"cebpf4jnsgd1na2vs0mg"},{"bike_id":"b727c856-2086-4073-8a4f-59ded7901e65","system_id":"levelo_inurba_marseille","lat":43.27376,"lon":5.36255,"is_reserved":false,"is_disabled":false,"rental_uris":{"android":"levelo://app?vid=b727c856-2086-4073-8a4f-59ded7901e65","ios":"levelo://app?vid=b727c856-2086-4073-8a4f-59ded7901e65"},"vehicle_type_id":"4","last_reported":1776783740,"current_range_meters":6800,"station_id":"ce4bhbh2rcd13ifvqeo0","pricing_plan_id":"cebpf4jnsgd1na2vs0mg"},{"bike_id":"94403eff-5be5-4e77-8a31-a1b660052177","system_id":"levelo_inurba_marseille","lat":43.30599,"lon":5.37231,"is_reserved":false,"is_disabled":false,"rental_uris":{"android":"levelo://app?vid=94403eff-5be5-4e77-8a31-a1b660052177","ios":"levelo://app?vid=94403eff-5be5-4e77-8a31-a1b660052177"},"vehicle_type_id":"4","last_reported":1776783740,"current_range_meters":6800,"station_id":"ce4bgqh2rcd13ifvqc4g","pricing_plan_id":"cebpf4jnsgd1na2vs0mg"},{"bike_id":"5b39caf3-fcf1-490c-9d52-565bbe6b0eed","system_id":"levelo_inurba_marseille","lat":43.22547,"lon":5.41646,"is_reserved":false,"is_disabled":false,"rental_uris":{"android":"levelo://app?vid=5b39caf3-fcf1-490c-9d52-565bbe6b0eed","ios":"levelo://app?vid=5b39caf3-fcf1-490c-9d52-565bbe6b0eed"},"vehicle_type_id":"4","last_reported":1776783740,"current_range_meters":7200,"station_id":"st_d2o4gvlbi1j2169b742g","pricing_plan_id":"cebpf4jnsgd1na2vs0mg"},{"bike_id":"07e94dfd-f55a-4b82-9624-9fd87fe31888","system_id":"levelo_inurba_marseille","lat":43.25864,"lon":5.39916,"is_reserved":false,"is_disabled":false,"rental_uris":{"android":"levelo://app?vid=07e94dfd-f55a-4b82-9624-9fd87fe31888","ios":"levelo://app?vid=07e94dfd-f55a-4b82-9624-9fd87fe31888"},"vehicle_type_id":"4","last_reported":1776783740,"current_range_meters":7200,"station_id":"ce4bhl92rcd13ifvqghg","pricing_plan_id":"cebpf4jnsgd1na2vs0mg"},{"bike_id":"364373be-549a-4330-beba-78d6932fde3f","system_id":"levelo_inurba_marseille","lat":43.27387,"lon":5.36259,"is_reserved":false,"is_disabled":false,"rental_uris":{"android":"levelo://app?vid=364373be-549a-4330-beba-78d6932fde3f","ios":"levelo://app?vid=364373be-549a-4330-beba-78d6932fde3f"},"vehicle_type_id":"4","last_reported":1776783740,"current_range_meters":7200,"station_id":"ce4bhbh2rcd13ifvqeo0","pricing_plan_id":"cebpf4jnsgd1na2vs0mg"},{"bike_id":"e85a0a79-36bd-4752-bc20-d17361f30309","system_id":"levelo_inurba_marseille","lat":43.31683,"lon":5.40479,"is_reserved":false,"is_disabled":false,"rental_uris":{"android":"levelo://app?vid=e85a0a79-36bd-4752-bc20-d17361f30309","ios":"levelo://app?vid=e85a0a79-36bd-4752-bc20-d17361f30309"},"vehicle_type_id":"4","last_reported":1776783740,"current_range_meters":7200,"station_id":"ce4bh012rcd13ifvqd00","pricing_plan_id":"cebpf4jnsgd1na2vs0mg"},{"bike_id":"c0fa7c23-8793-4ce3-95e1-bbe86fee5f14","system_id":"levelo_inurba_marseille","lat":43.25575,"lon":5.3826,"is_reserved":false,"is_disabled":false,"rental_uris":{"android":"levelo://app?vid=c0fa7c23-8793-4ce3-95e1-bbe86fee5f14","ios":"levelo://app?vid=c0fa7c23-8793-4ce3-95e1-bbe86fee5f14"},"vehicle_type_id":"4","last_reported":1776783740,"current_range_meters":7200,"station_id":"ce4bhih2rcd13ifvqfs0","pricing_plan_id":"cebpf4jnsgd1na2vs0mg"},{"bike_id":"7eb95136-c180-4b14-b549-0d6389a20cde","system_id":"levelo_inurba_marseille","lat":43.30747,"lon":5.4404,"is_reserved":false,"is_disabled":false,"rental_uris":{"android":"levelo://app?vid=7eb95136-c180-4b14-b549-0d6389a20cde","ios":"levelo://app?vid=7eb95136-c180-4b14-b549-0d6389a20cde"},"vehicle_type_id":"4","last_reported":1776783740,"current_range_meters":7200,"station_id":"","pricing_plan_id":"cebpf4jnsgd1na2vs0mg"},{"bike_id":"3400e5ad-ce84-4224-b3ff-77f74e676202","system_id":"levelo_inurba_marseille","lat":43.28415,"lon":5.34992,"is_reserved":false,"is_disabled":false,"rental_uris":{"android":"levelo://app?vid=3400e5ad-ce84-4224-b3ff-77f74e676202","ios":"levelo://app?vid=3400e5ad-ce84-4224-b3ff-77f74e676202"},"vehicle_type_id":"4","last_reported":1776783740,"current_range_meters":7200,"station_id":"ce4bhbh2rcd13ifvqepg","pricing_plan_id":"cebpf4jnsgd1na2vs0mg"},{"bike_id":"14290775-1809-431a-89de-994574cdc895","system_id":"levelo_inurba_marseille","lat":43.27579,"lon":5.3864,"is_reserved":false,"is_disabled":false,"rental_uris":{"android":"levelo://app?vid=14290775-1809-431a-89de-994574cdc895","ios":"levelo://app?vid=14290775-1809-431a-89de-994574cdc895"},"vehicle_type_id":"4","last_reported":1776783740,"current_range_meters":7200,"station_id":"","pricing_plan_id":"cebpf4jnsgd1na2vs0mg"},{"bike_id":"2d40a836-133e-4df4-8e94-64278280c4e2","system_id":"levelo_inurba_marseille","lat":43.28464,"lon":5.48372,"is_reserved":false,"is_disabled":false,"rental_uris":{"android":"levelo://app?vid=2d40a836-133e-4df4-8e94-64278280c4e2","ios":"levelo://app?vid=2d40a836-133e-4df4-8e94-64278280c4e2"},"vehicle_type_id":"4","last_reported":1776783740,"current_range_meters":7200,"station_id":"","pricing_plan_id":"cebpf4jnsgd1na2vs0mg"},{"bike_id":"434df303-b251-4323-8c2c-e013e4c3b79c","system_id":"levelo_inurba_marseille","lat":43.27613,"lon":5.36112,"is_reserved":false,"is_disabled":false,"rental_uris":{"android":"levelo://app?vid=434df303-b251-4323-8c2c-e013e4c3b79c","ios":"levelo://app?vid=434df303-b251-4323-8c2c-e013e4c3b79c"},"vehicle_type_id":"4","last_reported":1776783740,"current_range_meters":7200,"station_id":"ce4bgj92rcd13ifvqbe0","pricing_plan_id":"cebpf4jnsgd1na2vs0mg"},{"bike_id":"2224c961-bce6-4c33-966e-f3361d1b2ab2","system_id":"levelo_inurba_marseille","lat":43.27484,"lon":5.4158,"is_reserved":false,"is_disabled":false,"rental_uris":{"android":"levelo://app?vid=2224c961-bce6-4c33-966e-f3361d1b2ab2","ios":"levelo://app?vid=2224c961-bce6-4c33-966e-f3361d1b2ab2"},"vehicle_type_id":"4","last_reported":1776783740,"current_range_meters":7200,"station_id":"st_d6im8g6chgec73a5pndg","pricing_plan_id":"cebpf4jnsgd1na2vs0mg"},{"bike_id":"0a563673-b0ef-43ae-bf66-e56944e62483","system_id":"levelo_inurba_marseille","lat":43.27377,"lon":5.3627,"is_reserved":false,"is_disabled":false,"rental_uris":{"android":"levelo://app?vid=0a563673-b0ef-43ae-bf66-e56944e62483","ios":"levelo://app?vid=0a563673-b0ef-43ae-bf66-e56944e62483"},"vehicle_type_id":"4","last_reported":1776783740,"current_range_meters":7200,"station_id":"ce4bhbh2rcd13ifvqeo0","pricing_plan_id":"cebpf4jnsgd1na2vs0mg"},{"bike_id":"f9e36f38-ef4d-44c9-9f31-a0f8b13d14ba","system_id":"levelo_inurba_marseille","lat":43.33089,"lon":5.37793,"is_reserved":false,"is_disabled":false,"rental_uris":{"android":"levelo://app?vid=f9e36f38-ef4d-44c9-9f31-a0f8b13d14ba","ios":"levelo://app?vid=f9e36f38-ef4d-44c9-9f31-a0f8b13d14ba"},"vehicle_type_id":"4","last_reported":1776783740,"current_range_meters":7200,"station_id":"st_d46cu089ee8s73dldbu0","pricing_plan_id":"cebpf4jnsgd1na2vs0mg"},{"bike_id":"a2f3a9df-2bd0-4776-9bd4-51de189cc809","system_id":"levelo_inurba_marseille","lat":43.30338,"lon":5.36485,"is_reserved":false,"is_disabled":false,"rental_uris":{"android":"levelo://app?vid=a2f3a9df-2bd0-4776-9bd4-51de189cc809","ios":"levelo://app?vid=a2f3a9df-2bd0-4776-9bd4-51de189cc809"},"vehicle_type_id":"4","last_reported":1776783740,"current_range_meters":8000,"station_id":"","pricing_plan_id":"cebpf4jnsgd1na2vs0mg"},{"bike_id":"38a0c1fe-c793-4677-abc9-44884653b8c5","system_id":"levelo_inurba_marseille","lat":43.29593,"lon":5.37776,"is_reserved":false,"is_disabled":false,"rental_uris":{"android":"levelo://app?vid=38a0c1fe-c793-4677-abc9-44884653b8c5","ios":"levelo://app?vid=38a0c1fe-c793-4677-abc9-44884653b8c5"},"vehicle_type_id":"4","last_reported":1776783740,"current_range_meters":8000,"station_id":"","pricing_plan_id":"cebpf4jnsgd1na2vs0mg"},{"bike_id":"a42c3d00-7bc6-4c35-9301-82b0140e9d53","system_id":"levelo_inurba_marseille","lat":43.25002,"lon":5.38924,"is_reserved":false,"is_disabled":false,"rental_uris":{"android":"levelo://app?vid=a42c3d00-7bc6-4c35-9301-82b0140e9d53","ios":"levelo://app?vid=a42c3d00-7bc6-4c35-9301-82b0140e9d53"},"vehicle_type_id":"4","last_reported":1776783740,"current_range_meters":8000,"station_id":"ce4bhgp2rcd13ifvqfd0","pricing_plan_id":"cebpf4jnsgd1na2vs0mg"},{"bike_id":"1fd10be9-0a9a-46a4-9d74-69cc8527ad5b","system_id":"levelo_inurba_marseille","lat":43.2848,"lon":5.484,"is_reserved":false,"is_disabled":false,"rental_uris":{"android":"levelo://app?vid=1fd10be9-0a9a-46a4-9d74-69cc8527ad5b","ios":"levelo://app?vid=1fd10be9-0a9a-46a4-9d74-69cc8527ad5b"},"vehicle_type_id":"4","last_reported":1776783740,"current_range_meters":8000,"station_id":"","pricing_plan_id":"cebpf4jnsgd1na2vs0mg"},{"bike_id":"afe6c9ff-8c7f-40d2-96bc-86354113b443","system_id":"levelo_inurba_marseille","lat":43.28476,"lon":5.48391,"is_reserved":false,"is_disabled":false,"rental_uris":{"android":"levelo://app?vid=afe6c9ff-8c7f-40d2-96bc-86354113b443","ios":"levelo://app?vid=afe6c9ff-8c7f-40d2-96bc-86354113b443"},"vehicle_type_id":"4","last_reported":1776783740,"current_range_meters":8000,"station_id":"","pricing_plan_id":"cebpf4jnsgd1na2vs0mg"},{"bike_id":"35f657a1-1ad8-4ac8-8a81-9af9b1bc9251","system_id":"levelo_inurba_marseille","lat":43.25825,"lon":5.39437,"is_reserved":false,"is_disabled":false,"rental_uris":{"android":"levelo://app?vid=35f657a1-1ad8-4ac8-8a81-9af9b1bc9251","ios":"levelo://app?vid=35f657a1-1ad8-4ac8-8a81-9af9b1bc9251"},"vehicle_type_id":"4","last_reported":1776783740,"current_range_meters":8000,"station_id":"ce4bhip2rcd13ifvqft0","pricing_plan_id":"cebpf4jnsgd1na2vs0mg"},{"bike_id":"3acb4581-b6d0-4ffb-9571-ccc4bc1aef68","system_id":"levelo_inurba_marseille","lat":43.25574,"lon":5.38245,"is_reserved":false,"is_disabled":false,"rental_uris":{"android":"levelo://app?vid=3acb4581-b6d0-4ffb-9571-ccc4bc1aef68","ios":"levelo://app?vid=3acb4581-b6d0-4ffb-9571-ccc4bc1aef68"},"vehicle_type_id":"4","last_reported":1776783740,"current_range_meters":8000,"station_id":"ce4bhih2rcd13ifvqfs0","pricing_plan_id":"cebpf4jnsgd1na2vs0mg"},{"bike_id":"e70064bf-1cde-4f09-9db9-f828740c956a","system_id":"levelo_inurba_marseille","lat":43.28265,"lon":5.3507,"is_reserved":false,"is_disabled":false,"rental_uris":{"android":"levelo://app?vid=e70064bf-1cde-4f09-9db9-f828740c956a","ios":"levelo://app?vid=e70064bf-1cde-4f09-9db9-f828740c956a"},"vehicle_type_id":"4","last_reported":1776783740,"current_range_meters":8000,"station_id":"ce4bhbp2rcd13ifvqerg","pricing_plan_id":"cebpf4jnsgd1na2vs0mg"},{"bike_id":"d4374899-d3d2-46f9-bd15-c4d53d45cabd","system_id":"levelo_inurba_marseille","lat":43.286974,"lon":5.399887,"is_reserved":false,"is_disabled":false,"rental_uris":{"android":"levelo://app?vid=d4374899-d3d2-46f9-bd15-c4d53d45cabd","ios":"levelo://app?vid=d4374899-d3d2-46f9-bd15-c4d53d45cabd"},"vehicle_type_id":"4","last_reported":1776783740,"current_range_meters":8000,"station_id":"ce4bho92rcd13ifvqh3g","pricing_plan_id":"cebpf4jnsgd1na2vs0mg"},{"bike_id":"6c6591df-e330-42d4-982d-3da4f95c91d6","system_id":"levelo_inurba_marseille","lat":43.28408,"lon":5.34993,"is_reserved":false,"is_disabled":false,"rental_uris":{"android":"levelo://app?vid=6c6591df-e330-42d4-982d-3da4f95c91d6","ios":"levelo://app?vid=6c6591df-e330-42d4-982d-3da4f95c91d6"},"vehicle_type_id":"4","last_reported":1776783740,"current_range_meters":8400,"station_id":"ce4bhbh2rcd13ifvqepg","pricing_plan_id":"cebpf4jnsgd1na2vs0mg"},{"bike_id":"d2b637f8-fe85-4393-ae25-210ba036ec35","system_id":"levelo_inurba_marseille","lat":43.2605,"lon":5.39799,"is_reserved":false,"is_disabled":false,"rental_uris":{"android":"levelo://app?vid=d2b637f8-fe85-4393-ae25-210ba036ec35","ios":"levelo://app?vid=d2b637f8-fe85-4393-ae25-210ba036ec35"},"vehicle_type_id":"4","last_reported":1776783740,"current_range_meters":8400,"station_id":"","pricing_plan_id":"cebpf4jnsgd1na2vs0mg"},{"bike_id":"44e696fa-fa54-42a6-be08-1bab5286dc01","system_id":"levelo_inurba_marseille","lat":43.284,"lon":5.34984,"is_reserved":false,"is_disabled":false,"rental_uris":{"android":"levelo://app?vid=44e696fa-fa54-42a6-be08-1bab5286dc01","ios":"levelo://app?vid=44e696fa-fa54-42a6-be08-1bab5286dc01"},"vehicle_type_id":"4","last_reported":1776783740,"current_range_meters":8400,"station_id":"ce4bhbh2rcd13ifvqepg","pricing_plan_id":"cebpf4jnsgd1na2vs0mg"},{"bike_id":"909929ad-6150-4e90-9010-fc5021f6e58c","system_id":"levelo_inurba_marseille","lat":43.27229,"lon":5.40101,"is_reserved":false,"is_disabled":false,"rental_uris":{"android":"levelo://app?vid=909929ad-6150-4e90-9010-fc5021f6e58c","ios":"levelo://app?vid=909929ad-6150-4e90-9010-fc5021f6e58c"},"vehicle_type_id":"4","last_reported":1776783740,"current_range_meters":8400,"station_id":"","pricing_plan_id":"cebpf4jnsgd1na2vs0mg"},{"bike_id":"81bc26ea-d8cb-46ab-b7ef-05d759ea57e3","system_id":"levelo_inurba_marseille","lat":43.30822,"lon":5.41682,"is_reserved":false,"is_disabled":false,"rental_uris":{"android":"levelo://app?vid=81bc26ea-d8cb-46ab-b7ef-05d759ea57e3","ios":"levelo://app?vid=81bc26ea-d8cb-46ab-b7ef-05d759ea57e3"},"vehicle_type_id":"4","last_reported":1776783740,"current_range_meters":8400,"station_id":"","pricing_plan_id":"cebpf4jnsgd1na2vs0mg"},{"bike_id":"3d82a1bb-9b96-4e6e-a0a2-5d9a4d569f45","system_id":"levelo_inurba_marseille","lat":43.28404,"lon":5.34977,"is_reserved":false,"is_disabled":false,"rental_uris":{"android":"levelo://app?vid=3d82a1bb-9b96-4e6e-a0a2-5d9a4d569f45","ios":"levelo://app?vid=3d82a1bb-9b96-4e6e-a0a2-5d9a4d569f45"},"vehicle_type_id":"4","last_reported":1776783740,"current_range_meters":8400,"station_id":"ce4bhbh2rcd13ifvqepg","pricing_plan_id":"cebpf4jnsgd1na2vs0mg"},{"bike_id":"415e0658-223c-4fe0-abd1-f3287f2893c2","system_id":"levelo_inurba_marseille","lat":43.31913,"lon":5.36812,"is_reserved":false,"is_disabled":false,"rental_uris":{"android":"levelo://app?vid=415e0658-223c-4fe0-abd1-f3287f2893c2","ios":"levelo://app?vid=415e0658-223c-4fe0-abd1-f3287f2893c2"},"vehicle_type_id":"4","last_reported":1776783740,"current_range_meters":8400,"station_id":"st_d6o2h0d0559c73evc1b0","pricing_plan_id":"cebpf4jnsgd1na2vs0mg"},{"bike_id":"cb04ea06-18e5-4bf9-b758-5a8505f903d0","system_id":"levelo_inurba_marseille","lat":43.24171,"lon":5.3973,"is_reserved":false,"is_disabled":false,"rental_uris":{"android":"levelo://app?vid=cb04ea06-18e5-4bf9-b758-5a8505f903d0","ios":"levelo://app?vid=cb04ea06-18e5-4bf9-b758-5a8505f903d0"},"vehicle_type_id":"4","last_reported":1776783740,"current_range_meters":8400,"station_id":"ce4bhn12rcd13ifvqgpg","pricing_plan_id":"cebpf4jnsgd1na2vs0mg"},{"bike_id":"f0560ebd-54f4-470b-b211-8f235f923412","system_id":"levelo_inurba_marseille","lat":43.31324,"lon":5.37631,"is_reserved":false,"is_disabled":false,"rental_uris":{"android":"levelo://app?vid=f0560ebd-54f4-470b-b211-8f235f923412","ios":"levelo://app?vid=f0560ebd-54f4-470b-b211-8f235f923412"},"vehicle_type_id":"4","last_reported":1776783740,"current_range_meters":8400,"station_id":"","pricing_plan_id":"cebpf4jnsgd1na2vs0mg"},{"bike_id":"0cbfccae-bcad-4e64-9a29-809dce752376","system_id":"levelo_inurba_marseille","lat":43.31707,"lon":5.40496,"is_reserved":false,"is_disabled":false,"rental_uris":{"android":"levelo://app?vid=0cbfccae-bcad-4e64-9a29-809dce752376","ios":"levelo://app?vid=0cbfccae-bcad-4e64-9a29-809dce752376"},"vehicle_type_id":"4","last_reported":1776783740,"current_range_meters":8400,"station_id":"ce4bh012rcd13ifvqd00","pricing_plan_id":"cebpf4jnsgd1na2vs0mg"},{"bike_id":"d9be86bb-6c4e-4c05-bc60-e02431cbb916","system_id":"levelo_inurba_marseille","lat":43.3189,"lon":5.36817,"is_reserved":false,"is_disabled":false,"rental_uris":{"android":"levelo://app?vid=d9be86bb-6c4e-4c05-bc60-e02431cbb916","ios":"levelo://app?vid=d9be86bb-6c4e-4c05-bc60-e02431cbb916"},"vehicle_type_id":"4","last_reported":1776783740,"current_range_meters":8400,"station_id":"st_d6o2h0d0559c73evc1b0","pricing_plan_id":"cebpf4jnsgd1na2vs0mg"},{"bike_id":"4dd90c3a-c53a-454b-ad3a-8e2561f63203","system_id":"levelo_inurba_marseille","lat":43.312301,"lon":5.36869,"is_reserved":false,"is_disabled":false,"rental_uris":{"android":"levelo://app?vid=4dd90c3a-c53a-454b-ad3a-8e2561f63203","ios":"levelo://app?vid=4dd90c3a-c53a-454b-ad3a-8e2561f63203"},"vehicle_type_id":"4","last_reported":1776783740,"current_range_meters":8400,"station_id":"","pricing_plan_id":"cebpf4jnsgd1na2vs0mg"},{"bike_id":"0263abfc-a483-4f7b-becd-c15a7276870a","system_id":"levelo_inurba_marseille","lat":43.30519,"lon":5.36529,"is_reserved":false,"is_disabled":false,"rental_uris":{"android":"levelo://app?vid=0263abfc-a483-4f7b-becd-c15a7276870a","ios":"levelo://app?vid=0263abfc-a483-4f7b-becd-c15a7276870a"},"vehicle_type_id":"4","last_reported":1776783740,"current_range_meters":8400,"station_id":"","pricing_plan_id":"cebpf4jnsgd1na2vs0mg"},{"bike_id":"477578aa-461b-42d7-a65f-a91e7dbe7434","system_id":"levelo_inurba_marseille","lat":43.28824,"lon":5.42531,"is_reserved":false,"is_disabled":false,"rental_uris":{"android":"levelo://app?vid=477578aa-461b-42d7-a65f-a91e7dbe7434","ios":"levelo://app?vid=477578aa-461b-42d7-a65f-a91e7dbe7434"},"vehicle_type_id":"4","last_reported":1776783740,"current_range_meters":8400,"station_id":"st_d3b462108ojc7389ooeg","pricing_plan_id":"cebpf4jnsgd1na2vs0mg"},{"bike_id":"6e632b6a-0de9-43eb-884a-a0809cef0a34","system_id":"levelo_inurba_marseille","lat":43.28419,"lon":5.3501,"is_reserved":false,"is_disabled":false,"rental_uris":{"android":"levelo://app?vid=6e632b6a-0de9-43eb-884a-a0809cef0a34","ios":"levelo://app?vid=6e632b6a-0de9-43eb-884a-a0809cef0a34"},"vehicle_type_id":"4","last_reported":1776783740,"current_range_meters":8400,"station_id":"ce4bhbh2rcd13ifvqepg","pricing_plan_id":"cebpf4jnsgd1na2vs0mg"},{"bike_id":"4afecc95-1d1f-46f1-85fc-14f5a0b75fdf","system_id":"levelo_inurba_marseille","lat":43.25936,"lon":5.40907,"is_reserved":false,"is_disabled":false,"rental_uris":{"android":"levelo://app?vid=4afecc95-1d1f-46f1-85fc-14f5a0b75fdf","ios":"levelo://app?vid=4afecc95-1d1f-46f1-85fc-14f5a0b75fdf"},"vehicle_type_id":"4","last_reported":1776783740,"current_range_meters":8400,"station_id":"ce4bhm92rcd13ifvqglg","pricing_plan_id":"cebpf4jnsgd1na2vs0mg"},{"bike_id":"99cfcdac-1c6f-4544-bda8-e208b5ed95c8","system_id":"levelo_inurba_marseille","lat":43.26195,"lon":5.37442,"is_reserved":false,"is_disabled":false,"rental_uris":{"android":"levelo://app?vid=99cfcdac-1c6f-4544-bda8-e208b5ed95c8","ios":"levelo://app?vid=99cfcdac-1c6f-4544-bda8-e208b5ed95c8"},"vehicle_type_id":"4","last_reported":1776783740,"current_range_meters":8400,"station_id":"ce4bhgp2rcd13ifvqfc0","pricing_plan_id":"cebpf4jnsgd1na2vs0mg"},{"bike_id":"a511edf3-b3d3-43e5-9e77-baa7c129208e","system_id":"levelo_inurba_marseille","lat":43.28417,"lon":5.34993,"is_reserved":false,"is_disabled":false,"rental_uris":{"android":"levelo://app?vid=a511edf3-b3d3-43e5-9e77-baa7c129208e","ios":"levelo://app?vid=a511edf3-b3d3-43e5-9e77-baa7c129208e"},"vehicle_type_id":"4","last_reported":1776783740,"current_range_meters":8400,"station_id":"ce4bhbh2rcd13ifvqepg","pricing_plan_id":"cebpf4jnsgd1na2vs0mg"},{"bike_id":"1d1abe1d-1e5e-459b-9d22-1ae1deff06eb","system_id":"levelo_inurba_marseille","lat":43.22929,"lon":5.35373,"is_reserved":false,"is_disabled":false,"rental_uris":{"android":"levelo://app?vid=1d1abe1d-1e5e-459b-9d22-1ae1deff06eb","ios":"levelo://app?vid=1d1abe1d-1e5e-459b-9d22-1ae1deff06eb"},"vehicle_type_id":"4","last_reported":1776783740,"current_range_meters":8400,"station_id":"cpo3532slgdg3j2ikp40","pricing_plan_id":"cebpf4jnsgd1na2vs0mg"},{"bike_id":"029845f6-2e83-4fc7-9d53-768952b86497","system_id":"levelo_inurba_marseille","lat":43.2902,"lon":5.38644,"is_reserved":false,"is_disabled":false,"rental_uris":{"android":"levelo://app?vid=029845f6-2e83-4fc7-9d53-768952b86497","ios":"levelo://app?vid=029845f6-2e83-4fc7-9d53-768952b86497"},"vehicle_type_id":"4","last_reported":1776783740,"current_range_meters":8800,"station_id":"ce4bh4p2rcd13ifvqe0g","pricing_plan_id":"cebpf4jnsgd1na2vs0mg"},{"bike_id":"156a9278-c7f8-442d-9b54-2a52d275e0c5","system_id":"levelo_inurba_marseille","lat":43.28627,"lon":5.35076,"is_reserved":false,"is_disabled":true,"rental_uris":{"android":"levelo://app?vid=156a9278-c7f8-442d-9b54-2a52d275e0c5","ios":"levelo://app?vid=156a9278-c7f8-442d-9b54-2a52d275e0c5"},"vehicle_type_id":"4","last_reported":1776783740,"current_range_meters":8800,"station_id":"ce4bhch2rcd13ifvqeug","pricing_plan_id":"cebpf4jnsgd1na2vs0mg"},{"bike_id":"c967b760-28a0-4d48-9637-1a449965c541","system_id":"levelo_inurba_marseille","lat":43.25928,"lon":5.38592,"is_reserved":false,"is_disabled":false,"rental_uris":{"android":"levelo://app?vid=c967b760-28a0-4d48-9637-1a449965c541","ios":"levelo://app?vid=c967b760-28a0-4d48-9637-1a449965c541"},"vehicle_type_id":"4","last_reported":1776783740,"current_range_meters":8800,"station_id":"","pricing_plan_id":"cebpf4jnsgd1na2vs0mg"},{"bike_id":"3d2e6300-b6c0-4c56-9763-1c6b98998f74","system_id":"levelo_inurba_marseille","lat":43.28835,"lon":5.4259,"is_reserved":false,"is_disabled":false,"rental_uris":{"android":"levelo://app?vid=3d2e6300-b6c0-4c56-9763-1c6b98998f74","ios":"levelo://app?vid=3d2e6300-b6c0-4c56-9763-1c6b98998f74"},"vehicle_type_id":"4","last_reported":1776783740,"current_range_meters":8800,"station_id":"st_d3b462108ojc7389ooeg","pricing_plan_id":"cebpf4jnsgd1na2vs0mg"},{"bike_id":"23b71376-382a-4e83-a92a-fc3fbbaf3295","system_id":"levelo_inurba_marseille","lat":43.30537,"lon":5.3651,"is_reserved":false,"is_disabled":false,"rental_uris":{"android":"levelo://app?vid=23b71376-382a-4e83-a92a-fc3fbbaf3295","ios":"levelo://app?vid=23b71376-382a-4e83-a92a-fc3fbbaf3295"},"vehicle_type_id":"4","last_reported":1776783740,"current_range_meters":8800,"station_id":"","pricing_plan_id":"cebpf4jnsgd1na2vs0mg"},{"bike_id":"d823d68b-0538-4d3d-aa36-6fa67e0f840e","system_id":"levelo_inurba_marseille","lat":43.27321,"lon":5.39085,"is_reserved":false,"is_disabled":false,"rental_uris":{"android":"levelo://app?vid=d823d68b-0538-4d3d-aa36-6fa67e0f840e","ios":"levelo://app?vid=d823d68b-0538-4d3d-aa36-6fa67e0f840e"},"vehicle_type_id":"4","last_reported":1776783740,"current_range_meters":8800,"station_id":"ce4bhgp2rcd13ifvqfe0","pricing_plan_id":"cebpf4jnsgd1na2vs0mg"},{"bike_id":"54f06961-e059-4eab-8286-8b664fdc6205","system_id":"levelo_inurba_marseille","lat":43.30925,"lon":5.36838,"is_reserved":false,"is_disabled":false,"rental_uris":{"android":"levelo://app?vid=54f06961-e059-4eab-8286-8b664fdc6205","ios":"levelo://app?vid=54f06961-e059-4eab-8286-8b664fdc6205"},"vehicle_type_id":"4","last_reported":1776783740,"current_range_meters":8800,"station_id":"ce4bgn92rcd13ifvqbvg","pricing_plan_id":"cebpf4jnsgd1na2vs0mg"},{"bike_id":"d28a091b-fbfd-42b0-9a1f-535cbd1334a4","system_id":"levelo_inurba_marseille","lat":43.27945,"lon":5.41054,"is_reserved":false,"is_disabled":false,"rental_uris":{"android":"levelo://app?vid=d28a091b-fbfd-42b0-9a1f-535cbd1334a4","ios":"levelo://app?vid=d28a091b-fbfd-42b0-9a1f-535cbd1334a4"},"vehicle_type_id":"4","last_reported":1776783740,"current_range_meters":8800,"station_id":"ce4bhnp2rcd13ifvqh0g","pricing_plan_id":"cebpf4jnsgd1na2vs0mg"},{"bike_id":"442a6e39-a921-4831-b27d-2212cc3febf9","system_id":"levelo_inurba_marseille","lat":43.31906,"lon":5.36774,"is_reserved":false,"is_disabled":false,"rental_uris":{"android":"levelo://app?vid=442a6e39-a921-4831-b27d-2212cc3febf9","ios":"levelo://app?vid=442a6e39-a921-4831-b27d-2212cc3febf9"},"vehicle_type_id":"4","last_reported":1776783740,"current_range_meters":8800,"station_id":"st_d6o2h0d0559c73evc1b0","pricing_plan_id":"cebpf4jnsgd1na2vs0mg"},{"bike_id":"1f21b3df-e6d5-4e1e-8722-1dfda582665a","system_id":"levelo_inurba_marseille","lat":43.27371,"lon":5.36265,"is_reserved":false,"is_disabled":false,"rental_uris":{"android":"levelo://app?vid=1f21b3df-e6d5-4e1e-8722-1dfda582665a","ios":"levelo://app?vid=1f21b3df-e6d5-4e1e-8722-1dfda582665a"},"vehicle_type_id":"4","last_reported":1776783740,"current_range_meters":8800,"station_id":"ce4bhbh2rcd13ifvqeo0","pricing_plan_id":"cebpf4jnsgd1na2vs0mg"},{"bike_id":"b3f5969c-035e-4dfc-b5c4-8c45deca2087","system_id":"levelo_inurba_marseille","lat":43.33549,"lon":5.37476,"is_reserved":false,"is_disabled":false,"rental_uris":{"android":"levelo://app?vid=b3f5969c-035e-4dfc-b5c4-8c45deca2087","ios":"levelo://app?vid=b3f5969c-035e-4dfc-b5c4-8c45deca2087"},"vehicle_type_id":"4","last_reported":1776783740,"current_range_meters":8800,"station_id":"st_d46tts09ee8s73dlu43g","pricing_plan_id":"cebpf4jnsgd1na2vs0mg"},{"bike_id":"601f3b3d-b7de-4eaa-aa27-7d609c1af1d1","system_id":"levelo_inurba_marseille","lat":43.30134,"lon":5.38782,"is_reserved":false,"is_disabled":false,"rental_uris":{"android":"levelo://app?vid=601f3b3d-b7de-4eaa-aa27-7d609c1af1d1","ios":"levelo://app?vid=601f3b3d-b7de-4eaa-aa27-7d609c1af1d1"},"vehicle_type_id":"4","last_reported":1776783740,"current_range_meters":8800,"station_id":"ce4bghh2rcd13ifvqb60","pricing_plan_id":"cebpf4jnsgd1na2vs0mg"},{"bike_id":"5b31ba61-f229-47dd-99bf-d4aac0400a73","system_id":"levelo_inurba_marseille","lat":43.28436,"lon":5.35014,"is_reserved":false,"is_disabled":false,"rental_uris":{"android":"levelo://app?vid=5b31ba61-f229-47dd-99bf-d4aac0400a73","ios":"levelo://app?vid=5b31ba61-f229-47dd-99bf-d4aac0400a73"},"vehicle_type_id":"4","last_reported":1776783740,"current_range_meters":8800,"station_id":"ce4bhbh2rcd13ifvqepg","pricing_plan_id":"cebpf4jnsgd1na2vs0mg"},{"bike_id":"c2eece40-9b93-451a-90da-00ccbef7247a","system_id":"levelo_inurba_marseille","lat":43.26221,"lon":5.37457,"is_reserved":false,"is_disabled":false,"rental_uris":{"android":"levelo://app?vid=c2eece40-9b93-451a-90da-00ccbef7247a","ios":"levelo://app?vid=c2eece40-9b93-451a-90da-00ccbef7247a"},"vehicle_type_id":"4","last_reported":1776783740,"current_range_meters":8800,"station_id":"ce4bhgp2rcd13ifvqfc0","pricing_plan_id":"cebpf4jnsgd1na2vs0mg"},{"bike_id":"d1249fba-7677-4ff1-81a0-6fcad3e43559","system_id":"levelo_inurba_marseille","lat":43.276144,"lon":5.361022,"is_reserved":false,"is_disabled":false,"rental_uris":{"android":"levelo://app?vid=d1249fba-7677-4ff1-81a0-6fcad3e43559","ios":"levelo://app?vid=d1249fba-7677-4ff1-81a0-6fcad3e43559"},"vehicle_type_id":"4","last_reported":1776783740,"current_range_meters":8800,"station_id":"ce4bgj92rcd13ifvqbe0","pricing_plan_id":"cebpf4jnsgd1na2vs0mg"},{"bike_id":"61b3aea9-0113-4ac0-b8e1-3dc8d194446c","system_id":"levelo_inurba_marseille","lat":43.30137,"lon":5.43122,"is_reserved":false,"is_disabled":true,"rental_uris":{"android":"levelo://app?vid=61b3aea9-0113-4ac0-b8e1-3dc8d194446c","ios":"levelo://app?vid=61b3aea9-0113-4ac0-b8e1-3dc8d194446c"},"vehicle_type_id":"4","last_reported":1776783740,"current_range_meters":8800,"station_id":"st_d3js3co5814s73ftftug","pricing_plan_id":"cebpf4jnsgd1na2vs0mg"},{"bike_id":"f36b765d-0d6f-4a5f-9f6c-3cb9e1935dc2","system_id":"levelo_inurba_marseille","lat":43.29795,"lon":5.37701,"is_reserved":false,"is_disabled":false,"rental_uris":{"android":"levelo://app?vid=f36b765d-0d6f-4a5f-9f6c-3cb9e1935dc2","ios":"levelo://app?vid=f36b765d-0d6f-4a5f-9f6c-3cb9e1935dc2"},"vehicle_type_id":"4","last_reported":1776783740,"current_range_meters":9200,"station_id":"","pricing_plan_id":"cebpf4jnsgd1na2vs0mg"},{"bike_id":"37eae820-b39c-4a10-b9f1-bbf6af567e33","system_id":"levelo_inurba_marseille","lat":43.29605,"lon":5.37722,"is_reserved":false,"is_disabled":false,"rental_uris":{"android":"levelo://app?vid=37eae820-b39c-4a10-b9f1-bbf6af567e33","ios":"levelo://app?vid=37eae820-b39c-4a10-b9f1-bbf6af567e33"},"vehicle_type_id":"4","last_reported":1776783740,"current_range_meters":9200,"station_id":"ce4bgi92rcd13ifvqb90","pricing_plan_id":"cebpf4jnsgd1na2vs0mg"},{"bike_id":"2a5231c1-cc6e-46c7-bac8-8f0e939542d1","system_id":"levelo_inurba_marseille","lat":43.31087,"lon":5.42445,"is_reserved":false,"is_disabled":false,"rental_uris":{"android":"levelo://app?vid=2a5231c1-cc6e-46c7-bac8-8f0e939542d1","ios":"levelo://app?vid=2a5231c1-cc6e-46c7-bac8-8f0e939542d1"},"vehicle_type_id":"4","last_reported":1776783740,"current_range_meters":9200,"station_id":"ce4bhp92rcd13ifvqhag","pricing_plan_id":"cebpf4jnsgd1na2vs0mg"},{"bike_id":"0cf9c7d1-4ff6-4885-afdb-1945ed4e0993","system_id":"levelo_inurba_marseille","lat":43.29637,"lon":5.4061,"is_reserved":false,"is_disabled":true,"rental_uris":{"android":"levelo://app?vid=0cf9c7d1-4ff6-4885-afdb-1945ed4e0993","ios":"levelo://app?vid=0cf9c7d1-4ff6-4885-afdb-1945ed4e0993"},"vehicle_type_id":"4","last_reported":1776783740,"current_range_meters":9200,"station_id":"ce4bh0h2rcd13ifvqd60","pricing_plan_id":"cebpf4jnsgd1na2vs0mg"},{"bike_id":"f3ddfd56-59d4-4df4-a2e2-c2cc0fe7ccdc","system_id":"levelo_inurba_marseille","lat":43.30554,"lon":5.36544,"is_reserved":false,"is_disabled":false,"rental_uris":{"android":"levelo://app?vid=f3ddfd56-59d4-4df4-a2e2-c2cc0fe7ccdc","ios":"levelo://app?vid=f3ddfd56-59d4-4df4-a2e2-c2cc0fe7ccdc"},"vehicle_type_id":"4","last_reported":1776783740,"current_range_meters":9200,"station_id":"ce4bgs12rcd13ifvqcag","pricing_plan_id":"cebpf4jnsgd1na2vs0mg"},{"bike_id":"3448f0f4-d448-4b78-8559-0a980538ebbf","system_id":"levelo_inurba_marseille","lat":43.29489,"lon":5.43323,"is_reserved":false,"is_disabled":false,"rental_uris":{"android":"levelo://app?vid=3448f0f4-d448-4b78-8559-0a980538ebbf","ios":"levelo://app?vid=3448f0f4-d448-4b78-8559-0a980538ebbf"},"vehicle_type_id":"4","last_reported":1776783740,"current_range_meters":9200,"station_id":"st_d3j5ugp08ojc73fj9d10","pricing_plan_id":"cebpf4jnsgd1na2vs0mg"},{"bike_id":"a9ebbb48-a507-4b14-b244-dcd9fe3c6474","system_id":"levelo_inurba_marseille","lat":43.26818,"lon":5.39444,"is_reserved":false,"is_disabled":false,"rental_uris":{"android":"levelo://app?vid=a9ebbb48-a507-4b14-b244-dcd9fe3c6474","ios":"levelo://app?vid=a9ebbb48-a507-4b14-b244-dcd9fe3c6474"},"vehicle_type_id":"4","last_reported":1776783740,"current_range_meters":9200,"station_id":"ce4bhh12rcd13ifvqfg0","pricing_plan_id":"cebpf4jnsgd1na2vs0mg"},{"bike_id":"5251d98d-1150-4b1d-8473-1a987e8078d0","system_id":"levelo_inurba_marseille","lat":43.25574,"lon":5.38234,"is_reserved":false,"is_disabled":false,"rental_uris":{"android":"levelo://app?vid=5251d98d-1150-4b1d-8473-1a987e8078d0","ios":"levelo://app?vid=5251d98d-1150-4b1d-8473-1a987e8078d0"},"vehicle_type_id":"4","last_reported":1776783740,"current_range_meters":9200,"station_id":"ce4bhih2rcd13ifvqfs0","pricing_plan_id":"cebpf4jnsgd1na2vs0mg"},{"bike_id":"a5932d33-7fe4-4ab5-ab73-558a4a420627","system_id":"levelo_inurba_marseille","lat":43.24452,"lon":5.40044,"is_reserved":false,"is_disabled":false,"rental_uris":{"android":"levelo://app?vid=a5932d33-7fe4-4ab5-ab73-558a4a420627","ios":"levelo://app?vid=a5932d33-7fe4-4ab5-ab73-558a4a420627"},"vehicle_type_id":"4","last_reported":1776783740,"current_range_meters":9200,"station_id":"","pricing_plan_id":"cebpf4jnsgd1na2vs0mg"},{"bike_id":"61ec8b6b-c975-41c6-9c09-920329c65abd","system_id":"levelo_inurba_marseille","lat":43.28348,"lon":5.38104,"is_reserved":false,"is_disabled":false,"rental_uris":{"android":"levelo://app?vid=61ec8b6b-c975-41c6-9c09-920329c65abd","ios":"levelo://app?vid=61ec8b6b-c975-41c6-9c09-920329c65abd"},"vehicle_type_id":"4","last_reported":1776783740,"current_range_meters":9200,"station_id":"ce4bh412rcd13ifvqdr0","pricing_plan_id":"cebpf4jnsgd1na2vs0mg"},{"bike_id":"b808fbb1-92a7-4cb7-a34e-79ecbe55d154","system_id":"levelo_inurba_marseille","lat":43.22546,"lon":5.41651,"is_reserved":false,"is_disabled":false,"rental_uris":{"android":"levelo://app?vid=b808fbb1-92a7-4cb7-a34e-79ecbe55d154","ios":"levelo://app?vid=b808fbb1-92a7-4cb7-a34e-79ecbe55d154"},"vehicle_type_id":"4","last_reported":1776783740,"current_range_meters":9600,"station_id":"st_d2o4gvlbi1j2169b742g","pricing_plan_id":"cebpf4jnsgd1na2vs0mg"},{"bike_id":"e0a58202-517b-476f-ba0a-118d118738e5","system_id":"levelo_inurba_marseille","lat":43.27374,"lon":5.36251,"is_reserved":false,"is_disabled":false,"rental_uris":{"android":"levelo://app?vid=e0a58202-517b-476f-ba0a-118d118738e5","ios":"levelo://app?vid=e0a58202-517b-476f-ba0a-118d118738e5"},"vehicle_type_id":"4","last_reported":1776783740,"current_range_meters":9600,"station_id":"ce4bhbh2rcd13ifvqeo0","pricing_plan_id":"cebpf4jnsgd1na2vs0mg"},{"bike_id":"d61d4442-6a06-4c85-8f03-430149fa7be5","system_id":"levelo_inurba_marseille","lat":43.32659,"lon":5.41005,"is_reserved":false,"is_disabled":false,"rental_uris":{"android":"levelo://app?vid=d61d4442-6a06-4c85-8f03-430149fa7be5","ios":"levelo://app?vid=d61d4442-6a06-4c85-8f03-430149fa7be5"},"vehicle_type_id":"4","last_reported":1776783740,"current_range_meters":9600,"station_id":"ce4bhpp2rcd13ifvqhgg","pricing_plan_id":"cebpf4jnsgd1na2vs0mg"},{"bike_id":"91e8c325-0de0-4f6c-974d-2f077f83d8fc","system_id":"levelo_inurba_marseille","lat":43.30456,"lon":5.36704,"is_reserved":false,"is_disabled":false,"rental_uris":{"android":"levelo://app?vid=91e8c325-0de0-4f6c-974d-2f077f83d8fc","ios":"levelo://app?vid=91e8c325-0de0-4f6c-974d-2f077f83d8fc"},"vehicle_type_id":"4","last_reported":1776783740,"current_range_meters":9600,"station_id":"","pricing_plan_id":"cebpf4jnsgd1na2vs0mg"},{"bike_id":"efeaebff-3ba0-441d-8c87-b6489e6758ab","system_id":"levelo_inurba_marseille","lat":43.28258,"lon":5.34992,"is_reserved":false,"is_disabled":false,"rental_uris":{"android":"levelo://app?vid=efeaebff-3ba0-441d-8c87-b6489e6758ab","ios":"levelo://app?vid=efeaebff-3ba0-441d-8c87-b6489e6758ab"},"vehicle_type_id":"4","last_reported":1776783740,"current_range_meters":9600,"station_id":"","pricing_plan_id":"cebpf4jnsgd1na2vs0mg"},{"bike_id":"04257b95-4499-46e1-a4e3-88ab526291ba","system_id":"levelo_inurba_marseille","lat":43.28473,"lon":5.48399,"is_reserved":false,"is_disabled":false,"rental_uris":{"android":"levelo://app?vid=04257b95-4499-46e1-a4e3-88ab526291ba","ios":"levelo://app?vid=04257b95-4499-46e1-a4e3-88ab526291ba"},"vehicle_type_id":"4","last_reported":1776783740,"current_range_meters":9600,"station_id":"st_d3svhcjqgbts73a3dn0g","pricing_plan_id":"cebpf4jnsgd1na2vs0mg"},{"bike_id":"33a53f28-2e9a-4da7-b490-4a1c601f8cad","system_id":"levelo_inurba_marseille","lat":43.26577,"lon":5.37296,"is_reserved":false,"is_disabled":false,"rental_uris":{"android":"levelo://app?vid=33a53f28-2e9a-4da7-b490-4a1c601f8cad","ios":"levelo://app?vid=33a53f28-2e9a-4da7-b490-4a1c601f8cad"},"vehicle_type_id":"4","last_reported":1776783740,"current_range_meters":9600,"station_id":"ce4bhg12rcd13ifvqf70","pricing_plan_id":"cebpf4jnsgd1na2vs0mg"},{"bike_id":"51e06dec-2107-40fa-9545-914b56265e0f","system_id":"levelo_inurba_marseille","lat":43.26828,"lon":5.39356,"is_reserved":false,"is_disabled":false,"rental_uris":{"android":"levelo://app?vid=51e06dec-2107-40fa-9545-914b56265e0f","ios":"levelo://app?vid=51e06dec-2107-40fa-9545-914b56265e0f"},"vehicle_type_id":"4","last_reported":1776783740,"current_range_meters":9600,"station_id":"ce4bhh12rcd13ifvqfg0","pricing_plan_id":"cebpf4jnsgd1na2vs0mg"},{"bike_id":"ba484d30-ae7b-475d-9efa-cb2630fd3178","system_id":"levelo_inurba_marseille","lat":43.2551,"lon":5.37662,"is_reserved":false,"is_disabled":false,"rental_uris":{"android":"levelo://app?vid=ba484d30-ae7b-475d-9efa-cb2630fd3178","ios":"levelo://app?vid=ba484d30-ae7b-475d-9efa-cb2630fd3178"},"vehicle_type_id":"4","last_reported":1776783740,"current_range_meters":9600,"station_id":"ce4bhh12rcd13ifvqff0","pricing_plan_id":"cebpf4jnsgd1na2vs0mg"},{"bike_id":"e9200f18-7829-488e-bde9-2b53f3e48b75","system_id":"levelo_inurba_marseille","lat":43.31328,"lon":5.3671,"is_reserved":false,"is_disabled":false,"rental_uris":{"android":"levelo://app?vid=e9200f18-7829-488e-bde9-2b53f3e48b75","ios":"levelo://app?vid=e9200f18-7829-488e-bde9-2b53f3e48b75"},"vehicle_type_id":"4","last_reported":1776783740,"current_range_meters":9600,"station_id":"ce4bgr92rcd13ifvqc6g","pricing_plan_id":"cebpf4jnsgd1na2vs0mg"},{"bike_id":"20d555b3-07dd-4a87-b2af-fe55e8f83136","system_id":"levelo_inurba_marseille","lat":43.27549,"lon":5.35936,"is_reserved":false,"is_disabled":false,"rental_uris":{"android":"levelo://app?vid=20d555b3-07dd-4a87-b2af-fe55e8f83136","ios":"levelo://app?vid=20d555b3-07dd-4a87-b2af-fe55e8f83136"},"vehicle_type_id":"4","last_reported":1776783740,"current_range_meters":9600,"station_id":"","pricing_plan_id":"cebpf4jnsgd1na2vs0mg"},{"bike_id":"13b544d3-7c84-47da-87d3-e7cd9f38714d","system_id":"levelo_inurba_marseille","lat":43.287436,"lon":5.389791,"is_reserved":false,"is_disabled":false,"rental_uris":{"android":"levelo://app?vid=13b544d3-7c84-47da-87d3-e7cd9f38714d","ios":"levelo://app?vid=13b544d3-7c84-47da-87d3-e7cd9f38714d"},"vehicle_type_id":"4","last_reported":1776783740,"current_range_meters":9600,"station_id":"ce4bh612rcd13ifvqe6g","pricing_plan_id":"cebpf4jnsgd1na2vs0mg"},{"bike_id":"e036f4b9-9d9d-4d20-98b3-e3f970f70e04","system_id":"levelo_inurba_marseille","lat":43.28716,"lon":5.37939,"is_reserved":false,"is_disabled":false,"rental_uris":{"android":"levelo://app?vid=e036f4b9-9d9d-4d20-98b3-e3f970f70e04","ios":"levelo://app?vid=e036f4b9-9d9d-4d20-98b3-e3f970f70e04"},"vehicle_type_id":"4","last_reported":1776783740,"current_range_meters":9600,"station_id":"ce4bh9p2rcd13ifvqec0","pricing_plan_id":"cebpf4jnsgd1na2vs0mg"},{"bike_id":"33928cbf-672c-4bc6-973c-4486339912eb","system_id":"levelo_inurba_marseille","lat":43.31354,"lon":5.36714,"is_reserved":false,"is_disabled":false,"rental_uris":{"android":"levelo://app?vid=33928cbf-672c-4bc6-973c-4486339912eb","ios":"levelo://app?vid=33928cbf-672c-4bc6-973c-4486339912eb"},"vehicle_type_id":"4","last_reported":1776783740,"current_range_meters":9600,"station_id":"ce4bgr92rcd13ifvqc6g","pricing_plan_id":"cebpf4jnsgd1na2vs0mg"},{"bike_id":"e70e0091-4488-46ab-b710-719133651bf4","system_id":"levelo_inurba_marseille","lat":43.31402,"lon":5.36727,"is_reserved":false,"is_disabled":false,"rental_uris":{"android":"levelo://app?vid=e70e0091-4488-46ab-b710-719133651bf4","ios":"levelo://app?vid=e70e0091-4488-46ab-b710-719133651bf4"},"vehicle_type_id":"4","last_reported":1776783740,"current_range_meters":9600,"station_id":"","pricing_plan_id":"cebpf4jnsgd1na2vs0mg"},{"bike_id":"212e466f-7efa-4d58-9886-bf1f09b043e6","system_id":"levelo_inurba_marseille","lat":43.31156,"lon":5.38703,"is_reserved":false,"is_disabled":false,"rental_uris":{"android":"levelo://app?vid=212e466f-7efa-4d58-9886-bf1f09b043e6","ios":"levelo://app?vid=212e466f-7efa-4d58-9886-bf1f09b043e6"},"vehicle_type_id":"4","last_reported":1776783740,"current_range_meters":9600,"station_id":"ce4bgv12rcd13ifvqcp0","pricing_plan_id":"cebpf4jnsgd1na2vs0mg"},{"bike_id":"d2591202-2b26-4743-8f77-2cee5a84ef0f","system_id":"levelo_inurba_marseille","lat":43.24463,"lon":5.42521,"is_reserved":false,"is_disabled":false,"rental_uris":{"android":"levelo://app?vid=d2591202-2b26-4743-8f77-2cee5a84ef0f","ios":"levelo://app?vid=d2591202-2b26-4743-8f77-2cee5a84ef0f"},"vehicle_type_id":"4","last_reported":1776783740,"current_range_meters":9600,"station_id":"st_d4a3vfp97mjs738cd8kg","pricing_plan_id":"cebpf4jnsgd1na2vs0mg"},{"bike_id":"d9a2806f-53f8-471f-895a-b5435de6121a","system_id":"levelo_inurba_marseille","lat":43.32109,"lon":5.36823,"is_reserved":false,"is_disabled":false,"rental_uris":{"android":"levelo://app?vid=d9a2806f-53f8-471f-895a-b5435de6121a","ios":"levelo://app?vid=d9a2806f-53f8-471f-895a-b5435de6121a"},"vehicle_type_id":"4","last_reported":1776783740,"current_range_meters":9600,"station_id":"ce4bhrh2rcd13ifvqhug","pricing_plan_id":"cebpf4jnsgd1na2vs0mg"},{"bike_id":"059b4ad8-665d-46df-9a3f-e9b9a20a1c99","system_id":"levelo_inurba_marseille","lat":43.33537,"lon":5.37479,"is_reserved":false,"is_disabled":false,"rental_uris":{"android":"levelo://app?vid=059b4ad8-665d-46df-9a3f-e9b9a20a1c99","ios":"levelo://app?vid=059b4ad8-665d-46df-9a3f-e9b9a20a1c99"},"vehicle_type_id":"4","last_reported":1776783740,"current_range_meters":9600,"station_id":"st_d46tts09ee8s73dlu43g","pricing_plan_id":"cebpf4jnsgd1na2vs0mg"},{"bike_id":"b84e3dc3-eb64-44c6-b6b8-39dfcf68a5e1","system_id":"levelo_inurba_marseille","lat":43.2622,"lon":5.37395,"is_reserved":false,"is_disabled":false,"rental_uris":{"android":"levelo://app?vid=b84e3dc3-eb64-44c6-b6b8-39dfcf68a5e1","ios":"levelo://app?vid=b84e3dc3-eb64-44c6-b6b8-39dfcf68a5e1"},"vehicle_type_id":"4","last_reported":1776783740,"current_range_meters":10000,"station_id":"ce4bhgp2rcd13ifvqfc0","pricing_plan_id":"cebpf4jnsgd1na2vs0mg"},{"bike_id":"dbbb833c-d671-4d03-81ef-1bafbef6128a","system_id":"levelo_inurba_marseille","lat":43.25097,"lon":5.39427,"is_reserved":false,"is_disabled":false,"rental_uris":{"android":"levelo://app?vid=dbbb833c-d671-4d03-81ef-1bafbef6128a","ios":"levelo://app?vid=dbbb833c-d671-4d03-81ef-1bafbef6128a"},"vehicle_type_id":"4","last_reported":1776783740,"current_range_meters":10000,"station_id":"","pricing_plan_id":"cebpf4jnsgd1na2vs0mg"},{"bike_id":"fc83597b-c92a-4d6b-9ec3-85cccb5b70a7","system_id":"levelo_inurba_marseille","lat":43.31973,"lon":5.36843,"is_reserved":false,"is_disabled":false,"rental_uris":{"android":"levelo://app?vid=fc83597b-c92a-4d6b-9ec3-85cccb5b70a7","ios":"levelo://app?vid=fc83597b-c92a-4d6b-9ec3-85cccb5b70a7"},"vehicle_type_id":"4","last_reported":1776783740,"current_range_meters":10000,"station_id":"","pricing_plan_id":"cebpf4jnsgd1na2vs0mg"},{"bike_id":"3e44af47-15f1-4eab-8dc7-82170c179e57","system_id":"levelo_inurba_marseille","lat":43.28412,"lon":5.34999,"is_reserved":false,"is_disabled":false,"rental_uris":{"android":"levelo://app?vid=3e44af47-15f1-4eab-8dc7-82170c179e57","ios":"levelo://app?vid=3e44af47-15f1-4eab-8dc7-82170c179e57"},"vehicle_type_id":"4","last_reported":1776783740,"current_range_meters":10000,"station_id":"ce4bhbh2rcd13ifvqepg","pricing_plan_id":"cebpf4jnsgd1na2vs0mg"},{"bike_id":"c7ff1d8c-9f80-4101-92ef-2f0b68fb525f","system_id":"levelo_inurba_marseille","lat":43.27516,"lon":5.39573,"is_reserved":false,"is_disabled":false,"rental_uris":{"android":"levelo://app?vid=c7ff1d8c-9f80-4101-92ef-2f0b68fb525f","ios":"levelo://app?vid=c7ff1d8c-9f80-4101-92ef-2f0b68fb525f"},"vehicle_type_id":"4","last_reported":1776783740,"current_range_meters":10000,"station_id":"","pricing_plan_id":"cebpf4jnsgd1na2vs0mg"},{"bike_id":"40b7de46-910a-4fe7-a860-cb5e58e93571","system_id":"levelo_inurba_marseille","lat":43.27561,"lon":5.3842,"is_reserved":false,"is_disabled":false,"rental_uris":{"android":"levelo://app?vid=40b7de46-910a-4fe7-a860-cb5e58e93571","ios":"levelo://app?vid=40b7de46-910a-4fe7-a860-cb5e58e93571"},"vehicle_type_id":"4","last_reported":1776783740,"current_range_meters":10000,"station_id":"ce4bhh92rcd13ifvqfi0","pricing_plan_id":"cebpf4jnsgd1na2vs0mg"},{"bike_id":"d1fda486-70ba-4609-b998-7713b50defe1","system_id":"levelo_inurba_marseille","lat":43.27016,"lon":5.40105,"is_reserved":false,"is_disabled":false,"rental_uris":{"android":"levelo://app?vid=d1fda486-70ba-4609-b998-7713b50defe1","ios":"levelo://app?vid=d1fda486-70ba-4609-b998-7713b50defe1"},"vehicle_type_id":"4","last_reported":1776783740,"current_range_meters":10000,"station_id":"","pricing_plan_id":"cebpf4jnsgd1na2vs0mg"},{"bike_id":"53ac9b94-d2b8-401a-8133-9009372f217e","system_id":"levelo_inurba_marseille","lat":43.28468,"lon":5.48435,"is_reserved":false,"is_disabled":false,"rental_uris":{"android":"levelo://app?vid=53ac9b94-d2b8-401a-8133-9009372f217e","ios":"levelo://app?vid=53ac9b94-d2b8-401a-8133-9009372f217e"},"vehicle_type_id":"4","last_reported":1776783740,"current_range_meters":10000,"station_id":"st_d3svhcjqgbts73a3dn0g","pricing_plan_id":"cebpf4jnsgd1na2vs0mg"},{"bike_id":"153f4dc3-9ddf-48f5-a2f7-1b1d2de00438","system_id":"levelo_inurba_marseille","lat":43.29026,"lon":5.38653,"is_reserved":false,"is_disabled":false,"rental_uris":{"android":"levelo://app?vid=153f4dc3-9ddf-48f5-a2f7-1b1d2de00438","ios":"levelo://app?vid=153f4dc3-9ddf-48f5-a2f7-1b1d2de00438"},"vehicle_type_id":"4","last_reported":1776783740,"current_range_meters":10000,"station_id":"ce4bh4p2rcd13ifvqe0g","pricing_plan_id":"cebpf4jnsgd1na2vs0mg"},{"bike_id":"75400a98-acf8-4b08-98c2-025c3347576a","system_id":"levelo_inurba_marseille","lat":43.29558,"lon":5.38723,"is_reserved":false,"is_disabled":false,"rental_uris":{"android":"levelo://app?vid=75400a98-acf8-4b08-98c2-025c3347576a","ios":"levelo://app?vid=75400a98-acf8-4b08-98c2-025c3347576a"},"vehicle_type_id":"4","last_reported":1776783740,"current_range_meters":10800,"station_id":"","pricing_plan_id":"cebpf4jnsgd1na2vs0mg"},{"bike_id":"c6d78990-f0d8-4430-b6f2-4645ad10461b","system_id":"levelo_inurba_marseille","lat":43.26196,"lon":5.37433,"is_reserved":false,"is_disabled":false,"rental_uris":{"android":"levelo://app?vid=c6d78990-f0d8-4430-b6f2-4645ad10461b","ios":"levelo://app?vid=c6d78990-f0d8-4430-b6f2-4645ad10461b"},"vehicle_type_id":"4","last_reported":1776783740,"current_range_meters":10800,"station_id":"ce4bhgp2rcd13ifvqfc0","pricing_plan_id":"cebpf4jnsgd1na2vs0mg"},{"bike_id":"1c4db81e-e54e-450a-b910-a202dc639503","system_id":"levelo_inurba_marseille","lat":43.28483,"lon":5.48411,"is_reserved":false,"is_disabled":false,"rental_uris":{"android":"levelo://app?vid=1c4db81e-e54e-450a-b910-a202dc639503","ios":"levelo://app?vid=1c4db81e-e54e-450a-b910-a202dc639503"},"vehicle_type_id":"4","last_reported":1776783740,"current_range_meters":10800,"station_id":"","pricing_plan_id":"cebpf4jnsgd1na2vs0mg"},{"bike_id":"84733ab1-2a74-4f31-9496-172ed347c176","system_id":"levelo_inurba_marseille","lat":43.29898,"lon":5.43681,"is_reserved":false,"is_disabled":false,"rental_uris":{"android":"levelo://app?vid=84733ab1-2a74-4f31-9496-172ed347c176","ios":"levelo://app?vid=84733ab1-2a74-4f31-9496-172ed347c176"},"vehicle_type_id":"4","last_reported":1776783740,"current_range_meters":10800,"station_id":"ce4bhpp2rcd13ifvqhfg","pricing_plan_id":"cebpf4jnsgd1na2vs0mg"},{"bike_id":"12d1ddb5-1e2c-4b2d-a0d4-dafdec917212","system_id":"levelo_inurba_marseille","lat":43.28504,"lon":5.48382,"is_reserved":false,"is_disabled":false,"rental_uris":{"android":"levelo://app?vid=12d1ddb5-1e2c-4b2d-a0d4-dafdec917212","ios":"levelo://app?vid=12d1ddb5-1e2c-4b2d-a0d4-dafdec917212"},"vehicle_type_id":"4","last_reported":1776783740,"current_range_meters":10800,"station_id":"","pricing_plan_id":"cebpf4jnsgd1na2vs0mg"},{"bike_id":"3493124a-619f-42fc-9ec0-00628ff9c119","system_id":"levelo_inurba_marseille","lat":43.29835,"lon":5.38412,"is_reserved":false,"is_disabled":false,"rental_uris":{"android":"levelo://app?vid=3493124a-619f-42fc-9ec0-00628ff9c119","ios":"levelo://app?vid=3493124a-619f-42fc-9ec0-00628ff9c119"},"vehicle_type_id":"4","last_reported":1776783740,"current_range_meters":10800,"station_id":"","pricing_plan_id":"cebpf4jnsgd1na2vs0mg"},{"bike_id":"ea54b7f9-00c6-43b1-9a5a-534a8cb9648e","system_id":"levelo_inurba_marseille","lat":43.29805,"lon":5.38535,"is_reserved":false,"is_disabled":false,"rental_uris":{"android":"levelo://app?vid=ea54b7f9-00c6-43b1-9a5a-534a8cb9648e","ios":"levelo://app?vid=ea54b7f9-00c6-43b1-9a5a-534a8cb9648e"},"vehicle_type_id":"4","last_reported":1776783740,"current_range_meters":10800,"station_id":"","pricing_plan_id":"cebpf4jnsgd1na2vs0mg"},{"bike_id":"a94d236d-eba8-4733-81ef-6d7a05120d94","system_id":"levelo_inurba_marseille","lat":43.24858,"lon":5.39422,"is_reserved":false,"is_disabled":false,"rental_uris":{"android":"levelo://app?vid=a94d236d-eba8-4733-81ef-6d7a05120d94","ios":"levelo://app?vid=a94d236d-eba8-4733-81ef-6d7a05120d94"},"vehicle_type_id":"4","last_reported":1776783740,"current_range_meters":10800,"station_id":"","pricing_plan_id":"cebpf4jnsgd1na2vs0mg"},{"bike_id":"72b82acc-6e86-412a-b9ac-08ce61532de2","system_id":"levelo_inurba_marseille","lat":43.27375,"lon":5.36257,"is_reserved":false,"is_disabled":false,"rental_uris":{"android":"levelo://app?vid=72b82acc-6e86-412a-b9ac-08ce61532de2","ios":"levelo://app?vid=72b82acc-6e86-412a-b9ac-08ce61532de2"},"vehicle_type_id":"4","last_reported":1776783740,"current_range_meters":10800,"station_id":"ce4bhbh2rcd13ifvqeo0","pricing_plan_id":"cebpf4jnsgd1na2vs0mg"},{"bike_id":"fc50c018-5ad1-40e7-9768-aa32a03bbf7f","system_id":"levelo_inurba_marseille","lat":43.30883,"lon":5.3966,"is_reserved":false,"is_disabled":false,"rental_uris":{"android":"levelo://app?vid=fc50c018-5ad1-40e7-9768-aa32a03bbf7f","ios":"levelo://app?vid=fc50c018-5ad1-40e7-9768-aa32a03bbf7f"},"vehicle_type_id":"4","last_reported":1776783740,"current_range_meters":10800,"station_id":"ce4bh012rcd13ifvqcv0","pricing_plan_id":"cebpf4jnsgd1na2vs0mg"},{"bike_id":"086128af-4c2d-4048-b883-918172a3bccc","system_id":"levelo_inurba_marseille","lat":43.23197,"lon":5.35553,"is_reserved":false,"is_disabled":false,"rental_uris":{"android":"levelo://app?vid=086128af-4c2d-4048-b883-918172a3bccc","ios":"levelo://app?vid=086128af-4c2d-4048-b883-918172a3bccc"},"vehicle_type_id":"4","last_reported":1776783740,"current_range_meters":10800,"station_id":"ce4bhu92rcd13ifvqi70","pricing_plan_id":"cebpf4jnsgd1na2vs0mg"},{"bike_id":"00189a0e-8bac-4d11-85b6-2438ebff76d6","system_id":"levelo_inurba_marseille","lat":43.29438,"lon":5.38415,"is_reserved":false,"is_disabled":false,"rental_uris":{"android":"levelo://app?vid=00189a0e-8bac-4d11-85b6-2438ebff76d6","ios":"levelo://app?vid=00189a0e-8bac-4d11-85b6-2438ebff76d6"},"vehicle_type_id":"4","last_reported":1776783740,"current_range_meters":10800,"station_id":"","pricing_plan_id":"cebpf4jnsgd1na2vs0mg"},{"bike_id":"faa4aa90-015f-4f3f-84fc-664101e8b3cd","system_id":"levelo_inurba_marseille","lat":43.29265,"lon":5.38439,"is_reserved":false,"is_disabled":false,"rental_uris":{"android":"levelo://app?vid=faa4aa90-015f-4f3f-84fc-664101e8b3cd","ios":"levelo://app?vid=faa4aa90-015f-4f3f-84fc-664101e8b3cd"},"vehicle_type_id":"4","last_reported":1776783740,"current_range_meters":10800,"station_id":"ce4bh692rcd13ifvqea0","pricing_plan_id":"cebpf4jnsgd1na2vs0mg"},{"bike_id":"64ec56a2-0ee0-4113-858a-d4541359e773","system_id":"levelo_inurba_marseille","lat":43.28267,"lon":5.35054,"is_reserved":false,"is_disabled":false,"rental_uris":{"android":"levelo://app?vid=64ec56a2-0ee0-4113-858a-d4541359e773","ios":"levelo://app?vid=64ec56a2-0ee0-4113-858a-d4541359e773"},"vehicle_type_id":"4","last_reported":1776783740,"current_range_meters":10800,"station_id":"ce4bhbp2rcd13ifvqerg","pricing_plan_id":"cebpf4jnsgd1na2vs0mg"},{"bike_id":"9bee36b8-13f8-4fea-a2d5-f3c72e3a07d6","system_id":"levelo_inurba_marseille","lat":43.28551,"lon":5.40196,"is_reserved":false,"is_disabled":false,"rental_uris":{"android":"levelo://app?vid=9bee36b8-13f8-4fea-a2d5-f3c72e3a07d6","ios":"levelo://app?vid=9bee36b8-13f8-4fea-a2d5-f3c72e3a07d6"},"vehicle_type_id":"4","last_reported":1776783740,"current_range_meters":10800,"station_id":"","pricing_plan_id":"cebpf4jnsgd1na2vs0mg"},{"bike_id":"305e1809-8fdd-4298-af7d-437eb4120cdd","system_id":"levelo_inurba_marseille","lat":43.28581,"lon":5.38142,"is_reserved":false,"is_disabled":false,"rental_uris":{"android":"levelo://app?vid=305e1809-8fdd-4298-af7d-437eb4120cdd","ios":"levelo://app?vid=305e1809-8fdd-4298-af7d-437eb4120cdd"},"vehicle_type_id":"4","last_reported":1776783740,"current_range_meters":10800,"station_id":"","pricing_plan_id":"cebpf4jnsgd1na2vs0mg"},{"bike_id":"db4b98dc-45e4-4a07-92be-67c1b37e6726","system_id":"levelo_inurba_marseille","lat":43.26192,"lon":5.37449,"is_reserved":false,"is_disabled":false,"rental_uris":{"android":"levelo://app?vid=db4b98dc-45e4-4a07-92be-67c1b37e6726","ios":"levelo://app?vid=db4b98dc-45e4-4a07-92be-67c1b37e6726"},"vehicle_type_id":"4","last_reported":1776783740,"current_range_meters":10800,"station_id":"ce4bhgp2rcd13ifvqfc0","pricing_plan_id":"cebpf4jnsgd1na2vs0mg"},{"bike_id":"dcb5d78d-ca9d-484f-92bd-163ea1f73f6c","system_id":"levelo_inurba_marseille","lat":43.28153,"lon":5.42616,"is_reserved":false,"is_disabled":false,"rental_uris":{"android":"levelo://app?vid=dcb5d78d-ca9d-484f-92bd-163ea1f73f6c","ios":"levelo://app?vid=dcb5d78d-ca9d-484f-92bd-163ea1f73f6c"},"vehicle_type_id":"4","last_reported":1776783740,"current_range_meters":11200,"station_id":"ce4bhnh2rcd13ifvqgug","pricing_plan_id":"cebpf4jnsgd1na2vs0mg"},{"bike_id":"dc0d8f83-4f7e-478e-a9d3-374c08e2bcab","system_id":"levelo_inurba_marseille","lat":43.30644,"lon":5.40112,"is_reserved":false,"is_disabled":false,"rental_uris":{"android":"levelo://app?vid=dc0d8f83-4f7e-478e-a9d3-374c08e2bcab","ios":"levelo://app?vid=dc0d8f83-4f7e-478e-a9d3-374c08e2bcab"},"vehicle_type_id":"4","last_reported":1776783740,"current_range_meters":11200,"station_id":"ce4bh112rcd13ifvqda0","pricing_plan_id":"cebpf4jnsgd1na2vs0mg"},{"bike_id":"6278f332-46f8-498d-826d-48124f4c431d","system_id":"levelo_inurba_marseille","lat":43.2619,"lon":5.37443,"is_reserved":false,"is_disabled":false,"rental_uris":{"android":"levelo://app?vid=6278f332-46f8-498d-826d-48124f4c431d","ios":"levelo://app?vid=6278f332-46f8-498d-826d-48124f4c431d"},"vehicle_type_id":"4","last_reported":1776783740,"current_range_meters":11200,"station_id":"ce4bhgp2rcd13ifvqfc0","pricing_plan_id":"cebpf4jnsgd1na2vs0mg"},{"bike_id":"02da471c-e75e-494e-ade3-cf067f47b0f2","system_id":"levelo_inurba_marseille","lat":43.31174,"lon":5.38716,"is_reserved":false,"is_disabled":false,"rental_uris":{"android":"levelo://app?vid=02da471c-e75e-494e-ade3-cf067f47b0f2","ios":"levelo://app?vid=02da471c-e75e-494e-ade3-cf067f47b0f2"},"vehicle_type_id":"4","last_reported":1776783740,"current_range_meters":11200,"station_id":"ce4bgv12rcd13ifvqcp0","pricing_plan_id":"cebpf4jnsgd1na2vs0mg"},{"bike_id":"99e74d92-5ea1-46af-9650-bc261d617161","system_id":"levelo_inurba_marseille","lat":43.21746,"lon":5.34608,"is_reserved":false,"is_disabled":false,"rental_uris":{"android":"levelo://app?vid=99e74d92-5ea1-46af-9650-bc261d617161","ios":"levelo://app?vid=99e74d92-5ea1-46af-9650-bc261d617161"},"vehicle_type_id":"4","last_reported":1776783740,"current_range_meters":11200,"station_id":"st_cvj6r9ubvosntc0bgbag","pricing_plan_id":"cebpf4jnsgd1na2vs0mg"},{"bike_id":"068ef223-d6c1-43a1-b7ea-024c50ffaa83","system_id":"levelo_inurba_marseille","lat":43.28563,"lon":5.39507,"is_reserved":false,"is_disabled":false,"rental_uris":{"android":"levelo://app?vid=068ef223-d6c1-43a1-b7ea-024c50ffaa83","ios":"levelo://app?vid=068ef223-d6c1-43a1-b7ea-024c50ffaa83"},"vehicle_type_id":"4","last_reported":1776783740,"current_range_meters":11200,"station_id":"ce4bh292rcd13ifvqdg0","pricing_plan_id":"cebpf4jnsgd1na2vs0mg"},{"bike_id":"0949df6d-87e5-48c0-9d77-a0594cc8a1bb","system_id":"levelo_inurba_marseille","lat":43.27382,"lon":5.36258,"is_reserved":false,"is_disabled":false,"rental_uris":{"android":"levelo://app?vid=0949df6d-87e5-48c0-9d77-a0594cc8a1bb","ios":"levelo://app?vid=0949df6d-87e5-48c0-9d77-a0594cc8a1bb"},"vehicle_type_id":"4","last_reported":1776783740,"current_range_meters":11200,"station_id":"ce4bhbh2rcd13ifvqeo0","pricing_plan_id":"cebpf4jnsgd1na2vs0mg"},{"bike_id":"ab441cdc-9cd1-4c8e-b69e-34bb46fece34","system_id":"levelo_inurba_marseille","lat":43.29391,"lon":5.363,"is_reserved":false,"is_disabled":false,"rental_uris":{"android":"levelo://app?vid=ab441cdc-9cd1-4c8e-b69e-34bb46fece34","ios":"levelo://app?vid=ab441cdc-9cd1-4c8e-b69e-34bb46fece34"},"vehicle_type_id":"4","last_reported":1776783740,"current_range_meters":11200,"station_id":"","pricing_plan_id":"cebpf4jnsgd1na2vs0mg"},{"bike_id":"3f5b6264-ec83-4414-9dc6-24d1e76060bd","system_id":"levelo_inurba_marseille","lat":43.30539,"lon":5.36551,"is_reserved":false,"is_disabled":false,"rental_uris":{"android":"levelo://app?vid=3f5b6264-ec83-4414-9dc6-24d1e76060bd","ios":"levelo://app?vid=3f5b6264-ec83-4414-9dc6-24d1e76060bd"},"vehicle_type_id":"4","last_reported":1776783740,"current_range_meters":11200,"station_id":"ce4bgs12rcd13ifvqcag","pricing_plan_id":"cebpf4jnsgd1na2vs0mg"},{"bike_id":"13e07d6a-d0a2-42b7-8ed3-bcafc5672c56","system_id":"levelo_inurba_marseille","lat":43.26488,"lon":5.39546,"is_reserved":false,"is_disabled":false,"rental_uris":{"android":"levelo://app?vid=13e07d6a-d0a2-42b7-8ed3-bcafc5672c56","ios":"levelo://app?vid=13e07d6a-d0a2-42b7-8ed3-bcafc5672c56"},"vehicle_type_id":"4","last_reported":1776783740,"current_range_meters":11200,"station_id":"ce4bhi12rcd13ifvqfq0","pricing_plan_id":"cebpf4jnsgd1na2vs0mg"},{"bike_id":"9d612b8f-1fa6-4796-b909-14fad5f96029","system_id":"levelo_inurba_marseille","lat":43.25504,"lon":5.37644,"is_reserved":false,"is_disabled":false,"rental_uris":{"android":"levelo://app?vid=9d612b8f-1fa6-4796-b909-14fad5f96029","ios":"levelo://app?vid=9d612b8f-1fa6-4796-b909-14fad5f96029"},"vehicle_type_id":"4","last_reported":1776783740,"current_range_meters":11200,"station_id":"ce4bhh12rcd13ifvqff0","pricing_plan_id":"cebpf4jnsgd1na2vs0mg"},{"bike_id":"226ece2b-87fc-494b-b9b1-29d4f3a23456","system_id":"levelo_inurba_marseille","lat":43.28314,"lon":5.42652,"is_reserved":false,"is_disabled":false,"rental_uris":{"android":"levelo://app?vid=226ece2b-87fc-494b-b9b1-29d4f3a23456","ios":"levelo://app?vid=226ece2b-87fc-494b-b9b1-29d4f3a23456"},"vehicle_type_id":"4","last_reported":1776783740,"current_range_meters":11200,"station_id":"","pricing_plan_id":"cebpf4jnsgd1na2vs0mg"},{"bike_id":"e6245009-0c6a-4785-9287-21739b27a31e","system_id":"levelo_inurba_marseille","lat":43.30927,"lon":5.40149,"is_reserved":false,"is_disabled":false,"rental_uris":{"android":"levelo://app?vid=e6245009-0c6a-4785-9287-21739b27a31e","ios":"levelo://app?vid=e6245009-0c6a-4785-9287-21739b27a31e"},"vehicle_type_id":"4","last_reported":1776783740,"current_range_meters":11200,"station_id":"ce4bgvp2rcd13ifvqct0","pricing_plan_id":"cebpf4jnsgd1na2vs0mg"},{"bike_id":"f8d46f57-68ae-42a5-9479-ae67d8834276","system_id":"levelo_inurba_marseille","lat":43.3009,"lon":5.37092,"is_reserved":false,"is_disabled":false,"rental_uris":{"android":"levelo://app?vid=f8d46f57-68ae-42a5-9479-ae67d8834276","ios":"levelo://app?vid=f8d46f57-68ae-42a5-9479-ae67d8834276"},"vehicle_type_id":"4","last_reported":1776783740,"current_range_meters":11200,"station_id":"","pricing_plan_id":"cebpf4jnsgd1na2vs0mg"},{"bike_id":"92d4e5e2-fd4f-408a-a76f-317a366e6e10","system_id":"levelo_inurba_marseille","lat":43.28618,"lon":5.3509,"is_reserved":false,"is_disabled":false,"rental_uris":{"android":"levelo://app?vid=92d4e5e2-fd4f-408a-a76f-317a366e6e10","ios":"levelo://app?vid=92d4e5e2-fd4f-408a-a76f-317a366e6e10"},"vehicle_type_id":"4","last_reported":1776783740,"current_range_meters":11200,"station_id":"ce4bhch2rcd13ifvqeug","pricing_plan_id":"cebpf4jnsgd1na2vs0mg"},{"bike_id":"192e4b53-f681-4273-9d84-db0f58b02b5f","system_id":"levelo_inurba_marseille","lat":43.27386,"lon":5.36274,"is_reserved":false,"is_disabled":false,"rental_uris":{"android":"levelo://app?vid=192e4b53-f681-4273-9d84-db0f58b02b5f","ios":"levelo://app?vid=192e4b53-f681-4273-9d84-db0f58b02b5f"},"vehicle_type_id":"4","last_reported":1776783740,"current_range_meters":11200,"station_id":"ce4bhbh2rcd13ifvqeo0","pricing_plan_id":"cebpf4jnsgd1na2vs0mg"},{"bike_id":"d9fb7637-baa7-4dab-8d94-7dae8217fc4c","system_id":"levelo_inurba_marseille","lat":43.24168,"lon":5.36407,"is_reserved":false,"is_disabled":false,"rental_uris":{"android":"levelo://app?vid=d9fb7637-baa7-4dab-8d94-7dae8217fc4c","ios":"levelo://app?vid=d9fb7637-baa7-4dab-8d94-7dae8217fc4c"},"vehicle_type_id":"4","last_reported":1776783740,"current_range_meters":11200,"station_id":"cpo36qri1sfpv3e86is0","pricing_plan_id":"cebpf4jnsgd1na2vs0mg"},{"bike_id":"f8247967-9b0c-4b02-98eb-2bd237d9db1b","system_id":"levelo_inurba_marseille","lat":43.26055,"lon":5.39398,"is_reserved":false,"is_disabled":false,"rental_uris":{"android":"levelo://app?vid=f8247967-9b0c-4b02-98eb-2bd237d9db1b","ios":"levelo://app?vid=f8247967-9b0c-4b02-98eb-2bd237d9db1b"},"vehicle_type_id":"4","last_reported":1776783740,"current_range_meters":11200,"station_id":"ce4bhh92rcd13ifvqfj0","pricing_plan_id":"cebpf4jnsgd1na2vs0mg"},{"bike_id":"1f1edbe6-867b-48b3-8394-e6e67cbfd024","system_id":"levelo_inurba_marseille","lat":43.24771,"lon":5.374,"is_reserved":false,"is_disabled":true,"rental_uris":{"android":"levelo://app?vid=1f1edbe6-867b-48b3-8394-e6e67cbfd024","ios":"levelo://app?vid=1f1edbe6-867b-48b3-8394-e6e67cbfd024"},"vehicle_type_id":"4","last_reported":1776783740,"current_range_meters":11200,"station_id":"ce4bhgh2rcd13ifvqfb0","pricing_plan_id":"cebpf4jnsgd1na2vs0mg"},{"bike_id":"3a205054-74c5-45cb-b243-16c73817e833","system_id":"levelo_inurba_marseille","lat":43.29539,"lon":5.3855,"is_reserved":false,"is_disabled":false,"rental_uris":{"android":"levelo://app?vid=3a205054-74c5-45cb-b243-16c73817e833","ios":"levelo://app?vid=3a205054-74c5-45cb-b243-16c73817e833"},"vehicle_type_id":"4","last_reported":1776783740,"current_range_meters":11200,"station_id":"ce4bgih2rcd13ifvqba0","pricing_plan_id":"cebpf4jnsgd1na2vs0mg"},{"bike_id":"ad629e17-e1cf-42bd-a72d-9c2dcf9476cd","system_id":"levelo_inurba_marseille","lat":43.22561,"lon":5.41624,"is_reserved":false,"is_disabled":false,"rental_uris":{"android":"levelo://app?vid=ad629e17-e1cf-42bd-a72d-9c2dcf9476cd","ios":"levelo://app?vid=ad629e17-e1cf-42bd-a72d-9c2dcf9476cd"},"vehicle_type_id":"4","last_reported":1776783740,"current_range_meters":11200,"station_id":"st_d2o4gvlbi1j2169b742g","pricing_plan_id":"cebpf4jnsgd1na2vs0mg"},{"bike_id":"8654c2dd-e9bf-4dce-96bb-1f5f05a1eb30","system_id":"levelo_inurba_marseille","lat":43.29276,"lon":5.40111,"is_reserved":false,"is_disabled":false,"rental_uris":{"android":"levelo://app?vid=8654c2dd-e9bf-4dce-96bb-1f5f05a1eb30","ios":"levelo://app?vid=8654c2dd-e9bf-4dce-96bb-1f5f05a1eb30"},"vehicle_type_id":"4","last_reported":1776783740,"current_range_meters":11600,"station_id":"ce4bh312rcd13ifvqdk0","pricing_plan_id":"cebpf4jnsgd1na2vs0mg"},{"bike_id":"73d436be-8bb5-400c-b5b8-edfd7e8d5913","system_id":"levelo_inurba_marseille","lat":43.337444,"lon":5.374475,"is_reserved":false,"is_disabled":false,"rental_uris":{"android":"levelo://app?vid=73d436be-8bb5-400c-b5b8-edfd7e8d5913","ios":"levelo://app?vid=73d436be-8bb5-400c-b5b8-edfd7e8d5913"},"vehicle_type_id":"4","last_reported":1776783740,"current_range_meters":11600,"station_id":"ce4bhgp2rcd13ifvqfc0","pricing_plan_id":"cebpf4jnsgd1na2vs0mg"},{"bike_id":"98b397c7-06e5-42c8-a8dd-b1cf1b1794f0","system_id":"levelo_inurba_marseille","lat":43.28462,"lon":5.35885,"is_reserved":false,"is_disabled":false,"rental_uris":{"android":"levelo://app?vid=98b397c7-06e5-42c8-a8dd-b1cf1b1794f0","ios":"levelo://app?vid=98b397c7-06e5-42c8-a8dd-b1cf1b1794f0"},"vehicle_type_id":"4","last_reported":1776783740,"current_range_meters":11600,"station_id":"ce4bhah2rcd13ifvqei0","pricing_plan_id":"cebpf4jnsgd1na2vs0mg"},{"bike_id":"35dcad4d-a0f1-46d2-8c88-22ba38be8aa3","system_id":"levelo_inurba_marseille","lat":43.30954,"lon":5.39047,"is_reserved":false,"is_disabled":false,"rental_uris":{"android":"levelo://app?vid=35dcad4d-a0f1-46d2-8c88-22ba38be8aa3","ios":"levelo://app?vid=35dcad4d-a0f1-46d2-8c88-22ba38be8aa3"},"vehicle_type_id":"4","last_reported":1776783740,"current_range_meters":11600,"station_id":"ce4bgup2rcd13ifvqco0","pricing_plan_id":"cebpf4jnsgd1na2vs0mg"},{"bike_id":"a22050df-25c3-4424-8c45-565af661de82","system_id":"levelo_inurba_marseille","lat":43.28494,"lon":5.4836,"is_reserved":false,"is_disabled":false,"rental_uris":{"android":"levelo://app?vid=a22050df-25c3-4424-8c45-565af661de82","ios":"levelo://app?vid=a22050df-25c3-4424-8c45-565af661de82"},"vehicle_type_id":"4","last_reported":1776783740,"current_range_meters":11600,"station_id":"","pricing_plan_id":"cebpf4jnsgd1na2vs0mg"},{"bike_id":"b4c77d1c-7784-4d9f-9e41-c9e197b765c4","system_id":"levelo_inurba_marseille","lat":43.28416,"lon":5.34987,"is_reserved":false,"is_disabled":false,"rental_uris":{"android":"levelo://app?vid=b4c77d1c-7784-4d9f-9e41-c9e197b765c4","ios":"levelo://app?vid=b4c77d1c-7784-4d9f-9e41-c9e197b765c4"},"vehicle_type_id":"4","last_reported":1776783740,"current_range_meters":11600,"station_id":"ce4bhbh2rcd13ifvqepg","pricing_plan_id":"cebpf4jnsgd1na2vs0mg"},{"bike_id":"b2678e8c-61ea-4870-9065-d6db0cca6f64","system_id":"levelo_inurba_marseille","lat":43.23191,"lon":5.3558,"is_reserved":false,"is_disabled":false,"rental_uris":{"android":"levelo://app?vid=b2678e8c-61ea-4870-9065-d6db0cca6f64","ios":"levelo://app?vid=b2678e8c-61ea-4870-9065-d6db0cca6f64"},"vehicle_type_id":"4","last_reported":1776783740,"current_range_meters":11600,"station_id":"ce4bhu92rcd13ifvqi70","pricing_plan_id":"cebpf4jnsgd1na2vs0mg"},{"bike_id":"29f2bc40-27a7-4796-9b16-2c16e5402e81","system_id":"levelo_inurba_marseille","lat":43.31258,"lon":5.36835,"is_reserved":false,"is_disabled":false,"rental_uris":{"android":"levelo://app?vid=29f2bc40-27a7-4796-9b16-2c16e5402e81","ios":"levelo://app?vid=29f2bc40-27a7-4796-9b16-2c16e5402e81"},"vehicle_type_id":"4","last_reported":1776783740,"current_range_meters":11600,"station_id":"ce4bgl92rcd13ifvqbq0","pricing_plan_id":"cebpf4jnsgd1na2vs0mg"},{"bike_id":"1c21b5e4-18ba-4d77-b990-0019b8294ddb","system_id":"levelo_inurba_marseille","lat":43.26517,"lon":5.39605,"is_reserved":false,"is_disabled":false,"rental_uris":{"android":"levelo://app?vid=1c21b5e4-18ba-4d77-b990-0019b8294ddb","ios":"levelo://app?vid=1c21b5e4-18ba-4d77-b990-0019b8294ddb"},"vehicle_type_id":"4","last_reported":1776783740,"current_range_meters":11600,"station_id":"","pricing_plan_id":"cebpf4jnsgd1na2vs0mg"},{"bike_id":"0d8f6273-b853-43fd-bf3c-4c5225d142b8","system_id":"levelo_inurba_marseille","lat":43.28937,"lon":5.39632,"is_reserved":false,"is_disabled":false,"rental_uris":{"android":"levelo://app?vid=0d8f6273-b853-43fd-bf3c-4c5225d142b8","ios":"levelo://app?vid=0d8f6273-b853-43fd-bf3c-4c5225d142b8"},"vehicle_type_id":"4","last_reported":1776783740,"current_range_meters":11600,"station_id":"ce4bh3h2rcd13ifvqdn0","pricing_plan_id":"cebpf4jnsgd1na2vs0mg"},{"bike_id":"f646ff3e-d577-4ac4-ae91-556d3ba51449","system_id":"levelo_inurba_marseille","lat":43.22932,"lon":5.35377,"is_reserved":false,"is_disabled":false,"rental_uris":{"android":"levelo://app?vid=f646ff3e-d577-4ac4-ae91-556d3ba51449","ios":"levelo://app?vid=f646ff3e-d577-4ac4-ae91-556d3ba51449"},"vehicle_type_id":"4","last_reported":1776783740,"current_range_meters":11600,"station_id":"cpo3532slgdg3j2ikp40","pricing_plan_id":"cebpf4jnsgd1na2vs0mg"},{"bike_id":"7af19307-88ba-4f26-8f95-a2adf190dff7","system_id":"levelo_inurba_marseille","lat":43.30416,"lon":5.40082,"is_reserved":false,"is_disabled":false,"rental_uris":{"android":"levelo://app?vid=7af19307-88ba-4f26-8f95-a2adf190dff7","ios":"levelo://app?vid=7af19307-88ba-4f26-8f95-a2adf190dff7"},"vehicle_type_id":"4","last_reported":1776783740,"current_range_meters":11600,"station_id":"","pricing_plan_id":"cebpf4jnsgd1na2vs0mg"},{"bike_id":"6f300dbf-4b7d-4390-9d54-f51eb20c3a8e","system_id":"levelo_inurba_marseille","lat":43.29003,"lon":5.35614,"is_reserved":false,"is_disabled":false,"rental_uris":{"android":"levelo://app?vid=6f300dbf-4b7d-4390-9d54-f51eb20c3a8e","ios":"levelo://app?vid=6f300dbf-4b7d-4390-9d54-f51eb20c3a8e"},