{"last_updated":1710450420,"ttl":30,"version":"2.2","data":{"bikes":[{"bike_id":"2e1aeb5a-3466-4626-b6b7-14141652c12e","system_id":"levelo_inurba_marseille","lat":43.313391,"lon":5.36706,"is_reserved":false,"is_disabled":false,"rental_uris":{"android":"levelo://app?vid=2e1aeb5a-3466-4626-b6b7-14141652c12e","ios":"levelo://app?vid=2e1aeb5a-3466-4626-b6b7-14141652c12e"},"vehicle_type_id":"4","last_reported":1710450420,"current_range_meters":26000,"station_id":"ce4bgr92rcd13ifvqc6g","pricing_plan_id":"cebpf4jnsgd1na2vs0mg"},{"bike_id":"d2af8e25-7948-4d1f-886f-c651ecbf4e9c","system_id":"levelo_inurba_marseille","lat":43.313391,"lon":5.36706,"is_reserved":false,"is_disabled":false,"rental_uris":{"android":"levelo://app?vid=d2af8e25-7948-4d1f-886f-c651ecbf4e9c","ios":"levelo://app?vid=d2af8e25-7948-4d1f-886f-c651ecbf4e9c"},"vehicle_type_id":"4","last_reported":1710450420,"current_range_meters":11200,"station_id":"ce4bgr92rcd13ifvqc6g","pricing_plan_id":"cebpf4jnsgd1na2vs0mg"},{"bike_id":"01d55148-69e3-47e6-9867-60cedfb6fb71","system_id":"levelo_inurba_marseille","lat":43.313391,"lon":5.36706,"is_reserved":false,"is_disabled":false,"rental_uris":{"android":"levelo://app?vid=01d55148-69e3-47e6-9867-60cedfb6fb71","ios":"levelo://app?vid=01d55148-69e3-47e6-9867-60cedfb6fb71"},"vehicle_type_id":"4","last_reported":1710450420,"current_range_meters":11200,"station_id":"ce4bgr92rcd13ifvqc6g","pricing_plan_id":"cebpf4jnsgd1na2vs0mg"},{"bike_id":"58fe9d67-e128-49b0-b373-23c07711304c","system_id":"levelo_inurba_marseille","lat":43.31223,"lon":5.36844,"is_reserved":false,"is_disabled":false,"rental_uris":{"android":"levelo://app?vid=58fe9d67-e128-49b0-b373-23c07711304c","ios":"levelo://app?vid=58fe9d67-e128-49b0-b373-23c07711304c"},"vehicle_type_id":"4","last_reported":1710450420,"current_range_meters":17200,"station_id":"ce4bgl92rcd13ifvqbq0","pricing_plan_id":"cebpf4jnsgd1na2vs0mg"},{"bike_id":"c4bcb905-a938-491e-b3da-2972c03d7f2f","system_id":"levelo_inurba_marseille","lat":43.312239,"lon":5.368562,"is_reserved":false,"is_disabled":false,"rental_uris":{"android":"levelo://app?vid=c4bcb905-a938-491e-b3da-2972c03d7f2f","ios":"levelo://app?vid=c4bcb905-a938-491e-b3da-2972c03d7f2f"},"vehicle_type_id":"4","last_reported":1710450420,"current_range_meters":8800,"station_id":"ce4bgl92rcd13ifvqbq0","pricing_plan_id":"cebpf4jnsgd1na2vs0mg"},{"bike_id":"196bf178-2dfb-4fad-8c89-b3df033c9281","system_id":"levelo_inurba_marseille","lat":43.312239,"lon":5.368562,"is_reserved":false,"is_disabled":false,"rental_uris":{"android":"levelo://app?vid=196bf178-2dfb-4fad-8c89-b3df033c9281","ios":"levelo://app?vid=196bf178-2dfb-4fad-8c89-b3df033c9281"},"vehicle_type_id":"4","last_reported":1710450420,"current_range_meters":10800,"station_id":"ce4bgl92rcd13ifvqbq0","pricing_plan_id":"cebpf4jnsgd1na2vs0mg"},{"bike_id":"3843885f-0901-4028-956f-36ec383b85b1","system_id":"levelo_inurba_marseille","lat":43.3149,"lon":5.37305,"is_reserved":false,"is_disabled":false,"rental_uris":{"android":"levelo://app?vid=3843885f-0901-4028-956f-36ec383b85b1","ios":"levelo://app?vid=3843885f-0901-4028-956f-36ec383b85b1"},"vehicle_type_id":"4","last_reported":1710450420,"current_range_meters":22400,"station_id":"ce4bgt12rcd13ifvqcd0","pricing_plan_id":"cebpf4jnsgd1na2vs0mg"},{"bike_id":"a0f5895c-7479-4317-8de6-f5808806e5ea","system_id":"levelo_inurba_marseille","lat":43.31499,"lon":5.37308,"is_reserved":false,"is_disabled":false,"rental_uris":{"android":"levelo://app?vid=a0f5895c-7479-4317-8de6-f5808806e5ea","ios":"levelo://app?vid=a0f5895c-7479-4317-8de6-f5808806e5ea"},"vehicle_type_id":"4","last_reported":1710450420,"current_range_meters":0,"station_id":"ce4bgt12rcd13ifvqcd0","pricing_plan_id":"cebpf4jnsgd1na2vs0mg"},{"bike_id":"e54e24ff-187e-4646-b32a-003944d4d97d","system_id":"levelo_inurba_marseille","lat":43.291994,"lon":5.392907,"is_reserved":false,"is_disabled":false,"rental_uris":{"android":"levelo://app?vid=e54e24ff-187e-4646-b32a-003944d4d97d","ios":"levelo://app?vid=e54e24ff-187e-4646-b32a-003944d4d97d"},"vehicle_type_id":"4","last_reported":1710450420,"current_range_meters":8800,"station_id":"ce4bh192rcd13ifvqdd0","pricing_plan_id":"cebpf4jnsgd1na2vs0mg"},{"bike_id":"74277f8a-1962-4ab7-b144-eadaab32d2cd","system_id":"levelo_inurba_marseille","lat":43.309039,"lon":5.371797,"is_reserved":false,"is_disabled":false,"rental_uris":{"android":"levelo://app?vid=74277f8a-1962-4ab7-b144-eadaab32d2cd","ios":"levelo://app?vid=74277f8a-1962-4ab7-b144-eadaab32d2cd"},"vehicle_type_id":"4","last_reported":1710450420,"current_range_meters":5600,"station_id":"ce4bguh2rcd13ifvqckg","pricing_plan_id":"cebpf4jnsgd1na2vs0mg"},{"bike_id":"55c5ac73-da3c-4fe2-a360-876dd99b23a8","system_id":"levelo_inurba_marseille","lat":43.31384,"lon":5.37559,"is_reserved":false,"is_disabled":false,"rental_uris":{"android":"levelo://app?vid=55c5ac73-da3c-4fe2-a360-876dd99b23a8","ios":"levelo://app?vid=55c5ac73-da3c-4fe2-a360-876dd99b23a8"},"vehicle_type_id":"4","last_reported":1710450420,"current_range_meters":0,"station_id":"","pricing_plan_id":"cebpf4jnsgd1na2vs0mg"},{"bike_id":"94264be3-ecfd-43af-a4e3-dcdca3f7ff85","system_id":"levelo_inurba_marseille","lat":43.31211,"lon":5.37602,"is_reserved":false,"is_disabled":false,"rental_uris":{"android":"levelo://app?vid=94264be3-ecfd-43af-a4e3-dcdca3f7ff85","ios":"levelo://app?vid=94264be3-ecfd-43af-a4e3-dcdca3f7ff85"},"vehicle_type_id":"4","last_reported":1710450420,"current_range_meters":800,"station_id":"","pricing_plan_id":"cebpf4jnsgd1na2vs0mg"},{"bike_id":"6f80341c-c6cb-49b6-ae50-b82b5bed7b73","system_id":"levelo_inurba_marseille","lat":43.311214,"lon":5.377638,"is_reserved":false,"is_disabled":false,"rental_uris":{"android":"levelo://app?vid=6f80341c-c6cb-49b6-ae50-b82b5bed7b73","ios":"levelo://app?vid=6f80341c-c6cb-49b6-ae50-b82b5bed7b73"},"vehicle_type_id":"4","last_reported":1710450420,"current_range_meters":29200,"station_id":"ce4bgt92rcd13ifvqcg0","pricing_plan_id":"cebpf4jnsgd1na2vs0mg"},{"bike_id":"d4720fcc-43f0-4a35-b1a0-e5905ecd13e6","system_id":"levelo_inurba_marseille","lat":43.307945,"lon":5.376487,"is_reserved":false,"is_disabled":false,"rental_uris":{"android":"levelo://app?vid=d4720fcc-43f0-4a35-b1a0-e5905ecd13e6","ios":"levelo://app?vid=d4720fcc-43f0-4a35-b1a0-e5905ecd13e6"},"vehicle_type_id":"4","last_reported":1710450420,"current_range_meters":0,"station_id":"ce4bgv92rcd13ifvqcq0","pricing_plan_id":"cebpf4jnsgd1na2vs0mg"},{"bike_id":"06f71ccb-da36-41e4-816f-8dd963dd91d0","system_id":"levelo_inurba_marseille","lat":43.307945,"lon":5.376487,"is_reserved":false,"is_disabled":false,"rental_uris":{"android":"levelo://app?vid=06f71ccb-da36-41e4-816f-8dd963dd91d0","ios":"levelo://app?vid=06f71ccb-da36-41e4-816f-8dd963dd91d0"},"vehicle_type_id":"4","last_reported":1710450420,"current_range_meters":28000,"station_id":"ce4bgv92rcd13ifvqcq0","pricing_plan_id":"cebpf4jnsgd1na2vs0mg"},{"bike_id":"072071c1-31bd-40c2-a00c-7a4825d248ce","system_id":"levelo_inurba_marseille","lat":43.307945,"lon":5.376487,"is_reserved":false,"is_disabled":false,"rental_uris":{"android":"levelo://app?vid=072071c1-31bd-40c2-a00c-7a4825d248ce","ios":"levelo://app?vid=072071c1-31bd-40c2-a00c-7a4825d248ce"},"vehicle_type_id":"4","last_reported":1710450420,"current_range_meters":400,"station_id":"ce4bgv92rcd13ifvqcq0","pricing_plan_id":"cebpf4jnsgd1na2vs0mg"},{"bike_id":"969c3aed-e701-4f44-ad07-85da7c6af03e","system_id":"levelo_inurba_marseille","lat":43.30782,"lon":5.37652,"is_reserved":false,"is_disabled":false,"rental_uris":{"android":"levelo://app?vid=969c3aed-e701-4f44-ad07-85da7c6af03e","ios":"levelo://app?vid=969c3aed-e701-4f44-ad07-85da7c6af03e"},"vehicle_type_id":"4","last_reported":1710450420,"current_range_meters":0,"station_id":"ce4bgv92rcd13ifvqcq0","pricing_plan_id":"cebpf4jnsgd1na2vs0mg"},{"bike_id":"2d4cc3ec-ca4d-48c6-a9a7-a00fae861df6","system_id":"levelo_inurba_marseille","lat":43.307945,"lon":5.376487,"is_reserved":false,"is_disabled":false,"rental_uris":{"android":"levelo://app?vid=2d4cc3ec-ca4d-48c6-a9a7-a00fae861df6","ios":"levelo://app?vid=2d4cc3ec-ca4d-48c6-a9a7-a00fae861df6"},"vehicle_type_id":"4","last_reported":1710450420,"current_range_meters":6400,"station_id":"ce4bgv92rcd13ifvqcq0","pricing_plan_id":"cebpf4jnsgd1na2vs0mg"},{"bike_id":"6df8a519-a704-46e9-b3eb-42b1fb917e85","system_id":"levelo_inurba_marseille","lat":43.31764,"lon":5.37766,"is_reserved":false,"is_disabled":false,"rental_uris":{"android":"levelo://app?vid=6df8a519-a704-46e9-b3eb-42b1fb917e85","ios":"levelo://app?vid=6df8a519-a704-46e9-b3eb-42b1fb917e85"},"vehicle_type_id":"4","last_reported":1710450420,"current_range_meters":18000,"station_id":"","pricing_plan_id":"cebpf4jnsgd1na2vs0mg"},{"bike_id":"49b7820b-c2f0-46b8-8be4-213157e1c32a","system_id":"levelo_inurba_marseille","lat":43.30312,"lon":5.36897,"is_reserved":false,"is_disabled":false,"rental_uris":{"android":"levelo://app?vid=49b7820b-c2f0-46b8-8be4-213157e1c32a","ios":"levelo://app?vid=49b7820b-c2f0-46b8-8be4-213157e1c32a"},"vehicle_type_id":"4","last_reported":1710450420,"current_range_meters":0,"station_id":"ce4bgqh2rcd13ifvqc5g","pricing_plan_id":"cebpf4jnsgd1na2vs0mg"},{"bike_id":"2df42621-a809-49cb-a0ce-7925215b85c4","system_id":"levelo_inurba_marseille","lat":43.30312,"lon":5.36898,"is_reserved":false,"is_disabled":false,"rental_uris":{"android":"levelo://app?vid=2df42621-a809-49cb-a0ce-7925215b85c4","ios":"levelo://app?vid=2df42621-a809-49cb-a0ce-7925215b85c4"},"vehicle_type_id":"4","last_reported":1710450420,"current_range_meters":0,"station_id":"ce4bgqh2rcd13ifvqc5g","pricing_plan_id":"cebpf4jnsgd1na2vs0mg"},{"bike_id":"3e4e0393-4f2a-4733-92e1-eb780ce9f127","system_id":"levelo_inurba_marseille","lat":43.315289,"lon":5.380349,"is_reserved":false,"is_disabled":false,"rental_uris":{"android":"levelo://app?vid=3e4e0393-4f2a-4733-92e1-eb780ce9f127","ios":"levelo://app?vid=3e4e0393-4f2a-4733-92e1-eb780ce9f127"},"vehicle_type_id":"4","last_reported":1710450420,"current_range_meters":15600,"station_id":"ce4bhsp2rcd13ifvqi50","pricing_plan_id":"cebpf4jnsgd1na2vs0mg"},{"bike_id":"e90c7245-3185-452e-be4c-02a2a33ef46d","system_id":"levelo_inurba_marseille","lat":43.31522,"lon":5.38038,"is_reserved":false,"is_disabled":false,"rental_uris":{"android":"levelo://app?vid=e90c7245-3185-452e-be4c-02a2a33ef46d","ios":"levelo://app?vid=e90c7245-3185-452e-be4c-02a2a33ef46d"},"vehicle_type_id":"4","last_reported":1710450420,"current_range_meters":18800,"station_id":"","pricing_plan_id":"cebpf4jnsgd1na2vs0mg"},{"bike_id":"99b242b7-c036-40ca-92be-ddb6409e0cdf","system_id":"levelo_inurba_marseille","lat":43.301939,"lon":5.366286,"is_reserved":false,"is_disabled":false,"rental_uris":{"android":"levelo://app?vid=99b242b7-c036-40ca-92be-ddb6409e0cdf","ios":"levelo://app?vid=99b242b7-c036-40ca-92be-ddb6409e0cdf"},"vehicle_type_id":"4","last_reported":1710450420,"current_range_meters":0,"station_id":"ce4bgrh2rcd13ifvqc8g","pricing_plan_id":"cebpf4jnsgd1na2vs0mg"},{"bike_id":"9b4c8268-3eb5-4a01-bb75-be5f5bedd75e","system_id":"levelo_inurba_marseille","lat":43.301939,"lon":5.366286,"is_reserved":false,"is_disabled":false,"rental_uris":{"android":"levelo://app?vid=9b4c8268-3eb5-4a01-bb75-be5f5bedd75e","ios":"levelo://app?vid=9b4c8268-3eb5-4a01-bb75-be5f5bedd75e"},"vehicle_type_id":"4","last_reported":1710450420,"current_range_meters":0,"station_id":"ce4bgrh2rcd13ifvqc8g","pricing_plan_id":"cebpf4jnsgd1na2vs0mg"},{"bike_id":"d4838ae0-0efc-45d8-9778-094197c6335c","system_id":"levelo_inurba_marseille","lat":43.30188,"lon":5.36615,"is_reserved":false,"is_disabled":false,"rental_uris":{"android":"levelo://app?vid=d4838ae0-0efc-45d8-9778-094197c6335c","ios":"levelo://app?vid=d4838ae0-0efc-45d8-9778-094197c6335c"},"vehicle_type_id":"4","last_reported":1710450420,"current_range_meters":16000,"station_id":"ce4bgrh2rcd13ifvqc8g","pricing_plan_id":"cebpf4jnsgd1na2vs0mg"},{"bike_id":"203b9a4a-7302-407b-b926-286f654a5629","system_id":"levelo_inurba_marseille","lat":43.301939,"lon":5.366286,"is_reserved":false,"is_disabled":false,"rental_uris":{"android":"levelo://app?vid=203b9a4a-7302-407b-b926-286f654a5629","ios":"levelo://app?vid=203b9a4a-7302-407b-b926-286f654a5629"},"vehicle_type_id":"4","last_reported":1710450420,"current_range_meters":0,"station_id":"ce4bgrh2rcd13ifvqc8g","pricing_plan_id":"cebpf4jnsgd1na2vs0mg"},{"bike_id":"a9daa0ad-5992-45f9-8e35-e5ebb00fa35b","system_id":"levelo_inurba_marseille","lat":43.301939,"lon":5.366286,"is_reserved":false,"is_disabled":false,"rental_uris":{"android":"levelo://app?vid=a9daa0ad-5992-45f9-8e35-e5ebb00fa35b","ios":"levelo://app?vid=a9daa0ad-5992-45f9-8e35-e5ebb00fa35b"},"vehicle_type_id":"4","last_reported":1710450420,"current_range_meters":1600,"station_id":"ce4bgrh2rcd13ifvqc8g","pricing_plan_id":"cebpf4jnsgd1na2vs0mg"},{"bike_id":"dfab763d-6f69-4476-8129-ec6604fe7822","system_id":"levelo_inurba_marseille","lat":43.30181,"lon":5.36614,"is_reserved":false,"is_disabled":false,"rental_uris":{"android":"levelo://app?vid=dfab763d-6f69-4476-8129-ec6604fe7822","ios":"levelo://app?vid=dfab763d-6f69-4476-8129-ec6604fe7822"},"vehicle_type_id":"4","last_reported":1710450420,"current_range_meters":12400,"station_id":"ce4bgrh2rcd13ifvqc8g","pricing_plan_id":"cebpf4jnsgd1na2vs0mg"},{"bike_id":"a5dca5e6-7221-4345-a947-52dc11eee6f0","system_id":"levelo_inurba_marseille","lat":43.301298,"lon":5.367438,"is_reserved":false,"is_disabled":false,"rental_uris":{"android":"levelo://app?vid=a5dca5e6-7221-4345-a947-52dc11eee6f0","ios":"levelo://app?vid=a5dca5e6-7221-4345-a947-52dc11eee6f0"},"vehicle_type_id":"4","last_reported":1710450420,"current_range_meters":24000,"station_id":"","pricing_plan_id":"cebpf4jnsgd1na2vs0mg"},{"bike_id":"26f731a5-75e0-4f39-9b9f-ba1d81a0017b","system_id":"levelo_inurba_marseille","lat":43.308012,"lon":5.381511,"is_reserved":false,"is_disabled":false,"rental_uris":{"android":"levelo://app?vid=26f731a5-75e0-4f39-9b9f-ba1d81a0017b","ios":"levelo://app?vid=26f731a5-75e0-4f39-9b9f-ba1d81a0017b"},"vehicle_type_id":"4","last_reported":1710450420,"current_range_meters":8000,"station_id":"ce4bgt12rcd13ifvqce0","pricing_plan_id":"cebpf4jnsgd1na2vs0mg"},{"bike_id":"74f3af47-f238-4c4e-b01c-20b964017f26","system_id":"levelo_inurba_marseille","lat":43.308012,"lon":5.381511,"is_reserved":false,"is_disabled":false,"rental_uris":{"android":"levelo://app?vid=74f3af47-f238-4c4e-b01c-20b964017f26","ios":"levelo://app?vid=74f3af47-f238-4c4e-b01c-20b964017f26"},"vehicle_type_id":"4","last_reported":1710450420,"current_range_meters":24400,"station_id":"ce4bgt12rcd13ifvqce0","pricing_plan_id":"cebpf4jnsgd1na2vs0mg"},{"bike_id":"0099837f-9730-4d33-a566-cf105057c927","system_id":"levelo_inurba_marseille","lat":43.308012,"lon":5.381511,"is_reserved":false,"is_disabled":false,"rental_uris":{"android":"levelo://app?vid=0099837f-9730-4d33-a566-cf105057c927","ios":"levelo://app?vid=0099837f-9730-4d33-a566-cf105057c927"},"vehicle_type_id":"4","last_reported":1710450420,"current_range_meters":17200,"station_id":"ce4bgt12rcd13ifvqce0","pricing_plan_id":"cebpf4jnsgd1na2vs0mg"},{"bike_id":"67cc17dd-fb5a-450f-a88c-4baa2a15c2ba","system_id":"levelo_inurba_marseille","lat":43.304606,"lon":5.379026,"is_reserved":false,"is_disabled":false,"rental_uris":{"android":"levelo://app?vid=67cc17dd-fb5a-450f-a88c-4baa2a15c2ba","ios":"levelo://app?vid=67cc17dd-fb5a-450f-a88c-4baa2a15c2ba"},"vehicle_type_id":"4","last_reported":1710450420,"current_range_meters":23600,"station_id":"ce4bgup2rcd13ifvqcn0","pricing_plan_id":"cebpf4jnsgd1na2vs0mg"},{"bike_id":"4cfd2817-b142-4b51-adef-ceb875c5ce27","system_id":"levelo_inurba_marseille","lat":43.304606,"lon":5.379026,"is_reserved":false,"is_disabled":false,"rental_uris":{"android":"levelo://app?vid=4cfd2817-b142-4b51-adef-ceb875c5ce27","ios":"levelo://app?vid=4cfd2817-b142-4b51-adef-ceb875c5ce27"},"vehicle_type_id":"4","last_reported":1710450420,"current_range_meters":29200,"station_id":"ce4bgup2rcd13ifvqcn0","pricing_plan_id":"cebpf4jnsgd1na2vs0mg"},{"bike_id":"54e1c42a-24f1-41df-b5d6-3262074a6c30","system_id":"levelo_inurba_marseille","lat":43.304606,"lon":5.379026,"is_reserved":false,"is_disabled":false,"rental_uris":{"android":"levelo://app?vid=54e1c42a-24f1-41df-b5d6-3262074a6c30","ios":"levelo://app?vid=54e1c42a-24f1-41df-b5d6-3262074a6c30"},"vehicle_type_id":"4","last_reported":1710450420,"current_range_meters":12400,"station_id":"ce4bgup2rcd13ifvqcn0","pricing_plan_id":"cebpf4jnsgd1na2vs0mg"},{"bike_id":"b81856d3-c322-4417-af3f-5f8e7adc93b2","system_id":"levelo_inurba_marseille","lat":43.304606,"lon":5.379026,"is_reserved":false,"is_disabled":false,"rental_uris":{"android":"levelo://app?vid=b81856d3-c322-4417-af3f-5f8e7adc93b2","ios":"levelo://app?vid=b81856d3-c322-4417-af3f-5f8e7adc93b2"},"vehicle_type_id":"4","last_reported":1710450420,"current_range_meters":11600,"station_id":"ce4bgup2rcd13ifvqcn0","pricing_plan_id":"cebpf4jnsgd1na2vs0mg"},{"bike_id":"8cb4b7d8-6cda-4ab6-8fb6-ab30f7899ff2","system_id":"levelo_inurba_marseille","lat":43.324771,"lon":5.36557,"is_reserved":false,"is_disabled":false,"rental_uris":{"android":"levelo://app?vid=8cb4b7d8-6cda-4ab6-8fb6-ab30f7899ff2","ios":"levelo://app?vid=8cb4b7d8-6cda-4ab6-8fb6-ab30f7899ff2"},"vehicle_type_id":"4","last_reported":1710450420,"current_range_meters":9600,"station_id":"ce4bhs12rcd13ifvqhvg","pricing_plan_id":"cebpf4jnsgd1na2vs0mg"},{"bike_id":"8c63214a-07d2-4301-a0f3-855730268f60","system_id":"levelo_inurba_marseille","lat":43.324771,"lon":5.36557,"is_reserved":false,"is_disabled":false,"rental_uris":{"android":"levelo://app?vid=8c63214a-07d2-4301-a0f3-855730268f60","ios":"levelo://app?vid=8c63214a-07d2-4301-a0f3-855730268f60"},"vehicle_type_id":"4","last_reported":1710450420,"current_range_meters":25600,"station_id":"ce4bhs12rcd13ifvqhvg","pricing_plan_id":"cebpf4jnsgd1na2vs0mg"},{"bike_id":"80f2f25f-8c15-455e-a36d-0c4748f88b32","system_id":"levelo_inurba_marseille","lat":43.324771,"lon":5.36557,"is_reserved":false,"is_disabled":false,"rental_uris":{"android":"levelo://app?vid=80f2f25f-8c15-455e-a36d-0c4748f88b32","ios":"levelo://app?vid=80f2f25f-8c15-455e-a36d-0c4748f88b32"},"vehicle_type_id":"4","last_reported":1710450420,"current_range_meters":24000,"station_id":"ce4bhs12rcd13ifvqhvg","pricing_plan_id":"cebpf4jnsgd1na2vs0mg"},{"bike_id":"af0a83ad-4db4-465e-a460-b561e0502353","system_id":"levelo_inurba_marseille","lat":43.324771,"lon":5.36557,"is_reserved":false,"is_disabled":false,"rental_uris":{"android":"levelo://app?vid=af0a83ad-4db4-465e-a460-b561e0502353","ios":"levelo://app?vid=af0a83ad-4db4-465e-a460-b561e0502353"},"vehicle_type_id":"4","last_reported":1710450420,"current_range_meters":3600,"station_id":"ce4bhs12rcd13ifvqhvg","pricing_plan_id":"cebpf4jnsgd1na2vs0mg"},{"bike_id":"f66e7b84-3042-4c80-9dc4-73fa652870c1","system_id":"levelo_inurba_marseille","lat":43.324797,"lon":5.3656,"is_reserved":false,"is_disabled":false,"rental_uris":{"android":"levelo://app?vid=f66e7b84-3042-4c80-9dc4-73fa652870c1","ios":"levelo://app?vid=f66e7b84-3042-4c80-9dc4-73fa652870c1"},"vehicle_type_id":"4","last_reported":1710450420,"current_range_meters":24800,"station_id":"ce4bhs12rcd13ifvqhvg","pricing_plan_id":"cebpf4jnsgd1na2vs0mg"},{"bike_id":"64568b75-f031-43c1-b864-d2ad6638bde4","system_id":"levelo_inurba_marseille","lat":43.324771,"lon":5.36557,"is_reserved":false,"is_disabled":false,"rental_uris":{"android":"levelo://app?vid=64568b75-f031-43c1-b864-d2ad6638bde4","ios":"levelo://app?vid=64568b75-f031-43c1-b864-d2ad6638bde4"},"vehicle_type_id":"4","last_reported":1710450420,"current_range_meters":28800,"station_id":"ce4bhs12rcd13ifvqhvg","pricing_plan_id":"cebpf4jnsgd1na2vs0mg"},{"bike_id":"12c419ff-5d5f-445b-9471-a4225b24c594","system_id":"levelo_inurba_marseille","lat":43.324771,"lon":5.36557,"is_reserved":false,"is_disabled":false,"rental_uris":{"android":"levelo://app?vid=12c419ff-5d5f-445b-9471-a4225b24c594","ios":"levelo://app?vid=12c419ff-5d5f-445b-9471-a4225b24c594"},"vehicle_type_id":"4","last_reported":1710450420,"current_range_meters":10800,"station_id":"ce4bhs12rcd13ifvqhvg","pricing_plan_id":"cebpf4jnsgd1na2vs0mg"},{"bike_id":"1368adf3-c19c-468e-8ad7-e34b11612c9a","system_id":"levelo_inurba_marseille","lat":43.324771,"lon":5.36557,"is_reserved":false,"is_disabled":false,"rental_uris":{"android":"levelo://app?vid=1368adf3-c19c-468e-8ad7-e34b11612c9a","ios":"levelo://app?vid=1368adf3-c19c-468e-8ad7-e34b11612c9a"},"vehicle_type_id":"4","last_reported":1710450420,"current_range_meters":6400,"station_id":"ce4bhs12rcd13ifvqhvg","pricing_plan_id":"cebpf4jnsgd1na2vs0mg"},{"bike_id":"5a88cac3-b216-42e6-93cf-342300695412","system_id":"levelo_inurba_marseille","lat":43.324771,"lon":5.36557,"is_reserved":false,"is_disabled":false,"rental_uris":{"android":"levelo://app?vid=5a88cac3-b216-42e6-93cf-342300695412","ios":"levelo://app?vid=5a88cac3-b216-42e6-93cf-342300695412"},"vehicle_type_id":"4","last_reported":1710450420,"current_range_meters":14000,"station_id":"ce4bhs12rcd13ifvqhvg","pricing_plan_id":"cebpf4jnsgd1na2vs0mg"},{"bike_id":"0d1ebee0-00d1-4e6d-bc38-c309f57812af","system_id":"levelo_inurba_marseille","lat":43.324771,"lon":5.36557,"is_reserved":false,"is_disabled":false,"rental_uris":{"android":"levelo://app?vid=0d1ebee0-00d1-4e6d-bc38-c309f57812af","ios":"levelo://app?vid=0d1ebee0-00d1-4e6d-bc38-c309f57812af"},"vehicle_type_id":"4","last_reported":1710450420,"current_range_meters":4800,"station_id":"ce4bhs12rcd13ifvqhvg","pricing_plan_id":"cebpf4jnsgd1na2vs0mg"},{"bike_id":"eebc860d-ae33-456c-9765-1f4820950750","system_id":"levelo_inurba_marseille","lat":43.324771,"lon":5.36557,"is_reserved":false,"is_disabled":false,"rental_uris":{"android":"levelo://app?vid=eebc860d-ae33-456c-9765-1f4820950750","ios":"levelo://app?vid=eebc860d-ae33-456c-9765-1f4820950750"},"vehicle_type_id":"4","last_reported":1710450420,"current_range_meters":15200,"station_id":"ce4bhs12rcd13ifvqhvg","pricing_plan_id":"cebpf4jnsgd1na2vs0mg"},{"bike_id":"fedf4166-a404-4a8a-98ea-3298a66ed1e3","system_id":"levelo_inurba_marseille","lat":43.324771,"lon":5.36557,"is_reserved":false,"is_disabled":false,"rental_uris":{"android":"levelo://app?vid=fedf4166-a404-4a8a-98ea-3298a66ed1e3","ios":"levelo://app?vid=fedf4166-a404-4a8a-98ea-3298a66ed1e3"},"vehicle_type_id":"4","last_reported":1710450420,"current_range_meters":4000,"station_id":"ce4bhs12rcd13ifvqhvg","pricing_plan_id":"cebpf4jnsgd1na2vs0mg"},{"bike_id":"80255042-3cd6-44ff-81e6-d5e19ea5948a","system_id":"levelo_inurba_marseille","lat":43.324771,"lon":5.36557,"is_reserved":false,"is_disabled":false,"rental_uris":{"android":"levelo://app?vid=80255042-3cd6-44ff-81e6-d5e19ea5948a","ios":"levelo://app?vid=80255042-3cd6-44ff-81e6-d5e19ea5948a"},"vehicle_type_id":"4","last_reported":1710450420,"current_range_meters":1200,"station_id":"ce4bhs12rcd13ifvqhvg","pricing_plan_id":"cebpf4jnsgd1na2vs0mg"},{"bike_id":"49f2117d-bbb1-42e5-80a2-7a881aecf261","system_id":"levelo_inurba_marseille","lat":43.324771,"lon":5.36557,"is_reserved":false,"is_disabled":false,"rental_uris":{"android":"levelo://app?vid=49f2117d-bbb1-42e5-80a2-7a881aecf261","ios":"levelo://app?vid=49f2117d-bbb1-42e5-80a2-7a881aecf261"},"vehicle_type_id":"4","last_reported":1710450420,"current_range_meters":5600,"station_id":"ce4bhs12rcd13ifvqhvg","pricing_plan_id":"cebpf4jnsgd1na2vs0mg"},{"bike_id":"c8ed2fca-7f91-4fdf-b277-1b2c0a9261ee","system_id":"levelo_inurba_marseille","lat":43.324771,"lon":5.36557,"is_reserved":false,"is_disabled":false,"rental_uris":{"android":"levelo://app?vid=c8ed2fca-7f91-4fdf-b277-1b2c0a9261ee","ios":"levelo://app?vid=c8ed2fca-7f91-4fdf-b277-1b2c0a9261ee"},"vehicle_type_id":"4","last_reported":1710450420,"current_range_meters":12800,"station_id":"ce4bhs12rcd13ifvqhvg","pricing_plan_id":"cebpf4jnsgd1na2vs0mg"},{"bike_id":"f74e243e-8ac7-4a19-8fcf-03bb35f7ef5b","system_id":"levelo_inurba_marseille","lat":43.304606,"lon":5.379026,"is_reserved":false,"is_disabled":false,"rental_uris":{"android":"levelo://app?vid=f74e243e-8ac7-4a19-8fcf-03bb35f7ef5b","ios":"levelo://app?vid=f74e243e-8ac7-4a19-8fcf-03bb35f7ef5b"},"vehicle_type_id":"4","last_reported":1710450420,"current_range_meters":24400,"station_id":"ce4bgup2rcd13ifvqcn0","pricing_plan_id":"cebpf4jnsgd1na2vs0mg"},{"bike_id":"40daf57d-7265-4d0c-95f9-2f69bc3b1e84","system_id":"levelo_inurba_marseille","lat":43.32484,"lon":5.36561,"is_reserved":false,"is_disabled":false,"rental_uris":{"android":"levelo://app?vid=40daf57d-7265-4d0c-95f9-2f69bc3b1e84","ios":"levelo://app?vid=40daf57d-7265-4d0c-95f9-2f69bc3b1e84"},"vehicle_type_id":"4","last_reported":1710450420,"current_range_meters":24000,"station_id":"ce4bhs12rcd13ifvqhvg","pricing_plan_id":"cebpf4jnsgd1na2vs0mg"},{"bike_id":"18fc47d4-f43a-4eed-abb4-9d13f9e04f59","system_id":"levelo_inurba_marseille","lat":43.324771,"lon":5.36557,"is_reserved":false,"is_disabled":false,"rental_uris":{"android":"levelo://app?vid=18fc47d4-f43a-4eed-abb4-9d13f9e04f59","ios":"levelo://app?vid=18fc47d4-f43a-4eed-abb4-9d13f9e04f59"},"vehicle_type_id":"4","last_reported":1710450420,"current_range_meters":24800,"station_id":"ce4bhs12rcd13ifvqhvg","pricing_plan_id":"cebpf4jnsgd1na2vs0mg"},{"bike_id":"c9856f53-e27e-45e4-b321-fb02db77bd69","system_id":"levelo_inurba_marseille","lat":43.324771,"lon":5.36557,"is_reserved":false,"is_disabled":false,"rental_uris":{"android":"levelo://app?vid=c9856f53-e27e-45e4-b321-fb02db77bd69","ios":"levelo://app?vid=c9856f53-e27e-45e4-b321-fb02db77bd69"},"vehicle_type_id":"4","last_reported":1710450420,"current_range_meters":17200,"station_id":"ce4bhs12rcd13ifvqhvg","pricing_plan_id":"cebpf4jnsgd1na2vs0mg"},{"bike_id":"8007df2e-b2f0-4748-a17b-5693c4038c4a","system_id":"levelo_inurba_marseille","lat":43.324771,"lon":5.36557,"is_reserved":false,"is_disabled":false,"rental_uris":{"android":"levelo://app?vid=8007df2e-b2f0-4748-a17b-5693c4038c4a","ios":"levelo://app?vid=8007df2e-b2f0-4748-a17b-5693c4038c4a"},"vehicle_type_id":"4","last_reported":1710450420,"current_range_meters":16400,"station_id":"ce4bhs12rcd13ifvqhvg","pricing_plan_id":"cebpf4jnsgd1na2vs0mg"},{"bike_id":"340f9e61-1afc-4e79-b76d-c81945c1e853","system_id":"levelo_inurba_marseille","lat":43.324771,"lon":5.36557,"is_reserved":false,"is_disabled":false,"rental_uris":{"android":"levelo://app?vid=340f9e61-1afc-4e79-b76d-c81945c1e853","ios":"levelo://app?vid=340f9e61-1afc-4e79-b76d-c81945c1e853"},"vehicle_type_id":"4","last_reported":1710450420,"current_range_meters":13200,"station_id":"ce4bhs12rcd13ifvqhvg","pricing_plan_id":"cebpf4jnsgd1na2vs0mg"},{"bike_id":"69f16bc0-91b1-4cad-91b5-51ae8c8ba203","system_id":"levelo_inurba_marseille","lat":43.324771,"lon":5.36557,"is_reserved":false,"is_disabled":false,"rental_uris":{"android":"levelo://app?vid=69f16bc0-91b1-4cad-91b5-51ae8c8ba203","ios":"levelo://app?vid=69f16bc0-91b1-4cad-91b5-51ae8c8ba203"},"vehicle_type_id":"4","last_reported":1710450420,"current_range_meters":24000,"station_id":"ce4bhs12rcd13ifvqhvg","pricing_plan_id":"cebpf4jnsgd1na2vs0mg"},{"bike_id":"fd997087-1448-4e6f-83ec-c58fcecc8aa5","system_id":"levelo_inurba_marseille","lat":43.310804,"lon":5.383452,"is_reserved":false,"is_disabled":false,"rental_uris":{"android":"levelo://app?vid=fd997087-1448-4e6f-83ec-c58fcecc8aa5","ios":"levelo://app?vid=fd997087-1448-4e6f-83ec-c58fcecc8aa5"},"vehicle_type_id":"4","last_reported":1710450420,"current_range_meters":0,"station_id":"ce4bgv92rcd13ifvqcr0","pricing_plan_id":"cebpf4jnsgd1na2vs0mg"},{"bike_id":"ccba654e-a19e-47a4-8a45-c9741be77ea8","system_id":"levelo_inurba_marseille","lat":43.310769,"lon":5.383451,"is_reserved":false,"is_disabled":false,"rental_uris":{"android":"levelo://app?vid=ccba654e-a19e-47a4-8a45-c9741be77ea8","ios":"levelo://app?vid=ccba654e-a19e-47a4-8a45-c9741be77ea8"},"vehicle_type_id":"4","last_reported":1710450420,"current_range_meters":19600,"station_id":"ce4bgv92rcd13ifvqcr0","pricing_plan_id":"cebpf4jnsgd1na2vs0mg"},{"bike_id":"e80b47cc-26d3-4e12-9ed2-299e55492933","system_id":"levelo_inurba_marseille","lat":43.304278,"lon":5.388868,"is_reserved":false,"is_disabled":false,"rental_uris":{"android":"levelo://app?vid=e80b47cc-26d3-4e12-9ed2-299e55492933","ios":"levelo://app?vid=e80b47cc-26d3-4e12-9ed2-299e55492933"},"vehicle_type_id":"4","last_reported":1710450420,"current_range_meters":1200,"station_id":"ce4bgk12rcd13ifvqbi0","pricing_plan_id":"cebpf4jnsgd1na2vs0mg"},{"bike_id":"be8ebe27-c6b0-40d8-bc2f-80aadcda22f3","system_id":"levelo_inurba_marseille","lat":43.310804,"lon":5.38359,"is_reserved":false,"is_disabled":false,"rental_uris":{"android":"levelo://app?vid=be8ebe27-c6b0-40d8-bc2f-80aadcda22f3","ios":"levelo://app?vid=be8ebe27-c6b0-40d8-bc2f-80aadcda22f3"},"vehicle_type_id":"4","last_reported":1710450420,"current_range_meters":16800,"station_id":"ce4bgv92rcd13ifvqcr0","pricing_plan_id":"cebpf4jnsgd1na2vs0mg"},{"bike_id":"d2104089-27e4-4aab-8713-2d11215cdc2a","system_id":"levelo_inurba_marseille","lat":43.3014,"lon":5.37424,"is_reserved":false,"is_disabled":false,"rental_uris":{"android":"levelo://app?vid=d2104089-27e4-4aab-8713-2d11215cdc2a","ios":"levelo://app?vid=d2104089-27e4-4aab-8713-2d11215cdc2a"},"vehicle_type_id":"4","last_reported":1710450420,"current_range_meters":0,"station_id":"ce4bgs92rcd13ifvqcc0","pricing_plan_id":"cebpf4jnsgd1na2vs0mg"},{"bike_id":"9c3bf532-c609-45de-b1e1-a84759495060","system_id":"levelo_inurba_marseille","lat":43.30134,"lon":5.37417,"is_reserved":false,"is_disabled":false,"rental_uris":{"android":"levelo://app?vid=9c3bf532-c609-45de-b1e1-a84759495060","ios":"levelo://app?vid=9c3bf532-c609-45de-b1e1-a84759495060"},"vehicle_type_id":"4","last_reported":1710450420,"current_range_meters":0,"station_id":"ce4bgs92rcd13ifvqcc0","pricing_plan_id":"cebpf4jnsgd1na2vs0mg"},{"bike_id":"b7113a9e-66e0-4213-87c1-f39881728924","system_id":"levelo_inurba_marseille","lat":43.319935,"lon":5.381699,"is_reserved":false,"is_disabled":false,"rental_uris":{"android":"levelo://app?vid=b7113a9e-66e0-4213-87c1-f39881728924","ios":"levelo://app?vid=b7113a9e-66e0-4213-87c1-f39881728924"},"vehicle_type_id":"4","last_reported":1710450420,"current_range_meters":16000,"station_id":"ce4bhr12rcd13ifvqhpg","pricing_plan_id":"cebpf4jnsgd1na2vs0mg"},{"bike_id":"91f90934-23c0-41e8-8fc8-6fe74da08515","system_id":"levelo_inurba_marseille","lat":43.319935,"lon":5.381699,"is_reserved":false,"is_disabled":false,"rental_uris":{"android":"levelo://app?vid=91f90934-23c0-41e8-8fc8-6fe74da08515","ios":"levelo://app?vid=91f90934-23c0-41e8-8fc8-6fe74da08515"},"vehicle_type_id":"4","last_reported":1710450420,"current_range_meters":1600,"station_id":"ce4bhr12rcd13ifvqhpg","pricing_plan_id":"cebpf4jnsgd1na2vs0mg"},{"bike_id":"da43fb23-f1fb-486a-8b6a-ecd17980a6d6","system_id":"levelo_inurba_marseille","lat":43.319935,"lon":5.381699,"is_reserved":false,"is_disabled":false,"rental_uris":{"android":"levelo://app?vid=da43fb23-f1fb-486a-8b6a-ecd17980a6d6","ios":"levelo://app?vid=da43fb23-f1fb-486a-8b6a-ecd17980a6d6"},"vehicle_type_id":"4","last_reported":1710450420,"current_range_meters":2400,"station_id":"ce4bhr12rcd13ifvqhpg","pricing_plan_id":"cebpf4jnsgd1na2vs0mg"},{"bike_id":"ad65bace-3943-4878-a7d0-93b58be89d30","system_id":"levelo_inurba_marseille","lat":43.319935,"lon":5.381699,"is_reserved":false,"is_disabled":false,"rental_uris":{"android":"levelo://app?vid=ad65bace-3943-4878-a7d0-93b58be89d30","ios":"levelo://app?vid=ad65bace-3943-4878-a7d0-93b58be89d30"},"vehicle_type_id":"4","last_reported":1710450420,"current_range_meters":27200,"station_id":"ce4bhr12rcd13ifvqhpg","pricing_plan_id":"cebpf4jnsgd1na2vs0mg"},{"bike_id":"f397c5aa-0f2e-4701-a299-085ce43d030c","system_id":"levelo_inurba_marseille","lat":43.319935,"lon":5.381699,"is_reserved":false,"is_disabled":false,"rental_uris":{"android":"levelo://app?vid=f397c5aa-0f2e-4701-a299-085ce43d030c","ios":"levelo://app?vid=f397c5aa-0f2e-4701-a299-085ce43d030c"},"vehicle_type_id":"4","last_reported":1710450420,"current_range_meters":800,"station_id":"ce4bhr12rcd13ifvqhpg","pricing_plan_id":"cebpf4jnsgd1na2vs0mg"},{"bike_id":"7b512650-654c-42dd-bfd0-3e85dbf23c43","system_id":"levelo_inurba_marseille","lat":43.319935,"lon":5.381699,"is_reserved":false,"is_disabled":false,"rental_uris":{"android":"levelo://app?vid=7b512650-654c-42dd-bfd0-3e85dbf23c43","ios":"levelo://app?vid=7b512650-654c-42dd-bfd0-3e85dbf23c43"},"vehicle_type_id":"4","last_reported":1710450420,"current_range_meters":8400,"station_id":"ce4bhr12rcd13ifvqhpg","pricing_plan_id":"cebpf4jnsgd1na2vs0mg"},{"bike_id":"10920d1f-ed27-4c6e-8e73-d40eeae4c535","system_id":"levelo_inurba_marseille","lat":43.319935,"lon":5.381699,"is_reserved":false,"is_disabled":false,"rental_uris":{"android":"levelo://app?vid=10920d1f-ed27-4c6e-8e73-d40eeae4c535","ios":"levelo://app?vid=10920d1f-ed27-4c6e-8e73-d40eeae4c535"},"vehicle_type_id":"4","last_reported":1710450420,"current_range_meters":14000,"station_id":"ce4bhr12rcd13ifvqhpg","pricing_plan_id":"cebpf4jnsgd1na2vs0mg"},{"bike_id":"d255a31e-958b-4231-8c7f-6ea4d236b884","system_id":"levelo_inurba_marseille","lat":43.313571,"lon":5.384829,"is_reserved":false,"is_disabled":false,"rental_uris":{"android":"levelo://app?vid=d255a31e-958b-4231-8c7f-6ea4d236b884","ios":"levelo://app?vid=d255a31e-958b-4231-8c7f-6ea4d236b884"},"vehicle_type_id":"4","last_reported":1710450420,"current_range_meters":0,"station_id":"ce4bgt92rcd13ifvqcf0","pricing_plan_id":"cebpf4jnsgd1na2vs0mg"},{"bike_id":"e9f255e3-c392-41c5-ad29-d2fefa8b4b10","system_id":"levelo_inurba_marseille","lat":43.31354,"lon":5.38488,"is_reserved":false,"is_disabled":false,"rental_uris":{"android":"levelo://app?vid=e9f255e3-c392-41c5-ad29-d2fefa8b4b10","ios":"levelo://app?vid=e9f255e3-c392-41c5-ad29-d2fefa8b4b10"},"vehicle_type_id":"4","last_reported":1710450420,"current_range_meters":1200,"station_id":"ce4bgt92rcd13ifvqcf0","pricing_plan_id":"cebpf4jnsgd1na2vs0mg"},{"bike_id":"11912c49-750a-40c8-8947-e10ba1836d77","system_id":"levelo_inurba_marseille","lat":43.313571,"lon":5.384829,"is_reserved":false,"is_disabled":false,"rental_uris":{"android":"levelo://app?vid=11912c49-750a-40c8-8947-e10ba1836d77","ios":"levelo://app?vid=11912c49-750a-40c8-8947-e10ba1836d77"},"vehicle_type_id":"4","last_reported":1710450420,"current_range_meters":24000,"station_id":"ce4bgt92rcd13ifvqcf0","pricing_plan_id":"cebpf4jnsgd1na2vs0mg"},{"bike_id":"a0258cd1-b021-4de7-9475-d1c453114375","system_id":"levelo_inurba_marseille","lat":43.313633,"lon":5.38501,"is_reserved":false,"is_disabled":false,"rental_uris":{"android":"levelo://app?vid=a0258cd1-b021-4de7-9475-d1c453114375","ios":"levelo://app?vid=a0258cd1-b021-4de7-9475-d1c453114375"},"vehicle_type_id":"4","last_reported":1710450420,"current_range_meters":1200,"station_id":"ce4bgt92rcd13ifvqcf0","pricing_plan_id":"cebpf4jnsgd1na2vs0mg"},{"bike_id":"016e3803-9379-4cf9-9fd9-10a7279420b3","system_id":"levelo_inurba_marseille","lat":43.299724,"lon":5.371829,"is_reserved":false,"is_disabled":false,"rental_uris":{"android":"levelo://app?vid=016e3803-9379-4cf9-9fd9-10a7279420b3","ios":"levelo://app?vid=016e3803-9379-4cf9-9fd9-10a7279420b3"},"vehicle_type_id":"4","last_reported":1710450420,"current_range_meters":19200,"station_id":"ce4bgr92rcd13ifvqc7g","pricing_plan_id":"cebpf4jnsgd1na2vs0mg"},{"bike_id":"a25dfc29-0af2-4049-8391-481fa97bcccc","system_id":"levelo_inurba_marseille","lat":43.299724,"lon":5.371829,"is_reserved":false,"is_disabled":false,"rental_uris":{"android":"levelo://app?vid=a25dfc29-0af2-4049-8391-481fa97bcccc","ios":"levelo://app?vid=a25dfc29-0af2-4049-8391-481fa97bcccc"},"vehicle_type_id":"4","last_reported":1710450420,"current_range_meters":29200,"station_id":"ce4bgr92rcd13ifvqc7g","pricing_plan_id":"cebpf4jnsgd1na2vs0mg"},{"bike_id":"9f79b921-fd96-4e1d-b8f1-b648459166d1","system_id":"levelo_inurba_marseille","lat":43.299724,"lon":5.371829,"is_reserved":false,"is_disabled":false,"rental_uris":{"android":"levelo://app?vid=9f79b921-fd96-4e1d-b8f1-b648459166d1","ios":"levelo://app?vid=9f79b921-fd96-4e1d-b8f1-b648459166d1"},"vehicle_type_id":"4","last_reported":1710450420,"current_range_meters":5600,"station_id":"ce4bgr92rcd13ifvqc7g","pricing_plan_id":"cebpf4jnsgd1na2vs0mg"},{"bike_id":"797a0677-f4fc-4e95-9c76-13e4f3a49a06","system_id":"levelo_inurba_marseille","lat":43.299724,"lon":5.371829,"is_reserved":false,"is_disabled":false,"rental_uris":{"android":"levelo://app?vid=797a0677-f4fc-4e95-9c76-13e4f3a49a06","ios":"levelo://app?vid=797a0677-f4fc-4e95-9c76-13e4f3a49a06"},"vehicle_type_id":"4","last_reported":1710450420,"current_range_meters":16800,"station_id":"ce4bgr92rcd13ifvqc7g","pricing_plan_id":"cebpf4jnsgd1na2vs0mg"},{"bike_id":"25efbff5-8a27-4bc3-a980-c32ae4b1d4fd","system_id":"levelo_inurba_marseille","lat":43.311682,"lon":5.386755,"is_reserved":false,"is_disabled":false,"rental_uris":{"android":"levelo://app?vid=25efbff5-8a27-4bc3-a980-c32ae4b1d4fd","ios":"levelo://app?vid=25efbff5-8a27-4bc3-a980-c32ae4b1d4fd"},"vehicle_type_id":"4","last_reported":1710450420,"current_range_meters":10400,"station_id":"","pricing_plan_id":"cebpf4jnsgd1na2vs0mg"},{"bike_id":"10e1af50-1cdf-4256-80fe-4202c957c1c9","system_id":"levelo_inurba_marseille","lat":43.311548,"lon":5.386762,"is_reserved":false,"is_disabled":false,"rental_uris":{"android":"levelo://app?vid=10e1af50-1cdf-4256-80fe-4202c957c1c9","ios":"levelo://app?vid=10e1af50-1cdf-4256-80fe-4202c957c1c9"},"vehicle_type_id":"4","last_reported":1710450420,"current_range_meters":29600,"station_id":"","pricing_plan_id":"cebpf4jnsgd1na2vs0mg"},{"bike_id":"6129f79d-8cb8-4efb-9f34-246cf36180df","system_id":"levelo_inurba_marseille","lat":43.30518,"lon":5.38415,"is_reserved":false,"is_disabled":false,"rental_uris":{"android":"levelo://app?vid=6129f79d-8cb8-4efb-9f34-246cf36180df","ios":"levelo://app?vid=6129f79d-8cb8-4efb-9f34-246cf36180df"},"vehicle_type_id":"4","last_reported":1710450420,"current_range_meters":0,"station_id":"ce4bgg92rcd13ifvqb30","pricing_plan_id":"cebpf4jnsgd1na2vs0mg"},{"bike_id":"07dd3082-d675-4eed-ba8a-fac9c70daeb2","system_id":"levelo_inurba_marseille","lat":43.305364,"lon":5.384119,"is_reserved":false,"is_disabled":false,"rental_uris":{"android":"levelo://app?vid=07dd3082-d675-4eed-ba8a-fac9c70daeb2","ios":"levelo://app?vid=07dd3082-d675-4eed-ba8a-fac9c70daeb2"},"vehicle_type_id":"4","last_reported":1710450420,"current_range_meters":5600,"station_id":"ce4bgg92rcd13ifvqb30","pricing_plan_id":"cebpf4jnsgd1na2vs0mg"},{"bike_id":"64ab171a-3eb1-4ad5-bfcb-93963a2020ac","system_id":"levelo_inurba_marseille","lat":43.305364,"lon":5.384119,"is_reserved":false,"is_disabled":false,"rental_uris":{"android":"levelo://app?vid=64ab171a-3eb1-4ad5-bfcb-93963a2020ac","ios":"levelo://app?vid=64ab171a-3eb1-4ad5-bfcb-93963a2020ac"},"vehicle_type_id":"4","last_reported":1710450420,"current_range_meters":23600,"station_id":"ce4bgg92rcd13ifvqb30","pricing_plan_id":"cebpf4jnsgd1na2vs0mg"},{"bike_id":"13288046-2e3b-419b-9773-e3b3ba7d462b","system_id":"levelo_inurba_marseille","lat":43.311722,"lon":5.387247,"is_reserved":false,"is_disabled":false,"rental_uris":{"android":"levelo://app?vid=13288046-2e3b-419b-9773-e3b3ba7d462b","ios":"levelo://app?vid=13288046-2e3b-419b-9773-e3b3ba7d462b"},"vehicle_type_id":"4","last_reported":1710450420,"current_range_meters":1200,"station_id":"ce4bgv12rcd13ifvqcp0","pricing_plan_id":"cebpf4jnsgd1na2vs0mg"},{"bike_id":"ca368fbd-b5d3-4319-aa1e-8087e403d44d","system_id":"levelo_inurba_marseille","lat":43.299243,"lon":5.374807,"is_reserved":false,"is_disabled":false,"rental_uris":{"android":"levelo://app?vid=ca368fbd-b5d3-4319-aa1e-8087e403d44d","ios":"levelo://app?vid=ca368fbd-b5d3-4319-aa1e-8087e403d44d"},"vehicle_type_id":"4","last_reported":1710450420,"current_range_meters":8400,"station_id":"ce4bgjh2rcd13ifvqbg0","pricing_plan_id":"cebpf4jnsgd1na2vs0mg"},{"bike_id":"e17f286e-276a-477a-ad66-3e999f055e4c","system_id":"levelo_inurba_marseille","lat":43.32286,"lon":5.38264,"is_reserved":false,"is_disabled":false,"rental_uris":{"android":"levelo://app?vid=e17f286e-276a-477a-ad66-3e999f055e4c","ios":"levelo://app?vid=e17f286e-276a-477a-ad66-3e999f055e4c"},"vehicle_type_id":"4","last_reported":1710450420,"current_range_meters":22400,"station_id":"ce4bhr12rcd13ifvqhqg","pricing_plan_id":"cebpf4jnsgd1na2vs0mg"},{"bike_id":"3ff125a5-dff1-4591-b6cc-449dc2424878","system_id":"levelo_inurba_marseille","lat":43.322872,"lon":5.382756,"is_reserved":false,"is_disabled":false,"rental_uris":{"android":"levelo://app?vid=3ff125a5-dff1-4591-b6cc-449dc2424878","ios":"levelo://app?vid=3ff125a5-dff1-4591-b6cc-449dc2424878"},"vehicle_type_id":"4","last_reported":1710450420,"current_range_meters":20800,"station_id":"ce4bhr12rcd13ifvqhqg","pricing_plan_id":"cebpf4jnsgd1na2vs0mg"},{"bike_id":"190e5233-282c-4384-9bfd-f64966a95e87","system_id":"levelo_inurba_marseille","lat":43.32291,"lon":5.3826,"is_reserved":false,"is_disabled":false,"rental_uris":{"android":"levelo://app?vid=190e5233-282c-4384-9bfd-f64966a95e87","ios":"levelo://app?vid=190e5233-282c-4384-9bfd-f64966a95e87"},"vehicle_type_id":"4","last_reported":1710450420,"current_range_meters":5200,"station_id":"ce4bhr12rcd13ifvqhqg","pricing_plan_id":"cebpf4jnsgd1na2vs0mg"},{"bike_id":"df2d3431-3d8a-424a-8388-0b2264eca2ef","system_id":"levelo_inurba_marseille","lat":43.32291,"lon":5.38263,"is_reserved":false,"is_disabled":false,"rental_uris":{"android":"levelo://app?vid=df2d3431-3d8a-424a-8388-0b2264eca2ef","ios":"levelo://app?vid=df2d3431-3d8a-424a-8388-0b2264eca2ef"},"vehicle_type_id":"4","last_reported":1710450420,"current_range_meters":18800,"station_id":"ce4bhr12rcd13ifvqhqg","pricing_plan_id":"cebpf4jnsgd1na2vs0mg"},{"bike_id":"a1ea46c0-4921-4767-a801-a177044432f3","system_id":"levelo_inurba_marseille","lat":43.322872,"lon":5.382756,"is_reserved":false,"is_disabled":false,"rental_uris":{"android":"levelo://app?vid=a1ea46c0-4921-4767-a801-a177044432f3","ios":"levelo://app?vid=a1ea46c0-4921-4767-a801-a177044432f3"},"vehicle_type_id":"4","last_reported":1710450420,"current_range_meters":30000,"station_id":"ce4bhr12rcd13ifvqhqg","pricing_plan_id":"cebpf4jnsgd1na2vs0mg"},{"bike_id":"eaf5350b-08e3-4231-8a58-3cf3fba26ee0","system_id":"levelo_inurba_marseille","lat":43.322899,"lon":5.382674,"is_reserved":false,"is_disabled":false,"rental_uris":{"android":"levelo://app?vid=eaf5350b-08e3-4231-8a58-3cf3fba26ee0","ios":"levelo://app?vid=eaf5350b-08e3-4231-8a58-3cf3fba26ee0"},"vehicle_type_id":"4","last_reported":1710450420,"current_range_meters":24000,"station_id":"ce4bhr12rcd13ifvqhqg","pricing_plan_id":"cebpf4jnsgd1na2vs0mg"},{"bike_id":"59df4e26-4e7f-4dbe-9da6-0dd0f7ba8c9a","system_id":"levelo_inurba_marseille","lat":43.32288,"lon":5.382709,"is_reserved":false,"is_disabled":false,"rental_uris":{"android":"levelo://app?vid=59df4e26-4e7f-4dbe-9da6-0dd0f7ba8c9a","ios":"levelo://app?vid=59df4e26-4e7f-4dbe-9da6-0dd0f7ba8c9a"},"vehicle_type_id":"4","last_reported":1710450420,"current_range_meters":11600,"station_id":"ce4bhr12rcd13ifvqhqg","pricing_plan_id":"cebpf4jnsgd1na2vs0mg"},{"bike_id":"c939aef6-9eb0-4060-bb9a-dd2f5ded4615","system_id":"levelo_inurba_marseille","lat":43.32291,"lon":5.38268,"is_reserved":false,"is_disabled":false,"rental_uris":{"android":"levelo://app?vid=c939aef6-9eb0-4060-bb9a-dd2f5ded4615","ios":"levelo://app?vid=c939aef6-9eb0-4060-bb9a-dd2f5ded4615"},"vehicle_type_id":"4","last_reported":1710450420,"current_range_meters":19200,"station_id":"ce4bhr12rcd13ifvqhqg","pricing_plan_id":"cebpf4jnsgd1na2vs0mg"},{"bike_id":"b155ce5c-5a8d-41b1-9dac-9aa8b8e12813","system_id":"levelo_inurba_marseille","lat":43.322876,"lon":5.382737,"is_reserved":false,"is_disabled":false,"rental_uris":{"android":"levelo://app?vid=b155ce5c-5a8d-41b1-9dac-9aa8b8e12813","ios":"levelo://app?vid=b155ce5c-5a8d-41b1-9dac-9aa8b8e12813"},"vehicle_type_id":"4","last_reported":1710450420,"current_range_meters":11200,"station_id":"ce4bhr12rcd13ifvqhqg","pricing_plan_id":"cebpf4jnsgd1na2vs0mg"},{"bike_id":"ff441809-ea3a-4e94-bca8-83d1ea7d40a8","system_id":"levelo_inurba_marseille","lat":43.32293,"lon":5.38268,"is_reserved":false,"is_disabled":false,"rental_uris":{"android":"levelo://app?vid=ff441809-ea3a-4e94-bca8-83d1ea7d40a8","ios":"levelo://app?vid=ff441809-ea3a-4e94-bca8-83d1ea7d40a8"},"vehicle_type_id":"4","last_reported":1710450420,"current_range_meters":22000,"station_id":"ce4bhr12rcd13ifvqhqg","pricing_plan_id":"cebpf4jnsgd1na2vs0mg"},{"bike_id":"5ca6e23a-044e-48ae-80b7-0c7576df53f9","system_id":"levelo_inurba_marseille","lat":43.32288,"lon":5.38275,"is_reserved":false,"is_disabled":false,"rental_uris":{"android":"levelo://app?vid=5ca6e23a-044e-48ae-80b7-0c7576df53f9","ios":"levelo://app?vid=5ca6e23a-044e-48ae-80b7-0c7576df53f9"},"vehicle_type_id":"4","last_reported":1710450420,"current_range_meters":10000,"station_id":"ce4bhr12rcd13ifvqhqg","pricing_plan_id":"cebpf4jnsgd1na2vs0mg"},{"bike_id":"36727d06-0af4-4c64-88de-4193d3d2494b","system_id":"levelo_inurba_marseille","lat":43.322872,"lon":5.382756,"is_reserved":false,"is_disabled":false,"rental_uris":{"android":"levelo://app?vid=36727d06-0af4-4c64-88de-4193d3d2494b","ios":"levelo://app?vid=36727d06-0af4-4c64-88de-4193d3d2494b"},"vehicle_type_id":"4","last_reported":1710450420,"current_range_meters":18800,"station_id":"ce4bhr12rcd13ifvqhqg","pricing_plan_id":"cebpf4jnsgd1na2vs0mg"},{"bike_id":"7bec9906-025d-4ca8-ae74-649cd068031f","system_id":"levelo_inurba_marseille","lat":43.32293,"lon":5.382723,"is_reserved":false,"is_disabled":false,"rental_uris":{"android":"levelo://app?vid=7bec9906-025d-4ca8-ae74-649cd068031f","ios":"levelo://app?vid=7bec9906-025d-4ca8-ae74-649cd068031f"},"vehicle_type_id":"4","last_reported":1710450420,"current_range_meters":1200,"station_id":"ce4bhr12rcd13ifvqhqg","pricing_plan_id":"cebpf4jnsgd1na2vs0mg"},{"bike_id":"374f60b0-e0fb-46f3-aad2-45da86b14f79","system_id":"levelo_inurba_marseille","lat":43.322865,"lon":5.382817,"is_reserved":false,"is_disabled":false,"rental_uris":{"android":"levelo://app?vid=374f60b0-e0fb-46f3-aad2-45da86b14f79","ios":"levelo://app?vid=374f60b0-e0fb-46f3-aad2-45da86b14f79"},"vehicle_type_id":"4","last_reported":1710450420,"current_range_meters":0,"station_id":"ce4bhr12rcd13ifvqhqg","pricing_plan_id":"cebpf4jnsgd1na2vs0mg"},{"bike_id":"7d711117-8f24-4ca5-af35-2d207110a750","system_id":"levelo_inurba_marseille","lat":43.322872,"lon":5.382756,"is_reserved":false,"is_disabled":false,"rental_uris":{"android":"levelo://app?vid=7d711117-8f24-4ca5-af35-2d207110a750","ios":"levelo://app?vid=7d711117-8f24-4ca5-af35-2d207110a750"},"vehicle_type_id":"4","last_reported":1710450420,"current_range_meters":31200,"station_id":"ce4bhr12rcd13ifvqhqg","pricing_plan_id":"cebpf4jnsgd1na2vs0mg"},{"bike_id":"c7af7f44-3644-4778-bfe3-680257924400","system_id":"levelo_inurba_marseille","lat":43.322929,"lon":5.382767,"is_reserved":false,"is_disabled":false,"rental_uris":{"android":"levelo://app?vid=c7af7f44-3644-4778-bfe3-680257924400","ios":"levelo://app?vid=c7af7f44-3644-4778-bfe3-680257924400"},"vehicle_type_id":"4","last_reported":1710450420,"current_range_meters":0,"station_id":"ce4bhr12rcd13ifvqhqg","pricing_plan_id":"cebpf4jnsgd1na2vs0mg"},{"bike_id":"619c866d-e826-48eb-8088-b7f6f2d52111","system_id":"levelo_inurba_marseille","lat":43.297163,"lon":5.365866,"is_reserved":false,"is_disabled":false,"rental_uris":{"android":"levelo://app?vid=619c866d-e826-48eb-8088-b7f6f2d52111","ios":"levelo://app?vid=619c866d-e826-48eb-8088-b7f6f2d52111"},"vehicle_type_id":"4","last_reported":1710450420,"current_range_meters":25200,"station_id":"ce4bgn12rcd13ifvqbt0","pricing_plan_id":"cebpf4jnsgd1na2vs0mg"},{"bike_id":"b6ed1d12-49d5-4a42-97e2-80392bea7847","system_id":"levelo_inurba_marseille","lat":43.297163,"lon":5.365866,"is_reserved":false,"is_disabled":false,"rental_uris":{"android":"levelo://app?vid=b6ed1d12-49d5-4a42-97e2-80392bea7847","ios":"levelo://app?vid=b6ed1d12-49d5-4a42-97e2-80392bea7847"},"vehicle_type_id":"4","last_reported":1710450420,"current_range_meters":15200,"station_id":"ce4bgn12rcd13ifvqbt0","pricing_plan_id":"cebpf4jnsgd1na2vs0mg"},{"bike_id":"5aedc392-aa0f-4e8f-bcc8-e7f3fdca07db","system_id":"levelo_inurba_marseille","lat":43.297163,"lon":5.365866,"is_reserved":false,"is_disabled":false,"rental_uris":{"android":"levelo://app?vid=5aedc392-aa0f-4e8f-bcc8-e7f3fdca07db","ios":"levelo://app?vid=5aedc392-aa0f-4e8f-bcc8-e7f3fdca07db"},"vehicle_type_id":"4","last_reported":1710450420,"current_range_meters":8800,"station_id":"ce4bgn12rcd13ifvqbt0","pricing_plan_id":"cebpf4jnsgd1na2vs0mg"},{"bike_id":"5c2bc2e6-6e14-45f4-9073-18b7cf2978fd","system_id":"levelo_inurba_marseille","lat":43.297163,"lon":5.365866,"is_reserved":false,"is_disabled":false,"rental_uris":{"android":"levelo://app?vid=5c2bc2e6-6e14-45f4-9073-18b7cf2978fd","ios":"levelo://app?vid=5c2bc2e6-6e14-45f4-9073-18b7cf2978fd"},"vehicle_type_id":"4","last_reported":1710450420,"current_range_meters":1200,"station_id":"ce4bgn12rcd13ifvqbt0","pricing_plan_id":"cebpf4jnsgd1na2vs0mg"},{"bike_id":"cc652c94-051a-4555-b476-e1ecf1de0c07","system_id":"levelo_inurba_marseille","lat":43.29732,"lon":5.3769,"is_reserved":false,"is_disabled":false,"rental_uris":{"android":"levelo://app?vid=cc652c94-051a-4555-b476-e1ecf1de0c07","ios":"levelo://app?vid=cc652c94-051a-4555-b476-e1ecf1de0c07"},"vehicle_type_id":"4","last_reported":1710450420,"current_range_meters":0,"station_id":"ce4bgkh2rcd13ifvqbl0","pricing_plan_id":"cebpf4jnsgd1na2vs0mg"},{"bike_id":"712c2c43-8fc6-42b0-96fd-c6ef3cb9e90b","system_id":"levelo_inurba_marseille","lat":43.29767,"lon":5.3779,"is_reserved":false,"is_disabled":false,"rental_uris":{"android":"levelo://app?vid=712c2c43-8fc6-42b0-96fd-c6ef3cb9e90b","ios":"levelo://app?vid=712c2c43-8fc6-42b0-96fd-c6ef3cb9e90b"},"vehicle_type_id":"4","last_reported":1710450420,"current_range_meters":17600,"station_id":"","pricing_plan_id":"cebpf4jnsgd1na2vs0mg"},{"bike_id":"0ec9e3f2-2477-4a7d-8f44-dc2750bde260","system_id":"levelo_inurba_marseille","lat":43.299028,"lon":5.381509,"is_reserved":false,"is_disabled":false,"rental_uris":{"android":"levelo://app?vid=0ec9e3f2-2477-4a7d-8f44-dc2750bde260","ios":"levelo://app?vid=0ec9e3f2-2477-4a7d-8f44-dc2750bde260"},"vehicle_type_id":"4","last_reported":1710450420,"current_range_meters":20000,"station_id":"ce4bgj12rcd13ifvqbc0","pricing_plan_id":"cebpf4jnsgd1na2vs0mg"},{"bike_id":"f31f5b5d-5297-446a-a208-b3fdf6c443c2","system_id":"levelo_inurba_marseille","lat":43.299028,"lon":5.381509,"is_reserved":false,"is_disabled":false,"rental_uris":{"android":"levelo://app?vid=f31f5b5d-5297-446a-a208-b3fdf6c443c2","ios":"levelo://app?vid=f31f5b5d-5297-446a-a208-b3fdf6c443c2"},"vehicle_type_id":"4","last_reported":1710450420,"current_range_meters":4000,"station_id":"ce4bgj12rcd13ifvqbc0","pricing_plan_id":"cebpf4jnsgd1na2vs0mg"},{"bike_id":"2fbba487-d623-4a59-bbd8-ec6b1b507d54","system_id":"levelo_inurba_marseille","lat":43.29908,"lon":5.38139,"is_reserved":false,"is_disabled":false,"rental_uris":{"android":"levelo://app?vid=2fbba487-d623-4a59-bbd8-ec6b1b507d54","ios":"levelo://app?vid=2fbba487-d623-4a59-bbd8-ec6b1b507d54"},"vehicle_type_id":"4","last_reported":1710450420,"current_range_meters":0,"station_id":"ce4bgj12rcd13ifvqbc0","pricing_plan_id":"cebpf4jnsgd1na2vs0mg"},{"bike_id":"33047287-ab33-4a10-96a9-e85ef54e1791","system_id":"levelo_inurba_marseille","lat":43.309589,"lon":5.390258,"is_reserved":false,"is_disabled":false,"rental_uris":{"android":"levelo://app?vid=33047287-ab33-4a10-96a9-e85ef54e1791","ios":"levelo://app?vid=33047287-ab33-4a10-96a9-e85ef54e1791"},"vehicle_type_id":"4","last_reported":1710450420,"current_range_meters":0,"station_id":"ce4bgup2rcd13ifvqco0","pricing_plan_id":"cebpf4jnsgd1na2vs0mg"},{"bike_id":"e7635339-4a3c-42a4-a346-f89d0509c084","system_id":"levelo_inurba_marseille","lat":43.317557,"lon":5.390173,"is_reserved":false,"is_disabled":false,"rental_uris":{"android":"levelo://app?vid=e7635339-4a3c-42a4-a346-f89d0509c084","ios":"levelo://app?vid=e7635339-4a3c-42a4-a346-f89d0509c084"},"vehicle_type_id":"4","last_reported":1710450420,"current_range_meters":27200,"station_id":"ce4bhqp2rcd13ifvqhng","pricing_plan_id":"cebpf4jnsgd1na2vs0mg"},{"bike_id":"6e6558eb-4762-4f0b-8e54-67945c2b9b1d","system_id":"levelo_inurba_marseille","lat":43.31753,"lon":5.39013,"is_reserved":false,"is_disabled":false,"rental_uris":{"android":"levelo://app?vid=6e6558eb-4762-4f0b-8e54-67945c2b9b1d","ios":"levelo://app?vid=6e6558eb-4762-4f0b-8e54-67945c2b9b1d"},"vehicle_type_id":"4","last_reported":1710450420,"current_range_meters":400,"station_id":"ce4bhqp2rcd13ifvqhng","pricing_plan_id":"cebpf4jnsgd1na2vs0mg"},{"bike_id":"77143e07-9a56-4df7-8659-5c80a8c15c48","system_id":"levelo_inurba_marseille","lat":43.31754,"lon":5.39015,"is_reserved":false,"is_disabled":false,"rental_uris":{"android":"levelo://app?vid=77143e07-9a56-4df7-8659-5c80a8c15c48","ios":"levelo://app?vid=77143e07-9a56-4df7-8659-5c80a8c15c48"},"vehicle_type_id":"4","last_reported":1710450420,"current_range_meters":0,"station_id":"","pricing_plan_id":"cebpf4jnsgd1na2vs0mg"},{"bike_id":"d15c66b4-252c-40a5-8e0d-aaa09e7e3259","system_id":"levelo_inurba_marseille","lat":43.317573,"lon":5.39014,"is_reserved":false,"is_disabled":false,"rental_uris":{"android":"levelo://app?vid=d15c66b4-252c-40a5-8e0d-aaa09e7e3259","ios":"levelo://app?vid=d15c66b4-252c-40a5-8e0d-aaa09e7e3259"},"vehicle_type_id":"4","last_reported":1710450420,"current_range_meters":0,"station_id":"ce4bhqp2rcd13ifvqhng","pricing_plan_id":"cebpf4jnsgd1na2vs0mg"},{"bike_id":"67eb208e-05cf-4e89-bfce-ef48257e737b","system_id":"levelo_inurba_marseille","lat":43.31758,"lon":5.39014,"is_reserved":false,"is_disabled":false,"rental_uris":{"android":"levelo://app?vid=67eb208e-05cf-4e89-bfce-ef48257e737b","ios":"levelo://app?vid=67eb208e-05cf-4e89-bfce-ef48257e737b"},"vehicle_type_id":"4","last_reported":1710450420,"current_range_meters":0,"station_id":"ce4bhqp2rcd13ifvqhng","pricing_plan_id":"cebpf4jnsgd1na2vs0mg"},{"bike_id":"b0bd1f6a-99d2-4d84-a375-85c92b11a593","system_id":"levelo_inurba_marseille","lat":43.31758,"lon":5.39015,"is_reserved":false,"is_disabled":false,"rental_uris":{"android":"levelo://app?vid=b0bd1f6a-99d2-4d84-a375-85c92b11a593","ios":"levelo://app?vid=b0bd1f6a-99d2-4d84-a375-85c92b11a593"},"vehicle_type_id":"4","last_reported":1710450420,"current_range_meters":15600,"station_id":"ce4bhqp2rcd13ifvqhng","pricing_plan_id":"cebpf4jnsgd1na2vs0mg"},{"bike_id":"a7e9409e-d196-40a9-8913-2226e2a94e30","system_id":"levelo_inurba_marseille","lat":43.317557,"lon":5.390173,"is_reserved":false,"is_disabled":false,"rental_uris":{"android":"levelo://app?vid=a7e9409e-d196-40a9-8913-2226e2a94e30","ios":"levelo://app?vid=a7e9409e-d196-40a9-8913-2226e2a94e30"},"vehicle_type_id":"4","last_reported":1710450420,"current_range_meters":31200,"station_id":"ce4bhqp2rcd13ifvqhng","pricing_plan_id":"cebpf4jnsgd1na2vs0mg"},{"bike_id":"400fc285-08c8-4b6b-a2e6-e4633d9bd4b4","system_id":"levelo_inurba_marseille","lat":43.317557,"lon":5.390173,"is_reserved":false,"is_disabled":false,"rental_uris":{"android":"levelo://app?vid=400fc285-08c8-4b6b-a2e6-e4633d9bd4b4","ios":"levelo://app?vid=400fc285-08c8-4b6b-a2e6-e4633d9bd4b4"},"vehicle_type_id":"4","last_reported":1710450420,"current_range_meters":20400,"station_id":"ce4bhqp2rcd13ifvqhng","pricing_plan_id":"cebpf4jnsgd1na2vs0mg"},{"bike_id":"4406f68a-e6b2-405a-9f34-bc84e800d024","system_id":"levelo_inurba_marseille","lat":43.31758,"lon":5.39019,"is_reserved":false,"is_disabled":false,"rental_uris":{"android":"levelo://app?vid=4406f68a-e6b2-405a-9f34-bc84e800d024","ios":"levelo://app?vid=4406f68a-e6b2-405a-9f34-bc84e800d024"},"vehicle_type_id":"4","last_reported":1710450420,"current_range_meters":0,"station_id":"ce4bhqp2rcd13ifvqhng","pricing_plan_id":"cebpf4jnsgd1na2vs0mg"},{"bike_id":"3f1398ec-4688-46c0-87ad-ae6ee2699afa","system_id":"levelo_inurba_marseille","lat":43.317557,"lon":5.390173,"is_reserved":false,"is_disabled":false,"rental_uris":{"android":"levelo://app?vid=3f1398ec-4688-46c0-87ad-ae6ee2699afa","ios":"levelo://app?vid=3f1398ec-4688-46c0-87ad-ae6ee2699afa"},"vehicle_type_id":"4","last_reported":1710450420,"current_range_meters":25600,"station_id":"ce4bhqp2rcd13ifvqhng","pricing_plan_id":"cebpf4jnsgd1na2vs0mg"},{"bike_id":"5ade5f28-1360-4c60-9e89-43600cb42361","system_id":"levelo_inurba_marseille","lat":43.317546,"lon":5.390238,"is_reserved":false,"is_disabled":false,"rental_uris":{"android":"levelo://app?vid=5ade5f28-1360-4c60-9e89-43600cb42361","ios":"levelo://app?vid=5ade5f28-1360-4c60-9e89-43600cb42361"},"vehicle_type_id":"4","last_reported":1710450420,"current_range_meters":27200,"station_id":"ce4bhqp2rcd13ifvqhng","pricing_plan_id":"cebpf4jnsgd1na2vs0mg"},{"bike_id":"934dcfbb-851e-4f5b-8f06-0e4a0da081b2","system_id":"levelo_inurba_marseille","lat":43.29752,"lon":5.37947,"is_reserved":false,"is_disabled":false,"rental_uris":{"android":"levelo://app?vid=934dcfbb-851e-4f5b-8f06-0e4a0da081b2","ios":"levelo://app?vid=934dcfbb-851e-4f5b-8f06-0e4a0da081b2"},"vehicle_type_id":"4","last_reported":1710450420,"current_range_meters":10000,"station_id":"","pricing_plan_id":"cebpf4jnsgd1na2vs0mg"},{"bike_id":"4327193e-2f86-48f8-8037-4327ee277913","system_id":"levelo_inurba_marseille","lat":43.295728,"lon":5.374582,"is_reserved":false,"is_disabled":false,"rental_uris":{"android":"levelo://app?vid=4327193e-2f86-48f8-8037-4327ee277913","ios":"levelo://app?vid=4327193e-2f86-48f8-8037-4327ee277913"},"vehicle_type_id":"4","last_reported":1710450420,"current_range_meters":29600,"station_id":"","pricing_plan_id":"cebpf4jnsgd1na2vs0mg"},{"bike_id":"8d3f3101-5ce9-4f09-89db-026f8b0bb738","system_id":"levelo_inurba_marseille","lat":43.304274,"lon":5.388873,"is_reserved":false,"is_disabled":false,"rental_uris":{"android":"levelo://app?vid=8d3f3101-5ce9-4f09-89db-026f8b0bb738","ios":"levelo://app?vid=8d3f3101-5ce9-4f09-89db-026f8b0bb738"},"vehicle_type_id":"4","last_reported":1710450420,"current_range_meters":17600,"station_id":"ce4bgk12rcd13ifvqbi0","pricing_plan_id":"cebpf4jnsgd1na2vs0mg"},{"bike_id":"a2c76fa5-65e3-41d3-848f-0142675dbbe5","system_id":"levelo_inurba_marseille","lat":43.304274,"lon":5.388873,"is_reserved":false,"is_disabled":false,"rental_uris":{"android":"levelo://app?vid=a2c76fa5-65e3-41d3-848f-0142675dbbe5","ios":"levelo://app?vid=a2c76fa5-65e3-41d3-848f-0142675dbbe5"},"vehicle_type_id":"4","last_reported":1710450420,"current_range_meters":28000,"station_id":"ce4bgk12rcd13ifvqbi0","pricing_plan_id":"cebpf4jnsgd1na2vs0mg"},{"bike_id":"ae74fb6f-8ead-4512-82a9-28659cc10057","system_id":"levelo_inurba_marseille","lat":43.304274,"lon":5.388873,"is_reserved":false,"is_disabled":false,"rental_uris":{"android":"levelo://app?vid=ae74fb6f-8ead-4512-82a9-28659cc10057","ios":"levelo://app?vid=ae74fb6f-8ead-4512-82a9-28659cc10057"},"vehicle_type_id":"4","last_reported":1710450420,"current_range_meters":12800,"station_id":"ce4bgk12rcd13ifvqbi0","pricing_plan_id":"cebpf4jnsgd1na2vs0mg"},{"bike_id":"75c2b158-2a17-48bd-a5a3-2d69697199be","system_id":"levelo_inurba_marseille","lat":43.304278,"lon":5.388868,"is_reserved":false,"is_disabled":false,"rental_uris":{"android":"levelo://app?vid=75c2b158-2a17-48bd-a5a3-2d69697199be","ios":"levelo://app?vid=75c2b158-2a17-48bd-a5a3-2d69697199be"},"vehicle_type_id":"4","last_reported":1710450420,"current_range_meters":1600,"station_id":"ce4bgk12rcd13ifvqbi0","pricing_plan_id":"cebpf4jnsgd1na2vs0mg"},{"bike_id":"e9f342fd-000e-4119-bcf6-d3796442695b","system_id":"levelo_inurba_marseille","lat":43.304274,"lon":5.388873,"is_reserved":false,"is_disabled":false,"rental_uris":{"android":"levelo://app?vid=e9f342fd-000e-4119-bcf6-d3796442695b","ios":"levelo://app?vid=e9f342fd-000e-4119-bcf6-d3796442695b"},"vehicle_type_id":"4","last_reported":1710450420,"current_range_meters":12400,"station_id":"ce4bgk12rcd13ifvqbi0","pricing_plan_id":"cebpf4jnsgd1na2vs0mg"},{"bike_id":"ff1a7488-0071-439a-a611-4ec8b156bc9a","system_id":"levelo_inurba_marseille","lat":43.304274,"lon":5.388873,"is_reserved":false,"is_disabled":false,"rental_uris":{"android":"levelo://app?vid=ff1a7488-0071-439a-a611-4ec8b156bc9a","ios":"levelo://app?vid=ff1a7488-0071-439a-a611-4ec8b156bc9a"},"vehicle_type_id":"4","last_reported":1710450420,"current_range_meters":20000,"station_id":"ce4bgk12rcd13ifvqbi0","pricing_plan_id":"cebpf4jnsgd1na2vs0mg"},{"bike_id":"889f66af-996e-4bbe-9a95-df96fa3ad2e4","system_id":"levelo_inurba_marseille","lat":43.296277,"lon":5.377108,"is_reserved":false,"is_disabled":false,"rental_uris":{"android":"levelo://app?vid=889f66af-996e-4bbe-9a95-df96fa3ad2e4","ios":"levelo://app?vid=889f66af-996e-4bbe-9a95-df96fa3ad2e4"},"vehicle_type_id":"4","last_reported":1710450420,"current_range_meters":400,"station_id":"ce4bgi92rcd13ifvqb90","pricing_plan_id":"cebpf4jnsgd1na2vs0mg"},{"bike_id":"2ea4bc9e-2618-4a4e-bbbe-3bdcb20940ff","system_id":"levelo_inurba_marseille","lat":43.296117,"lon":5.37717,"is_reserved":false,"is_disabled":false,"rental_uris":{"android":"levelo://app?vid=2ea4bc9e-2618-4a4e-bbbe-3bdcb20940ff","ios":"levelo://app?vid=2ea4bc9e-2618-4a4e-bbbe-3bdcb20940ff"},"vehicle_type_id":"4","last_reported":1710450420,"current_range_meters":0,"station_id":"ce4bgi92rcd13ifvqb90","pricing_plan_id":"cebpf4jnsgd1na2vs0mg"},{"bike_id":"10a7ee52-141b-4fdf-b372-0983fbc16ba3","system_id":"levelo_inurba_marseille","lat":43.296263,"lon":5.377094,"is_reserved":false,"is_disabled":false,"rental_uris":{"android":"levelo://app?vid=10a7ee52-141b-4fdf-b372-0983fbc16ba3","ios":"levelo://app?vid=10a7ee52-141b-4fdf-b372-0983fbc16ba3"},"vehicle_type_id":"4","last_reported":1710450420,"current_range_meters":8800,"station_id":"ce4bgi92rcd13ifvqb90","pricing_plan_id":"cebpf4jnsgd1na2vs0mg"},{"bike_id":"c844c9d7-dda5-4e42-b4af-4e66978f90ae","system_id":"levelo_inurba_marseille","lat":43.296263,"lon":5.377094,"is_reserved":false,"is_disabled":false,"rental_uris":{"android":"levelo://app?vid=c844c9d7-dda5-4e42-b4af-4e66978f90ae","ios":"levelo://app?vid=c844c9d7-dda5-4e42-b4af-4e66978f90ae"},"vehicle_type_id":"4","last_reported":1710450420,"current_range_meters":0,"station_id":"ce4bgi92rcd13ifvqb90","pricing_plan_id":"cebpf4jnsgd1na2vs0mg"},{"bike_id":"d34054e1-3a45-43da-b8f0-f65924ca9557","system_id":"levelo_inurba_marseille","lat":43.296277,"lon":5.377108,"is_reserved":false,"is_disabled":false,"rental_uris":{"android":"levelo://app?vid=d34054e1-3a45-43da-b8f0-f65924ca9557","ios":"levelo://app?vid=d34054e1-3a45-43da-b8f0-f65924ca9557"},"vehicle_type_id":"4","last_reported":1710450420,"current_range_meters":6800,"station_id":"ce4bgi92rcd13ifvqb90","pricing_plan_id":"cebpf4jnsgd1na2vs0mg"},{"bike_id":"32b5557f-ef1b-46af-97f2-6d1c4ce81171","system_id":"levelo_inurba_marseille","lat":43.29754,"lon":5.38094,"is_reserved":false,"is_disabled":false,"rental_uris":{"android":"levelo://app?vid=32b5557f-ef1b-46af-97f2-6d1c4ce81171","ios":"levelo://app?vid=32b5557f-ef1b-46af-97f2-6d1c4ce81171"},"vehicle_type_id":"4","last_reported":1710450420,"current_range_meters":9600,"station_id":"","pricing_plan_id":"cebpf4jnsgd1na2vs0mg"},{"bike_id":"3f67673f-c2cb-44a1-aa9f-d237217bc3c8","system_id":"levelo_inurba_marseille","lat":43.299859,"lon":5.384821,"is_reserved":false,"is_disabled":false,"rental_uris":{"android":"levelo://app?vid=3f67673f-c2cb-44a1-aa9f-d237217bc3c8","ios":"levelo://app?vid=3f67673f-c2cb-44a1-aa9f-d237217bc3c8"},"vehicle_type_id":"4","last_reported":1710450420,"current_range_meters":26000,"station_id":"ce4bgj92rcd13ifvqbd0","pricing_plan_id":"cebpf4jnsgd1na2vs0mg"},{"bike_id":"10330497-6ee4-4db0-9256-3bf9fe0bed27","system_id":"levelo_inurba_marseille","lat":43.29985,"lon":5.38487,"is_reserved":false,"is_disabled":false,"rental_uris":{"android":"levelo://app?vid=10330497-6ee4-4db0-9256-3bf9fe0bed27","ios":"levelo://app?vid=10330497-6ee4-4db0-9256-3bf9fe0bed27"},"vehicle_type_id":"4","last_reported":1710450420,"current_range_meters":9600,"station_id":"ce4bgj92rcd13ifvqbd0","pricing_plan_id":"cebpf4jnsgd1na2vs0mg"},{"bike_id":"a9a83de0-a2f7-494d-900a-398532e669d0","system_id":"levelo_inurba_marseille","lat":43.299761,"lon":5.384823,"is_reserved":false,"is_disabled":false,"rental_uris":{"android":"levelo://app?vid=a9a83de0-a2f7-494d-900a-398532e669d0","ios":"levelo://app?vid=a9a83de0-a2f7-494d-900a-398532e669d0"},"vehicle_type_id":"4","last_reported":1710450420,"current_range_meters":0,"station_id":"ce4bgj92rcd13ifvqbd0","pricing_plan_id":"cebpf4jnsgd1na2vs0mg"},{"bike_id":"32b33530-2a27-4eae-835d-a406e1181639","system_id":"levelo_inurba_marseille","lat":43.2998,"lon":5.38489,"is_reserved":false,"is_disabled":false,"rental_uris":{"android":"levelo://app?vid=32b33530-2a27-4eae-835d-a406e1181639","ios":"levelo://app?vid=32b33530-2a27-4eae-835d-a406e1181639"},"vehicle_type_id":"4","last_reported":1710450420,"current_range_meters":22800,"station_id":"ce4bgj92rcd13ifvqbd0","pricing_plan_id":"cebpf4jnsgd1na2vs0mg"},{"bike_id":"5f6190b3-ec02-41a9-9fbb-08730bca1e08","system_id":"levelo_inurba_marseille","lat":43.29969,"lon":5.38479,"is_reserved":false,"is_disabled":false,"rental_uris":{"android":"levelo://app?vid=5f6190b3-ec02-41a9-9fbb-08730bca1e08","ios":"levelo://app?vid=5f6190b3-ec02-41a9-9fbb-08730bca1e08"},"vehicle_type_id":"4","last_reported":1710450420,"current_range_meters":0,"station_id":"ce4bgj92rcd13ifvqbd0","pricing_plan_id":"cebpf4jnsgd1na2vs0mg"},{"bike_id":"ba065a64-60e4-4c28-8c1d-1d526e1e95b3","system_id":"levelo_inurba_marseille","lat":43.29972,"lon":5.38487,"is_reserved":false,"is_disabled":false,"rental_uris":{"android":"levelo://app?vid=ba065a64-60e4-4c28-8c1d-1d526e1e95b3","ios":"levelo://app?vid=ba065a64-60e4-4c28-8c1d-1d526e1e95b3"},"vehicle_type_id":"4","last_reported":1710450420,"current_range_meters":23200,"station_id":"ce4bgj92rcd13ifvqbd0","pricing_plan_id":"cebpf4jnsgd1na2vs0mg"},{"bike_id":"16cfafaa-f233-4ed7-b5d3-58f78015f437","system_id":"levelo_inurba_marseille","lat":43.29971,"lon":5.38487,"is_reserved":false,"is_disabled":false,"rental_uris":{"android":"levelo://app?vid=16cfafaa-f233-4ed7-b5d3-58f78015f437","ios":"levelo://app?vid=16cfafaa-f233-4ed7-b5d3-58f78015f437"},"vehicle_type_id":"4","last_reported":1710450420,"current_range_meters":22800,"station_id":"ce4bgj92rcd13ifvqbd0","pricing_plan_id":"cebpf4jnsgd1na2vs0mg"},{"bike_id":"3638917b-bf88-4536-adfa-28dd409aee0a","system_id":"levelo_inurba_marseille","lat":43.299774,"lon":5.385012,"is_reserved":false,"is_disabled":false,"rental_uris":{"android":"levelo://app?vid=3638917b-bf88-4536-adfa-28dd409aee0a","ios":"levelo://app?vid=3638917b-bf88-4536-adfa-28dd409aee0a"},"vehicle_type_id":"4","last_reported":1710450420,"current_range_meters":29200,"station_id":"ce4bgj92rcd13ifvqbd0","pricing_plan_id":"cebpf4jnsgd1na2vs0mg"},{"bike_id":"c2377060-4480-42a0-84f2-28b787b7d6b8","system_id":"levelo_inurba_marseille","lat":43.29965,"lon":5.38487,"is_reserved":false,"is_disabled":false,"rental_uris":{"android":"levelo://app?vid=c2377060-4480-42a0-84f2-28b787b7d6b8","ios":"levelo://app?vid=c2377060-4480-42a0-84f2-28b787b7d6b8"},"vehicle_type_id":"4","last_reported":1710450420,"current_range_meters":15200,"station_id":"ce4bgj92rcd13ifvqbd0","pricing_plan_id":"cebpf4jnsgd1na2vs0mg"},{"bike_id":"95c40f1f-ac08-4c51-b917-355ba5fae18c","system_id":"levelo_inurba_marseille","lat":43.29969,"lon":5.38495,"is_reserved":false,"is_disabled":false,"rental_uris":{"android":"levelo://app?vid=95c40f1f-ac08-4c51-b917-355ba5fae18c","ios":"levelo://app?vid=95c40f1f-ac08-4c51-b917-355ba5fae18c"},"vehicle_type_id":"4","last_reported":1710450420,"current_range_meters":3200,"station_id":"ce4bgj92rcd13ifvqbd0","pricing_plan_id":"cebpf4jnsgd1na2vs0mg"},{"bike_id":"e30e135c-985a-4da8-8eee-7f9316f304ff","system_id":"levelo_inurba_marseille","lat":43.29964,"lon":5.38489,"is_reserved":false,"is_disabled":false,"rental_uris":{"android":"levelo://app?vid=e30e135c-985a-4da8-8eee-7f9316f304ff","ios":"levelo://app?vid=e30e135c-985a-4da8-8eee-7f9316f304ff"},"vehicle_type_id":"4","last_reported":1710450420,"current_range_meters":16400,"station_id":"ce4bgj92rcd13ifvqbd0","pricing_plan_id":"cebpf4jnsgd1na2vs0mg"},{"bike_id":"598fb1f3-a37f-4e7b-8fbd-0c96fece7550","system_id":"levelo_inurba_marseille","lat":43.3236,"lon":5.38876,"is_reserved":false,"is_disabled":false,"rental_uris":{"android":"levelo://app?vid=598fb1f3-a37f-4e7b-8fbd-0c96fece7550","ios":"levelo://app?vid=598fb1f3-a37f-4e7b-8fbd-0c96fece7550"},"vehicle_type_id":"4","last_reported":1710450420,"current_range_meters":2800,"station_id":"ce4bhqp2rcd13ifvqhog","pricing_plan_id":"cebpf4jnsgd1na2vs0mg"},{"bike_id":"1fd8f59e-d423-40a9-8eb7-7edaa8993cd5","system_id":"levelo_inurba_marseille","lat":43.323667,"lon":5.388791,"is_reserved":false,"is_disabled":false,"rental_uris":{"android":"levelo://app?vid=1fd8f59e-d423-40a9-8eb7-7edaa8993cd5","ios":"levelo://app?vid=1fd8f59e-d423-40a9-8eb7-7edaa8993cd5"},"vehicle_type_id":"4","last_reported":1710450420,"current_range_meters":2800,"station_id":"ce4bhqp2rcd13ifvqhog","pricing_plan_id":"cebpf4jnsgd1na2vs0mg"},{"bike_id":"583e1de5-6454-4add-b2df-953be50d44fc","system_id":"levelo_inurba_marseille","lat":43.32367,"lon":5.388836,"is_reserved":false,"is_disabled":false,"rental_uris":{"android":"levelo://app?vid=583e1de5-6454-4add-b2df-953be50d44fc","ios":"levelo://app?vid=583e1de5-6454-4add-b2df-953be50d44fc"},"vehicle_type_id":"4","last_reported":1710450420,"current_range_meters":0,"station_id":"ce4bhqp2rcd13ifvqhog","pricing_plan_id":"cebpf4jnsgd1na2vs0mg"},{"bike_id":"274e9d71-daa1-4d83-b104-a4da38e85d74","system_id":"levelo_inurba_marseille","lat":43.323693,"lon":5.388772,"is_reserved":false,"is_disabled":false,"rental_uris":{"android":"levelo://app?vid=274e9d71-daa1-4d83-b104-a4da38e85d74","ios":"levelo://app?vid=274e9d71-daa1-4d83-b104-a4da38e85d74"},"vehicle_type_id":"4","last_reported":1710450420,"current_range_meters":22800,"station_id":"ce4bhqp2rcd13ifvqhog","pricing_plan_id":"cebpf4jnsgd1na2vs0mg"},{"bike_id":"000f77e5-4326-4d56-8799-1de5f65a506a","system_id":"levelo_inurba_marseille","lat":43.323624,"lon":5.388861,"is_reserved":false,"is_disabled":false,"rental_uris":{"android":"levelo://app?vid=000f77e5-4326-4d56-8799-1de5f65a506a","ios":"levelo://app?vid=000f77e5-4326-4d56-8799-1de5f65a506a"},"vehicle_type_id":"4","last_reported":1710450420,"current_range_meters":14400,"station_id":"ce4bhqp2rcd13ifvqhog","pricing_plan_id":"cebpf4jnsgd1na2vs0mg"},{"bike_id":"1105ac8e-aeab-416e-8203-16be87ff4281","system_id":"levelo_inurba_marseille","lat":43.32364,"lon":5.388848,"is_reserved":false,"is_disabled":false,"rental_uris":{"android":"levelo://app?vid=1105ac8e-aeab-416e-8203-16be87ff4281","ios":"levelo://app?vid=1105ac8e-aeab-416e-8203-16be87ff4281"},"vehicle_type_id":"4","last_reported":1710450420,"current_range_meters":12000,"station_id":"ce4bhqp2rcd13ifvqhog","pricing_plan_id":"cebpf4jnsgd1na2vs0mg"},{"bike_id":"37d1ff50-d3d6-48f0-92af-84e95de47588","system_id":"levelo_inurba_marseille","lat":43.32367,"lon":5.388836,"is_reserved":false,"is_disabled":false,"rental_uris":{"android":"levelo://app?vid=37d1ff50-d3d6-48f0-92af-84e95de47588","ios":"levelo://app?vid=37d1ff50-d3d6-48f0-92af-84e95de47588"},"vehicle_type_id":"4","last_reported":1710450420,"current_range_meters":0,"station_id":"ce4bhqp2rcd13ifvqhog","pricing_plan_id":"cebpf4jnsgd1na2vs0mg"},{"bike_id":"601549c9-17b6-4663-bb1f-1fc3c0514675","system_id":"levelo_inurba_marseille","lat":43.32369,"lon":5.38881,"is_reserved":false,"is_disabled":false,"rental_uris":{"android":"levelo://app?vid=601549c9-17b6-4663-bb1f-1fc3c0514675","ios":"levelo://app?vid=601549c9-17b6-4663-bb1f-1fc3c0514675"},"vehicle_type_id":"4","last_reported":1710450420,"current_range_meters":19600,"station_id":"ce4bhqp2rcd13ifvqhog","pricing_plan_id":"cebpf4jnsgd1na2vs0mg"},{"bike_id":"b067381d-4a0e-4eb6-9712-95df1ab837a3","system_id":"levelo_inurba_marseille","lat":43.3237,"lon":5.38881,"is_reserved":false,"is_disabled":false,"rental_uris":{"android":"levelo://app?vid=b067381d-4a0e-4eb6-9712-95df1ab837a3","ios":"levelo://app?vid=b067381d-4a0e-4eb6-9712-95df1ab837a3"},"vehicle_type_id":"4","last_reported":1710450420,"current_range_meters":28400,"station_id":"ce4bhqp2rcd13ifvqhog","pricing_plan_id":"cebpf4jnsgd1na2vs0mg"},{"bike_id":"40e2eb8a-4357-46b9-90f8-84a1e303713d","system_id":"levelo_inurba_marseille","lat":43.32369,"lon":5.38883,"is_reserved":false,"is_disabled":false,"rental_uris":{"android":"levelo://app?vid=40e2eb8a-4357-46b9-90f8-84a1e303713d","ios":"levelo://app?vid=40e2eb8a-4357-46b9-90f8-84a1e303713d"},"vehicle_type_id":"4","last_reported":1710450420,"current_range_meters":10800,"station_id":"ce4bhqp2rcd13ifvqhog","pricing_plan_id":"cebpf4jnsgd1na2vs0mg"},{"bike_id":"9821981f-4ba9-44df-971c-842532bfe183","system_id":"levelo_inurba_marseille","lat":43.32367,"lon":5.38885,"is_reserved":false,"is_disabled":false,"rental_uris":{"android":"levelo://app?vid=9821981f-4ba9-44df-971c-842532bfe183","ios":"levelo://app?vid=9821981f-4ba9-44df-971c-842532bfe183"},"vehicle_type_id":"4","last_reported":1710450420,"current_range_meters":10000,"station_id":"ce4bhqp2rcd13ifvqhog","pricing_plan_id":"cebpf4jnsgd1na2vs0mg"},{"bike_id":"6b67727e-46a9-449c-a628-1c1cbca5a717","system_id":"levelo_inurba_marseille","lat":43.323637,"lon":5.388883,"is_reserved":false,"is_disabled":false,"rental_uris":{"android":"levelo://app?vid=6b67727e-46a9-449c-a628-1c1cbca5a717","ios":"levelo://app?vid=6b67727e-46a9-449c-a628-1c1cbca5a717"},"vehicle_type_id":"4","last_reported":1710450420,"current_range_meters":14400,"station_id":"ce4bhqp2rcd13ifvqhog","pricing_plan_id":"cebpf4jnsgd1na2vs0mg"},{"bike_id":"e47eb325-88f0-46e0-ae13-de9ffb7f6cd1","system_id":"levelo_inurba_marseille","lat":43.32367,"lon":5.38886,"is_reserved":false,"is_disabled":false,"rental_uris":{"android":"levelo://app?vid=e47eb325-88f0-46e0-ae13-de9ffb7f6cd1","ios":"levelo://app?vid=e47eb325-88f0-46e0-ae13-de9ffb7f6cd1"},"vehicle_type_id":"4","last_reported":1710450420,"current_range_meters":24000,"station_id":"ce4bhqp2rcd13ifvqhog","pricing_plan_id":"cebpf4jnsgd1na2vs0mg"},{"bike_id":"cc81d865-bd9e-47ea-9dba-ee06420c17c4","system_id":"levelo_inurba_marseille","lat":43.32367,"lon":5.388836,"is_reserved":false,"is_disabled":false,"rental_uris":{"android":"levelo://app?vid=cc81d865-bd9e-47ea-9dba-ee06420c17c4","ios":"levelo://app?vid=cc81d865-bd9e-47ea-9dba-ee06420c17c4"},"vehicle_type_id":"4","last_reported":1710450420,"current_range_meters":4000,"station_id":"ce4bhqp2rcd13ifvqhog","pricing_plan_id":"cebpf4jnsgd1na2vs0mg"},{"bike_id":"f8410019-e0d6-4683-8286-8c04cc7bb847","system_id":"levelo_inurba_marseille","lat":43.32367,"lon":5.388836,"is_reserved":false,"is_disabled":false,"rental_uris":{"android":"levelo://app?vid=f8410019-e0d6-4683-8286-8c04cc7bb847","ios":"levelo://app?vid=f8410019-e0d6-4683-8286-8c04cc7bb847"},"vehicle_type_id":"4","last_reported":1710450420,"current_range_meters":0,"station_id":"ce4bhqp2rcd13ifvqhog","pricing_plan_id":"cebpf4jnsgd1na2vs0mg"},{"bike_id":"98c893c2-7601-480f-b687-9b8b6030928a","system_id":"levelo_inurba_marseille","lat":43.32367,"lon":5.388836,"is_reserved":false,"is_disabled":false,"rental_uris":{"android":"levelo://app?vid=98c893c2-7601-480f-b687-9b8b6030928a","ios":"levelo://app?vid=98c893c2-7601-480f-b687-9b8b6030928a"},"vehicle_type_id":"4","last_reported":1710450420,"current_range_meters":9200,"station_id":"ce4bhqp2rcd13ifvqhog","pricing_plan_id":"cebpf4jnsgd1na2vs0mg"},{"bike_id":"775cf867-e75b-4fd5-b02f-97c73260f4b7","system_id":"levelo_inurba_marseille","lat":43.32368,"lon":5.38888,"is_reserved":false,"is_disabled":false,"rental_uris":{"android":"levelo://app?vid=775cf867-e75b-4fd5-b02f-97c73260f4b7","ios":"levelo://app?vid=775cf867-e75b-4fd5-b02f-97c73260f4b7"},"vehicle_type_id":"4","last_reported":1710450420,"current_range_meters":11200,"station_id":"ce4bhqp2rcd13ifvqhog","pricing_plan_id":"cebpf4jnsgd1na2vs0mg"},{"bike_id":"5a78b80a-e628-4fd3-bc43-033c43764cc9","system_id":"levelo_inurba_marseille","lat":43.32371,"lon":5.38886,"is_reserved":false,"is_disabled":false,"rental_uris":{"android":"levelo://app?vid=5a78b80a-e628-4fd3-bc43-033c43764cc9","ios":"levelo://app?vid=5a78b80a-e628-4fd3-bc43-033c43764cc9"},"vehicle_type_id":"4","last_reported":1710450420,"current_range_meters":7600,"station_id":"ce4bhqp2rcd13ifvqhog","pricing_plan_id":"cebpf4jnsgd1na2vs0mg"},{"bike_id":"800139c2-1045-4346-ac48-a5a0e2bbb875","system_id":"levelo_inurba_marseille","lat":43.29602,"lon":5.381084,"is_reserved":false,"is_disabled":false,"rental_uris":{"android":"levelo://app?vid=800139c2-1045-4346-ac48-a5a0e2bbb875","ios":"levelo://app?vid=800139c2-1045-4346-ac48-a5a0e2bbb875"},"vehicle_type_id":"4","last_reported":1710450420,"current_range_meters":2800,"station_id":"ce4bgl12rcd13ifvqbo0","pricing_plan_id":"cebpf4jnsgd1na2vs0mg"},{"bike_id":"9584f60a-0356-4941-9535-2eba276f33b0","system_id":"levelo_inurba_marseille","lat":43.29602,"lon":5.381084,"is_reserved":false,"is_disabled":false,"rental_uris":{"android":"levelo://app?vid=9584f60a-0356-4941-9535-2eba276f33b0","ios":"levelo://app?vid=9584f60a-0356-4941-9535-2eba276f33b0"},"vehicle_type_id":"4","last_reported":1710450420,"current_range_meters":0,"station_id":"ce4bgl12rcd13ifvqbo0","pricing_plan_id":"cebpf4jnsgd1na2vs0mg"},{"bike_id":"52f71d3c-e26c-40cd-a521-eafa986c7f7d","system_id":"levelo_inurba_marseille","lat":43.29602,"lon":5.381084,"is_reserved":false,"is_disabled":false,"rental_uris":{"android":"levelo://app?vid=52f71d3c-e26c-40cd-a521-eafa986c7f7d","ios":"levelo://app?vid=52f71d3c-e26c-40cd-a521-eafa986c7f7d"},"vehicle_type_id":"4","last_reported":1710450420,"current_range_meters":1600,"station_id":"ce4bgl12rcd13ifvqbo0","pricing_plan_id":"cebpf4jnsgd1na2vs0mg"},{"bike_id":"30a4b05e-07fb-4920-a485-14543ee1828a","system_id":"levelo_inurba_marseille","lat":43.29595,"lon":5.381041,"is_reserved":false,"is_disabled":false,"rental_uris":{"android":"levelo://app?vid=30a4b05e-07fb-4920-a485-14543ee1828a","ios":"levelo://app?vid=30a4b05e-07fb-4920-a485-14543ee1828a"},"vehicle_type_id":"4","last_reported":1710450420,"current_range_meters":0,"station_id":"ce4bgl12rcd13ifvqbo0","pricing_plan_id":"cebpf4jnsgd1na2vs0mg"},{"bike_id":"a8afc32b-59d7-47db-b49d-022d98664ced","system_id":"levelo_inurba_marseille","lat":43.29601,"lon":5.381084,"is_reserved":false,"is_disabled":false,"rental_uris":{"android":"levelo://app?vid=a8afc32b-59d7-47db-b49d-022d98664ced","ios":"levelo://app?vid=a8afc32b-59d7-47db-b49d-022d98664ced"},"vehicle_type_id":"4","last_reported":1710450420,"current_range_meters":0,"station_id":"ce4bgl12rcd13ifvqbo0","pricing_plan_id":"cebpf4jnsgd1na2vs0mg"},{"bike_id":"d12c6bff-bf45-4247-9953-3c43c32d8a30","system_id":"levelo_inurba_marseille","lat":43.29602,"lon":5.381084,"is_reserved":false,"is_disabled":false,"rental_uris":{"android":"levelo://app?vid=d12c6bff-bf45-4247-9953-3c43c32d8a30","ios":"levelo://app?vid=d12c6bff-bf45-4247-9953-3c43c32d8a30"},"vehicle_type_id":"4","last_reported":1710450420,"current_range_meters":4800,"station_id":"ce4bgl12rcd13ifvqbo0","pricing_plan_id":"cebpf4jnsgd1na2vs0mg"},{"bike_id":"e2f5dda0-aeb1-45c2-bf3f-2470ed6d0417","system_id":"levelo_inurba_marseille","lat":43.29276,"lon":5.36841,"is_reserved":false,"is_disabled":false,"rental_uris":{"android":"levelo://app?vid=e2f5dda0-aeb1-45c2-bf3f-2470ed6d0417","ios":"levelo://app?vid=e2f5dda0-aeb1-45c2-bf3f-2470ed6d0417"},"vehicle_type_id":"4","last_reported":1710450420,"current_range_meters":0,"station_id":"ce4bhbp2rcd13ifvqesg","pricing_plan_id":"cebpf4jnsgd1na2vs0mg"},{"bike_id":"b4d83e70-baf8-4338-a421-156827da515e","system_id":"levelo_inurba_marseille","lat":43.29264,"lon":5.36849,"is_reserved":false,"is_disabled":false,"rental_uris":{"android":"levelo://app?vid=b4d83e70-baf8-4338-a421-156827da515e","ios":"levelo://app?vid=b4d83e70-baf8-4338-a421-156827da515e"},"vehicle_type_id":"4","last_reported":1710450420,"current_range_meters":22000,"station_id":"ce4bhbp2rcd13ifvqesg","pricing_plan_id":"cebpf4jnsgd1na2vs0mg"},{"bike_id":"f6a3a278-9c9b-4a9e-8cd4-97ebd08115eb","system_id":"levelo_inurba_marseille","lat":43.305994,"lon":5.393687,"is_reserved":false,"is_disabled":false,"rental_uris":{"android":"levelo://app?vid=f6a3a278-9c9b-4a9e-8cd4-97ebd08115eb","ios":"levelo://app?vid=f6a3a278-9c9b-4a9e-8cd4-97ebd08115eb"},"vehicle_type_id":"4","last_reported":1710450420,"current_range_meters":30400,"station_id":"ce4bh0p2rcd13ifvqd80","pricing_plan_id":"cebpf4jnsgd1na2vs0mg"},{"bike_id":"68ba9eef-9e43-4ba1-b275-3396154f214e","system_id":"levelo_inurba_marseille","lat":43.292973,"lon":5.374413,"is_reserved":false,"is_disabled":false,"rental_uris":{"android":"levelo://app?vid=68ba9eef-9e43-4ba1-b275-3396154f214e","ios":"levelo://app?vid=68ba9eef-9e43-4ba1-b275-3396154f214e"},"vehicle_type_id":"4","last_reported":1710450420,"current_range_meters":0,"station_id":"ce4bgi12rcd13ifvqb70","pricing_plan_id":"cebpf4jnsgd1na2vs0mg"},{"bike_id":"323d9ea9-8b8d-4bbf-a8fb-8a79f070d062","system_id":"levelo_inurba_marseille","lat":43.29298,"lon":5.37446,"is_reserved":false,"is_disabled":false,"rental_uris":{"android":"levelo://app?vid=323d9ea9-8b8d-4bbf-a8fb-8a79f070d062","ios":"levelo://app?vid=323d9ea9-8b8d-4bbf-a8fb-8a79f070d062"},"vehicle_type_id":"4","last_reported":1710450420,"current_range_meters":0,"station_id":"ce4bgi12rcd13ifvqb70","pricing_plan_id":"cebpf4jnsgd1na2vs0mg"},{"bike_id":"07c5cb01-9a3d-47bb-9c5f-cc4826bc532b","system_id":"levelo_inurba_marseille","lat":43.305994,"lon":5.393687,"is_reserved":false,"is_disabled":false,"rental_uris":{"android":"levelo://app?vid=07c5cb01-9a3d-47bb-9c5f-cc4826bc532b","ios":"levelo://app?vid=07c5cb01-9a3d-47bb-9c5f-cc4826bc532b"},"vehicle_type_id":"4","last_reported":1710450420,"current_range_meters":0,"station_id":"ce4bh0p2rcd13ifvqd80","pricing_plan_id":"cebpf4jnsgd1na2vs0mg"},{"bike_id":"6249502e-f05e-4ff5-af53-d338ff0db582","system_id":"levelo_inurba_marseille","lat":43.305994,"lon":5.393687,"is_reserved":false,"is_disabled":false,"rental_uris":{"android":"levelo://app?vid=6249502e-f05e-4ff5-af53-d338ff0db582","ios":"levelo://app?vid=6249502e-f05e-4ff5-af53-d338ff0db582"},"vehicle_type_id":"4","last_reported":1710450420,"current_range_meters":22000,"station_id":"ce4bh0p2rcd13ifvqd80","pricing_plan_id":"cebpf4jnsgd1na2vs0mg"},{"bike_id":"2f014963-980f-4345-bb65-979fa3c0f6d9","system_id":"levelo_inurba_marseille","lat":43.30601,"lon":5.39364,"is_reserved":false,"is_disabled":false,"rental_uris":{"android":"levelo://app?vid=2f014963-980f-4345-bb65-979fa3c0f6d9","ios":"levelo://app?vid=2f014963-980f-4345-bb65-979fa3c0f6d9"},"vehicle_type_id":"4","last_reported":1710450420,"current_range_meters":0,"station_id":"ce4bh0p2rcd13ifvqd80","pricing_plan_id":"cebpf4jnsgd1na2vs0mg"},{"bike_id":"c2b6df0e-0cb9-4cc1-b753-043455729eac","system_id":"levelo_inurba_marseille","lat":43.305994,"lon":5.393687,"is_reserved":false,"is_disabled":false,"rental_uris":{"android":"levelo://app?vid=c2b6df0e-0cb9-4cc1-b753-043455729eac","ios":"levelo://app?vid=c2b6df0e-0cb9-4cc1-b753-043455729eac"},"vehicle_type_id":"4","last_reported":1710450420,"current_range_meters":0,"station_id":"ce4bh0p2rcd13ifvqd80","pricing_plan_id":"cebpf4jnsgd1na2vs0mg"},{"bike_id":"eba0ec8e-1208-428a-aa81-5941ff893f33","system_id":"levelo_inurba_marseille","lat":43.303002,"lon":5.392142,"is_reserved":false,"is_disabled":false,"rental_uris":{"android":"levelo://app?vid=eba0ec8e-1208-428a-aa81-5941ff893f33","ios":"levelo://app?vid=eba0ec8e-1208-428a-aa81-5941ff893f33"},"vehicle_type_id":"4","last_reported":1710450420,"current_range_meters":1600,"station_id":"ce4bgkh2rcd13ifvqbk0","pricing_plan_id":"cebpf4jnsgd1na2vs0mg"},{"bike_id":"a233bdd8-97b3-44cf-8f1a-7ed3306f1b42","system_id":"levelo_inurba_marseille","lat":43.302992,"lon":5.392136,"is_reserved":false,"is_disabled":false,"rental_uris":{"android":"levelo://app?vid=a233bdd8-97b3-44cf-8f1a-7ed3306f1b42","ios":"levelo://app?vid=a233bdd8-97b3-44cf-8f1a-7ed3306f1b42"},"vehicle_type_id":"4","last_reported":1710450420,"current_range_meters":18800,"station_id":"ce4bgkh2rcd13ifvqbk0","pricing_plan_id":"cebpf4jnsgd1na2vs0mg"},{"bike_id":"1f0861d2-3354-4fca-bf58-1b5017c9cee4","system_id":"levelo_inurba_marseille","lat":43.300852,"lon":5.390859,"is_reserved":false,"is_disabled":false,"rental_uris":{"android":"levelo://app?vid=1f0861d2-3354-4fca-bf58-1b5017c9cee4","ios":"levelo://app?vid=1f0861d2-3354-4fca-bf58-1b5017c9cee4"},"vehicle_type_id":"4","last_reported":1710450420,"current_range_meters":4800,"station_id":"ce4bh192rcd13ifvqdb0","pricing_plan_id":"cebpf4jnsgd1na2vs0mg"},{"bike_id":"80751eea-f015-454c-bc07-eea4dd31ceb5","system_id":"levelo_inurba_marseille","lat":43.300852,"lon":5.390859,"is_reserved":false,"is_disabled":false,"rental_uris":{"android":"levelo://app?vid=80751eea-f015-454c-bc07-eea4dd31ceb5","ios":"levelo://app?vid=80751eea-f015-454c-bc07-eea4dd31ceb5"},"vehicle_type_id":"4","last_reported":1710450420,"current_range_meters":3600,"station_id":"ce4bh192rcd13ifvqdb0","pricing_plan_id":"cebpf4jnsgd1na2vs0mg"},{"bike_id":"1c961793-730a-496d-97f9-2e84449cbb93","system_id":"levelo_inurba_marseille","lat":43.300852,"lon":5.390859,"is_reserved":false,"is_disabled":false,"rental_uris":{"android":"levelo://app?vid=1c961793-730a-496d-97f9-2e84449cbb93","ios":"levelo://app?vid=1c961793-730a-496d-97f9-2e84449cbb93"},"vehicle_type_id":"4","last_reported":1710450420,"current_range_meters":27600,"station_id":"ce4bh192rcd13ifvqdb0","pricing_plan_id":"cebpf4jnsgd1na2vs0mg"},{"bike_id":"ef7f18df-dc83-4933-9345-93033ed750e5","system_id":"levelo_inurba_marseille","lat":43.298764,"lon":5.388973,"is_reserved":false,"is_disabled":false,"rental_uris":{"android":"levelo://app?vid=ef7f18df-dc83-4933-9345-93033ed750e5","ios":"levelo://app?vid=ef7f18df-dc83-4933-9345-93033ed750e5"},"vehicle_type_id":"4","last_reported":1710450420,"current_range_meters":18800,"station_id":"ce4bh392rcd13ifvqdl0","pricing_plan_id":"cebpf4jnsgd1na2vs0mg"},{"bike_id":"eb3abf20-8aac-4a86-986b-66353b10ad03","system_id":"levelo_inurba_marseille","lat":43.293009,"lon":5.374584,"is_reserved":false,"is_disabled":false,"rental_uris":{"android":"levelo://app?vid=eb3abf20-8aac-4a86-986b-66353b10ad03","ios":"levelo://app?vid=eb3abf20-8aac-4a86-986b-66353b10ad03"},"vehicle_type_id":"4","last_reported":1710450420,"current_range_meters":0,"station_id":"ce4bgi12rcd13ifvqb70","pricing_plan_id":"cebpf4jnsgd1na2vs0mg"},{"bike_id":"ac98ed1e-9e41-440d-abe8-a8a2b34b19ae","system_id":"levelo_inurba_marseille","lat":43.293009,"lon":5.374584,"is_reserved":false,"is_disabled":false,"rental_uris":{"android":"levelo://app?vid=ac98ed1e-9e41-440d-abe8-a8a2b34b19ae","ios":"levelo://app?vid=ac98ed1e-9e41-440d-abe8-a8a2b34b19ae"},"vehicle_type_id":"4","last_reported":1710450420,"current_range_meters":22000,"station_id":"ce4bgi12rcd13ifvqb70","pricing_plan_id":"cebpf4jnsgd1na2vs0mg"},{"bike_id":"f6d5133e-7c4a-4a4e-9b36-f20776666401","system_id":"levelo_inurba_marseille","lat":43.293009,"lon":5.374584,"is_reserved":false,"is_disabled":false,"rental_uris":{"android":"levelo://app?vid=f6d5133e-7c4a-4a4e-9b36-f20776666401","ios":"levelo://app?vid=f6d5133e-7c4a-4a4e-9b36-f20776666401"},"vehicle_type_id":"4","last_reported":1710450420,"current_range_meters":18400,"station_id":"ce4bgi12rcd13ifvqb70","pricing_plan_id":"cebpf4jnsgd1na2vs0mg"},{"bike_id":"96066bfb-d75a-4b13-8a2e-dc9796e5e970","system_id":"levelo_inurba_marseille","lat":43.298764,"lon":5.388973,"is_reserved":false,"is_disabled":false,"rental_uris":{"android":"levelo://app?vid=96066bfb-d75a-4b13-8a2e-dc9796e5e970","ios":"levelo://app?vid=96066bfb-d75a-4b13-8a2e-dc9796e5e970"},"vehicle_type_id":"4","last_reported":1710450420,"current_range_meters":0,"station_id":"ce4bh392rcd13ifvqdl0","pricing_plan_id":"cebpf4jnsgd1na2vs0mg"},{"bike_id":"88badb49-9c78-41b1-b017-ff00324a3c9c","system_id":"levelo_inurba_marseille","lat":43.298764,"lon":5.388973,"is_reserved":false,"is_disabled":false,"rental_uris":{"android":"levelo://app?vid=88badb49-9c78-41b1-b017-ff00324a3c9c","ios":"levelo://app?vid=88badb49-9c78-41b1-b017-ff00324a3c9c"},"vehicle_type_id":"4","last_reported":1710450420,"current_range_meters":0,"station_id":"ce4bh392rcd13ifvqdl0","pricing_plan_id":"cebpf4jnsgd1na2vs0mg"},{"bike_id":"493ddbd2-ba47-480c-8d52-00fa9e021238","system_id":"levelo_inurba_marseille","lat":43.298764,"lon":5.388973,"is_reserved":false,"is_disabled":false,"rental_uris":{"android":"levelo://app?vid=493ddbd2-ba47-480c-8d52-00fa9e021238","ios":"levelo://app?vid=493ddbd2-ba47-480c-8d52-00fa9e021238"},"vehicle_type_id":"4","last_reported":1710450420,"current_range_meters":21200,"station_id":"ce4bh392rcd13ifvqdl0","pricing_plan_id":"cebpf4jnsgd1na2vs0mg"},{"bike_id":"9a595b4b-d973-4723-8eca-83a661539d1e","system_id":"levelo_inurba_marseille","lat":43.298764,"lon":5.388973,"is_reserved":false,"is_disabled":false,"rental_uris":{"android":"levelo://app?vid=9a595b4b-d973-4723-8eca-83a661539d1e","ios":"levelo://app?vid=9a595b4b-d973-4723-8eca-83a661539d1e"},"vehicle_type_id":"4","last_reported":1710450420,"current_range_meters":400,"station_id":"ce4bh392rcd13ifvqdl0","pricing_plan_id":"cebpf4jnsgd1na2vs0mg"},{"bike_id":"491ad291-34eb-4eb9-a010-cf7e100ef356","system_id":"levelo_inurba_marseille","lat":43.298764,"lon":5.388973,"is_reserved":false,"is_disabled":false,"rental_uris":{"android":"levelo://app?vid=491ad291-34eb-4eb9-a010-cf7e100ef356","ios":"levelo://app?vid=491ad291-34eb-4eb9-a010-cf7e100ef356"},"vehicle_type_id":"4","last_reported":1710450420,"current_range_meters":26000,"station_id":"ce4bh392rcd13ifvqdl0","pricing_plan_id":"cebpf4jnsgd1na2vs0mg"},{"bike_id":"bd453dd1-1a0f-45e7-9f92-3cb351ccc21e","system_id":"levelo_inurba_marseille","lat":43.298764,"lon":5.388973,"is_reserved":false,"is_disabled":false,"rental_uris":{"android":"levelo://app?vid=bd453dd1-1a0f-45e7-9f92-3cb351ccc21e","ios":"levelo://app?vid=bd453dd1-1a0f-45e7-9f92-3cb351ccc21e"},"vehicle_type_id":"4","last_reported":1710450420,"current_range_meters":26800,"station_id":"ce4bh392rcd13ifvqdl0","pricing_plan_id":"cebpf4jnsgd1na2vs0mg"},{"bike_id":"03fc5ac0-fe0a-44a3-94d1-058fdd0f2550","system_id":"levelo_inurba_marseille","lat":43.309038,"lon":5.396546,"is_reserved":false,"is_disabled":false,"rental_uris":{"android":"levelo://app?vid=03fc5ac0-fe0a-44a3-94d1-058fdd0f2550","ios":"levelo://app?vid=03fc5ac0-fe0a-44a3-94d1-058fdd0f2550"},"vehicle_type_id":"4","last_reported":1710450420,"current_range_meters":1600,"station_id":"ce4bh012rcd13ifvqcv0","pricing_plan_id":"cebpf4jnsgd1na2vs0mg"},{"bike_id":"3d296902-468f-47a0-b88c-6158feec7dd1","system_id":"levelo_inurba_marseille","lat":43.309038,"lon":5.396546,"is_reserved":false,"is_disabled":false,"rental_uris":{"android":"levelo://app?vid=3d296902-468f-47a0-b88c-6158feec7dd1","ios":"levelo://app?vid=3d296902-468f-47a0-b88c-6158feec7dd1"},"vehicle_type_id":"4","last_reported":1710450420,"current_range_meters":0,"station_id":"ce4bh012rcd13ifvqcv0","pricing_plan_id":"cebpf4jnsgd1na2vs0mg"},{"bike_id":"d8dacd5f-a9f2-4daf-9ff2-46eb60090618","system_id":"levelo_inurba_marseille","lat":43.309047,"lon":5.396551,"is_reserved":false,"is_disabled":false,"rental_uris":{"android":"levelo://app?vid=d8dacd5f-a9f2-4daf-9ff2-46eb60090618","ios":"levelo://app?vid=d8dacd5f-a9f2-4daf-9ff2-46eb60090618"},"vehicle_type_id":"4","last_reported":1710450420,"current_range_meters":6400,"station_id":"ce4bh012rcd13ifvqcv0","pricing_plan_id":"cebpf4jnsgd1na2vs0mg"},{"bike_id":"82476a8e-ee94-4d95-a331-e56ab4f4e389","system_id":"levelo_inurba_marseille","lat":43.313291,"lon":5.396838,"is_reserved":false,"is_disabled":false,"rental_uris":{"android":"levelo://app?vid=82476a8e-ee94-4d95-a331-e56ab4f4e389","ios":"levelo://app?vid=82476a8e-ee94-4d95-a331-e56ab4f4e389"},"vehicle_type_id":"4","last_reported":1710450420,"current_range_meters":5200,"station_id":"ce4bgvp2rcd13ifvqcu0","pricing_plan_id":"cebpf4jnsgd1na2vs0mg"},{"bike_id":"e388d901-2852-41e6-b216-4f234c7ee5ea","system_id":"levelo_inurba_marseille","lat":43.313291,"lon":5.396838,"is_reserved":false,"is_disabled":false,"rental_uris":{"android":"levelo://app?vid=e388d901-2852-41e6-b216-4f234c7ee5ea","ios":"levelo://app?vid=e388d901-2852-41e6-b216-4f234c7ee5ea"},"vehicle_type_id":"4","last_reported":1710450420,"current_range_meters":10800,"station_id":"ce4bgvp2rcd13ifvqcu0","pricing_plan_id":"cebpf4jnsgd1na2vs0mg"},{"bike_id":"e7391e7e-f977-44b3-b096-59ae17f95952","system_id":"levelo_inurba_marseille","lat":43.31326,"lon":5.39702,"is_reserved":false,"is_disabled":false,"rental_uris":{"android":"levelo://app?vid=e7391e7e-f977-44b3-b096-59ae17f95952","ios":"levelo://app?vid=e7391e7e-f977-44b3-b096-59ae17f95952"},"vehicle_type_id":"4","last_reported":1710450420,"current_range_meters":2000,"station_id":"ce4bgvp2rcd13ifvqcu0","pricing_plan_id":"cebpf4jnsgd1na2vs0mg"},{"bike_id":"adcba412-7584-41cf-9972-3136e26df5e9","system_id":"levelo_inurba_marseille","lat":43.309047,"lon":5.396551,"is_reserved":false,"is_disabled":false,"rental_uris":{"android":"levelo://app?vid=adcba412-7584-41cf-9972-3136e26df5e9","ios":"levelo://app?vid=adcba412-7584-41cf-9972-3136e26df5e9"},"vehicle_type_id":"4","last_reported":1710450420,"current_range_meters":12800,"station_id":"ce4bh012rcd13ifvqcv0","pricing_plan_id":"cebpf4jnsgd1na2vs0mg"},{"bike_id":"5ffd9884-85bb-422e-8b45-eb1fb241ca0b","system_id":"levelo_inurba_marseille","lat":43.313291,"lon":5.396838,"is_reserved":false,"is_disabled":false,"rental_uris":{"android":"levelo://app?vid=5ffd9884-85bb-422e-8b45-eb1fb241ca0b","ios":"levelo://app?vid=5ffd9884-85bb-422e-8b45-eb1fb241ca0b"},"vehicle_type_id":"4","last_reported":1710450420,"current_range_meters":5200,"station_id":"ce4bgvp2rcd13ifvqcu0","pricing_plan_id":"cebpf4jnsgd1na2vs0mg"},{"bike_id":"090e0022-48e5-4429-97d6-ca0db960a675","system_id":"levelo_inurba_marseille","lat":43.309047,"lon":5.396551,"is_reserved":false,"is_disabled":false,"rental_uris":{"android":"levelo://app?vid=090e0022-48e5-4429-97d6-ca0db960a675","ios":"levelo://app?vid=090e0022-48e5-4429-97d6-ca0db960a675"},"vehicle_type_id":"4","last_reported":1710450420,"current_range_meters":16400,"station_id":"ce4bh012rcd13ifvqcv0","pricing_plan_id":"cebpf4jnsgd1na2vs0mg"},{"bike_id":"689f91f6-b393-4210-ac4a-1a53ca342161","system_id":"levelo_inurba_marseille","lat":43.29529,"lon":5.385581,"is_reserved":false,"is_disabled":false,"rental_uris":{"android":"levelo://app?vid=689f91f6-b393-4210-ac4a-1a53ca342161","ios":"levelo://app?vid=689f91f6-b393-4210-ac4a-1a53ca342161"},"vehicle_type_id":"4","last_reported":1710450420,"current_range_meters":8400,"station_id":"ce4bgih2rcd13ifvqba0","pricing_plan_id":"cebpf4jnsgd1na2vs0mg"},{"bike_id":"8a0afa68-9f7c-447a-9d95-011eee9d3380","system_id":"levelo_inurba_marseille","lat":43.29529,"lon":5.385581,"is_reserved":false,"is_disabled":false,"rental_uris":{"android":"levelo://app?vid=8a0afa68-9f7c-447a-9d95-011eee9d3380","ios":"levelo://app?vid=8a0afa68-9f7c-447a-9d95-011eee9d3380"},"vehicle_type_id":"4","last_reported":1710450420,"current_range_meters":14400,"station_id":"ce4bgih2rcd13ifvqba0","pricing_plan_id":"cebpf4jnsgd1na2vs0mg"},{"bike_id":"692c0708-3f9f-4a05-87db-57ce50ef4639","system_id":"levelo_inurba_marseille","lat":43.29529,"lon":5.385581,"is_reserved":false,"is_disabled":false,"rental_uris":{"android":"levelo://app?vid=692c0708-3f9f-4a05-87db-57ce50ef4639","ios":"levelo://app?vid=692c0708-3f9f-4a05-87db-57ce50ef4639"},"vehicle_type_id":"4","last_reported":1710450420,"current_range_meters":14400,"station_id":"ce4bgih2rcd13ifvqba0","pricing_plan_id":"cebpf4jnsgd1na2vs0mg"},{"bike_id":"8ca941db-a422-43cd-812f-703d352b42f6","system_id":"levelo_inurba_marseille","lat":43.29529,"lon":5.385581,"is_reserved":false,"is_disabled":false,"rental_uris":{"android":"levelo://app?vid=8ca941db-a422-43cd-812f-703d352b42f6","ios":"levelo://app?vid=8ca941db-a422-43cd-812f-703d352b42f6"},"vehicle_type_id":"4","last_reported":1710450420,"current_range_meters":28000,"station_id":"ce4bgih2rcd13ifvqba0","pricing_plan_id":"cebpf4jnsgd1na2vs0mg"},{"bike_id":"ea30ccf0-2b26-4a94-892c-121a4fdcce8c","system_id":"levelo_inurba_marseille","lat":43.29536,"lon":5.38545,"is_reserved":false,"is_disabled":false,"rental_uris":{"android":"levelo://app?vid=ea30ccf0-2b26-4a94-892c-121a4fdcce8c","ios":"levelo://app?vid=ea30ccf0-2b26-4a94-892c-121a4fdcce8c"},"vehicle_type_id":"4","last_reported":1710450420,"current_range_meters":15200,"station_id":"ce4bgih2rcd13ifvqba0","pricing_plan_id":"cebpf4jnsgd1na2vs0mg"},{"bike_id":"bd553225-b577-46f1-b854-5409d7911425","system_id":"levelo_inurba_marseille","lat":43.29529,"lon":5.385581,"is_reserved":false,"is_disabled":false,"rental_uris":{"android":"levelo://app?vid=bd553225-b577-46f1-b854-5409d7911425","ios":"levelo://app?vid=bd553225-b577-46f1-b854-5409d7911425"},"vehicle_type_id":"4","last_reported":1710450420,"current_range_meters":28400,"station_id":"ce4bgih2rcd13ifvqba0","pricing_plan_id":"cebpf4jnsgd1na2vs0mg"},{"bike_id":"3dd8c431-18fa-4458-8467-597e7b3ac74e","system_id":"levelo_inurba_marseille","lat":43.29529,"lon":5.385581,"is_reserved":false,"is_disabled":false,"rental_uris":{"android":"levelo://app?vid=3dd8c431-18fa-4458-8467-597e7b3ac74e","ios":"levelo://app?vid=3dd8c431-18fa-4458-8467-597e7b3ac74e"},"vehicle_type_id":"4","last_reported":1710450420,"current_range_meters":27600,"station_id":"ce4bgih2rcd13ifvqba0","pricing_plan_id":"cebpf4jnsgd1na2vs0mg"},{"bike_id":"d494a7ae-8bed-4a7f-aa23-a5c5deb4d0ef","system_id":"levelo_inurba_marseille","lat":43.29529,"lon":5.385581,"is_reserved":false,"is_disabled":false,"rental_uris":{"android":"levelo://app?vid=d494a7ae-8bed-4a7f-aa23-a5c5deb4d0ef","ios":"levelo://app?vid=d494a7ae-8bed-4a7f-aa23-a5c5deb4d0ef"},"vehicle_type_id":"4","last_reported":1710450420,"current_range_meters":8800,"station_id":"ce4bgih2rcd13ifvqba0","pricing_plan_id":"cebpf4jnsgd1na2vs0mg"},{"bike_id":"b5f8b61b-52c3-4cef-977d-6a8eb00a865b","system_id":"levelo_inurba_marseille","lat":43.29532,"lon":5.38541,"is_reserved":false,"is_disabled":false,"rental_uris":{"android":"levelo://app?vid=b5f8b61b-52c3-4cef-977d-6a8eb00a865b","ios":"levelo://app?vid=b5f8b61b-52c3-4cef-977d-6a8eb00a865b"},"vehicle_type_id":"4","last_reported":1710450420,"current_range_meters":0,"station_id":"ce4bgih2rcd13ifvqba0","pricing_plan_id":"cebpf4jnsgd1na2vs0mg"},{"bike_id":"9c2c92da-2a2c-4146-a3a2-1ef7d4ea0adf","system_id":"levelo_inurba_marseille","lat":43.29529,"lon":5.385581,"is_reserved":false,"is_disabled":false,"rental_uris":{"android":"levelo://app?vid=9c2c92da-2a2c-4146-a3a2-1ef7d4ea0adf","ios":"levelo://app?vid=9c2c92da-2a2c-4146-a3a2-1ef7d4ea0adf"},"vehicle_type_id":"4","last_reported":1710450420,"current_range_meters":16800,"station_id":"ce4bgih2rcd13ifvqba0","pricing_plan_id":"cebpf4jnsgd1na2vs0mg"},{"bike_id":"85832c41-c472-4b59-afee-ca258671364c","system_id":"levelo_inurba_marseille","lat":43.29535,"lon":5.3855,"is_reserved":false,"is_disabled":false,"rental_uris":{"android":"levelo://app?vid=85832c41-c472-4b59-afee-ca258671364c","ios":"levelo://app?vid=85832c41-c472-4b59-afee-ca258671364c"},"vehicle_type_id":"4","last_reported":1710450420,"current_range_meters":7600,"station_id":"ce4bgih2rcd13ifvqba0","pricing_plan_id":"cebpf4jnsgd1na2vs0mg"},{"bike_id":"90fc27fc-431c-422e-ada7-146cc599d30e","system_id":"levelo_inurba_marseille","lat":43.29534,"lon":5.38549,"is_reserved":false,"is_disabled":false,"rental_uris":{"android":"levelo://app?vid=90fc27fc-431c-422e-ada7-146cc599d30e","ios":"levelo://app?vid=90fc27fc-431c-422e-ada7-146cc599d30e"},"vehicle_type_id":"4","last_reported":1710450420,"current_range_meters":18400,"station_id":"ce4bgih2rcd13ifvqba0","pricing_plan_id":"cebpf4jnsgd1na2vs0mg"},{"bike_id":"f280a478-4c15-42c6-87dd-d39703351768","system_id":"levelo_inurba_marseille","lat":43.29533,"lon":5.38549,"is_reserved":false,"is_disabled":false,"rental_uris":{"android":"levelo://app?vid=f280a478-4c15-42c6-87dd-d39703351768","ios":"levelo://app?vid=f280a478-4c15-42c6-87dd-d39703351768"},"vehicle_type_id":"4","last_reported":1710450420,"current_range_meters":21200,"station_id":"ce4bgih2rcd13ifvqba0","pricing_plan_id":"cebpf4jnsgd1na2vs0mg"},