{"last_updated":1770732907,"ttl":60,"version":"2.2","data":{"bikes":[{"bike_id":"7c5e26ac-7a55-432d-b0e5-b44a76b97e79","system_id":"levelo_inurba_marseille","lat":43.30951,"lon":5.39042,"is_reserved":false,"is_disabled":false,"rental_uris":{"android":"levelo://app?vid=7c5e26ac-7a55-432d-b0e5-b44a76b97e79","ios":"levelo://app?vid=7c5e26ac-7a55-432d-b0e5-b44a76b97e79"},"vehicle_type_id":"4","last_reported":1770732908,"current_range_meters":2800,"station_id":"ce4bgup2rcd13ifvqco0","pricing_plan_id":"cebpf4jnsgd1na2vs0mg"},{"bike_id":"2083b79e-9a9c-46b9-912e-fdc1d748c8c7","system_id":"levelo_inurba_marseille","lat":43.29711,"lon":5.36617,"is_reserved":false,"is_disabled":false,"rental_uris":{"android":"levelo://app?vid=2083b79e-9a9c-46b9-912e-fdc1d748c8c7","ios":"levelo://app?vid=2083b79e-9a9c-46b9-912e-fdc1d748c8c7"},"vehicle_type_id":"4","last_reported":1770732908,"current_range_meters":2800,"station_id":"ce4bgn12rcd13ifvqbt0","pricing_plan_id":"cebpf4jnsgd1na2vs0mg"},{"bike_id":"ed3468ce-5968-4814-84f3-d1e6d068c43f","system_id":"levelo_inurba_marseille","lat":43.286687,"lon":5.386573,"is_reserved":false,"is_disabled":false,"rental_uris":{"android":"levelo://app?vid=ed3468ce-5968-4814-84f3-d1e6d068c43f","ios":"levelo://app?vid=ed3468ce-5968-4814-84f3-d1e6d068c43f"},"vehicle_type_id":"4","last_reported":1770732908,"current_range_meters":2800,"station_id":"ce4bh492rcd13ifvqdug","pricing_plan_id":"cebpf4jnsgd1na2vs0mg"},{"bike_id":"6fb993dd-b659-4a10-8238-414c673f9428","system_id":"levelo_inurba_marseille","lat":43.31059,"lon":5.38356,"is_reserved":false,"is_disabled":false,"rental_uris":{"android":"levelo://app?vid=6fb993dd-b659-4a10-8238-414c673f9428","ios":"levelo://app?vid=6fb993dd-b659-4a10-8238-414c673f9428"},"vehicle_type_id":"4","last_reported":1770732908,"current_range_meters":2800,"station_id":"ce4bgv92rcd13ifvqcr0","pricing_plan_id":"cebpf4jnsgd1na2vs0mg"},{"bike_id":"6e9da648-4518-4a3f-bb25-58200a56dbc5","system_id":"levelo_inurba_marseille","lat":43.25827,"lon":5.39426,"is_reserved":false,"is_disabled":false,"rental_uris":{"android":"levelo://app?vid=6e9da648-4518-4a3f-bb25-58200a56dbc5","ios":"levelo://app?vid=6e9da648-4518-4a3f-bb25-58200a56dbc5"},"vehicle_type_id":"4","last_reported":1770732908,"current_range_meters":2800,"station_id":"ce4bhip2rcd13ifvqft0","pricing_plan_id":"cebpf4jnsgd1na2vs0mg"},{"bike_id":"11362055-2532-43bc-accf-dec1dfa873dc","system_id":"levelo_inurba_marseille","lat":43.235136,"lon":5.410949,"is_reserved":false,"is_disabled":false,"rental_uris":{"android":"levelo://app?vid=11362055-2532-43bc-accf-dec1dfa873dc","ios":"levelo://app?vid=11362055-2532-43bc-accf-dec1dfa873dc"},"vehicle_type_id":"4","last_reported":1770732908,"current_range_meters":3200,"station_id":"","pricing_plan_id":"cebpf4jnsgd1na2vs0mg"},{"bike_id":"6051b31d-701e-49ad-8b8c-d5a67a21069c","system_id":"levelo_inurba_marseille","lat":43.28,"lon":5.39999,"is_reserved":false,"is_disabled":false,"rental_uris":{"android":"levelo://app?vid=6051b31d-701e-49ad-8b8c-d5a67a21069c","ios":"levelo://app?vid=6051b31d-701e-49ad-8b8c-d5a67a21069c"},"vehicle_type_id":"4","last_reported":1770732908,"current_range_meters":3200,"station_id":"ce4bho92rcd13ifvqh4g","pricing_plan_id":"cebpf4jnsgd1na2vs0mg"},{"bike_id":"014a9d68-80db-4769-8762-cb16afc7ba84","system_id":"levelo_inurba_marseille","lat":43.31275,"lon":5.36858,"is_reserved":false,"is_disabled":false,"rental_uris":{"android":"levelo://app?vid=014a9d68-80db-4769-8762-cb16afc7ba84","ios":"levelo://app?vid=014a9d68-80db-4769-8762-cb16afc7ba84"},"vehicle_type_id":"4","last_reported":1770732908,"current_range_meters":3200,"station_id":"","pricing_plan_id":"cebpf4jnsgd1na2vs0mg"},{"bike_id":"a57603aa-6951-4a71-b268-b1feb848b133","system_id":"levelo_inurba_marseille","lat":43.29544,"lon":5.39019,"is_reserved":false,"is_disabled":true,"rental_uris":{"android":"levelo://app?vid=a57603aa-6951-4a71-b268-b1feb848b133","ios":"levelo://app?vid=a57603aa-6951-4a71-b268-b1feb848b133"},"vehicle_type_id":"4","last_reported":1770732908,"current_range_meters":3200,"station_id":"ce4bh3p2rcd13ifvqdp0","pricing_plan_id":"cebpf4jnsgd1na2vs0mg"},{"bike_id":"777f1f50-9ccf-46db-a1bf-cfe765ca1373","system_id":"levelo_inurba_marseille","lat":43.26065,"lon":5.39419,"is_reserved":false,"is_disabled":false,"rental_uris":{"android":"levelo://app?vid=777f1f50-9ccf-46db-a1bf-cfe765ca1373","ios":"levelo://app?vid=777f1f50-9ccf-46db-a1bf-cfe765ca1373"},"vehicle_type_id":"4","last_reported":1770732908,"current_range_meters":3200,"station_id":"ce4bhh92rcd13ifvqfj0","pricing_plan_id":"cebpf4jnsgd1na2vs0mg"},{"bike_id":"efbec3a4-b5e6-495d-96e8-d2e5dd583d79","system_id":"levelo_inurba_marseille","lat":43.26958,"lon":5.38624,"is_reserved":false,"is_disabled":false,"rental_uris":{"android":"levelo://app?vid=efbec3a4-b5e6-495d-96e8-d2e5dd583d79","ios":"levelo://app?vid=efbec3a4-b5e6-495d-96e8-d2e5dd583d79"},"vehicle_type_id":"4","last_reported":1770732908,"current_range_meters":3200,"station_id":"ce4bhh92rcd13ifvqfh0","pricing_plan_id":"cebpf4jnsgd1na2vs0mg"},{"bike_id":"b0437b95-ba96-479d-b093-d1fdf30e7bf6","system_id":"levelo_inurba_marseille","lat":43.31437,"lon":5.40422,"is_reserved":false,"is_disabled":false,"rental_uris":{"android":"levelo://app?vid=b0437b95-ba96-479d-b093-d1fdf30e7bf6","ios":"levelo://app?vid=b0437b95-ba96-479d-b093-d1fdf30e7bf6"},"vehicle_type_id":"4","last_reported":1770732908,"current_range_meters":3200,"station_id":"","pricing_plan_id":"cebpf4jnsgd1na2vs0mg"},{"bike_id":"e43cbe13-67a5-40a1-8370-853fb6a5851b","system_id":"levelo_inurba_marseille","lat":43.31732,"lon":5.42385,"is_reserved":false,"is_disabled":false,"rental_uris":{"android":"levelo://app?vid=e43cbe13-67a5-40a1-8370-853fb6a5851b","ios":"levelo://app?vid=e43cbe13-67a5-40a1-8370-853fb6a5851b"},"vehicle_type_id":"4","last_reported":1770732908,"current_range_meters":3600,"station_id":"ce4bhp92rcd13ifvqhbg","pricing_plan_id":"cebpf4jnsgd1na2vs0mg"},{"bike_id":"e8bb3f15-b7c5-47d2-b9bc-e4535782c9ef","system_id":"levelo_inurba_marseille","lat":43.2558,"lon":5.38226,"is_reserved":false,"is_disabled":false,"rental_uris":{"android":"levelo://app?vid=e8bb3f15-b7c5-47d2-b9bc-e4535782c9ef","ios":"levelo://app?vid=e8bb3f15-b7c5-47d2-b9bc-e4535782c9ef"},"vehicle_type_id":"4","last_reported":1770732908,"current_range_meters":3600,"station_id":"ce4bhih2rcd13ifvqfs0","pricing_plan_id":"cebpf4jnsgd1na2vs0mg"},{"bike_id":"ad9d377e-ddb2-4cc8-be5c-fbf4ada5de5c","system_id":"levelo_inurba_marseille","lat":43.31353,"lon":5.36678,"is_reserved":false,"is_disabled":false,"rental_uris":{"android":"levelo://app?vid=ad9d377e-ddb2-4cc8-be5c-fbf4ada5de5c","ios":"levelo://app?vid=ad9d377e-ddb2-4cc8-be5c-fbf4ada5de5c"},"vehicle_type_id":"4","last_reported":1770732908,"current_range_meters":3600,"station_id":"ce4bgr92rcd13ifvqc6g","pricing_plan_id":"cebpf4jnsgd1na2vs0mg"},{"bike_id":"4ed74a89-631e-4f3d-9ffb-104dbcec7ce5","system_id":"levelo_inurba_marseille","lat":43.28002,"lon":5.40009,"is_reserved":false,"is_disabled":false,"rental_uris":{"android":"levelo://app?vid=4ed74a89-631e-4f3d-9ffb-104dbcec7ce5","ios":"levelo://app?vid=4ed74a89-631e-4f3d-9ffb-104dbcec7ce5"},"vehicle_type_id":"4","last_reported":1770732908,"current_range_meters":3600,"station_id":"ce4bho92rcd13ifvqh4g","pricing_plan_id":"cebpf4jnsgd1na2vs0mg"},{"bike_id":"7e01f57b-ade8-4cc3-81c3-76e88fac1321","system_id":"levelo_inurba_marseille","lat":43.28466,"lon":5.4839,"is_reserved":false,"is_disabled":false,"rental_uris":{"android":"levelo://app?vid=7e01f57b-ade8-4cc3-81c3-76e88fac1321","ios":"levelo://app?vid=7e01f57b-ade8-4cc3-81c3-76e88fac1321"},"vehicle_type_id":"4","last_reported":1770732908,"current_range_meters":3600,"station_id":"st_d3svhcjqgbts73a3dn0g","pricing_plan_id":"cebpf4jnsgd1na2vs0mg"},{"bike_id":"40ca09fe-7866-480e-ac60-f7b7f539bb36","system_id":"levelo_inurba_marseille","lat":43.23394,"lon":5.41238,"is_reserved":false,"is_disabled":false,"rental_uris":{"android":"levelo://app?vid=40ca09fe-7866-480e-ac60-f7b7f539bb36","ios":"levelo://app?vid=40ca09fe-7866-480e-ac60-f7b7f539bb36"},"vehicle_type_id":"4","last_reported":1770732908,"current_range_meters":3600,"station_id":"","pricing_plan_id":"cebpf4jnsgd1na2vs0mg"},{"bike_id":"1b1a105d-da6d-457a-9d35-05d602d24d78","system_id":"levelo_inurba_marseille","lat":43.23154,"lon":5.43706,"is_reserved":false,"is_disabled":false,"rental_uris":{"android":"levelo://app?vid=1b1a105d-da6d-457a-9d35-05d602d24d78","ios":"levelo://app?vid=1b1a105d-da6d-457a-9d35-05d602d24d78"},"vehicle_type_id":"4","last_reported":1770732908,"current_range_meters":4000,"station_id":"ce4bhmp2rcd13ifvqgog","pricing_plan_id":"cebpf4jnsgd1na2vs0mg"},{"bike_id":"6ee11a7a-bc33-49df-9cb2-56016579548a","system_id":"levelo_inurba_marseille","lat":43.32077,"lon":5.41525,"is_reserved":false,"is_disabled":false,"rental_uris":{"android":"levelo://app?vid=6ee11a7a-bc33-49df-9cb2-56016579548a","ios":"levelo://app?vid=6ee11a7a-bc33-49df-9cb2-56016579548a"},"vehicle_type_id":"4","last_reported":1770732908,"current_range_meters":4000,"station_id":"ce4bhq92rcd13ifvqhkg","pricing_plan_id":"cebpf4jnsgd1na2vs0mg"},{"bike_id":"0d435044-39b2-4402-857a-610b31675306","system_id":"levelo_inurba_marseille","lat":43.31081,"lon":5.374513,"is_reserved":false,"is_disabled":false,"rental_uris":{"android":"levelo://app?vid=0d435044-39b2-4402-857a-610b31675306","ios":"levelo://app?vid=0d435044-39b2-4402-857a-610b31675306"},"vehicle_type_id":"4","last_reported":1770732908,"current_range_meters":4000,"station_id":"","pricing_plan_id":"cebpf4jnsgd1na2vs0mg"},{"bike_id":"36ac8fb1-1e6b-4c04-8e8e-9441a471d5f6","system_id":"levelo_inurba_marseille","lat":43.284838,"lon":5.484038,"is_reserved":false,"is_disabled":false,"rental_uris":{"android":"levelo://app?vid=36ac8fb1-1e6b-4c04-8e8e-9441a471d5f6","ios":"levelo://app?vid=36ac8fb1-1e6b-4c04-8e8e-9441a471d5f6"},"vehicle_type_id":"4","last_reported":1770732908,"current_range_meters":4000,"station_id":"st_d3svhcjqgbts73a3dn0g","pricing_plan_id":"cebpf4jnsgd1na2vs0mg"},{"bike_id":"c0b6c3eb-4055-48c5-be4e-2f3633e2e95f","system_id":"levelo_inurba_marseille","lat":43.22558,"lon":5.41631,"is_reserved":false,"is_disabled":false,"rental_uris":{"android":"levelo://app?vid=c0b6c3eb-4055-48c5-be4e-2f3633e2e95f","ios":"levelo://app?vid=c0b6c3eb-4055-48c5-be4e-2f3633e2e95f"},"vehicle_type_id":"4","last_reported":1770732908,"current_range_meters":4000,"station_id":"st_d2o4gvlbi1j2169b742g","pricing_plan_id":"cebpf4jnsgd1na2vs0mg"},{"bike_id":"2deb45fa-cb82-48cc-9169-0ddc074570fe","system_id":"levelo_inurba_marseille","lat":43.3116,"lon":5.44681,"is_reserved":false,"is_disabled":false,"rental_uris":{"android":"levelo://app?vid=2deb45fa-cb82-48cc-9169-0ddc074570fe","ios":"levelo://app?vid=2deb45fa-cb82-48cc-9169-0ddc074570fe"},"vehicle_type_id":"4","last_reported":1770732908,"current_range_meters":4000,"station_id":"","pricing_plan_id":"cebpf4jnsgd1na2vs0mg"},{"bike_id":"bd8621cf-98ff-4bc0-a863-253f6e65885a","system_id":"levelo_inurba_marseille","lat":43.29405,"lon":5.41198,"is_reserved":false,"is_disabled":false,"rental_uris":{"android":"levelo://app?vid=bd8621cf-98ff-4bc0-a863-253f6e65885a","ios":"levelo://app?vid=bd8621cf-98ff-4bc0-a863-253f6e65885a"},"vehicle_type_id":"4","last_reported":1770732908,"current_range_meters":4000,"station_id":"","pricing_plan_id":"cebpf4jnsgd1na2vs0mg"},{"bike_id":"6e13e3c5-3269-4fe3-a85e-c250740ae7c8","system_id":"levelo_inurba_marseille","lat":43.28517,"lon":5.44106,"is_reserved":false,"is_disabled":true,"rental_uris":{"android":"levelo://app?vid=6e13e3c5-3269-4fe3-a85e-c250740ae7c8","ios":"levelo://app?vid=6e13e3c5-3269-4fe3-a85e-c250740ae7c8"},"vehicle_type_id":"4","last_reported":1770732908,"current_range_meters":4000,"station_id":"","pricing_plan_id":"cebpf4jnsgd1na2vs0mg"},{"bike_id":"54bd52e6-912c-41e4-90a6-85e5c05a7d3d","system_id":"levelo_inurba_marseille","lat":43.22569,"lon":5.41614,"is_reserved":false,"is_disabled":false,"rental_uris":{"android":"levelo://app?vid=54bd52e6-912c-41e4-90a6-85e5c05a7d3d","ios":"levelo://app?vid=54bd52e6-912c-41e4-90a6-85e5c05a7d3d"},"vehicle_type_id":"4","last_reported":1770732908,"current_range_meters":4400,"station_id":"st_d2o4gvlbi1j2169b742g","pricing_plan_id":"cebpf4jnsgd1na2vs0mg"},{"bike_id":"85dd1ff3-48fb-473b-a6b8-2f438c995677","system_id":"levelo_inurba_marseille","lat":43.29897,"lon":5.43655,"is_reserved":false,"is_disabled":false,"rental_uris":{"android":"levelo://app?vid=85dd1ff3-48fb-473b-a6b8-2f438c995677","ios":"levelo://app?vid=85dd1ff3-48fb-473b-a6b8-2f438c995677"},"vehicle_type_id":"4","last_reported":1770732908,"current_range_meters":4400,"station_id":"ce4bhpp2rcd13ifvqhfg","pricing_plan_id":"cebpf4jnsgd1na2vs0mg"},{"bike_id":"abc82ae7-1fb1-4138-a05d-1f73df2b858f","system_id":"levelo_inurba_marseille","lat":43.317161,"lon":5.37783,"is_reserved":false,"is_disabled":false,"rental_uris":{"android":"levelo://app?vid=abc82ae7-1fb1-4138-a05d-1f73df2b858f","ios":"levelo://app?vid=abc82ae7-1fb1-4138-a05d-1f73df2b858f"},"vehicle_type_id":"4","last_reported":1770732908,"current_range_meters":4400,"station_id":"ce4bgth2rcd13ifvqch0","pricing_plan_id":"cebpf4jnsgd1na2vs0mg"},{"bike_id":"91fdd7ab-d339-4963-8616-9757378509a7","system_id":"levelo_inurba_marseille","lat":43.28605,"lon":5.37069,"is_reserved":false,"is_disabled":false,"rental_uris":{"android":"levelo://app?vid=91fdd7ab-d339-4963-8616-9757378509a7","ios":"levelo://app?vid=91fdd7ab-d339-4963-8616-9757378509a7"},"vehicle_type_id":"4","last_reported":1770732908,"current_range_meters":4400,"station_id":"ce4bht12rcd13ifvqi60","pricing_plan_id":"cebpf4jnsgd1na2vs0mg"},{"bike_id":"6d22b095-ac89-44fb-a85d-e5f85c2365e2","system_id":"levelo_inurba_marseille","lat":43.32107,"lon":5.36782,"is_reserved":false,"is_disabled":false,"rental_uris":{"android":"levelo://app?vid=6d22b095-ac89-44fb-a85d-e5f85c2365e2","ios":"levelo://app?vid=6d22b095-ac89-44fb-a85d-e5f85c2365e2"},"vehicle_type_id":"4","last_reported":1770732908,"current_range_meters":4800,"station_id":"ce4bhrh2rcd13ifvqhug","pricing_plan_id":"cebpf4jnsgd1na2vs0mg"},{"bike_id":"665d0f65-cb36-4795-b8d3-4aa008784311","system_id":"levelo_inurba_marseille","lat":43.24074,"lon":5.37751,"is_reserved":false,"is_disabled":false,"rental_uris":{"android":"levelo://app?vid=665d0f65-cb36-4795-b8d3-4aa008784311","ios":"levelo://app?vid=665d0f65-cb36-4795-b8d3-4aa008784311"},"vehicle_type_id":"4","last_reported":1770732908,"current_range_meters":4800,"station_id":"ce4bhnp2rcd13ifvqgvg","pricing_plan_id":"cebpf4jnsgd1na2vs0mg"},{"bike_id":"63c2345c-7dd6-42f7-bbd7-d442d5f09727","system_id":"levelo_inurba_marseille","lat":43.28561,"lon":5.38376,"is_reserved":false,"is_disabled":false,"rental_uris":{"android":"levelo://app?vid=63c2345c-7dd6-42f7-bbd7-d442d5f09727","ios":"levelo://app?vid=63c2345c-7dd6-42f7-bbd7-d442d5f09727"},"vehicle_type_id":"4","last_reported":1770732908,"current_range_meters":4800,"station_id":"","pricing_plan_id":"cebpf4jnsgd1na2vs0mg"},{"bike_id":"75523808-750b-4e61-8d1e-07a1b0b86673","system_id":"levelo_inurba_marseille","lat":43.23153,"lon":5.43711,"is_reserved":false,"is_disabled":false,"rental_uris":{"android":"levelo://app?vid=75523808-750b-4e61-8d1e-07a1b0b86673","ios":"levelo://app?vid=75523808-750b-4e61-8d1e-07a1b0b86673"},"vehicle_type_id":"4","last_reported":1770732908,"current_range_meters":4800,"station_id":"ce4bhmp2rcd13ifvqgog","pricing_plan_id":"cebpf4jnsgd1na2vs0mg"},{"bike_id":"d917330e-8029-461a-95c3-ed551a62a88f","system_id":"levelo_inurba_marseille","lat":43.2256,"lon":5.41633,"is_reserved":false,"is_disabled":false,"rental_uris":{"android":"levelo://app?vid=d917330e-8029-461a-95c3-ed551a62a88f","ios":"levelo://app?vid=d917330e-8029-461a-95c3-ed551a62a88f"},"vehicle_type_id":"4","last_reported":1770732908,"current_range_meters":4800,"station_id":"st_d2o4gvlbi1j2169b742g","pricing_plan_id":"cebpf4jnsgd1na2vs0mg"},{"bike_id":"1fa76a45-f289-437d-94cc-e8c22daeef5f","system_id":"levelo_inurba_marseille","lat":43.28867,"lon":5.42528,"is_reserved":false,"is_disabled":false,"rental_uris":{"android":"levelo://app?vid=1fa76a45-f289-437d-94cc-e8c22daeef5f","ios":"levelo://app?vid=1fa76a45-f289-437d-94cc-e8c22daeef5f"},"vehicle_type_id":"4","last_reported":1770732908,"current_range_meters":4800,"station_id":"st_d3b462108ojc7389ooeg","pricing_plan_id":"cebpf4jnsgd1na2vs0mg"},{"bike_id":"f3e46697-0ee1-4d79-9a0a-2be5570e56e9","system_id":"levelo_inurba_marseille","lat":43.28943,"lon":5.36639,"is_reserved":false,"is_disabled":false,"rental_uris":{"android":"levelo://app?vid=f3e46697-0ee1-4d79-9a0a-2be5570e56e9","ios":"levelo://app?vid=f3e46697-0ee1-4d79-9a0a-2be5570e56e9"},"vehicle_type_id":"4","last_reported":1770732908,"current_range_meters":4800,"station_id":"ce4bhap2rcd13ifvqek0","pricing_plan_id":"cebpf4jnsgd1na2vs0mg"},{"bike_id":"3f7e55f6-2088-40ae-b4f8-703efb79b7e4","system_id":"levelo_inurba_marseille","lat":43.28408,"lon":5.39211,"is_reserved":false,"is_disabled":false,"rental_uris":{"android":"levelo://app?vid=3f7e55f6-2088-40ae-b4f8-703efb79b7e4","ios":"levelo://app?vid=3f7e55f6-2088-40ae-b4f8-703efb79b7e4"},"vehicle_type_id":"4","last_reported":1770732908,"current_range_meters":4800,"station_id":"ce4bhoh2rcd13ifvqh5g","pricing_plan_id":"cebpf4jnsgd1na2vs0mg"},{"bike_id":"7f6ef8fc-1579-4912-b00d-edf7547220b9","system_id":"levelo_inurba_marseille","lat":43.27095,"lon":5.42266,"is_reserved":false,"is_disabled":false,"rental_uris":{"android":"levelo://app?vid=7f6ef8fc-1579-4912-b00d-edf7547220b9","ios":"levelo://app?vid=7f6ef8fc-1579-4912-b00d-edf7547220b9"},"vehicle_type_id":"4","last_reported":1770732908,"current_range_meters":5600,"station_id":"ce4bhk92rcd13ifvqgb0","pricing_plan_id":"cebpf4jnsgd1na2vs0mg"},{"bike_id":"fe6f8294-65ba-45f1-a4f6-c1ee0f12ef18","system_id":"levelo_inurba_marseille","lat":43.22566,"lon":5.41662,"is_reserved":false,"is_disabled":false,"rental_uris":{"android":"levelo://app?vid=fe6f8294-65ba-45f1-a4f6-c1ee0f12ef18","ios":"levelo://app?vid=fe6f8294-65ba-45f1-a4f6-c1ee0f12ef18"},"vehicle_type_id":"4","last_reported":1770732908,"current_range_meters":5600,"station_id":"st_d2o4gvlbi1j2169b742g","pricing_plan_id":"cebpf4jnsgd1na2vs0mg"},{"bike_id":"8f91f29e-0897-43d8-a3cf-8b8240b92337","system_id":"levelo_inurba_marseille","lat":43.298966,"lon":5.436611,"is_reserved":false,"is_disabled":false,"rental_uris":{"android":"levelo://app?vid=8f91f29e-0897-43d8-a3cf-8b8240b92337","ios":"levelo://app?vid=8f91f29e-0897-43d8-a3cf-8b8240b92337"},"vehicle_type_id":"4","last_reported":1770732908,"current_range_meters":5600,"station_id":"ce4bhpp2rcd13ifvqhfg","pricing_plan_id":"cebpf4jnsgd1na2vs0mg"},{"bike_id":"b6ef09ed-d357-4465-bd2f-ee587e4263cc","system_id":"levelo_inurba_marseille","lat":43.28461,"lon":5.40987,"is_reserved":false,"is_disabled":false,"rental_uris":{"android":"levelo://app?vid=b6ef09ed-d357-4465-bd2f-ee587e4263cc","ios":"levelo://app?vid=b6ef09ed-d357-4465-bd2f-ee587e4263cc"},"vehicle_type_id":"4","last_reported":1770732908,"current_range_meters":5600,"station_id":"","pricing_plan_id":"cebpf4jnsgd1na2vs0mg"},{"bike_id":"abae03bf-f26f-47bb-a9fc-f3b8bd020a37","system_id":"levelo_inurba_marseille","lat":43.30549,"lon":5.36699,"is_reserved":false,"is_disabled":false,"rental_uris":{"android":"levelo://app?vid=abae03bf-f26f-47bb-a9fc-f3b8bd020a37","ios":"levelo://app?vid=abae03bf-f26f-47bb-a9fc-f3b8bd020a37"},"vehicle_type_id":"4","last_reported":1770732908,"current_range_meters":5600,"station_id":"ce4bgrp2rcd13ifvqc9g","pricing_plan_id":"cebpf4jnsgd1na2vs0mg"},{"bike_id":"473ed87a-93be-474c-9960-18e4ad4faf18","system_id":"levelo_inurba_marseille","lat":43.309446,"lon":5.390349,"is_reserved":false,"is_disabled":false,"rental_uris":{"android":"levelo://app?vid=473ed87a-93be-474c-9960-18e4ad4faf18","ios":"levelo://app?vid=473ed87a-93be-474c-9960-18e4ad4faf18"},"vehicle_type_id":"4","last_reported":1770732908,"current_range_meters":5600,"station_id":"ce4bgup2rcd13ifvqco0","pricing_plan_id":"cebpf4jnsgd1na2vs0mg"},{"bike_id":"6316a440-6079-4cd7-8710-8e12c6c0a2b7","system_id":"levelo_inurba_marseille","lat":43.29904,"lon":5.43638,"is_reserved":false,"is_disabled":false,"rental_uris":{"android":"levelo://app?vid=6316a440-6079-4cd7-8710-8e12c6c0a2b7","ios":"levelo://app?vid=6316a440-6079-4cd7-8710-8e12c6c0a2b7"},"vehicle_type_id":"4","last_reported":1770732908,"current_range_meters":5600,"station_id":"ce4bhpp2rcd13ifvqhfg","pricing_plan_id":"cebpf4jnsgd1na2vs0mg"},{"bike_id":"fd158031-c8ec-435b-b315-8360533800f5","system_id":"levelo_inurba_marseille","lat":43.26219,"lon":5.404505,"is_reserved":false,"is_disabled":true,"rental_uris":{"android":"levelo://app?vid=fd158031-c8ec-435b-b315-8360533800f5","ios":"levelo://app?vid=fd158031-c8ec-435b-b315-8360533800f5"},"vehicle_type_id":"4","last_reported":1770732908,"current_range_meters":6000,"station_id":"ce4bhmh2rcd13ifvqgmg","pricing_plan_id":"cebpf4jnsgd1na2vs0mg"},{"bike_id":"f3f6fbc6-43d5-47da-82b6-762e4e722ce6","system_id":"levelo_inurba_marseille","lat":43.27996,"lon":5.41328,"is_reserved":false,"is_disabled":false,"rental_uris":{"android":"levelo://app?vid=f3f6fbc6-43d5-47da-82b6-762e4e722ce6","ios":"levelo://app?vid=f3f6fbc6-43d5-47da-82b6-762e4e722ce6"},"vehicle_type_id":"4","last_reported":1770732908,"current_range_meters":6000,"station_id":"","pricing_plan_id":"cebpf4jnsgd1na2vs0mg"},{"bike_id":"e20506fc-81c8-45aa-af10-6b0aa01b93ce","system_id":"levelo_inurba_marseille","lat":43.27061,"lon":5.38304,"is_reserved":false,"is_disabled":false,"rental_uris":{"android":"levelo://app?vid=e20506fc-81c8-45aa-af10-6b0aa01b93ce","ios":"levelo://app?vid=e20506fc-81c8-45aa-af10-6b0aa01b93ce"},"vehicle_type_id":"4","last_reported":1770732908,"current_range_meters":6000,"station_id":"st_d3n2fo6cfp8s73cte1j0","pricing_plan_id":"cebpf4jnsgd1na2vs0mg"},{"bike_id":"dcbf14a1-ed07-4c0c-b075-8b2993cd27e1","system_id":"levelo_inurba_marseille","lat":43.30245,"lon":5.40055,"is_reserved":false,"is_disabled":false,"rental_uris":{"android":"levelo://app?vid=dcbf14a1-ed07-4c0c-b075-8b2993cd27e1","ios":"levelo://app?vid=dcbf14a1-ed07-4c0c-b075-8b2993cd27e1"},"vehicle_type_id":"4","last_reported":1770732908,"current_range_meters":6000,"station_id":"ce4bgvh2rcd13ifvqcs0","pricing_plan_id":"cebpf4jnsgd1na2vs0mg"},{"bike_id":"9a0a4f5b-d5f2-4be0-a4fa-450256499716","system_id":"levelo_inurba_marseille","lat":43.26994,"lon":5.39803,"is_reserved":false,"is_disabled":false,"rental_uris":{"android":"levelo://app?vid=9a0a4f5b-d5f2-4be0-a4fa-450256499716","ios":"levelo://app?vid=9a0a4f5b-d5f2-4be0-a4fa-450256499716"},"vehicle_type_id":"4","last_reported":1770732908,"current_range_meters":6000,"station_id":"","pricing_plan_id":"cebpf4jnsgd1na2vs0mg"},{"bike_id":"15e2e152-1ec2-486a-8cc8-d7567c21a107","system_id":"levelo_inurba_marseille","lat":43.29555,"lon":5.42271,"is_reserved":false,"is_disabled":false,"rental_uris":{"android":"levelo://app?vid=15e2e152-1ec2-486a-8cc8-d7567c21a107","ios":"levelo://app?vid=15e2e152-1ec2-486a-8cc8-d7567c21a107"},"vehicle_type_id":"4","last_reported":1770732908,"current_range_meters":6400,"station_id":"ce4bhph2rcd13ifvqhdg","pricing_plan_id":"cebpf4jnsgd1na2vs0mg"},{"bike_id":"3bb52212-08ac-4012-8011-ffe14abdf457","system_id":"levelo_inurba_marseille","lat":43.29031,"lon":5.37789,"is_reserved":false,"is_disabled":false,"rental_uris":{"android":"levelo://app?vid=3bb52212-08ac-4012-8011-ffe14abdf457","ios":"levelo://app?vid=3bb52212-08ac-4012-8011-ffe14abdf457"},"vehicle_type_id":"4","last_reported":1770732908,"current_range_meters":6400,"station_id":"","pricing_plan_id":"cebpf4jnsgd1na2vs0mg"},{"bike_id":"0f0b794e-5bcc-4cbf-9c14-da03c4979ecb","system_id":"levelo_inurba_marseille","lat":43.29064,"lon":5.39935,"is_reserved":false,"is_disabled":false,"rental_uris":{"android":"levelo://app?vid=0f0b794e-5bcc-4cbf-9c14-da03c4979ecb","ios":"levelo://app?vid=0f0b794e-5bcc-4cbf-9c14-da03c4979ecb"},"vehicle_type_id":"4","last_reported":1770732908,"current_range_meters":6400,"station_id":"ce4bh392rcd13ifvqdm0","pricing_plan_id":"cebpf4jnsgd1na2vs0mg"},{"bike_id":"05d628e9-781f-4f77-a9a7-087d759ed084","system_id":"levelo_inurba_marseille","lat":43.22938,"lon":5.35369,"is_reserved":false,"is_disabled":false,"rental_uris":{"android":"levelo://app?vid=05d628e9-781f-4f77-a9a7-087d759ed084","ios":"levelo://app?vid=05d628e9-781f-4f77-a9a7-087d759ed084"},"vehicle_type_id":"4","last_reported":1770732908,"current_range_meters":6400,"station_id":"cpo3532slgdg3j2ikp40","pricing_plan_id":"cebpf4jnsgd1na2vs0mg"},{"bike_id":"2b259b44-8ea9-412c-9390-6977c9a1db9d","system_id":"levelo_inurba_marseille","lat":43.26942,"lon":5.40219,"is_reserved":false,"is_disabled":false,"rental_uris":{"android":"levelo://app?vid=2b259b44-8ea9-412c-9390-6977c9a1db9d","ios":"levelo://app?vid=2b259b44-8ea9-412c-9390-6977c9a1db9d"},"vehicle_type_id":"4","last_reported":1770732908,"current_range_meters":6400,"station_id":"cjm6bp8fraef2m0cb0m0","pricing_plan_id":"cebpf4jnsgd1na2vs0mg"},{"bike_id":"8b85b9f0-7c4f-4e7e-94fe-6bd65e0d0a91","system_id":"levelo_inurba_marseille","lat":43.28471,"lon":5.38402,"is_reserved":false,"is_disabled":false,"rental_uris":{"android":"levelo://app?vid=8b85b9f0-7c4f-4e7e-94fe-6bd65e0d0a91","ios":"levelo://app?vid=8b85b9f0-7c4f-4e7e-94fe-6bd65e0d0a91"},"vehicle_type_id":"4","last_reported":1770732908,"current_range_meters":6400,"station_id":"ce4bh512rcd13ifvqe3g","pricing_plan_id":"cebpf4jnsgd1na2vs0mg"},{"bike_id":"3ac3ea71-e69f-4c97-8041-51d5e3ebe8c9","system_id":"levelo_inurba_marseille","lat":43.27933,"lon":5.38697,"is_reserved":false,"is_disabled":false,"rental_uris":{"android":"levelo://app?vid=3ac3ea71-e69f-4c97-8041-51d5e3ebe8c9","ios":"levelo://app?vid=3ac3ea71-e69f-4c97-8041-51d5e3ebe8c9"},"vehicle_type_id":"4","last_reported":1770732908,"current_range_meters":6400,"station_id":"ce4bhg12rcd13ifvqf80","pricing_plan_id":"cebpf4jnsgd1na2vs0mg"},{"bike_id":"c84f98ff-c4b0-498e-bd41-7b5647869b42","system_id":"levelo_inurba_marseille","lat":43.233779,"lon":5.412259,"is_reserved":false,"is_disabled":false,"rental_uris":{"android":"levelo://app?vid=c84f98ff-c4b0-498e-bd41-7b5647869b42","ios":"levelo://app?vid=c84f98ff-c4b0-498e-bd41-7b5647869b42"},"vehicle_type_id":"4","last_reported":1770732908,"current_range_meters":6400,"station_id":"","pricing_plan_id":"cebpf4jnsgd1na2vs0mg"},{"bike_id":"f566875e-5642-41c3-af4a-390fbf63f0fb","system_id":"levelo_inurba_marseille","lat":43.28326,"lon":5.38089,"is_reserved":false,"is_disabled":false,"rental_uris":{"android":"levelo://app?vid=f566875e-5642-41c3-af4a-390fbf63f0fb","ios":"levelo://app?vid=f566875e-5642-41c3-af4a-390fbf63f0fb"},"vehicle_type_id":"4","last_reported":1770732908,"current_range_meters":6400,"station_id":"ce4bh412rcd13ifvqdr0","pricing_plan_id":"cebpf4jnsgd1na2vs0mg"},{"bike_id":"de5910a9-52b1-4319-a18e-00d63f6e529a","system_id":"levelo_inurba_marseille","lat":43.287143,"lon":5.379406,"is_reserved":false,"is_disabled":false,"rental_uris":{"android":"levelo://app?vid=de5910a9-52b1-4319-a18e-00d63f6e529a","ios":"levelo://app?vid=de5910a9-52b1-4319-a18e-00d63f6e529a"},"vehicle_type_id":"4","last_reported":1770732908,"current_range_meters":6400,"station_id":"ce4bh9p2rcd13ifvqec0","pricing_plan_id":"cebpf4jnsgd1na2vs0mg"},{"bike_id":"9181861d-3c4b-4770-b545-363c30923e26","system_id":"levelo_inurba_marseille","lat":43.284808,"lon":5.48393,"is_reserved":false,"is_disabled":false,"rental_uris":{"android":"levelo://app?vid=9181861d-3c4b-4770-b545-363c30923e26","ios":"levelo://app?vid=9181861d-3c4b-4770-b545-363c30923e26"},"vehicle_type_id":"4","last_reported":1770732908,"current_range_meters":6400,"station_id":"st_d3svhcjqgbts73a3dn0g","pricing_plan_id":"cebpf4jnsgd1na2vs0mg"},{"bike_id":"8c5df9c2-edca-4c7f-889d-f3ef192b7c99","system_id":"levelo_inurba_marseille","lat":43.30121,"lon":5.37425,"is_reserved":false,"is_disabled":false,"rental_uris":{"android":"levelo://app?vid=8c5df9c2-edca-4c7f-889d-f3ef192b7c99","ios":"levelo://app?vid=8c5df9c2-edca-4c7f-889d-f3ef192b7c99"},"vehicle_type_id":"4","last_reported":1770732908,"current_range_meters":6400,"station_id":"ce4bgs92rcd13ifvqcc0","pricing_plan_id":"cebpf4jnsgd1na2vs0mg"},{"bike_id":"af109b45-02d2-41f8-be4b-42b484fd3394","system_id":"levelo_inurba_marseille","lat":43.29887,"lon":5.43658,"is_reserved":false,"is_disabled":false,"rental_uris":{"android":"levelo://app?vid=af109b45-02d2-41f8-be4b-42b484fd3394","ios":"levelo://app?vid=af109b45-02d2-41f8-be4b-42b484fd3394"},"vehicle_type_id":"4","last_reported":1770732908,"current_range_meters":6400,"station_id":"ce4bhpp2rcd13ifvqhfg","pricing_plan_id":"cebpf4jnsgd1na2vs0mg"},{"bike_id":"02e9af11-2912-44f7-be5c-e2ae093265ba","system_id":"levelo_inurba_marseille","lat":43.26688,"lon":5.38286,"is_reserved":false,"is_disabled":false,"rental_uris":{"android":"levelo://app?vid=02e9af11-2912-44f7-be5c-e2ae093265ba","ios":"levelo://app?vid=02e9af11-2912-44f7-be5c-e2ae093265ba"},"vehicle_type_id":"4","last_reported":1770732908,"current_range_meters":6800,"station_id":"ce4bhg92rcd13ifvqf90","pricing_plan_id":"cebpf4jnsgd1na2vs0mg"},{"bike_id":"606ab2af-e487-4293-a70f-a86c985235d6","system_id":"levelo_inurba_marseille","lat":43.24174,"lon":5.39718,"is_reserved":false,"is_disabled":false,"rental_uris":{"android":"levelo://app?vid=606ab2af-e487-4293-a70f-a86c985235d6","ios":"levelo://app?vid=606ab2af-e487-4293-a70f-a86c985235d6"},"vehicle_type_id":"4","last_reported":1770732908,"current_range_meters":6800,"station_id":"ce4bhn12rcd13ifvqgpg","pricing_plan_id":"cebpf4jnsgd1na2vs0mg"},{"bike_id":"a07cd24c-7e73-437e-917a-60bdbc1072fc","system_id":"levelo_inurba_marseille","lat":43.24404,"lon":5.3707,"is_reserved":false,"is_disabled":false,"rental_uris":{"android":"levelo://app?vid=a07cd24c-7e73-437e-917a-60bdbc1072fc","ios":"levelo://app?vid=a07cd24c-7e73-437e-917a-60bdbc1072fc"},"vehicle_type_id":"4","last_reported":1770732908,"current_range_meters":6800,"station_id":"ce4bhhh2rcd13ifvqfk0","pricing_plan_id":"cebpf4jnsgd1na2vs0mg"},{"bike_id":"971b48dd-c7a4-4deb-8d64-56d2c1c381de","system_id":"levelo_inurba_marseille","lat":43.263677,"lon":5.410459,"is_reserved":false,"is_disabled":false,"rental_uris":{"android":"levelo://app?vid=971b48dd-c7a4-4deb-8d64-56d2c1c381de","ios":"levelo://app?vid=971b48dd-c7a4-4deb-8d64-56d2c1c381de"},"vehicle_type_id":"4","last_reported":1770732908,"current_range_meters":6800,"station_id":"","pricing_plan_id":"cebpf4jnsgd1na2vs0mg"},{"bike_id":"b1429378-b93e-4184-b373-85f0415c9919","system_id":"levelo_inurba_marseille","lat":43.24632,"lon":5.43145,"is_reserved":false,"is_disabled":false,"rental_uris":{"android":"levelo://app?vid=b1429378-b93e-4184-b373-85f0415c9919","ios":"levelo://app?vid=b1429378-b93e-4184-b373-85f0415c9919"},"vehicle_type_id":"4","last_reported":1770732908,"current_range_meters":6800,"station_id":"st_d2m6c4gdas8pm72e190g","pricing_plan_id":"cebpf4jnsgd1na2vs0mg"},{"bike_id":"5ce6fe86-b4a9-482a-96c5-27a2ef703897","system_id":"levelo_inurba_marseille","lat":43.239663,"lon":5.366349,"is_reserved":false,"is_disabled":false,"rental_uris":{"android":"levelo://app?vid=5ce6fe86-b4a9-482a-96c5-27a2ef703897","ios":"levelo://app?vid=5ce6fe86-b4a9-482a-96c5-27a2ef703897"},"vehicle_type_id":"4","last_reported":1770732908,"current_range_meters":6800,"station_id":"ce4bhi12rcd13ifvqfp0","pricing_plan_id":"cebpf4jnsgd1na2vs0mg"},{"bike_id":"e6fa3a33-760e-4af7-8040-298f0da91379","system_id":"levelo_inurba_marseille","lat":43.30946,"lon":5.384,"is_reserved":false,"is_disabled":false,"rental_uris":{"android":"levelo://app?vid=e6fa3a33-760e-4af7-8040-298f0da91379","ios":"levelo://app?vid=e6fa3a33-760e-4af7-8040-298f0da91379"},"vehicle_type_id":"4","last_reported":1770732908,"current_range_meters":6800,"station_id":"","pricing_plan_id":"cebpf4jnsgd1na2vs0mg"},{"bike_id":"bbe5822a-afd2-454d-8041-18bd1347d006","system_id":"levelo_inurba_marseille","lat":43.30535,"lon":5.36548,"is_reserved":false,"is_disabled":false,"rental_uris":{"android":"levelo://app?vid=bbe5822a-afd2-454d-8041-18bd1347d006","ios":"levelo://app?vid=bbe5822a-afd2-454d-8041-18bd1347d006"},"vehicle_type_id":"4","last_reported":1770732908,"current_range_meters":6800,"station_id":"ce4bgs12rcd13ifvqcag","pricing_plan_id":"cebpf4jnsgd1na2vs0mg"},{"bike_id":"475792bf-7356-472c-b3b1-2807a2b1b152","system_id":"levelo_inurba_marseille","lat":43.30126,"lon":5.38793,"is_reserved":false,"is_disabled":false,"rental_uris":{"android":"levelo://app?vid=475792bf-7356-472c-b3b1-2807a2b1b152","ios":"levelo://app?vid=475792bf-7356-472c-b3b1-2807a2b1b152"},"vehicle_type_id":"4","last_reported":1770732908,"current_range_meters":6800,"station_id":"ce4bghh2rcd13ifvqb60","pricing_plan_id":"cebpf4jnsgd1na2vs0mg"},{"bike_id":"545256ae-090a-4ca5-a097-4617f5e7af26","system_id":"levelo_inurba_marseille","lat":43.29609,"lon":5.38083,"is_reserved":false,"is_disabled":false,"rental_uris":{"android":"levelo://app?vid=545256ae-090a-4ca5-a097-4617f5e7af26","ios":"levelo://app?vid=545256ae-090a-4ca5-a097-4617f5e7af26"},"vehicle_type_id":"4","last_reported":1770732908,"current_range_meters":6800,"station_id":"ce4bgl12rcd13ifvqbo0","pricing_plan_id":"cebpf4jnsgd1na2vs0mg"},{"bike_id":"335b6075-e59c-483e-a2bf-f94409097ec2","system_id":"levelo_inurba_marseille","lat":43.30953,"lon":5.39049,"is_reserved":false,"is_disabled":false,"rental_uris":{"android":"levelo://app?vid=335b6075-e59c-483e-a2bf-f94409097ec2","ios":"levelo://app?vid=335b6075-e59c-483e-a2bf-f94409097ec2"},"vehicle_type_id":"4","last_reported":1770732908,"current_range_meters":6800,"station_id":"ce4bgup2rcd13ifvqco0","pricing_plan_id":"cebpf4jnsgd1na2vs0mg"},{"bike_id":"32df9713-f370-4b5b-937c-67632b06730e","system_id":"levelo_inurba_marseille","lat":43.305421,"lon":5.367034,"is_reserved":false,"is_disabled":false,"rental_uris":{"android":"levelo://app?vid=32df9713-f370-4b5b-937c-67632b06730e","ios":"levelo://app?vid=32df9713-f370-4b5b-937c-67632b06730e"},"vehicle_type_id":"4","last_reported":1770732908,"current_range_meters":6800,"station_id":"ce4bgrp2rcd13ifvqc9g","pricing_plan_id":"cebpf4jnsgd1na2vs0mg"},{"bike_id":"bfc07130-be47-4eef-8325-e33d6610d729","system_id":"levelo_inurba_marseille","lat":43.3016,"lon":5.43072,"is_reserved":false,"is_disabled":false,"rental_uris":{"android":"levelo://app?vid=bfc07130-be47-4eef-8325-e33d6610d729","ios":"levelo://app?vid=bfc07130-be47-4eef-8325-e33d6610d729"},"vehicle_type_id":"4","last_reported":1770732908,"current_range_meters":7200,"station_id":"","pricing_plan_id":"cebpf4jnsgd1na2vs0mg"},{"bike_id":"4240880d-88bf-48aa-91ea-700e773e4fa1","system_id":"levelo_inurba_marseille","lat":43.27051,"lon":5.38291,"is_reserved":false,"is_disabled":false,"rental_uris":{"android":"levelo://app?vid=4240880d-88bf-48aa-91ea-700e773e4fa1","ios":"levelo://app?vid=4240880d-88bf-48aa-91ea-700e773e4fa1"},"vehicle_type_id":"4","last_reported":1770732908,"current_range_meters":7200,"station_id":"st_d3n2fo6cfp8s73cte1j0","pricing_plan_id":"cebpf4jnsgd1na2vs0mg"},{"bike_id":"05abb5d5-7a0f-4692-a6b6-119f614f1bb6","system_id":"levelo_inurba_marseille","lat":43.27058,"lon":5.38293,"is_reserved":false,"is_disabled":false,"rental_uris":{"android":"levelo://app?vid=05abb5d5-7a0f-4692-a6b6-119f614f1bb6","ios":"levelo://app?vid=05abb5d5-7a0f-4692-a6b6-119f614f1bb6"},"vehicle_type_id":"4","last_reported":1770732908,"current_range_meters":7200,"station_id":"st_d3n2fo6cfp8s73cte1j0","pricing_plan_id":"cebpf4jnsgd1na2vs0mg"},{"bike_id":"6c039895-332d-461f-b642-cc8f2ffe3d53","system_id":"levelo_inurba_marseille","lat":43.29051,"lon":5.39942,"is_reserved":false,"is_disabled":false,"rental_uris":{"android":"levelo://app?vid=6c039895-332d-461f-b642-cc8f2ffe3d53","ios":"levelo://app?vid=6c039895-332d-461f-b642-cc8f2ffe3d53"},"vehicle_type_id":"4","last_reported":1770732908,"current_range_meters":7200,"station_id":"ce4bh392rcd13ifvqdm0","pricing_plan_id":"cebpf4jnsgd1na2vs0mg"},{"bike_id":"652029fd-7389-40d5-a0bd-e85f7aa43d7c","system_id":"levelo_inurba_marseille","lat":43.22567,"lon":5.41627,"is_reserved":false,"is_disabled":false,"rental_uris":{"android":"levelo://app?vid=652029fd-7389-40d5-a0bd-e85f7aa43d7c","ios":"levelo://app?vid=652029fd-7389-40d5-a0bd-e85f7aa43d7c"},"vehicle_type_id":"4","last_reported":1770732908,"current_range_meters":7200,"station_id":"st_d2o4gvlbi1j2169b742g","pricing_plan_id":"cebpf4jnsgd1na2vs0mg"},{"bike_id":"cd139a94-86c4-4fc7-955f-ecc7f027a59a","system_id":"levelo_inurba_marseille","lat":43.25001,"lon":5.38939,"is_reserved":false,"is_disabled":false,"rental_uris":{"android":"levelo://app?vid=cd139a94-86c4-4fc7-955f-ecc7f027a59a","ios":"levelo://app?vid=cd139a94-86c4-4fc7-955f-ecc7f027a59a"},"vehicle_type_id":"4","last_reported":1770732908,"current_range_meters":7200,"station_id":"ce4bhgp2rcd13ifvqfd0","pricing_plan_id":"cebpf4jnsgd1na2vs0mg"},{"bike_id":"20d7655a-dd73-4aef-83bc-661ec3e777a1","system_id":"levelo_inurba_marseille","lat":43.26675,"lon":5.38273,"is_reserved":false,"is_disabled":false,"rental_uris":{"android":"levelo://app?vid=20d7655a-dd73-4aef-83bc-661ec3e777a1","ios":"levelo://app?vid=20d7655a-dd73-4aef-83bc-661ec3e777a1"},"vehicle_type_id":"4","last_reported":1770732908,"current_range_meters":7200,"station_id":"ce4bhg92rcd13ifvqf90","pricing_plan_id":"cebpf4jnsgd1na2vs0mg"},{"bike_id":"8ae193d0-6aa6-49c6-83c9-9ea48a09d2ef","system_id":"levelo_inurba_marseille","lat":43.27315,"lon":5.39155,"is_reserved":false,"is_disabled":false,"rental_uris":{"android":"levelo://app?vid=8ae193d0-6aa6-49c6-83c9-9ea48a09d2ef","ios":"levelo://app?vid=8ae193d0-6aa6-49c6-83c9-9ea48a09d2ef"},"vehicle_type_id":"4","last_reported":1770732908,"current_range_meters":7200,"station_id":"ce4bhgp2rcd13ifvqfe0","pricing_plan_id":"cebpf4jnsgd1na2vs0mg"},{"bike_id":"803c01d0-5d35-4b2f-928b-dd14585ab697","system_id":"levelo_inurba_marseille","lat":43.298199,"lon":5.376355,"is_reserved":false,"is_disabled":false,"rental_uris":{"android":"levelo://app?vid=803c01d0-5d35-4b2f-928b-dd14585ab697","ios":"levelo://app?vid=803c01d0-5d35-4b2f-928b-dd14585ab697"},"vehicle_type_id":"4","last_reported":1770732908,"current_range_meters":7200,"station_id":"","pricing_plan_id":"cebpf4jnsgd1na2vs0mg"},{"bike_id":"28604dd7-849e-41fc-8a86-d00e5bb754e7","system_id":"levelo_inurba_marseille","lat":43.29703,"lon":5.3769,"is_reserved":false,"is_disabled":false,"rental_uris":{"android":"levelo://app?vid=28604dd7-849e-41fc-8a86-d00e5bb754e7","ios":"levelo://app?vid=28604dd7-849e-41fc-8a86-d00e5bb754e7"},"vehicle_type_id":"4","last_reported":1770732908,"current_range_meters":7200,"station_id":"ce4bgkh2rcd13ifvqbl0","pricing_plan_id":"cebpf4jnsgd1na2vs0mg"},{"bike_id":"975bd0c0-5c30-478f-a1a3-a05ee365190d","system_id":"levelo_inurba_marseille","lat":43.31319,"lon":5.40769,"is_reserved":false,"is_disabled":false,"rental_uris":{"android":"levelo://app?vid=975bd0c0-5c30-478f-a1a3-a05ee365190d","ios":"levelo://app?vid=975bd0c0-5c30-478f-a1a3-a05ee365190d"},"vehicle_type_id":"4","last_reported":1770732908,"current_range_meters":7200,"station_id":"","pricing_plan_id":"cebpf4jnsgd1na2vs0mg"},{"bike_id":"311e9660-90fc-415d-8fc8-d846cdb22687","system_id":"levelo_inurba_marseille","lat":43.30478,"lon":5.37905,"is_reserved":false,"is_disabled":false,"rental_uris":{"android":"levelo://app?vid=311e9660-90fc-415d-8fc8-d846cdb22687","ios":"levelo://app?vid=311e9660-90fc-415d-8fc8-d846cdb22687"},"vehicle_type_id":"4","last_reported":1770732908,"current_range_meters":7200,"station_id":"ce4bgup2rcd13ifvqcn0","pricing_plan_id":"cebpf4jnsgd1na2vs0mg"},{"bike_id":"3b5567a6-efa3-498b-ad01-b9c12c6390c4","system_id":"levelo_inurba_marseille","lat":43.31722,"lon":5.42386,"is_reserved":false,"is_disabled":false,"rental_uris":{"android":"levelo://app?vid=3b5567a6-efa3-498b-ad01-b9c12c6390c4","ios":"levelo://app?vid=3b5567a6-efa3-498b-ad01-b9c12c6390c4"},"vehicle_type_id":"4","last_reported":1770732908,"current_range_meters":7200,"station_id":"ce4bhp92rcd13ifvqhbg","pricing_plan_id":"cebpf4jnsgd1na2vs0mg"},{"bike_id":"877aaecc-1e03-412a-b7fc-49812ef7fbf6","system_id":"levelo_inurba_marseille","lat":43.299666,"lon":5.373478,"is_reserved":false,"is_disabled":false,"rental_uris":{"android":"levelo://app?vid=877aaecc-1e03-412a-b7fc-49812ef7fbf6","ios":"levelo://app?vid=877aaecc-1e03-412a-b7fc-49812ef7fbf6"},"vehicle_type_id":"4","last_reported":1770732908,"current_range_meters":7200,"station_id":"","pricing_plan_id":"cebpf4jnsgd1na2vs0mg"},{"bike_id":"774647ab-afd2-472c-b3ee-3701d6387862","system_id":"levelo_inurba_marseille","lat":43.30522,"lon":5.36719,"is_reserved":false,"is_disabled":false,"rental_uris":{"android":"levelo://app?vid=774647ab-afd2-472c-b3ee-3701d6387862","ios":"levelo://app?vid=774647ab-afd2-472c-b3ee-3701d6387862"},"vehicle_type_id":"4","last_reported":1770732908,"current_range_meters":7200,"station_id":"ce4bgrp2rcd13ifvqc9g","pricing_plan_id":"cebpf4jnsgd1na2vs0mg"},{"bike_id":"ab8ed30d-dd64-45c7-9d56-1700378f985a","system_id":"levelo_inurba_marseille","lat":43.27064,"lon":5.38297,"is_reserved":false,"is_disabled":false,"rental_uris":{"android":"levelo://app?vid=ab8ed30d-dd64-45c7-9d56-1700378f985a","ios":"levelo://app?vid=ab8ed30d-dd64-45c7-9d56-1700378f985a"},"vehicle_type_id":"4","last_reported":1770732908,"current_range_meters":7200,"station_id":"st_d3n2fo6cfp8s73cte1j0","pricing_plan_id":"cebpf4jnsgd1na2vs0mg"},{"bike_id":"d1006334-eff8-445f-9201-a0c70717fbd7","system_id":"levelo_inurba_marseille","lat":43.279308,"lon":5.4115,"is_reserved":false,"is_disabled":false,"rental_uris":{"android":"levelo://app?vid=d1006334-eff8-445f-9201-a0c70717fbd7","ios":"levelo://app?vid=d1006334-eff8-445f-9201-a0c70717fbd7"},"vehicle_type_id":"4","last_reported":1770732908,"current_range_meters":7200,"station_id":"","pricing_plan_id":"cebpf4jnsgd1na2vs0mg"},{"bike_id":"b472a260-a54c-461c-933d-55c5e369f9af","system_id":"levelo_inurba_marseille","lat":43.26939,"lon":5.3862,"is_reserved":false,"is_disabled":false,"rental_uris":{"android":"levelo://app?vid=b472a260-a54c-461c-933d-55c5e369f9af","ios":"levelo://app?vid=b472a260-a54c-461c-933d-55c5e369f9af"},"vehicle_type_id":"4","last_reported":1770732908,"current_range_meters":7200,"station_id":"ce4bhh92rcd13ifvqfh0","pricing_plan_id":"cebpf4jnsgd1na2vs0mg"},{"bike_id":"22d8d839-db4c-4efa-bd5d-d78efaca55ca","system_id":"levelo_inurba_marseille","lat":43.27079,"lon":5.38308,"is_reserved":false,"is_disabled":false,"rental_uris":{"android":"levelo://app?vid=22d8d839-db4c-4efa-bd5d-d78efaca55ca","ios":"levelo://app?vid=22d8d839-db4c-4efa-bd5d-d78efaca55ca"},"vehicle_type_id":"4","last_reported":1770732908,"current_range_meters":7200,"station_id":"st_d3n2fo6cfp8s73cte1j0","pricing_plan_id":"cebpf4jnsgd1na2vs0mg"},{"bike_id":"db81a205-ff39-44ae-a1c3-5f6a468be0bf","system_id":"levelo_inurba_marseille","lat":43.31398,"lon":5.36772,"is_reserved":false,"is_disabled":false,"rental_uris":{"android":"levelo://app?vid=db81a205-ff39-44ae-a1c3-5f6a468be0bf","ios":"levelo://app?vid=db81a205-ff39-44ae-a1c3-5f6a468be0bf"},"vehicle_type_id":"4","last_reported":1770732908,"current_range_meters":7200,"station_id":"ce4bgr92rcd13ifvqc6g","pricing_plan_id":"cebpf4jnsgd1na2vs0mg"},{"bike_id":"e805b025-6b8d-4fe3-809a-b86627b4e672","system_id":"levelo_inurba_marseille","lat":43.30197,"lon":5.39486,"is_reserved":false,"is_disabled":false,"rental_uris":{"android":"levelo://app?vid=e805b025-6b8d-4fe3-809a-b86627b4e672","ios":"levelo://app?vid=e805b025-6b8d-4fe3-809a-b86627b4e672"},"vehicle_type_id":"4","last_reported":1770732908,"current_range_meters":7200,"station_id":"ce4bh0p2rcd13ifvqd70","pricing_plan_id":"cebpf4jnsgd1na2vs0mg"},{"bike_id":"3e62a0fd-19ac-4f58-93af-6af710db8a94","system_id":"levelo_inurba_marseille","lat":43.22929,"lon":5.35376,"is_reserved":false,"is_disabled":false,"rental_uris":{"android":"levelo://app?vid=3e62a0fd-19ac-4f58-93af-6af710db8a94","ios":"levelo://app?vid=3e62a0fd-19ac-4f58-93af-6af710db8a94"},"vehicle_type_id":"4","last_reported":1770732908,"current_range_meters":7200,"station_id":"cpo3532slgdg3j2ikp40","pricing_plan_id":"cebpf4jnsgd1na2vs0mg"},{"bike_id":"d6a4290a-1d5d-4ea3-9670-f9b08d643012","system_id":"levelo_inurba_marseille","lat":43.2944,"lon":5.39748,"is_reserved":false,"is_disabled":false,"rental_uris":{"android":"levelo://app?vid=d6a4290a-1d5d-4ea3-9670-f9b08d643012","ios":"levelo://app?vid=d6a4290a-1d5d-4ea3-9670-f9b08d643012"},"vehicle_type_id":"4","last_reported":1770732908,"current_range_meters":7200,"station_id":"ce4bh3h2rcd13ifvqdo0","pricing_plan_id":"cebpf4jnsgd1na2vs0mg"},{"bike_id":"b2b0195d-492d-45c1-8b13-0adabab98b64","system_id":"levelo_inurba_marseille","lat":43.29247,"lon":5.40913,"is_reserved":false,"is_disabled":false,"rental_uris":{"android":"levelo://app?vid=b2b0195d-492d-45c1-8b13-0adabab98b64","ios":"levelo://app?vid=b2b0195d-492d-45c1-8b13-0adabab98b64"},"vehicle_type_id":"4","last_reported":1770732908,"current_range_meters":7200,"station_id":"ce4bh192rcd13ifvqdc0","pricing_plan_id":"cebpf4jnsgd1na2vs0mg"},{"bike_id":"ea8da4c0-d08c-418d-b183-47656f300355","system_id":"levelo_inurba_marseille","lat":43.309016,"lon":5.368592,"is_reserved":false,"is_disabled":false,"rental_uris":{"android":"levelo://app?vid=ea8da4c0-d08c-418d-b183-47656f300355","ios":"levelo://app?vid=ea8da4c0-d08c-418d-b183-47656f300355"},"vehicle_type_id":"4","last_reported":1770732908,"current_range_meters":7200,"station_id":"ce4bgn92rcd13ifvqbvg","pricing_plan_id":"cebpf4jnsgd1na2vs0mg"},{"bike_id":"7185d1d4-a63f-4bf2-b537-1e3aa83f92bb","system_id":"levelo_inurba_marseille","lat":43.26679,"lon":5.38284,"is_reserved":false,"is_disabled":false,"rental_uris":{"android":"levelo://app?vid=7185d1d4-a63f-4bf2-b537-1e3aa83f92bb","ios":"levelo://app?vid=7185d1d4-a63f-4bf2-b537-1e3aa83f92bb"},"vehicle_type_id":"4","last_reported":1770732908,"current_range_meters":7200,"station_id":"ce4bhg92rcd13ifvqf90","pricing_plan_id":"cebpf4jnsgd1na2vs0mg"},{"bike_id":"9a106465-8093-45b4-be9f-293675a1ce8a","system_id":"levelo_inurba_marseille","lat":43.296364,"lon":5.371628,"is_reserved":false,"is_disabled":false,"rental_uris":{"android":"levelo://app?vid=9a106465-8093-45b4-be9f-293675a1ce8a","ios":"levelo://app?vid=9a106465-8093-45b4-be9f-293675a1ce8a"},"vehicle_type_id":"4","last_reported":1770732908,"current_range_meters":8000,"station_id":"ce4bgnh2rcd13ifvqc0g","pricing_plan_id":"cebpf4jnsgd1na2vs0mg"},{"bike_id":"dcffb64c-9bea-40cd-a5fe-c7eeb8475cd8","system_id":"levelo_inurba_marseille","lat":43.30315,"lon":5.37702,"is_reserved":false,"is_disabled":false,"rental_uris":{"android":"levelo://app?vid=dcffb64c-9bea-40cd-a5fe-c7eeb8475cd8","ios":"levelo://app?vid=dcffb64c-9bea-40cd-a5fe-c7eeb8475cd8"},"vehicle_type_id":"4","last_reported":1770732908,"current_range_meters":8000,"station_id":"ce4bguh2rcd13ifvqcj0","pricing_plan_id":"cebpf4jnsgd1na2vs0mg"},{"bike_id":"1bdf1cd8-2812-492a-80f2-05707e2bdf9b","system_id":"levelo_inurba_marseille","lat":43.30641,"lon":5.40095,"is_reserved":false,"is_disabled":false,"rental_uris":{"android":"levelo://app?vid=1bdf1cd8-2812-492a-80f2-05707e2bdf9b","ios":"levelo://app?vid=1bdf1cd8-2812-492a-80f2-05707e2bdf9b"},"vehicle_type_id":"4","last_reported":1770732908,"current_range_meters":8000,"station_id":"ce4bh112rcd13ifvqda0","pricing_plan_id":"cebpf4jnsgd1na2vs0mg"},{"bike_id":"e0450db0-c8b3-4403-bc43-ed5a007877b8","system_id":"levelo_inurba_marseille","lat":43.24624,"lon":5.43149,"is_reserved":false,"is_disabled":false,"rental_uris":{"android":"levelo://app?vid=e0450db0-c8b3-4403-bc43-ed5a007877b8","ios":"levelo://app?vid=e0450db0-c8b3-4403-bc43-ed5a007877b8"},"vehicle_type_id":"4","last_reported":1770732908,"current_range_meters":8000,"station_id":"st_d2m6c4gdas8pm72e190g","pricing_plan_id":"cebpf4jnsgd1na2vs0mg"},{"bike_id":"ee213b40-802c-442b-9390-5e22834db5df","system_id":"levelo_inurba_marseille","lat":43.24164,"lon":5.36406,"is_reserved":false,"is_disabled":false,"rental_uris":{"android":"levelo://app?vid=ee213b40-802c-442b-9390-5e22834db5df","ios":"levelo://app?vid=ee213b40-802c-442b-9390-5e22834db5df"},"vehicle_type_id":"4","last_reported":1770732908,"current_range_meters":8000,"station_id":"cpo36qri1sfpv3e86is0","pricing_plan_id":"cebpf4jnsgd1na2vs0mg"},{"bike_id":"eb988073-8fe7-4bb4-897d-222ac9bc4a1f","system_id":"levelo_inurba_marseille","lat":43.25882,"lon":5.39906,"is_reserved":false,"is_disabled":false,"rental_uris":{"android":"levelo://app?vid=eb988073-8fe7-4bb4-897d-222ac9bc4a1f","ios":"levelo://app?vid=eb988073-8fe7-4bb4-897d-222ac9bc4a1f"},"vehicle_type_id":"4","last_reported":1770732908,"current_range_meters":8000,"station_id":"ce4bhl92rcd13ifvqghg","pricing_plan_id":"cebpf4jnsgd1na2vs0mg"},{"bike_id":"0512ff03-5632-463b-8a2f-a58a24edff66","system_id":"levelo_inurba_marseille","lat":43.26386,"lon":5.41054,"is_reserved":false,"is_disabled":false,"rental_uris":{"android":"levelo://app?vid=0512ff03-5632-463b-8a2f-a58a24edff66","ios":"levelo://app?vid=0512ff03-5632-463b-8a2f-a58a24edff66"},"vehicle_type_id":"4","last_reported":1770732908,"current_range_meters":8000,"station_id":"st_d4e5ca6na9uc73bfl5fg","pricing_plan_id":"cebpf4jnsgd1na2vs0mg"},{"bike_id":"77d01ae0-caa8-4229-b1d9-66eebccb18ba","system_id":"levelo_inurba_marseille","lat":43.30332,"lon":5.36885,"is_reserved":false,"is_disabled":false,"rental_uris":{"android":"levelo://app?vid=77d01ae0-caa8-4229-b1d9-66eebccb18ba","ios":"levelo://app?vid=77d01ae0-caa8-4229-b1d9-66eebccb18ba"},"vehicle_type_id":"4","last_reported":1770732908,"current_range_meters":8000,"station_id":"ce4bgqh2rcd13ifvqc5g","pricing_plan_id":"cebpf4jnsgd1na2vs0mg"},{"bike_id":"5f7df976-2770-4b0d-bd16-1a5d3e4bd86a","system_id":"levelo_inurba_marseille","lat":43.26026,"lon":5.37581,"is_reserved":false,"is_disabled":false,"rental_uris":{"android":"levelo://app?vid=5f7df976-2770-4b0d-bd16-1a5d3e4bd86a","ios":"levelo://app?vid=5f7df976-2770-4b0d-bd16-1a5d3e4bd86a"},"vehicle_type_id":"4","last_reported":1770732908,"current_range_meters":8000,"station_id":"ce4bhgh2rcd13ifvqfa0","pricing_plan_id":"cebpf4jnsgd1na2vs0mg"},{"bike_id":"c6bba051-2987-4068-9b3f-af263ee62dbf","system_id":"levelo_inurba_marseille","lat":43.26488,"lon":5.39569,"is_reserved":false,"is_disabled":false,"rental_uris":{"android":"levelo://app?vid=c6bba051-2987-4068-9b3f-af263ee62dbf","ios":"levelo://app?vid=c6bba051-2987-4068-9b3f-af263ee62dbf"},"vehicle_type_id":"4","last_reported":1770732908,"current_range_meters":8000,"station_id":"ce4bhi12rcd13ifvqfq0","pricing_plan_id":"cebpf4jnsgd1na2vs0mg"},{"bike_id":"46b69bcd-f35a-433e-b9f1-16ab03d0ac0e","system_id":"levelo_inurba_marseille","lat":43.2592,"lon":5.39867,"is_reserved":false,"is_disabled":false,"rental_uris":{"android":"levelo://app?vid=46b69bcd-f35a-433e-b9f1-16ab03d0ac0e","ios":"levelo://app?vid=46b69bcd-f35a-433e-b9f1-16ab03d0ac0e"},"vehicle_type_id":"4","last_reported":1770732908,"current_range_meters":8000,"station_id":"","pricing_plan_id":"cebpf4jnsgd1na2vs0mg"},{"bike_id":"5d395701-b132-4efb-bd73-1a3d205aa09f","system_id":"levelo_inurba_marseille","lat":43.29193,"lon":5.39325,"is_reserved":false,"is_disabled":false,"rental_uris":{"android":"levelo://app?vid=5d395701-b132-4efb-bd73-1a3d205aa09f","ios":"levelo://app?vid=5d395701-b132-4efb-bd73-1a3d205aa09f"},"vehicle_type_id":"4","last_reported":1770732908,"current_range_meters":8000,"station_id":"ce4bh192rcd13ifvqdd0","pricing_plan_id":"cebpf4jnsgd1na2vs0mg"},{"bike_id":"f0b86505-49db-4391-86fd-541358036556","system_id":"levelo_inurba_marseille","lat":43.24078,"lon":5.37749,"is_reserved":false,"is_disabled":false,"rental_uris":{"android":"levelo://app?vid=f0b86505-49db-4391-86fd-541358036556","ios":"levelo://app?vid=f0b86505-49db-4391-86fd-541358036556"},"vehicle_type_id":"4","last_reported":1770732908,"current_range_meters":8000,"station_id":"ce4bhnp2rcd13ifvqgvg","pricing_plan_id":"cebpf4jnsgd1na2vs0mg"},{"bike_id":"fbc4de62-94f4-4367-a701-e35b525371c3","system_id":"levelo_inurba_marseille","lat":43.30133,"lon":5.37408,"is_reserved":false,"is_disabled":false,"rental_uris":{"android":"levelo://app?vid=fbc4de62-94f4-4367-a701-e35b525371c3","ios":"levelo://app?vid=fbc4de62-94f4-4367-a701-e35b525371c3"},"vehicle_type_id":"4","last_reported":1770732908,"current_range_meters":8000,"station_id":"ce4bgs92rcd13ifvqcc0","pricing_plan_id":"cebpf4jnsgd1na2vs0mg"},{"bike_id":"6f6a04ad-dd00-4f4a-bdfd-a835cfa0cc11","system_id":"levelo_inurba_marseille","lat":43.27058,"lon":5.38306,"is_reserved":false,"is_disabled":false,"rental_uris":{"android":"levelo://app?vid=6f6a04ad-dd00-4f4a-bdfd-a835cfa0cc11","ios":"levelo://app?vid=6f6a04ad-dd00-4f4a-bdfd-a835cfa0cc11"},"vehicle_type_id":"4","last_reported":1770732908,"current_range_meters":8400,"station_id":"st_d3n2fo6cfp8s73cte1j0","pricing_plan_id":"cebpf4jnsgd1na2vs0mg"},{"bike_id":"690a04a1-182c-4652-992a-2774b1ea7c6b","system_id":"levelo_inurba_marseille","lat":43.22556,"lon":5.41632,"is_reserved":false,"is_disabled":false,"rental_uris":{"android":"levelo://app?vid=690a04a1-182c-4652-992a-2774b1ea7c6b","ios":"levelo://app?vid=690a04a1-182c-4652-992a-2774b1ea7c6b"},"vehicle_type_id":"4","last_reported":1770732908,"current_range_meters":8400,"station_id":"st_d2o4gvlbi1j2169b742g","pricing_plan_id":"cebpf4jnsgd1na2vs0mg"},{"bike_id":"87b98c89-0f4c-46b0-a01e-43941807bdd2","system_id":"levelo_inurba_marseille","lat":43.28696,"lon":5.38643,"is_reserved":false,"is_disabled":false,"rental_uris":{"android":"levelo://app?vid=87b98c89-0f4c-46b0-a01e-43941807bdd2","ios":"levelo://app?vid=87b98c89-0f4c-46b0-a01e-43941807bdd2"},"vehicle_type_id":"4","last_reported":1770732908,"current_range_meters":8400,"station_id":"","pricing_plan_id":"cebpf4jnsgd1na2vs0mg"},{"bike_id":"c419d6ff-2dec-4007-bfa6-b30a8ffe9253","system_id":"levelo_inurba_marseille","lat":43.22925,"lon":5.35391,"is_reserved":false,"is_disabled":false,"rental_uris":{"android":"levelo://app?vid=c419d6ff-2dec-4007-bfa6-b30a8ffe9253","ios":"levelo://app?vid=c419d6ff-2dec-4007-bfa6-b30a8ffe9253"},"vehicle_type_id":"4","last_reported":1770732908,"current_range_meters":8400,"station_id":"cpo3532slgdg3j2ikp40","pricing_plan_id":"cebpf4jnsgd1na2vs0mg"},{"bike_id":"508af785-032d-4df0-b8fe-11d0a1bf5f67","system_id":"levelo_inurba_marseille","lat":43.30124,"lon":5.43116,"is_reserved":false,"is_disabled":false,"rental_uris":{"android":"levelo://app?vid=508af785-032d-4df0-b8fe-11d0a1bf5f67","ios":"levelo://app?vid=508af785-032d-4df0-b8fe-11d0a1bf5f67"},"vehicle_type_id":"4","last_reported":1770732908,"current_range_meters":8400,"station_id":"st_d3js3co5814s73ftftug","pricing_plan_id":"cebpf4jnsgd1na2vs0mg"},{"bike_id":"8cf8efa7-3381-4c93-bfa8-8393e494650b","system_id":"levelo_inurba_marseille","lat":43.29035,"lon":5.38642,"is_reserved":false,"is_disabled":false,"rental_uris":{"android":"levelo://app?vid=8cf8efa7-3381-4c93-bfa8-8393e494650b","ios":"levelo://app?vid=8cf8efa7-3381-4c93-bfa8-8393e494650b"},"vehicle_type_id":"4","last_reported":1770732908,"current_range_meters":8400,"station_id":"ce4bh4p2rcd13ifvqe0g","pricing_plan_id":"cebpf4jnsgd1na2vs0mg"},{"bike_id":"61e7a56e-a3a9-4b6a-8720-cb799648adf1","system_id":"levelo_inurba_marseille","lat":43.303223,"lon":5.369057,"is_reserved":false,"is_disabled":false,"rental_uris":{"android":"levelo://app?vid=61e7a56e-a3a9-4b6a-8720-cb799648adf1","ios":"levelo://app?vid=61e7a56e-a3a9-4b6a-8720-cb799648adf1"},"vehicle_type_id":"4","last_reported":1770732908,"current_range_meters":8400,"station_id":"ce4bgqh2rcd13ifvqc5g","pricing_plan_id":"cebpf4jnsgd1na2vs0mg"},{"bike_id":"07a8983d-5f9a-43d9-b148-241b2c2ab4b5","system_id":"levelo_inurba_marseille","lat":43.3095,"lon":5.39058,"is_reserved":false,"is_disabled":false,"rental_uris":{"android":"levelo://app?vid=07a8983d-5f9a-43d9-b148-241b2c2ab4b5","ios":"levelo://app?vid=07a8983d-5f9a-43d9-b148-241b2c2ab4b5"},"vehicle_type_id":"4","last_reported":1770732908,"current_range_meters":8400,"station_id":"ce4bgup2rcd13ifvqco0","pricing_plan_id":"cebpf4jnsgd1na2vs0mg"},{"bike_id":"87056c0a-278d-470f-af70-99a4eb084f35","system_id":"levelo_inurba_marseille","lat":43.24634,"lon":5.43139,"is_reserved":false,"is_disabled":false,"rental_uris":{"android":"levelo://app?vid=87056c0a-278d-470f-af70-99a4eb084f35","ios":"levelo://app?vid=87056c0a-278d-470f-af70-99a4eb084f35"},"vehicle_type_id":"4","last_reported":1770732908,"current_range_meters":8400,"station_id":"st_d2m6c4gdas8pm72e190g","pricing_plan_id":"cebpf4jnsgd1na2vs0mg"},{"bike_id":"3f8bfcbc-5200-4097-84a4-35e09cf8d7ef","system_id":"levelo_inurba_marseille","lat":43.27918,"lon":5.39569,"is_reserved":false,"is_disabled":true,"rental_uris":{"android":"levelo://app?vid=3f8bfcbc-5200-4097-84a4-35e09cf8d7ef","ios":"levelo://app?vid=3f8bfcbc-5200-4097-84a4-35e09cf8d7ef"},"vehicle_type_id":"4","last_reported":1770732908,"current_range_meters":8400,"station_id":"ce4bhf92rcd13ifvqf40","pricing_plan_id":"cebpf4jnsgd1na2vs0mg"},{"bike_id":"022495c5-b220-47df-a910-640b30b657d5","system_id":"levelo_inurba_marseille","lat":43.30495,"lon":5.36725,"is_reserved":false,"is_disabled":false,"rental_uris":{"android":"levelo://app?vid=022495c5-b220-47df-a910-640b30b657d5","ios":"levelo://app?vid=022495c5-b220-47df-a910-640b30b657d5"},"vehicle_type_id":"4","last_reported":1770732908,"current_range_meters":8400,"station_id":"ce4bgrp2rcd13ifvqc9g","pricing_plan_id":"cebpf4jnsgd1na2vs0mg"},{"bike_id":"364e190f-126e-4a75-abd7-5078273f8aca","system_id":"levelo_inurba_marseille","lat":43.30539,"lon":5.36537,"is_reserved":false,"is_disabled":false,"rental_uris":{"android":"levelo://app?vid=364e190f-126e-4a75-abd7-5078273f8aca","ios":"levelo://app?vid=364e190f-126e-4a75-abd7-5078273f8aca"},"vehicle_type_id":"4","last_reported":1770732908,"current_range_meters":8400,"station_id":"ce4bgs12rcd13ifvqcag","pricing_plan_id":"cebpf4jnsgd1na2vs0mg"},{"bike_id":"b0577ca1-afa8-48fa-be5c-f4673c1a2294","system_id":"levelo_inurba_marseille","lat":43.28007,"lon":5.41294,"is_reserved":false,"is_disabled":false,"rental_uris":{"android":"levelo://app?vid=b0577ca1-afa8-48fa-be5c-f4673c1a2294","ios":"levelo://app?vid=b0577ca1-afa8-48fa-be5c-f4673c1a2294"},"vehicle_type_id":"4","last_reported":1770732908,"current_range_meters":8400,"station_id":"","pricing_plan_id":"cebpf4jnsgd1na2vs0mg"},{"bike_id":"ffc2b922-f50e-404c-9f74-2f61873637c8","system_id":"levelo_inurba_marseille","lat":43.3054,"lon":5.36523,"is_reserved":false,"is_disabled":false,"rental_uris":{"android":"levelo://app?vid=ffc2b922-f50e-404c-9f74-2f61873637c8","ios":"levelo://app?vid=ffc2b922-f50e-404c-9f74-2f61873637c8"},"vehicle_type_id":"4","last_reported":1770732908,"current_range_meters":8400,"station_id":"ce4bgs12rcd13ifvqcag","pricing_plan_id":"cebpf4jnsgd1na2vs0mg"},{"bike_id":"1d84a6a9-53dd-4546-9d02-4bb696d8451e","system_id":"levelo_inurba_marseille","lat":43.31721,"lon":5.37381,"is_reserved":false,"is_disabled":false,"rental_uris":{"android":"levelo://app?vid=1d84a6a9-53dd-4546-9d02-4bb696d8451e","ios":"levelo://app?vid=1d84a6a9-53dd-4546-9d02-4bb696d8451e"},"vehicle_type_id":"4","last_reported":1770732908,"current_range_meters":8400,"station_id":"","pricing_plan_id":"cebpf4jnsgd1na2vs0mg"},{"bike_id":"a9e918f2-42a2-407f-a578-70a303444cfa","system_id":"levelo_inurba_marseille","lat":43.27823,"lon":5.39207,"is_reserved":false,"is_disabled":false,"rental_uris":{"android":"levelo://app?vid=a9e918f2-42a2-407f-a578-70a303444cfa","ios":"levelo://app?vid=a9e918f2-42a2-407f-a578-70a303444cfa"},"vehicle_type_id":"4","last_reported":1770732908,"current_range_meters":8400,"station_id":"ce4bhjp2rcd13ifvqga0","pricing_plan_id":"cebpf4jnsgd1na2vs0mg"},{"bike_id":"2d7067a6-7be2-44fa-8d2b-fef81e58d725","system_id":"levelo_inurba_marseille","lat":43.23748,"lon":5.3661,"is_reserved":false,"is_disabled":false,"rental_uris":{"android":"levelo://app?vid=2d7067a6-7be2-44fa-8d2b-fef81e58d725","ios":"levelo://app?vid=2d7067a6-7be2-44fa-8d2b-fef81e58d725"},"vehicle_type_id":"4","last_reported":1770732908,"current_range_meters":8400,"station_id":"","pricing_plan_id":"cebpf4jnsgd1na2vs0mg"},{"bike_id":"1204f32f-48a7-4bb4-b62a-774e14312070","system_id":"levelo_inurba_marseille","lat":43.24191,"lon":5.36382,"is_reserved":false,"is_disabled":false,"rental_uris":{"android":"levelo://app?vid=1204f32f-48a7-4bb4-b62a-774e14312070","ios":"levelo://app?vid=1204f32f-48a7-4bb4-b62a-774e14312070"},"vehicle_type_id":"4","last_reported":1770732908,"current_range_meters":8400,"station_id":"cpo36qri1sfpv3e86is0","pricing_plan_id":"cebpf4jnsgd1na2vs0mg"},{"bike_id":"7edf82c3-a0c2-49c5-8d36-32b2ee24ec30","system_id":"levelo_inurba_marseille","lat":43.30167,"lon":5.38094,"is_reserved":false,"is_disabled":false,"rental_uris":{"android":"levelo://app?vid=7edf82c3-a0c2-49c5-8d36-32b2ee24ec30","ios":"levelo://app?vid=7edf82c3-a0c2-49c5-8d36-32b2ee24ec30"},"vehicle_type_id":"4","last_reported":1770732908,"current_range_meters":8400,"station_id":"ce4bgjp2rcd13ifvqbh0","pricing_plan_id":"cebpf4jnsgd1na2vs0mg"},{"bike_id":"1c120683-67bc-428a-aa0f-bec572dfb863","system_id":"levelo_inurba_marseille","lat":43.25573,"lon":5.38243,"is_reserved":false,"is_disabled":false,"rental_uris":{"android":"levelo://app?vid=1c120683-67bc-428a-aa0f-bec572dfb863","ios":"levelo://app?vid=1c120683-67bc-428a-aa0f-bec572dfb863"},"vehicle_type_id":"4","last_reported":1770732908,"current_range_meters":8800,"station_id":"ce4bhih2rcd13ifvqfs0","pricing_plan_id":"cebpf4jnsgd1na2vs0mg"},{"bike_id":"fe93e1cf-f714-4e41-9dff-90a24aa5f3b8","system_id":"levelo_inurba_marseille","lat":43.24398,"lon":5.37052,"is_reserved":false,"is_disabled":false,"rental_uris":{"android":"levelo://app?vid=fe93e1cf-f714-4e41-9dff-90a24aa5f3b8","ios":"levelo://app?vid=fe93e1cf-f714-4e41-9dff-90a24aa5f3b8"},"vehicle_type_id":"4","last_reported":1770732908,"current_range_meters":8800,"station_id":"ce4bhhh2rcd13ifvqfk0","pricing_plan_id":"cebpf4jnsgd1na2vs0mg"},{"bike_id":"768bfa8f-85c3-4293-acda-e8b1b3e54e84","system_id":"levelo_inurba_marseille","lat":43.27943,"lon":5.38704,"is_reserved":false,"is_disabled":false,"rental_uris":{"android":"levelo://app?vid=768bfa8f-85c3-4293-acda-e8b1b3e54e84","ios":"levelo://app?vid=768bfa8f-85c3-4293-acda-e8b1b3e54e84"},"vehicle_type_id":"4","last_reported":1770732908,"current_range_meters":8800,"station_id":"ce4bhg12rcd13ifvqf80","pricing_plan_id":"cebpf4jnsgd1na2vs0mg"},{"bike_id":"50b635d3-0b93-40ca-af60-8fdd9b2f83d2","system_id":"levelo_inurba_marseille","lat":43.29804,"lon":5.3811,"is_reserved":false,"is_disabled":false,"rental_uris":{"android":"levelo://app?vid=50b635d3-0b93-40ca-af60-8fdd9b2f83d2","ios":"levelo://app?vid=50b635d3-0b93-40ca-af60-8fdd9b2f83d2"},"vehicle_type_id":"4","last_reported":1770732908,"current_range_meters":8800,"station_id":"ce4bgip2rcd13ifvqbb0","pricing_plan_id":"cebpf4jnsgd1na2vs0mg"},{"bike_id":"4659f5f2-43a6-4213-b84f-184d5dec64b3","system_id":"levelo_inurba_marseille","lat":43.33535,"lon":5.37477,"is_reserved":false,"is_disabled":false,"rental_uris":{"android":"levelo://app?vid=4659f5f2-43a6-4213-b84f-184d5dec64b3","ios":"levelo://app?vid=4659f5f2-43a6-4213-b84f-184d5dec64b3"},"vehicle_type_id":"4","last_reported":1770732908,"current_range_meters":8800,"station_id":"st_d46tts09ee8s73dlu43g","pricing_plan_id":"cebpf4jnsgd1na2vs0mg"},{"bike_id":"4dcf94a0-fe1a-48e5-b989-ce415f6f077b","system_id":"levelo_inurba_marseille","lat":43.24545,"lon":5.39523,"is_reserved":false,"is_disabled":false,"rental_uris":{"android":"levelo://app?vid=4dcf94a0-fe1a-48e5-b989-ce415f6f077b","ios":"levelo://app?vid=4dcf94a0-fe1a-48e5-b989-ce415f6f077b"},"vehicle_type_id":"4","last_reported":1770732908,"current_range_meters":8800,"station_id":"ce4bhlp2rcd13ifvqgjg","pricing_plan_id":"cebpf4jnsgd1na2vs0mg"},{"bike_id":"075ebd2d-4fe0-4fac-a734-f1b335beddf9","system_id":"levelo_inurba_marseille","lat":43.299193,"lon":5.380377,"is_reserved":false,"is_disabled":false,"rental_uris":{"android":"levelo://app?vid=075ebd2d-4fe0-4fac-a734-f1b335beddf9","ios":"levelo://app?vid=075ebd2d-4fe0-4fac-a734-f1b335beddf9"},"vehicle_type_id":"4","last_reported":1770732908,"current_range_meters":8800,"station_id":"","pricing_plan_id":"cebpf4jnsgd1na2vs0mg"},{"bike_id":"475fae78-75f9-4675-8012-304224f10313","system_id":"levelo_inurba_marseille","lat":43.33604,"lon":5.37471,"is_reserved":false,"is_disabled":false,"rental_uris":{"android":"levelo://app?vid=475fae78-75f9-4675-8012-304224f10313","ios":"levelo://app?vid=475fae78-75f9-4675-8012-304224f10313"},"vehicle_type_id":"4","last_reported":1770732908,"current_range_meters":8800,"station_id":"","pricing_plan_id":"cebpf4jnsgd1na2vs0mg"},{"bike_id":"0415f26c-4d21-4b4e-aeeb-299f12b793c1","system_id":"levelo_inurba_marseille","lat":43.25516,"lon":5.37641,"is_reserved":false,"is_disabled":false,"rental_uris":{"android":"levelo://app?vid=0415f26c-4d21-4b4e-aeeb-299f12b793c1","ios":"levelo://app?vid=0415f26c-4d21-4b4e-aeeb-299f12b793c1"},"vehicle_type_id":"4","last_reported":1770732908,"current_range_meters":8800,"station_id":"ce4bhh12rcd13ifvqff0","pricing_plan_id":"cebpf4jnsgd1na2vs0mg"},{"bike_id":"eb54f403-f5f5-4152-9cd4-d31f05df5ad8","system_id":"levelo_inurba_marseille","lat":43.26242,"lon":5.4042,"is_reserved":false,"is_disabled":false,"rental_uris":{"android":"levelo://app?vid=eb54f403-f5f5-4152-9cd4-d31f05df5ad8","ios":"levelo://app?vid=eb54f403-f5f5-4152-9cd4-d31f05df5ad8"},"vehicle_type_id":"4","last_reported":1770732908,"current_range_meters":8800,"station_id":"ce4bhmh2rcd13ifvqgmg","pricing_plan_id":"cebpf4jnsgd1na2vs0mg"},{"bike_id":"20607195-413e-4faf-921e-df54bff79f5f","system_id":"levelo_inurba_marseille","lat":43.23403,"lon":5.41224,"is_reserved":false,"is_disabled":false,"rental_uris":{"android":"levelo://app?vid=20607195-413e-4faf-921e-df54bff79f5f","ios":"levelo://app?vid=20607195-413e-4faf-921e-df54bff79f5f"},"vehicle_type_id":"4","last_reported":1770732908,"current_range_meters":8800,"station_id":"","pricing_plan_id":"cebpf4jnsgd1na2vs0mg"},{"bike_id":"27d00542-ccc9-4a77-ae96-c7d7da7b5ef1","system_id":"levelo_inurba_marseille","lat":43.24074,"lon":5.37754,"is_reserved":false,"is_disabled":false,"rental_uris":{"android":"levelo://app?vid=27d00542-ccc9-4a77-ae96-c7d7da7b5ef1","ios":"levelo://app?vid=27d00542-ccc9-4a77-ae96-c7d7da7b5ef1"},"vehicle_type_id":"4","last_reported":1770732908,"current_range_meters":8800,"station_id":"ce4bhnp2rcd13ifvqgvg","pricing_plan_id":"cebpf4jnsgd1na2vs0mg"},{"bike_id":"f3631fda-c0c0-441a-a203-114b757c2c60","system_id":"levelo_inurba_marseille","lat":43.27411,"lon":5.39393,"is_reserved":false,"is_disabled":false,"rental_uris":{"android":"levelo://app?vid=f3631fda-c0c0-441a-a203-114b757c2c60","ios":"levelo://app?vid=f3631fda-c0c0-441a-a203-114b757c2c60"},"vehicle_type_id":"4","last_reported":1770732908,"current_range_meters":8800,"station_id":"ce4bhdp2rcd13ifvqf20","pricing_plan_id":"cebpf4jnsgd1na2vs0mg"},{"bike_id":"801d129f-8b96-4eb5-a68d-7bd6109615f1","system_id":"levelo_inurba_marseille","lat":43.25335,"lon":5.42158,"is_reserved":false,"is_disabled":false,"rental_uris":{"android":"levelo://app?vid=801d129f-8b96-4eb5-a68d-7bd6109615f1","ios":"levelo://app?vid=801d129f-8b96-4eb5-a68d-7bd6109615f1"},"vehicle_type_id":"4","last_reported":1770732908,"current_range_meters":8800,"station_id":"st_d2m65c5bi1j21697t3ng","pricing_plan_id":"cebpf4jnsgd1na2vs0mg"},{"bike_id":"a595811d-e4a2-4edd-bc38-2905c562c34e","system_id":"levelo_inurba_marseille","lat":43.33544,"lon":5.37461,"is_reserved":false,"is_disabled":false,"rental_uris":{"android":"levelo://app?vid=a595811d-e4a2-4edd-bc38-2905c562c34e","ios":"levelo://app?vid=a595811d-e4a2-4edd-bc38-2905c562c34e"},"vehicle_type_id":"4","last_reported":1770732908,"current_range_meters":8800,"station_id":"st_d46tts09ee8s73dlu43g","pricing_plan_id":"cebpf4jnsgd1na2vs0mg"},{"bike_id":"eaa4e92f-aaf1-4952-bcff-4058cf6fb5be","system_id":"levelo_inurba_marseille","lat":43.30169,"lon":5.38083,"is_reserved":false,"is_disabled":false,"rental_uris":{"android":"levelo://app?vid=eaa4e92f-aaf1-4952-bcff-4058cf6fb5be","ios":"levelo://app?vid=eaa4e92f-aaf1-4952-bcff-4058cf6fb5be"},"vehicle_type_id":"4","last_reported":1770732908,"current_range_meters":8800,"station_id":"ce4bgjp2rcd13ifvqbh0","pricing_plan_id":"cebpf4jnsgd1na2vs0mg"},{"bike_id":"4f81683f-f2d6-4623-9b45-d08bb7426b61","system_id":"levelo_inurba_marseille","lat":43.26689,"lon":5.38252,"is_reserved":false,"is_disabled":false,"rental_uris":{"android":"levelo://app?vid=4f81683f-f2d6-4623-9b45-d08bb7426b61","ios":"levelo://app?vid=4f81683f-f2d6-4623-9b45-d08bb7426b61"},"vehicle_type_id":"4","last_reported":1770732908,"current_range_meters":8800,"station_id":"ce4bhg92rcd13ifvqf90","pricing_plan_id":"cebpf4jnsgd1na2vs0mg"},{"bike_id":"d80a7dad-b024-44be-bf46-c2bdc61f664b","system_id":"levelo_inurba_marseille","lat":43.24073,"lon":5.37752,"is_reserved":false,"is_disabled":false,"rental_uris":{"android":"levelo://app?vid=d80a7dad-b024-44be-bf46-c2bdc61f664b","ios":"levelo://app?vid=d80a7dad-b024-44be-bf46-c2bdc61f664b"},"vehicle_type_id":"4","last_reported":1770732908,"current_range_meters":9200,"station_id":"ce4bhnp2rcd13ifvqgvg","pricing_plan_id":"cebpf4jnsgd1na2vs0mg"},{"bike_id":"30fc210e-04d3-4eee-92db-5f8dc86a7695","system_id":"levelo_inurba_marseille","lat":43.3014,"lon":5.37426,"is_reserved":false,"is_disabled":false,"rental_uris":{"android":"levelo://app?vid=30fc210e-04d3-4eee-92db-5f8dc86a7695","ios":"levelo://app?vid=30fc210e-04d3-4eee-92db-5f8dc86a7695"},"vehicle_type_id":"4","last_reported":1770732908,"current_range_meters":9200,"station_id":"ce4bgs92rcd13ifvqcc0","pricing_plan_id":"cebpf4jnsgd1na2vs0mg"},{"bike_id":"a50f7d21-b786-425e-94eb-3a1750941924","system_id":"levelo_inurba_marseille","lat":43.30151,"lon":5.37416,"is_reserved":false,"is_disabled":false,"rental_uris":{"android":"levelo://app?vid=a50f7d21-b786-425e-94eb-3a1750941924","ios":"levelo://app?vid=a50f7d21-b786-425e-94eb-3a1750941924"},"vehicle_type_id":"4","last_reported":1770732908,"current_range_meters":9200,"station_id":"ce4bgs92rcd13ifvqcc0","pricing_plan_id":"cebpf4jnsgd1na2vs0mg"},{"bike_id":"6fd6b1cc-3082-486b-9561-0a705a400cc5","system_id":"levelo_inurba_marseille","lat":43.29632,"lon":5.37705,"is_reserved":false,"is_disabled":false,"rental_uris":{"android":"levelo://app?vid=6fd6b1cc-3082-486b-9561-0a705a400cc5","ios":"levelo://app?vid=6fd6b1cc-3082-486b-9561-0a705a400cc5"},"vehicle_type_id":"4","last_reported":1770732908,"current_range_meters":9200,"station_id":"ce4bgi92rcd13ifvqb90","pricing_plan_id":"cebpf4jnsgd1na2vs0mg"},{"bike_id":"0805dede-8316-46a6-9956-b236da2cf745","system_id":"levelo_inurba_marseille","lat":43.27992,"lon":5.41663,"is_reserved":false,"is_disabled":false,"rental_uris":{"android":"levelo://app?vid=0805dede-8316-46a6-9956-b236da2cf745","ios":"levelo://app?vid=0805dede-8316-46a6-9956-b236da2cf745"},"vehicle_type_id":"4","last_reported":1770732908,"current_range_meters":9200,"station_id":"ce4bho12rcd13ifvqh1g","pricing_plan_id":"cebpf4jnsgd1na2vs0mg"},{"bike_id":"e3d99e1b-4a86-48a9-a106-90bf0477af3a","system_id":"levelo_inurba_marseille","lat":43.26068,"lon":5.39365,"is_reserved":false,"is_disabled":false,"rental_uris":{"android":"levelo://app?vid=e3d99e1b-4a86-48a9-a106-90bf0477af3a","ios":"levelo://app?vid=e3d99e1b-4a86-48a9-a106-90bf0477af3a"},"vehicle_type_id":"4","last_reported":1770732908,"current_range_meters":9200,"station_id":"ce4bhh92rcd13ifvqfj0","pricing_plan_id":"cebpf4jnsgd1na2vs0mg"},{"bike_id":"69cb53c0-4939-4da6-a53e-35e4cb2de7f7","system_id":"levelo_inurba_marseille","lat":43.22552,"lon":5.4163,"is_reserved":false,"is_disabled":false,"rental_uris":{"android":"levelo://app?vid=69cb53c0-4939-4da6-a53e-35e4cb2de7f7","ios":"levelo://app?vid=69cb53c0-4939-4da6-a53e-35e4cb2de7f7"},"vehicle_type_id":"4","last_reported":1770732908,"current_range_meters":9200,"station_id":"st_d2o4gvlbi1j2169b742g","pricing_plan_id":"cebpf4jnsgd1na2vs0mg"},{"bike_id":"ecad8e39-3994-426f-a203-097683c275bd","system_id":"levelo_inurba_marseille","lat":43.32542,"lon":5.41401,"is_reserved":false,"is_disabled":false,"rental_uris":{"android":"levelo://app?vid=ecad8e39-3994-426f-a203-097683c275bd","ios":"levelo://app?vid=ecad8e39-3994-426f-a203-097683c275bd"},"vehicle_type_id":"4","last_reported":1770732908,"current_range_meters":9200,"station_id":"ce4bhq12rcd13ifvqhhg","pricing_plan_id":"cebpf4jnsgd1na2vs0mg"},{"bike_id":"8b4b38ac-f6cb-48ed-90a4-30149ea67fd7","system_id":"levelo_inurba_marseille","lat":43.29087,"lon":5.39909,"is_reserved":false,"is_disabled":false,"rental_uris":{"android":"levelo://app?vid=8b4b38ac-f6cb-48ed-90a4-30149ea67fd7","ios":"levelo://app?vid=8b4b38ac-f6cb-48ed-90a4-30149ea67fd7"},"vehicle_type_id":"4","last_reported":1770732908,"current_range_meters":9200,"station_id":"","pricing_plan_id":"cebpf4jnsgd1na2vs0mg"},{"bike_id":"7a13e2ee-f212-4d4c-8d2c-caa534b4faec","system_id":"levelo_inurba_marseille","lat":43.24188,"lon":5.39719,"is_reserved":false,"is_disabled":false,"rental_uris":{"android":"levelo://app?vid=7a13e2ee-f212-4d4c-8d2c-caa534b4faec","ios":"levelo://app?vid=7a13e2ee-f212-4d4c-8d2c-caa534b4faec"},"vehicle_type_id":"4","last_reported":1770732908,"current_range_meters":9200,"station_id":"ce4bhn12rcd13ifvqgpg","pricing_plan_id":"cebpf4jnsgd1na2vs0mg"},{"bike_id":"dc007c9b-40b2-41f2-8f23-9ee383f58c54","system_id":"levelo_inurba_marseille","lat":43.229322,"lon":5.353841,"is_reserved":false,"is_disabled":false,"rental_uris":{"android":"levelo://app?vid=dc007c9b-40b2-41f2-8f23-9ee383f58c54","ios":"levelo://app?vid=dc007c9b-40b2-41f2-8f23-9ee383f58c54"},"vehicle_type_id":"4","last_reported":1770732908,"current_range_meters":9600,"station_id":"cpo3532slgdg3j2ikp40","pricing_plan_id":"cebpf4jnsgd1na2vs0mg"},{"bike_id":"e746bdcc-4519-4219-b12f-2ce162cafd86","system_id":"levelo_inurba_marseille","lat":43.27837,"lon":5.407,"is_reserved":false,"is_disabled":false,"rental_uris":{"android":"levelo://app?vid=e746bdcc-4519-4219-b12f-2ce162cafd86","ios":"levelo://app?vid=e746bdcc-4519-4219-b12f-2ce162cafd86"},"vehicle_type_id":"4","last_reported":1770732908,"current_range_meters":9600,"station_id":"ce4bhnh2rcd13ifvqgtg","pricing_plan_id":"cebpf4jnsgd1na2vs0mg"},{"bike_id":"8af86347-6f64-41f0-b4b7-8d356a71f338","system_id":"levelo_inurba_marseille","lat":43.28848,"lon":5.35817,"is_reserved":false,"is_disabled":true,"rental_uris":{"android":"levelo://app?vid=8af86347-6f64-41f0-b4b7-8d356a71f338","ios":"levelo://app?vid=8af86347-6f64-41f0-b4b7-8d356a71f338"},"vehicle_type_id":"4","last_reported":1770732908,"current_range_meters":9600,"station_id":"ce4bhb12rcd13ifvqem0","pricing_plan_id":"cebpf4jnsgd1na2vs0mg"},{"bike_id":"927d93f1-b3c2-4d54-a48c-ac7038efa5f7","system_id":"levelo_inurba_marseille","lat":43.26593,"lon":5.40312,"is_reserved":false,"is_disabled":false,"rental_uris":{"android":"levelo://app?vid=927d93f1-b3c2-4d54-a48c-ac7038efa5f7","ios":"levelo://app?vid=927d93f1-b3c2-4d54-a48c-ac7038efa5f7"},"vehicle_type_id":"4","last_reported":1770732908,"current_range_meters":9600,"station_id":"ce4bhmp2rcd13ifvqgng","pricing_plan_id":"cebpf4jnsgd1na2vs0mg"},{"bike_id":"a8033c18-bf59-458a-9eb0-147256918905","system_id":"levelo_inurba_marseille","lat":43.31074,"lon":5.37168,"is_reserved":false,"is_disabled":false,"rental_uris":{"android":"levelo://app?vid=a8033c18-bf59-458a-9eb0-147256918905","ios":"levelo://app?vid=a8033c18-bf59-458a-9eb0-147256918905"},"vehicle_type_id":"4","last_reported":1770732908,"current_range_meters":9600,"station_id":"st_d4kl2rp97mjs73e7tdfg","pricing_plan_id":"cebpf4jnsgd1na2vs0mg"},{"bike_id":"7d5fffb7-7080-46a2-852d-819cd8c83fea","system_id":"levelo_inurba_marseille","lat":43.29568,"lon":5.3752,"is_reserved":false,"is_disabled":false,"rental_uris":{"android":"levelo://app?vid=7d5fffb7-7080-46a2-852d-819cd8c83fea","ios":"levelo://app?vid=7d5fffb7-7080-46a2-852d-819cd8c83fea"},"vehicle_type_id":"4","last_reported":1770732908,"current_range_meters":9600,"station_id":"ce4bgh92rcd13ifvqb50","pricing_plan_id":"cebpf4jnsgd1na2vs0mg"},{"bike_id":"23a5bcc2-e9f9-42dd-a247-6b44170a6c9b","system_id":"levelo_inurba_marseille","lat":43.29986,"lon":5.38489,"is_reserved":false,"is_disabled":false,"rental_uris":{"android":"levelo://app?vid=23a5bcc2-e9f9-42dd-a247-6b44170a6c9b","ios":"levelo://app?vid=23a5bcc2-e9f9-42dd-a247-6b44170a6c9b"},"vehicle_type_id":"4","last_reported":1770732908,"current_range_meters":9600,"station_id":"ce4bgj92rcd13ifvqbd0","pricing_plan_id":"cebpf4jnsgd1na2vs0mg"},{"bike_id":"aaaa13e1-ac7f-4065-b3e5-d38bcf374743","system_id":"levelo_inurba_marseille","lat":43.31083,"lon":5.3717,"is_reserved":false,"is_disabled":false,"rental_uris":{"android":"levelo://app?vid=aaaa13e1-ac7f-4065-b3e5-d38bcf374743","ios":"levelo://app?vid=aaaa13e1-ac7f-4065-b3e5-d38bcf374743"},"vehicle_type_id":"4","last_reported":1770732908,"current_range_meters":9600,"station_id":"st_d4kl2rp97mjs73e7tdfg","pricing_plan_id":"cebpf4jnsgd1na2vs0mg"},{"bike_id":"7a484bb3-56ca-455b-b22b-b5500ccbeacf","system_id":"levelo_inurba_marseille","lat":43.28004,"lon":5.40012,"is_reserved":false,"is_disabled":false,"rental_uris":{"android":"levelo://app?vid=7a484bb3-56ca-455b-b22b-b5500ccbeacf","ios":"levelo://app?vid=7a484bb3-56ca-455b-b22b-b5500ccbeacf"},"vehicle_type_id":"4","last_reported":1770732908,"current_range_meters":9600,"station_id":"ce4bho92rcd13ifvqh4g","pricing_plan_id":"cebpf4jnsgd1na2vs0mg"},{"bike_id":"eb096e12-57b4-4b33-b764-abda7442beb5","system_id":"levelo_inurba_marseille","lat":43.292166,"lon":5.360562,"is_reserved":false,"is_disabled":false,"rental_uris":{"android":"levelo://app?vid=eb096e12-57b4-4b33-b764-abda7442beb5","ios":"levelo://app?vid=eb096e12-57b4-4b33-b764-abda7442beb5"},"vehicle_type_id":"4","last_reported":1770732908,"current_range_meters":9600,"station_id":"","pricing_plan_id":"cebpf4jnsgd1na2vs0mg"},{"bike_id":"9d5f26c4-e1f9-423a-837f-a33fbe90388b","system_id":"levelo_inurba_marseille","lat":43.31762,"lon":5.42377,"is_reserved":false,"is_disabled":false,"rental_uris":{"android":"levelo://app?vid=9d5f26c4-e1f9-423a-837f-a33fbe90388b","ios":"levelo://app?vid=9d5f26c4-e1f9-423a-837f-a33fbe90388b"},"vehicle_type_id":"4","last_reported":1770732908,"current_range_meters":9600,"station_id":"","pricing_plan_id":"cebpf4jnsgd1na2vs0mg"},{"bike_id":"33352d89-c7bd-4d2f-8796-2f3b2fb0783e","system_id":"levelo_inurba_marseille","lat":43.28149,"lon":5.42695,"is_reserved":false,"is_disabled":false,"rental_uris":{"android":"levelo://app?vid=33352d89-c7bd-4d2f-8796-2f3b2fb0783e","ios":"levelo://app?vid=33352d89-c7bd-4d2f-8796-2f3b2fb0783e"},"vehicle_type_id":"4","last_reported":1770732908,"current_range_meters":9600,"station_id":"ce4bhnh2rcd13ifvqgug","pricing_plan_id":"cebpf4jnsgd1na2vs0mg"},{"bike_id":"0db530a1-9821-453a-878e-fb6063868eb6","system_id":"levelo_inurba_marseille","lat":43.22939,"lon":5.35376,"is_reserved":false,"is_disabled":false,"rental_uris":{"android":"levelo://app?vid=0db530a1-9821-453a-878e-fb6063868eb6","ios":"levelo://app?vid=0db530a1-9821-453a-878e-fb6063868eb6"},"vehicle_type_id":"4","last_reported":1770732908,"current_range_meters":9600,"station_id":"cpo3532slgdg3j2ikp40","pricing_plan_id":"cebpf4jnsgd1na2vs0mg"},{"bike_id":"7c807a3f-7af9-4c3d-a172-9f60b84073b7","system_id":"levelo_inurba_marseille","lat":43.27967,"lon":5.42399,"is_reserved":false,"is_disabled":false,"rental_uris":{"android":"levelo://app?vid=7c807a3f-7af9-4c3d-a172-9f60b84073b7","ios":"levelo://app?vid=7c807a3f-7af9-4c3d-a172-9f60b84073b7"},"vehicle_type_id":"4","last_reported":1770732908,"current_range_meters":9600,"station_id":"","pricing_plan_id":"cebpf4jnsgd1na2vs0mg"},{"bike_id":"c177022f-aaf6-4300-a13b-640a1821171a","system_id":"levelo_inurba_marseille","lat":43.29775,"lon":5.44092,"is_reserved":false,"is_disabled":false,"rental_uris":{"android":"levelo://app?vid=c177022f-aaf6-4300-a13b-640a1821171a","ios":"levelo://app?vid=c177022f-aaf6-4300-a13b-640a1821171a"},"vehicle_type_id":"4","last_reported":1770732908,"current_range_meters":9600,"station_id":"st_d3jp68qikq2c7381ktn0","pricing_plan_id":"cebpf4jnsgd1na2vs0mg"},{"bike_id":"6ef266e1-b28a-4809-9c41-6a2491e4d8ee","system_id":"levelo_inurba_marseille","lat":43.296809,"lon":5.372822,"is_reserved":false,"is_disabled":false,"rental_uris":{"android":"levelo://app?vid=6ef266e1-b28a-4809-9c41-6a2491e4d8ee","ios":"levelo://app?vid=6ef266e1-b28a-4809-9c41-6a2491e4d8ee"},"vehicle_type_id":"4","last_reported":1770732908,"current_range_meters":10000,"station_id":"ce4bgk12rcd13ifvqbj0","pricing_plan_id":"cebpf4jnsgd1na2vs0mg"},{"bike_id":"07570b8e-02e8-46f0-9f69-f52838f42813","system_id":"levelo_inurba_marseille","lat":43.25882,"lon":5.40885,"is_reserved":false,"is_disabled":false,"rental_uris":{"android":"levelo://app?vid=07570b8e-02e8-46f0-9f69-f52838f42813","ios":"levelo://app?vid=07570b8e-02e8-46f0-9f69-f52838f42813"},"vehicle_type_id":"4","last_reported":1770732908,"current_range_meters":10000,"station_id":"","pricing_plan_id":"cebpf4jnsgd1na2vs0mg"},{"bike_id":"9c4fa197-e784-47a1-9a3e-1e64aa186f14","system_id":"levelo_inurba_marseille","lat":43.25936,"lon":5.40905,"is_reserved":false,"is_disabled":false,"rental_uris":{"android":"levelo://app?vid=9c4fa197-e784-47a1-9a3e-1e64aa186f14","ios":"levelo://app?vid=9c4fa197-e784-47a1-9a3e-1e64aa186f14"},"vehicle_type_id":"4","last_reported":1770732908,"current_range_meters":10000,"station_id":"ce4bhm92rcd13ifvqglg","pricing_plan_id":"cebpf4jnsgd1na2vs0mg"},{"bike_id":"d3ff72dc-5551-4917-81f1-dd8f1a42992a","system_id":"levelo_inurba_marseille","lat":43.31351,"lon":5.3675,"is_reserved":false,"is_disabled":false,"rental_uris":{"android":"levelo://app?vid=d3ff72dc-5551-4917-81f1-dd8f1a42992a","ios":"levelo://app?vid=d3ff72dc-5551-4917-81f1-dd8f1a42992a"},"vehicle_type_id":"4","last_reported":1770732908,"current_range_meters":10000,"station_id":"ce4bgr92rcd13ifvqc6g","pricing_plan_id":"cebpf4jnsgd1na2vs0mg"},{"bike_id":"0d4b82a5-aa43-451c-8c0f-ee433668cdaf","system_id":"levelo_inurba_marseille","lat":43.28859,"lon":5.39342,"is_reserved":false,"is_disabled":true,"rental_uris":{"android":"levelo://app?vid=0d4b82a5-aa43-451c-8c0f-ee433668cdaf","ios":"levelo://app?vid=0d4b82a5-aa43-451c-8c0f-ee433668cdaf"},"vehicle_type_id":"4","last_reported":1770732908,"current_range_meters":10000,"station_id":"ce4bh2p2rcd13ifvqdi0","pricing_plan_id":"cebpf4jnsgd1na2vs0mg"},{"bike_id":"8ff4a9fa-0d2e-4f7f-8193-e7a8dba5ca9a","system_id":"levelo_inurba_marseille","lat":43.258663,"lon":5.399035,"is_reserved":false,"is_disabled":false,"rental_uris":{"android":"levelo://app?vid=8ff4a9fa-0d2e-4f7f-8193-e7a8dba5ca9a","ios":"levelo://app?vid=8ff4a9fa-0d2e-4f7f-8193-e7a8dba5ca9a"},"vehicle_type_id":"4","last_reported":1770732908,"current_range_meters":10000,"station_id":"ce4bhl92rcd13ifvqghg","pricing_plan_id":"cebpf4jnsgd1na2vs0mg"},{"bike_id":"ae861497-9a22-4231-afa9-8238d5c5713c","system_id":"levelo_inurba_marseille","lat":43.24191,"lon":5.36365,"is_reserved":false,"is_disabled":false,"rental_uris":{"android":"levelo://app?vid=ae861497-9a22-4231-afa9-8238d5c5713c","ios":"levelo://app?vid=ae861497-9a22-4231-afa9-8238d5c5713c"},"vehicle_type_id":"4","last_reported":1770732908,"current_range_meters":10000,"station_id":"cpo36qri1sfpv3e86is0","pricing_plan_id":"cebpf4jnsgd1na2vs0mg"},{"bike_id":"59e41c6f-f0d8-4ae9-9a68-fc72bf48da44","system_id":"levelo_inurba_marseille","lat":43.23184,"lon":5.39976,"is_reserved":false,"is_disabled":false,"rental_uris":{"android":"levelo://app?vid=59e41c6f-f0d8-4ae9-9a68-fc72bf48da44","ios":"levelo://app?vid=59e41c6f-f0d8-4ae9-9a68-fc72bf48da44"},"vehicle_type_id":"4","last_reported":1770732908,"current_range_meters":10000,"station_id":"ce4bhn12rcd13ifvqgqg","pricing_plan_id":"cebpf4jnsgd1na2vs0mg"},{"bike_id":"5ed0f3ca-c4eb-409c-9eb1-a3eed1b5d0e0","system_id":"levelo_inurba_marseille","lat":43.30386,"lon":5.42485,"is_reserved":false,"is_disabled":false,"rental_uris":{"android":"levelo://app?vid=5ed0f3ca-c4eb-409c-9eb1-a3eed1b5d0e0","ios":"levelo://app?vid=5ed0f3ca-c4eb-409c-9eb1-a3eed1b5d0e0"},"vehicle_type_id":"4","last_reported":1770732908,"current_range_meters":10000,"station_id":"ce4bhoh2rcd13ifvqh6g","pricing_plan_id":"cebpf4jnsgd1na2vs0mg"},{"bike_id":"62b599d7-7d96-4124-b2bf-6500c838139c","system_id":"levelo_inurba_marseille","lat":43.28085,"lon":5.3963,"is_reserved":false,"is_disabled":false,"rental_uris":{"android":"levelo://app?vid=62b599d7-7d96-4124-b2bf-6500c838139c","ios":"levelo://app?vid=62b599d7-7d96-4124-b2bf-6500c838139c"},"vehicle_type_id":"4","last_reported":1770732908,"current_range_meters":10000,"station_id":"ce4bho12rcd13ifvqh2g","pricing_plan_id":"cebpf4jnsgd1na2vs0mg"},{"bike_id":"3a856aa1-6d68-474f-914c-6c2b356a8cde","system_id":"levelo_inurba_marseille","lat":43.24174,"lon":5.39726,"is_reserved":false,"is_disabled":false,"rental_uris":{"android":"levelo://app?vid=3a856aa1-6d68-474f-914c-6c2b356a8cde","ios":"levelo://app?vid=3a856aa1-6d68-474f-914c-6c2b356a8cde"},"vehicle_type_id":"4","last_reported":1770732908,"current_range_meters":10000,"station_id":"ce4bhn12rcd13ifvqgpg","pricing_plan_id":"cebpf4jnsgd1na2vs0mg"},{"bike_id":"165c9c44-1125-4628-bb76-842b5baeaf01","system_id":"levelo_inurba_marseille","lat":43.2468,"lon":5.38141,"is_reserved":false,"is_disabled":false,"rental_uris":{"android":"levelo://app?vid=165c9c44-1125-4628-bb76-842b5baeaf01","ios":"levelo://app?vid=165c9c44-1125-4628-bb76-842b5baeaf01"},"vehicle_type_id":"4","last_reported":1770732908,"current_range_meters":10000,"station_id":"ce4bhih2rcd13ifvqfr0","pricing_plan_id":"cebpf4jnsgd1na2vs0mg"},{"bike_id":"cc43a2a6-4df1-46ee-89a5-e5908a5338ed","system_id":"levelo_inurba_marseille","lat":43.28484,"lon":5.48376,"is_reserved":false,"is_disabled":false,"rental_uris":{"android":"levelo://app?vid=cc43a2a6-4df1-46ee-89a5-e5908a5338ed","ios":"levelo://app?vid=cc43a2a6-4df1-46ee-89a5-e5908a5338ed"},"vehicle_type_id":"4","last_reported":1770732908,"current_range_meters":10000,"station_id":"st_d3svhcjqgbts73a3dn0g","pricing_plan_id":"cebpf4jnsgd1na2vs0mg"},{"bike_id":"e532d849-9da4-492c-974e-21e564fe6f6a","system_id":"levelo_inurba_marseille","lat":43.31047,"lon":5.37179,"is_reserved":false,"is_disabled":false,"rental_uris":{"android":"levelo://app?vid=e532d849-9da4-492c-974e-21e564fe6f6a","ios":"levelo://app?vid=e532d849-9da4-492c-974e-21e564fe6f6a"},"vehicle_type_id":"4","last_reported":1770732908,"current_range_meters":10800,"station_id":"st_d4kl2rp97mjs73e7tdfg","pricing_plan_id":"cebpf4jnsgd1na2vs0mg"},{"bike_id":"fe86c9ba-789d-48cb-b139-57215407552e","system_id":"levelo_inurba_marseille","lat":43.33758,"lon":5.37471,"is_reserved":false,"is_disabled":false,"rental_uris":{"android":"levelo://app?vid=fe86c9ba-789d-48cb-b139-57215407552e","ios":"levelo://app?vid=fe86c9ba-789d-48cb-b139-57215407552e"},"vehicle_type_id":"4","last_reported":1770732908,"current_range_meters":10800,"station_id":"","pricing_plan_id":"cebpf4jnsgd1na2vs0mg"},{"bike_id":"c6176d61-506f-4755-a0d6-6ccb9566f89a","system_id":"levelo_inurba_marseille","lat":43.25704,"lon":5.41137,"is_reserved":false,"is_disabled":false,"rental_uris":{"android":"levelo://app?vid=c6176d61-506f-4755-a0d6-6ccb9566f89a","ios":"levelo://app?vid=c6176d61-506f-4755-a0d6-6ccb9566f89a"},"vehicle_type_id":"4","last_reported":1770732908,"current_range_meters":10800,"station_id":"ce4bhkp2rcd13ifvqgd0","pricing_plan_id":"cebpf4jnsgd1na2vs0mg"},{"bike_id":"02022333-26ac-420a-a42a-bc7c343c4e9c","system_id":"levelo_inurba_marseille","lat":43.297939,"lon":5.381263,"is_reserved":false,"is_disabled":false,"rental_uris":{"android":"levelo://app?vid=02022333-26ac-420a-a42a-bc7c343c4e9c","ios":"levelo://app?vid=02022333-26ac-420a-a42a-bc7c343c4e9c"},"vehicle_type_id":"4","last_reported":1770732908,"current_range_meters":10800,"station_id":"ce4bgip2rcd13ifvqbb0","pricing_plan_id":"cebpf4jnsgd1na2vs0mg"},{"bike_id":"764497c5-c703-433d-92fd-e0895530a07e","system_id":"levelo_inurba_marseille","lat":43.30729,"lon":5.3784,"is_reserved":false,"is_disabled":false,"rental_uris":{"android":"levelo://app?vid=764497c5-c703-433d-92fd-e0895530a07e","ios":"levelo://app?vid=764497c5-c703-433d-92fd-e0895530a07e"},"vehicle_type_id":"4","last_reported":1770732908,"current_range_meters":10800,"station_id":"","pricing_plan_id":"cebpf4jnsgd1na2vs0mg"},{"bike_id":"d997c6b7-acb1-4efa-ae35-2d8c161e2e69","system_id":"levelo_inurba_marseille","lat":43.231984,"lon":5.355542,"is_reserved":false,"is_disabled":false,"rental_uris":{"android":"levelo://app?vid=d997c6b7-acb1-4efa-ae35-2d8c161e2e69","ios":"levelo://app?vid=d997c6b7-acb1-4efa-ae35-2d8c161e2e69"},"vehicle_type_id":"4","last_reported":1770732908,"current_range_meters":10800,"station_id":"ce4bhu92rcd13ifvqi70","pricing_plan_id":"cebpf4jnsgd1na2vs0mg"},{"bike_id":"fa812608-945a-4d7e-9221-b6f7a182b7dc","system_id":"levelo_inurba_marseille","lat":43.312124,"lon":5.368639,"is_reserved":false,"is_disabled":false,"rental_uris":{"android":"levelo://app?vid=fa812608-945a-4d7e-9221-b6f7a182b7dc","ios":"levelo://app?vid=fa812608-945a-4d7e-9221-b6f7a182b7dc"},"vehicle_type_id":"4","last_reported":1770732908,"current_range_meters":10800,"station_id":"ce4bgl92rcd13ifvqbq0","pricing_plan_id":"cebpf4jnsgd1na2vs0mg"},{"bike_id":"d6b9d7ff-4ec2-4ca9-ba28-5a5dad54cfd3","system_id":"levelo_inurba_marseille","lat":43.2848,"lon":5.48392,"is_reserved":false,"is_disabled":false,"rental_uris":{"android":"levelo://app?vid=d6b9d7ff-4ec2-4ca9-ba28-5a5dad54cfd3","ios":"levelo://app?vid=d6b9d7ff-4ec2-4ca9-ba28-5a5dad54cfd3"},"vehicle_type_id":"4","last_reported":1770732908,"current_range_meters":10800,"station_id":"","pricing_plan_id":"cebpf4jnsgd1na2vs0mg"},{"bike_id":"3a943705-b4f9-4f55-8a7c-50609b9737f8","system_id":"levelo_inurba_marseille","lat":43.285,"lon":5.38576,"is_reserved":false,"is_disabled":false,"rental_uris":{"android":"levelo://app?vid=3a943705-b4f9-4f55-8a7c-50609b9737f8","ios":"levelo://app?vid=3a943705-b4f9-4f55-8a7c-50609b9737f8"},"vehicle_type_id":"4","last_reported":1770732908,"current_range_meters":10800,"station_id":"ce4bh8p2rcd13ifvqeb0","pricing_plan_id":"cebpf4jnsgd1na2vs0mg"},{"bike_id":"ac9a885a-fe7d-4871-905c-95e91acf3aa8","system_id":"levelo_inurba_marseille","lat":43.22565,"lon":5.41618,"is_reserved":false,"is_disabled":false,"rental_uris":{"android":"levelo://app?vid=ac9a885a-fe7d-4871-905c-95e91acf3aa8","ios":"levelo://app?vid=ac9a885a-fe7d-4871-905c-95e91acf3aa8"},"vehicle_type_id":"4","last_reported":1770732908,"current_range_meters":10800,"station_id":"st_d2o4gvlbi1j2169b742g","pricing_plan_id":"cebpf4jnsgd1na2vs0mg"},{"bike_id":"39fb8e69-2b6b-438f-8552-9a0b81d00df8","system_id":"levelo_inurba_marseille","lat":43.298965,"lon":5.436681,"is_reserved":false,"is_disabled":false,"rental_uris":{"android":"levelo://app?vid=39fb8e69-2b6b-438f-8552-9a0b81d00df8","ios":"levelo://app?vid=39fb8e69-2b6b-438f-8552-9a0b81d00df8"},"vehicle_type_id":"4","last_reported":1770732908,"current_range_meters":10800,"station_id":"","pricing_plan_id":"cebpf4jnsgd1na2vs0mg"},{"bike_id":"1fc1c565-3bf3-488d-905d-2b424eb75bfa","system_id":"levelo_inurba_marseille","lat":43.33241,"lon":5.36903,"is_reserved":false,"is_disabled":false,"rental_uris":{"android":"levelo://app?vid=1fc1c565-3bf3-488d-905d-2b424eb75bfa","ios":"levelo://app?vid=1fc1c565-3bf3-488d-905d-2b424eb75bfa"},"vehicle_type_id":"4","last_reported":1770732908,"current_range_meters":10800,"station_id":"","pricing_plan_id":"cebpf4jnsgd1na2vs0mg"},{"bike_id":"34f8e074-3ef6-4fc0-b365-a6c7bb88a156","system_id":"levelo_inurba_marseille","lat":43.30462,"lon":5.37844,"is_reserved":false,"is_disabled":false,"rental_uris":{"android":"levelo://app?vid=34f8e074-3ef6-4fc0-b365-a6c7bb88a156","ios":"levelo://app?vid=34f8e074-3ef6-4fc0-b365-a6c7bb88a156"},"vehicle_type_id":"4","last_reported":1770732908,"current_range_meters":11200,"station_id":"ce4bgup2rcd13ifvqcn0","pricing_plan_id":"cebpf4jnsgd1na2vs0mg"},{"bike_id":"bed8121f-57c6-4d1c-9dc6-736c3ca6338b","system_id":"levelo_inurba_marseille","lat":43.29031,"lon":5.38643,"is_reserved":false,"is_disabled":false,"rental_uris":{"android":"levelo://app?vid=bed8121f-57c6-4d1c-9dc6-736c3ca6338b","ios":"levelo://app?vid=bed8121f-57c6-4d1c-9dc6-736c3ca6338b"},"vehicle_type_id":"4","last_reported":1770732908,"current_range_meters":11200,"station_id":"ce4bh4p2rcd13ifvqe0g","pricing_plan_id":"cebpf4jnsgd1na2vs0mg"},{"bike_id":"a0d5465b-a2a2-4398-92d1-adaa8ea4fc1f","system_id":"levelo_inurba_marseille","lat":43.24086,"lon":5.37736,"is_reserved":false,"is_disabled":false,"rental_uris":{"android":"levelo://app?vid=a0d5465b-a2a2-4398-92d1-adaa8ea4fc1f","ios":"levelo://app?vid=a0d5465b-a2a2-4398-92d1-adaa8ea4fc1f"},"vehicle_type_id":"4","last_reported":1770732908,"current_range_meters":11200,"station_id":"ce4bhnp2rcd13ifvqgvg","pricing_plan_id":"cebpf4jnsgd1na2vs0mg"},{"bike_id":"da58e134-53b3-40f6-92d1-017a2db9db9e","system_id":"levelo_inurba_marseille","lat":43.29605,"lon":5.37716,"is_reserved":false,"is_disabled":false,"rental_uris":{"android":"levelo://app?vid=da58e134-53b3-40f6-92d1-017a2db9db9e","ios":"levelo://app?vid=da58e134-53b3-40f6-92d1-017a2db9db9e"},"vehicle_type_id":"4","last_reported":1770732908,"current_range_meters":11200,"station_id":"ce4bgi92rcd13ifvqb90","pricing_plan_id":"cebpf4jnsgd1na2vs0mg"},{"bike_id":"a56ed56e-97a2-4d54-bb39-c008e67c4922","system_id":"levelo_inurba_marseille","lat":43.243952,"lon":5.370678,"is_reserved":false,"is_disabled":false,"rental_uris":{"android":"levelo://app?vid=a56ed56e-97a2-4d54-bb39-c008e67c4922","ios":"levelo://app?vid=a56ed56e-97a2-4d54-bb39-c008e67c4922"},"vehicle_type_id":"4","last_reported":1770732908,"current_range_meters":11200,"station_id":"ce4bhhh2rcd13ifvqfk0","pricing_plan_id":"cebpf4jnsgd1na2vs0mg"},{"bike_id":"8929e58b-7e0b-482d-9575-20f88da9c21e","system_id":"levelo_inurba_marseille","lat":43.29806,"lon":5.38099,"is_reserved":false,"is_disabled":false,"rental_uris":{"android":"levelo://app?vid=8929e58b-7e0b-482d-9575-20f88da9c21e","ios":"levelo://app?vid=8929e58b-7e0b-482d-9575-20f88da9c21e"},"vehicle_type_id":"4","last_reported":1770732908,"current_range_meters":11200,"station_id":"ce4bgip2rcd13ifvqbb0","pricing_plan_id":"cebpf4jnsgd1na2vs0mg"},{"bike_id":"0026c5ca-3f53-4428-8c00-207be1a45839","system_id":"levelo_inurba_marseille","lat":43.309547,"lon":5.390497,"is_reserved":false,"is_disabled":false,"rental_uris":{"android":"levelo://app?vid=0026c5ca-3f53-4428-8c00-207be1a45839","ios":"levelo://app?vid=0026c5ca-3f53-4428-8c00-207be1a45839"},"vehicle_type_id":"4","last_reported":1770732908,"current_range_meters":11200,"station_id":"ce4bgup2rcd13ifvqco0","pricing_plan_id":"cebpf4jnsgd1na2vs0mg"},{"bike_id":"07548cfa-c4ff-4bcb-ae0f-6feee23db8f3","system_id":"levelo_inurba_marseille","lat":43.22541,"lon":5.41636,"is_reserved":false,"is_disabled":false,"rental_uris":{"android":"levelo://app?vid=07548cfa-c4ff-4bcb-ae0f-6feee23db8f3","ios":"levelo://app?vid=07548cfa-c4ff-4bcb-ae0f-6feee23db8f3"},"vehicle_type_id":"4","last_reported":1770732908,"current_range_meters":11200,"station_id":"st_d2o4gvlbi1j2169b742g","pricing_plan_id":"cebpf4jnsgd1na2vs0mg"},{"bike_id":"fd413ed1-5364-48d8-bf77-2aa280c288f5","system_id":"levelo_inurba_marseille","lat":43.26212,"lon":5.37922,"is_reserved":false,"is_disabled":true,"rental_uris":{"android":"levelo://app?vid=fd413ed1-5364-48d8-bf77-2aa280c288f5","ios":"levelo://app?vid=fd413ed1-5364-48d8-bf77-2aa280c288f5"},"vehicle_type_id":"4","last_reported":1770732908,"current_range_meters":11600,"station_id":"ce4bhjp2rcd13ifvqg90","pricing_plan_id":"cebpf4jnsgd1na2vs0mg"},{"bike_id":"a28e2e1c-723e-460f-995b-5d7fd3074900","system_id":"levelo_inurba_marseille","lat":43.29792,"lon":5.38112,"is_reserved":false,"is_disabled":false,"rental_uris":{"android":"levelo://app?vid=a28e2e1c-723e-460f-995b-5d7fd3074900","ios":"levelo://app?vid=a28e2e1c-723e-460f-995b-5d7fd3074900"},"vehicle_type_id":"4","last_reported":1770732908,"current_range_meters":11600,"station_id":"","pricing_plan_id":"cebpf4jnsgd1na2vs0mg"},{"bike_id":"0cad91d7-1079-467e-882f-8f8ec527c2c5","system_id":"levelo_inurba_marseille","lat":43.23144,"lon":5.40027,"is_reserved":false,"is_disabled":false,"rental_uris":{"android":"levelo://app?vid=0cad91d7-1079-467e-882f-8f8ec527c2c5","ios":"levelo://app?vid=0cad91d7-1079-467e-882f-8f8ec527c2c5"},"vehicle_type_id":"4","last_reported":1770732908,"current_range_meters":11600,"station_id":"ce4bhn12rcd13ifvqgqg","pricing_plan_id":"cebpf4jnsgd1na2vs0mg"},{"bike_id":"3018a6e7-f8e1-4354-a34f-d2ad39cf5b0a","system_id":"levelo_inurba_marseille","lat":43.29603,"lon":5.38094,"is_reserved":false,"is_disabled":false,"rental_uris":{"android":"levelo://app?vid=3018a6e7-f8e1-4354-a34f-d2ad39cf5b0a","ios":"levelo://app?vid=3018a6e7-f8e1-4354-a34f-d2ad39cf5b0a"},"vehicle_type_id":"4","last_reported":1770732908,"current_range_meters":11600,"station_id":"ce4bgl12rcd13ifvqbo0","pricing_plan_id":"cebpf4jnsgd1na2vs0mg"},{"bike_id":"df33b6c2-4d7d-4d51-98fe-f6e773c9f42e","system_id":"levelo_inurba_marseille","lat":43.231502,"lon":5.437101,"is_reserved":false,"is_disabled":false,"rental_uris":{"android":"levelo://app?vid=df33b6c2-4d7d-4d51-98fe-f6e773c9f42e","ios":"levelo://app?vid=df33b6c2-4d7d-4d51-98fe-f6e773c9f42e"},"vehicle_type_id":"4","last_reported":1770732908,"current_range_meters":11600,"station_id":"ce4bhmp2rcd13ifvqgog","pricing_plan_id":"cebpf4jnsgd1na2vs0mg"},{"bike_id":"d3269cd1-0e89-4e18-84f2-9b9a7f20a2c5","system_id":"levelo_inurba_marseille","lat":43.29255,"lon":5.40916,"is_reserved":false,"is_disabled":false,"rental_uris":{"android":"levelo://app?vid=d3269cd1-0e89-4e18-84f2-9b9a7f20a2c5","ios":"levelo://app?vid=d3269cd1-0e89-4e18-84f2-9b9a7f20a2c5"},"vehicle_type_id":"4","last_reported":1770732908,"current_range_meters":11600,"station_id":"ce4bh192rcd13ifvqdc0","pricing_plan_id":"cebpf4jnsgd1na2vs0mg"},{"bike_id":"8871f31b-3839-4010-bfc1-4f489594a71e","system_id":"levelo_inurba_marseille","lat":43.2457,"lon":5.39504,"is_reserved":false,"is_disabled":false,"rental_uris":{"android":"levelo://app?vid=8871f31b-3839-4010-bfc1-4f489594a71e","ios":"levelo://app?vid=8871f31b-3839-4010-bfc1-4f489594a71e"},"vehicle_type_id":"4","last_reported":1770732908,"current_range_meters":11600,"station_id":"ce4bhlp2rcd13ifvqgjg","pricing_plan_id":"cebpf4jnsgd1na2vs0mg"},{"bike_id":"1e4a7842-cd51-4881-b298-8b4cc321effe","system_id":"levelo_inurba_marseille","lat":43.2439,"lon":5.37071,"is_reserved":false,"is_disabled":false,"rental_uris":{"android":"levelo://app?vid=1e4a7842-cd51-4881-b298-8b4cc321effe","ios":"levelo://app?vid=1e4a7842-cd51-4881-b298-8b4cc321effe"},"vehicle_type_id":"4","last_reported":1770732908,"current_range_meters":11600,"station_id":"ce4bhhh2rcd13ifvqfk0","pricing_plan_id":"cebpf4jnsgd1na2vs0mg"},{"bike_id":"7e6499fe-7522-4568-ad71-eb9ec5e8bc0e","system_id":"levelo_inurba_marseille","lat":43.29015,"lon":5.38126,"is_reserved":false,"is_disabled":false,"rental_uris":{"android":"levelo://app?vid=7e6499fe-7522-4568-ad71-eb9ec5e8bc0e","ios":"levelo://app?vid=7e6499fe-7522-4568-ad71-eb9ec5e8bc0e"},"vehicle_type_id":"4","last_reported":1770732908,"current_range_meters":11600,"station_id":"ce4bh4p2rcd13ifvqe1g","pricing_plan_id":"cebpf4jnsgd1na2vs0mg"},{"bike_id":"77dc2865-3576-4e1a-8188-65c317bd4b97","system_id":"levelo_inurba_marseille","lat":43.28219,"lon":5.39068,"is_reserved":false,"is_disabled":false,"rental_uris":{"android":"levelo://app?vid=77dc2865-3576-4e1a-8188-65c317bd4b97","ios":"levelo://app?vid=77dc2865-3576-4e1a-8188-65c317bd4b97"},"vehicle_type_id":"4","last_reported":1770732908,"current_range_meters":12000,"station_id":"ce4bhn92rcd13ifvqgsg","pricing_plan_id":"cebpf4jnsgd1na2vs0mg"},{"bike_id":"11797fa8-b861-4582-9978-ebaaea2183ac","system_id":"levelo_inurba_marseille","lat":43.29727,"lon":5.37675,"is_reserved":false,"is_disabled":false,"rental_uris":{"android":"levelo://app?vid=11797fa8-b861-4582-9978-ebaaea2183ac","ios":"levelo://app?vid=11797fa8-b861-4582-9978-ebaaea2183ac"},"vehicle_type_id":"4","last_reported":1770732908,"current_range_meters":12000,"station_id":"ce4bgkh2rcd13ifvqbl0","pricing_plan_id":"cebpf4jnsgd1na2vs0mg"},