{"last_updated":1748560169,"ttl":60,"version":"2.2","data":{"bikes":[{"bike_id":"8d34357e-16d8-43e7-b019-9f9cc730acd7","system_id":"levelo_inurba_marseille","lat":43.30302,"lon":5.39214,"is_reserved":false,"is_disabled":false,"rental_uris":{"android":"levelo://app?vid=8d34357e-16d8-43e7-b019-9f9cc730acd7","ios":"levelo://app?vid=8d34357e-16d8-43e7-b019-9f9cc730acd7"},"vehicle_type_id":"4","last_reported":1748560169,"current_range_meters":2800,"station_id":"ce4bgkh2rcd13ifvqbk0","pricing_plan_id":"cebpf4jnsgd1na2vs0mg"},{"bike_id":"61e5ccb5-718d-4b82-ba49-0829a90b1a4f","system_id":"levelo_inurba_marseille","lat":43.28663,"lon":5.38676,"is_reserved":false,"is_disabled":false,"rental_uris":{"android":"levelo://app?vid=61e5ccb5-718d-4b82-ba49-0829a90b1a4f","ios":"levelo://app?vid=61e5ccb5-718d-4b82-ba49-0829a90b1a4f"},"vehicle_type_id":"4","last_reported":1748560169,"current_range_meters":2800,"station_id":"ce4bh492rcd13ifvqdug","pricing_plan_id":"cebpf4jnsgd1na2vs0mg"},{"bike_id":"8d58868a-90c7-4354-bd95-c9b1424e7e94","system_id":"levelo_inurba_marseille","lat":43.308718,"lon":5.374362,"is_reserved":false,"is_disabled":false,"rental_uris":{"android":"levelo://app?vid=8d58868a-90c7-4354-bd95-c9b1424e7e94","ios":"levelo://app?vid=8d58868a-90c7-4354-bd95-c9b1424e7e94"},"vehicle_type_id":"4","last_reported":1748560169,"current_range_meters":3200,"station_id":"","pricing_plan_id":"cebpf4jnsgd1na2vs0mg"},{"bike_id":"d3ef4e21-4fb1-47ad-8f4c-fb5af05993f1","system_id":"levelo_inurba_marseille","lat":43.2993,"lon":5.36545,"is_reserved":false,"is_disabled":false,"rental_uris":{"android":"levelo://app?vid=d3ef4e21-4fb1-47ad-8f4c-fb5af05993f1","ios":"levelo://app?vid=d3ef4e21-4fb1-47ad-8f4c-fb5af05993f1"},"vehicle_type_id":"4","last_reported":1748560169,"current_range_meters":3200,"station_id":"ce4bgm92rcd13ifvqbr0","pricing_plan_id":"cebpf4jnsgd1na2vs0mg"},{"bike_id":"b80ee325-09b2-4724-993d-4f8d3707c41c","system_id":"levelo_inurba_marseille","lat":43.25862,"lon":5.39902,"is_reserved":false,"is_disabled":true,"rental_uris":{"android":"levelo://app?vid=b80ee325-09b2-4724-993d-4f8d3707c41c","ios":"levelo://app?vid=b80ee325-09b2-4724-993d-4f8d3707c41c"},"vehicle_type_id":"4","last_reported":1748560169,"current_range_meters":3200,"station_id":"ce4bhl92rcd13ifvqghg","pricing_plan_id":"cebpf4jnsgd1na2vs0mg"},{"bike_id":"b626cf13-fc16-4592-b647-d8ec5b0b5292","system_id":"levelo_inurba_marseille","lat":43.28369,"lon":5.38644,"is_reserved":false,"is_disabled":false,"rental_uris":{"android":"levelo://app?vid=b626cf13-fc16-4592-b647-d8ec5b0b5292","ios":"levelo://app?vid=b626cf13-fc16-4592-b647-d8ec5b0b5292"},"vehicle_type_id":"4","last_reported":1748560169,"current_range_meters":3200,"station_id":"ce4bh492rcd13ifvqdvg","pricing_plan_id":"cebpf4jnsgd1na2vs0mg"},{"bike_id":"c20cde3d-efa4-4792-85cb-bcd9537bb570","system_id":"levelo_inurba_marseille","lat":43.241952,"lon":5.365708,"is_reserved":false,"is_disabled":false,"rental_uris":{"android":"levelo://app?vid=c20cde3d-efa4-4792-85cb-bcd9537bb570","ios":"levelo://app?vid=c20cde3d-efa4-4792-85cb-bcd9537bb570"},"vehicle_type_id":"4","last_reported":1748560169,"current_range_meters":3200,"station_id":"","pricing_plan_id":"cebpf4jnsgd1na2vs0mg"},{"bike_id":"e4cf96f7-9b4d-4e4c-a9f6-1ab4ab98919b","system_id":"levelo_inurba_marseille","lat":43.289823,"lon":5.381516,"is_reserved":false,"is_disabled":false,"rental_uris":{"android":"levelo://app?vid=e4cf96f7-9b4d-4e4c-a9f6-1ab4ab98919b","ios":"levelo://app?vid=e4cf96f7-9b4d-4e4c-a9f6-1ab4ab98919b"},"vehicle_type_id":"4","last_reported":1748560169,"current_range_meters":3200,"station_id":"ce4bgkh2rcd13ifvqbk0","pricing_plan_id":"cebpf4jnsgd1na2vs0mg"},{"bike_id":"bca8997c-ca56-4d92-9c61-d7e9c3800782","system_id":"levelo_inurba_marseille","lat":43.21751,"lon":5.34604,"is_reserved":false,"is_disabled":true,"rental_uris":{"android":"levelo://app?vid=bca8997c-ca56-4d92-9c61-d7e9c3800782","ios":"levelo://app?vid=bca8997c-ca56-4d92-9c61-d7e9c3800782"},"vehicle_type_id":"4","last_reported":1748560169,"current_range_meters":3600,"station_id":"st_cvj6r9ubvosntc0bgbag","pricing_plan_id":"cebpf4jnsgd1na2vs0mg"},{"bike_id":"2f18cdae-c8d9-472c-a285-723ec24d226e","system_id":"levelo_inurba_marseille","lat":43.29866,"lon":5.397398,"is_reserved":false,"is_disabled":false,"rental_uris":{"android":"levelo://app?vid=2f18cdae-c8d9-472c-a285-723ec24d226e","ios":"levelo://app?vid=2f18cdae-c8d9-472c-a285-723ec24d226e"},"vehicle_type_id":"4","last_reported":1748560169,"current_range_meters":3600,"station_id":"ce4bh0h2rcd13ifvqd50","pricing_plan_id":"cebpf4jnsgd1na2vs0mg"},{"bike_id":"22b5aaa8-93c1-48fe-865e-005d8e2eb5aa","system_id":"levelo_inurba_marseille","lat":43.32541,"lon":5.41426,"is_reserved":false,"is_disabled":false,"rental_uris":{"android":"levelo://app?vid=22b5aaa8-93c1-48fe-865e-005d8e2eb5aa","ios":"levelo://app?vid=22b5aaa8-93c1-48fe-865e-005d8e2eb5aa"},"vehicle_type_id":"4","last_reported":1748560169,"current_range_meters":3200,"station_id":"ce4bhq12rcd13ifvqhhg","pricing_plan_id":"cebpf4jnsgd1na2vs0mg"},{"bike_id":"47ffa892-57a8-42b9-9b58-aedbf9ea0706","system_id":"levelo_inurba_marseille","lat":43.33608,"lon":5.41038,"is_reserved":false,"is_disabled":false,"rental_uris":{"android":"levelo://app?vid=47ffa892-57a8-42b9-9b58-aedbf9ea0706","ios":"levelo://app?vid=47ffa892-57a8-42b9-9b58-aedbf9ea0706"},"vehicle_type_id":"4","last_reported":1748560169,"current_range_meters":3600,"station_id":"ce4bhqh2rcd13ifvqhmg","pricing_plan_id":"cebpf4jnsgd1na2vs0mg"},{"bike_id":"3f0441b1-6cb6-41fd-b679-f454d34b2118","system_id":"levelo_inurba_marseille","lat":43.211967,"lon":5.350629,"is_reserved":false,"is_disabled":false,"rental_uris":{"android":"levelo://app?vid=3f0441b1-6cb6-41fd-b679-f454d34b2118","ios":"levelo://app?vid=3f0441b1-6cb6-41fd-b679-f454d34b2118"},"vehicle_type_id":"4","last_reported":1748560169,"current_range_meters":3600,"station_id":"st_cvj6sg6p6f1abm77japg","pricing_plan_id":"cebpf4jnsgd1na2vs0mg"},{"bike_id":"15c306f5-cf6b-4a8d-8326-60c1e9b2c733","system_id":"levelo_inurba_marseille","lat":43.27395,"lon":5.39407,"is_reserved":false,"is_disabled":true,"rental_uris":{"android":"levelo://app?vid=15c306f5-cf6b-4a8d-8326-60c1e9b2c733","ios":"levelo://app?vid=15c306f5-cf6b-4a8d-8326-60c1e9b2c733"},"vehicle_type_id":"4","last_reported":1748560169,"current_range_meters":4000,"station_id":"ce4bhdp2rcd13ifvqf20","pricing_plan_id":"cebpf4jnsgd1na2vs0mg"},{"bike_id":"6d7cfdcd-f061-4eee-b4e5-78d9b6729328","system_id":"levelo_inurba_marseille","lat":43.330013,"lon":5.438506,"is_reserved":false,"is_disabled":false,"rental_uris":{"android":"levelo://app?vid=6d7cfdcd-f061-4eee-b4e5-78d9b6729328","ios":"levelo://app?vid=6d7cfdcd-f061-4eee-b4e5-78d9b6729328"},"vehicle_type_id":"4","last_reported":1748560169,"current_range_meters":4000,"station_id":"","pricing_plan_id":"cebpf4jnsgd1na2vs0mg"},{"bike_id":"162ccece-0136-4b94-8430-90adc942892e","system_id":"levelo_inurba_marseille","lat":43.30435,"lon":5.38896,"is_reserved":false,"is_disabled":false,"rental_uris":{"android":"levelo://app?vid=162ccece-0136-4b94-8430-90adc942892e","ios":"levelo://app?vid=162ccece-0136-4b94-8430-90adc942892e"},"vehicle_type_id":"4","last_reported":1748560169,"current_range_meters":4000,"station_id":"ce4bgk12rcd13ifvqbi0","pricing_plan_id":"cebpf4jnsgd1na2vs0mg"},{"bike_id":"04b3db88-674e-4d54-8edd-81dfede77d38","system_id":"levelo_inurba_marseille","lat":43.29089,"lon":5.40328,"is_reserved":false,"is_disabled":false,"rental_uris":{"android":"levelo://app?vid=04b3db88-674e-4d54-8edd-81dfede77d38","ios":"levelo://app?vid=04b3db88-674e-4d54-8edd-81dfede77d38"},"vehicle_type_id":"4","last_reported":1748560169,"current_range_meters":4000,"station_id":"","pricing_plan_id":"cebpf4jnsgd1na2vs0mg"},{"bike_id":"9a869239-5672-4a55-9235-38d7bbe8293b","system_id":"levelo_inurba_marseille","lat":43.325933,"lon":5.430713,"is_reserved":false,"is_disabled":false,"rental_uris":{"android":"levelo://app?vid=9a869239-5672-4a55-9235-38d7bbe8293b","ios":"levelo://app?vid=9a869239-5672-4a55-9235-38d7bbe8293b"},"vehicle_type_id":"4","last_reported":1748560169,"current_range_meters":4000,"station_id":"","pricing_plan_id":"cebpf4jnsgd1na2vs0mg"},{"bike_id":"ddb58e69-7168-43c2-9c76-dfad90b94c91","system_id":"levelo_inurba_marseille","lat":43.32039,"lon":5.41543,"is_reserved":false,"is_disabled":false,"rental_uris":{"android":"levelo://app?vid=ddb58e69-7168-43c2-9c76-dfad90b94c91","ios":"levelo://app?vid=ddb58e69-7168-43c2-9c76-dfad90b94c91"},"vehicle_type_id":"4","last_reported":1748560169,"current_range_meters":4000,"station_id":"ce4bhq92rcd13ifvqhkg","pricing_plan_id":"cebpf4jnsgd1na2vs0mg"},{"bike_id":"f63658e0-6670-4857-b474-cff1c8f1595b","system_id":"levelo_inurba_marseille","lat":43.30593,"lon":5.39352,"is_reserved":false,"is_disabled":false,"rental_uris":{"android":"levelo://app?vid=f63658e0-6670-4857-b474-cff1c8f1595b","ios":"levelo://app?vid=f63658e0-6670-4857-b474-cff1c8f1595b"},"vehicle_type_id":"4","last_reported":1748560169,"current_range_meters":4400,"station_id":"ce4bh0p2rcd13ifvqd80","pricing_plan_id":"cebpf4jnsgd1na2vs0mg"},{"bike_id":"55b26eda-51be-4b08-b39c-5b09bc1a662f","system_id":"levelo_inurba_marseille","lat":43.262111,"lon":5.379217,"is_reserved":false,"is_disabled":true,"rental_uris":{"android":"levelo://app?vid=55b26eda-51be-4b08-b39c-5b09bc1a662f","ios":"levelo://app?vid=55b26eda-51be-4b08-b39c-5b09bc1a662f"},"vehicle_type_id":"4","last_reported":1748560169,"current_range_meters":4400,"station_id":"ce4bhjp2rcd13ifvqg90","pricing_plan_id":"cebpf4jnsgd1na2vs0mg"},{"bike_id":"cf53b8f1-dc22-4efe-b00d-1b0127a8aec5","system_id":"levelo_inurba_marseille","lat":43.33023,"lon":5.39043,"is_reserved":false,"is_disabled":false,"rental_uris":{"android":"levelo://app?vid=cf53b8f1-dc22-4efe-b00d-1b0127a8aec5","ios":"levelo://app?vid=cf53b8f1-dc22-4efe-b00d-1b0127a8aec5"},"vehicle_type_id":"4","last_reported":1748560169,"current_range_meters":4000,"station_id":"ce4bhr92rcd13ifvqhrg","pricing_plan_id":"cebpf4jnsgd1na2vs0mg"},{"bike_id":"c89e608b-1daa-4b8f-b6c9-ea7aedac46d1","system_id":"levelo_inurba_marseille","lat":43.27069,"lon":5.42293,"is_reserved":false,"is_disabled":false,"rental_uris":{"android":"levelo://app?vid=c89e608b-1daa-4b8f-b6c9-ea7aedac46d1","ios":"levelo://app?vid=c89e608b-1daa-4b8f-b6c9-ea7aedac46d1"},"vehicle_type_id":"4","last_reported":1748560169,"current_range_meters":4400,"station_id":"ce4bhk92rcd13ifvqgb0","pricing_plan_id":"cebpf4jnsgd1na2vs0mg"},{"bike_id":"c519088d-a216-460f-a22b-7250a0097080","system_id":"levelo_inurba_marseille","lat":43.281543,"lon":5.426407,"is_reserved":false,"is_disabled":false,"rental_uris":{"android":"levelo://app?vid=c519088d-a216-460f-a22b-7250a0097080","ios":"levelo://app?vid=c519088d-a216-460f-a22b-7250a0097080"},"vehicle_type_id":"4","last_reported":1748560169,"current_range_meters":4800,"station_id":"ce4bhnh2rcd13ifvqgug","pricing_plan_id":"cebpf4jnsgd1na2vs0mg"},{"bike_id":"64e8cb8d-1970-49b0-a53e-fe64e8b46825","system_id":"levelo_inurba_marseille","lat":43.25825,"lon":5.39434,"is_reserved":false,"is_disabled":false,"rental_uris":{"android":"levelo://app?vid=64e8cb8d-1970-49b0-a53e-fe64e8b46825","ios":"levelo://app?vid=64e8cb8d-1970-49b0-a53e-fe64e8b46825"},"vehicle_type_id":"4","last_reported":1748560169,"current_range_meters":4800,"station_id":"ce4bhip2rcd13ifvqft0","pricing_plan_id":"cebpf4jnsgd1na2vs0mg"},{"bike_id":"8c318018-ee77-44e9-803a-cbc34ddd5e93","system_id":"levelo_inurba_marseille","lat":43.29422,"lon":5.38619,"is_reserved":false,"is_disabled":false,"rental_uris":{"android":"levelo://app?vid=8c318018-ee77-44e9-803a-cbc34ddd5e93","ios":"levelo://app?vid=8c318018-ee77-44e9-803a-cbc34ddd5e93"},"vehicle_type_id":"4","last_reported":1748560169,"current_range_meters":4800,"station_id":"ce4bh2h2rcd13ifvqdh0","pricing_plan_id":"cebpf4jnsgd1na2vs0mg"},{"bike_id":"78353d3a-f046-4900-8502-614ce335636a","system_id":"levelo_inurba_marseille","lat":43.29054,"lon":5.35906,"is_reserved":false,"is_disabled":true,"rental_uris":{"android":"levelo://app?vid=78353d3a-f046-4900-8502-614ce335636a","ios":"levelo://app?vid=78353d3a-f046-4900-8502-614ce335636a"},"vehicle_type_id":"4","last_reported":1748560169,"current_range_meters":5600,"station_id":"ce4bha92rcd13ifvqeg0","pricing_plan_id":"cebpf4jnsgd1na2vs0mg"},{"bike_id":"1eed49fb-ce64-4ebd-9903-7d87835a2ccf","system_id":"levelo_inurba_marseille","lat":43.297631,"lon":5.459865,"is_reserved":false,"is_disabled":false,"rental_uris":{"android":"levelo://app?vid=1eed49fb-ce64-4ebd-9903-7d87835a2ccf","ios":"levelo://app?vid=1eed49fb-ce64-4ebd-9903-7d87835a2ccf"},"vehicle_type_id":"4","last_reported":1748560169,"current_range_meters":5600,"station_id":"","pricing_plan_id":"cebpf4jnsgd1na2vs0mg"},{"bike_id":"23c85c8e-4c43-4b2c-9f21-d3b371c82943","system_id":"levelo_inurba_marseille","lat":43.217545,"lon":5.34602,"is_reserved":false,"is_disabled":false,"rental_uris":{"android":"levelo://app?vid=23c85c8e-4c43-4b2c-9f21-d3b371c82943","ios":"levelo://app?vid=23c85c8e-4c43-4b2c-9f21-d3b371c82943"},"vehicle_type_id":"4","last_reported":1748560169,"current_range_meters":5600,"station_id":"st_cvj6r9ubvosntc0bgbag","pricing_plan_id":"cebpf4jnsgd1na2vs0mg"},{"bike_id":"2cc25151-b891-4f9a-af0c-12654d4f6679","system_id":"levelo_inurba_marseille","lat":43.31687,"lon":5.40477,"is_reserved":false,"is_disabled":false,"rental_uris":{"android":"levelo://app?vid=2cc25151-b891-4f9a-af0c-12654d4f6679","ios":"levelo://app?vid=2cc25151-b891-4f9a-af0c-12654d4f6679"},"vehicle_type_id":"4","last_reported":1748560169,"current_range_meters":5600,"station_id":"ce4bh012rcd13ifvqd00","pricing_plan_id":"cebpf4jnsgd1na2vs0mg"},{"bike_id":"976cd81e-2173-4b87-aa62-5c0abba1b922","system_id":"levelo_inurba_marseille","lat":43.23969,"lon":5.36633,"is_reserved":false,"is_disabled":false,"rental_uris":{"android":"levelo://app?vid=976cd81e-2173-4b87-aa62-5c0abba1b922","ios":"levelo://app?vid=976cd81e-2173-4b87-aa62-5c0abba1b922"},"vehicle_type_id":"4","last_reported":1748560169,"current_range_meters":5600,"station_id":"ce4bhi12rcd13ifvqfp0","pricing_plan_id":"cebpf4jnsgd1na2vs0mg"},{"bike_id":"21269a47-fc82-4c15-9854-941f461a9d86","system_id":"levelo_inurba_marseille","lat":43.248187,"lon":5.374537,"is_reserved":false,"is_disabled":false,"rental_uris":{"android":"levelo://app?vid=21269a47-fc82-4c15-9854-941f461a9d86","ios":"levelo://app?vid=21269a47-fc82-4c15-9854-941f461a9d86"},"vehicle_type_id":"4","last_reported":1748560169,"current_range_meters":5600,"station_id":"ce4bhgh2rcd13ifvqfb0","pricing_plan_id":"cebpf4jnsgd1na2vs0mg"},{"bike_id":"c77448e3-c568-4e59-87e4-890415ad9795","system_id":"levelo_inurba_marseille","lat":43.317505,"lon":5.390293,"is_reserved":false,"is_disabled":false,"rental_uris":{"android":"levelo://app?vid=c77448e3-c568-4e59-87e4-890415ad9795","ios":"levelo://app?vid=c77448e3-c568-4e59-87e4-890415ad9795"},"vehicle_type_id":"4","last_reported":1748560169,"current_range_meters":5600,"station_id":"ce4bhqp2rcd13ifvqhng","pricing_plan_id":"cebpf4jnsgd1na2vs0mg"},{"bike_id":"cf41c860-9e5f-4b59-a772-c0c677514faf","system_id":"levelo_inurba_marseille","lat":43.28706,"lon":5.39984,"is_reserved":false,"is_disabled":false,"rental_uris":{"android":"levelo://app?vid=cf41c860-9e5f-4b59-a772-c0c677514faf","ios":"levelo://app?vid=cf41c860-9e5f-4b59-a772-c0c677514faf"},"vehicle_type_id":"4","last_reported":1748560169,"current_range_meters":5600,"station_id":"ce4bho92rcd13ifvqh3g","pricing_plan_id":"cebpf4jnsgd1na2vs0mg"},{"bike_id":"45ac51a9-9c69-482d-ad89-d9fe9c5778e6","system_id":"levelo_inurba_marseille","lat":43.29905,"lon":5.38104,"is_reserved":false,"is_disabled":true,"rental_uris":{"android":"levelo://app?vid=45ac51a9-9c69-482d-ad89-d9fe9c5778e6","ios":"levelo://app?vid=45ac51a9-9c69-482d-ad89-d9fe9c5778e6"},"vehicle_type_id":"4","last_reported":1748560169,"current_range_meters":6000,"station_id":"ce4bgj12rcd13ifvqbc0","pricing_plan_id":"cebpf4jnsgd1na2vs0mg"},{"bike_id":"c1c51125-b169-41b9-b7df-e87ff78b4aea","system_id":"levelo_inurba_marseille","lat":43.262367,"lon":5.404418,"is_reserved":false,"is_disabled":false,"rental_uris":{"android":"levelo://app?vid=c1c51125-b169-41b9-b7df-e87ff78b4aea","ios":"levelo://app?vid=c1c51125-b169-41b9-b7df-e87ff78b4aea"},"vehicle_type_id":"4","last_reported":1748560169,"current_range_meters":6000,"station_id":"ce4bhmh2rcd13ifvqgmg","pricing_plan_id":"cebpf4jnsgd1na2vs0mg"},{"bike_id":"57b5f64c-bdd5-4a8d-b73a-f30035957fd1","system_id":"levelo_inurba_marseille","lat":43.302483,"lon":5.400628,"is_reserved":false,"is_disabled":true,"rental_uris":{"android":"levelo://app?vid=57b5f64c-bdd5-4a8d-b73a-f30035957fd1","ios":"levelo://app?vid=57b5f64c-bdd5-4a8d-b73a-f30035957fd1"},"vehicle_type_id":"4","last_reported":1748560169,"current_range_meters":6000,"station_id":"","pricing_plan_id":"cebpf4jnsgd1na2vs0mg"},{"bike_id":"56f2631b-8680-4140-8f5d-d518d0770d23","system_id":"levelo_inurba_marseille","lat":43.28106,"lon":5.37832,"is_reserved":false,"is_disabled":false,"rental_uris":{"android":"levelo://app?vid=56f2631b-8680-4140-8f5d-d518d0770d23","ios":"levelo://app?vid=56f2631b-8680-4140-8f5d-d518d0770d23"},"vehicle_type_id":"4","last_reported":1748560169,"current_range_meters":6000,"station_id":"ce4bha12rcd13ifvqee0","pricing_plan_id":"cebpf4jnsgd1na2vs0mg"},{"bike_id":"7f6b38d0-dcd2-4848-86a0-7b44e451f43f","system_id":"levelo_inurba_marseille","lat":43.276954,"lon":5.415363,"is_reserved":false,"is_disabled":false,"rental_uris":{"android":"levelo://app?vid=7f6b38d0-dcd2-4848-86a0-7b44e451f43f","ios":"levelo://app?vid=7f6b38d0-dcd2-4848-86a0-7b44e451f43f"},"vehicle_type_id":"4","last_reported":1748560169,"current_range_meters":6400,"station_id":"","pricing_plan_id":"cebpf4jnsgd1na2vs0mg"},{"bike_id":"11488e1b-74ae-4459-8884-1588199aa112","system_id":"levelo_inurba_marseille","lat":43.26899,"lon":5.40261,"is_reserved":false,"is_disabled":false,"rental_uris":{"android":"levelo://app?vid=11488e1b-74ae-4459-8884-1588199aa112","ios":"levelo://app?vid=11488e1b-74ae-4459-8884-1588199aa112"},"vehicle_type_id":"4","last_reported":1748560169,"current_range_meters":6400,"station_id":"","pricing_plan_id":"cebpf4jnsgd1na2vs0mg"},{"bike_id":"8cbecde8-255a-4a8d-86be-d8f1082ae579","system_id":"levelo_inurba_marseille","lat":43.28416,"lon":5.37521,"is_reserved":false,"is_disabled":false,"rental_uris":{"android":"levelo://app?vid=8cbecde8-255a-4a8d-86be-d8f1082ae579","ios":"levelo://app?vid=8cbecde8-255a-4a8d-86be-d8f1082ae579"},"vehicle_type_id":"4","last_reported":1748560169,"current_range_meters":6400,"station_id":"ce4bh412rcd13ifvqds0","pricing_plan_id":"cebpf4jnsgd1na2vs0mg"},{"bike_id":"1a1dac5e-0e0a-42cb-be45-3d31548d3c60","system_id":"levelo_inurba_marseille","lat":43.30428,"lon":5.38891,"is_reserved":false,"is_disabled":false,"rental_uris":{"android":"levelo://app?vid=1a1dac5e-0e0a-42cb-be45-3d31548d3c60","ios":"levelo://app?vid=1a1dac5e-0e0a-42cb-be45-3d31548d3c60"},"vehicle_type_id":"4","last_reported":1748560169,"current_range_meters":6800,"station_id":"ce4bgk12rcd13ifvqbi0","pricing_plan_id":"cebpf4jnsgd1na2vs0mg"},{"bike_id":"c006505c-40ec-4dbb-8fb7-e9d75b9aa51f","system_id":"levelo_inurba_marseille","lat":43.331485,"lon":5.381617,"is_reserved":false,"is_disabled":false,"rental_uris":{"android":"levelo://app?vid=c006505c-40ec-4dbb-8fb7-e9d75b9aa51f","ios":"levelo://app?vid=c006505c-40ec-4dbb-8fb7-e9d75b9aa51f"},"vehicle_type_id":"4","last_reported":1748560169,"current_range_meters":6800,"station_id":"","pricing_plan_id":"cebpf4jnsgd1na2vs0mg"},{"bike_id":"7ad6fa5f-df46-4408-be3a-66a4244a5a34","system_id":"levelo_inurba_marseille","lat":43.26531,"lon":5.40359,"is_reserved":false,"is_disabled":false,"rental_uris":{"android":"levelo://app?vid=7ad6fa5f-df46-4408-be3a-66a4244a5a34","ios":"levelo://app?vid=7ad6fa5f-df46-4408-be3a-66a4244a5a34"},"vehicle_type_id":"4","last_reported":1748560169,"current_range_meters":6800,"station_id":"","pricing_plan_id":"cebpf4jnsgd1na2vs0mg"},{"bike_id":"015f9af9-da45-4c09-9c85-f29c0e49ce0d","system_id":"levelo_inurba_marseille","lat":43.24169,"lon":5.36396,"is_reserved":false,"is_disabled":false,"rental_uris":{"android":"levelo://app?vid=015f9af9-da45-4c09-9c85-f29c0e49ce0d","ios":"levelo://app?vid=015f9af9-da45-4c09-9c85-f29c0e49ce0d"},"vehicle_type_id":"4","last_reported":1748560169,"current_range_meters":6800,"station_id":"cpo36qri1sfpv3e86is0","pricing_plan_id":"cebpf4jnsgd1na2vs0mg"},{"bike_id":"9e1ff168-053a-4577-a7c6-d1b14ab8517a","system_id":"levelo_inurba_marseille","lat":43.28349,"lon":5.38104,"is_reserved":false,"is_disabled":false,"rental_uris":{"android":"levelo://app?vid=9e1ff168-053a-4577-a7c6-d1b14ab8517a","ios":"levelo://app?vid=9e1ff168-053a-4577-a7c6-d1b14ab8517a"},"vehicle_type_id":"4","last_reported":1748560169,"current_range_meters":6800,"station_id":"ce4bh412rcd13ifvqdr0","pricing_plan_id":"cebpf4jnsgd1na2vs0mg"},{"bike_id":"2f650bb1-6027-4191-83d2-16315820a0a7","system_id":"levelo_inurba_marseille","lat":43.299902,"lon":5.373559,"is_reserved":false,"is_disabled":false,"rental_uris":{"android":"levelo://app?vid=2f650bb1-6027-4191-83d2-16315820a0a7","ios":"levelo://app?vid=2f650bb1-6027-4191-83d2-16315820a0a7"},"vehicle_type_id":"4","last_reported":1748560169,"current_range_meters":6800,"station_id":"","pricing_plan_id":"cebpf4jnsgd1na2vs0mg"},{"bike_id":"6a1f01eb-6594-416f-9d57-5a76c85cacc4","system_id":"levelo_inurba_marseille","lat":43.32476,"lon":5.36569,"is_reserved":false,"is_disabled":false,"rental_uris":{"android":"levelo://app?vid=6a1f01eb-6594-416f-9d57-5a76c85cacc4","ios":"levelo://app?vid=6a1f01eb-6594-416f-9d57-5a76c85cacc4"},"vehicle_type_id":"4","last_reported":1748560169,"current_range_meters":6400,"station_id":"ce4bhs12rcd13ifvqhvg","pricing_plan_id":"cebpf4jnsgd1na2vs0mg"},{"bike_id":"a3f2a83c-125c-458a-b050-3a5aad37341b","system_id":"levelo_inurba_marseille","lat":43.29924,"lon":5.37479,"is_reserved":false,"is_disabled":false,"rental_uris":{"android":"levelo://app?vid=a3f2a83c-125c-458a-b050-3a5aad37341b","ios":"levelo://app?vid=a3f2a83c-125c-458a-b050-3a5aad37341b"},"vehicle_type_id":"4","last_reported":1748560169,"current_range_meters":6800,"station_id":"ce4bgjh2rcd13ifvqbg0","pricing_plan_id":"cebpf4jnsgd1na2vs0mg"},{"bike_id":"92cc41b1-86b4-4ddd-8208-549b320e7443","system_id":"levelo_inurba_marseille","lat":43.32662,"lon":5.40992,"is_reserved":false,"is_disabled":false,"rental_uris":{"android":"levelo://app?vid=92cc41b1-86b4-4ddd-8208-549b320e7443","ios":"levelo://app?vid=92cc41b1-86b4-4ddd-8208-549b320e7443"},"vehicle_type_id":"4","last_reported":1748560169,"current_range_meters":7200,"station_id":"ce4bhpp2rcd13ifvqhgg","pricing_plan_id":"cebpf4jnsgd1na2vs0mg"},{"bike_id":"9a357a0b-8c98-4eb3-93c5-7eefa9d7718a","system_id":"levelo_inurba_marseille","lat":43.25005,"lon":5.3894,"is_reserved":false,"is_disabled":false,"rental_uris":{"android":"levelo://app?vid=9a357a0b-8c98-4eb3-93c5-7eefa9d7718a","ios":"levelo://app?vid=9a357a0b-8c98-4eb3-93c5-7eefa9d7718a"},"vehicle_type_id":"4","last_reported":1748560169,"current_range_meters":7200,"station_id":"ce4bhgp2rcd13ifvqfd0","pricing_plan_id":"cebpf4jnsgd1na2vs0mg"},{"bike_id":"22771043-09b1-43eb-91e0-5c845144e1e3","system_id":"levelo_inurba_marseille","lat":43.277022,"lon":5.408499,"is_reserved":false,"is_disabled":false,"rental_uris":{"android":"levelo://app?vid=22771043-09b1-43eb-91e0-5c845144e1e3","ios":"levelo://app?vid=22771043-09b1-43eb-91e0-5c845144e1e3"},"vehicle_type_id":"4","last_reported":1748560169,"current_range_meters":7200,"station_id":"","pricing_plan_id":"cebpf4jnsgd1na2vs0mg"},{"bike_id":"1a2e9234-e551-40bd-b6cd-9a7be37158c7","system_id":"levelo_inurba_marseille","lat":43.28572,"lon":5.39502,"is_reserved":false,"is_disabled":false,"rental_uris":{"android":"levelo://app?vid=1a2e9234-e551-40bd-b6cd-9a7be37158c7","ios":"levelo://app?vid=1a2e9234-e551-40bd-b6cd-9a7be37158c7"},"vehicle_type_id":"4","last_reported":1748560169,"current_range_meters":6800,"station_id":"ce4bh292rcd13ifvqdg0","pricing_plan_id":"cebpf4jnsgd1na2vs0mg"},{"bike_id":"bfc4c423-a194-4c9a-9b93-4771e65249ac","system_id":"levelo_inurba_marseille","lat":43.28,"lon":5.41664,"is_reserved":false,"is_disabled":false,"rental_uris":{"android":"levelo://app?vid=bfc4c423-a194-4c9a-9b93-4771e65249ac","ios":"levelo://app?vid=bfc4c423-a194-4c9a-9b93-4771e65249ac"},"vehicle_type_id":"4","last_reported":1748560169,"current_range_meters":7200,"station_id":"ce4bho12rcd13ifvqh1g","pricing_plan_id":"cebpf4jnsgd1na2vs0mg"},{"bike_id":"18b13977-375c-4da1-b1e8-2b0d0ef9b74a","system_id":"levelo_inurba_marseille","lat":43.30198,"lon":5.39471,"is_reserved":false,"is_disabled":false,"rental_uris":{"android":"levelo://app?vid=18b13977-375c-4da1-b1e8-2b0d0ef9b74a","ios":"levelo://app?vid=18b13977-375c-4da1-b1e8-2b0d0ef9b74a"},"vehicle_type_id":"4","last_reported":1748560169,"current_range_meters":7200,"station_id":"ce4bh0p2rcd13ifvqd70","pricing_plan_id":"cebpf4jnsgd1na2vs0mg"},{"bike_id":"047bbed6-33d9-4486-b038-6c0f2513bd98","system_id":"levelo_inurba_marseille","lat":43.246643,"lon":5.381665,"is_reserved":false,"is_disabled":false,"rental_uris":{"android":"levelo://app?vid=047bbed6-33d9-4486-b038-6c0f2513bd98","ios":"levelo://app?vid=047bbed6-33d9-4486-b038-6c0f2513bd98"},"vehicle_type_id":"4","last_reported":1748560169,"current_range_meters":8000,"station_id":"ce4bhih2rcd13ifvqfr0","pricing_plan_id":"cebpf4jnsgd1na2vs0mg"},{"bike_id":"98ed824e-3a51-4080-b8ac-5a763a3f6886","system_id":"levelo_inurba_marseille","lat":43.30926,"lon":5.40144,"is_reserved":false,"is_disabled":false,"rental_uris":{"android":"levelo://app?vid=98ed824e-3a51-4080-b8ac-5a763a3f6886","ios":"levelo://app?vid=98ed824e-3a51-4080-b8ac-5a763a3f6886"},"vehicle_type_id":"4","last_reported":1748560169,"current_range_meters":8000,"station_id":"ce4bgvp2rcd13ifvqct0","pricing_plan_id":"cebpf4jnsgd1na2vs0mg"},{"bike_id":"2a0682f8-0ba4-4e21-9326-7a5912220f6c","system_id":"levelo_inurba_marseille","lat":43.31158,"lon":5.38718,"is_reserved":false,"is_disabled":false,"rental_uris":{"android":"levelo://app?vid=2a0682f8-0ba4-4e21-9326-7a5912220f6c","ios":"levelo://app?vid=2a0682f8-0ba4-4e21-9326-7a5912220f6c"},"vehicle_type_id":"4","last_reported":1748560169,"current_range_meters":8000,"station_id":"ce4bgv12rcd13ifvqcp0","pricing_plan_id":"cebpf4jnsgd1na2vs0mg"},{"bike_id":"299bc464-0062-40b9-b8fd-94e53cb49a69","system_id":"levelo_inurba_marseille","lat":43.31,"lon":5.38004,"is_reserved":false,"is_disabled":true,"rental_uris":{"android":"levelo://app?vid=299bc464-0062-40b9-b8fd-94e53cb49a69","ios":"levelo://app?vid=299bc464-0062-40b9-b8fd-94e53cb49a69"},"vehicle_type_id":"4","last_reported":1748560169,"current_range_meters":8000,"station_id":"","pricing_plan_id":"cebpf4jnsgd1na2vs0mg"},{"bike_id":"d59936d1-8ec8-4f42-8df1-dcddc80cd126","system_id":"levelo_inurba_marseille","lat":43.289488,"lon":5.39638,"is_reserved":false,"is_disabled":true,"rental_uris":{"android":"levelo://app?vid=d59936d1-8ec8-4f42-8df1-dcddc80cd126","ios":"levelo://app?vid=d59936d1-8ec8-4f42-8df1-dcddc80cd126"},"vehicle_type_id":"4","last_reported":1748560169,"current_range_meters":8000,"station_id":"ce4bh3h2rcd13ifvqdn0","pricing_plan_id":"cebpf4jnsgd1na2vs0mg"},{"bike_id":"d5717ce5-c661-467b-a0d0-ac1d0564b554","system_id":"levelo_inurba_marseille","lat":43.319923,"lon":5.381425,"is_reserved":false,"is_disabled":false,"rental_uris":{"android":"levelo://app?vid=d5717ce5-c661-467b-a0d0-ac1d0564b554","ios":"levelo://app?vid=d5717ce5-c661-467b-a0d0-ac1d0564b554"},"vehicle_type_id":"4","last_reported":1748560169,"current_range_meters":8000,"station_id":"ce4bhr12rcd13ifvqhpg","pricing_plan_id":"cebpf4jnsgd1na2vs0mg"},{"bike_id":"439c2428-01fc-4528-992a-e5af19ad7cb7","system_id":"levelo_inurba_marseille","lat":43.31361,"lon":5.38495,"is_reserved":false,"is_disabled":false,"rental_uris":{"android":"levelo://app?vid=439c2428-01fc-4528-992a-e5af19ad7cb7","ios":"levelo://app?vid=439c2428-01fc-4528-992a-e5af19ad7cb7"},"vehicle_type_id":"4","last_reported":1748560169,"current_range_meters":8000,"station_id":"ce4bgt92rcd13ifvqcf0","pricing_plan_id":"cebpf4jnsgd1na2vs0mg"},{"bike_id":"583e2176-6c7f-425c-8d24-ee49a624fede","system_id":"levelo_inurba_marseille","lat":43.265696,"lon":5.390233,"is_reserved":false,"is_disabled":true,"rental_uris":{"android":"levelo://app?vid=583e2176-6c7f-425c-8d24-ee49a624fede","ios":"levelo://app?vid=583e2176-6c7f-425c-8d24-ee49a624fede"},"vehicle_type_id":"4","last_reported":1748560169,"current_range_meters":8000,"station_id":"ce4bhe12rcd13ifvqf30","pricing_plan_id":"cebpf4jnsgd1na2vs0mg"},{"bike_id":"497ec4a5-8002-40cf-b66d-3b629c958e7f","system_id":"levelo_inurba_marseille","lat":43.29177,"lon":5.399763,"is_reserved":false,"is_disabled":false,"rental_uris":{"android":"levelo://app?vid=497ec4a5-8002-40cf-b66d-3b629c958e7f","ios":"levelo://app?vid=497ec4a5-8002-40cf-b66d-3b629c958e7f"},"vehicle_type_id":"4","last_reported":1748560169,"current_range_meters":8000,"station_id":"","pricing_plan_id":"cebpf4jnsgd1na2vs0mg"},{"bike_id":"4fd6056e-aadb-4699-b1fa-8b8dbd97a31c","system_id":"levelo_inurba_marseille","lat":43.33624,"lon":5.40974,"is_reserved":false,"is_disabled":false,"rental_uris":{"android":"levelo://app?vid=4fd6056e-aadb-4699-b1fa-8b8dbd97a31c","ios":"levelo://app?vid=4fd6056e-aadb-4699-b1fa-8b8dbd97a31c"},"vehicle_type_id":"4","last_reported":1748560169,"current_range_meters":8000,"station_id":"ce4bhqh2rcd13ifvqhmg","pricing_plan_id":"cebpf4jnsgd1na2vs0mg"},{"bike_id":"b9ae16bc-ec39-406e-9e42-55cba52b28fe","system_id":"levelo_inurba_marseille","lat":43.26023,"lon":5.417365,"is_reserved":false,"is_disabled":false,"rental_uris":{"android":"levelo://app?vid=b9ae16bc-ec39-406e-9e42-55cba52b28fe","ios":"levelo://app?vid=b9ae16bc-ec39-406e-9e42-55cba52b28fe"},"vehicle_type_id":"4","last_reported":1748560169,"current_range_meters":8000,"station_id":"","pricing_plan_id":"cebpf4jnsgd1na2vs0mg"},{"bike_id":"bc8bd5b8-5786-4466-9769-11fe4ef18f0f","system_id":"levelo_inurba_marseille","lat":43.26198,"lon":5.40449,"is_reserved":false,"is_disabled":false,"rental_uris":{"android":"levelo://app?vid=bc8bd5b8-5786-4466-9769-11fe4ef18f0f","ios":"levelo://app?vid=bc8bd5b8-5786-4466-9769-11fe4ef18f0f"},"vehicle_type_id":"4","last_reported":1748560169,"current_range_meters":8000,"station_id":"ce4bhmh2rcd13ifvqgmg","pricing_plan_id":"cebpf4jnsgd1na2vs0mg"},{"bike_id":"419806d9-a0ba-4539-b6a3-66d05e973434","system_id":"levelo_inurba_marseille","lat":43.211933,"lon":5.35069,"is_reserved":false,"is_disabled":true,"rental_uris":{"android":"levelo://app?vid=419806d9-a0ba-4539-b6a3-66d05e973434","ios":"levelo://app?vid=419806d9-a0ba-4539-b6a3-66d05e973434"},"vehicle_type_id":"4","last_reported":1748560169,"current_range_meters":8000,"station_id":"","pricing_plan_id":"cebpf4jnsgd1na2vs0mg"},{"bike_id":"a329eac8-e7c4-4479-b5f4-6f80ea2c1466","system_id":"levelo_inurba_marseille","lat":43.284033,"lon":5.375103,"is_reserved":false,"is_disabled":false,"rental_uris":{"android":"levelo://app?vid=a329eac8-e7c4-4479-b5f4-6f80ea2c1466","ios":"levelo://app?vid=a329eac8-e7c4-4479-b5f4-6f80ea2c1466"},"vehicle_type_id":"4","last_reported":1748560169,"current_range_meters":8400,"station_id":"ce4bh412rcd13ifvqds0","pricing_plan_id":"cebpf4jnsgd1na2vs0mg"},{"bike_id":"7c6e48ab-b87e-4e89-9339-a1a2992e6797","system_id":"levelo_inurba_marseille","lat":43.261154,"lon":5.414653,"is_reserved":false,"is_disabled":false,"rental_uris":{"android":"levelo://app?vid=7c6e48ab-b87e-4e89-9339-a1a2992e6797","ios":"levelo://app?vid=7c6e48ab-b87e-4e89-9339-a1a2992e6797"},"vehicle_type_id":"4","last_reported":1748560169,"current_range_meters":8400,"station_id":"","pricing_plan_id":"cebpf4jnsgd1na2vs0mg"},{"bike_id":"956b6fae-56c8-4855-84db-9daa41ff5836","system_id":"levelo_inurba_marseille","lat":43.24532,"lon":5.3955,"is_reserved":false,"is_disabled":false,"rental_uris":{"android":"levelo://app?vid=956b6fae-56c8-4855-84db-9daa41ff5836","ios":"levelo://app?vid=956b6fae-56c8-4855-84db-9daa41ff5836"},"vehicle_type_id":"4","last_reported":1748560169,"current_range_meters":8400,"station_id":"ce4bhlp2rcd13ifvqgjg","pricing_plan_id":"cebpf4jnsgd1na2vs0mg"},{"bike_id":"9fa3982a-78e9-408f-aaa3-19562a00ad34","system_id":"levelo_inurba_marseille","lat":43.31167,"lon":5.38706,"is_reserved":false,"is_disabled":false,"rental_uris":{"android":"levelo://app?vid=9fa3982a-78e9-408f-aaa3-19562a00ad34","ios":"levelo://app?vid=9fa3982a-78e9-408f-aaa3-19562a00ad34"},"vehicle_type_id":"4","last_reported":1748560169,"current_range_meters":8400,"station_id":"ce4bgv12rcd13ifvqcp0","pricing_plan_id":"cebpf4jnsgd1na2vs0mg"},{"bike_id":"8c869018-c2f1-47df-8e3b-e48407b32a24","system_id":"levelo_inurba_marseille","lat":43.27167,"lon":5.40978,"is_reserved":false,"is_disabled":false,"rental_uris":{"android":"levelo://app?vid=8c869018-c2f1-47df-8e3b-e48407b32a24","ios":"levelo://app?vid=8c869018-c2f1-47df-8e3b-e48407b32a24"},"vehicle_type_id":"4","last_reported":1748560169,"current_range_meters":8400,"station_id":"ce4bhl12rcd13ifvqgf0","pricing_plan_id":"cebpf4jnsgd1na2vs0mg"},{"bike_id":"4c73f73e-db39-4beb-89da-9a61e6e86079","system_id":"levelo_inurba_marseille","lat":43.29443,"lon":5.39753,"is_reserved":false,"is_disabled":false,"rental_uris":{"android":"levelo://app?vid=4c73f73e-db39-4beb-89da-9a61e6e86079","ios":"levelo://app?vid=4c73f73e-db39-4beb-89da-9a61e6e86079"},"vehicle_type_id":"4","last_reported":1748560169,"current_range_meters":8400,"station_id":"ce4bh3h2rcd13ifvqdo0","pricing_plan_id":"cebpf4jnsgd1na2vs0mg"},{"bike_id":"d3f92fd6-293c-4ace-9e82-475ffd1b302b","system_id":"levelo_inurba_marseille","lat":43.313275,"lon":5.396911,"is_reserved":false,"is_disabled":false,"rental_uris":{"android":"levelo://app?vid=d3f92fd6-293c-4ace-9e82-475ffd1b302b","ios":"levelo://app?vid=d3f92fd6-293c-4ace-9e82-475ffd1b302b"},"vehicle_type_id":"4","last_reported":1748560169,"current_range_meters":8400,"station_id":"ce4bgvp2rcd13ifvqcu0","pricing_plan_id":"cebpf4jnsgd1na2vs0mg"},{"bike_id":"faef4eb4-18ac-462d-b4ca-b66224371625","system_id":"levelo_inurba_marseille","lat":43.30801,"lon":5.43526,"is_reserved":false,"is_disabled":false,"rental_uris":{"android":"levelo://app?vid=faef4eb4-18ac-462d-b4ca-b66224371625","ios":"levelo://app?vid=faef4eb4-18ac-462d-b4ca-b66224371625"},"vehicle_type_id":"4","last_reported":1748560169,"current_range_meters":8400,"station_id":"ce4bhph2rcd13ifvqheg","pricing_plan_id":"cebpf4jnsgd1na2vs0mg"},{"bike_id":"c6e0c180-aa6d-49e2-9c8b-018433f5b42d","system_id":"levelo_inurba_marseille","lat":43.25569,"lon":5.38242,"is_reserved":false,"is_disabled":false,"rental_uris":{"android":"levelo://app?vid=c6e0c180-aa6d-49e2-9c8b-018433f5b42d","ios":"levelo://app?vid=c6e0c180-aa6d-49e2-9c8b-018433f5b42d"},"vehicle_type_id":"4","last_reported":1748560169,"current_range_meters":8400,"station_id":"ce4bhih2rcd13ifvqfs0","pricing_plan_id":"cebpf4jnsgd1na2vs0mg"},{"bike_id":"f293ba09-4b7e-4261-9c45-5e8e5f6ff81c","system_id":"levelo_inurba_marseille","lat":43.303991,"lon":5.424937,"is_reserved":false,"is_disabled":false,"rental_uris":{"android":"levelo://app?vid=f293ba09-4b7e-4261-9c45-5e8e5f6ff81c","ios":"levelo://app?vid=f293ba09-4b7e-4261-9c45-5e8e5f6ff81c"},"vehicle_type_id":"4","last_reported":1748560169,"current_range_meters":8800,"station_id":"ce4bhoh2rcd13ifvqh6g","pricing_plan_id":"cebpf4jnsgd1na2vs0mg"},{"bike_id":"1ff9b1a7-0496-49e1-b039-3923992d1956","system_id":"levelo_inurba_marseille","lat":43.24653,"lon":5.38892,"is_reserved":false,"is_disabled":false,"rental_uris":{"android":"levelo://app?vid=1ff9b1a7-0496-49e1-b039-3923992d1956","ios":"levelo://app?vid=1ff9b1a7-0496-49e1-b039-3923992d1956"},"vehicle_type_id":"4","last_reported":1748560169,"current_range_meters":8800,"station_id":"ce4bhg12rcd13ifvqf60","pricing_plan_id":"cebpf4jnsgd1na2vs0mg"},{"bike_id":"49a2055a-20f4-49a7-9c2e-034a27e01ac8","system_id":"levelo_inurba_marseille","lat":43.31072,"lon":5.38347,"is_reserved":false,"is_disabled":false,"rental_uris":{"android":"levelo://app?vid=49a2055a-20f4-49a7-9c2e-034a27e01ac8","ios":"levelo://app?vid=49a2055a-20f4-49a7-9c2e-034a27e01ac8"},"vehicle_type_id":"4","last_reported":1748560169,"current_range_meters":8800,"station_id":"ce4bgv92rcd13ifvqcr0","pricing_plan_id":"cebpf4jnsgd1na2vs0mg"},{"bike_id":"9128805b-0e52-4275-a02b-9e97005f308e","system_id":"levelo_inurba_marseille","lat":43.30311,"lon":5.369,"is_reserved":false,"is_disabled":false,"rental_uris":{"android":"levelo://app?vid=9128805b-0e52-4275-a02b-9e97005f308e","ios":"levelo://app?vid=9128805b-0e52-4275-a02b-9e97005f308e"},"vehicle_type_id":"4","last_reported":1748560169,"current_range_meters":8800,"station_id":"ce4bgqh2rcd13ifvqc5g","pricing_plan_id":"cebpf4jnsgd1na2vs0mg"},{"bike_id":"dab2f626-29c7-41fb-b59f-689ffb6e1b9f","system_id":"levelo_inurba_marseille","lat":43.31321,"lon":5.3971,"is_reserved":false,"is_disabled":false,"rental_uris":{"android":"levelo://app?vid=dab2f626-29c7-41fb-b59f-689ffb6e1b9f","ios":"levelo://app?vid=dab2f626-29c7-41fb-b59f-689ffb6e1b9f"},"vehicle_type_id":"4","last_reported":1748560169,"current_range_meters":8800,"station_id":"ce4bgvp2rcd13ifvqcu0","pricing_plan_id":"cebpf4jnsgd1na2vs0mg"},{"bike_id":"e4db319b-ca7e-453d-ab62-af9006a40cb3","system_id":"levelo_inurba_marseille","lat":43.28852,"lon":5.39308,"is_reserved":false,"is_disabled":false,"rental_uris":{"android":"levelo://app?vid=e4db319b-ca7e-453d-ab62-af9006a40cb3","ios":"levelo://app?vid=e4db319b-ca7e-453d-ab62-af9006a40cb3"},"vehicle_type_id":"4","last_reported":1748560169,"current_range_meters":9200,"station_id":"ce4bh2p2rcd13ifvqdi0","pricing_plan_id":"cebpf4jnsgd1na2vs0mg"},{"bike_id":"d7c5e1ab-4576-4ada-a8c9-db7ec47cb0cc","system_id":"levelo_inurba_marseille","lat":43.30794,"lon":5.38166,"is_reserved":false,"is_disabled":false,"rental_uris":{"android":"levelo://app?vid=d7c5e1ab-4576-4ada-a8c9-db7ec47cb0cc","ios":"levelo://app?vid=d7c5e1ab-4576-4ada-a8c9-db7ec47cb0cc"},"vehicle_type_id":"4","last_reported":1748560169,"current_range_meters":9200,"station_id":"ce4bgt12rcd13ifvqce0","pricing_plan_id":"cebpf4jnsgd1na2vs0mg"},{"bike_id":"0a21f6ea-8804-44cb-804a-65780ecc91a1","system_id":"levelo_inurba_marseille","lat":43.254856,"lon":5.376281,"is_reserved":false,"is_disabled":false,"rental_uris":{"android":"levelo://app?vid=0a21f6ea-8804-44cb-804a-65780ecc91a1","ios":"levelo://app?vid=0a21f6ea-8804-44cb-804a-65780ecc91a1"},"vehicle_type_id":"4","last_reported":1748560169,"current_range_meters":9200,"station_id":"ce4bhh12rcd13ifvqff0","pricing_plan_id":"cebpf4jnsgd1na2vs0mg"},{"bike_id":"c97c7aff-a44a-433f-b1e1-c4cf53d64484","system_id":"levelo_inurba_marseille","lat":43.27916,"lon":5.39608,"is_reserved":false,"is_disabled":false,"rental_uris":{"android":"levelo://app?vid=c97c7aff-a44a-433f-b1e1-c4cf53d64484","ios":"levelo://app?vid=c97c7aff-a44a-433f-b1e1-c4cf53d64484"},"vehicle_type_id":"4","last_reported":1748560169,"current_range_meters":9200,"station_id":"ce4bhf92rcd13ifvqf40","pricing_plan_id":"cebpf4jnsgd1na2vs0mg"},{"bike_id":"cbf3cf05-175c-44e7-967c-393836dacce2","system_id":"levelo_inurba_marseille","lat":43.305904,"lon":5.393507,"is_reserved":false,"is_disabled":false,"rental_uris":{"android":"levelo://app?vid=cbf3cf05-175c-44e7-967c-393836dacce2","ios":"levelo://app?vid=cbf3cf05-175c-44e7-967c-393836dacce2"},"vehicle_type_id":"4","last_reported":1748560169,"current_range_meters":9200,"station_id":"ce4bh0p2rcd13ifvqd80","pricing_plan_id":"cebpf4jnsgd1na2vs0mg"},{"bike_id":"bd3a474e-6db6-481d-adfd-f1df8f0e3a08","system_id":"levelo_inurba_marseille","lat":43.28421,"lon":5.37517,"is_reserved":false,"is_disabled":false,"rental_uris":{"android":"levelo://app?vid=bd3a474e-6db6-481d-adfd-f1df8f0e3a08","ios":"levelo://app?vid=bd3a474e-6db6-481d-adfd-f1df8f0e3a08"},"vehicle_type_id":"4","last_reported":1748560169,"current_range_meters":9200,"station_id":"ce4bh412rcd13ifvqds0","pricing_plan_id":"cebpf4jnsgd1na2vs0mg"},{"bike_id":"0336b387-5859-40b9-80a1-1178d2ad5626","system_id":"levelo_inurba_marseille","lat":43.28149,"lon":5.4263,"is_reserved":false,"is_disabled":false,"rental_uris":{"android":"levelo://app?vid=0336b387-5859-40b9-80a1-1178d2ad5626","ios":"levelo://app?vid=0336b387-5859-40b9-80a1-1178d2ad5626"},"vehicle_type_id":"4","last_reported":1748560169,"current_range_meters":9200,"station_id":"ce4bhnh2rcd13ifvqgug","pricing_plan_id":"cebpf4jnsgd1na2vs0mg"},{"bike_id":"b0813d94-af54-4487-9355-54c660a8b884","system_id":"levelo_inurba_marseille","lat":43.30317,"lon":5.404358,"is_reserved":false,"is_disabled":false,"rental_uris":{"android":"levelo://app?vid=b0813d94-af54-4487-9355-54c660a8b884","ios":"levelo://app?vid=b0813d94-af54-4487-9355-54c660a8b884"},"vehicle_type_id":"4","last_reported":1748560169,"current_range_meters":9200,"station_id":"ce4bh012rcd13ifvqd10","pricing_plan_id":"cebpf4jnsgd1na2vs0mg"},{"bike_id":"68842787-6911-4239-9777-fae9c3ecdcc1","system_id":"levelo_inurba_marseille","lat":43.29291,"lon":5.40144,"is_reserved":false,"is_disabled":false,"rental_uris":{"android":"levelo://app?vid=68842787-6911-4239-9777-fae9c3ecdcc1","ios":"levelo://app?vid=68842787-6911-4239-9777-fae9c3ecdcc1"},"vehicle_type_id":"4","last_reported":1748560169,"current_range_meters":9200,"station_id":"ce4bh312rcd13ifvqdk0","pricing_plan_id":"cebpf4jnsgd1na2vs0mg"},{"bike_id":"6ef21fe8-8256-49ae-8da7-304f7429a96c","system_id":"levelo_inurba_marseille","lat":43.30885,"lon":5.37185,"is_reserved":false,"is_disabled":false,"rental_uris":{"android":"levelo://app?vid=6ef21fe8-8256-49ae-8da7-304f7429a96c","ios":"levelo://app?vid=6ef21fe8-8256-49ae-8da7-304f7429a96c"},"vehicle_type_id":"4","last_reported":1748560169,"current_range_meters":9200,"station_id":"ce4bguh2rcd13ifvqckg","pricing_plan_id":"cebpf4jnsgd1na2vs0mg"},{"bike_id":"3c51308f-5dee-4d47-a714-30fa80397e69","system_id":"levelo_inurba_marseille","lat":43.265,"lon":5.39544,"is_reserved":false,"is_disabled":false,"rental_uris":{"android":"levelo://app?vid=3c51308f-5dee-4d47-a714-30fa80397e69","ios":"levelo://app?vid=3c51308f-5dee-4d47-a714-30fa80397e69"},"vehicle_type_id":"4","last_reported":1748560169,"current_range_meters":9200,"station_id":"ce4bhi12rcd13ifvqfq0","pricing_plan_id":"cebpf4jnsgd1na2vs0mg"},{"bike_id":"ff2a370e-e43f-446f-93ec-b31861797423","system_id":"levelo_inurba_marseille","lat":43.28205,"lon":5.39055,"is_reserved":false,"is_disabled":false,"rental_uris":{"android":"levelo://app?vid=ff2a370e-e43f-446f-93ec-b31861797423","ios":"levelo://app?vid=ff2a370e-e43f-446f-93ec-b31861797423"},"vehicle_type_id":"4","last_reported":1748560169,"current_range_meters":9600,"station_id":"","pricing_plan_id":"cebpf4jnsgd1na2vs0mg"},{"bike_id":"0e009545-9acc-491d-b143-22cbd0096db4","system_id":"levelo_inurba_marseille","lat":43.33777,"lon":5.39262,"is_reserved":false,"is_disabled":false,"rental_uris":{"android":"levelo://app?vid=0e009545-9acc-491d-b143-22cbd0096db4","ios":"levelo://app?vid=0e009545-9acc-491d-b143-22cbd0096db4"},"vehicle_type_id":"4","last_reported":1748560169,"current_range_meters":9600,"station_id":"","pricing_plan_id":"cebpf4jnsgd1na2vs0mg"},{"bike_id":"4393f77d-2a41-485d-b6e6-1c920b5e1918","system_id":"levelo_inurba_marseille","lat":43.30968,"lon":5.39026,"is_reserved":false,"is_disabled":false,"rental_uris":{"android":"levelo://app?vid=4393f77d-2a41-485d-b6e6-1c920b5e1918","ios":"levelo://app?vid=4393f77d-2a41-485d-b6e6-1c920b5e1918"},"vehicle_type_id":"4","last_reported":1748560169,"current_range_meters":9600,"station_id":"ce4bgup2rcd13ifvqco0","pricing_plan_id":"cebpf4jnsgd1na2vs0mg"},{"bike_id":"42dca157-bdb0-4361-8022-7979135f94aa","system_id":"levelo_inurba_marseille","lat":43.285708,"lon":5.365526,"is_reserved":false,"is_disabled":false,"rental_uris":{"android":"levelo://app?vid=42dca157-bdb0-4361-8022-7979135f94aa","ios":"levelo://app?vid=42dca157-bdb0-4361-8022-7979135f94aa"},"vehicle_type_id":"4","last_reported":1748560169,"current_range_meters":9600,"station_id":"","pricing_plan_id":"cebpf4jnsgd1na2vs0mg"},{"bike_id":"269be72c-5702-4d28-ad86-91a6a9d8914e","system_id":"levelo_inurba_marseille","lat":43.29198,"lon":5.3581,"is_reserved":false,"is_disabled":false,"rental_uris":{"android":"levelo://app?vid=269be72c-5702-4d28-ad86-91a6a9d8914e","ios":"levelo://app?vid=269be72c-5702-4d28-ad86-91a6a9d8914e"},"vehicle_type_id":"4","last_reported":1748560169,"current_range_meters":9600,"station_id":"ce4bhb12rcd13ifvqel0","pricing_plan_id":"cebpf4jnsgd1na2vs0mg"},{"bike_id":"5a519813-f6ec-4fcd-9be7-b7b6b9061df5","system_id":"levelo_inurba_marseille","lat":43.299415,"lon":5.36547,"is_reserved":false,"is_disabled":true,"rental_uris":{"android":"levelo://app?vid=5a519813-f6ec-4fcd-9be7-b7b6b9061df5","ios":"levelo://app?vid=5a519813-f6ec-4fcd-9be7-b7b6b9061df5"},"vehicle_type_id":"4","last_reported":1748560169,"current_range_meters":9600,"station_id":"ce4bgm92rcd13ifvqbr0","pricing_plan_id":"cebpf4jnsgd1na2vs0mg"},{"bike_id":"c0595c09-72f3-46b5-88be-5bad603ecb44","system_id":"levelo_inurba_marseille","lat":43.28847,"lon":5.39322,"is_reserved":false,"is_disabled":false,"rental_uris":{"android":"levelo://app?vid=c0595c09-72f3-46b5-88be-5bad603ecb44","ios":"levelo://app?vid=c0595c09-72f3-46b5-88be-5bad603ecb44"},"vehicle_type_id":"4","last_reported":1748560169,"current_range_meters":9600,"station_id":"ce4bh2p2rcd13ifvqdi0","pricing_plan_id":"cebpf4jnsgd1na2vs0mg"},{"bike_id":"279a10e7-e84b-43fd-983f-0a5dd993c8a0","system_id":"levelo_inurba_marseille","lat":43.28157,"lon":5.42647,"is_reserved":false,"is_disabled":false,"rental_uris":{"android":"levelo://app?vid=279a10e7-e84b-43fd-983f-0a5dd993c8a0","ios":"levelo://app?vid=279a10e7-e84b-43fd-983f-0a5dd993c8a0"},"vehicle_type_id":"4","last_reported":1748560169,"current_range_meters":9600,"station_id":"ce4bhnh2rcd13ifvqgug","pricing_plan_id":"cebpf4jnsgd1na2vs0mg"},{"bike_id":"08818466-c8d1-44f6-a5b1-b36755983432","system_id":"levelo_inurba_marseille","lat":43.32066,"lon":5.44089,"is_reserved":false,"is_disabled":false,"rental_uris":{"android":"levelo://app?vid=08818466-c8d1-44f6-a5b1-b36755983432","ios":"levelo://app?vid=08818466-c8d1-44f6-a5b1-b36755983432"},"vehicle_type_id":"4","last_reported":1748560169,"current_range_meters":9600,"station_id":"","pricing_plan_id":"cebpf4jnsgd1na2vs0mg"},{"bike_id":"92a2ca16-c950-4b2d-ac5b-d565b7fc399a","system_id":"levelo_inurba_marseille","lat":43.280315,"lon":5.369505,"is_reserved":false,"is_disabled":false,"rental_uris":{"android":"levelo://app?vid=92a2ca16-c950-4b2d-ac5b-d565b7fc399a","ios":"levelo://app?vid=92a2ca16-c950-4b2d-ac5b-d565b7fc399a"},"vehicle_type_id":"4","last_reported":1748560169,"current_range_meters":9600,"station_id":"ce4bha12rcd13ifvqef0","pricing_plan_id":"cebpf4jnsgd1na2vs0mg"},{"bike_id":"84615e18-e2f0-47bb-b2d3-d90928f13ba0","system_id":"levelo_inurba_marseille","lat":43.30596,"lon":5.39361,"is_reserved":false,"is_disabled":false,"rental_uris":{"android":"levelo://app?vid=84615e18-e2f0-47bb-b2d3-d90928f13ba0","ios":"levelo://app?vid=84615e18-e2f0-47bb-b2d3-d90928f13ba0"},"vehicle_type_id":"4","last_reported":1748560169,"current_range_meters":9600,"station_id":"ce4bh0p2rcd13ifvqd80","pricing_plan_id":"cebpf4jnsgd1na2vs0mg"},{"bike_id":"c48b21be-a200-48c7-b6a5-2e7f96bd845a","system_id":"levelo_inurba_marseille","lat":43.29245,"lon":5.40914,"is_reserved":false,"is_disabled":false,"rental_uris":{"android":"levelo://app?vid=c48b21be-a200-48c7-b6a5-2e7f96bd845a","ios":"levelo://app?vid=c48b21be-a200-48c7-b6a5-2e7f96bd845a"},"vehicle_type_id":"4","last_reported":1748560169,"current_range_meters":9600,"station_id":"ce4bh192rcd13ifvqdc0","pricing_plan_id":"cebpf4jnsgd1na2vs0mg"},{"bike_id":"eeaaba6b-0ce0-43ef-a3d9-c4275a8344eb","system_id":"levelo_inurba_marseille","lat":43.25729,"lon":5.41105,"is_reserved":false,"is_disabled":false,"rental_uris":{"android":"levelo://app?vid=eeaaba6b-0ce0-43ef-a3d9-c4275a8344eb","ios":"levelo://app?vid=eeaaba6b-0ce0-43ef-a3d9-c4275a8344eb"},"vehicle_type_id":"4","last_reported":1748560169,"current_range_meters":9600,"station_id":"ce4bhkp2rcd13ifvqgd0","pricing_plan_id":"cebpf4jnsgd1na2vs0mg"},{"bike_id":"a44035ff-db7e-49cf-932c-096e94639e1a","system_id":"levelo_inurba_marseille","lat":43.29193,"lon":5.39329,"is_reserved":false,"is_disabled":false,"rental_uris":{"android":"levelo://app?vid=a44035ff-db7e-49cf-932c-096e94639e1a","ios":"levelo://app?vid=a44035ff-db7e-49cf-932c-096e94639e1a"},"vehicle_type_id":"4","last_reported":1748560169,"current_range_meters":10000,"station_id":"ce4bh192rcd13ifvqdd0","pricing_plan_id":"cebpf4jnsgd1na2vs0mg"},{"bike_id":"6ad5c3ef-6839-4e1c-9425-30e460d8bcf4","system_id":"levelo_inurba_marseille","lat":43.3117,"lon":5.38705,"is_reserved":false,"is_disabled":false,"rental_uris":{"android":"levelo://app?vid=6ad5c3ef-6839-4e1c-9425-30e460d8bcf4","ios":"levelo://app?vid=6ad5c3ef-6839-4e1c-9425-30e460d8bcf4"},"vehicle_type_id":"4","last_reported":1748560169,"current_range_meters":10000,"station_id":"ce4bgv12rcd13ifvqcp0","pricing_plan_id":"cebpf4jnsgd1na2vs0mg"},{"bike_id":"7203405e-5726-470e-b6e7-416d2f1da43a","system_id":"levelo_inurba_marseille","lat":43.28411,"lon":5.37492,"is_reserved":false,"is_disabled":false,"rental_uris":{"android":"levelo://app?vid=7203405e-5726-470e-b6e7-416d2f1da43a","ios":"levelo://app?vid=7203405e-5726-470e-b6e7-416d2f1da43a"},"vehicle_type_id":"4","last_reported":1748560169,"current_range_meters":10000,"station_id":"ce4bh412rcd13ifvqds0","pricing_plan_id":"cebpf4jnsgd1na2vs0mg"},{"bike_id":"b0281835-9723-4509-ae81-eaa1f1eb11df","system_id":"levelo_inurba_marseille","lat":43.30884,"lon":5.39659,"is_reserved":false,"is_disabled":false,"rental_uris":{"android":"levelo://app?vid=b0281835-9723-4509-ae81-eaa1f1eb11df","ios":"levelo://app?vid=b0281835-9723-4509-ae81-eaa1f1eb11df"},"vehicle_type_id":"4","last_reported":1748560169,"current_range_meters":10000,"station_id":"ce4bh012rcd13ifvqcv0","pricing_plan_id":"cebpf4jnsgd1na2vs0mg"},{"bike_id":"3f42bd57-9404-4e27-a55e-97d061c35105","system_id":"levelo_inurba_marseille","lat":43.27345,"lon":5.36236,"is_reserved":false,"is_disabled":false,"rental_uris":{"android":"levelo://app?vid=3f42bd57-9404-4e27-a55e-97d061c35105","ios":"levelo://app?vid=3f42bd57-9404-4e27-a55e-97d061c35105"},"vehicle_type_id":"4","last_reported":1748560169,"current_range_meters":10000,"station_id":"ce4bhbh2rcd13ifvqeo0","pricing_plan_id":"cebpf4jnsgd1na2vs0mg"},{"bike_id":"f8bc173a-daa9-4ce4-a9bf-8100197dee35","system_id":"levelo_inurba_marseille","lat":43.31325,"lon":5.39691,"is_reserved":false,"is_disabled":false,"rental_uris":{"android":"levelo://app?vid=f8bc173a-daa9-4ce4-a9bf-8100197dee35","ios":"levelo://app?vid=f8bc173a-daa9-4ce4-a9bf-8100197dee35"},"vehicle_type_id":"4","last_reported":1748560169,"current_range_meters":10000,"station_id":"ce4bgvp2rcd13ifvqcu0","pricing_plan_id":"cebpf4jnsgd1na2vs0mg"},{"bike_id":"6d1397da-05a0-4b4e-a4ca-8b68f00df880","system_id":"levelo_inurba_marseille","lat":43.29972,"lon":5.37177,"is_reserved":false,"is_disabled":false,"rental_uris":{"android":"levelo://app?vid=6d1397da-05a0-4b4e-a4ca-8b68f00df880","ios":"levelo://app?vid=6d1397da-05a0-4b4e-a4ca-8b68f00df880"},"vehicle_type_id":"4","last_reported":1748560169,"current_range_meters":10000,"station_id":"ce4bgr92rcd13ifvqc7g","pricing_plan_id":"cebpf4jnsgd1na2vs0mg"},{"bike_id":"00f77637-c960-45d0-b516-a2f6a0285858","system_id":"levelo_inurba_marseille","lat":43.297346,"lon":5.385412,"is_reserved":false,"is_disabled":false,"rental_uris":{"android":"levelo://app?vid=00f77637-c960-45d0-b516-a2f6a0285858","ios":"levelo://app?vid=00f77637-c960-45d0-b516-a2f6a0285858"},"vehicle_type_id":"4","last_reported":1748560169,"current_range_meters":10000,"station_id":"","pricing_plan_id":"cebpf4jnsgd1na2vs0mg"},{"bike_id":"dc77ed57-3919-4471-9468-9212c032a498","system_id":"levelo_inurba_marseille","lat":43.29011,"lon":5.38621,"is_reserved":false,"is_disabled":false,"rental_uris":{"android":"levelo://app?vid=dc77ed57-3919-4471-9468-9212c032a498","ios":"levelo://app?vid=dc77ed57-3919-4471-9468-9212c032a498"},"vehicle_type_id":"4","last_reported":1748560169,"current_range_meters":10000,"station_id":"ce4bh4p2rcd13ifvqe0g","pricing_plan_id":"cebpf4jnsgd1na2vs0mg"},{"bike_id":"9645fd54-db8d-4cf3-9341-8f046247c936","system_id":"levelo_inurba_marseille","lat":43.26557,"lon":5.38997,"is_reserved":false,"is_disabled":false,"rental_uris":{"android":"levelo://app?vid=9645fd54-db8d-4cf3-9341-8f046247c936","ios":"levelo://app?vid=9645fd54-db8d-4cf3-9341-8f046247c936"},"vehicle_type_id":"4","last_reported":1748560169,"current_range_meters":10000,"station_id":"ce4bhe12rcd13ifvqf30","pricing_plan_id":"cebpf4jnsgd1na2vs0mg"},{"bike_id":"fd5e4507-6c10-403b-acb1-87b9af7e800b","system_id":"levelo_inurba_marseille","lat":43.257078,"lon":5.410402,"is_reserved":false,"is_disabled":false,"rental_uris":{"android":"levelo://app?vid=fd5e4507-6c10-403b-acb1-87b9af7e800b","ios":"levelo://app?vid=fd5e4507-6c10-403b-acb1-87b9af7e800b"},"vehicle_type_id":"4","last_reported":1748560169,"current_range_meters":10800,"station_id":"ce4bhkp2rcd13ifvqgd0","pricing_plan_id":"cebpf4jnsgd1na2vs0mg"},{"bike_id":"92f680ec-a41c-453b-b4c9-7372c97b1017","system_id":"levelo_inurba_marseille","lat":43.31078,"lon":5.42424,"is_reserved":false,"is_disabled":false,"rental_uris":{"android":"levelo://app?vid=92f680ec-a41c-453b-b4c9-7372c97b1017","ios":"levelo://app?vid=92f680ec-a41c-453b-b4c9-7372c97b1017"},"vehicle_type_id":"4","last_reported":1748560169,"current_range_meters":10800,"station_id":"ce4bhp92rcd13ifvqhag","pricing_plan_id":"cebpf4jnsgd1na2vs0mg"},{"bike_id":"aadaa122-f961-4e01-b215-ce02247d30f2","system_id":"levelo_inurba_marseille","lat":43.31081,"lon":5.42414,"is_reserved":false,"is_disabled":false,"rental_uris":{"android":"levelo://app?vid=aadaa122-f961-4e01-b215-ce02247d30f2","ios":"levelo://app?vid=aadaa122-f961-4e01-b215-ce02247d30f2"},"vehicle_type_id":"4","last_reported":1748560169,"current_range_meters":10800,"station_id":"ce4bhp92rcd13ifvqhag","pricing_plan_id":"cebpf4jnsgd1na2vs0mg"},{"bike_id":"17b814b7-40e2-4c33-82bd-5dacb1bc07d4","system_id":"levelo_inurba_marseille","lat":43.30591,"lon":5.39357,"is_reserved":false,"is_disabled":false,"rental_uris":{"android":"levelo://app?vid=17b814b7-40e2-4c33-82bd-5dacb1bc07d4","ios":"levelo://app?vid=17b814b7-40e2-4c33-82bd-5dacb1bc07d4"},"vehicle_type_id":"4","last_reported":1748560169,"current_range_meters":10800,"station_id":"ce4bh0p2rcd13ifvqd80","pricing_plan_id":"cebpf4jnsgd1na2vs0mg"},{"bike_id":"438d1ea3-5c8f-4d35-9360-e6d605c5cfb2","system_id":"levelo_inurba_marseille","lat":43.24642,"lon":5.38144,"is_reserved":false,"is_disabled":false,"rental_uris":{"android":"levelo://app?vid=438d1ea3-5c8f-4d35-9360-e6d605c5cfb2","ios":"levelo://app?vid=438d1ea3-5c8f-4d35-9360-e6d605c5cfb2"},"vehicle_type_id":"4","last_reported":1748560169,"current_range_meters":10800,"station_id":"ce4bhih2rcd13ifvqfr0","pricing_plan_id":"cebpf4jnsgd1na2vs0mg"},{"bike_id":"f8ec9d78-7e62-4248-a76e-af09b5d3a770","system_id":"levelo_inurba_marseille","lat":43.29259,"lon":5.40905,"is_reserved":false,"is_disabled":false,"rental_uris":{"android":"levelo://app?vid=f8ec9d78-7e62-4248-a76e-af09b5d3a770","ios":"levelo://app?vid=f8ec9d78-7e62-4248-a76e-af09b5d3a770"},"vehicle_type_id":"4","last_reported":1748560169,"current_range_meters":10800,"station_id":"ce4bh192rcd13ifvqdc0","pricing_plan_id":"cebpf4jnsgd1na2vs0mg"},{"bike_id":"d1096873-14b6-4783-a074-41ed382fc392","system_id":"levelo_inurba_marseille","lat":43.24801,"lon":5.37467,"is_reserved":false,"is_disabled":false,"rental_uris":{"android":"levelo://app?vid=d1096873-14b6-4783-a074-41ed382fc392","ios":"levelo://app?vid=d1096873-14b6-4783-a074-41ed382fc392"},"vehicle_type_id":"4","last_reported":1748560169,"current_range_meters":10800,"station_id":"ce4bhgh2rcd13ifvqfb0","pricing_plan_id":"cebpf4jnsgd1na2vs0mg"},{"bike_id":"b0f67d6d-3250-42ef-8f19-4e74e6760f9a","system_id":"levelo_inurba_marseille","lat":43.344013,"lon":5.381371,"is_reserved":false,"is_disabled":false,"rental_uris":{"android":"levelo://app?vid=b0f67d6d-3250-42ef-8f19-4e74e6760f9a","ios":"levelo://app?vid=b0f67d6d-3250-42ef-8f19-4e74e6760f9a"},"vehicle_type_id":"4","last_reported":1748560169,"current_range_meters":10800,"station_id":"","pricing_plan_id":"cebpf4jnsgd1na2vs0mg"},{"bike_id":"d2efc7ef-e8cf-48f9-9e09-ac995bd4b4ef","system_id":"levelo_inurba_marseille","lat":43.28485,"lon":5.384237,"is_reserved":false,"is_disabled":false,"rental_uris":{"android":"levelo://app?vid=d2efc7ef-e8cf-48f9-9e09-ac995bd4b4ef","ios":"levelo://app?vid=d2efc7ef-e8cf-48f9-9e09-ac995bd4b4ef"},"vehicle_type_id":"4","last_reported":1748560169,"current_range_meters":10800,"station_id":"ce4bh512rcd13ifvqe3g","pricing_plan_id":"cebpf4jnsgd1na2vs0mg"},{"bike_id":"cd438c88-7f17-4c01-b238-d05b58df7798","system_id":"levelo_inurba_marseille","lat":43.279695,"lon":5.387445,"is_reserved":false,"is_disabled":false,"rental_uris":{"android":"levelo://app?vid=cd438c88-7f17-4c01-b238-d05b58df7798","ios":"levelo://app?vid=cd438c88-7f17-4c01-b238-d05b58df7798"},"vehicle_type_id":"4","last_reported":1748560169,"current_range_meters":10800,"station_id":"ce4bhg12rcd13ifvqf80","pricing_plan_id":"cebpf4jnsgd1na2vs0mg"},{"bike_id":"6497f928-b492-441b-adb0-b2293f76870d","system_id":"levelo_inurba_marseille","lat":43.24549,"lon":5.39522,"is_reserved":false,"is_disabled":false,"rental_uris":{"android":"levelo://app?vid=6497f928-b492-441b-adb0-b2293f76870d","ios":"levelo://app?vid=6497f928-b492-441b-adb0-b2293f76870d"},"vehicle_type_id":"4","last_reported":1748560169,"current_range_meters":10800,"station_id":"ce4bhlp2rcd13ifvqgjg","pricing_plan_id":"cebpf4jnsgd1na2vs0mg"},{"bike_id":"572f964a-6e64-4c5e-b089-ce909a800028","system_id":"levelo_inurba_marseille","lat":43.29275,"lon":5.4011,"is_reserved":false,"is_disabled":false,"rental_uris":{"android":"levelo://app?vid=572f964a-6e64-4c5e-b089-ce909a800028","ios":"levelo://app?vid=572f964a-6e64-4c5e-b089-ce909a800028"},"vehicle_type_id":"4","last_reported":1748560169,"current_range_meters":10800,"station_id":"ce4bh312rcd13ifvqdk0","pricing_plan_id":"cebpf4jnsgd1na2vs0mg"},{"bike_id":"f98ad87e-348c-454d-b280-94c48242787c","system_id":"levelo_inurba_marseille","lat":43.33605,"lon":5.41034,"is_reserved":false,"is_disabled":false,"rental_uris":{"android":"levelo://app?vid=f98ad87e-348c-454d-b280-94c48242787c","ios":"levelo://app?vid=f98ad87e-348c-454d-b280-94c48242787c"},"vehicle_type_id":"4","last_reported":1748560169,"current_range_meters":11200,"station_id":"ce4bhqh2rcd13ifvqhmg","pricing_plan_id":"cebpf4jnsgd1na2vs0mg"},{"bike_id":"05a8dfd1-4a25-4629-87c0-0cc5b4bf221b","system_id":"levelo_inurba_marseille","lat":43.30253,"lon":5.40086,"is_reserved":false,"is_disabled":false,"rental_uris":{"android":"levelo://app?vid=05a8dfd1-4a25-4629-87c0-0cc5b4bf221b","ios":"levelo://app?vid=05a8dfd1-4a25-4629-87c0-0cc5b4bf221b"},"vehicle_type_id":"4","last_reported":1748560169,"current_range_meters":11200,"station_id":"ce4bgvh2rcd13ifvqcs0","pricing_plan_id":"cebpf4jnsgd1na2vs0mg"},{"bike_id":"42457cf4-066b-4e99-be8a-c611cdb501b2","system_id":"levelo_inurba_marseille","lat":43.23328,"lon":5.3614,"is_reserved":false,"is_disabled":false,"rental_uris":{"android":"levelo://app?vid=42457cf4-066b-4e99-be8a-c611cdb501b2","ios":"levelo://app?vid=42457cf4-066b-4e99-be8a-c611cdb501b2"},"vehicle_type_id":"4","last_reported":1748560169,"current_range_meters":11200,"station_id":"","pricing_plan_id":"cebpf4jnsgd1na2vs0mg"},{"bike_id":"672d2aba-223f-479a-8a45-88daab61e62d","system_id":"levelo_inurba_marseille","lat":43.31062,"lon":5.38339,"is_reserved":false,"is_disabled":false,"rental_uris":{"android":"levelo://app?vid=672d2aba-223f-479a-8a45-88daab61e62d","ios":"levelo://app?vid=672d2aba-223f-479a-8a45-88daab61e62d"},"vehicle_type_id":"4","last_reported":1748560169,"current_range_meters":11200,"station_id":"ce4bgv92rcd13ifvqcr0","pricing_plan_id":"cebpf4jnsgd1na2vs0mg"},{"bike_id":"a92fac90-321e-4229-a544-a89e9b62c0c4","system_id":"levelo_inurba_marseille","lat":43.27841,"lon":5.39212,"is_reserved":false,"is_disabled":false,"rental_uris":{"android":"levelo://app?vid=a92fac90-321e-4229-a544-a89e9b62c0c4","ios":"levelo://app?vid=a92fac90-321e-4229-a544-a89e9b62c0c4"},"vehicle_type_id":"4","last_reported":1748560169,"current_range_meters":11200,"station_id":"ce4bhjp2rcd13ifvqga0","pricing_plan_id":"cebpf4jnsgd1na2vs0mg"},{"bike_id":"7cbd82b7-fb66-41f5-a7be-e140e2d9e61f","system_id":"levelo_inurba_marseille","lat":43.27173,"lon":5.40992,"is_reserved":false,"is_disabled":false,"rental_uris":{"android":"levelo://app?vid=7cbd82b7-fb66-41f5-a7be-e140e2d9e61f","ios":"levelo://app?vid=7cbd82b7-fb66-41f5-a7be-e140e2d9e61f"},"vehicle_type_id":"4","last_reported":1748560169,"current_range_meters":10800,"station_id":"ce4bhl12rcd13ifvqgf0","pricing_plan_id":"cebpf4jnsgd1na2vs0mg"},{"bike_id":"b1823e77-f153-4bd7-9380-c76860068390","system_id":"levelo_inurba_marseille","lat":43.30889,"lon":5.3719,"is_reserved":false,"is_disabled":false,"rental_uris":{"android":"levelo://app?vid=b1823e77-f153-4bd7-9380-c76860068390","ios":"levelo://app?vid=b1823e77-f153-4bd7-9380-c76860068390"},"vehicle_type_id":"4","last_reported":1748560169,"current_range_meters":11200,"station_id":"ce4bguh2rcd13ifvqckg","pricing_plan_id":"cebpf4jnsgd1na2vs0mg"},{"bike_id":"2e1f9dd1-9cf3-4ecd-933e-eb0930ee47df","system_id":"levelo_inurba_marseille","lat":43.30882,"lon":5.3964,"is_reserved":false,"is_disabled":false,"rental_uris":{"android":"levelo://app?vid=2e1f9dd1-9cf3-4ecd-933e-eb0930ee47df","ios":"levelo://app?vid=2e1f9dd1-9cf3-4ecd-933e-eb0930ee47df"},"vehicle_type_id":"4","last_reported":1748560169,"current_range_meters":11200,"station_id":"ce4bh012rcd13ifvqcv0","pricing_plan_id":"cebpf4jnsgd1na2vs0mg"},{"bike_id":"6b941fee-3867-4c7d-a895-f601524dec0c","system_id":"levelo_inurba_marseille","lat":43.26224,"lon":5.40446,"is_reserved":false,"is_disabled":false,"rental_uris":{"android":"levelo://app?vid=6b941fee-3867-4c7d-a895-f601524dec0c","ios":"levelo://app?vid=6b941fee-3867-4c7d-a895-f601524dec0c"},"vehicle_type_id":"4","last_reported":1748560169,"current_range_meters":11200,"station_id":"ce4bhmh2rcd13ifvqgmg","pricing_plan_id":"cebpf4jnsgd1na2vs0mg"},{"bike_id":"47ce111d-da00-44e1-bb4b-5c32f8d4730e","system_id":"levelo_inurba_marseille","lat":43.290403,"lon":5.386354,"is_reserved":false,"is_disabled":false,"rental_uris":{"android":"levelo://app?vid=47ce111d-da00-44e1-bb4b-5c32f8d4730e","ios":"levelo://app?vid=47ce111d-da00-44e1-bb4b-5c32f8d4730e"},"vehicle_type_id":"4","last_reported":1748560169,"current_range_meters":11200,"station_id":"ce4bh4p2rcd13ifvqe0g","pricing_plan_id":"cebpf4jnsgd1na2vs0mg"},{"bike_id":"9fecae58-7f1c-45b2-9ea1-ba40ccdb9129","system_id":"levelo_inurba_marseille","lat":43.27564,"lon":5.38417,"is_reserved":false,"is_disabled":false,"rental_uris":{"android":"levelo://app?vid=9fecae58-7f1c-45b2-9ea1-ba40ccdb9129","ios":"levelo://app?vid=9fecae58-7f1c-45b2-9ea1-ba40ccdb9129"},"vehicle_type_id":"4","last_reported":1748560169,"current_range_meters":11200,"station_id":"ce4bhh92rcd13ifvqfi0","pricing_plan_id":"cebpf4jnsgd1na2vs0mg"},{"bike_id":"69362ca8-aad5-4f84-99b8-c7328973ac4f","system_id":"levelo_inurba_marseille","lat":43.231535,"lon":5.437197,"is_reserved":false,"is_disabled":false,"rental_uris":{"android":"levelo://app?vid=69362ca8-aad5-4f84-99b8-c7328973ac4f","ios":"levelo://app?vid=69362ca8-aad5-4f84-99b8-c7328973ac4f"},"vehicle_type_id":"4","last_reported":1748560169,"current_range_meters":11200,"station_id":"ce4bhmp2rcd13ifvqgog","pricing_plan_id":"cebpf4jnsgd1na2vs0mg"},{"bike_id":"c666405f-462c-40b6-aad2-05c3e84c9054","system_id":"levelo_inurba_marseille","lat":43.24172,"lon":5.36394,"is_reserved":false,"is_disabled":false,"rental_uris":{"android":"levelo://app?vid=c666405f-462c-40b6-aad2-05c3e84c9054","ios":"levelo://app?vid=c666405f-462c-40b6-aad2-05c3e84c9054"},"vehicle_type_id":"4","last_reported":1748560169,"current_range_meters":11200,"station_id":"cpo36qri1sfpv3e86is0","pricing_plan_id":"cebpf4jnsgd1na2vs0mg"},{"bike_id":"a426f99b-d34a-41bf-bbda-59f7dfd6939b","system_id":"levelo_inurba_marseille","lat":43.255796,"lon":5.382262,"is_reserved":false,"is_disabled":false,"rental_uris":{"android":"levelo://app?vid=a426f99b-d34a-41bf-bbda-59f7dfd6939b","ios":"levelo://app?vid=a426f99b-d34a-41bf-bbda-59f7dfd6939b"},"vehicle_type_id":"4","last_reported":1748560169,"current_range_meters":11600,"station_id":"ce501612rcd8frsf0b60","pricing_plan_id":"cebpf4jnsgd1na2vs0mg"},{"bike_id":"ef471db5-b27a-44d5-b1b1-c2c7f91237ac","system_id":"levelo_inurba_marseille","lat":43.29979,"lon":5.37186,"is_reserved":false,"is_disabled":false,"rental_uris":{"android":"levelo://app?vid=ef471db5-b27a-44d5-b1b1-c2c7f91237ac","ios":"levelo://app?vid=ef471db5-b27a-44d5-b1b1-c2c7f91237ac"},"vehicle_type_id":"4","last_reported":1748560169,"current_range_meters":11600,"station_id":"ce4bgr92rcd13ifvqc7g","pricing_plan_id":"cebpf4jnsgd1na2vs0mg"},{"bike_id":"64864384-5888-49d8-b447-ac40385fe3be","system_id":"levelo_inurba_marseille","lat":43.310793,"lon":5.424313,"is_reserved":false,"is_disabled":false,"rental_uris":{"android":"levelo://app?vid=64864384-5888-49d8-b447-ac40385fe3be","ios":"levelo://app?vid=64864384-5888-49d8-b447-ac40385fe3be"},"vehicle_type_id":"4","last_reported":1748560169,"current_range_meters":11600,"station_id":"ce4bhp92rcd13ifvqhag","pricing_plan_id":"cebpf4jnsgd1na2vs0mg"},{"bike_id":"f5733814-9732-4748-bcc9-3b2fac8e1564","system_id":"levelo_inurba_marseille","lat":43.31256,"lon":5.37829,"is_reserved":false,"is_disabled":false,"rental_uris":{"android":"levelo://app?vid=f5733814-9732-4748-bcc9-3b2fac8e1564","ios":"levelo://app?vid=f5733814-9732-4748-bcc9-3b2fac8e1564"},"vehicle_type_id":"4","last_reported":1748560169,"current_range_meters":11600,"station_id":"","pricing_plan_id":"cebpf4jnsgd1na2vs0mg"},{"bike_id":"9106b7cd-70ae-456d-906e-062a4ff9165b","system_id":"levelo_inurba_marseille","lat":43.32988,"lon":5.3945,"is_reserved":false,"is_disabled":false,"rental_uris":{"android":"levelo://app?vid=9106b7cd-70ae-456d-906e-062a4ff9165b","ios":"levelo://app?vid=9106b7cd-70ae-456d-906e-062a4ff9165b"},"vehicle_type_id":"4","last_reported":1748560169,"current_range_meters":11600,"station_id":"","pricing_plan_id":"cebpf4jnsgd1na2vs0mg"},{"bike_id":"5c8310d7-7597-468d-8258-9640cba23bf9","system_id":"levelo_inurba_marseille","lat":43.284762,"lon":5.384242,"is_reserved":false,"is_disabled":true,"rental_uris":{"android":"levelo://app?vid=5c8310d7-7597-468d-8258-9640cba23bf9","ios":"levelo://app?vid=5c8310d7-7597-468d-8258-9640cba23bf9"},"vehicle_type_id":"4","last_reported":1748560169,"current_range_meters":11600,"station_id":"ce4bh512rcd13ifvqe3g","pricing_plan_id":"cebpf4jnsgd1na2vs0mg"},{"bike_id":"c3708d46-6d3f-473e-a7dd-aaed7b1ccfcb","system_id":"levelo_inurba_marseille","lat":43.28104,"lon":5.378363,"is_reserved":false,"is_disabled":false,"rental_uris":{"android":"levelo://app?vid=c3708d46-6d3f-473e-a7dd-aaed7b1ccfcb","ios":"levelo://app?vid=c3708d46-6d3f-473e-a7dd-aaed7b1ccfcb"},"vehicle_type_id":"4","last_reported":1748560169,"current_range_meters":11600,"station_id":"ce4bha12rcd13ifvqee0","pricing_plan_id":"cebpf4jnsgd1na2vs0mg"},{"bike_id":"9656913e-5d0a-47f7-b654-a4bd8d02350a","system_id":"levelo_inurba_marseille","lat":43.29278,"lon":5.40153,"is_reserved":false,"is_disabled":false,"rental_uris":{"android":"levelo://app?vid=9656913e-5d0a-47f7-b654-a4bd8d02350a","ios":"levelo://app?vid=9656913e-5d0a-47f7-b654-a4bd8d02350a"},"vehicle_type_id":"4","last_reported":1748560169,"current_range_meters":11600,"station_id":"ce4bh312rcd13ifvqdk0","pricing_plan_id":"cebpf4jnsgd1na2vs0mg"},{"bike_id":"3aca9d89-7c6e-4143-a32d-6ac070d7f9ea","system_id":"levelo_inurba_marseille","lat":43.30246,"lon":5.40078,"is_reserved":false,"is_disabled":false,"rental_uris":{"android":"levelo://app?vid=3aca9d89-7c6e-4143-a32d-6ac070d7f9ea","ios":"levelo://app?vid=3aca9d89-7c6e-4143-a32d-6ac070d7f9ea"},"vehicle_type_id":"4","last_reported":1748560169,"current_range_meters":11600,"station_id":"ce4bgvh2rcd13ifvqcs0","pricing_plan_id":"cebpf4jnsgd1na2vs0mg"},{"bike_id":"6fe899f6-9dc0-4acf-9724-5952fe70e0f2","system_id":"levelo_inurba_marseille","lat":43.2919,"lon":5.3932,"is_reserved":false,"is_disabled":false,"rental_uris":{"android":"levelo://app?vid=6fe899f6-9dc0-4acf-9724-5952fe70e0f2","ios":"levelo://app?vid=6fe899f6-9dc0-4acf-9724-5952fe70e0f2"},"vehicle_type_id":"4","last_reported":1748560169,"current_range_meters":12000,"station_id":"ce4bh192rcd13ifvqdd0","pricing_plan_id":"cebpf4jnsgd1na2vs0mg"},{"bike_id":"e9cda520-c6f4-465d-ad7f-8c059b3dc45a","system_id":"levelo_inurba_marseille","lat":43.313967,"lon":5.383993,"is_reserved":false,"is_disabled":false,"rental_uris":{"android":"levelo://app?vid=e9cda520-c6f4-465d-ad7f-8c059b3dc45a","ios":"levelo://app?vid=e9cda520-c6f4-465d-ad7f-8c059b3dc45a"},"vehicle_type_id":"4","last_reported":1748560169,"current_range_meters":12000,"station_id":"","pricing_plan_id":"cebpf4jnsgd1na2vs0mg"},{"bike_id":"1be21534-ca7b-4f38-8bff-a7515afc85f6","system_id":"levelo_inurba_marseille","lat":43.24812,"lon":5.374443,"is_reserved":false,"is_disabled":false,"rental_uris":{"android":"levelo://app?vid=1be21534-ca7b-4f38-8bff-a7515afc85f6","ios":"levelo://app?vid=1be21534-ca7b-4f38-8bff-a7515afc85f6"},"vehicle_type_id":"4","last_reported":1748560169,"current_range_meters":12000,"station_id":"ce4bhgh2rcd13ifvqfb0","pricing_plan_id":"cebpf4jnsgd1na2vs0mg"},{"bike_id":"e5cd4f38-802b-4577-bad8-9d3183a9673f","system_id":"levelo_inurba_marseille","lat":43.24821,"lon":5.37456,"is_reserved":false,"is_disabled":true,"rental_uris":{"android":"levelo://app?vid=e5cd4f38-802b-4577-bad8-9d3183a9673f","ios":"levelo://app?vid=e5cd4f38-802b-4577-bad8-9d3183a9673f"},"vehicle_type_id":"4","last_reported":1748560169,"current_range_meters":12000,"station_id":"ce4bhgh2rcd13ifvqfb0","pricing_plan_id":"cebpf4jnsgd1na2vs0mg"},{"bike_id":"cc36bf8e-c4fd-4edb-8e2f-f3e1fdb01728","system_id":"levelo_inurba_marseille","lat":43.31185,"lon":5.4076,"is_reserved":false,"is_disabled":false,"rental_uris":{"android":"levelo://app?vid=cc36bf8e-c4fd-4edb-8e2f-f3e1fdb01728","ios":"levelo://app?vid=cc36bf8e-c4fd-4edb-8e2f-f3e1fdb01728"},"vehicle_type_id":"4","last_reported":1748560169,"current_range_meters":12400,"station_id":"","pricing_plan_id":"cebpf4jnsgd1na2vs0mg"},{"bike_id":"0dc000bd-368c-4c59-a0e5-9ddd5a5b10f3","system_id":"levelo_inurba_marseille","lat":43.32334,"lon":5.40599,"is_reserved":false,"is_disabled":true,"rental_uris":{"android":"levelo://app?vid=0dc000bd-368c-4c59-a0e5-9ddd5a5b10f3","ios":"levelo://app?vid=0dc000bd-368c-4c59-a0e5-9ddd5a5b10f3"},"vehicle_type_id":"4","last_reported":1748560169,"current_range_meters":12400,"station_id":"ce4bhq92rcd13ifvqhjg","pricing_plan_id":"cebpf4jnsgd1na2vs0mg"},{"bike_id":"318705d8-3560-457d-b89f-c777a99988b6","system_id":"levelo_inurba_marseille","lat":43.28369,"lon":5.38621,"is_reserved":false,"is_disabled":false,"rental_uris":{"android":"levelo://app?vid=318705d8-3560-457d-b89f-c777a99988b6","ios":"levelo://app?vid=318705d8-3560-457d-b89f-c777a99988b6"},"vehicle_type_id":"4","last_reported":1748560169,"current_range_meters":12400,"station_id":"ce4bh492rcd13ifvqdvg","pricing_plan_id":"cebpf4jnsgd1na2vs0mg"},{"bike_id":"dddeb80d-3057-46be-833d-4a0c2415e343","system_id":"levelo_inurba_marseille","lat":43.31996,"lon":5.38146,"is_reserved":false,"is_disabled":false,"rental_uris":{"android":"levelo://app?vid=dddeb80d-3057-46be-833d-4a0c2415e343","ios":"levelo://app?vid=dddeb80d-3057-46be-833d-4a0c2415e343"},"vehicle_type_id":"4","last_reported":1748560169,"current_range_meters":12400,"station_id":"ce4bhr12rcd13ifvqhpg","pricing_plan_id":"cebpf4jnsgd1na2vs0mg"},{"bike_id":"146f9fa8-f8d2-4ed9-b120-d9b607c9eab1","system_id":"levelo_inurba_marseille","lat":43.23179,"lon":5.43727,"is_reserved":false,"is_disabled":false,"rental_uris":{"android":"levelo://app?vid=146f9fa8-f8d2-4ed9-b120-d9b607c9eab1","ios":"levelo://app?vid=146f9fa8-f8d2-4ed9-b120-d9b607c9eab1"},"vehicle_type_id":"4","last_reported":1748560169,"current_range_meters":12400,"station_id":"ce4bhmp2rcd13ifvqgog","pricing_plan_id":"cebpf4jnsgd1na2vs0mg"},{"bike_id":"6b21a076-bf88-4031-999b-2ae695362573","system_id":"levelo_inurba_marseille","lat":43.265732,"lon":5.390312,"is_reserved":false,"is_disabled":false,"rental_uris":{"android":"levelo://app?vid=6b21a076-bf88-4031-999b-2ae695362573","ios":"levelo://app?vid=6b21a076-bf88-4031-999b-2ae695362573"},"vehicle_type_id":"4","last_reported":1748560169,"current_range_meters":12400,"station_id":"ce4bhe12rcd13ifvqf30","pricing_plan_id":"cebpf4jnsgd1na2vs0mg"},{"bike_id":"747224c9-7e52-4c58-9390-d943c4f5446c","system_id":"levelo_inurba_marseille","lat":43.27186,"lon":5.40999,"is_reserved":false,"is_disabled":false,"rental_uris":{"android":"levelo://app?vid=747224c9-7e52-4c58-9390-d943c4f5446c","ios":"levelo://app?vid=747224c9-7e52-4c58-9390-d943c4f5446c"},"vehicle_type_id":"4","last_reported":1748560169,"current_range_meters":12400,"station_id":"ce4bhl12rcd13ifvqgf0","pricing_plan_id":"cebpf4jnsgd1na2vs0mg"},{"bike_id":"6cddb488-bc63-402f-9ae9-4b2b965663c6","system_id":"levelo_inurba_marseille","lat":43.280748,"lon":5.396394,"is_reserved":false,"is_disabled":false,"rental_uris":{"android":"levelo://app?vid=6cddb488-bc63-402f-9ae9-4b2b965663c6","ios":"levelo://app?vid=6cddb488-bc63-402f-9ae9-4b2b965663c6"},"vehicle_type_id":"4","last_reported":1748560169,"current_range_meters":12400,"station_id":"ce4bho12rcd13ifvqh2g","pricing_plan_id":"cebpf4jnsgd1na2vs0mg"},{"bike_id":"da279776-c099-4cdd-acd3-f802ffed4965","system_id":"levelo_inurba_marseille","lat":43.29532,"lon":5.42278,"is_reserved":false,"is_disabled":false,"rental_uris":{"android":"levelo://app?vid=da279776-c099-4cdd-acd3-f802ffed4965","ios":"levelo://app?vid=da279776-c099-4cdd-acd3-f802ffed4965"},"vehicle_type_id":"4","last_reported":1748560169,"current_range_meters":12400,"station_id":"ce4bhph2rcd13ifvqhdg","pricing_plan_id":"cebpf4jnsgd1na2vs0mg"},{"bike_id":"3ce395fd-7389-4f2f-9662-733b290a489c","system_id":"levelo_inurba_marseille","lat":43.30359,"lon":5.425,"is_reserved":false,"is_disabled":true,"rental_uris":{"android":"levelo://app?vid=3ce395fd-7389-4f2f-9662-733b290a489c","ios":"levelo://app?vid=3ce395fd-7389-4f2f-9662-733b290a489c"},"vehicle_type_id":"4","last_reported":1748560169,"current_range_meters":12400,"station_id":"ce4bhoh2rcd13ifvqh6g","pricing_plan_id":"cebpf4jnsgd1na2vs0mg"},{"bike_id":"1915369e-eeca-4be5-91d4-5ba25835ad28","system_id":"levelo_inurba_marseille","lat":43.231585,"lon":5.437016,"is_reserved":false,"is_disabled":false,"rental_uris":{"android":"levelo://app?vid=1915369e-eeca-4be5-91d4-5ba25835ad28","ios":"levelo://app?vid=1915369e-eeca-4be5-91d4-5ba25835ad28"},"vehicle_type_id":"4","last_reported":1748560169,"current_range_meters":12400,"station_id":"ce4bhmp2rcd13ifvqgog","pricing_plan_id":"cebpf4jnsgd1na2vs0mg"},{"bike_id":"93760a38-18e5-4cc7-aa89-0ed777fdd294","system_id":"levelo_inurba_marseille","lat":43.28702,"lon":5.37392,"is_reserved":false,"is_disabled":false,"rental_uris":{"android":"levelo://app?vid=93760a38-18e5-4cc7-aa89-0ed777fdd294","ios":"levelo://app?vid=93760a38-18e5-4cc7-aa89-0ed777fdd294"},"vehicle_type_id":"4","last_reported":1748560169,"current_range_meters":12400,"station_id":"ce4bh3p2rcd13ifvqdq0","pricing_plan_id":"cebpf4jnsgd1na2vs0mg"},{"bike_id":"f33ccc5f-3a44-40ad-8216-30018004066d","system_id":"levelo_inurba_marseille","lat":43.307859,"lon":5.376567,"is_reserved":false,"is_disabled":false,"rental_uris":{"android":"levelo://app?vid=f33ccc5f-3a44-40ad-8216-30018004066d","ios":"levelo://app?vid=f33ccc5f-3a44-40ad-8216-30018004066d"},"vehicle_type_id":"4","last_reported":1748560169,"current_range_meters":12400,"station_id":"ce4bgv92rcd13ifvqcq0","pricing_plan_id":"cebpf4jnsgd1na2vs0mg"},{"bike_id":"25f58006-0670-4b9b-9a5d-81321b2ee4c3","system_id":"levelo_inurba_marseille","lat":43.287058,"lon":5.399775,"is_reserved":false,"is_disabled":false,"rental_uris":{"android":"levelo://app?vid=25f58006-0670-4b9b-9a5d-81321b2ee4c3","ios":"levelo://app?vid=25f58006-0670-4b9b-9a5d-81321b2ee4c3"},"vehicle_type_id":"4","last_reported":1748560169,"current_range_meters":12800,"station_id":"ce4bho92rcd13ifvqh3g","pricing_plan_id":"cebpf4jnsgd1na2vs0mg"},{"bike_id":"e044c9db-ce02-4ecf-bf86-8eaa46f9c414","system_id":"levelo_inurba_marseille","lat":43.25715,"lon":5.39147,"is_reserved":false,"is_disabled":false,"rental_uris":{"android":"levelo://app?vid=e044c9db-ce02-4ecf-bf86-8eaa46f9c414","ios":"levelo://app?vid=e044c9db-ce02-4ecf-bf86-8eaa46f9c414"},"vehicle_type_id":"4","last_reported":1748560169,"current_range_meters":12800,"station_id":"","pricing_plan_id":"cebpf4jnsgd1na2vs0mg"},{"bike_id":"462f2f57-f1ba-4219-a520-ea845642e01b","system_id":"levelo_inurba_marseille","lat":43.30461,"lon":5.379,"is_reserved":false,"is_disabled":false,"rental_uris":{"android":"levelo://app?vid=462f2f57-f1ba-4219-a520-ea845642e01b","ios":"levelo://app?vid=462f2f57-f1ba-4219-a520-ea845642e01b"},"vehicle_type_id":"4","last_reported":1748560169,"current_range_meters":12800,"station_id":"ce4bgup2rcd13ifvqcn0","pricing_plan_id":"cebpf4jnsgd1na2vs0mg"},{"bike_id":"6530242f-b0b0-4481-a762-bfc24a4d29eb","system_id":"levelo_inurba_marseille","lat":43.24675,"lon":5.38161,"is_reserved":false,"is_disabled":false,"rental_uris":{"android":"levelo://app?vid=6530242f-b0b0-4481-a762-bfc24a4d29eb","ios":"levelo://app?vid=6530242f-b0b0-4481-a762-bfc24a4d29eb"},"vehicle_type_id":"4","last_reported":1748560169,"current_range_meters":12800,"station_id":"ce4bhih2rcd13ifvqfr0","pricing_plan_id":"cebpf4jnsgd1na2vs0mg"},{"bike_id":"48e26ea8-1795-4299-a1c4-724bbc46d8d5","system_id":"levelo_inurba_marseille","lat":43.289354,"lon":5.366454,"is_reserved":false,"is_disabled":false,"rental_uris":{"android":"levelo://app?vid=48e26ea8-1795-4299-a1c4-724bbc46d8d5","ios":"levelo://app?vid=48e26ea8-1795-4299-a1c4-724bbc46d8d5"},"vehicle_type_id":"4","last_reported":1748560169,"current_range_meters":12800,"station_id":"ce4bhap2rcd13ifvqek0","pricing_plan_id":"cebpf4jnsgd1na2vs0mg"},{"bike_id":"2a43368a-2db6-4afc-9126-3948147d9953","system_id":"levelo_inurba_marseille","lat":43.24075,"lon":5.37756,"is_reserved":false,"is_disabled":false,"rental_uris":{"android":"levelo://app?vid=2a43368a-2db6-4afc-9126-3948147d9953","ios":"levelo://app?vid=2a43368a-2db6-4afc-9126-3948147d9953"},"vehicle_type_id":"4","last_reported":1748560169,"current_range_meters":12800,"station_id":"ce4bhnp2rcd13ifvqgvg","pricing_plan_id":"cebpf4jnsgd1na2vs0mg"},{"bike_id":"62f69875-0e85-49ec-b3c9-96e9b12997d5","system_id":"levelo_inurba_marseille","lat":43.27839,"lon":5.392065,"is_reserved":false,"is_disabled":false,"rental_uris":{"android":"levelo://app?vid=62f69875-0e85-49ec-b3c9-96e9b12997d5","ios":"levelo://app?vid=62f69875-0e85-49ec-b3c9-96e9b12997d5"},"vehicle_type_id":"4","last_reported":1748560169,"current_range_meters":12800,"station_id":"ce4bhjp2rcd13ifvqga0","pricing_plan_id":"cebpf4jnsgd1na2vs0mg"},{"bike_id":"0d021fa5-f24c-4d64-a714-3c7445f5e8d8","system_id":"levelo_inurba_marseille","lat":43.28299,"lon":5.38107,"is_reserved":false,"is_disabled":false,"rental_uris":{"android":"levelo://app?vid=0d021fa5-f24c-4d64-a714-3c7445f5e8d8","ios":"levelo://app?vid=0d021fa5-f24c-4d64-a714-3c7445f5e8d8"},"vehicle_type_id":"4","last_reported":1748560169,"current_range_meters":12800,"station_id":"ce4bh412rcd13ifvqdr0","pricing_plan_id":"cebpf4jnsgd1na2vs0mg"},{"bike_id":"01e35211-7a7d-498f-9b85-349277cc4988","system_id":"levelo_inurba_marseille","lat":43.29257,"lon":5.40899,"is_reserved":false,"is_disabled":false,"rental_uris":{"android":"levelo://app?vid=01e35211-7a7d-498f-9b85-349277cc4988","ios":"levelo://app?vid=01e35211-7a7d-498f-9b85-349277cc4988"},"vehicle_type_id":"4","last_reported":1748560169,"current_range_meters":12800,"station_id":"ce4bh192rcd13ifvqdc0","pricing_plan_id":"cebpf4jnsgd1na2vs0mg"},{"bike_id":"72248e32-616d-4c01-8c01-acbec0f57485","system_id":"levelo_inurba_marseille","lat":43.31082,"lon":5.424234,"is_reserved":false,"is_disabled":false,"rental_uris":{"android":"levelo://app?vid=72248e32-616d-4c01-8c01-acbec0f57485","ios":"levelo://app?vid=72248e32-616d-4c01-8c01-acbec0f57485"},"vehicle_type_id":"4","last_reported":1748560169,"current_range_meters":13600,"station_id":"ce4bhp92rcd13ifvqhag","pricing_plan_id":"cebpf4jnsgd1na2vs0mg"},{"bike_id":"2f875dff-41ab-4d21-bbfd-1f936bd910bb","system_id":"levelo_inurba_marseille","lat":43.27175,"lon":5.40991,"is_reserved":false,"is_disabled":false,"rental_uris":{"android":"levelo://app?vid=2f875dff-41ab-4d21-bbfd-1f936bd910bb","ios":"levelo://app?vid=2f875dff-41ab-4d21-bbfd-1f936bd910bb"},"vehicle_type_id":"4","last_reported":1748560169,"current_range_meters":13600,"station_id":"ce4bhl12rcd13ifvqgf0","pricing_plan_id":"cebpf4jnsgd1na2vs0mg"},{"bike_id":"41d7891f-eb13-4d0d-95d6-205e27d65967","system_id":"levelo_inurba_marseille","lat":43.301612,"lon":5.380932,"is_reserved":false,"is_disabled":false,"rental_uris":{"android":"levelo://app?vid=41d7891f-eb13-4d0d-95d6-205e27d65967","ios":"levelo://app?vid=41d7891f-eb13-4d0d-95d6-205e27d65967"},"vehicle_type_id":"4","last_reported":1748560169,"current_range_meters":13600,"station_id":"ce4bgjp2rcd13ifvqbh0","pricing_plan_id":"cebpf4jnsgd1na2vs0mg"},{"bike_id":"1708b6a8-59ea-4537-a4e1-30efb45e6b06","system_id":"levelo_inurba_marseille","lat":43.27968,"lon":5.38752,"is_reserved":false,"is_disabled":false,"rental_uris":{"android":"levelo://app?vid=1708b6a8-59ea-4537-a4e1-30efb45e6b06","ios":"levelo://app?vid=1708b6a8-59ea-4537-a4e1-30efb45e6b06"},"vehicle_type_id":"4","last_reported":1748560169,"current_range_meters":13600,"station_id":"ce4bhg12rcd13ifvqf80","pricing_plan_id":"cebpf4jnsgd1na2vs0mg"},{"bike_id":"c81bbe6e-138d-4fd7-ab74-b00b6263d429","system_id":"levelo_inurba_marseille","lat":43.28259,"lon":5.39067,"is_reserved":false,"is_disabled":false,"rental_uris":{"android":"levelo://app?vid=c81bbe6e-138d-4fd7-ab74-b00b6263d429","ios":"levelo://app?vid=c81bbe6e-138d-4fd7-ab74-b00b6263d429"},"vehicle_type_id":"4","last_reported":1748560169,"current_range_meters":13600,"station_id":"","pricing_plan_id":"cebpf4jnsgd1na2vs0mg"},{"bike_id":"e2cc6eba-4225-4862-81c4-8070261b3c73","system_id":"levelo_inurba_marseille","lat":43.29018,"lon":5.3864,"is_reserved":false,"is_disabled":false,"rental_uris":{"android":"levelo://app?vid=e2cc6eba-4225-4862-81c4-8070261b3c73","ios":"levelo://app?vid=e2cc6eba-4225-4862-81c4-8070261b3c73"},"vehicle_type_id":"4","last_reported":1748560169,"current_range_meters":13600,"station_id":"ce4bh4p2rcd13ifvqe0g","pricing_plan_id":"cebpf4jnsgd1na2vs0mg"},{"bike_id":"eefca93d-462f-400d-aa3a-d421d655dc44","system_id":"levelo_inurba_marseille","lat":43.29301,"lon":5.37469,"is_reserved":false,"is_disabled":false,"rental_uris":{"android":"levelo://app?vid=eefca93d-462f-400d-aa3a-d421d655dc44","ios":"levelo://app?vid=eefca93d-462f-400d-aa3a-d421d655dc44"},"vehicle_type_id":"4","last_reported":1748560169,"current_range_meters":12800,"station_id":"ce4bgi12rcd13ifvqb70","pricing_plan_id":"cebpf4jnsgd1na2vs0mg"},{"bike_id":"3dd1b342-5d0a-4155-9da3-0dd9cd16e16e","system_id":"levelo_inurba_marseille","lat":43.229271,"lon":5.353718,"is_reserved":false,"is_disabled":true,"rental_uris":{"android":"levelo://app?vid=3dd1b342-5d0a-4155-9da3-0dd9cd16e16e","ios":"levelo://app?vid=3dd1b342-5d0a-4155-9da3-0dd9cd16e16e"},"vehicle_type_id":"4","last_reported":1748560169,"current_range_meters":14000,"station_id":"cpo3532slgdg3j2ikp40","pricing_plan_id":"cebpf4jnsgd1na2vs0mg"},{"bike_id":"94d74484-c00f-4773-98b4-43f5ef9035c3","system_id":"levelo_inurba_marseille","lat":43.262262,"lon":5.404559,"is_reserved":false,"is_disabled":false,"rental_uris":{"android":"levelo://app?vid=94d74484-c00f-4773-98b4-43f5ef9035c3","ios":"levelo://app?vid=94d74484-c00f-4773-98b4-43f5ef9035c3"},"vehicle_type_id":"4","last_reported":1748560169,"current_range_meters":14000,"station_id":"ce4bhmh2rcd13ifvqgmg","pricing_plan_id":"cebpf4jnsgd1na2vs0mg"},{"bike_id":"61a789b9-188c-419e-a495-9d8bb5585016","system_id":"levelo_inurba_marseille","lat":43.27989,"lon":5.41662,"is_reserved":false,"is_disabled":false,"rental_uris":{"android":"levelo://app?vid=61a789b9-188c-419e-a495-9d8bb5585016","ios":"levelo://app?vid=61a789b9-188c-419e-a495-9d8bb5585016"},"vehicle_type_id":"4","last_reported":1748560169,"current_range_meters":14000,"station_id":"ce4bho12rcd13ifvqh1g","pricing_plan_id":"cebpf4jnsgd1na2vs0mg"},{"bike_id":"ca38d19f-0303-470c-aeff-46d6ff8a7b20","system_id":"levelo_inurba_marseille","lat":43.30477,"lon":5.37893,"is_reserved":false,"is_disabled":false,"rental_uris":{"android":"levelo://app?vid=ca38d19f-0303-470c-aeff-46d6ff8a7b20","ios":"levelo://app?vid=ca38d19f-0303-470c-aeff-46d6ff8a7b20"},"vehicle_type_id":"4","last_reported":1748560169,"current_range_meters":13600,"station_id":"ce4bgup2rcd13ifvqcn0","pricing_plan_id":"cebpf4jnsgd1na2vs0mg"},{"bike_id":"e22389ce-d4fb-4700-9f41-b20a5b9cd3f2","system_id":"levelo_inurba_marseille","lat":43.28703,"lon":5.39987,"is_reserved":false,"is_disabled":false,"rental_uris":{"android":"levelo://app?vid=e22389ce-d4fb-4700-9f41-b20a5b9cd3f2","ios":"levelo://app?vid=e22389ce-d4fb-4700-9f41-b20a5b9cd3f2"},"vehicle_type_id":"4","last_reported":1748560169,"current_range_meters":14000,"station_id":"ce4bho92rcd13ifvqh3g","pricing_plan_id":"cebpf4jnsgd1na2vs0mg"},{"bike_id":"68febedf-5ab6-4554-b556-d72ae2ddbb59","system_id":"levelo_inurba_marseille","lat":43.30146,"lon":5.3741,"is_reserved":false,"is_disabled":false,"rental_uris":{"android":"levelo://app?vid=68febedf-5ab6-4554-b556-d72ae2ddbb59","ios":"levelo://app?vid=68febedf-5ab6-4554-b556-d72ae2ddbb59"},"vehicle_type_id":"4","last_reported":1748560169,"current_range_meters":14400,"station_id":"ce4bgs92rcd13ifvqcc0","pricing_plan_id":"cebpf4jnsgd1na2vs0mg"},{"bike_id":"7d4ba91c-7a7a-4535-9018-7a0082a8e326","system_id":"levelo_inurba_marseille","lat":43.27958,"lon":5.41019,"is_reserved":false,"is_disabled":false,"rental_uris":{"android":"levelo://app?vid=7d4ba91c-7a7a-4535-9018-7a0082a8e326","ios":"levelo://app?vid=7d4ba91c-7a7a-4535-9018-7a0082a8e326"},"vehicle_type_id":"4","last_reported":1748560169,"current_range_meters":14400,"station_id":"ce4bhnp2rcd13ifvqh0g","pricing_plan_id":"cebpf4jnsgd1na2vs0mg"},{"bike_id":"d56a258c-a2b4-476e-9bb5-e6170c1c69c3","system_id":"levelo_inurba_marseille","lat":43.306,"lon":5.37196,"is_reserved":false,"is_disabled":false,"rental_uris":{"android":"levelo://app?vid=d56a258c-a2b4-476e-9bb5-e6170c1c69c3","ios":"levelo://app?vid=d56a258c-a2b4-476e-9bb5-e6170c1c69c3"},"vehicle_type_id":"4","last_reported":1748560169,"current_range_meters":14400,"station_id":"ce4bgqh2rcd13ifvqc4g","pricing_plan_id":"cebpf4jnsgd1na2vs0mg"},{"bike_id":"ac25c698-c046-4a33-b5e7-f55f612c0047","system_id":"levelo_inurba_marseille","lat":43.28471,"lon":5.38418,"is_reserved":false,"is_disabled":false,"rental_uris":{"android":"levelo://app?vid=ac25c698-c046-4a33-b5e7-f55f612c0047","ios":"levelo://app?vid=ac25c698-c046-4a33-b5e7-f55f612c0047"},"vehicle_type_id":"4","last_reported":1748560169,"current_range_meters":14400,"station_id":"ce4bh512rcd13ifvqe3g","pricing_plan_id":"cebpf4jnsgd1na2vs0mg"},{"bike_id":"3f133001-de67-4a16-ba1a-1751190238ae","system_id":"levelo_inurba_marseille","lat":43.28417,"lon":5.37522,"is_reserved":false,"is_disabled":true,"rental_uris":{"android":"levelo://app?vid=3f133001-de67-4a16-ba1a-1751190238ae","ios":"levelo://app?vid=3f133001-de67-4a16-ba1a-1751190238ae"},"vehicle_type_id":"4","last_reported":1748560169,"current_range_meters":14400,"station_id":"ce4bh412rcd13ifvqds0","pricing_plan_id":"cebpf4jnsgd1na2vs0mg"},{"bike_id":"c485fb85-a9bc-40a8-981f-056555550724","system_id":"levelo_inurba_marseille","lat":43.28706,"lon":5.39966,"is_reserved":false,"is_disabled":false,"rental_uris":{"android":"levelo://app?vid=c485fb85-a9bc-40a8-981f-056555550724","ios":"levelo://app?vid=c485fb85-a9bc-40a8-981f-056555550724"},"vehicle_type_id":"4","last_reported":1748560169,"current_range_meters":14400,"station_id":"ce4bho92rcd13ifvqh3g","pricing_plan_id":"cebpf4jnsgd1na2vs0mg"},{"bike_id":"ff392818-f13b-4ef0-b2ad-6e7155767c9d","system_id":"levelo_inurba_marseille","lat":43.337295,"lon":5.39186,"is_reserved":false,"is_disabled":false,"rental_uris":{"android":"levelo://app?vid=ff392818-f13b-4ef0-b2ad-6e7155767c9d","ios":"levelo://app?vid=ff392818-f13b-4ef0-b2ad-6e7155767c9d"},"vehicle_type_id":"4","last_reported":1748560169,"current_range_meters":14400,"station_id":"ce4bhr92rcd13ifvqhsg","pricing_plan_id":"cebpf4jnsgd1na2vs0mg"},{"bike_id":"f28f5587-a7a5-44a2-9196-aa27226cab7f","system_id":"levelo_inurba_marseille","lat":43.28937,"lon":5.39636,"is_reserved":false,"is_disabled":false,"rental_uris":{"android":"levelo://app?vid=f28f5587-a7a5-44a2-9196-aa27226cab7f","ios":"levelo://app?vid=f28f5587-a7a5-44a2-9196-aa27226cab7f"},"vehicle_type_id":"4","last_reported":1748560169,"current_range_meters":14400,"station_id":"ce4bh3h2rcd13ifvqdn0","pricing_plan_id":"cebpf4jnsgd1na2vs0mg"},{"bike_id":"c9b16b3f-d77e-4adf-8c10-65c6e295aa7d","system_id":"levelo_inurba_marseille","lat":43.279667,"lon":5.387337,"is_reserved":false,"is_disabled":false,"rental_uris":{"android":"levelo://app?vid=c9b16b3f-d77e-4adf-8c10-65c6e295aa7d","ios":"levelo://app?vid=c9b16b3f-d77e-4adf-8c10-65c6e295aa7d"},"vehicle_type_id":"4","last_reported":1748560169,"current_range_meters":14800,"station_id":"ce4bhg12rcd13ifvqf80","pricing_plan_id":"cebpf4jnsgd1na2vs0mg"},{"bike_id":"7243d7c8-02f5-4392-89cf-8c360e846d55","system_id":"levelo_inurba_marseille","lat":43.252773,"lon":5.378274,"is_reserved":false,"is_disabled":false,"rental_uris":{"android":"levelo://app?vid=7243d7c8-02f5-4392-89cf-8c360e846d55","ios":"levelo://app?vid=7243d7c8-02f5-4392-89cf-8c360e846d55"},"vehicle_type_id":"4","last_reported":1748560169,"current_range_meters":14800,"station_id":"","pricing_plan_id":"cebpf4jnsgd1na2vs0mg"},{"bike_id":"fde2e6f4-fcbb-4f64-960a-fc965293cec1","system_id":"levelo_inurba_marseille","lat":43.31487,"lon":5.372943,"is_reserved":false,"is_disabled":false,"rental_uris":{"android":"levelo://app?vid=fde2e6f4-fcbb-4f64-960a-fc965293cec1","ios":"levelo://app?vid=fde2e6f4-fcbb-4f64-960a-fc965293cec1"},"vehicle_type_id":"4","last_reported":1748560169,"current_range_meters":14800,"station_id":"ce4bgt12rcd13ifvqcd0","pricing_plan_id":"cebpf4jnsgd1na2vs0mg"},{"bike_id":"d041ba9b-b157-420b-92de-857f860b4947","system_id":"levelo_inurba_marseille","lat":43.28207,"lon":5.39077,"is_reserved":false,"is_disabled":false,"rental_uris":{"android":"levelo://app?vid=d041ba9b-b157-420b-92de-857f860b4947","ios":"levelo://app?vid=d041ba9b-b157-420b-92de-857f860b4947"},"vehicle_type_id":"4","last_reported":1748560169,"current_range_meters":14800,"station_id":"","pricing_plan_id":"cebpf4jnsgd1na2vs0mg"},{"bike_id":"42d0da89-35ca-4910-a75f-cf7a643137ef","system_id":"levelo_inurba_marseille","lat":43.30645,"lon":5.40096,"is_reserved":false,"is_disabled":false,"rental_uris":{"android":"levelo://app?vid=42d0da89-35ca-4910-a75f-cf7a643137ef","ios":"levelo://app?vid=42d0da89-35ca-4910-a75f-cf7a643137ef"},"vehicle_type_id":"4","last_reported":1748560169,"current_range_meters":14800,"station_id":"ce4bh112rcd13ifvqda0","pricing_plan_id":"cebpf4jnsgd1na2vs0mg"},{"bike_id":"9afff74f-25c0-4cce-8476-3dd3e572dd8c","system_id":"levelo_inurba_marseille","lat":43.24064,"lon":5.37776,"is_reserved":false,"is_disabled":false,"rental_uris":{"android":"levelo://app?vid=9afff74f-25c0-4cce-8476-3dd3e572dd8c","ios":"levelo://app?vid=9afff74f-25c0-4cce-8476-3dd3e572dd8c"},"vehicle_type_id":"4","last_reported":1748560169,"current_range_meters":14800,"station_id":"ce4bhnp2rcd13ifvqgvg","pricing_plan_id":"cebpf4jnsgd1na2vs0mg"},{"bike_id":"694acfcc-04e1-4ddf-9f64-b0ddb8feaccc","system_id":"levelo_inurba_marseille","lat":43.281,"lon":5.37833,"is_reserved":false,"is_disabled":false,"rental_uris":{"android":"levelo://app?vid=694acfcc-04e1-4ddf-9f64-b0ddb8feaccc","ios":"levelo://app?vid=694acfcc-04e1-4ddf-9f64-b0ddb8feaccc"},"vehicle_type_id":"4","last_reported":1748560169,"current_range_meters":14800,"station_id":"ce4bha12rcd13ifvqee0","pricing_plan_id":"cebpf4jnsgd1na2vs0mg"},{"bike_id":"4ea10acd-fb9c-4cad-9861-574b727a6a52","system_id":"levelo_inurba_marseille","lat":43.30428,"lon":5.39746,"is_reserved":false,"is_disabled":false,"rental_uris":{"android":"levelo://app?vid=4ea10acd-fb9c-4cad-9861-574b727a6a52","ios":"levelo://app?vid=4ea10acd-fb9c-4cad-9861-574b727a6a52"},"vehicle_type_id":"4","last_reported":1748560169,"current_range_meters":14400,"station_id":"ce4bh092rcd13ifvqd20","pricing_plan_id":"cebpf4jnsgd1na2vs0mg"},{"bike_id":"a7293acb-156e-4ad4-a715-157a565b1c09","system_id":"levelo_inurba_marseille","lat":43.28858,"lon":5.35848,"is_reserved":false,"is_disabled":false,"rental_uris":{"android":"levelo://app?vid=a7293acb-156e-4ad4-a715-157a565b1c09","ios":"levelo://app?vid=a7293acb-156e-4ad4-a715-157a565b1c09"},"vehicle_type_id":"4","last_reported":1748560169,"current_range_meters":14400,"station_id":"ce4bhb12rcd13ifvqem0","pricing_plan_id":"cebpf4jnsgd1na2vs0mg"},{"bike_id":"09903d18-0a4a-47b8-b680-8a828784967e","system_id":"levelo_inurba_marseille","lat":43.29051,"lon":5.39964,"is_reserved":false,"is_disabled":false,"rental_uris":{"android":"levelo://app?vid=09903d18-0a4a-47b8-b680-8a828784967e","ios":"levelo://app?vid=09903d18-0a4a-47b8-b680-8a828784967e"},"vehicle_type_id":"4","last_reported":1748560169,"current_range_meters":14800,"station_id":"ce4bh392rcd13ifvqdm0","pricing_plan_id":"cebpf4jnsgd1na2vs0mg"},{"bike_id":"2a210de7-b044-4df0-8bc0-e91402de5f7a","system_id":"levelo_inurba_marseille","lat":43.2988,"lon":5.38903,"is_reserved":false,"is_disabled":false,"rental_uris":{"android":"levelo://app?vid=2a210de7-b044-4df0-8bc0-e91402de5f7a","ios":"levelo://app?vid=2a210de7-b044-4df0-8bc0-e91402de5f7a"},"vehicle_type_id":"4","last_reported":1748560169,"current_range_meters":14800,"station_id":"ce4bh392rcd13ifvqdl0","pricing_plan_id":"cebpf4jnsgd1na2vs0mg"},{"bike_id":"bdbee15d-3458-4da8-8553-de9903cf45df","system_id":"levelo_inurba_marseille","lat":43.28444,"lon":5.39192,"is_reserved":false,"is_disabled":false,"rental_uris":{"android":"levelo://app?vid=bdbee15d-3458-4da8-8553-de9903cf45df","ios":"levelo://app?vid=bdbee15d-3458-4da8-8553-de9903cf45df"},"vehicle_type_id":"4","last_reported":1748560169,"current_range_meters":14800,"station_id":"ce4bhoh2rcd13ifvqh5g","pricing_plan_id":"cebpf4jnsgd1na2vs0mg"},{"bike_id":"9258f519-c82c-4ad7-8052-a9d9f50de9e0","system_id":"levelo_inurba_marseille","lat":43.29522,"lon":5.39403,"is_reserved":false,"is_disabled":false,"rental_uris":{"android":"levelo://app?vid=9258f519-c82c-4ad7-8052-a9d9f50de9e0","ios":"levelo://app?vid=9258f519-c82c-4ad7-8052-a9d9f50de9e0"},"vehicle_type_id":"4","last_reported":1748560169,"current_range_meters":15200,"station_id":"ce4bh292rcd13ifvqdf0","pricing_plan_id":"cebpf4jnsgd1na2vs0mg"},{"bike_id":"6d9461e9-afcf-430b-8179-bb7d54f00db5","system_id":"levelo_inurba_marseille","lat":43.31491,"lon":5.37312,"is_reserved":false,"is_disabled":false,"rental_uris":{"android":"levelo://app?vid=6d9461e9-afcf-430b-8179-bb7d54f00db5","ios":"levelo://app?vid=6d9461e9-afcf-430b-8179-bb7d54f00db5"},"vehicle_type_id":"4","last_reported":1748560169,"current_range_meters":15200,"station_id":"ce4bgt12rcd13ifvqcd0","pricing_plan_id":"cebpf4jnsgd1na2vs0mg"},{"bike_id":"966ecf47-dd35-463a-9d74-c4c350533e80","system_id":"levelo_inurba_marseille","lat":43.2622,"lon":5.40452,"is_reserved":false,"is_disabled":false,"rental_uris":{"android":"levelo://app?vid=966ecf47-dd35-463a-9d74-c4c350533e80","ios":"levelo://app?vid=966ecf47-dd35-463a-9d74-c4c350533e80"},"vehicle_type_id":"4","last_reported":1748560169,"current_range_meters":15200,"station_id":"ce4bhmh2rcd13ifvqgmg","pricing_plan_id":"cebpf4jnsgd1na2vs0mg"},{"bike_id":"cd85ece0-e2f3-4caa-bbf2-457082671004","system_id":"levelo_inurba_marseille","lat":43.24033,"lon":5.3675,"is_reserved":false,"is_disabled":true,"rental_uris":{"android":"levelo://app?vid=cd85ece0-e2f3-4caa-bbf2-457082671004","ios":"levelo://app?vid=cd85ece0-e2f3-4caa-bbf2-457082671004"},"vehicle_type_id":"4","last_reported":1748560169,"current_range_meters":15200,"station_id":"","pricing_plan_id":"cebpf4jnsgd1na2vs0mg"},{"bike_id":"1f48eed5-d17f-4a81-83f0-526a40b04d05","system_id":"levelo_inurba_marseille","lat":43.26581,"lon":5.39008,"is_reserved":false,"is_disabled":false,"rental_uris":{"android":"levelo://app?vid=1f48eed5-d17f-4a81-83f0-526a40b04d05","ios":"levelo://app?vid=1f48eed5-d17f-4a81-83f0-526a40b04d05"},"vehicle_type_id":"4","last_reported":1748560169,"current_range_meters":15200,"station_id":"ce4bhe12rcd13ifvqf30","pricing_plan_id":"cebpf4jnsgd1na2vs0mg"},{"bike_id":"0bdee142-1fda-4a23-9616-8b7744765971","system_id":"levelo_inurba_marseille","lat":43.24688,"lon":5.38167,"is_reserved":false,"is_disabled":false,"rental_uris":{"android":"levelo://app?vid=0bdee142-1fda-4a23-9616-8b7744765971","ios":"levelo://app?vid=0bdee142-1fda-4a23-9616-8b7744765971"},"vehicle_type_id":"4","last_reported":1748560169,"current_range_meters":16000,"station_id":"ce4bhih2rcd13ifvqfr0","pricing_plan_id":"cebpf4jnsgd1na2vs0mg"},{"bike_id":"bb847ccc-3cb9-4689-8144-cf087d1af0be","system_id":"levelo_inurba_marseille","lat":43.31709,"lon":5.377463,"is_reserved":false,"is_disabled":false,"rental_uris":{"android":"levelo://app?vid=bb847ccc-3cb9-4689-8144-cf087d1af0be","ios":"levelo://app?vid=bb847ccc-3cb9-4689-8144-cf087d1af0be"},"vehicle_type_id":"4","last_reported":1748560169,"current_range_meters":16000,"station_id":"ce4bgth2rcd13ifvqch0","pricing_plan_id":"cebpf4jnsgd1na2vs0mg"},{"bike_id":"e9c75eff-63de-4ef0-a634-1da4ed1cbb2f","system_id":"levelo_inurba_marseille","lat":43.31081,"lon":5.42428,"is_reserved":false,"is_disabled":true,"rental_uris":{"android":"levelo://app?vid=e9c75eff-63de-4ef0-a634-1da4ed1cbb2f","ios":"levelo://app?vid=e9c75eff-63de-4ef0-a634-1da4ed1cbb2f"},"vehicle_type_id":"4","last_reported":1748560169,"current_range_meters":16000,"station_id":"ce4bhp92rcd13ifvqhag","pricing_plan_id":"cebpf4jnsgd1na2vs0mg"},{"bike_id":"8a17b903-cbef-4ca1-985e-91f7861d3ad0","system_id":"levelo_inurba_marseille","lat":43.24172,"lon":5.36398,"is_reserved":false,"is_disabled":true,"rental_uris":{"android":"levelo://app?vid=8a17b903-cbef-4ca1-985e-91f7861d3ad0","ios":"levelo://app?vid=8a17b903-cbef-4ca1-985e-91f7861d3ad0"},"vehicle_type_id":"4","last_reported":1748560169,"current_range_meters":16000,"station_id":"cpo36qri1sfpv3e86is0","pricing_plan_id":"cebpf4jnsgd1na2vs0mg"},{"bike_id":"2e493f57-82c8-4f6d-b7fc-8794e2799f9b","system_id":"levelo_inurba_marseille","lat":43.30142,"lon":5.38783,"is_reserved":false,"is_disabled":false,"rental_uris":{"android":"levelo://app?vid=2e493f57-82c8-4f6d-b7fc-8794e2799f9b","ios":"levelo://app?vid=2e493f57-82c8-4f6d-b7fc-8794e2799f9b"},"vehicle_type_id":"4","last_reported":1748560169,"current_range_meters":16000,"station_id":"ce4bghh2rcd13ifvqb60","pricing_plan_id":"cebpf4jnsgd1na2vs0mg"},{"bike_id":"eef3edab-c7bc-4626-8a57-2353989bd7cc","system_id":"levelo_inurba_marseille","lat":43.24061,"lon":5.37737,"is_reserved":false,"is_disabled":false,"rental_uris":{"android":"levelo://app?vid=eef3edab-c7bc-4626-8a57-2353989bd7cc","ios":"levelo://app?vid=eef3edab-c7bc-4626-8a57-2353989bd7cc"},"vehicle_type_id":"4","last_reported":1748560169,"current_range_meters":16000,"station_id":"ce4bhnp2rcd13ifvqgvg","pricing_plan_id":"cebpf4jnsgd1na2vs0mg"},{"bike_id":"3825dfba-fbd7-4255-ac75-9b82f0065af7","system_id":"levelo_inurba_marseille","lat":43.29015,"lon":5.38156,"is_reserved":false,"is_disabled":false,"rental_uris":{"android":"levelo://app?vid=3825dfba-fbd7-4255-ac75-9b82f0065af7","ios":"levelo://app?vid=3825dfba-fbd7-4255-ac75-9b82f0065af7"},"vehicle_type_id":"4","last_reported":1748560169,"current_range_meters":16000,"station_id":"ce4bh4p2rcd13ifvqe1g","pricing_plan_id":"cebpf4jnsgd1na2vs0mg"},