{"last_updated":1726254420,"ttl":30,"version":"2.2","data":{"bikes":[{"bike_id":"bc35aeaa-3e4d-43e6-9935-c8f1110a4b4c","system_id":"levelo_inurba_marseille","lat":43.30506,"lon":5.367,"is_reserved":false,"is_disabled":false,"rental_uris":{"android":"levelo://app?vid=bc35aeaa-3e4d-43e6-9935-c8f1110a4b4c","ios":"levelo://app?vid=bc35aeaa-3e4d-43e6-9935-c8f1110a4b4c"},"vehicle_type_id":"4","last_reported":1726254420,"current_range_meters":36400,"station_id":"ce4bgrp2rcd13ifvqc9g","pricing_plan_id":"cebpf4jnsgd1na2vs0mg"},{"bike_id":"bc7c698c-70a7-4d45-8de4-c94801319b35","system_id":"levelo_inurba_marseille","lat":43.32362,"lon":5.38889,"is_reserved":false,"is_disabled":false,"rental_uris":{"android":"levelo://app?vid=bc7c698c-70a7-4d45-8de4-c94801319b35","ios":"levelo://app?vid=bc7c698c-70a7-4d45-8de4-c94801319b35"},"vehicle_type_id":"4","last_reported":1726254420,"current_range_meters":7200,"station_id":"ce4bhqp2rcd13ifvqhog","pricing_plan_id":"cebpf4jnsgd1na2vs0mg"},{"bike_id":"1433cc86-19c5-4d38-a0b5-c5c087739e0a","system_id":"levelo_inurba_marseille","lat":43.22932,"lon":5.35374,"is_reserved":false,"is_disabled":false,"rental_uris":{"android":"levelo://app?vid=1433cc86-19c5-4d38-a0b5-c5c087739e0a","ios":"levelo://app?vid=1433cc86-19c5-4d38-a0b5-c5c087739e0a"},"vehicle_type_id":"4","last_reported":1726254420,"current_range_meters":28800,"station_id":"cpo3532slgdg3j2ikp40","pricing_plan_id":"cebpf4jnsgd1na2vs0mg"},{"bike_id":"67468702-002a-4df5-9012-9c567f0d2e31","system_id":"levelo_inurba_marseille","lat":43.3175,"lon":5.39023,"is_reserved":false,"is_disabled":false,"rental_uris":{"android":"levelo://app?vid=67468702-002a-4df5-9012-9c567f0d2e31","ios":"levelo://app?vid=67468702-002a-4df5-9012-9c567f0d2e31"},"vehicle_type_id":"4","last_reported":1726254420,"current_range_meters":36000,"station_id":"ce4bhqp2rcd13ifvqhng","pricing_plan_id":"cebpf4jnsgd1na2vs0mg"},{"bike_id":"083984dd-1abd-4a7d-84c6-e8ceb7b63abe","system_id":"levelo_inurba_marseille","lat":43.31088,"lon":5.37774,"is_reserved":false,"is_disabled":false,"rental_uris":{"android":"levelo://app?vid=083984dd-1abd-4a7d-84c6-e8ceb7b63abe","ios":"levelo://app?vid=083984dd-1abd-4a7d-84c6-e8ceb7b63abe"},"vehicle_type_id":"4","last_reported":1726254420,"current_range_meters":36800,"station_id":"ce4bgt92rcd13ifvqcg0","pricing_plan_id":"cebpf4jnsgd1na2vs0mg"},{"bike_id":"f2aab370-6e0a-414f-a9aa-b82870be9ba4","system_id":"levelo_inurba_marseille","lat":43.28619,"lon":5.35108,"is_reserved":false,"is_disabled":false,"rental_uris":{"android":"levelo://app?vid=f2aab370-6e0a-414f-a9aa-b82870be9ba4","ios":"levelo://app?vid=f2aab370-6e0a-414f-a9aa-b82870be9ba4"},"vehicle_type_id":"4","last_reported":1726254420,"current_range_meters":20400,"station_id":"ce4bhch2rcd13ifvqeug","pricing_plan_id":"cebpf4jnsgd1na2vs0mg"},{"bike_id":"665f7f03-0587-4cd8-b27d-1a24a411b9f1","system_id":"levelo_inurba_marseille","lat":43.2953,"lon":5.38542,"is_reserved":false,"is_disabled":false,"rental_uris":{"android":"levelo://app?vid=665f7f03-0587-4cd8-b27d-1a24a411b9f1","ios":"levelo://app?vid=665f7f03-0587-4cd8-b27d-1a24a411b9f1"},"vehicle_type_id":"4","last_reported":1726254420,"current_range_meters":20800,"station_id":"ce4bgih2rcd13ifvqba0","pricing_plan_id":"cebpf4jnsgd1na2vs0mg"},{"bike_id":"d362d51d-5366-4644-a1ab-ebb7c7522b7d","system_id":"levelo_inurba_marseille","lat":43.25826,"lon":5.39445,"is_reserved":false,"is_disabled":false,"rental_uris":{"android":"levelo://app?vid=d362d51d-5366-4644-a1ab-ebb7c7522b7d","ios":"levelo://app?vid=d362d51d-5366-4644-a1ab-ebb7c7522b7d"},"vehicle_type_id":"4","last_reported":1726254420,"current_range_meters":9600,"station_id":"ce4bhip2rcd13ifvqft0","pricing_plan_id":"cebpf4jnsgd1na2vs0mg"},{"bike_id":"c5ed8bab-12e3-4101-81bb-39350c57310d","system_id":"levelo_inurba_marseille","lat":43.24166,"lon":5.364,"is_reserved":false,"is_disabled":false,"rental_uris":{"android":"levelo://app?vid=c5ed8bab-12e3-4101-81bb-39350c57310d","ios":"levelo://app?vid=c5ed8bab-12e3-4101-81bb-39350c57310d"},"vehicle_type_id":"4","last_reported":1726254420,"current_range_meters":3200,"station_id":"cpo36qri1sfpv3e86is0","pricing_plan_id":"cebpf4jnsgd1na2vs0mg"},{"bike_id":"82312ba3-1909-43d2-8fa2-46ed386ca4fb","system_id":"levelo_inurba_marseille","lat":43.31688,"lon":5.4048,"is_reserved":false,"is_disabled":false,"rental_uris":{"android":"levelo://app?vid=82312ba3-1909-43d2-8fa2-46ed386ca4fb","ios":"levelo://app?vid=82312ba3-1909-43d2-8fa2-46ed386ca4fb"},"vehicle_type_id":"4","last_reported":1726254420,"current_range_meters":38800,"station_id":"ce4bh012rcd13ifvqd00","pricing_plan_id":"cebpf4jnsgd1na2vs0mg"},{"bike_id":"53b77e41-31f3-43a0-9c06-e59e6b05e59b","system_id":"levelo_inurba_marseille","lat":43.30801,"lon":5.3815,"is_reserved":false,"is_disabled":false,"rental_uris":{"android":"levelo://app?vid=53b77e41-31f3-43a0-9c06-e59e6b05e59b","ios":"levelo://app?vid=53b77e41-31f3-43a0-9c06-e59e6b05e59b"},"vehicle_type_id":"4","last_reported":1726254420,"current_range_meters":4400,"station_id":"ce4bgt12rcd13ifvqce0","pricing_plan_id":"cebpf4jnsgd1na2vs0mg"},{"bike_id":"3f0a18e3-435f-4f07-a0f8-978ed49f25d7","system_id":"levelo_inurba_marseille","lat":43.26949,"lon":5.38644,"is_reserved":false,"is_disabled":false,"rental_uris":{"android":"levelo://app?vid=3f0a18e3-435f-4f07-a0f8-978ed49f25d7","ios":"levelo://app?vid=3f0a18e3-435f-4f07-a0f8-978ed49f25d7"},"vehicle_type_id":"4","last_reported":1726254420,"current_range_meters":9200,"station_id":"ce4bhh92rcd13ifvqfh0","pricing_plan_id":"cebpf4jnsgd1na2vs0mg"},{"bike_id":"13ec4916-f0ea-4897-8afc-596425b42c42","system_id":"levelo_inurba_marseille","lat":43.23187,"lon":5.35565,"is_reserved":false,"is_disabled":false,"rental_uris":{"android":"levelo://app?vid=13ec4916-f0ea-4897-8afc-596425b42c42","ios":"levelo://app?vid=13ec4916-f0ea-4897-8afc-596425b42c42"},"vehicle_type_id":"4","last_reported":1726254420,"current_range_meters":30400,"station_id":"ce4bhu92rcd13ifvqi70","pricing_plan_id":"cebpf4jnsgd1na2vs0mg"},{"bike_id":"06c19026-5a12-406d-ae69-48c86326c003","system_id":"levelo_inurba_marseille","lat":43.2692,"lon":5.38922,"is_reserved":false,"is_disabled":false,"rental_uris":{"android":"levelo://app?vid=06c19026-5a12-406d-ae69-48c86326c003","ios":"levelo://app?vid=06c19026-5a12-406d-ae69-48c86326c003"},"vehicle_type_id":"4","last_reported":1726254420,"current_range_meters":27200,"station_id":"ce4bhhh2rcd13ifvqfl0","pricing_plan_id":"cebpf4jnsgd1na2vs0mg"},{"bike_id":"e75be87a-5fcf-4449-831e-e19849700f00","system_id":"levelo_inurba_marseille","lat":43.3025,"lon":5.4008,"is_reserved":false,"is_disabled":false,"rental_uris":{"android":"levelo://app?vid=e75be87a-5fcf-4449-831e-e19849700f00","ios":"levelo://app?vid=e75be87a-5fcf-4449-831e-e19849700f00"},"vehicle_type_id":"4","last_reported":1726254420,"current_range_meters":38800,"station_id":"ce4bgvh2rcd13ifvqcs0","pricing_plan_id":"cebpf4jnsgd1na2vs0mg"},{"bike_id":"3f1e932a-540c-4c5d-a4f8-ac49240977b8","system_id":"levelo_inurba_marseille","lat":43.24386,"lon":5.3706,"is_reserved":false,"is_disabled":false,"rental_uris":{"android":"levelo://app?vid=3f1e932a-540c-4c5d-a4f8-ac49240977b8","ios":"levelo://app?vid=3f1e932a-540c-4c5d-a4f8-ac49240977b8"},"vehicle_type_id":"4","last_reported":1726254420,"current_range_meters":16400,"station_id":"ce4bhhh2rcd13ifvqfk0","pricing_plan_id":"cebpf4jnsgd1na2vs0mg"},{"bike_id":"1b69e28d-b657-4802-b5dd-aa17fb5a768b","system_id":"levelo_inurba_marseille","lat":43.27133,"lon":5.42788,"is_reserved":false,"is_disabled":false,"rental_uris":{"android":"levelo://app?vid=1b69e28d-b657-4802-b5dd-aa17fb5a768b","ios":"levelo://app?vid=1b69e28d-b657-4802-b5dd-aa17fb5a768b"},"vehicle_type_id":"4","last_reported":1726254420,"current_range_meters":30000,"station_id":"","pricing_plan_id":"cebpf4jnsgd1na2vs0mg"},{"bike_id":"be5bbb62-94c5-4f2d-8a95-1f11a00eab5e","system_id":"levelo_inurba_marseille","lat":43.32345,"lon":5.40618,"is_reserved":false,"is_disabled":false,"rental_uris":{"android":"levelo://app?vid=be5bbb62-94c5-4f2d-8a95-1f11a00eab5e","ios":"levelo://app?vid=be5bbb62-94c5-4f2d-8a95-1f11a00eab5e"},"vehicle_type_id":"4","last_reported":1726254420,"current_range_meters":38800,"station_id":"ce4bhq92rcd13ifvqhjg","pricing_plan_id":"cebpf4jnsgd1na2vs0mg"},{"bike_id":"cedf15cb-b781-4542-8c70-b087dc011ede","system_id":"levelo_inurba_marseille","lat":43.2985,"lon":5.36289,"is_reserved":false,"is_disabled":false,"rental_uris":{"android":"levelo://app?vid=cedf15cb-b781-4542-8c70-b087dc011ede","ios":"levelo://app?vid=cedf15cb-b781-4542-8c70-b087dc011ede"},"vehicle_type_id":"4","last_reported":1726254420,"current_range_meters":38800,"station_id":"ce4bgpp2rcd13ifvqc3g","pricing_plan_id":"cebpf4jnsgd1na2vs0mg"},{"bike_id":"995d3a7e-289e-4ebd-b785-9d2da426ad57","system_id":"levelo_inurba_marseille","lat":43.23195,"lon":5.35546,"is_reserved":false,"is_disabled":false,"rental_uris":{"android":"levelo://app?vid=995d3a7e-289e-4ebd-b785-9d2da426ad57","ios":"levelo://app?vid=995d3a7e-289e-4ebd-b785-9d2da426ad57"},"vehicle_type_id":"4","last_reported":1726254420,"current_range_meters":24800,"station_id":"ce4bhu92rcd13ifvqi70","pricing_plan_id":"cebpf4jnsgd1na2vs0mg"},{"bike_id":"74c67d55-8a5f-40c9-8066-d68354718f8c","system_id":"levelo_inurba_marseille","lat":43.23186,"lon":5.35568,"is_reserved":false,"is_disabled":false,"rental_uris":{"android":"levelo://app?vid=74c67d55-8a5f-40c9-8066-d68354718f8c","ios":"levelo://app?vid=74c67d55-8a5f-40c9-8066-d68354718f8c"},"vehicle_type_id":"4","last_reported":1726254420,"current_range_meters":28400,"station_id":"ce4bhu92rcd13ifvqi70","pricing_plan_id":"cebpf4jnsgd1na2vs0mg"},{"bike_id":"b01a9a79-7eef-401a-ac89-cf8236d16bac","system_id":"levelo_inurba_marseille","lat":43.29517,"lon":5.39416,"is_reserved":false,"is_disabled":false,"rental_uris":{"android":"levelo://app?vid=b01a9a79-7eef-401a-ac89-cf8236d16bac","ios":"levelo://app?vid=b01a9a79-7eef-401a-ac89-cf8236d16bac"},"vehicle_type_id":"4","last_reported":1726254420,"current_range_meters":6800,"station_id":"ce4bh292rcd13ifvqdf0","pricing_plan_id":"cebpf4jnsgd1na2vs0mg"},{"bike_id":"59e3dff8-ce95-4a6d-ac6d-15cf2c0dfbbe","system_id":"levelo_inurba_marseille","lat":43.25866,"lon":5.39901,"is_reserved":false,"is_disabled":false,"rental_uris":{"android":"levelo://app?vid=59e3dff8-ce95-4a6d-ac6d-15cf2c0dfbbe","ios":"levelo://app?vid=59e3dff8-ce95-4a6d-ac6d-15cf2c0dfbbe"},"vehicle_type_id":"4","last_reported":1726254420,"current_range_meters":17600,"station_id":"ce4bhl92rcd13ifvqghg","pricing_plan_id":"cebpf4jnsgd1na2vs0mg"},{"bike_id":"e2be0aea-67dc-4dc6-b46f-e2412631f2dd","system_id":"levelo_inurba_marseille","lat":43.24998,"lon":5.38934,"is_reserved":false,"is_disabled":false,"rental_uris":{"android":"levelo://app?vid=e2be0aea-67dc-4dc6-b46f-e2412631f2dd","ios":"levelo://app?vid=e2be0aea-67dc-4dc6-b46f-e2412631f2dd"},"vehicle_type_id":"4","last_reported":1726254420,"current_range_meters":7200,"station_id":"ce4bhgp2rcd13ifvqfd0","pricing_plan_id":"cebpf4jnsgd1na2vs0mg"},{"bike_id":"dbcf613e-233e-4496-a7e9-4c361cbe1f45","system_id":"levelo_inurba_marseille","lat":43.29418,"lon":5.38623,"is_reserved":false,"is_disabled":false,"rental_uris":{"android":"levelo://app?vid=dbcf613e-233e-4496-a7e9-4c361cbe1f45","ios":"levelo://app?vid=dbcf613e-233e-4496-a7e9-4c361cbe1f45"},"vehicle_type_id":"4","last_reported":1726254420,"current_range_meters":39200,"station_id":"ce4bh2h2rcd13ifvqdh0","pricing_plan_id":"cebpf4jnsgd1na2vs0mg"},{"bike_id":"1360f47f-b552-403e-a3e2-3ca285299d6a","system_id":"levelo_inurba_marseille","lat":43.28617,"lon":5.35113,"is_reserved":false,"is_disabled":false,"rental_uris":{"android":"levelo://app?vid=1360f47f-b552-403e-a3e2-3ca285299d6a","ios":"levelo://app?vid=1360f47f-b552-403e-a3e2-3ca285299d6a"},"vehicle_type_id":"4","last_reported":1726254420,"current_range_meters":38800,"station_id":"ce4bhch2rcd13ifvqeug","pricing_plan_id":"cebpf4jnsgd1na2vs0mg"},{"bike_id":"ef46da83-d3aa-4e13-85c7-c02b53447a74","system_id":"levelo_inurba_marseille","lat":43.26059,"lon":5.39399,"is_reserved":false,"is_disabled":false,"rental_uris":{"android":"levelo://app?vid=ef46da83-d3aa-4e13-85c7-c02b53447a74","ios":"levelo://app?vid=ef46da83-d3aa-4e13-85c7-c02b53447a74"},"vehicle_type_id":"4","last_reported":1726254420,"current_range_meters":19600,"station_id":"ce4bhh92rcd13ifvqfj0","pricing_plan_id":"cebpf4jnsgd1na2vs0mg"},{"bike_id":"6267baa5-f35c-4311-91c4-71f926f47f2c","system_id":"levelo_inurba_marseille","lat":43.29742,"lon":5.37923,"is_reserved":false,"is_disabled":false,"rental_uris":{"android":"levelo://app?vid=6267baa5-f35c-4311-91c4-71f926f47f2c","ios":"levelo://app?vid=6267baa5-f35c-4311-91c4-71f926f47f2c"},"vehicle_type_id":"4","last_reported":1726254420,"current_range_meters":6800,"station_id":"","pricing_plan_id":"cebpf4jnsgd1na2vs0mg"},{"bike_id":"561879c5-d2ab-4f1c-afb3-b8ddbca5daf2","system_id":"levelo_inurba_marseille","lat":43.28264,"lon":5.35075,"is_reserved":false,"is_disabled":false,"rental_uris":{"android":"levelo://app?vid=561879c5-d2ab-4f1c-afb3-b8ddbca5daf2","ios":"levelo://app?vid=561879c5-d2ab-4f1c-afb3-b8ddbca5daf2"},"vehicle_type_id":"4","last_reported":1726254420,"current_range_meters":38800,"station_id":"ce4bhbp2rcd13ifvqerg","pricing_plan_id":"cebpf4jnsgd1na2vs0mg"},{"bike_id":"12d4de3d-502c-4fde-8be5-dd797371fbf3","system_id":"levelo_inurba_marseille","lat":43.30248,"lon":5.4009,"is_reserved":false,"is_disabled":false,"rental_uris":{"android":"levelo://app?vid=12d4de3d-502c-4fde-8be5-dd797371fbf3","ios":"levelo://app?vid=12d4de3d-502c-4fde-8be5-dd797371fbf3"},"vehicle_type_id":"4","last_reported":1726254420,"current_range_meters":38800,"station_id":"ce4bgvh2rcd13ifvqcs0","pricing_plan_id":"cebpf4jnsgd1na2vs0mg"},{"bike_id":"e255c5a8-292c-449b-b0ba-004e8628d2c8","system_id":"levelo_inurba_marseille","lat":43.301135,"lon":5.37011,"is_reserved":false,"is_disabled":false,"rental_uris":{"android":"levelo://app?vid=e255c5a8-292c-449b-b0ba-004e8628d2c8","ios":"levelo://app?vid=e255c5a8-292c-449b-b0ba-004e8628d2c8"},"vehicle_type_id":"4","last_reported":1726254420,"current_range_meters":6800,"station_id":"ce4bgrh2rcd13ifvqc8g","pricing_plan_id":"cebpf4jnsgd1na2vs0mg"},{"bike_id":"bc688d18-0fd2-425e-bcbf-ad90f722033b","system_id":"levelo_inurba_marseille","lat":43.24648,"lon":5.38891,"is_reserved":false,"is_disabled":false,"rental_uris":{"android":"levelo://app?vid=bc688d18-0fd2-425e-bcbf-ad90f722033b","ios":"levelo://app?vid=bc688d18-0fd2-425e-bcbf-ad90f722033b"},"vehicle_type_id":"4","last_reported":1726254420,"current_range_meters":36000,"station_id":"ce4bhg12rcd13ifvqf60","pricing_plan_id":"cebpf4jnsgd1na2vs0mg"},{"bike_id":"e6bea8cd-bd1a-48c2-8a52-de5e2a98c0f4","system_id":"levelo_inurba_marseille","lat":43.2594,"lon":5.40903,"is_reserved":false,"is_disabled":false,"rental_uris":{"android":"levelo://app?vid=e6bea8cd-bd1a-48c2-8a52-de5e2a98c0f4","ios":"levelo://app?vid=e6bea8cd-bd1a-48c2-8a52-de5e2a98c0f4"},"vehicle_type_id":"4","last_reported":1726254420,"current_range_meters":36800,"station_id":"ce4bhm92rcd13ifvqglg","pricing_plan_id":"cebpf4jnsgd1na2vs0mg"},{"bike_id":"68bffa0a-5b91-4439-8697-195e1b9cefbe","system_id":"levelo_inurba_marseille","lat":43.29033,"lon":5.38646,"is_reserved":false,"is_disabled":false,"rental_uris":{"android":"levelo://app?vid=68bffa0a-5b91-4439-8697-195e1b9cefbe","ios":"levelo://app?vid=68bffa0a-5b91-4439-8697-195e1b9cefbe"},"vehicle_type_id":"4","last_reported":1726254420,"current_range_meters":32800,"station_id":"ce4bh4p2rcd13ifvqe0g","pricing_plan_id":"cebpf4jnsgd1na2vs0mg"},{"bike_id":"44f09c39-e560-4787-855a-6c24192c7f7b","system_id":"levelo_inurba_marseille","lat":43.33024,"lon":5.39038,"is_reserved":false,"is_disabled":false,"rental_uris":{"android":"levelo://app?vid=44f09c39-e560-4787-855a-6c24192c7f7b","ios":"levelo://app?vid=44f09c39-e560-4787-855a-6c24192c7f7b"},"vehicle_type_id":"4","last_reported":1726254420,"current_range_meters":24800,"station_id":"ce4bhr92rcd13ifvqhrg","pricing_plan_id":"cebpf4jnsgd1na2vs0mg"},{"bike_id":"af535742-2c29-4a75-aba4-bfe02b811be0","system_id":"levelo_inurba_marseille","lat":43.25574,"lon":5.38244,"is_reserved":false,"is_disabled":false,"rental_uris":{"android":"levelo://app?vid=af535742-2c29-4a75-aba4-bfe02b811be0","ios":"levelo://app?vid=af535742-2c29-4a75-aba4-bfe02b811be0"},"vehicle_type_id":"4","last_reported":1726254420,"current_range_meters":8000,"station_id":"ce4bhih2rcd13ifvqfs0","pricing_plan_id":"cebpf4jnsgd1na2vs0mg"},{"bike_id":"2a089944-b1a6-45af-99d1-9b70add064d3","system_id":"levelo_inurba_marseille","lat":43.24812,"lon":5.37461,"is_reserved":false,"is_disabled":false,"rental_uris":{"android":"levelo://app?vid=2a089944-b1a6-45af-99d1-9b70add064d3","ios":"levelo://app?vid=2a089944-b1a6-45af-99d1-9b70add064d3"},"vehicle_type_id":"4","last_reported":1726254420,"current_range_meters":15200,"station_id":"ce4bhgh2rcd13ifvqfb0","pricing_plan_id":"cebpf4jnsgd1na2vs0mg"},{"bike_id":"34721204-9cc8-4128-8304-5b698c26b1e6","system_id":"levelo_inurba_marseille","lat":43.23187,"lon":5.39985,"is_reserved":false,"is_disabled":false,"rental_uris":{"android":"levelo://app?vid=34721204-9cc8-4128-8304-5b698c26b1e6","ios":"levelo://app?vid=34721204-9cc8-4128-8304-5b698c26b1e6"},"vehicle_type_id":"4","last_reported":1726254420,"current_range_meters":38800,"station_id":"ce4bhn12rcd13ifvqgqg","pricing_plan_id":"cebpf4jnsgd1na2vs0mg"},{"bike_id":"0124e22a-940d-4592-a669-5febf603375d","system_id":"levelo_inurba_marseille","lat":43.28071,"lon":5.39658,"is_reserved":false,"is_disabled":false,"rental_uris":{"android":"levelo://app?vid=0124e22a-940d-4592-a669-5febf603375d","ios":"levelo://app?vid=0124e22a-940d-4592-a669-5febf603375d"},"vehicle_type_id":"4","last_reported":1726254420,"current_range_meters":14000,"station_id":"ce4bho12rcd13ifvqh2g","pricing_plan_id":"cebpf4jnsgd1na2vs0mg"},{"bike_id":"39b86749-80ef-4310-953b-c60370086942","system_id":"levelo_inurba_marseille","lat":43.24545,"lon":5.39525,"is_reserved":false,"is_disabled":false,"rental_uris":{"android":"levelo://app?vid=39b86749-80ef-4310-953b-c60370086942","ios":"levelo://app?vid=39b86749-80ef-4310-953b-c60370086942"},"vehicle_type_id":"4","last_reported":1726254420,"current_range_meters":29600,"station_id":"ce4bhlp2rcd13ifvqgjg","pricing_plan_id":"cebpf4jnsgd1na2vs0mg"},{"bike_id":"6a8f2f10-9a94-4930-acf4-9d3abaa17531","system_id":"levelo_inurba_marseille","lat":43.255,"lon":5.37651,"is_reserved":false,"is_disabled":false,"rental_uris":{"android":"levelo://app?vid=6a8f2f10-9a94-4930-acf4-9d3abaa17531","ios":"levelo://app?vid=6a8f2f10-9a94-4930-acf4-9d3abaa17531"},"vehicle_type_id":"4","last_reported":1726254420,"current_range_meters":36000,"station_id":"ce4bhh12rcd13ifvqff0","pricing_plan_id":"cebpf4jnsgd1na2vs0mg"},{"bike_id":"033ca1b7-79f9-429f-9662-177c725977ea","system_id":"levelo_inurba_marseille","lat":43.28034,"lon":5.36952,"is_reserved":false,"is_disabled":false,"rental_uris":{"android":"levelo://app?vid=033ca1b7-79f9-429f-9662-177c725977ea","ios":"levelo://app?vid=033ca1b7-79f9-429f-9662-177c725977ea"},"vehicle_type_id":"4","last_reported":1726254420,"current_range_meters":38800,"station_id":"ce4bha12rcd13ifvqef0","pricing_plan_id":"cebpf4jnsgd1na2vs0mg"},{"bike_id":"4cad2379-f22f-4bf0-a45e-a36b3b61dd30","system_id":"levelo_inurba_marseille","lat":43.25568,"lon":5.38244,"is_reserved":false,"is_disabled":false,"rental_uris":{"android":"levelo://app?vid=4cad2379-f22f-4bf0-a45e-a36b3b61dd30","ios":"levelo://app?vid=4cad2379-f22f-4bf0-a45e-a36b3b61dd30"},"vehicle_type_id":"4","last_reported":1726254420,"current_range_meters":38400,"station_id":"ce4bhih2rcd13ifvqfs0","pricing_plan_id":"cebpf4jnsgd1na2vs0mg"},{"bike_id":"64f7a6e5-1572-4a6d-a1e3-68f6f534c5a2","system_id":"levelo_inurba_marseille","lat":43.2861,"lon":5.35107,"is_reserved":false,"is_disabled":false,"rental_uris":{"android":"levelo://app?vid=64f7a6e5-1572-4a6d-a1e3-68f6f534c5a2","ios":"levelo://app?vid=64f7a6e5-1572-4a6d-a1e3-68f6f534c5a2"},"vehicle_type_id":"4","last_reported":1726254420,"current_range_meters":28800,"station_id":"ce4bhch2rcd13ifvqeug","pricing_plan_id":"cebpf4jnsgd1na2vs0mg"},{"bike_id":"98746d6e-b53d-4b2b-adb8-2ae70687c999","system_id":"levelo_inurba_marseille","lat":43.32318,"lon":5.40642,"is_reserved":false,"is_disabled":false,"rental_uris":{"android":"levelo://app?vid=98746d6e-b53d-4b2b-adb8-2ae70687c999","ios":"levelo://app?vid=98746d6e-b53d-4b2b-adb8-2ae70687c999"},"vehicle_type_id":"4","last_reported":1726254420,"current_range_meters":38800,"station_id":"ce4bhq92rcd13ifvqhjg","pricing_plan_id":"cebpf4jnsgd1na2vs0mg"},{"bike_id":"acb4473c-f793-440a-9c76-0eca7b03c7c3","system_id":"levelo_inurba_marseille","lat":43.27658,"lon":5.38138,"is_reserved":false,"is_disabled":false,"rental_uris":{"android":"levelo://app?vid=acb4473c-f793-440a-9c76-0eca7b03c7c3","ios":"levelo://app?vid=acb4473c-f793-440a-9c76-0eca7b03c7c3"},"vehicle_type_id":"4","last_reported":1726254420,"current_range_meters":4800,"station_id":"","pricing_plan_id":"cebpf4jnsgd1na2vs0mg"},{"bike_id":"e6c9a1d3-3ef0-440b-a649-557dc05e1ae2","system_id":"levelo_inurba_marseille","lat":43.26194,"lon":5.3745,"is_reserved":false,"is_disabled":false,"rental_uris":{"android":"levelo://app?vid=e6c9a1d3-3ef0-440b-a649-557dc05e1ae2","ios":"levelo://app?vid=e6c9a1d3-3ef0-440b-a649-557dc05e1ae2"},"vehicle_type_id":"4","last_reported":1726254420,"current_range_meters":38800,"station_id":"ce4bhgp2rcd13ifvqfc0","pricing_plan_id":"cebpf4jnsgd1na2vs0mg"},{"bike_id":"2599aa4a-256f-42cc-a153-354014413cfd","system_id":"levelo_inurba_marseille","lat":43.28858,"lon":5.35852,"is_reserved":false,"is_disabled":false,"rental_uris":{"android":"levelo://app?vid=2599aa4a-256f-42cc-a153-354014413cfd","ios":"levelo://app?vid=2599aa4a-256f-42cc-a153-354014413cfd"},"vehicle_type_id":"4","last_reported":1726254420,"current_range_meters":24400,"station_id":"ce4bhb12rcd13ifvqem0","pricing_plan_id":"cebpf4jnsgd1na2vs0mg"},{"bike_id":"0d9e139c-b91b-4d9a-a323-fba67f47547f","system_id":"levelo_inurba_marseille","lat":43.28986,"lon":5.35619,"is_reserved":false,"is_disabled":false,"rental_uris":{"android":"levelo://app?vid=0d9e139c-b91b-4d9a-a323-fba67f47547f","ios":"levelo://app?vid=0d9e139c-b91b-4d9a-a323-fba67f47547f"},"vehicle_type_id":"4","last_reported":1726254420,"current_range_meters":38800,"station_id":"ce4bhb92rcd13ifvqen0","pricing_plan_id":"cebpf4jnsgd1na2vs0mg"},{"bike_id":"a6bfec5b-63ba-4b51-9cf2-e805d0ee3f0c","system_id":"levelo_inurba_marseille","lat":43.30118,"lon":5.39897,"is_reserved":false,"is_disabled":false,"rental_uris":{"android":"levelo://app?vid=a6bfec5b-63ba-4b51-9cf2-e805d0ee3f0c","ios":"levelo://app?vid=a6bfec5b-63ba-4b51-9cf2-e805d0ee3f0c"},"vehicle_type_id":"4","last_reported":1726254420,"current_range_meters":25200,"station_id":"ce4bh0h2rcd13ifvqd40","pricing_plan_id":"cebpf4jnsgd1na2vs0mg"},{"bike_id":"abc8f302-c99c-47f2-a28a-2147bc4d48e3","system_id":"levelo_inurba_marseille","lat":43.29867,"lon":5.38903,"is_reserved":false,"is_disabled":false,"rental_uris":{"android":"levelo://app?vid=abc8f302-c99c-47f2-a28a-2147bc4d48e3","ios":"levelo://app?vid=abc8f302-c99c-47f2-a28a-2147bc4d48e3"},"vehicle_type_id":"4","last_reported":1726254420,"current_range_meters":36000,"station_id":"ce4bh392rcd13ifvqdl0","pricing_plan_id":"cebpf4jnsgd1na2vs0mg"},{"bike_id":"937d054c-deed-4688-8e43-cdfc6c498a38","system_id":"levelo_inurba_marseille","lat":43.31325,"lon":5.39694,"is_reserved":false,"is_disabled":false,"rental_uris":{"android":"levelo://app?vid=937d054c-deed-4688-8e43-cdfc6c498a38","ios":"levelo://app?vid=937d054c-deed-4688-8e43-cdfc6c498a38"},"vehicle_type_id":"4","last_reported":1726254420,"current_range_meters":33200,"station_id":"ce4bgvp2rcd13ifvqcu0","pricing_plan_id":"cebpf4jnsgd1na2vs0mg"},{"bike_id":"2d037c48-a24a-472e-a82e-47d991fadecd","system_id":"levelo_inurba_marseille","lat":43.25726,"lon":5.41106,"is_reserved":false,"is_disabled":false,"rental_uris":{"android":"levelo://app?vid=2d037c48-a24a-472e-a82e-47d991fadecd","ios":"levelo://app?vid=2d037c48-a24a-472e-a82e-47d991fadecd"},"vehicle_type_id":"4","last_reported":1726254420,"current_range_meters":23200,"station_id":"ce4bhkp2rcd13ifvqgd0","pricing_plan_id":"cebpf4jnsgd1na2vs0mg"},{"bike_id":"16015b88-d7e7-4d26-8fae-947eb8ed0741","system_id":"levelo_inurba_marseille","lat":43.26953,"lon":5.38635,"is_reserved":false,"is_disabled":false,"rental_uris":{"android":"levelo://app?vid=16015b88-d7e7-4d26-8fae-947eb8ed0741","ios":"levelo://app?vid=16015b88-d7e7-4d26-8fae-947eb8ed0741"},"vehicle_type_id":"4","last_reported":1726254420,"current_range_meters":38800,"station_id":"ce4bhh92rcd13ifvqfh0","pricing_plan_id":"cebpf4jnsgd1na2vs0mg"},{"bike_id":"eaf3218e-3b2a-4dde-9c15-99a6c4254e56","system_id":"levelo_inurba_marseille","lat":43.29893,"lon":5.43665,"is_reserved":false,"is_disabled":false,"rental_uris":{"android":"levelo://app?vid=eaf3218e-3b2a-4dde-9c15-99a6c4254e56","ios":"levelo://app?vid=eaf3218e-3b2a-4dde-9c15-99a6c4254e56"},"vehicle_type_id":"4","last_reported":1726254420,"current_range_meters":38400,"station_id":"ce4bhpp2rcd13ifvqhfg","pricing_plan_id":"cebpf4jnsgd1na2vs0mg"},{"bike_id":"578fe535-1ca5-46e4-9e6c-f0e8aa8560bc","system_id":"levelo_inurba_marseille","lat":43.32367,"lon":5.38885,"is_reserved":false,"is_disabled":false,"rental_uris":{"android":"levelo://app?vid=578fe535-1ca5-46e4-9e6c-f0e8aa8560bc","ios":"levelo://app?vid=578fe535-1ca5-46e4-9e6c-f0e8aa8560bc"},"vehicle_type_id":"4","last_reported":1726254420,"current_range_meters":16000,"station_id":"ce4bhqp2rcd13ifvqhog","pricing_plan_id":"cebpf4jnsgd1na2vs0mg"},{"bike_id":"16ca6d91-7513-415c-9a61-5d33eb8ad677","system_id":"levelo_inurba_marseille","lat":43.22935,"lon":5.35387,"is_reserved":false,"is_disabled":false,"rental_uris":{"android":"levelo://app?vid=16ca6d91-7513-415c-9a61-5d33eb8ad677","ios":"levelo://app?vid=16ca6d91-7513-415c-9a61-5d33eb8ad677"},"vehicle_type_id":"4","last_reported":1726254420,"current_range_meters":25600,"station_id":"cpo3532slgdg3j2ikp40","pricing_plan_id":"cebpf4jnsgd1na2vs0mg"},{"bike_id":"4b0ffb76-72ae-4f18-90a7-1873c3004871","system_id":"levelo_inurba_marseille","lat":43.30277,"lon":5.37707,"is_reserved":false,"is_disabled":false,"rental_uris":{"android":"levelo://app?vid=4b0ffb76-72ae-4f18-90a7-1873c3004871","ios":"levelo://app?vid=4b0ffb76-72ae-4f18-90a7-1873c3004871"},"vehicle_type_id":"4","last_reported":1726254420,"current_range_meters":38800,"station_id":"ce4bguh2rcd13ifvqcj0","pricing_plan_id":"cebpf4jnsgd1na2vs0mg"},{"bike_id":"f945e995-a7d4-443b-88ae-1b55d2143f5e","system_id":"levelo_inurba_marseille","lat":43.280353,"lon":5.369486,"is_reserved":false,"is_disabled":false,"rental_uris":{"android":"levelo://app?vid=f945e995-a7d4-443b-88ae-1b55d2143f5e","ios":"levelo://app?vid=f945e995-a7d4-443b-88ae-1b55d2143f5e"},"vehicle_type_id":"4","last_reported":1726254420,"current_range_meters":8400,"station_id":"ce4bha12rcd13ifvqef0","pricing_plan_id":"cebpf4jnsgd1na2vs0mg"},{"bike_id":"92101611-57ac-40bd-81f9-9e6acd5327c3","system_id":"levelo_inurba_marseille","lat":43.24654,"lon":5.38894,"is_reserved":false,"is_disabled":false,"rental_uris":{"android":"levelo://app?vid=92101611-57ac-40bd-81f9-9e6acd5327c3","ios":"levelo://app?vid=92101611-57ac-40bd-81f9-9e6acd5327c3"},"vehicle_type_id":"4","last_reported":1726254420,"current_range_meters":38000,"station_id":"ce4bhg12rcd13ifvqf60","pricing_plan_id":"cebpf4jnsgd1na2vs0mg"},{"bike_id":"c5465ea1-4e69-4539-880b-a7ffba1e41db","system_id":"levelo_inurba_marseille","lat":43.25726,"lon":5.41111,"is_reserved":false,"is_disabled":false,"rental_uris":{"android":"levelo://app?vid=c5465ea1-4e69-4539-880b-a7ffba1e41db","ios":"levelo://app?vid=c5465ea1-4e69-4539-880b-a7ffba1e41db"},"vehicle_type_id":"4","last_reported":1726254420,"current_range_meters":38400,"station_id":"ce4bhkp2rcd13ifvqgd0","pricing_plan_id":"cebpf4jnsgd1na2vs0mg"},{"bike_id":"f4c36463-ddf2-4e8a-90a8-c12391e72ce0","system_id":"levelo_inurba_marseille","lat":43.28261,"lon":5.35078,"is_reserved":false,"is_disabled":false,"rental_uris":{"android":"levelo://app?vid=f4c36463-ddf2-4e8a-90a8-c12391e72ce0","ios":"levelo://app?vid=f4c36463-ddf2-4e8a-90a8-c12391e72ce0"},"vehicle_type_id":"4","last_reported":1726254420,"current_range_meters":15200,"station_id":"ce4bhbp2rcd13ifvqerg","pricing_plan_id":"cebpf4jnsgd1na2vs0mg"},{"bike_id":"ce45b02b-b167-4654-b305-eb82cd566863","system_id":"levelo_inurba_marseille","lat":43.23193,"lon":5.35559,"is_reserved":false,"is_disabled":false,"rental_uris":{"android":"levelo://app?vid=ce45b02b-b167-4654-b305-eb82cd566863","ios":"levelo://app?vid=ce45b02b-b167-4654-b305-eb82cd566863"},"vehicle_type_id":"4","last_reported":1726254420,"current_range_meters":28400,"station_id":"ce4bhu92rcd13ifvqi70","pricing_plan_id":"cebpf4jnsgd1na2vs0mg"},{"bike_id":"30da0b60-75ad-4018-acc4-9459b3134afb","system_id":"levelo_inurba_marseille","lat":43.296051,"lon":5.385532,"is_reserved":false,"is_disabled":false,"rental_uris":{"android":"levelo://app?vid=30da0b60-75ad-4018-acc4-9459b3134afb","ios":"levelo://app?vid=30da0b60-75ad-4018-acc4-9459b3134afb"},"vehicle_type_id":"4","last_reported":1726254420,"current_range_meters":38000,"station_id":"","pricing_plan_id":"cebpf4jnsgd1na2vs0mg"},{"bike_id":"2784fdc9-730b-44a1-8dd5-bd6a8add6017","system_id":"levelo_inurba_marseille","lat":43.28699,"lon":5.39984,"is_reserved":false,"is_disabled":false,"rental_uris":{"android":"levelo://app?vid=2784fdc9-730b-44a1-8dd5-bd6a8add6017","ios":"levelo://app?vid=2784fdc9-730b-44a1-8dd5-bd6a8add6017"},"vehicle_type_id":"4","last_reported":1726254420,"current_range_meters":28000,"station_id":"ce4bho92rcd13ifvqh3g","pricing_plan_id":"cebpf4jnsgd1na2vs0mg"},{"bike_id":"5073ac9d-6df3-45f0-9ba5-d1015aede9a9","system_id":"levelo_inurba_marseille","lat":43.3169,"lon":5.40468,"is_reserved":false,"is_disabled":false,"rental_uris":{"android":"levelo://app?vid=5073ac9d-6df3-45f0-9ba5-d1015aede9a9","ios":"levelo://app?vid=5073ac9d-6df3-45f0-9ba5-d1015aede9a9"},"vehicle_type_id":"4","last_reported":1726254420,"current_range_meters":26000,"station_id":"ce4bh012rcd13ifvqd00","pricing_plan_id":"cebpf4jnsgd1na2vs0mg"},{"bike_id":"396f2a89-1e07-4696-8042-5ca8ef4026d7","system_id":"levelo_inurba_marseille","lat":43.30586,"lon":5.3724,"is_reserved":false,"is_disabled":false,"rental_uris":{"android":"levelo://app?vid=396f2a89-1e07-4696-8042-5ca8ef4026d7","ios":"levelo://app?vid=396f2a89-1e07-4696-8042-5ca8ef4026d7"},"vehicle_type_id":"4","last_reported":1726254420,"current_range_meters":33200,"station_id":"ce4bgqh2rcd13ifvqc4g","pricing_plan_id":"cebpf4jnsgd1na2vs0mg"},{"bike_id":"43fdcb14-ac18-4289-83f9-be7bf1bd4e28","system_id":"levelo_inurba_marseille","lat":43.29005,"lon":5.35624,"is_reserved":false,"is_disabled":false,"rental_uris":{"android":"levelo://app?vid=43fdcb14-ac18-4289-83f9-be7bf1bd4e28","ios":"levelo://app?vid=43fdcb14-ac18-4289-83f9-be7bf1bd4e28"},"vehicle_type_id":"4","last_reported":1726254420,"current_range_meters":16000,"station_id":"ce4bhb92rcd13ifvqen0","pricing_plan_id":"cebpf4jnsgd1na2vs0mg"},{"bike_id":"6c81c337-dc6b-41ae-95e1-1d8e0c8b10d2","system_id":"levelo_inurba_marseille","lat":43.2766,"lon":5.38906,"is_reserved":false,"is_disabled":false,"rental_uris":{"android":"levelo://app?vid=6c81c337-dc6b-41ae-95e1-1d8e0c8b10d2","ios":"levelo://app?vid=6c81c337-dc6b-41ae-95e1-1d8e0c8b10d2"},"vehicle_type_id":"4","last_reported":1726254420,"current_range_meters":38000,"station_id":"ce4bhi12rcd13ifvqfo0","pricing_plan_id":"cebpf4jnsgd1na2vs0mg"},{"bike_id":"98211fdd-55f8-4aac-8d0d-86f8807528b7","system_id":"levelo_inurba_marseille","lat":43.30325,"lon":5.40443,"is_reserved":false,"is_disabled":false,"rental_uris":{"android":"levelo://app?vid=98211fdd-55f8-4aac-8d0d-86f8807528b7","ios":"levelo://app?vid=98211fdd-55f8-4aac-8d0d-86f8807528b7"},"vehicle_type_id":"4","last_reported":1726254420,"current_range_meters":14400,"station_id":"ce4bh012rcd13ifvqd10","pricing_plan_id":"cebpf4jnsgd1na2vs0mg"},{"bike_id":"548c034e-3ec0-475d-8d6b-b2ad29346536","system_id":"levelo_inurba_marseille","lat":43.278198,"lon":5.391967,"is_reserved":false,"is_disabled":false,"rental_uris":{"android":"levelo://app?vid=548c034e-3ec0-475d-8d6b-b2ad29346536","ios":"levelo://app?vid=548c034e-3ec0-475d-8d6b-b2ad29346536"},"vehicle_type_id":"4","last_reported":1726254420,"current_range_meters":4800,"station_id":"ce4bhjp2rcd13ifvqga0","pricing_plan_id":"cebpf4jnsgd1na2vs0mg"},{"bike_id":"9b49fc06-69dc-4375-9bc8-2ab31283d424","system_id":"levelo_inurba_marseille","lat":43.29899,"lon":5.43659,"is_reserved":false,"is_disabled":false,"rental_uris":{"android":"levelo://app?vid=9b49fc06-69dc-4375-9bc8-2ab31283d424","ios":"levelo://app?vid=9b49fc06-69dc-4375-9bc8-2ab31283d424"},"vehicle_type_id":"4","last_reported":1726254420,"current_range_meters":36400,"station_id":"ce4bhpp2rcd13ifvqhfg","pricing_plan_id":"cebpf4jnsgd1na2vs0mg"},{"bike_id":"3bed4d2d-e248-41e3-bb1c-65a18459ae9a","system_id":"levelo_inurba_marseille","lat":43.27961,"lon":5.38711,"is_reserved":false,"is_disabled":false,"rental_uris":{"android":"levelo://app?vid=3bed4d2d-e248-41e3-bb1c-65a18459ae9a","ios":"levelo://app?vid=3bed4d2d-e248-41e3-bb1c-65a18459ae9a"},"vehicle_type_id":"4","last_reported":1726254420,"current_range_meters":40000,"station_id":"ce4bhg12rcd13ifvqf80","pricing_plan_id":"cebpf4jnsgd1na2vs0mg"},{"bike_id":"0360adae-59c5-4742-9920-60584768a665","system_id":"levelo_inurba_marseille","lat":43.27171,"lon":5.40993,"is_reserved":false,"is_disabled":false,"rental_uris":{"android":"levelo://app?vid=0360adae-59c5-4742-9920-60584768a665","ios":"levelo://app?vid=0360adae-59c5-4742-9920-60584768a665"},"vehicle_type_id":"4","last_reported":1726254420,"current_range_meters":7200,"station_id":"ce4bhl12rcd13ifvqgf0","pricing_plan_id":"cebpf4jnsgd1na2vs0mg"},{"bike_id":"6b780c73-d8cf-40b2-993b-3450436460ee","system_id":"levelo_inurba_marseille","lat":43.29264,"lon":5.38441,"is_reserved":false,"is_disabled":false,"rental_uris":{"android":"levelo://app?vid=6b780c73-d8cf-40b2-993b-3450436460ee","ios":"levelo://app?vid=6b780c73-d8cf-40b2-993b-3450436460ee"},"vehicle_type_id":"4","last_reported":1726254420,"current_range_meters":19600,"station_id":"ce4bh692rcd13ifvqea0","pricing_plan_id":"cebpf4jnsgd1na2vs0mg"},{"bike_id":"c7cd67a6-2f65-43e6-9e58-1489cab32866","system_id":"levelo_inurba_marseille","lat":43.24165,"lon":5.36395,"is_reserved":false,"is_disabled":false,"rental_uris":{"android":"levelo://app?vid=c7cd67a6-2f65-43e6-9e58-1489cab32866","ios":"levelo://app?vid=c7cd67a6-2f65-43e6-9e58-1489cab32866"},"vehicle_type_id":"4","last_reported":1726254420,"current_range_meters":7200,"station_id":"cpo36qri1sfpv3e86is0","pricing_plan_id":"cebpf4jnsgd1na2vs0mg"},{"bike_id":"c314c8fd-b417-4afc-8739-b62f9259976b","system_id":"levelo_inurba_marseille","lat":43.27956,"lon":5.38723,"is_reserved":false,"is_disabled":false,"rental_uris":{"android":"levelo://app?vid=c314c8fd-b417-4afc-8739-b62f9259976b","ios":"levelo://app?vid=c314c8fd-b417-4afc-8739-b62f9259976b"},"vehicle_type_id":"4","last_reported":1726254420,"current_range_meters":38800,"station_id":"ce4bhg12rcd13ifvqf80","pricing_plan_id":"cebpf4jnsgd1na2vs0mg"},{"bike_id":"57f5eb88-52cc-441f-9282-b914e7106782","system_id":"levelo_inurba_marseille","lat":43.28032,"lon":5.36952,"is_reserved":false,"is_disabled":false,"rental_uris":{"android":"levelo://app?vid=57f5eb88-52cc-441f-9282-b914e7106782","ios":"levelo://app?vid=57f5eb88-52cc-441f-9282-b914e7106782"},"vehicle_type_id":"4","last_reported":1726254420,"current_range_meters":38800,"station_id":"ce4bha12rcd13ifvqef0","pricing_plan_id":"cebpf4jnsgd1na2vs0mg"},{"bike_id":"2a49ee96-fd61-4354-9372-6d8fd2c217ae","system_id":"levelo_inurba_marseille","lat":43.29266,"lon":5.38438,"is_reserved":false,"is_disabled":false,"rental_uris":{"android":"levelo://app?vid=2a49ee96-fd61-4354-9372-6d8fd2c217ae","ios":"levelo://app?vid=2a49ee96-fd61-4354-9372-6d8fd2c217ae"},"vehicle_type_id":"4","last_reported":1726254420,"current_range_meters":10000,"station_id":"ce4bh692rcd13ifvqea0","pricing_plan_id":"cebpf4jnsgd1na2vs0mg"},{"bike_id":"79b7950d-90c8-4e3c-a243-1a31b18cd68e","system_id":"levelo_inurba_marseille","lat":43.23961,"lon":5.36637,"is_reserved":false,"is_disabled":false,"rental_uris":{"android":"levelo://app?vid=79b7950d-90c8-4e3c-a243-1a31b18cd68e","ios":"levelo://app?vid=79b7950d-90c8-4e3c-a243-1a31b18cd68e"},"vehicle_type_id":"4","last_reported":1726254420,"current_range_meters":9600,"station_id":"ce4bhi12rcd13ifvqfp0","pricing_plan_id":"cebpf4jnsgd1na2vs0mg"},{"bike_id":"4d0f967e-c81f-46ed-91db-75a0d012fc0f","system_id":"levelo_inurba_marseille","lat":43.2558,"lon":5.38242,"is_reserved":false,"is_disabled":false,"rental_uris":{"android":"levelo://app?vid=4d0f967e-c81f-46ed-91db-75a0d012fc0f","ios":"levelo://app?vid=4d0f967e-c81f-46ed-91db-75a0d012fc0f"},"vehicle_type_id":"4","last_reported":1726254420,"current_range_meters":19600,"station_id":"ce4bhih2rcd13ifvqfs0","pricing_plan_id":"cebpf4jnsgd1na2vs0mg"},{"bike_id":"6bd1576a-e467-440f-aff2-c72956e0823a","system_id":"levelo_inurba_marseille","lat":43.304317,"lon":5.388899,"is_reserved":false,"is_disabled":false,"rental_uris":{"android":"levelo://app?vid=6bd1576a-e467-440f-aff2-c72956e0823a","ios":"levelo://app?vid=6bd1576a-e467-440f-aff2-c72956e0823a"},"vehicle_type_id":"4","last_reported":1726254420,"current_range_meters":8800,"station_id":"ce4bgk12rcd13ifvqbi0","pricing_plan_id":"cebpf4jnsgd1na2vs0mg"},{"bike_id":"9e6b05d9-5b9e-4e8c-a7ed-a6aa23fe9a42","system_id":"levelo_inurba_marseille","lat":43.28608,"lon":5.351,"is_reserved":false,"is_disabled":false,"rental_uris":{"android":"levelo://app?vid=9e6b05d9-5b9e-4e8c-a7ed-a6aa23fe9a42","ios":"levelo://app?vid=9e6b05d9-5b9e-4e8c-a7ed-a6aa23fe9a42"},"vehicle_type_id":"4","last_reported":1726254420,"current_range_meters":32000,"station_id":"ce4bhch2rcd13ifvqeug","pricing_plan_id":"cebpf4jnsgd1na2vs0mg"},{"bike_id":"f6a0964c-c03f-4c66-9f18-3f9da5a427f7","system_id":"levelo_inurba_marseille","lat":43.25116,"lon":5.403139,"is_reserved":false,"is_disabled":false,"rental_uris":{"android":"levelo://app?vid=f6a0964c-c03f-4c66-9f18-3f9da5a427f7","ios":"levelo://app?vid=f6a0964c-c03f-4c66-9f18-3f9da5a427f7"},"vehicle_type_id":"4","last_reported":1726254420,"current_range_meters":17600,"station_id":"ce4bhlh2rcd13ifvqgig","pricing_plan_id":"cebpf4jnsgd1na2vs0mg"},{"bike_id":"3d78c845-f39e-4ce6-b5cf-e9fc7768b9b1","system_id":"levelo_inurba_marseille","lat":43.29523,"lon":5.39037,"is_reserved":false,"is_disabled":false,"rental_uris":{"android":"levelo://app?vid=3d78c845-f39e-4ce6-b5cf-e9fc7768b9b1","ios":"levelo://app?vid=3d78c845-f39e-4ce6-b5cf-e9fc7768b9b1"},"vehicle_type_id":"4","last_reported":1726254420,"current_range_meters":24800,"station_id":"ce4bh3p2rcd13ifvqdp0","pricing_plan_id":"cebpf4jnsgd1na2vs0mg"},{"bike_id":"0d8d08b8-9698-4fb5-b558-7eea36ada9ef","system_id":"levelo_inurba_marseille","lat":43.32481,"lon":5.36565,"is_reserved":false,"is_disabled":false,"rental_uris":{"android":"levelo://app?vid=0d8d08b8-9698-4fb5-b558-7eea36ada9ef","ios":"levelo://app?vid=0d8d08b8-9698-4fb5-b558-7eea36ada9ef"},"vehicle_type_id":"4","last_reported":1726254420,"current_range_meters":10800,"station_id":"ce4bhs12rcd13ifvqhvg","pricing_plan_id":"cebpf4jnsgd1na2vs0mg"},{"bike_id":"c2f97207-3c28-4fdc-982d-e06641e3926c","system_id":"levelo_inurba_marseille","lat":43.29265,"lon":5.38445,"is_reserved":false,"is_disabled":false,"rental_uris":{"android":"levelo://app?vid=c2f97207-3c28-4fdc-982d-e06641e3926c","ios":"levelo://app?vid=c2f97207-3c28-4fdc-982d-e06641e3926c"},"vehicle_type_id":"4","last_reported":1726254420,"current_range_meters":32400,"station_id":"ce4bh692rcd13ifvqea0","pricing_plan_id":"cebpf4jnsgd1na2vs0mg"},{"bike_id":"60d5bda9-f640-405a-935d-62d1314e50fa","system_id":"levelo_inurba_marseille","lat":43.2396,"lon":5.36643,"is_reserved":false,"is_disabled":false,"rental_uris":{"android":"levelo://app?vid=60d5bda9-f640-405a-935d-62d1314e50fa","ios":"levelo://app?vid=60d5bda9-f640-405a-935d-62d1314e50fa"},"vehicle_type_id":"4","last_reported":1726254420,"current_range_meters":26000,"station_id":"ce4bhi12rcd13ifvqfp0","pricing_plan_id":"cebpf4jnsgd1na2vs0mg"},{"bike_id":"8d569a04-84e8-4c81-b2ee-40bf9568ebcd","system_id":"levelo_inurba_marseille","lat":43.27988,"lon":5.40017,"is_reserved":false,"is_disabled":false,"rental_uris":{"android":"levelo://app?vid=8d569a04-84e8-4c81-b2ee-40bf9568ebcd","ios":"levelo://app?vid=8d569a04-84e8-4c81-b2ee-40bf9568ebcd"},"vehicle_type_id":"4","last_reported":1726254420,"current_range_meters":17200,"station_id":"ce4bho92rcd13ifvqh4g","pricing_plan_id":"cebpf4jnsgd1na2vs0mg"},{"bike_id":"51efaa28-be78-438d-9593-a5c65646c0fd","system_id":"levelo_inurba_marseille","lat":43.25933,"lon":5.4091,"is_reserved":false,"is_disabled":false,"rental_uris":{"android":"levelo://app?vid=51efaa28-be78-438d-9593-a5c65646c0fd","ios":"levelo://app?vid=51efaa28-be78-438d-9593-a5c65646c0fd"},"vehicle_type_id":"4","last_reported":1726254420,"current_range_meters":38000,"station_id":"ce4bhm92rcd13ifvqglg","pricing_plan_id":"cebpf4jnsgd1na2vs0mg"},{"bike_id":"f9a39468-2b08-44ae-a05f-08c1a633f6c7","system_id":"levelo_inurba_marseille","lat":43.26215,"lon":5.37434,"is_reserved":false,"is_disabled":false,"rental_uris":{"android":"levelo://app?vid=f9a39468-2b08-44ae-a05f-08c1a633f6c7","ios":"levelo://app?vid=f9a39468-2b08-44ae-a05f-08c1a633f6c7"},"vehicle_type_id":"4","last_reported":1726254420,"current_range_meters":38800,"station_id":"ce4bhgp2rcd13ifvqfc0","pricing_plan_id":"cebpf4jnsgd1na2vs0mg"},{"bike_id":"319202d4-ce65-4eca-8c8b-85a93a6d458d","system_id":"levelo_inurba_marseille","lat":43.28703,"lon":5.3999,"is_reserved":false,"is_disabled":false,"rental_uris":{"android":"levelo://app?vid=319202d4-ce65-4eca-8c8b-85a93a6d458d","ios":"levelo://app?vid=319202d4-ce65-4eca-8c8b-85a93a6d458d"},"vehicle_type_id":"4","last_reported":1726254420,"current_range_meters":35600,"station_id":"ce4bho92rcd13ifvqh3g","pricing_plan_id":"cebpf4jnsgd1na2vs0mg"},{"bike_id":"1238613a-5efd-4b1b-b7cc-529d0a2a4cc8","system_id":"levelo_inurba_marseille","lat":43.28355,"lon":5.38631,"is_reserved":false,"is_disabled":false,"rental_uris":{"android":"levelo://app?vid=1238613a-5efd-4b1b-b7cc-529d0a2a4cc8","ios":"levelo://app?vid=1238613a-5efd-4b1b-b7cc-529d0a2a4cc8"},"vehicle_type_id":"4","last_reported":1726254420,"current_range_meters":27600,"station_id":"ce4bh492rcd13ifvqdvg","pricing_plan_id":"cebpf4jnsgd1na2vs0mg"},{"bike_id":"37eddef0-a362-449d-9103-016296f1ceff","system_id":"levelo_inurba_marseille","lat":43.31721,"lon":5.42409,"is_reserved":false,"is_disabled":false,"rental_uris":{"android":"levelo://app?vid=37eddef0-a362-449d-9103-016296f1ceff","ios":"levelo://app?vid=37eddef0-a362-449d-9103-016296f1ceff"},"vehicle_type_id":"4","last_reported":1726254420,"current_range_meters":16400,"station_id":"ce4bhp92rcd13ifvqhbg","pricing_plan_id":"cebpf4jnsgd1na2vs0mg"},{"bike_id":"0feddd81-b35a-429b-85ef-434ae83b682b","system_id":"levelo_inurba_marseille","lat":43.2694,"lon":5.40255,"is_reserved":false,"is_disabled":false,"rental_uris":{"android":"levelo://app?vid=0feddd81-b35a-429b-85ef-434ae83b682b","ios":"levelo://app?vid=0feddd81-b35a-429b-85ef-434ae83b682b"},"vehicle_type_id":"4","last_reported":1726254420,"current_range_meters":38000,"station_id":"cjm6bp8fraef2m0cb0m0","pricing_plan_id":"cebpf4jnsgd1na2vs0mg"},{"bike_id":"4c1757ff-943d-4b2d-b015-db17bec9b9b4","system_id":"levelo_inurba_marseille","lat":43.27812,"lon":5.40716,"is_reserved":false,"is_disabled":false,"rental_uris":{"android":"levelo://app?vid=4c1757ff-943d-4b2d-b015-db17bec9b9b4","ios":"levelo://app?vid=4c1757ff-943d-4b2d-b015-db17bec9b9b4"},"vehicle_type_id":"4","last_reported":1726254420,"current_range_meters":29600,"station_id":"ce4bhnh2rcd13ifvqgtg","pricing_plan_id":"cebpf4jnsgd1na2vs0mg"},{"bike_id":"58d7d54d-260d-4fe9-b537-04db472680ed","system_id":"levelo_inurba_marseille","lat":43.295105,"lon":5.379931,"is_reserved":false,"is_disabled":false,"rental_uris":{"android":"levelo://app?vid=58d7d54d-260d-4fe9-b537-04db472680ed","ios":"levelo://app?vid=58d7d54d-260d-4fe9-b537-04db472680ed"},"vehicle_type_id":"4","last_reported":1726254420,"current_range_meters":28800,"station_id":"ce4bgrh2rcd13ifvqc8g","pricing_plan_id":"cebpf4jnsgd1na2vs0mg"},{"bike_id":"2d9f6a36-1e8d-46ce-8819-b2bb04006d43","system_id":"levelo_inurba_marseille","lat":43.25575,"lon":5.38227,"is_reserved":false,"is_disabled":false,"rental_uris":{"android":"levelo://app?vid=2d9f6a36-1e8d-46ce-8819-b2bb04006d43","ios":"levelo://app?vid=2d9f6a36-1e8d-46ce-8819-b2bb04006d43"},"vehicle_type_id":"4","last_reported":1726254420,"current_range_meters":28000,"station_id":"ce4bhih2rcd13ifvqfs0","pricing_plan_id":"cebpf4jnsgd1na2vs0mg"},{"bike_id":"75c35499-0de6-41a0-acf5-7c9b58381038","system_id":"levelo_inurba_marseille","lat":43.23182,"lon":5.39983,"is_reserved":false,"is_disabled":false,"rental_uris":{"android":"levelo://app?vid=75c35499-0de6-41a0-acf5-7c9b58381038","ios":"levelo://app?vid=75c35499-0de6-41a0-acf5-7c9b58381038"},"vehicle_type_id":"4","last_reported":1726254420,"current_range_meters":28400,"station_id":"ce4bhn12rcd13ifvqgqg","pricing_plan_id":"cebpf4jnsgd1na2vs0mg"},{"bike_id":"dad3031e-6f14-4f3a-913b-1be35e20299e","system_id":"levelo_inurba_marseille","lat":43.25497,"lon":5.37653,"is_reserved":false,"is_disabled":false,"rental_uris":{"android":"levelo://app?vid=dad3031e-6f14-4f3a-913b-1be35e20299e","ios":"levelo://app?vid=dad3031e-6f14-4f3a-913b-1be35e20299e"},"vehicle_type_id":"4","last_reported":1726254420,"current_range_meters":17600,"station_id":"ce4bhh12rcd13ifvqff0","pricing_plan_id":"cebpf4jnsgd1na2vs0mg"},{"bike_id":"7b00cb6b-cfe5-4728-99a6-9e0669135f67","system_id":"levelo_inurba_marseille","lat":43.27228,"lon":5.39188,"is_reserved":false,"is_disabled":false,"rental_uris":{"android":"levelo://app?vid=7b00cb6b-cfe5-4728-99a6-9e0669135f67","ios":"levelo://app?vid=7b00cb6b-cfe5-4728-99a6-9e0669135f67"},"vehicle_type_id":"4","last_reported":1726254420,"current_range_meters":26800,"station_id":"ce4bhhp2rcd13ifvqfm0","pricing_plan_id":"cebpf4jnsgd1na2vs0mg"},{"bike_id":"b506159f-a775-4733-b310-23093ca74a69","system_id":"levelo_inurba_marseille","lat":43.33021,"lon":5.39049,"is_reserved":false,"is_disabled":false,"rental_uris":{"android":"levelo://app?vid=b506159f-a775-4733-b310-23093ca74a69","ios":"levelo://app?vid=b506159f-a775-4733-b310-23093ca74a69"},"vehicle_type_id":"4","last_reported":1726254420,"current_range_meters":17200,"station_id":"ce4bhr92rcd13ifvqhrg","pricing_plan_id":"cebpf4jnsgd1na2vs0mg"},{"bike_id":"4593efc2-84bd-44ed-9d11-4e2acecb1107","system_id":"levelo_inurba_marseille","lat":43.29514,"lon":5.39037,"is_reserved":false,"is_disabled":false,"rental_uris":{"android":"levelo://app?vid=4593efc2-84bd-44ed-9d11-4e2acecb1107","ios":"levelo://app?vid=4593efc2-84bd-44ed-9d11-4e2acecb1107"},"vehicle_type_id":"4","last_reported":1726254420,"current_range_meters":4000,"station_id":"ce4bh3p2rcd13ifvqdp0","pricing_plan_id":"cebpf4jnsgd1na2vs0mg"},{"bike_id":"91d155a1-0e95-42f4-9cf2-24e586735a13","system_id":"levelo_inurba_marseille","lat":43.33718,"lon":5.39184,"is_reserved":false,"is_disabled":false,"rental_uris":{"android":"levelo://app?vid=91d155a1-0e95-42f4-9cf2-24e586735a13","ios":"levelo://app?vid=91d155a1-0e95-42f4-9cf2-24e586735a13"},"vehicle_type_id":"4","last_reported":1726254420,"current_range_meters":27600,"station_id":"ce4bhr92rcd13ifvqhsg","pricing_plan_id":"cebpf4jnsgd1na2vs0mg"},{"bike_id":"19cb6015-d35b-4ea8-bb63-e19547cc4f55","system_id":"levelo_inurba_marseille","lat":43.31323,"lon":5.39698,"is_reserved":false,"is_disabled":false,"rental_uris":{"android":"levelo://app?vid=19cb6015-d35b-4ea8-bb63-e19547cc4f55","ios":"levelo://app?vid=19cb6015-d35b-4ea8-bb63-e19547cc4f55"},"vehicle_type_id":"4","last_reported":1726254420,"current_range_meters":29600,"station_id":"ce4bgvp2rcd13ifvqcu0","pricing_plan_id":"cebpf4jnsgd1na2vs0mg"},{"bike_id":"13db53e5-ed21-4721-8be0-9794f913c219","system_id":"levelo_inurba_marseille","lat":43.30529,"lon":5.36712,"is_reserved":false,"is_disabled":false,"rental_uris":{"android":"levelo://app?vid=13db53e5-ed21-4721-8be0-9794f913c219","ios":"levelo://app?vid=13db53e5-ed21-4721-8be0-9794f913c219"},"vehicle_type_id":"4","last_reported":1726254420,"current_range_meters":9200,"station_id":"ce4bgrp2rcd13ifvqc9g","pricing_plan_id":"cebpf4jnsgd1na2vs0mg"},{"bike_id":"af2fd175-c7c0-4214-8389-0e195761e817","system_id":"levelo_inurba_marseille","lat":43.33024,"lon":5.39042,"is_reserved":false,"is_disabled":false,"rental_uris":{"android":"levelo://app?vid=af2fd175-c7c0-4214-8389-0e195761e817","ios":"levelo://app?vid=af2fd175-c7c0-4214-8389-0e195761e817"},"vehicle_type_id":"4","last_reported":1726254420,"current_range_meters":9600,"station_id":"ce4bhr92rcd13ifvqhrg","pricing_plan_id":"cebpf4jnsgd1na2vs0mg"},{"bike_id":"9368e81d-9d41-40d8-9614-e043ff6b63f3","system_id":"levelo_inurba_marseille","lat":43.31351,"lon":5.38506,"is_reserved":false,"is_disabled":false,"rental_uris":{"android":"levelo://app?vid=9368e81d-9d41-40d8-9614-e043ff6b63f3","ios":"levelo://app?vid=9368e81d-9d41-40d8-9614-e043ff6b63f3"},"vehicle_type_id":"4","last_reported":1726254420,"current_range_meters":23200,"station_id":"ce4bgt92rcd13ifvqcf0","pricing_plan_id":"cebpf4jnsgd1na2vs0mg"},{"bike_id":"907b695e-94dd-463e-aa15-f64dc51ac1b3","system_id":"levelo_inurba_marseille","lat":43.28956,"lon":5.36381,"is_reserved":false,"is_disabled":false,"rental_uris":{"android":"levelo://app?vid=907b695e-94dd-463e-aa15-f64dc51ac1b3","ios":"levelo://app?vid=907b695e-94dd-463e-aa15-f64dc51ac1b3"},"vehicle_type_id":"4","last_reported":1726254420,"current_range_meters":38800,"station_id":"ce4bhc92rcd13ifvqetg","pricing_plan_id":"cebpf4jnsgd1na2vs0mg"},{"bike_id":"a8408bc0-1ad0-4261-92e7-4324637d7c82","system_id":"levelo_inurba_marseille","lat":43.29024,"lon":5.35616,"is_reserved":false,"is_disabled":false,"rental_uris":{"android":"levelo://app?vid=a8408bc0-1ad0-4261-92e7-4324637d7c82","ios":"levelo://app?vid=a8408bc0-1ad0-4261-92e7-4324637d7c82"},"vehicle_type_id":"4","last_reported":1726254420,"current_range_meters":38800,"station_id":"ce4bhb92rcd13ifvqen0","pricing_plan_id":"cebpf4jnsgd1na2vs0mg"},{"bike_id":"0d9f035c-8e47-426d-8593-e2bc7f05f235","system_id":"levelo_inurba_marseille","lat":43.30443,"lon":5.36509,"is_reserved":false,"is_disabled":false,"rental_uris":{"android":"levelo://app?vid=0d9f035c-8e47-426d-8593-e2bc7f05f235","ios":"levelo://app?vid=0d9f035c-8e47-426d-8593-e2bc7f05f235"},"vehicle_type_id":"4","last_reported":1726254420,"current_range_meters":11600,"station_id":"","pricing_plan_id":"cebpf4jnsgd1na2vs0mg"},{"bike_id":"e4687fef-cd05-471c-b786-02272304b5b9","system_id":"levelo_inurba_marseille","lat":43.26212,"lon":5.37436,"is_reserved":false,"is_disabled":false,"rental_uris":{"android":"levelo://app?vid=e4687fef-cd05-471c-b786-02272304b5b9","ios":"levelo://app?vid=e4687fef-cd05-471c-b786-02272304b5b9"},"vehicle_type_id":"4","last_reported":1726254420,"current_range_meters":30000,"station_id":"ce4bhgp2rcd13ifvqfc0","pricing_plan_id":"cebpf4jnsgd1na2vs0mg"},{"bike_id":"72bdb739-b70d-4c3b-9a35-3725cd7cd4ad","system_id":"levelo_inurba_marseille","lat":43.26192,"lon":5.37453,"is_reserved":false,"is_disabled":false,"rental_uris":{"android":"levelo://app?vid=72bdb739-b70d-4c3b-9a35-3725cd7cd4ad","ios":"levelo://app?vid=72bdb739-b70d-4c3b-9a35-3725cd7cd4ad"},"vehicle_type_id":"4","last_reported":1726254420,"current_range_meters":22800,"station_id":"ce4bhgp2rcd13ifvqfc0","pricing_plan_id":"cebpf4jnsgd1na2vs0mg"},{"bike_id":"ff1f7370-0d70-4768-ad70-0827a7132787","system_id":"levelo_inurba_marseille","lat":43.27211,"lon":5.39184,"is_reserved":false,"is_disabled":false,"rental_uris":{"android":"levelo://app?vid=ff1f7370-0d70-4768-ad70-0827a7132787","ios":"levelo://app?vid=ff1f7370-0d70-4768-ad70-0827a7132787"},"vehicle_type_id":"4","last_reported":1726254420,"current_range_meters":25200,"station_id":"ce4bhhp2rcd13ifvqfm0","pricing_plan_id":"cebpf4jnsgd1na2vs0mg"},{"bike_id":"5a650081-168d-43a0-a287-6836d6443cd8","system_id":"levelo_inurba_marseille","lat":43.299667,"lon":5.413187,"is_reserved":false,"is_disabled":false,"rental_uris":{"android":"levelo://app?vid=5a650081-168d-43a0-a287-6836d6443cd8","ios":"levelo://app?vid=5a650081-168d-43a0-a287-6836d6443cd8"},"vehicle_type_id":"4","last_reported":1726254420,"current_range_meters":39200,"station_id":"ce4bhp12rcd13ifvqh9g","pricing_plan_id":"cebpf4jnsgd1na2vs0mg"},{"bike_id":"64712d1f-4b2d-4cb5-ac24-8c714a562554","system_id":"levelo_inurba_marseille","lat":43.30885,"lon":5.37189,"is_reserved":false,"is_disabled":false,"rental_uris":{"android":"levelo://app?vid=64712d1f-4b2d-4cb5-ac24-8c714a562554","ios":"levelo://app?vid=64712d1f-4b2d-4cb5-ac24-8c714a562554"},"vehicle_type_id":"4","last_reported":1726254420,"current_range_meters":3200,"station_id":"ce4bguh2rcd13ifvqckg","pricing_plan_id":"cebpf4jnsgd1na2vs0mg"},{"bike_id":"d57407f8-bf56-4fd3-a5c0-9daedd1527be","system_id":"levelo_inurba_marseille","lat":43.3127,"lon":5.4018,"is_reserved":false,"is_disabled":false,"rental_uris":{"android":"levelo://app?vid=d57407f8-bf56-4fd3-a5c0-9daedd1527be","ios":"levelo://app?vid=d57407f8-bf56-4fd3-a5c0-9daedd1527be"},"vehicle_type_id":"4","last_reported":1726254420,"current_range_meters":10000,"station_id":"ce4bh092rcd13ifvqd30","pricing_plan_id":"cebpf4jnsgd1na2vs0mg"},{"bike_id":"552ccea4-a0ab-4fa2-9015-1ea8da64cd61","system_id":"levelo_inurba_marseille","lat":43.2558,"lon":5.38228,"is_reserved":false,"is_disabled":false,"rental_uris":{"android":"levelo://app?vid=552ccea4-a0ab-4fa2-9015-1ea8da64cd61","ios":"levelo://app?vid=552ccea4-a0ab-4fa2-9015-1ea8da64cd61"},"vehicle_type_id":"4","last_reported":1726254420,"current_range_meters":8800,"station_id":"ce4bhih2rcd13ifvqfs0","pricing_plan_id":"cebpf4jnsgd1na2vs0mg"},{"bike_id":"7c0ae92f-06d0-4ab8-bbd8-831a5ec57f08","system_id":"levelo_inurba_marseille","lat":43.24653,"lon":5.38605,"is_reserved":false,"is_disabled":false,"rental_uris":{"android":"levelo://app?vid=7c0ae92f-06d0-4ab8-bbd8-831a5ec57f08","ios":"levelo://app?vid=7c0ae92f-06d0-4ab8-bbd8-831a5ec57f08"},"vehicle_type_id":"4","last_reported":1726254420,"current_range_meters":2800,"station_id":"","pricing_plan_id":"cebpf4jnsgd1na2vs0mg"},{"bike_id":"0a102b64-fdd4-40bb-aaa4-21447b91a05c","system_id":"levelo_inurba_marseille","lat":43.26952,"lon":5.38631,"is_reserved":false,"is_disabled":false,"rental_uris":{"android":"levelo://app?vid=0a102b64-fdd4-40bb-aaa4-21447b91a05c","ios":"levelo://app?vid=0a102b64-fdd4-40bb-aaa4-21447b91a05c"},"vehicle_type_id":"4","last_reported":1726254420,"current_range_meters":14400,"station_id":"ce4bhh92rcd13ifvqfh0","pricing_plan_id":"cebpf4jnsgd1na2vs0mg"},{"bike_id":"4db3e95b-8b26-49c5-8fa7-66649db90195","system_id":"levelo_inurba_marseille","lat":43.24544,"lon":5.39525,"is_reserved":false,"is_disabled":false,"rental_uris":{"android":"levelo://app?vid=4db3e95b-8b26-49c5-8fa7-66649db90195","ios":"levelo://app?vid=4db3e95b-8b26-49c5-8fa7-66649db90195"},"vehicle_type_id":"4","last_reported":1726254420,"current_range_meters":6800,"station_id":"ce4bhlp2rcd13ifvqgjg","pricing_plan_id":"cebpf4jnsgd1na2vs0mg"},{"bike_id":"a58bec3a-2a9b-4b38-ba25-908ec2e5b167","system_id":"levelo_inurba_marseille","lat":43.31719,"lon":5.42403,"is_reserved":false,"is_disabled":false,"rental_uris":{"android":"levelo://app?vid=a58bec3a-2a9b-4b38-ba25-908ec2e5b167","ios":"levelo://app?vid=a58bec3a-2a9b-4b38-ba25-908ec2e5b167"},"vehicle_type_id":"4","last_reported":1726254420,"current_range_meters":20400,"station_id":"ce4bhp92rcd13ifvqhbg","pricing_plan_id":"cebpf4jnsgd1na2vs0mg"},{"bike_id":"ea3d7376-d28b-466c-963c-3e27c81b65c1","system_id":"levelo_inurba_marseille","lat":43.32041,"lon":5.41545,"is_reserved":false,"is_disabled":false,"rental_uris":{"android":"levelo://app?vid=ea3d7376-d28b-466c-963c-3e27c81b65c1","ios":"levelo://app?vid=ea3d7376-d28b-466c-963c-3e27c81b65c1"},"vehicle_type_id":"4","last_reported":1726254420,"current_range_meters":34000,"station_id":"ce4bhq92rcd13ifvqhkg","pricing_plan_id":"cebpf4jnsgd1na2vs0mg"},{"bike_id":"c2fffdea-fea6-4584-bd0b-df4cf5a5c761","system_id":"levelo_inurba_marseille","lat":43.24668,"lon":5.38171,"is_reserved":false,"is_disabled":false,"rental_uris":{"android":"levelo://app?vid=c2fffdea-fea6-4584-bd0b-df4cf5a5c761","ios":"levelo://app?vid=c2fffdea-fea6-4584-bd0b-df4cf5a5c761"},"vehicle_type_id":"4","last_reported":1726254420,"current_range_meters":8800,"station_id":"ce4bhih2rcd13ifvqfr0","pricing_plan_id":"cebpf4jnsgd1na2vs0mg"},{"bike_id":"8ad11282-20d1-4897-909e-ead779ae1c0e","system_id":"levelo_inurba_marseille","lat":43.29148,"lon":5.37122,"is_reserved":false,"is_disabled":false,"rental_uris":{"android":"levelo://app?vid=8ad11282-20d1-4897-909e-ead779ae1c0e","ios":"levelo://app?vid=8ad11282-20d1-4897-909e-ead779ae1c0e"},"vehicle_type_id":"4","last_reported":1726254420,"current_range_meters":18000,"station_id":"ce4bh5p2rcd13ifvqe4g","pricing_plan_id":"cebpf4jnsgd1na2vs0mg"},{"bike_id":"82c0c6a5-b733-407b-8add-3604b3233b0c","system_id":"levelo_inurba_marseille","lat":43.30909,"lon":5.3686,"is_reserved":false,"is_disabled":false,"rental_uris":{"android":"levelo://app?vid=82c0c6a5-b733-407b-8add-3604b3233b0c","ios":"levelo://app?vid=82c0c6a5-b733-407b-8add-3604b3233b0c"},"vehicle_type_id":"4","last_reported":1726254420,"current_range_meters":26800,"station_id":"ce4bgn92rcd13ifvqbvg","pricing_plan_id":"cebpf4jnsgd1na2vs0mg"},{"bike_id":"d87e2255-cd17-48c7-a695-0917087d9f70","system_id":"levelo_inurba_marseille","lat":43.2953,"lon":5.38547,"is_reserved":false,"is_disabled":false,"rental_uris":{"android":"levelo://app?vid=d87e2255-cd17-48c7-a695-0917087d9f70","ios":"levelo://app?vid=d87e2255-cd17-48c7-a695-0917087d9f70"},"vehicle_type_id":"4","last_reported":1726254420,"current_range_meters":24800,"station_id":"ce4bgih2rcd13ifvqba0","pricing_plan_id":"cebpf4jnsgd1na2vs0mg"},{"bike_id":"4afb8b00-be3a-4d15-9b8b-47916e625762","system_id":"levelo_inurba_marseille","lat":43.28527,"lon":5.4424,"is_reserved":false,"is_disabled":false,"rental_uris":{"android":"levelo://app?vid=4afb8b00-be3a-4d15-9b8b-47916e625762","ios":"levelo://app?vid=4afb8b00-be3a-4d15-9b8b-47916e625762"},"vehicle_type_id":"4","last_reported":1726254420,"current_range_meters":26800,"station_id":"","pricing_plan_id":"cebpf4jnsgd1na2vs0mg"},{"bike_id":"bb7acf50-b6bc-4b2d-adf4-833abc23b24c","system_id":"levelo_inurba_marseille","lat":43.23196,"lon":5.35557,"is_reserved":false,"is_disabled":false,"rental_uris":{"android":"levelo://app?vid=bb7acf50-b6bc-4b2d-adf4-833abc23b24c","ios":"levelo://app?vid=bb7acf50-b6bc-4b2d-adf4-833abc23b24c"},"vehicle_type_id":"4","last_reported":1726254420,"current_range_meters":38800,"station_id":"ce4bhu92rcd13ifvqi70","pricing_plan_id":"cebpf4jnsgd1na2vs0mg"},{"bike_id":"bc8be1fd-7bee-49c5-817c-184bdd69b536","system_id":"levelo_inurba_marseille","lat":43.27374,"lon":5.41959,"is_reserved":false,"is_disabled":false,"rental_uris":{"android":"levelo://app?vid=bc8be1fd-7bee-49c5-817c-184bdd69b536","ios":"levelo://app?vid=bc8be1fd-7bee-49c5-817c-184bdd69b536"},"vehicle_type_id":"4","last_reported":1726254420,"current_range_meters":28800,"station_id":"","pricing_plan_id":"cebpf4jnsgd1na2vs0mg"},{"bike_id":"ca4ec1a1-d3bb-4aed-94af-89eae268f3dd","system_id":"levelo_inurba_marseille","lat":43.29269,"lon":5.38436,"is_reserved":false,"is_disabled":false,"rental_uris":{"android":"levelo://app?vid=ca4ec1a1-d3bb-4aed-94af-89eae268f3dd","ios":"levelo://app?vid=ca4ec1a1-d3bb-4aed-94af-89eae268f3dd"},"vehicle_type_id":"4","last_reported":1726254420,"current_range_meters":22400,"station_id":"ce4bh692rcd13ifvqea0","pricing_plan_id":"cebpf4jnsgd1na2vs0mg"},{"bike_id":"ea7a9e49-894a-4b56-9eb2-ce93da8a565e","system_id":"levelo_inurba_marseille","lat":43.29272,"lon":5.36852,"is_reserved":false,"is_disabled":false,"rental_uris":{"android":"levelo://app?vid=ea7a9e49-894a-4b56-9eb2-ce93da8a565e","ios":"levelo://app?vid=ea7a9e49-894a-4b56-9eb2-ce93da8a565e"},"vehicle_type_id":"4","last_reported":1726254420,"current_range_meters":25200,"station_id":"ce4bhbp2rcd13ifvqesg","pricing_plan_id":"cebpf4jnsgd1na2vs0mg"},{"bike_id":"39565c06-7ad7-4c17-aa51-ec74b1673799","system_id":"levelo_inurba_marseille","lat":43.34143,"lon":5.40908,"is_reserved":false,"is_disabled":false,"rental_uris":{"android":"levelo://app?vid=39565c06-7ad7-4c17-aa51-ec74b1673799","ios":"levelo://app?vid=39565c06-7ad7-4c17-aa51-ec74b1673799"},"vehicle_type_id":"4","last_reported":1726254420,"current_range_meters":29600,"station_id":"ce4bhqh2rcd13ifvqhlg","pricing_plan_id":"cebpf4jnsgd1na2vs0mg"},{"bike_id":"5a75a31f-8e2e-4038-bc87-77f8ff9cf512","system_id":"levelo_inurba_marseille","lat":43.29028,"lon":5.38651,"is_reserved":false,"is_disabled":false,"rental_uris":{"android":"levelo://app?vid=5a75a31f-8e2e-4038-bc87-77f8ff9cf512","ios":"levelo://app?vid=5a75a31f-8e2e-4038-bc87-77f8ff9cf512"},"vehicle_type_id":"4","last_reported":1726254420,"current_range_meters":35600,"station_id":"ce4bh4p2rcd13ifvqe0g","pricing_plan_id":"cebpf4jnsgd1na2vs0mg"},{"bike_id":"ed98b8c2-35cf-41e3-a455-60bcc6aa97ea","system_id":"levelo_inurba_marseille","lat":43.30187,"lon":5.36627,"is_reserved":false,"is_disabled":false,"rental_uris":{"android":"levelo://app?vid=ed98b8c2-35cf-41e3-a455-60bcc6aa97ea","ios":"levelo://app?vid=ed98b8c2-35cf-41e3-a455-60bcc6aa97ea"},"vehicle_type_id":"4","last_reported":1726254420,"current_range_meters":36400,"station_id":"ce4bgrh2rcd13ifvqc8g","pricing_plan_id":"cebpf4jnsgd1na2vs0mg"},{"bike_id":"7cd60492-86c1-4981-ad0d-e0479fb4bf13","system_id":"levelo_inurba_marseille","lat":43.29536,"lon":5.38546,"is_reserved":false,"is_disabled":false,"rental_uris":{"android":"levelo://app?vid=7cd60492-86c1-4981-ad0d-e0479fb4bf13","ios":"levelo://app?vid=7cd60492-86c1-4981-ad0d-e0479fb4bf13"},"vehicle_type_id":"4","last_reported":1726254420,"current_range_meters":15200,"station_id":"ce4bgih2rcd13ifvqba0","pricing_plan_id":"cebpf4jnsgd1na2vs0mg"},{"bike_id":"6da9e460-f0cd-43d6-9f6b-761aceccaf26","system_id":"levelo_inurba_marseille","lat":43.24648,"lon":5.38893,"is_reserved":false,"is_disabled":false,"rental_uris":{"android":"levelo://app?vid=6da9e460-f0cd-43d6-9f6b-761aceccaf26","ios":"levelo://app?vid=6da9e460-f0cd-43d6-9f6b-761aceccaf26"},"vehicle_type_id":"4","last_reported":1726254420,"current_range_meters":22000,"station_id":"ce4bhg12rcd13ifvqf60","pricing_plan_id":"cebpf4jnsgd1na2vs0mg"},{"bike_id":"f5ce7a0e-bae9-46bf-9de8-007491c66701","system_id":"levelo_inurba_marseille","lat":43.34138,"lon":5.409,"is_reserved":false,"is_disabled":false,"rental_uris":{"android":"levelo://app?vid=f5ce7a0e-bae9-46bf-9de8-007491c66701","ios":"levelo://app?vid=f5ce7a0e-bae9-46bf-9de8-007491c66701"},"vehicle_type_id":"4","last_reported":1726254420,"current_range_meters":22000,"station_id":"ce4bhqh2rcd13ifvqhlg","pricing_plan_id":"cebpf4jnsgd1na2vs0mg"},{"bike_id":"e4debdcd-e5a0-41c3-8643-60f4e52276d3","system_id":"levelo_inurba_marseille","lat":43.30252,"lon":5.40075,"is_reserved":false,"is_disabled":false,"rental_uris":{"android":"levelo://app?vid=e4debdcd-e5a0-41c3-8643-60f4e52276d3","ios":"levelo://app?vid=e4debdcd-e5a0-41c3-8643-60f4e52276d3"},"vehicle_type_id":"4","last_reported":1726254420,"current_range_meters":12400,"station_id":"ce4bgvh2rcd13ifvqcs0","pricing_plan_id":"cebpf4jnsgd1na2vs0mg"},{"bike_id":"81f1a965-ff8b-4d74-9682-ff18567684f9","system_id":"levelo_inurba_marseille","lat":43.33023,"lon":5.39042,"is_reserved":false,"is_disabled":false,"rental_uris":{"android":"levelo://app?vid=81f1a965-ff8b-4d74-9682-ff18567684f9","ios":"levelo://app?vid=81f1a965-ff8b-4d74-9682-ff18567684f9"},"vehicle_type_id":"4","last_reported":1726254420,"current_range_meters":6400,"station_id":"ce4bhr92rcd13ifvqhrg","pricing_plan_id":"cebpf4jnsgd1na2vs0mg"},{"bike_id":"06444ed7-cf13-4c1e-9077-801c8a8ef5c3","system_id":"levelo_inurba_marseille","lat":43.29507,"lon":5.39042,"is_reserved":false,"is_disabled":false,"rental_uris":{"android":"levelo://app?vid=06444ed7-cf13-4c1e-9077-801c8a8ef5c3","ios":"levelo://app?vid=06444ed7-cf13-4c1e-9077-801c8a8ef5c3"},"vehicle_type_id":"4","last_reported":1726254420,"current_range_meters":27200,"station_id":"ce4bh3p2rcd13ifvqdp0","pricing_plan_id":"cebpf4jnsgd1na2vs0mg"},{"bike_id":"c28ff0f1-1713-431a-bccf-4e7a21e8e39b","system_id":"levelo_inurba_marseille","lat":43.25501,"lon":5.37651,"is_reserved":false,"is_disabled":false,"rental_uris":{"android":"levelo://app?vid=c28ff0f1-1713-431a-bccf-4e7a21e8e39b","ios":"levelo://app?vid=c28ff0f1-1713-431a-bccf-4e7a21e8e39b"},"vehicle_type_id":"4","last_reported":1726254420,"current_range_meters":38800,"station_id":"ce4bhh12rcd13ifvqff0","pricing_plan_id":"cebpf4jnsgd1na2vs0mg"},{"bike_id":"987fbd42-8bd6-4072-861f-a5c41ece6ba9","system_id":"levelo_inurba_marseille","lat":43.28407,"lon":5.37518,"is_reserved":false,"is_disabled":false,"rental_uris":{"android":"levelo://app?vid=987fbd42-8bd6-4072-861f-a5c41ece6ba9","ios":"levelo://app?vid=987fbd42-8bd6-4072-861f-a5c41ece6ba9"},"vehicle_type_id":"4","last_reported":1726254420,"current_range_meters":7200,"station_id":"ce4bh412rcd13ifvqds0","pricing_plan_id":"cebpf4jnsgd1na2vs0mg"},{"bike_id":"ffc5e4d0-2554-4da1-bc37-c3cf25c612bc","system_id":"levelo_inurba_marseille","lat":43.29526,"lon":5.3904,"is_reserved":false,"is_disabled":false,"rental_uris":{"android":"levelo://app?vid=ffc5e4d0-2554-4da1-bc37-c3cf25c612bc","ios":"levelo://app?vid=ffc5e4d0-2554-4da1-bc37-c3cf25c612bc"},"vehicle_type_id":"4","last_reported":1726254420,"current_range_meters":16400,"station_id":"ce4bh3p2rcd13ifvqdp0","pricing_plan_id":"cebpf4jnsgd1na2vs0mg"},{"bike_id":"d63b08fd-7716-422a-94e4-8f1dfff5bb11","system_id":"levelo_inurba_marseille","lat":43.28615,"lon":5.35097,"is_reserved":false,"is_disabled":false,"rental_uris":{"android":"levelo://app?vid=d63b08fd-7716-422a-94e4-8f1dfff5bb11","ios":"levelo://app?vid=d63b08fd-7716-422a-94e4-8f1dfff5bb11"},"vehicle_type_id":"4","last_reported":1726254420,"current_range_meters":38000,"station_id":"ce4bhch2rcd13ifvqeug","pricing_plan_id":"cebpf4jnsgd1na2vs0mg"},{"bike_id":"ec70d30b-37ec-4b5c-b10c-9617e30c7fa0","system_id":"levelo_inurba_marseille","lat":43.29897,"lon":5.36622,"is_reserved":false,"is_disabled":false,"rental_uris":{"android":"levelo://app?vid=ec70d30b-37ec-4b5c-b10c-9617e30c7fa0","ios":"levelo://app?vid=ec70d30b-37ec-4b5c-b10c-9617e30c7fa0"},"vehicle_type_id":"4","last_reported":1726254420,"current_range_meters":16000,"station_id":"","pricing_plan_id":"cebpf4jnsgd1na2vs0mg"},{"bike_id":"415d3c4f-5242-4572-8d05-9e1bd45eae7f","system_id":"levelo_inurba_marseille","lat":43.25575,"lon":5.38245,"is_reserved":false,"is_disabled":false,"rental_uris":{"android":"levelo://app?vid=415d3c4f-5242-4572-8d05-9e1bd45eae7f","ios":"levelo://app?vid=415d3c4f-5242-4572-8d05-9e1bd45eae7f"},"vehicle_type_id":"4","last_reported":1726254420,"current_range_meters":32000,"station_id":"ce4bhih2rcd13ifvqfs0","pricing_plan_id":"cebpf4jnsgd1na2vs0mg"},{"bike_id":"82105cc0-78d3-4524-b733-62ec20d04af2","system_id":"levelo_inurba_marseille","lat":43.277895,"lon":5.406799,"is_reserved":false,"is_disabled":false,"rental_uris":{"android":"levelo://app?vid=82105cc0-78d3-4524-b733-62ec20d04af2","ios":"levelo://app?vid=82105cc0-78d3-4524-b733-62ec20d04af2"},"vehicle_type_id":"4","last_reported":1726254420,"current_range_meters":16400,"station_id":"ce4bhnh2rcd13ifvqgtg","pricing_plan_id":"cebpf4jnsgd1na2vs0mg"},{"bike_id":"9378e46c-90ff-48e5-9112-f5aafd156a5f","system_id":"levelo_inurba_marseille","lat":43.29554,"lon":5.42296,"is_reserved":false,"is_disabled":false,"rental_uris":{"android":"levelo://app?vid=9378e46c-90ff-48e5-9112-f5aafd156a5f","ios":"levelo://app?vid=9378e46c-90ff-48e5-9112-f5aafd156a5f"},"vehicle_type_id":"4","last_reported":1726254420,"current_range_meters":28400,"station_id":"ce4bhph2rcd13ifvqhdg","pricing_plan_id":"cebpf4jnsgd1na2vs0mg"},{"bike_id":"0e32f225-b6c3-4685-b501-80f904b6c7d0","system_id":"levelo_inurba_marseille","lat":43.29031,"lon":5.37567,"is_reserved":false,"is_disabled":false,"rental_uris":{"android":"levelo://app?vid=0e32f225-b6c3-4685-b501-80f904b6c7d0","ios":"levelo://app?vid=0e32f225-b6c3-4685-b501-80f904b6c7d0"},"vehicle_type_id":"4","last_reported":1726254420,"current_range_meters":33600,"station_id":"ce4bh692rcd13ifvqe90","pricing_plan_id":"cebpf4jnsgd1na2vs0mg"},{"bike_id":"b5b5287e-b66f-4f19-b47a-1f428d9f1b49","system_id":"levelo_inurba_marseille","lat":43.23161,"lon":5.4371,"is_reserved":false,"is_disabled":false,"rental_uris":{"android":"levelo://app?vid=b5b5287e-b66f-4f19-b47a-1f428d9f1b49","ios":"levelo://app?vid=b5b5287e-b66f-4f19-b47a-1f428d9f1b49"},"vehicle_type_id":"4","last_reported":1726254420,"current_range_meters":36800,"station_id":"ce4bhmp2rcd13ifvqgog","pricing_plan_id":"cebpf4jnsgd1na2vs0mg"},{"bike_id":"51b93f73-c647-4dd9-b993-0e72de9b0462","system_id":"levelo_inurba_marseille","lat":43.28289,"lon":5.39074,"is_reserved":false,"is_disabled":false,"rental_uris":{"android":"levelo://app?vid=51b93f73-c647-4dd9-b993-0e72de9b0462","ios":"levelo://app?vid=51b93f73-c647-4dd9-b993-0e72de9b0462"},"vehicle_type_id":"4","last_reported":1726254420,"current_range_meters":32400,"station_id":"","pricing_plan_id":"cebpf4jnsgd1na2vs0mg"},{"bike_id":"e3b114a1-71b2-4d53-b3a3-16469686f6bd","system_id":"levelo_inurba_marseille","lat":43.28158,"lon":5.42639,"is_reserved":false,"is_disabled":false,"rental_uris":{"android":"levelo://app?vid=e3b114a1-71b2-4d53-b3a3-16469686f6bd","ios":"levelo://app?vid=e3b114a1-71b2-4d53-b3a3-16469686f6bd"},"vehicle_type_id":"4","last_reported":1726254420,"current_range_meters":21600,"station_id":"ce4bhnh2rcd13ifvqgug","pricing_plan_id":"cebpf4jnsgd1na2vs0mg"},{"bike_id":"e24b3e9b-187d-4683-b1a5-f02b5f483e4b","system_id":"levelo_inurba_marseille","lat":43.28616,"lon":5.35104,"is_reserved":false,"is_disabled":false,"rental_uris":{"android":"levelo://app?vid=e24b3e9b-187d-4683-b1a5-f02b5f483e4b","ios":"levelo://app?vid=e24b3e9b-187d-4683-b1a5-f02b5f483e4b"},"vehicle_type_id":"4","last_reported":1726254420,"current_range_meters":8400,"station_id":"ce4bhch2rcd13ifvqeug","pricing_plan_id":"cebpf4jnsgd1na2vs0mg"},{"bike_id":"e35f4f82-8faf-441c-886a-0232fe102042","system_id":"levelo_inurba_marseille","lat":43.31754,"lon":5.39018,"is_reserved":false,"is_disabled":false,"rental_uris":{"android":"levelo://app?vid=e35f4f82-8faf-441c-886a-0232fe102042","ios":"levelo://app?vid=e35f4f82-8faf-441c-886a-0232fe102042"},"vehicle_type_id":"4","last_reported":1726254420,"current_range_meters":30400,"station_id":"ce4bhqp2rcd13ifvqhng","pricing_plan_id":"cebpf4jnsgd1na2vs0mg"},{"bike_id":"eef991f3-491b-40b9-99d7-1de70c081759","system_id":"levelo_inurba_marseille","lat":43.28666,"lon":5.38669,"is_reserved":false,"is_disabled":false,"rental_uris":{"android":"levelo://app?vid=eef991f3-491b-40b9-99d7-1de70c081759","ios":"levelo://app?vid=eef991f3-491b-40b9-99d7-1de70c081759"},"vehicle_type_id":"4","last_reported":1726254420,"current_range_meters":12400,"station_id":"ce4bh492rcd13ifvqdug","pricing_plan_id":"cebpf4jnsgd1na2vs0mg"},{"bike_id":"a71ade37-705a-48c5-8693-8659689a5617","system_id":"levelo_inurba_marseille","lat":43.2418,"lon":5.3973,"is_reserved":false,"is_disabled":false,"rental_uris":{"android":"levelo://app?vid=a71ade37-705a-48c5-8693-8659689a5617","ios":"levelo://app?vid=a71ade37-705a-48c5-8693-8659689a5617"},"vehicle_type_id":"4","last_reported":1726254420,"current_range_meters":4400,"station_id":"ce4bhn12rcd13ifvqgpg","pricing_plan_id":"cebpf4jnsgd1na2vs0mg"},{"bike_id":"1e0cb707-37f4-437b-a483-a09bffeaf838","system_id":"levelo_inurba_marseille","lat":43.30241,"lon":5.40065,"is_reserved":false,"is_disabled":false,"rental_uris":{"android":"levelo://app?vid=1e0cb707-37f4-437b-a483-a09bffeaf838","ios":"levelo://app?vid=1e0cb707-37f4-437b-a483-a09bffeaf838"},"vehicle_type_id":"4","last_reported":1726254420,"current_range_meters":19200,"station_id":"ce4bgvh2rcd13ifvqcs0","pricing_plan_id":"cebpf4jnsgd1na2vs0mg"},{"bike_id":"67950061-e447-4497-b15e-bc5c5ee0128e","system_id":"levelo_inurba_marseille","lat":43.24802,"lon":5.37457,"is_reserved":false,"is_disabled":false,"rental_uris":{"android":"levelo://app?vid=67950061-e447-4497-b15e-bc5c5ee0128e","ios":"levelo://app?vid=67950061-e447-4497-b15e-bc5c5ee0128e"},"vehicle_type_id":"4","last_reported":1726254420,"current_range_meters":21600,"station_id":"ce4bhgh2rcd13ifvqfb0","pricing_plan_id":"cebpf4jnsgd1na2vs0mg"},{"bike_id":"1e9ab519-e28c-400f-aecb-cbc58f39def2","system_id":"levelo_inurba_marseille","lat":43.29779,"lon":5.379,"is_reserved":false,"is_disabled":false,"rental_uris":{"android":"levelo://app?vid=1e9ab519-e28c-400f-aecb-cbc58f39def2","ios":"levelo://app?vid=1e9ab519-e28c-400f-aecb-cbc58f39def2"},"vehicle_type_id":"4","last_reported":1726254420,"current_range_meters":7200,"station_id":"","pricing_plan_id":"cebpf4jnsgd1na2vs0mg"},{"bike_id":"b97eda22-15c7-466f-b437-b2991d8f73c2","system_id":"levelo_inurba_marseille","lat":43.239655,"lon":5.366294,"is_reserved":false,"is_disabled":false,"rental_uris":{"android":"levelo://app?vid=b97eda22-15c7-466f-b437-b2991d8f73c2","ios":"levelo://app?vid=b97eda22-15c7-466f-b437-b2991d8f73c2"},"vehicle_type_id":"4","last_reported":1726254420,"current_range_meters":36800,"station_id":"ce4bhg12rcd13ifvqf60","pricing_plan_id":"cebpf4jnsgd1na2vs0mg"},{"bike_id":"954d2b54-362e-442e-bcaa-d17939d90e2d","system_id":"levelo_inurba_marseille","lat":43.25495,"lon":5.37653,"is_reserved":false,"is_disabled":false,"rental_uris":{"android":"levelo://app?vid=954d2b54-362e-442e-bcaa-d17939d90e2d","ios":"levelo://app?vid=954d2b54-362e-442e-bcaa-d17939d90e2d"},"vehicle_type_id":"4","last_reported":1726254420,"current_range_meters":38800,"station_id":"ce4bhh12rcd13ifvqff0","pricing_plan_id":"cebpf4jnsgd1na2vs0mg"},{"bike_id":"82dec1e1-c024-4a59-b080-1ca526441f94","system_id":"levelo_inurba_marseille","lat":43.337612,"lon":5.374504,"is_reserved":false,"is_disabled":false,"rental_uris":{"android":"levelo://app?vid=82dec1e1-c024-4a59-b080-1ca526441f94","ios":"levelo://app?vid=82dec1e1-c024-4a59-b080-1ca526441f94"},"vehicle_type_id":"4","last_reported":1726254420,"current_range_meters":13600,"station_id":"","pricing_plan_id":"cebpf4jnsgd1na2vs0mg"},{"bike_id":"02269f0e-1758-473f-8a5c-764f1ddf9ddc","system_id":"levelo_inurba_marseille","lat":43.23177,"lon":5.39983,"is_reserved":false,"is_disabled":false,"rental_uris":{"android":"levelo://app?vid=02269f0e-1758-473f-8a5c-764f1ddf9ddc","ios":"levelo://app?vid=02269f0e-1758-473f-8a5c-764f1ddf9ddc"},"vehicle_type_id":"4","last_reported":1726254420,"current_range_meters":38800,"station_id":"ce4bhn12rcd13ifvqgqg","pricing_plan_id":"cebpf4jnsgd1na2vs0mg"},{"bike_id":"baf7d0fc-eae3-4f0c-99fc-59a5573e709f","system_id":"levelo_inurba_marseille","lat":43.29846,"lon":5.36284,"is_reserved":false,"is_disabled":false,"rental_uris":{"android":"levelo://app?vid=baf7d0fc-eae3-4f0c-99fc-59a5573e709f","ios":"levelo://app?vid=baf7d0fc-eae3-4f0c-99fc-59a5573e709f"},"vehicle_type_id":"4","last_reported":1726254420,"current_range_meters":38800,"station_id":"ce4bgpp2rcd13ifvqc3g","pricing_plan_id":"cebpf4jnsgd1na2vs0mg"},{"bike_id":"0da454dc-e0c8-4eee-9a5c-84354db24076","system_id":"levelo_inurba_marseille","lat":43.24387,"lon":5.37059,"is_reserved":false,"is_disabled":false,"rental_uris":{"android":"levelo://app?vid=0da454dc-e0c8-4eee-9a5c-84354db24076","ios":"levelo://app?vid=0da454dc-e0c8-4eee-9a5c-84354db24076"},"vehicle_type_id":"4","last_reported":1726254420,"current_range_meters":12800,"station_id":"ce4bhhh2rcd13ifvqfk0","pricing_plan_id":"cebpf4jnsgd1na2vs0mg"},{"bike_id":"6be21217-09c4-44c6-8934-8f8f3ca988ea","system_id":"levelo_inurba_marseille","lat":43.25501,"lon":5.3765,"is_reserved":false,"is_disabled":false,"rental_uris":{"android":"levelo://app?vid=6be21217-09c4-44c6-8934-8f8f3ca988ea","ios":"levelo://app?vid=6be21217-09c4-44c6-8934-8f8f3ca988ea"},"vehicle_type_id":"4","last_reported":1726254420,"current_range_meters":25600,"station_id":"ce4bhh12rcd13ifvqff0","pricing_plan_id":"cebpf4jnsgd1na2vs0mg"},{"bike_id":"ebd2561b-b262-494b-8f5c-e5c844db054a","system_id":"levelo_inurba_marseille","lat":43.32343,"lon":5.40619,"is_reserved":false,"is_disabled":false,"rental_uris":{"android":"levelo://app?vid=ebd2561b-b262-494b-8f5c-e5c844db054a","ios":"levelo://app?vid=ebd2561b-b262-494b-8f5c-e5c844db054a"},"vehicle_type_id":"4","last_reported":1726254420,"current_range_meters":19600,"station_id":"ce4bhq92rcd13ifvqhjg","pricing_plan_id":"cebpf4jnsgd1na2vs0mg"},{"bike_id":"1caeda5e-19d1-44cb-a2fa-31a7962a148b","system_id":"levelo_inurba_marseille","lat":43.30314,"lon":5.39463,"is_reserved":false,"is_disabled":false,"rental_uris":{"android":"levelo://app?vid=1caeda5e-19d1-44cb-a2fa-31a7962a148b","ios":"levelo://app?vid=1caeda5e-19d1-44cb-a2fa-31a7962a148b"},"vehicle_type_id":"4","last_reported":1726254420,"current_range_meters":29600,"station_id":"ce4bgvp2rcd13ifvqct0","pricing_plan_id":"cebpf4jnsgd1na2vs0mg"},{"bike_id":"5413406c-aeb5-467e-b210-01bb3a2a2d13","system_id":"levelo_inurba_marseille","lat":43.29271,"lon":5.40127,"is_reserved":false,"is_disabled":false,"rental_uris":{"android":"levelo://app?vid=5413406c-aeb5-467e-b210-01bb3a2a2d13","ios":"levelo://app?vid=5413406c-aeb5-467e-b210-01bb3a2a2d13"},"vehicle_type_id":"4","last_reported":1726254420,"current_range_meters":26000,"station_id":"ce4bh312rcd13ifvqdk0","pricing_plan_id":"cebpf4jnsgd1na2vs0mg"},{"bike_id":"5bcea731-d4da-414e-b204-cc827bfa12b3","system_id":"levelo_inurba_marseille","lat":43.27611,"lon":5.3612,"is_reserved":false,"is_disabled":false,"rental_uris":{"android":"levelo://app?vid=5bcea731-d4da-414e-b204-cc827bfa12b3","ios":"levelo://app?vid=5bcea731-d4da-414e-b204-cc827bfa12b3"},"vehicle_type_id":"4","last_reported":1726254420,"current_range_meters":22800,"station_id":"ce4bgj92rcd13ifvqbe0","pricing_plan_id":"cebpf4jnsgd1na2vs0mg"},{"bike_id":"87ee18d9-6125-4354-94a6-506e106cc304","system_id":"levelo_inurba_marseille","lat":43.298907,"lon":5.376327,"is_reserved":false,"is_disabled":false,"rental_uris":{"android":"levelo://app?vid=87ee18d9-6125-4354-94a6-506e106cc304","ios":"levelo://app?vid=87ee18d9-6125-4354-94a6-506e106cc304"},"vehicle_type_id":"4","last_reported":1726254420,"current_range_meters":24400,"station_id":"ce4bgjh2rcd13ifvqbg0","pricing_plan_id":"cebpf4jnsgd1na2vs0mg"},{"bike_id":"61e00977-be43-400f-99ea-3c33330f7657","system_id":"levelo_inurba_marseille","lat":43.2501,"lon":5.38916,"is_reserved":false,"is_disabled":false,"rental_uris":{"android":"levelo://app?vid=61e00977-be43-400f-99ea-3c33330f7657","ios":"levelo://app?vid=61e00977-be43-400f-99ea-3c33330f7657"},"vehicle_type_id":"4","last_reported":1726254420,"current_range_meters":24400,"station_id":"ce4bhgp2rcd13ifvqfd0","pricing_plan_id":"cebpf4jnsgd1na2vs0mg"},{"bike_id":"ef5d8c1a-3be3-4ef9-93bb-c72c374f83c9","system_id":"levelo_inurba_marseille","lat":43.241699,"lon":5.379377,"is_reserved":false,"is_disabled":false,"rental_uris":{"android":"levelo://app?vid=ef5d8c1a-3be3-4ef9-93bb-c72c374f83c9","ios":"levelo://app?vid=ef5d8c1a-3be3-4ef9-93bb-c72c374f83c9"},"vehicle_type_id":"4","last_reported":1726254420,"current_range_meters":9600,"station_id":"ce4bhg12rcd13ifvqf60","pricing_plan_id":"cebpf4jnsgd1na2vs0mg"},{"bike_id":"06dbf983-860f-4ca0-80be-c158afedb364","system_id":"levelo_inurba_marseille","lat":43.29702,"lon":5.36619,"is_reserved":false,"is_disabled":false,"rental_uris":{"android":"levelo://app?vid=06dbf983-860f-4ca0-80be-c158afedb364","ios":"levelo://app?vid=06dbf983-860f-4ca0-80be-c158afedb364"},"vehicle_type_id":"4","last_reported":1726254420,"current_range_meters":36800,"station_id":"ce4bgn12rcd13ifvqbt0","pricing_plan_id":"cebpf4jnsgd1na2vs0mg"},{"bike_id":"4b351185-a178-436b-acf4-30055d082eb1","system_id":"levelo_inurba_marseille","lat":43.29617,"lon":5.37723,"is_reserved":false,"is_disabled":false,"rental_uris":{"android":"levelo://app?vid=4b351185-a178-436b-acf4-30055d082eb1","ios":"levelo://app?vid=4b351185-a178-436b-acf4-30055d082eb1"},"vehicle_type_id":"4","last_reported":1726254420,"current_range_meters":32000,"station_id":"ce4bgi92rcd13ifvqb90","pricing_plan_id":"cebpf4jnsgd1na2vs0mg"},{"bike_id":"7cc5cc5c-b0d6-4d34-b5ca-8ffa2c1f3694","system_id":"levelo_inurba_marseille","lat":43.24806,"lon":5.37455,"is_reserved":false,"is_disabled":false,"rental_uris":{"android":"levelo://app?vid=7cc5cc5c-b0d6-4d34-b5ca-8ffa2c1f3694","ios":"levelo://app?vid=7cc5cc5c-b0d6-4d34-b5ca-8ffa2c1f3694"},"vehicle_type_id":"4","last_reported":1726254420,"current_range_meters":28400,"station_id":"ce4bhgh2rcd13ifvqfb0","pricing_plan_id":"cebpf4jnsgd1na2vs0mg"},{"bike_id":"1efa0142-2811-47a7-b1f6-f1df91f02ba2","system_id":"levelo_inurba_marseille","lat":43.30669,"lon":5.40028,"is_reserved":false,"is_disabled":false,"rental_uris":{"android":"levelo://app?vid=1efa0142-2811-47a7-b1f6-f1df91f02ba2","ios":"levelo://app?vid=1efa0142-2811-47a7-b1f6-f1df91f02ba2"},"vehicle_type_id":"4","last_reported":1726254420,"current_range_meters":35600,"station_id":"ce4bh112rcd13ifvqda0","pricing_plan_id":"cebpf4jnsgd1na2vs0mg"},{"bike_id":"53b42d85-4540-4823-ad02-683e5a9196a4","system_id":"levelo_inurba_marseille","lat":43.28465,"lon":5.38412,"is_reserved":false,"is_disabled":false,"rental_uris":{"android":"levelo://app?vid=53b42d85-4540-4823-ad02-683e5a9196a4","ios":"levelo://app?vid=53b42d85-4540-4823-ad02-683e5a9196a4"},"vehicle_type_id":"4","last_reported":1726254420,"current_range_meters":35600,"station_id":"ce4bh512rcd13ifvqe3g","pricing_plan_id":"cebpf4jnsgd1na2vs0mg"},{"bike_id":"3d93c408-cddf-4f0f-b742-56637f12ba3a","system_id":"levelo_inurba_marseille","lat":43.30245,"lon":5.40063,"is_reserved":false,"is_disabled":false,"rental_uris":{"android":"levelo://app?vid=3d93c408-cddf-4f0f-b742-56637f12ba3a","ios":"levelo://app?vid=3d93c408-cddf-4f0f-b742-56637f12ba3a"},"vehicle_type_id":"4","last_reported":1726254420,"current_range_meters":38800,"station_id":"ce4bgvh2rcd13ifvqcs0","pricing_plan_id":"cebpf4jnsgd1na2vs0mg"},{"bike_id":"1065b464-5bfd-446d-b6b9-8a9cdba0e5af","system_id":"levelo_inurba_marseille","lat":43.25082,"lon":5.39527,"is_reserved":false,"is_disabled":false,"rental_uris":{"android":"levelo://app?vid=1065b464-5bfd-446d-b6b9-8a9cdba0e5af","ios":"levelo://app?vid=1065b464-5bfd-446d-b6b9-8a9cdba0e5af"},"vehicle_type_id":"4","last_reported":1726254420,"current_range_meters":6000,"station_id":"ce4bhm12rcd13ifvqgkg","pricing_plan_id":"cebpf4jnsgd1na2vs0mg"},{"bike_id":"fe66cd3a-301b-4d90-9f73-a3e94adb07fa","system_id":"levelo_inurba_marseille","lat":43.29029,"lon":5.38648,"is_reserved":false,"is_disabled":false,"rental_uris":{"android":"levelo://app?vid=fe66cd3a-301b-4d90-9f73-a3e94adb07fa","ios":"levelo://app?vid=fe66cd3a-301b-4d90-9f73-a3e94adb07fa"},"vehicle_type_id":"4","last_reported":1726254420,"current_range_meters":38800,"station_id":"ce4bh4p2rcd13ifvqe0g","pricing_plan_id":"cebpf4jnsgd1na2vs0mg"},{"bike_id":"b2f15906-55f9-435e-8932-0ac1604929c5","system_id":"levelo_inurba_marseille","lat":43.23182,"lon":5.39982,"is_reserved":false,"is_disabled":false,"rental_uris":{"android":"levelo://app?vid=b2f15906-55f9-435e-8932-0ac1604929c5","ios":"levelo://app?vid=b2f15906-55f9-435e-8932-0ac1604929c5"},"vehicle_type_id":"4","last_reported":1726254420,"current_range_meters":9600,"station_id":"ce4bhn12rcd13ifvqgqg","pricing_plan_id":"cebpf4jnsgd1na2vs0mg"},{"bike_id":"f08e8560-6108-4436-aeb5-073b5d54fe67","system_id":"levelo_inurba_marseille","lat":43.29527,"lon":5.38538,"is_reserved":false,"is_disabled":false,"rental_uris":{"android":"levelo://app?vid=f08e8560-6108-4436-aeb5-073b5d54fe67","ios":"levelo://app?vid=f08e8560-6108-4436-aeb5-073b5d54fe67"},"vehicle_type_id":"4","last_reported":1726254420,"current_range_meters":32400,"station_id":"ce4bgih2rcd13ifvqba0","pricing_plan_id":"cebpf4jnsgd1na2vs0mg"},{"bike_id":"3b4631f1-0e73-4449-be64-c1cdece0b434","system_id":"levelo_inurba_marseille","lat":43.28269,"lon":5.35079,"is_reserved":false,"is_disabled":false,"rental_uris":{"android":"levelo://app?vid=3b4631f1-0e73-4449-be64-c1cdece0b434","ios":"levelo://app?vid=3b4631f1-0e73-4449-be64-c1cdece0b434"},"vehicle_type_id":"4","last_reported":1726254420,"current_range_meters":39200,"station_id":"ce4bhbp2rcd13ifvqerg","pricing_plan_id":"cebpf4jnsgd1na2vs0mg"},{"bike_id":"aef09fda-9467-42e2-98fc-34612831dc7c","system_id":"levelo_inurba_marseille","lat":43.25085,"lon":5.39522,"is_reserved":false,"is_disabled":false,"rental_uris":{"android":"levelo://app?vid=aef09fda-9467-42e2-98fc-34612831dc7c","ios":"levelo://app?vid=aef09fda-9467-42e2-98fc-34612831dc7c"},"vehicle_type_id":"4","last_reported":1726254420,"current_range_meters":38800,"station_id":"ce4bhm12rcd13ifvqgkg","pricing_plan_id":"cebpf4jnsgd1na2vs0mg"},{"bike_id":"6ccf878d-505b-4dc0-9ec4-ad53786d9c2a","system_id":"levelo_inurba_marseille","lat":43.29523,"lon":5.39023,"is_reserved":false,"is_disabled":false,"rental_uris":{"android":"levelo://app?vid=6ccf878d-505b-4dc0-9ec4-ad53786d9c2a","ios":"levelo://app?vid=6ccf878d-505b-4dc0-9ec4-ad53786d9c2a"},"vehicle_type_id":"4","last_reported":1726254420,"current_range_meters":4800,"station_id":"ce4bh3p2rcd13ifvqdp0","pricing_plan_id":"cebpf4jnsgd1na2vs0mg"},{"bike_id":"b8ead6d4-a0dd-4799-804e-c1c5606e4feb","system_id":"levelo_inurba_marseille","lat":43.29005,"lon":5.35613,"is_reserved":false,"is_disabled":false,"rental_uris":{"android":"levelo://app?vid=b8ead6d4-a0dd-4799-804e-c1c5606e4feb","ios":"levelo://app?vid=b8ead6d4-a0dd-4799-804e-c1c5606e4feb"},"vehicle_type_id":"4","last_reported":1726254420,"current_range_meters":18000,"station_id":"ce4bhb92rcd13ifvqen0","pricing_plan_id":"cebpf4jnsgd1na2vs0mg"},{"bike_id":"1d004851-c08b-4a01-aec6-6340c8507935","system_id":"levelo_inurba_marseille","lat":43.24178,"lon":5.39736,"is_reserved":false,"is_disabled":false,"rental_uris":{"android":"levelo://app?vid=1d004851-c08b-4a01-aec6-6340c8507935","ios":"levelo://app?vid=1d004851-c08b-4a01-aec6-6340c8507935"},"vehicle_type_id":"4","last_reported":1726254420,"current_range_meters":32000,"station_id":"ce4bhn12rcd13ifvqgpg","pricing_plan_id":"cebpf4jnsgd1na2vs0mg"},{"bike_id":"f20f613d-77b3-4abc-847d-4abd98073b48","system_id":"levelo_inurba_marseille","lat":43.28612,"lon":5.35105,"is_reserved":false,"is_disabled":false,"rental_uris":{"android":"levelo://app?vid=f20f613d-77b3-4abc-847d-4abd98073b48","ios":"levelo://app?vid=f20f613d-77b3-4abc-847d-4abd98073b48"},"vehicle_type_id":"4","last_reported":1726254420,"current_range_meters":30000,"station_id":"ce4bhch2rcd13ifvqeug","pricing_plan_id":"cebpf4jnsgd1na2vs0mg"},{"bike_id":"5bc29e56-9bf1-4dfd-a88e-21318c7496b4","system_id":"levelo_inurba_marseille","lat":43.28699,"lon":5.39987,"is_reserved":false,"is_disabled":false,"rental_uris":{"android":"levelo://app?vid=5bc29e56-9bf1-4dfd-a88e-21318c7496b4","ios":"levelo://app?vid=5bc29e56-9bf1-4dfd-a88e-21318c7496b4"},"vehicle_type_id":"4","last_reported":1726254420,"current_range_meters":33600,"station_id":"ce4bho92rcd13ifvqh3g","pricing_plan_id":"cebpf4jnsgd1na2vs0mg"},{"bike_id":"aa9b05bb-96ab-4a82-b6b5-c85b38ce4a80","system_id":"levelo_inurba_marseille","lat":43.29417,"lon":5.38633,"is_reserved":false,"is_disabled":false,"rental_uris":{"android":"levelo://app?vid=aa9b05bb-96ab-4a82-b6b5-c85b38ce4a80","ios":"levelo://app?vid=aa9b05bb-96ab-4a82-b6b5-c85b38ce4a80"},"vehicle_type_id":"4","last_reported":1726254420,"current_range_meters":38400,"station_id":"ce4bh2h2rcd13ifvqdh0","pricing_plan_id":"cebpf4jnsgd1na2vs0mg"},{"bike_id":"d6d70363-1091-4af3-b93f-557d0727422e","system_id":"levelo_inurba_marseille","lat":43.29786,"lon":5.37101,"is_reserved":false,"is_disabled":false,"rental_uris":{"android":"levelo://app?vid=d6d70363-1091-4af3-b93f-557d0727422e","ios":"levelo://app?vid=d6d70363-1091-4af3-b93f-557d0727422e"},"vehicle_type_id":"4","last_reported":1726254420,"current_range_meters":30800,"station_id":"ce4bgop2rcd13ifvqc1g","pricing_plan_id":"cebpf4jnsgd1na2vs0mg"},{"bike_id":"e2a9ef80-b0c6-4e8a-a032-3e6634094c93","system_id":"levelo_inurba_marseille","lat":43.28615,"lon":5.35099,"is_reserved":false,"is_disabled":false,"rental_uris":{"android":"levelo://app?vid=e2a9ef80-b0c6-4e8a-a032-3e6634094c93","ios":"levelo://app?vid=e2a9ef80-b0c6-4e8a-a032-3e6634094c93"},"vehicle_type_id":"4","last_reported":1726254420,"current_range_meters":2800,"station_id":"ce4bhch2rcd13ifvqeug","pricing_plan_id":"cebpf4jnsgd1na2vs0mg"},{"bike_id":"22ae15f7-a070-49bf-acc2-990913c19bdc","system_id":"levelo_inurba_marseille","lat":43.290366,"lon":5.38641,"is_reserved":false,"is_disabled":false,"rental_uris":{"android":"levelo://app?vid=22ae15f7-a070-49bf-acc2-990913c19bdc","ios":"levelo://app?vid=22ae15f7-a070-49bf-acc2-990913c19bdc"},"vehicle_type_id":"4","last_reported":1726254420,"current_range_meters":18000,"station_id":"ce4bh4p2rcd13ifvqe0g","pricing_plan_id":"cebpf4jnsgd1na2vs0mg"},{"bike_id":"056c3c33-df71-4e67-84ba-1605099ee1bb","system_id":"levelo_inurba_marseille","lat":43.26563,"lon":5.39013,"is_reserved":false,"is_disabled":false,"rental_uris":{"android":"levelo://app?vid=056c3c33-df71-4e67-84ba-1605099ee1bb","ios":"levelo://app?vid=056c3c33-df71-4e67-84ba-1605099ee1bb"},"vehicle_type_id":"4","last_reported":1726254420,"current_range_meters":34800,"station_id":"ce4bhe12rcd13ifvqf30","pricing_plan_id":"cebpf4jnsgd1na2vs0mg"},{"bike_id":"5c5e1c08-2aec-4a53-a211-9bc6d6604668","system_id":"levelo_inurba_marseille","lat":43.26194,"lon":5.37454,"is_reserved":false,"is_disabled":false,"rental_uris":{"android":"levelo://app?vid=5c5e1c08-2aec-4a53-a211-9bc6d6604668","ios":"levelo://app?vid=5c5e1c08-2aec-4a53-a211-9bc6d6604668"},"vehicle_type_id":"4","last_reported":1726254420,"current_range_meters":31200,"station_id":"ce4bhgp2rcd13ifvqfc0","pricing_plan_id":"cebpf4jnsgd1na2vs0mg"},{"bike_id":"22111152-b310-4249-b4df-b0c7af273cef","system_id":"levelo_inurba_marseille","lat":43.24807,"lon":5.37455,"is_reserved":false,"is_disabled":false,"rental_uris":{"android":"levelo://app?vid=22111152-b310-4249-b4df-b0c7af273cef","ios":"levelo://app?vid=22111152-b310-4249-b4df-b0c7af273cef"},"vehicle_type_id":"4","last_reported":1726254420,"current_range_meters":19200,"station_id":"ce4bhgh2rcd13ifvqfb0","pricing_plan_id":"cebpf4jnsgd1na2vs0mg"},{"bike_id":"359888e5-322d-4e9e-826e-35fea099c3c7","system_id":"levelo_inurba_marseille","lat":43.27981,"lon":5.40007,"is_reserved":false,"is_disabled":false,"rental_uris":{"android":"levelo://app?vid=359888e5-322d-4e9e-826e-35fea099c3c7","ios":"levelo://app?vid=359888e5-322d-4e9e-826e-35fea099c3c7"},"vehicle_type_id":"4","last_reported":1726254420,"current_range_meters":28800,"station_id":"ce4bhl92rcd13ifvqghg","pricing_plan_id":"cebpf4jnsgd1na2vs0mg"},{"bike_id":"2d13a83e-b7e8-4fd3-af9f-5eb372b813b4","system_id":"levelo_inurba_marseille","lat":43.26208,"lon":5.37443,"is_reserved":false,"is_disabled":false,"rental_uris":{"android":"levelo://app?vid=2d13a83e-b7e8-4fd3-af9f-5eb372b813b4","ios":"levelo://app?vid=2d13a83e-b7e8-4fd3-af9f-5eb372b813b4"},"vehicle_type_id":"4","last_reported":1726254420,"current_range_meters":20000,"station_id":"ce4bhgp2rcd13ifvqfc0","pricing_plan_id":"cebpf4jnsgd1na2vs0mg"},{"bike_id":"da1c08a2-1464-4f1c-9ae8-cdf52d30514d","system_id":"levelo_inurba_marseille","lat":43.30321,"lon":5.404401,"is_reserved":false,"is_disabled":false,"rental_uris":{"android":"levelo://app?vid=da1c08a2-1464-4f1c-9ae8-cdf52d30514d","ios":"levelo://app?vid=da1c08a2-1464-4f1c-9ae8-cdf52d30514d"},"vehicle_type_id":"4","last_reported":1726254420,"current_range_meters":14400,"station_id":"ce4bh012rcd13ifvqd10","pricing_plan_id":"cebpf4jnsgd1na2vs0mg"},{"bike_id":"600c1028-55f0-40ed-9003-e8760819c224","system_id":"levelo_inurba_marseille","lat":43.29059,"lon":5.37176,"is_reserved":false,"is_disabled":false,"rental_uris":{"android":"levelo://app?vid=600c1028-55f0-40ed-9003-e8760819c224","ios":"levelo://app?vid=600c1028-55f0-40ed-9003-e8760819c224"},"vehicle_type_id":"4","last_reported":1726254420,"current_range_meters":14000,"station_id":"ce4bh5p2rcd13ifvqe4g","pricing_plan_id":"cebpf4jnsgd1na2vs0mg"},{"bike_id":"d6e5885c-2cfb-46d8-95a2-be88009a1e57","system_id":"levelo_inurba_marseille","lat":43.241394,"lon":5.378931,"is_reserved":false,"is_disabled":false,"rental_uris":{"android":"levelo://app?vid=d6e5885c-2cfb-46d8-95a2-be88009a1e57","ios":"levelo://app?vid=d6e5885c-2cfb-46d8-95a2-be88009a1e57"},"vehicle_type_id":"4","last_reported":1726254420,"current_range_meters":6800,"station_id":"ce4bhnp2rcd13ifvqgvg","pricing_plan_id":"cebpf4jnsgd1na2vs0mg"},{"bike_id":"0ce9d47b-9014-4941-b0d2-f63159d4efed","system_id":"levelo_inurba_marseille","lat":43.317122,"lon":5.437078,"is_reserved":false,"is_disabled":false,"rental_uris":{"android":"levelo://app?vid=0ce9d47b-9014-4941-b0d2-f63159d4efed","ios":"levelo://app?vid=0ce9d47b-9014-4941-b0d2-f63159d4efed"},"vehicle_type_id":"4","last_reported":1726254420,"current_range_meters":17600,"station_id":"ce4bhp92rcd13ifvqhcg","pricing_plan_id":"cebpf4jnsgd1na2vs0mg"},{"bike_id":"f21f4d5f-d66c-43c6-b1a2-62c2c4c6f543","system_id":"levelo_inurba_marseille","lat":43.2953,"lon":5.38546,"is_reserved":false,"is_disabled":false,"rental_uris":{"android":"levelo://app?vid=f21f4d5f-d66c-43c6-b1a2-62c2c4c6f543","ios":"levelo://app?vid=f21f4d5f-d66c-43c6-b1a2-62c2c4c6f543"},"vehicle_type_id":"4","last_reported":1726254420,"current_range_meters":34000,"station_id":"ce4bgih2rcd13ifvqba0","pricing_plan_id":"cebpf4jnsgd1na2vs0mg"},{"bike_id":"f400d370-a20e-4ced-86f0-64f62510749c","system_id":"levelo_inurba_marseille","lat":43.3237,"lon":5.38926,"is_reserved":false,"is_disabled":false,"rental_uris":{"android":"levelo://app?vid=f400d370-a20e-4ced-86f0-64f62510749c","ios":"levelo://app?vid=f400d370-a20e-4ced-86f0-64f62510749c"},"vehicle_type_id":"4","last_reported":1726254420,"current_range_meters":3600,"station_id":"","pricing_plan_id":"cebpf4jnsgd1na2vs0mg"},{"bike_id":"8578940c-55cb-4da5-a5e8-95031a7a0872","system_id":"levelo_inurba_marseille","lat":43.25852,"lon":5.3991,"is_reserved":false,"is_disabled":false,"rental_uris":{"android":"levelo://app?vid=8578940c-55cb-4da5-a5e8-95031a7a0872","ios":"levelo://app?vid=8578940c-55cb-4da5-a5e8-95031a7a0872"},"vehicle_type_id":"4","last_reported":1726254420,"current_range_meters":34800,"station_id":"ce4bhl92rcd13ifvqghg","pricing_plan_id":"cebpf4jnsgd1na2vs0mg"},{"bike_id":"29cde858-91d6-4fe7-8095-73bb300eeeb0","system_id":"levelo_inurba_marseille","lat":43.3176,"lon":5.39029,"is_reserved":false,"is_disabled":false,"rental_uris":{"android":"levelo://app?vid=29cde858-91d6-4fe7-8095-73bb300eeeb0","ios":"levelo://app?vid=29cde858-91d6-4fe7-8095-73bb300eeeb0"},"vehicle_type_id":"4","last_reported":1726254420,"current_range_meters":30000,"station_id":"ce4bhqp2rcd13ifvqhng","pricing_plan_id":"cebpf4jnsgd1na2vs0mg"},{"bike_id":"d1245834-d20d-4584-b179-2d726be4bae1","system_id":"levelo_inurba_marseille","lat":43.2504,"lon":5.38203,"is_reserved":false,"is_disabled":false,"rental_uris":{"android":"levelo://app?vid=d1245834-d20d-4584-b179-2d726be4bae1","ios":"levelo://app?vid=d1245834-d20d-4584-b179-2d726be4bae1"},"vehicle_type_id":"4","last_reported":1726254420,"current_range_meters":26800,"station_id":"ce4bhnp2rcd13ifvqgvg","pricing_plan_id":"cebpf4jnsgd1na2vs0mg"},{"bike_id":"2d245df7-48c5-41a1-9011-b27281ffc8f8","system_id":"levelo_inurba_marseille","lat":43.25574,"lon":5.38232,"is_reserved":false,"is_disabled":false,"rental_uris":{"android":"levelo://app?vid=2d245df7-48c5-41a1-9011-b27281ffc8f8","ios":"levelo://app?vid=2d245df7-48c5-41a1-9011-b27281ffc8f8"},"vehicle_type_id":"4","last_reported":1726254420,"current_range_meters":8000,"station_id":"ce4bhih2rcd13ifvqfs0","pricing_plan_id":"cebpf4jnsgd1na2vs0mg"},{"bike_id":"10bb5cd3-d16b-41e0-8328-fccbbdfadddb","system_id":"levelo_inurba_marseille","lat":43.25085,"lon":5.39522,"is_reserved":false,"is_disabled":false,"rental_uris":{"android":"levelo://app?vid=10bb5cd3-d16b-41e0-8328-fccbbdfadddb","ios":"levelo://app?vid=10bb5cd3-d16b-41e0-8328-fccbbdfadddb"},"vehicle_type_id":"4","last_reported":1726254420,"current_range_meters":6800,"station_id":"ce4bhm12rcd13ifvqgkg","pricing_plan_id":"cebpf4jnsgd1na2vs0mg"},{"bike_id":"fc61066f-06d8-4a2f-adcf-8c083d39053f","system_id":"levelo_inurba_marseille","lat":43.25579,"lon":5.38239,"is_reserved":false,"is_disabled":false,"rental_uris":{"android":"levelo://app?vid=fc61066f-06d8-4a2f-adcf-8c083d39053f","ios":"levelo://app?vid=fc61066f-06d8-4a2f-adcf-8c083d39053f"},"vehicle_type_id":"4","last_reported":1726254420,"current_range_meters":12000,"station_id":"ce4bhih2rcd13ifvqfs0","pricing_plan_id":"cebpf4jnsgd1na2vs0mg"},{"bike_id":"fed0308d-2ed9-473f-a2c3-2cae7a57050b","system_id":"levelo_inurba_marseille","lat":43.28665,"lon":5.36364,"is_reserved":false,"is_disabled":false,"rental_uris":{"android":"levelo://app?vid=fed0308d-2ed9-473f-a2c3-2cae7a57050b","ios":"levelo://app?vid=fed0308d-2ed9-473f-a2c3-2cae7a57050b"},"vehicle_type_id":"4","last_reported":1726254420,"current_range_meters":3200,"station_id":"ce4bhah2rcd13ifvqej0","pricing_plan_id":"cebpf4jnsgd1na2vs0mg"},{"bike_id":"328d45f9-980e-4811-97c0-47d761861509","system_id":"levelo_inurba_marseille","lat":43.29847,"lon":5.37836,"is_reserved":false,"is_disabled":false,"rental_uris":{"android":"levelo://app?vid=328d45f9-980e-4811-97c0-47d761861509","ios":"levelo://app?vid=328d45f9-980e-4811-97c0-47d761861509"},"vehicle_type_id":"4","last_reported":1726254420,"current_range_meters":36400,"station_id":"ce4bgkh2rcd13ifvqbl0","pricing_plan_id":"cebpf4jnsgd1na2vs0mg"},{"bike_id":"5c13438f-f574-4162-93d6-39ab198752d5","system_id":"levelo_inurba_marseille","lat":43.30528,"lon":5.36717,"is_reserved":false,"is_disabled":false,"rental_uris":{"android":"levelo://app?vid=5c13438f-f574-4162-93d6-39ab198752d5","ios":"levelo://app?vid=5c13438f-f574-4162-93d6-39ab198752d5"},"vehicle_type_id":"4","last_reported":1726254420,"current_range_meters":19600,"station_id":"ce4bgrp2rcd13ifvqc9g","pricing_plan_id":"cebpf4jnsgd1na2vs0mg"},{"bike_id":"84bddeb8-7a87-4aaf-9b57-552d83f8d72f","system_id":"levelo_inurba_marseille","lat":43.258636,"lon":5.398943,"is_reserved":false,"is_disabled":false,"rental_uris":{"android":"levelo://app?vid=84bddeb8-7a87-4aaf-9b57-552d83f8d72f","ios":"levelo://app?vid=84bddeb8-7a87-4aaf-9b57-552d83f8d72f"},"vehicle_type_id":"4","last_reported":1726254420,"current_range_meters":34000,"station_id":"ce4bhl92rcd13ifvqghg","pricing_plan_id":"cebpf4jnsgd1na2vs0mg"},{"bike_id":"08af7560-af1c-4280-9213-6cf3c8b0b6f1","system_id":"levelo_inurba_marseille","lat":43.29264,"lon":5.38447,"is_reserved":false,"is_disabled":false,"rental_uris":{"android":"levelo://app?vid=08af7560-af1c-4280-9213-6cf3c8b0b6f1","ios":"levelo://app?vid=08af7560-af1c-4280-9213-6cf3c8b0b6f1"},"vehicle_type_id":"4","last_reported":1726254420,"current_range_meters":16800,"station_id":"ce4bh692rcd13ifvqea0","pricing_plan_id":"cebpf4jnsgd1na2vs0mg"},{"bike_id":"63b79cae-8738-43b3-8da9-ab7ada18a6bc","system_id":"levelo_inurba_marseille","lat":43.31359,"lon":5.38503,"is_reserved":false,"is_disabled":false,"rental_uris":{"android":"levelo://app?vid=63b79cae-8738-43b3-8da9-ab7ada18a6bc","ios":"levelo://app?vid=63b79cae-8738-43b3-8da9-ab7ada18a6bc"},"vehicle_type_id":"4","last_reported":1726254420,"current_range_meters":14000,"station_id":"ce4bgt92rcd13ifvqcf0","pricing_plan_id":"cebpf4jnsgd1na2vs0mg"},{"bike_id":"3aaf23df-ab45-4cad-bb64-d814895b7209","system_id":"levelo_inurba_marseille","lat":43.28442,"lon":5.392075,"is_reserved":false,"is_disabled":false,"rental_uris":{"android":"levelo://app?vid=3aaf23df-ab45-4cad-bb64-d814895b7209","ios":"levelo://app?vid=3aaf23df-ab45-4cad-bb64-d814895b7209"},"vehicle_type_id":"4","last_reported":1726254420,"current_range_meters":12800,"station_id":"ce4bhoh2rcd13ifvqh5g","pricing_plan_id":"cebpf4jnsgd1na2vs0mg"},