{"last_updated":1680278843,"ttl":30,"version":"2.2","data":{"bikes":[{"bike_id":"e67c2b61-1121-4b34-8785-70d916645382","system_id":"levelo_inurba_marseille","lat":43.312239,"lon":5.368562,"is_reserved":false,"is_disabled":false,"rental_uris":{"android":"levelo://app?vid=e67c2b61-1121-4b34-8785-70d916645382","ios":"levelo://app?vid=e67c2b61-1121-4b34-8785-70d916645382"},"vehicle_type_id":"4","last_reported":1680278844,"current_range_meters":0,"station_id":"ce4bgl92rcd13ifvqbq0","pricing_plan_id":"free"},{"bike_id":"34701db3-6164-4deb-983e-37a96c232033","system_id":"levelo_inurba_marseille","lat":43.31229,"lon":5.37196,"is_reserved":false,"is_disabled":false,"rental_uris":{"android":"levelo://app?vid=34701db3-6164-4deb-983e-37a96c232033","ios":"levelo://app?vid=34701db3-6164-4deb-983e-37a96c232033"},"vehicle_type_id":"4","last_reported":1680278844,"current_range_meters":12800,"station_id":"ce4bgkp2rcd13ifvqbmg","pricing_plan_id":"free"},{"bike_id":"e6a2172f-14a9-42c8-9d8c-9cc4bf2ff5fe","system_id":"levelo_inurba_marseille","lat":43.30918,"lon":5.36839,"is_reserved":false,"is_disabled":false,"rental_uris":{"android":"levelo://app?vid=e6a2172f-14a9-42c8-9d8c-9cc4bf2ff5fe","ios":"levelo://app?vid=e6a2172f-14a9-42c8-9d8c-9cc4bf2ff5fe"},"vehicle_type_id":"4","last_reported":1680278844,"current_range_meters":0,"station_id":"","pricing_plan_id":"free"},{"bike_id":"b7fd71f1-c2c5-4cf8-81b8-142ae8fe673f","system_id":"levelo_inurba_marseille","lat":43.3149,"lon":5.37313,"is_reserved":false,"is_disabled":false,"rental_uris":{"android":"levelo://app?vid=b7fd71f1-c2c5-4cf8-81b8-142ae8fe673f","ios":"levelo://app?vid=b7fd71f1-c2c5-4cf8-81b8-142ae8fe673f"},"vehicle_type_id":"4","last_reported":1680278844,"current_range_meters":9600,"station_id":"","pricing_plan_id":"free"},{"bike_id":"3860ff0c-7e67-4b43-bd6e-1e8df4de4f74","system_id":"levelo_inurba_marseille","lat":43.30883,"lon":5.37197,"is_reserved":false,"is_disabled":false,"rental_uris":{"android":"levelo://app?vid=3860ff0c-7e67-4b43-bd6e-1e8df4de4f74","ios":"levelo://app?vid=3860ff0c-7e67-4b43-bd6e-1e8df4de4f74"},"vehicle_type_id":"4","last_reported":1680278844,"current_range_meters":0,"station_id":"","pricing_plan_id":"free"},{"bike_id":"fa514e8c-c62c-41fa-a857-d8f726d2cccd","system_id":"levelo_inurba_marseille","lat":43.3098,"lon":5.3733,"is_reserved":false,"is_disabled":false,"rental_uris":{"android":"levelo://app?vid=fa514e8c-c62c-41fa-a857-d8f726d2cccd","ios":"levelo://app?vid=fa514e8c-c62c-41fa-a857-d8f726d2cccd"},"vehicle_type_id":"4","last_reported":1680278844,"current_range_meters":0,"station_id":"","pricing_plan_id":"free"},{"bike_id":"56c5f70c-ecbf-4481-af11-8bfa1fa25165","system_id":"levelo_inurba_marseille","lat":43.30545,"lon":5.3671,"is_reserved":false,"is_disabled":false,"rental_uris":{"android":"levelo://app?vid=56c5f70c-ecbf-4481-af11-8bfa1fa25165","ios":"levelo://app?vid=56c5f70c-ecbf-4481-af11-8bfa1fa25165"},"vehicle_type_id":"4","last_reported":1680278844,"current_range_meters":0,"station_id":"ce4bgrp2rcd13ifvqc9g","pricing_plan_id":"free"},{"bike_id":"2c4723ad-812f-4476-b3b2-6b0268942fa9","system_id":"levelo_inurba_marseille","lat":43.30541,"lon":5.36707,"is_reserved":false,"is_disabled":false,"rental_uris":{"android":"levelo://app?vid=2c4723ad-812f-4476-b3b2-6b0268942fa9","ios":"levelo://app?vid=2c4723ad-812f-4476-b3b2-6b0268942fa9"},"vehicle_type_id":"4","last_reported":1680278844,"current_range_meters":0,"station_id":"ce4bgrp2rcd13ifvqc9g","pricing_plan_id":"free"},{"bike_id":"423b68d2-aac3-4372-a357-cd48b89e95b7","system_id":"levelo_inurba_marseille","lat":43.31139,"lon":5.37865,"is_reserved":false,"is_disabled":false,"rental_uris":{"android":"levelo://app?vid=423b68d2-aac3-4372-a357-cd48b89e95b7","ios":"levelo://app?vid=423b68d2-aac3-4372-a357-cd48b89e95b7"},"vehicle_type_id":"4","last_reported":1680278844,"current_range_meters":4800,"station_id":"","pricing_plan_id":"free"},{"bike_id":"59d165a4-5ff2-4db0-94a3-77588dadb036","system_id":"levelo_inurba_marseille","lat":43.317075,"lon":5.377367,"is_reserved":false,"is_disabled":false,"rental_uris":{"android":"levelo://app?vid=59d165a4-5ff2-4db0-94a3-77588dadb036","ios":"levelo://app?vid=59d165a4-5ff2-4db0-94a3-77588dadb036"},"vehicle_type_id":"4","last_reported":1680278844,"current_range_meters":13200,"station_id":"ce4bgth2rcd13ifvqch0","pricing_plan_id":"free"},{"bike_id":"374099e4-0f78-4f39-bb7d-bebecb13a6d2","system_id":"levelo_inurba_marseille","lat":43.31535,"lon":5.38037,"is_reserved":false,"is_disabled":false,"rental_uris":{"android":"levelo://app?vid=374099e4-0f78-4f39-bb7d-bebecb13a6d2","ios":"levelo://app?vid=374099e4-0f78-4f39-bb7d-bebecb13a6d2"},"vehicle_type_id":"4","last_reported":1680278844,"current_range_meters":19600,"station_id":"","pricing_plan_id":"free"},{"bike_id":"231ffd11-267d-416d-95c2-38542405cd2c","system_id":"levelo_inurba_marseille","lat":43.301939,"lon":5.366286,"is_reserved":false,"is_disabled":false,"rental_uris":{"android":"levelo://app?vid=231ffd11-267d-416d-95c2-38542405cd2c","ios":"levelo://app?vid=231ffd11-267d-416d-95c2-38542405cd2c"},"vehicle_type_id":"4","last_reported":1680278844,"current_range_meters":0,"station_id":"ce4bgrh2rcd13ifvqc8g","pricing_plan_id":"free"},{"bike_id":"d034e524-5147-4ec7-92fb-8f01b21e5df5","system_id":"levelo_inurba_marseille","lat":43.31369,"lon":5.38368,"is_reserved":false,"is_disabled":false,"rental_uris":{"android":"levelo://app?vid=d034e524-5147-4ec7-92fb-8f01b21e5df5","ios":"levelo://app?vid=d034e524-5147-4ec7-92fb-8f01b21e5df5"},"vehicle_type_id":"4","last_reported":1680278844,"current_range_meters":21600,"station_id":"","pricing_plan_id":"free"},{"bike_id":"8421d5e1-9055-4e47-8397-a3f47a1e6d62","system_id":"levelo_inurba_marseille","lat":43.30143,"lon":5.37413,"is_reserved":false,"is_disabled":false,"rental_uris":{"android":"levelo://app?vid=8421d5e1-9055-4e47-8397-a3f47a1e6d62","ios":"levelo://app?vid=8421d5e1-9055-4e47-8397-a3f47a1e6d62"},"vehicle_type_id":"4","last_reported":1680278844,"current_range_meters":0,"station_id":"ce4bgs92rcd13ifvqcc0","pricing_plan_id":"free"},{"bike_id":"813465e8-446f-43dd-9081-04c1313a2495","system_id":"levelo_inurba_marseille","lat":43.31326,"lon":5.38458,"is_reserved":false,"is_disabled":false,"rental_uris":{"android":"levelo://app?vid=813465e8-446f-43dd-9081-04c1313a2495","ios":"levelo://app?vid=813465e8-446f-43dd-9081-04c1313a2495"},"vehicle_type_id":"4","last_reported":1680278844,"current_range_meters":400,"station_id":"","pricing_plan_id":"free"},{"bike_id":"7a794370-35d6-41e9-9293-c77b5575230d","system_id":"levelo_inurba_marseille","lat":43.30004,"lon":5.37471,"is_reserved":false,"is_disabled":false,"rental_uris":{"android":"levelo://app?vid=7a794370-35d6-41e9-9293-c77b5575230d","ios":"levelo://app?vid=7a794370-35d6-41e9-9293-c77b5575230d"},"vehicle_type_id":"4","last_reported":1680278844,"current_range_meters":30000,"station_id":"","pricing_plan_id":"free"},{"bike_id":"eedc73a1-183f-4a11-80ad-e8c70b564971","system_id":"levelo_inurba_marseille","lat":43.31327,"lon":5.38662,"is_reserved":false,"is_disabled":false,"rental_uris":{"android":"levelo://app?vid=eedc73a1-183f-4a11-80ad-e8c70b564971","ios":"levelo://app?vid=eedc73a1-183f-4a11-80ad-e8c70b564971"},"vehicle_type_id":"4","last_reported":1680278844,"current_range_meters":10400,"station_id":"","pricing_plan_id":"free"},{"bike_id":"7525fab8-6710-4039-a676-23925e09ce8e","system_id":"levelo_inurba_marseille","lat":43.31322,"lon":5.38711,"is_reserved":false,"is_disabled":false,"rental_uris":{"android":"levelo://app?vid=7525fab8-6710-4039-a676-23925e09ce8e","ios":"levelo://app?vid=7525fab8-6710-4039-a676-23925e09ce8e"},"vehicle_type_id":"4","last_reported":1680278844,"current_range_meters":16800,"station_id":"","pricing_plan_id":"free"},{"bike_id":"d6435f26-b598-41b9-ab78-fe978b0c132b","system_id":"levelo_inurba_marseille","lat":43.311722,"lon":5.387247,"is_reserved":false,"is_disabled":false,"rental_uris":{"android":"levelo://app?vid=d6435f26-b598-41b9-ab78-fe978b0c132b","ios":"levelo://app?vid=d6435f26-b598-41b9-ab78-fe978b0c132b"},"vehicle_type_id":"4","last_reported":1680278844,"current_range_meters":3200,"station_id":"ce4bgv12rcd13ifvqcp0","pricing_plan_id":"free"},{"bike_id":"771ff514-ab8a-42b5-9a6d-389d16c5f3c0","system_id":"levelo_inurba_marseille","lat":43.32828,"lon":5.36691,"is_reserved":false,"is_disabled":false,"rental_uris":{"android":"levelo://app?vid=771ff514-ab8a-42b5-9a6d-389d16c5f3c0","ios":"levelo://app?vid=771ff514-ab8a-42b5-9a6d-389d16c5f3c0"},"vehicle_type_id":"4","last_reported":1680278844,"current_range_meters":0,"station_id":"ce4bhs92rcd13ifvqi0g","pricing_plan_id":"free"},{"bike_id":"326accb6-196c-45be-9cc9-99860d002cb6","system_id":"levelo_inurba_marseille","lat":43.3283,"lon":5.36691,"is_reserved":false,"is_disabled":false,"rental_uris":{"android":"levelo://app?vid=326accb6-196c-45be-9cc9-99860d002cb6","ios":"levelo://app?vid=326accb6-196c-45be-9cc9-99860d002cb6"},"vehicle_type_id":"4","last_reported":1680278844,"current_range_meters":0,"station_id":"ce4bhs92rcd13ifvqi0g","pricing_plan_id":"free"},{"bike_id":"a074b877-bdef-444c-a7ec-a6c38afc5ecb","system_id":"levelo_inurba_marseille","lat":43.32831,"lon":5.36695,"is_reserved":false,"is_disabled":false,"rental_uris":{"android":"levelo://app?vid=a074b877-bdef-444c-a7ec-a6c38afc5ecb","ios":"levelo://app?vid=a074b877-bdef-444c-a7ec-a6c38afc5ecb"},"vehicle_type_id":"4","last_reported":1680278844,"current_range_meters":20800,"station_id":"ce4bhs92rcd13ifvqi0g","pricing_plan_id":"free"},{"bike_id":"3413f084-7717-4859-bc32-00392f848266","system_id":"levelo_inurba_marseille","lat":43.328371,"lon":5.366912,"is_reserved":false,"is_disabled":false,"rental_uris":{"android":"levelo://app?vid=3413f084-7717-4859-bc32-00392f848266","ios":"levelo://app?vid=3413f084-7717-4859-bc32-00392f848266"},"vehicle_type_id":"4","last_reported":1680278844,"current_range_meters":27200,"station_id":"ce4bhs92rcd13ifvqi0g","pricing_plan_id":"free"},{"bike_id":"fca29818-5362-4b61-81ca-1e48976775f1","system_id":"levelo_inurba_marseille","lat":43.31624,"lon":5.38912,"is_reserved":false,"is_disabled":false,"rental_uris":{"android":"levelo://app?vid=fca29818-5362-4b61-81ca-1e48976775f1","ios":"levelo://app?vid=fca29818-5362-4b61-81ca-1e48976775f1"},"vehicle_type_id":"4","last_reported":1680278844,"current_range_meters":20000,"station_id":"","pricing_plan_id":"free"},{"bike_id":"888c66a5-5478-4bec-9b1f-fc29745e7384","system_id":"levelo_inurba_marseille","lat":43.29573,"lon":5.367355,"is_reserved":false,"is_disabled":false,"rental_uris":{"android":"levelo://app?vid=888c66a5-5478-4bec-9b1f-fc29745e7384","ios":"levelo://app?vid=888c66a5-5478-4bec-9b1f-fc29745e7384"},"vehicle_type_id":"4","last_reported":1680278844,"current_range_meters":0,"station_id":"ce4bgph2rcd13ifvqc2g","pricing_plan_id":"free"},{"bike_id":"93b166bc-dcaf-41be-b40b-3d979518b1dc","system_id":"levelo_inurba_marseille","lat":43.29582,"lon":5.36739,"is_reserved":false,"is_disabled":false,"rental_uris":{"android":"levelo://app?vid=93b166bc-dcaf-41be-b40b-3d979518b1dc","ios":"levelo://app?vid=93b166bc-dcaf-41be-b40b-3d979518b1dc"},"vehicle_type_id":"4","last_reported":1680278844,"current_range_meters":0,"station_id":"ce4bgph2rcd13ifvqc2g","pricing_plan_id":"free"},{"bike_id":"e3ced263-809e-40d6-a4da-0114190950da","system_id":"levelo_inurba_marseille","lat":43.296921,"lon":5.376579,"is_reserved":false,"is_disabled":false,"rental_uris":{"android":"levelo://app?vid=e3ced263-809e-40d6-a4da-0114190950da","ios":"levelo://app?vid=e3ced263-809e-40d6-a4da-0114190950da"},"vehicle_type_id":"4","last_reported":1680278844,"current_range_meters":0,"station_id":"ce4bgkh2rcd13ifvqbl0","pricing_plan_id":"free"},{"bike_id":"0f6c2748-b56a-4d2f-9de6-fc08bbe1a94d","system_id":"levelo_inurba_marseille","lat":43.296921,"lon":5.376579,"is_reserved":false,"is_disabled":false,"rental_uris":{"android":"levelo://app?vid=0f6c2748-b56a-4d2f-9de6-fc08bbe1a94d","ios":"levelo://app?vid=0f6c2748-b56a-4d2f-9de6-fc08bbe1a94d"},"vehicle_type_id":"4","last_reported":1680278844,"current_range_meters":16800,"station_id":"ce4bgkh2rcd13ifvqbl0","pricing_plan_id":"free"},{"bike_id":"9a275748-6a9c-46e5-a7fb-82ea9d6ecfd0","system_id":"levelo_inurba_marseille","lat":43.317557,"lon":5.390173,"is_reserved":false,"is_disabled":false,"rental_uris":{"android":"levelo://app?vid=9a275748-6a9c-46e5-a7fb-82ea9d6ecfd0","ios":"levelo://app?vid=9a275748-6a9c-46e5-a7fb-82ea9d6ecfd0"},"vehicle_type_id":"4","last_reported":1680278844,"current_range_meters":10000,"station_id":"ce4bhqp2rcd13ifvqhng","pricing_plan_id":"free"},{"bike_id":"dbc6d35d-417f-4955-9873-9cd2c1d948cc","system_id":"levelo_inurba_marseille","lat":43.317557,"lon":5.390173,"is_reserved":false,"is_disabled":false,"rental_uris":{"android":"levelo://app?vid=dbc6d35d-417f-4955-9873-9cd2c1d948cc","ios":"levelo://app?vid=dbc6d35d-417f-4955-9873-9cd2c1d948cc"},"vehicle_type_id":"4","last_reported":1680278844,"current_range_meters":16000,"station_id":"ce4bhqp2rcd13ifvqhng","pricing_plan_id":"free"},{"bike_id":"b26d1378-d7d1-42a3-85e1-adfa92e0ac7f","system_id":"levelo_inurba_marseille","lat":43.295279,"lon":5.375048,"is_reserved":false,"is_disabled":false,"rental_uris":{"android":"levelo://app?vid=b26d1378-d7d1-42a3-85e1-adfa92e0ac7f","ios":"levelo://app?vid=b26d1378-d7d1-42a3-85e1-adfa92e0ac7f"},"vehicle_type_id":"4","last_reported":1680278844,"current_range_meters":6400,"station_id":"ce4bgkp2rcd13ifvqbmg","pricing_plan_id":"free"},{"bike_id":"c74aa1fd-e2bd-4132-9b6a-b00d72f1e9bf","system_id":"levelo_inurba_marseille","lat":43.299607,"lon":5.384896,"is_reserved":false,"is_disabled":false,"rental_uris":{"android":"levelo://app?vid=c74aa1fd-e2bd-4132-9b6a-b00d72f1e9bf","ios":"levelo://app?vid=c74aa1fd-e2bd-4132-9b6a-b00d72f1e9bf"},"vehicle_type_id":"4","last_reported":1680278844,"current_range_meters":0,"station_id":"","pricing_plan_id":"free"},{"bike_id":"177c5755-3dd2-44d4-b09d-4d7b6127cd5d","system_id":"levelo_inurba_marseille","lat":43.292311,"lon":5.360731,"is_reserved":false,"is_disabled":false,"rental_uris":{"android":"levelo://app?vid=177c5755-3dd2-44d4-b09d-4d7b6127cd5d","ios":"levelo://app?vid=177c5755-3dd2-44d4-b09d-4d7b6127cd5d"},"vehicle_type_id":"4","last_reported":1680278844,"current_range_meters":6800,"station_id":"ce4bhbh2rcd13ifvqeqg","pricing_plan_id":"free"},{"bike_id":"a52e6563-9889-4938-85fb-3e3fd6e2bf20","system_id":"levelo_inurba_marseille","lat":43.313291,"lon":5.396838,"is_reserved":false,"is_disabled":false,"rental_uris":{"android":"levelo://app?vid=a52e6563-9889-4938-85fb-3e3fd6e2bf20","ios":"levelo://app?vid=a52e6563-9889-4938-85fb-3e3fd6e2bf20"},"vehicle_type_id":"4","last_reported":1680278844,"current_range_meters":0,"station_id":"ce4bgvp2rcd13ifvqcu0","pricing_plan_id":"free"},{"bike_id":"586f0870-1072-43ee-91a8-a78a8288f552","system_id":"levelo_inurba_marseille","lat":43.289468,"lon":5.363719,"is_reserved":false,"is_disabled":false,"rental_uris":{"android":"levelo://app?vid=586f0870-1072-43ee-91a8-a78a8288f552","ios":"levelo://app?vid=586f0870-1072-43ee-91a8-a78a8288f552"},"vehicle_type_id":"4","last_reported":1680278844,"current_range_meters":800,"station_id":"ce4bhc92rcd13ifvqetg","pricing_plan_id":"free"},{"bike_id":"97ba05e3-fd45-4c4b-94a9-35791cb964d0","system_id":"levelo_inurba_marseille","lat":43.32955,"lon":5.39047,"is_reserved":false,"is_disabled":false,"rental_uris":{"android":"levelo://app?vid=97ba05e3-fd45-4c4b-94a9-35791cb964d0","ios":"levelo://app?vid=97ba05e3-fd45-4c4b-94a9-35791cb964d0"},"vehicle_type_id":"4","last_reported":1680278844,"current_range_meters":17200,"station_id":"","pricing_plan_id":"free"},{"bike_id":"1d7cc340-56ce-468b-8553-9add1b7a729b","system_id":"levelo_inurba_marseille","lat":43.290103,"lon":5.356114,"is_reserved":false,"is_disabled":false,"rental_uris":{"android":"levelo://app?vid=1d7cc340-56ce-468b-8553-9add1b7a729b","ios":"levelo://app?vid=1d7cc340-56ce-468b-8553-9add1b7a729b"},"vehicle_type_id":"4","last_reported":1680278844,"current_range_meters":17200,"station_id":"ce4bhb92rcd13ifvqen0","pricing_plan_id":"free"},{"bike_id":"df301286-c954-4aac-bb65-caf639414087","system_id":"levelo_inurba_marseille","lat":43.330442,"lon":5.389148,"is_reserved":false,"is_disabled":false,"rental_uris":{"android":"levelo://app?vid=df301286-c954-4aac-bb65-caf639414087","ios":"levelo://app?vid=df301286-c954-4aac-bb65-caf639414087"},"vehicle_type_id":"4","last_reported":1680278844,"current_range_meters":31200,"station_id":"ce4bhr92rcd13ifvqhrg","pricing_plan_id":"free"},{"bike_id":"85eda1df-04b0-4374-bafb-7a4a7cb20ed3","system_id":"levelo_inurba_marseille","lat":43.289741,"lon":5.378306,"is_reserved":false,"is_disabled":false,"rental_uris":{"android":"levelo://app?vid=85eda1df-04b0-4374-bafb-7a4a7cb20ed3","ios":"levelo://app?vid=85eda1df-04b0-4374-bafb-7a4a7cb20ed3"},"vehicle_type_id":"4","last_reported":1680278844,"current_range_meters":12000,"station_id":"ce4bh9p2rcd13ifvqed0","pricing_plan_id":"free"},{"bike_id":"ea67b675-6cf9-4383-a1f0-7bde2738e2c4","system_id":"levelo_inurba_marseille","lat":43.3375,"lon":5.374474,"is_reserved":false,"is_disabled":false,"rental_uris":{"android":"levelo://app?vid=ea67b675-6cf9-4383-a1f0-7bde2738e2c4","ios":"levelo://app?vid=ea67b675-6cf9-4383-a1f0-7bde2738e2c4"},"vehicle_type_id":"4","last_reported":1680278844,"current_range_meters":31200,"station_id":"","pricing_plan_id":"free"},{"bike_id":"8a4d78f6-9c4a-4942-a881-dc828a079baa","system_id":"levelo_inurba_marseille","lat":43.3375,"lon":5.37469,"is_reserved":false,"is_disabled":false,"rental_uris":{"android":"levelo://app?vid=8a4d78f6-9c4a-4942-a881-dc828a079baa","ios":"levelo://app?vid=8a4d78f6-9c4a-4942-a881-dc828a079baa"},"vehicle_type_id":"4","last_reported":1680278844,"current_range_meters":17600,"station_id":"","pricing_plan_id":"free"},{"bike_id":"9f186915-d0ac-4d58-8da4-09999d2cd3e6","system_id":"levelo_inurba_marseille","lat":43.33755,"lon":5.37442,"is_reserved":false,"is_disabled":false,"rental_uris":{"android":"levelo://app?vid=9f186915-d0ac-4d58-8da4-09999d2cd3e6","ios":"levelo://app?vid=9f186915-d0ac-4d58-8da4-09999d2cd3e6"},"vehicle_type_id":"4","last_reported":1680278844,"current_range_meters":12800,"station_id":"","pricing_plan_id":"free"},{"bike_id":"8f7a327a-fdfb-439b-876a-638517a202ea","system_id":"levelo_inurba_marseille","lat":43.295196,"lon":5.39397,"is_reserved":false,"is_disabled":false,"rental_uris":{"android":"levelo://app?vid=8f7a327a-fdfb-439b-876a-638517a202ea","ios":"levelo://app?vid=8f7a327a-fdfb-439b-876a-638517a202ea"},"vehicle_type_id":"4","last_reported":1680278844,"current_range_meters":19600,"station_id":"ce4bh292rcd13ifvqdf0","pricing_plan_id":"free"},{"bike_id":"d7117890-8d5b-48b5-b1c4-42870eb6b696","system_id":"levelo_inurba_marseille","lat":43.287184,"lon":5.37937,"is_reserved":false,"is_disabled":false,"rental_uris":{"android":"levelo://app?vid=d7117890-8d5b-48b5-b1c4-42870eb6b696","ios":"levelo://app?vid=d7117890-8d5b-48b5-b1c4-42870eb6b696"},"vehicle_type_id":"4","last_reported":1680278844,"current_range_meters":1600,"station_id":"ce4bh9p2rcd13ifvqec0","pricing_plan_id":"free"},{"bike_id":"3cb64615-7e7c-4eb6-bcb5-c1d48a19249b","system_id":"levelo_inurba_marseille","lat":43.284534,"lon":5.358662,"is_reserved":false,"is_disabled":false,"rental_uris":{"android":"levelo://app?vid=3cb64615-7e7c-4eb6-bcb5-c1d48a19249b","ios":"levelo://app?vid=3cb64615-7e7c-4eb6-bcb5-c1d48a19249b"},"vehicle_type_id":"4","last_reported":1680278844,"current_range_meters":22400,"station_id":"ce4bhah2rcd13ifvqei0","pricing_plan_id":"free"},{"bike_id":"c8a327d3-5bf0-4a93-a3c9-f430b36db757","system_id":"levelo_inurba_marseille","lat":43.32721,"lon":5.40159,"is_reserved":false,"is_disabled":false,"rental_uris":{"android":"levelo://app?vid=c8a327d3-5bf0-4a93-a3c9-f430b36db757","ios":"levelo://app?vid=c8a327d3-5bf0-4a93-a3c9-f430b36db757"},"vehicle_type_id":"4","last_reported":1680278844,"current_range_meters":28800,"station_id":"","pricing_plan_id":"free"},{"bike_id":"ca3e2645-93ed-4cc7-83e5-6b2a61d03801","system_id":"levelo_inurba_marseille","lat":43.29576,"lon":5.39983,"is_reserved":false,"is_disabled":false,"rental_uris":{"android":"levelo://app?vid=ca3e2645-93ed-4cc7-83e5-6b2a61d03801","ios":"levelo://app?vid=ca3e2645-93ed-4cc7-83e5-6b2a61d03801"},"vehicle_type_id":"4","last_reported":1680278844,"current_range_meters":4800,"station_id":"ce4bh312rcd13ifvqdj0","pricing_plan_id":"free"},{"bike_id":"6f20e1fa-eaf9-4b7a-88a3-032b6d555867","system_id":"levelo_inurba_marseille","lat":43.28691,"lon":5.38658,"is_reserved":false,"is_disabled":false,"rental_uris":{"android":"levelo://app?vid=6f20e1fa-eaf9-4b7a-88a3-032b6d555867","ios":"levelo://app?vid=6f20e1fa-eaf9-4b7a-88a3-032b6d555867"},"vehicle_type_id":"4","last_reported":1680278844,"current_range_meters":0,"station_id":"","pricing_plan_id":"free"},{"bike_id":"a7b7ca5b-953c-47e2-b7cf-3a3c2cea6f20","system_id":"levelo_inurba_marseille","lat":43.323464,"lon":5.406297,"is_reserved":false,"is_disabled":false,"rental_uris":{"android":"levelo://app?vid=a7b7ca5b-953c-47e2-b7cf-3a3c2cea6f20","ios":"levelo://app?vid=a7b7ca5b-953c-47e2-b7cf-3a3c2cea6f20"},"vehicle_type_id":"4","last_reported":1680278844,"current_range_meters":800,"station_id":"ce4bhq92rcd13ifvqhjg","pricing_plan_id":"free"},{"bike_id":"4cfd85d8-4218-416c-bfe8-b18da8d2f726","system_id":"levelo_inurba_marseille","lat":43.289363,"lon":5.396322,"is_reserved":false,"is_disabled":false,"rental_uris":{"android":"levelo://app?vid=4cfd85d8-4218-416c-bfe8-b18da8d2f726","ios":"levelo://app?vid=4cfd85d8-4218-416c-bfe8-b18da8d2f726"},"vehicle_type_id":"4","last_reported":1680278844,"current_range_meters":7600,"station_id":"ce4bh3h2rcd13ifvqdn0","pricing_plan_id":"free"},{"bike_id":"d8a76cc6-a2d9-4cc5-8231-ad5590288754","system_id":"levelo_inurba_marseille","lat":43.296263,"lon":5.40601,"is_reserved":false,"is_disabled":false,"rental_uris":{"android":"levelo://app?vid=d8a76cc6-a2d9-4cc5-8231-ad5590288754","ios":"levelo://app?vid=d8a76cc6-a2d9-4cc5-8231-ad5590288754"},"vehicle_type_id":"4","last_reported":1680278844,"current_range_meters":25600,"station_id":"ce4bh0h2rcd13ifvqd60","pricing_plan_id":"free"},{"bike_id":"b69c9ca9-5e52-4773-b9c9-9f5ccb3f1018","system_id":"levelo_inurba_marseille","lat":43.296263,"lon":5.40601,"is_reserved":false,"is_disabled":false,"rental_uris":{"android":"levelo://app?vid=b69c9ca9-5e52-4773-b9c9-9f5ccb3f1018","ios":"levelo://app?vid=b69c9ca9-5e52-4773-b9c9-9f5ccb3f1018"},"vehicle_type_id":"4","last_reported":1680278844,"current_range_meters":0,"station_id":"ce4bh0h2rcd13ifvqd60","pricing_plan_id":"free"},{"bike_id":"428e2950-3e68-4bb2-915d-83c792ac07a4","system_id":"levelo_inurba_marseille","lat":43.304188,"lon":5.412904,"is_reserved":false,"is_disabled":false,"rental_uris":{"android":"levelo://app?vid=428e2950-3e68-4bb2-915d-83c792ac07a4","ios":"levelo://app?vid=428e2950-3e68-4bb2-915d-83c792ac07a4"},"vehicle_type_id":"4","last_reported":1680278844,"current_range_meters":800,"station_id":"ce4bhop2rcd13ifvqh8g","pricing_plan_id":"free"},{"bike_id":"bb9916d7-708e-4ac8-8931-6d5bd7357270","system_id":"levelo_inurba_marseille","lat":43.32195,"lon":5.41302,"is_reserved":false,"is_disabled":false,"rental_uris":{"android":"levelo://app?vid=bb9916d7-708e-4ac8-8931-6d5bd7357270","ios":"levelo://app?vid=bb9916d7-708e-4ac8-8931-6d5bd7357270"},"vehicle_type_id":"4","last_reported":1680278844,"current_range_meters":2400,"station_id":"","pricing_plan_id":"free"},{"bike_id":"9daec428-d8d0-4e42-8264-43efd065f9a3","system_id":"levelo_inurba_marseille","lat":43.279742,"lon":5.38744,"is_reserved":false,"is_disabled":false,"rental_uris":{"android":"levelo://app?vid=9daec428-d8d0-4e42-8264-43efd065f9a3","ios":"levelo://app?vid=9daec428-d8d0-4e42-8264-43efd065f9a3"},"vehicle_type_id":"4","last_reported":1680278844,"current_range_meters":6800,"station_id":"ce4bhg12rcd13ifvqf80","pricing_plan_id":"free"},{"bike_id":"1e94997e-af8d-4c2f-80fc-c34f1ead211d","system_id":"levelo_inurba_marseille","lat":43.320045,"lon":5.415048,"is_reserved":false,"is_disabled":false,"rental_uris":{"android":"levelo://app?vid=1e94997e-af8d-4c2f-80fc-c34f1ead211d","ios":"levelo://app?vid=1e94997e-af8d-4c2f-80fc-c34f1ead211d"},"vehicle_type_id":"4","last_reported":1680278844,"current_range_meters":30000,"station_id":"ce4bhq92rcd13ifvqhkg","pricing_plan_id":"free"},{"bike_id":"25fab8fb-22d6-46c1-a320-b6ced3d7e7cf","system_id":"levelo_inurba_marseille","lat":43.325233,"lon":5.414318,"is_reserved":false,"is_disabled":false,"rental_uris":{"android":"levelo://app?vid=25fab8fb-22d6-46c1-a320-b6ced3d7e7cf","ios":"levelo://app?vid=25fab8fb-22d6-46c1-a320-b6ced3d7e7cf"},"vehicle_type_id":"4","last_reported":1680278844,"current_range_meters":1600,"station_id":"ce4bhq12rcd13ifvqhhg","pricing_plan_id":"free"},{"bike_id":"f7be1f73-dffd-4a8c-8b0d-de0e92e7a213","system_id":"levelo_inurba_marseille","lat":43.320045,"lon":5.415048,"is_reserved":false,"is_disabled":false,"rental_uris":{"android":"levelo://app?vid=f7be1f73-dffd-4a8c-8b0d-de0e92e7a213","ios":"levelo://app?vid=f7be1f73-dffd-4a8c-8b0d-de0e92e7a213"},"vehicle_type_id":"4","last_reported":1680278844,"current_range_meters":27200,"station_id":"ce4bhq92rcd13ifvqhkg","pricing_plan_id":"free"},{"bike_id":"1ddd6111-f8e6-4f9a-987d-d615c5fdc3fd","system_id":"levelo_inurba_marseille","lat":43.273763,"lon":5.362598,"is_reserved":false,"is_disabled":false,"rental_uris":{"android":"levelo://app?vid=1ddd6111-f8e6-4f9a-987d-d615c5fdc3fd","ios":"levelo://app?vid=1ddd6111-f8e6-4f9a-987d-d615c5fdc3fd"},"vehicle_type_id":"4","last_reported":1680278844,"current_range_meters":0,"station_id":"","pricing_plan_id":"free"},{"bike_id":"620caa2d-bc7e-4f85-9f4c-c80b6f361482","system_id":"levelo_inurba_marseille","lat":43.273609,"lon":5.362708,"is_reserved":false,"is_disabled":false,"rental_uris":{"android":"levelo://app?vid=620caa2d-bc7e-4f85-9f4c-c80b6f361482","ios":"levelo://app?vid=620caa2d-bc7e-4f85-9f4c-c80b6f361482"},"vehicle_type_id":"4","last_reported":1680278844,"current_range_meters":25200,"station_id":"ce4bhbh2rcd13ifvqeo0","pricing_plan_id":"free"},{"bike_id":"e6672c76-a7dd-45ff-b3bc-891a58f62253","system_id":"levelo_inurba_marseille","lat":43.295523,"lon":5.422926,"is_reserved":false,"is_disabled":false,"rental_uris":{"android":"levelo://app?vid=e6672c76-a7dd-45ff-b3bc-891a58f62253","ios":"levelo://app?vid=e6672c76-a7dd-45ff-b3bc-891a58f62253"},"vehicle_type_id":"4","last_reported":1680278844,"current_range_meters":8000,"station_id":"ce4bhph2rcd13ifvqhdg","pricing_plan_id":"free"},{"bike_id":"85c9bb09-c5a0-4acc-99b1-4e8aa7994c59","system_id":"levelo_inurba_marseille","lat":43.29188,"lon":5.4227,"is_reserved":false,"is_disabled":false,"rental_uris":{"android":"levelo://app?vid=85c9bb09-c5a0-4acc-99b1-4e8aa7994c59","ios":"levelo://app?vid=85c9bb09-c5a0-4acc-99b1-4e8aa7994c59"},"vehicle_type_id":"4","last_reported":1680278844,"current_range_meters":25600,"station_id":"","pricing_plan_id":"free"},{"bike_id":"d127c04d-3ad1-4b52-8afa-515105a31428","system_id":"levelo_inurba_marseille","lat":43.27993,"lon":5.41661,"is_reserved":false,"is_disabled":false,"rental_uris":{"android":"levelo://app?vid=d127c04d-3ad1-4b52-8afa-515105a31428","ios":"levelo://app?vid=d127c04d-3ad1-4b52-8afa-515105a31428"},"vehicle_type_id":"4","last_reported":1680278844,"current_range_meters":6000,"station_id":"ce4bho12rcd13ifvqh1g","pricing_plan_id":"free"},{"bike_id":"9ace26e9-f3b9-4154-b622-1faebd36c98e","system_id":"levelo_inurba_marseille","lat":43.30802,"lon":5.43526,"is_reserved":false,"is_disabled":false,"rental_uris":{"android":"levelo://app?vid=9ace26e9-f3b9-4154-b622-1faebd36c98e","ios":"levelo://app?vid=9ace26e9-f3b9-4154-b622-1faebd36c98e"},"vehicle_type_id":"4","last_reported":1680278844,"current_range_meters":16800,"station_id":"ce4bhph2rcd13ifvqheg","pricing_plan_id":"free"},{"bike_id":"147d4cdf-99e8-4769-923a-630426b4c270","system_id":"levelo_inurba_marseille","lat":43.308051,"lon":5.43527,"is_reserved":false,"is_disabled":false,"rental_uris":{"android":"levelo://app?vid=147d4cdf-99e8-4769-923a-630426b4c270","ios":"levelo://app?vid=147d4cdf-99e8-4769-923a-630426b4c270"},"vehicle_type_id":"4","last_reported":1680278844,"current_range_meters":12800,"station_id":"ce4bhph2rcd13ifvqheg","pricing_plan_id":"free"},{"bike_id":"3535ed30-89a8-4a80-9b31-64579a9631d3","system_id":"levelo_inurba_marseille","lat":43.308051,"lon":5.43527,"is_reserved":false,"is_disabled":false,"rental_uris":{"android":"levelo://app?vid=3535ed30-89a8-4a80-9b31-64579a9631d3","ios":"levelo://app?vid=3535ed30-89a8-4a80-9b31-64579a9631d3"},"vehicle_type_id":"4","last_reported":1680278844,"current_range_meters":800,"station_id":"ce4bhph2rcd13ifvqheg","pricing_plan_id":"free"},{"bike_id":"a1fa0142-db6a-4509-8d08-5617353813bb","system_id":"levelo_inurba_marseille","lat":43.26563,"lon":5.39012,"is_reserved":false,"is_disabled":false,"rental_uris":{"android":"levelo://app?vid=a1fa0142-db6a-4509-8d08-5617353813bb","ios":"levelo://app?vid=a1fa0142-db6a-4509-8d08-5617353813bb"},"vehicle_type_id":"4","last_reported":1680278844,"current_range_meters":0,"station_id":"ce4bhe12rcd13ifvqf30","pricing_plan_id":"free"},{"bike_id":"c8ea8206-901a-488c-ac4b-8b1e01485d14","system_id":"levelo_inurba_marseille","lat":43.331864,"lon":5.431794,"is_reserved":false,"is_disabled":false,"rental_uris":{"android":"levelo://app?vid=c8ea8206-901a-488c-ac4b-8b1e01485d14","ios":"levelo://app?vid=c8ea8206-901a-488c-ac4b-8b1e01485d14"},"vehicle_type_id":"4","last_reported":1680278844,"current_range_meters":0,"station_id":"","pricing_plan_id":"free"},{"bike_id":"7bc926df-084e-4637-8bbd-ddcbfbcdd2e8","system_id":"levelo_inurba_marseille","lat":43.31716,"lon":5.43704,"is_reserved":false,"is_disabled":false,"rental_uris":{"android":"levelo://app?vid=7bc926df-084e-4637-8bbd-ddcbfbcdd2e8","ios":"levelo://app?vid=7bc926df-084e-4637-8bbd-ddcbfbcdd2e8"},"vehicle_type_id":"4","last_reported":1680278844,"current_range_meters":0,"station_id":"ce4bhp92rcd13ifvqhcg","pricing_plan_id":"free"},{"bike_id":"dc9edd13-2ad7-48bf-bb6c-4cd94067b9bc","system_id":"levelo_inurba_marseille","lat":43.317104,"lon":5.436818,"is_reserved":false,"is_disabled":false,"rental_uris":{"android":"levelo://app?vid=dc9edd13-2ad7-48bf-bb6c-4cd94067b9bc","ios":"levelo://app?vid=dc9edd13-2ad7-48bf-bb6c-4cd94067b9bc"},"vehicle_type_id":"4","last_reported":1680278844,"current_range_meters":12000,"station_id":"ce4bhp92rcd13ifvqhcg","pricing_plan_id":"free"},{"bike_id":"9ce2775f-7712-499a-94b3-bb7e93b8b09d","system_id":"levelo_inurba_marseille","lat":43.31713,"lon":5.43708,"is_reserved":false,"is_disabled":false,"rental_uris":{"android":"levelo://app?vid=9ce2775f-7712-499a-94b3-bb7e93b8b09d","ios":"levelo://app?vid=9ce2775f-7712-499a-94b3-bb7e93b8b09d"},"vehicle_type_id":"4","last_reported":1680278844,"current_range_meters":0,"station_id":"ce4bhp92rcd13ifvqhcg","pricing_plan_id":"free"},{"bike_id":"5f0fa779-71cc-48f9-ad4a-5e18236ca726","system_id":"levelo_inurba_marseille","lat":43.298768,"lon":5.43643,"is_reserved":false,"is_disabled":false,"rental_uris":{"android":"levelo://app?vid=5f0fa779-71cc-48f9-ad4a-5e18236ca726","ios":"levelo://app?vid=5f0fa779-71cc-48f9-ad4a-5e18236ca726"},"vehicle_type_id":"4","last_reported":1680278844,"current_range_meters":31600,"station_id":"ce4bhpp2rcd13ifvqhfg","pricing_plan_id":"free"},{"bike_id":"c5d5dc33-1550-4343-a2c0-8a6c036f97ce","system_id":"levelo_inurba_marseille","lat":43.298768,"lon":5.43643,"is_reserved":false,"is_disabled":false,"rental_uris":{"android":"levelo://app?vid=c5d5dc33-1550-4343-a2c0-8a6c036f97ce","ios":"levelo://app?vid=c5d5dc33-1550-4343-a2c0-8a6c036f97ce"},"vehicle_type_id":"4","last_reported":1680278844,"current_range_meters":27600,"station_id":"ce4bhpp2rcd13ifvqhfg","pricing_plan_id":"free"},{"bike_id":"ad087499-d42b-471e-a9d8-49108a927839","system_id":"levelo_inurba_marseille","lat":43.260225,"lon":5.375455,"is_reserved":false,"is_disabled":false,"rental_uris":{"android":"levelo://app?vid=ad087499-d42b-471e-a9d8-49108a927839","ios":"levelo://app?vid=ad087499-d42b-471e-a9d8-49108a927839"},"vehicle_type_id":"4","last_reported":1680278844,"current_range_meters":12400,"station_id":"ce4bhgh2rcd13ifvqfa0","pricing_plan_id":"free"},{"bike_id":"4749f156-102d-4180-a416-61a296dc2b34","system_id":"levelo_inurba_marseille","lat":43.2607,"lon":5.393983,"is_reserved":false,"is_disabled":false,"rental_uris":{"android":"levelo://app?vid=4749f156-102d-4180-a416-61a296dc2b34","ios":"levelo://app?vid=4749f156-102d-4180-a416-61a296dc2b34"},"vehicle_type_id":"4","last_reported":1680278844,"current_range_meters":5600,"station_id":"ce4bhh92rcd13ifvqfj0","pricing_plan_id":"free"},{"bike_id":"ed343c4e-c1f4-4ad6-b5db-9d3d2d64a572","system_id":"levelo_inurba_marseille","lat":43.2607,"lon":5.393983,"is_reserved":false,"is_disabled":false,"rental_uris":{"android":"levelo://app?vid=ed343c4e-c1f4-4ad6-b5db-9d3d2d64a572","ios":"levelo://app?vid=ed343c4e-c1f4-4ad6-b5db-9d3d2d64a572"},"vehicle_type_id":"4","last_reported":1680278844,"current_range_meters":26800,"station_id":"ce4bhh92rcd13ifvqfj0","pricing_plan_id":"free"},{"bike_id":"0362c07d-a810-404a-b12b-0bacc6b26c05","system_id":"levelo_inurba_marseille","lat":43.2607,"lon":5.393983,"is_reserved":false,"is_disabled":false,"rental_uris":{"android":"levelo://app?vid=0362c07d-a810-404a-b12b-0bacc6b26c05","ios":"levelo://app?vid=0362c07d-a810-404a-b12b-0bacc6b26c05"},"vehicle_type_id":"4","last_reported":1680278844,"current_range_meters":1200,"station_id":"ce4bhh92rcd13ifvqfj0","pricing_plan_id":"free"},{"bike_id":"f6e9594f-5af1-4188-aa93-eaccba204e58","system_id":"levelo_inurba_marseille","lat":43.260909,"lon":5.397591,"is_reserved":false,"is_disabled":false,"rental_uris":{"android":"levelo://app?vid=f6e9594f-5af1-4188-aa93-eaccba204e58","ios":"levelo://app?vid=f6e9594f-5af1-4188-aa93-eaccba204e58"},"vehicle_type_id":"4","last_reported":1680278844,"current_range_meters":29200,"station_id":"ce4bhi12rcd13ifvqfq0","pricing_plan_id":"free"},{"bike_id":"c6b40169-64f3-42c1-a259-815c07ce486b","system_id":"levelo_inurba_marseille","lat":43.255756,"lon":5.382303,"is_reserved":false,"is_disabled":false,"rental_uris":{"android":"levelo://app?vid=c6b40169-64f3-42c1-a259-815c07ce486b","ios":"levelo://app?vid=c6b40169-64f3-42c1-a259-815c07ce486b"},"vehicle_type_id":"4","last_reported":1680278844,"current_range_meters":3600,"station_id":"ce4bhih2rcd13ifvqfs0","pricing_plan_id":"free"},{"bike_id":"1368f54e-abb4-4c9d-95aa-7c858e25d8a7","system_id":"levelo_inurba_marseille","lat":43.255756,"lon":5.382303,"is_reserved":false,"is_disabled":false,"rental_uris":{"android":"levelo://app?vid=1368f54e-abb4-4c9d-95aa-7c858e25d8a7","ios":"levelo://app?vid=1368f54e-abb4-4c9d-95aa-7c858e25d8a7"},"vehicle_type_id":"4","last_reported":1680278844,"current_range_meters":6800,"station_id":"ce4bhih2rcd13ifvqfs0","pricing_plan_id":"free"},{"bike_id":"681a146a-c5e2-4e83-b564-b2fa9c1f0ce4","system_id":"levelo_inurba_marseille","lat":43.27072,"lon":5.4228,"is_reserved":false,"is_disabled":false,"rental_uris":{"android":"levelo://app?vid=681a146a-c5e2-4e83-b564-b2fa9c1f0ce4","ios":"levelo://app?vid=681a146a-c5e2-4e83-b564-b2fa9c1f0ce4"},"vehicle_type_id":"4","last_reported":1680278844,"current_range_meters":6800,"station_id":"ce4bhk92rcd13ifvqgb0","pricing_plan_id":"free"},{"bike_id":"6da315ed-0cbe-4c98-b336-618c8cfdbd38","system_id":"levelo_inurba_marseille","lat":43.27069,"lon":5.42282,"is_reserved":false,"is_disabled":false,"rental_uris":{"android":"levelo://app?vid=6da315ed-0cbe-4c98-b336-618c8cfdbd38","ios":"levelo://app?vid=6da315ed-0cbe-4c98-b336-618c8cfdbd38"},"vehicle_type_id":"4","last_reported":1680278844,"current_range_meters":13600,"station_id":"ce4bhk92rcd13ifvqgb0","pricing_plan_id":"free"},{"bike_id":"e7675c14-a7fc-4346-b480-32bddc786551","system_id":"levelo_inurba_marseille","lat":43.250009,"lon":5.389195,"is_reserved":false,"is_disabled":false,"rental_uris":{"android":"levelo://app?vid=e7675c14-a7fc-4346-b480-32bddc786551","ios":"levelo://app?vid=e7675c14-a7fc-4346-b480-32bddc786551"},"vehicle_type_id":"4","last_reported":1680278844,"current_range_meters":17600,"station_id":"ce4bhgp2rcd13ifvqfd0","pricing_plan_id":"free"},{"bike_id":"c9116ec8-952a-46fb-a7c4-56b93e5c423d","system_id":"levelo_inurba_marseille","lat":43.250009,"lon":5.389195,"is_reserved":false,"is_disabled":false,"rental_uris":{"android":"levelo://app?vid=c9116ec8-952a-46fb-a7c4-56b93e5c423d","ios":"levelo://app?vid=c9116ec8-952a-46fb-a7c4-56b93e5c423d"},"vehicle_type_id":"4","last_reported":1680278844,"current_range_meters":13600,"station_id":"ce4bhgp2rcd13ifvqfd0","pricing_plan_id":"free"},{"bike_id":"fcbb4eaf-444a-4e31-ab29-5fd7abda5a7d","system_id":"levelo_inurba_marseille","lat":43.24693,"lon":5.382096,"is_reserved":false,"is_disabled":false,"rental_uris":{"android":"levelo://app?vid=fcbb4eaf-444a-4e31-ab29-5fd7abda5a7d","ios":"levelo://app?vid=fcbb4eaf-444a-4e31-ab29-5fd7abda5a7d"},"vehicle_type_id":"4","last_reported":1680278844,"current_range_meters":5600,"station_id":"ce4bhih2rcd13ifvqfr0","pricing_plan_id":"free"},{"bike_id":"e1df4880-0ce0-4917-ac13-50357e1d30a7","system_id":"levelo_inurba_marseille","lat":43.25114,"lon":5.40326,"is_reserved":false,"is_disabled":false,"rental_uris":{"android":"levelo://app?vid=e1df4880-0ce0-4917-ac13-50357e1d30a7","ios":"levelo://app?vid=e1df4880-0ce0-4917-ac13-50357e1d30a7"},"vehicle_type_id":"4","last_reported":1680278844,"current_range_meters":21200,"station_id":"ce4bhlh2rcd13ifvqgig","pricing_plan_id":"free"},{"bike_id":"e1e32d92-7586-4bb4-8233-6e0049c46d8f","system_id":"levelo_inurba_marseille","lat":43.246467,"lon":5.388984,"is_reserved":false,"is_disabled":false,"rental_uris":{"android":"levelo://app?vid=e1e32d92-7586-4bb4-8233-6e0049c46d8f","ios":"levelo://app?vid=e1e32d92-7586-4bb4-8233-6e0049c46d8f"},"vehicle_type_id":"4","last_reported":1680278844,"current_range_meters":800,"station_id":"ce4bhg12rcd13ifvqf60","pricing_plan_id":"free"},{"bike_id":"2a56355a-b817-47db-a9ea-15fc8cb26f7e","system_id":"levelo_inurba_marseille","lat":43.246461,"lon":5.389014,"is_reserved":false,"is_disabled":false,"rental_uris":{"android":"levelo://app?vid=2a56355a-b817-47db-a9ea-15fc8cb26f7e","ios":"levelo://app?vid=2a56355a-b817-47db-a9ea-15fc8cb26f7e"},"vehicle_type_id":"4","last_reported":1680278844,"current_range_meters":29200,"station_id":"ce4bhg12rcd13ifvqf60","pricing_plan_id":"free"},{"bike_id":"1d6b599e-4d45-431d-ad59-c63621a27348","system_id":"levelo_inurba_marseille","lat":43.246461,"lon":5.389014,"is_reserved":false,"is_disabled":false,"rental_uris":{"android":"levelo://app?vid=1d6b599e-4d45-431d-ad59-c63621a27348","ios":"levelo://app?vid=1d6b599e-4d45-431d-ad59-c63621a27348"},"vehicle_type_id":"4","last_reported":1680278844,"current_range_meters":22000,"station_id":"ce4bhg12rcd13ifvqf60","pricing_plan_id":"free"},{"bike_id":"a9ad764c-2421-47b4-a279-23e57a31252a","system_id":"levelo_inurba_marseille","lat":43.243884,"lon":5.370736,"is_reserved":false,"is_disabled":false,"rental_uris":{"android":"levelo://app?vid=a9ad764c-2421-47b4-a279-23e57a31252a","ios":"levelo://app?vid=a9ad764c-2421-47b4-a279-23e57a31252a"},"vehicle_type_id":"4","last_reported":1680278844,"current_range_meters":4800,"station_id":"ce4bhhh2rcd13ifvqfk0","pricing_plan_id":"free"},{"bike_id":"879d2598-6798-4291-b661-bb11fecfc4f5","system_id":"levelo_inurba_marseille","lat":43.24107,"lon":5.37711,"is_reserved":false,"is_disabled":false,"rental_uris":{"android":"levelo://app?vid=879d2598-6798-4291-b661-bb11fecfc4f5","ios":"levelo://app?vid=879d2598-6798-4291-b661-bb11fecfc4f5"},"vehicle_type_id":"4","last_reported":1680278844,"current_range_meters":21200,"station_id":"","pricing_plan_id":"free"},{"bike_id":"85a395a7-b1ef-4540-8b3f-a46ab2de52c6","system_id":"levelo_inurba_marseille","lat":43.250023,"lon":5.38919,"is_reserved":false,"is_disabled":false,"rental_uris":{"android":"levelo://app?vid=85a395a7-b1ef-4540-8b3f-a46ab2de52c6","ios":"levelo://app?vid=85a395a7-b1ef-4540-8b3f-a46ab2de52c6"},"vehicle_type_id":"4","last_reported":1680278844,"current_range_meters":0,"station_id":"ce4bhgp2rcd13ifvqfd0","pricing_plan_id":"free"},{"bike_id":"cf7402eb-784e-4e30-891c-a6ed79baf596","system_id":"levelo_inurba_marseille","lat":43.24267,"lon":5.39322,"is_reserved":false,"is_disabled":false,"rental_uris":{"android":"levelo://app?vid=cf7402eb-784e-4e30-891c-a6ed79baf596","ios":"levelo://app?vid=cf7402eb-784e-4e30-891c-a6ed79baf596"},"vehicle_type_id":"4","last_reported":1680278844,"current_range_meters":13200,"station_id":"","pricing_plan_id":"free"},{"bike_id":"c82ef23c-0137-4083-8a40-4e4b1ec9ac08","system_id":"levelo_inurba_marseille","lat":43.239588,"lon":5.366238,"is_reserved":false,"is_disabled":false,"rental_uris":{"android":"levelo://app?vid=c82ef23c-0137-4083-8a40-4e4b1ec9ac08","ios":"levelo://app?vid=c82ef23c-0137-4083-8a40-4e4b1ec9ac08"},"vehicle_type_id":"4","last_reported":1680278844,"current_range_meters":28000,"station_id":"ce4bhi12rcd13ifvqfp0","pricing_plan_id":"free"},{"bike_id":"2553e504-d446-41c6-b318-5052bc8255c8","system_id":"levelo_inurba_marseille","lat":43.28517,"lon":5.45994,"is_reserved":false,"is_disabled":false,"rental_uris":{"android":"levelo://app?vid=2553e504-d446-41c6-b318-5052bc8255c8","ios":"levelo://app?vid=2553e504-d446-41c6-b318-5052bc8255c8"},"vehicle_type_id":"4","last_reported":1680278844,"current_range_meters":9200,"station_id":"","pricing_plan_id":"free"},{"bike_id":"88c91a35-e875-4881-930c-f84ca0189fde","system_id":"levelo_inurba_marseille","lat":43.24181,"lon":5.39726,"is_reserved":false,"is_disabled":false,"rental_uris":{"android":"levelo://app?vid=88c91a35-e875-4881-930c-f84ca0189fde","ios":"levelo://app?vid=88c91a35-e875-4881-930c-f84ca0189fde"},"vehicle_type_id":"4","last_reported":1680278844,"current_range_meters":0,"station_id":"ce4bhn12rcd13ifvqgpg","pricing_plan_id":"free"},{"bike_id":"d1cdfa87-a455-4126-a92b-37664bfa9276","system_id":"levelo_inurba_marseille","lat":43.24561,"lon":5.41521,"is_reserved":false,"is_disabled":false,"rental_uris":{"android":"levelo://app?vid=d1cdfa87-a455-4126-a92b-37664bfa9276","ios":"levelo://app?vid=d1cdfa87-a455-4126-a92b-37664bfa9276"},"vehicle_type_id":"4","last_reported":1680278844,"current_range_meters":14400,"station_id":"","pricing_plan_id":"free"},{"bike_id":"06835f61-527e-4f50-b010-332e629d8e44","system_id":"levelo_inurba_marseille","lat":43.231919,"lon":5.355532,"is_reserved":false,"is_disabled":false,"rental_uris":{"android":"levelo://app?vid=06835f61-527e-4f50-b010-332e629d8e44","ios":"levelo://app?vid=06835f61-527e-4f50-b010-332e629d8e44"},"vehicle_type_id":"4","last_reported":1680278844,"current_range_meters":25200,"station_id":"ce4bhu92rcd13ifvqi70","pricing_plan_id":"free"},{"bike_id":"7c169ae2-37c2-45b8-a1c6-f60a5fcd578a","system_id":"levelo_inurba_marseille","lat":43.231919,"lon":5.355532,"is_reserved":false,"is_disabled":false,"rental_uris":{"android":"levelo://app?vid=7c169ae2-37c2-45b8-a1c6-f60a5fcd578a","ios":"levelo://app?vid=7c169ae2-37c2-45b8-a1c6-f60a5fcd578a"},"vehicle_type_id":"4","last_reported":1680278844,"current_range_meters":0,"station_id":"ce4bhu92rcd13ifvqi70","pricing_plan_id":"free"},{"bike_id":"304849be-6771-4ee2-a34d-f22d2728ab26","system_id":"levelo_inurba_marseille","lat":43.231923,"lon":5.355545,"is_reserved":false,"is_disabled":false,"rental_uris":{"android":"levelo://app?vid=304849be-6771-4ee2-a34d-f22d2728ab26","ios":"levelo://app?vid=304849be-6771-4ee2-a34d-f22d2728ab26"},"vehicle_type_id":"4","last_reported":1680278844,"current_range_meters":4800,"station_id":"ce4bhu92rcd13ifvqi70","pricing_plan_id":"free"}]}}