{"last_updated":1715619984,"ttl":30,"version":"2.2","data":{"bikes":[{"bike_id":"4c24157b-f219-4913-88b6-09249ce41dfd","system_id":"levelo_inurba_marseille","lat":43.312239,"lon":5.368562,"is_reserved":false,"is_disabled":false,"rental_uris":{"android":"levelo://app?vid=4c24157b-f219-4913-88b6-09249ce41dfd","ios":"levelo://app?vid=4c24157b-f219-4913-88b6-09249ce41dfd"},"vehicle_type_id":"4","last_reported":1715619984,"current_range_meters":26800,"station_id":"ce4bgl92rcd13ifvqbq0","pricing_plan_id":"cebpf4jnsgd1na2vs0mg"},{"bike_id":"87168baa-9a04-4d56-bbf8-6419b6726ee1","system_id":"levelo_inurba_marseille","lat":43.312239,"lon":5.368562,"is_reserved":false,"is_disabled":false,"rental_uris":{"android":"levelo://app?vid=87168baa-9a04-4d56-bbf8-6419b6726ee1","ios":"levelo://app?vid=87168baa-9a04-4d56-bbf8-6419b6726ee1"},"vehicle_type_id":"4","last_reported":1715619984,"current_range_meters":18400,"station_id":"ce4bgl92rcd13ifvqbq0","pricing_plan_id":"cebpf4jnsgd1na2vs0mg"},{"bike_id":"330195a3-2957-488c-aac5-f903ed2c0910","system_id":"levelo_inurba_marseille","lat":43.309076,"lon":5.368465,"is_reserved":false,"is_disabled":false,"rental_uris":{"android":"levelo://app?vid=330195a3-2957-488c-aac5-f903ed2c0910","ios":"levelo://app?vid=330195a3-2957-488c-aac5-f903ed2c0910"},"vehicle_type_id":"4","last_reported":1715619984,"current_range_meters":0,"station_id":"ce4bgn92rcd13ifvqbvg","pricing_plan_id":"cebpf4jnsgd1na2vs0mg"},{"bike_id":"97f22c0a-50d3-4bcc-8ffc-505381be2589","system_id":"levelo_inurba_marseille","lat":43.314811,"lon":5.373104,"is_reserved":false,"is_disabled":false,"rental_uris":{"android":"levelo://app?vid=97f22c0a-50d3-4bcc-8ffc-505381be2589","ios":"levelo://app?vid=97f22c0a-50d3-4bcc-8ffc-505381be2589"},"vehicle_type_id":"4","last_reported":1715619984,"current_range_meters":20400,"station_id":"ce4bgt12rcd13ifvqcd0","pricing_plan_id":"cebpf4jnsgd1na2vs0mg"},{"bike_id":"98cf1f15-d078-4bd1-bc41-b3628056a60a","system_id":"levelo_inurba_marseille","lat":43.30537,"lon":5.367345,"is_reserved":false,"is_disabled":false,"rental_uris":{"android":"levelo://app?vid=98cf1f15-d078-4bd1-bc41-b3628056a60a","ios":"levelo://app?vid=98cf1f15-d078-4bd1-bc41-b3628056a60a"},"vehicle_type_id":"4","last_reported":1715619984,"current_range_meters":8000,"station_id":"ce4bgrp2rcd13ifvqc9g","pricing_plan_id":"cebpf4jnsgd1na2vs0mg"},{"bike_id":"9a7b1459-87c5-4a00-8f13-a0bc9de69b57","system_id":"levelo_inurba_marseille","lat":43.305714,"lon":5.365633,"is_reserved":false,"is_disabled":false,"rental_uris":{"android":"levelo://app?vid=9a7b1459-87c5-4a00-8f13-a0bc9de69b57","ios":"levelo://app?vid=9a7b1459-87c5-4a00-8f13-a0bc9de69b57"},"vehicle_type_id":"4","last_reported":1715619984,"current_range_meters":11600,"station_id":"ce4bgs12rcd13ifvqcag","pricing_plan_id":"cebpf4jnsgd1na2vs0mg"},{"bike_id":"b25fcf50-1ec0-4ddb-a23e-be6daa7f6db2","system_id":"levelo_inurba_marseille","lat":43.30546,"lon":5.36521,"is_reserved":false,"is_disabled":false,"rental_uris":{"android":"levelo://app?vid=b25fcf50-1ec0-4ddb-a23e-be6daa7f6db2","ios":"levelo://app?vid=b25fcf50-1ec0-4ddb-a23e-be6daa7f6db2"},"vehicle_type_id":"4","last_reported":1715619984,"current_range_meters":0,"station_id":"ce4bgs12rcd13ifvqcag","pricing_plan_id":"cebpf4jnsgd1na2vs0mg"},{"bike_id":"f2485c00-9321-4359-992a-7071d22fcbe6","system_id":"levelo_inurba_marseille","lat":43.305368,"lon":5.367343,"is_reserved":false,"is_disabled":false,"rental_uris":{"android":"levelo://app?vid=f2485c00-9321-4359-992a-7071d22fcbe6","ios":"levelo://app?vid=f2485c00-9321-4359-992a-7071d22fcbe6"},"vehicle_type_id":"4","last_reported":1715619984,"current_range_meters":0,"station_id":"ce4bgrp2rcd13ifvqc9g","pricing_plan_id":"cebpf4jnsgd1na2vs0mg"},{"bike_id":"8604c711-3b25-4de9-a7eb-334dd716bd5c","system_id":"levelo_inurba_marseille","lat":43.305706,"lon":5.365654,"is_reserved":false,"is_disabled":false,"rental_uris":{"android":"levelo://app?vid=8604c711-3b25-4de9-a7eb-334dd716bd5c","ios":"levelo://app?vid=8604c711-3b25-4de9-a7eb-334dd716bd5c"},"vehicle_type_id":"4","last_reported":1715619984,"current_range_meters":1600,"station_id":"ce4bgs12rcd13ifvqcag","pricing_plan_id":"cebpf4jnsgd1na2vs0mg"},{"bike_id":"c7bf9f20-ec4d-497c-9a63-9df24ef8d43e","system_id":"levelo_inurba_marseille","lat":43.305989,"lon":5.37225,"is_reserved":false,"is_disabled":false,"rental_uris":{"android":"levelo://app?vid=c7bf9f20-ec4d-497c-9a63-9df24ef8d43e","ios":"levelo://app?vid=c7bf9f20-ec4d-497c-9a63-9df24ef8d43e"},"vehicle_type_id":"4","last_reported":1715619984,"current_range_meters":3200,"station_id":"ce4bgqh2rcd13ifvqc4g","pricing_plan_id":"cebpf4jnsgd1na2vs0mg"},{"bike_id":"9c615aa0-10f3-4588-8109-5097264d0da7","system_id":"levelo_inurba_marseille","lat":43.305706,"lon":5.365654,"is_reserved":false,"is_disabled":false,"rental_uris":{"android":"levelo://app?vid=9c615aa0-10f3-4588-8109-5097264d0da7","ios":"levelo://app?vid=9c615aa0-10f3-4588-8109-5097264d0da7"},"vehicle_type_id":"4","last_reported":1715619984,"current_range_meters":0,"station_id":"ce4bgs12rcd13ifvqcag","pricing_plan_id":"cebpf4jnsgd1na2vs0mg"},{"bike_id":"22d3b6f2-dbe5-4588-937b-3d34cc5fd4ac","system_id":"levelo_inurba_marseille","lat":43.311165,"lon":5.377596,"is_reserved":false,"is_disabled":false,"rental_uris":{"android":"levelo://app?vid=22d3b6f2-dbe5-4588-937b-3d34cc5fd4ac","ios":"levelo://app?vid=22d3b6f2-dbe5-4588-937b-3d34cc5fd4ac"},"vehicle_type_id":"4","last_reported":1715619984,"current_range_meters":5600,"station_id":"","pricing_plan_id":"cebpf4jnsgd1na2vs0mg"},{"bike_id":"bcf69bec-519d-4408-8bdb-f7246b984b50","system_id":"levelo_inurba_marseille","lat":43.311125,"lon":5.377624,"is_reserved":false,"is_disabled":false,"rental_uris":{"android":"levelo://app?vid=bcf69bec-519d-4408-8bdb-f7246b984b50","ios":"levelo://app?vid=bcf69bec-519d-4408-8bdb-f7246b984b50"},"vehicle_type_id":"4","last_reported":1715619984,"current_range_meters":9600,"station_id":"ce4bgt92rcd13ifvqcg0","pricing_plan_id":"cebpf4jnsgd1na2vs0mg"},{"bike_id":"a14ec790-f481-4c0b-aa39-a21952a1fa0f","system_id":"levelo_inurba_marseille","lat":43.30786,"lon":5.37646,"is_reserved":false,"is_disabled":false,"rental_uris":{"android":"levelo://app?vid=a14ec790-f481-4c0b-aa39-a21952a1fa0f","ios":"levelo://app?vid=a14ec790-f481-4c0b-aa39-a21952a1fa0f"},"vehicle_type_id":"4","last_reported":1715619984,"current_range_meters":0,"station_id":"ce4bgv92rcd13ifvqcq0","pricing_plan_id":"cebpf4jnsgd1na2vs0mg"},{"bike_id":"0da59058-a16b-4aa5-a0a4-8088102185aa","system_id":"levelo_inurba_marseille","lat":43.307945,"lon":5.376487,"is_reserved":false,"is_disabled":false,"rental_uris":{"android":"levelo://app?vid=0da59058-a16b-4aa5-a0a4-8088102185aa","ios":"levelo://app?vid=0da59058-a16b-4aa5-a0a4-8088102185aa"},"vehicle_type_id":"4","last_reported":1715619984,"current_range_meters":0,"station_id":"ce4bgv92rcd13ifvqcq0","pricing_plan_id":"cebpf4jnsgd1na2vs0mg"},{"bike_id":"7326b50e-8adb-42f0-9b90-b68cf632dd09","system_id":"levelo_inurba_marseille","lat":43.307945,"lon":5.376487,"is_reserved":false,"is_disabled":false,"rental_uris":{"android":"levelo://app?vid=7326b50e-8adb-42f0-9b90-b68cf632dd09","ios":"levelo://app?vid=7326b50e-8adb-42f0-9b90-b68cf632dd09"},"vehicle_type_id":"4","last_reported":1715619984,"current_range_meters":16400,"station_id":"ce4bgv92rcd13ifvqcq0","pricing_plan_id":"cebpf4jnsgd1na2vs0mg"},{"bike_id":"7dc7cbb6-042c-493d-9db0-84eb1c67cb79","system_id":"levelo_inurba_marseille","lat":43.307945,"lon":5.376487,"is_reserved":false,"is_disabled":false,"rental_uris":{"android":"levelo://app?vid=7dc7cbb6-042c-493d-9db0-84eb1c67cb79","ios":"levelo://app?vid=7dc7cbb6-042c-493d-9db0-84eb1c67cb79"},"vehicle_type_id":"4","last_reported":1715619984,"current_range_meters":12000,"station_id":"ce4bgv92rcd13ifvqcq0","pricing_plan_id":"cebpf4jnsgd1na2vs0mg"},{"bike_id":"a8420d12-5ea1-4553-ba77-74153419b9a1","system_id":"levelo_inurba_marseille","lat":43.307945,"lon":5.376487,"is_reserved":false,"is_disabled":false,"rental_uris":{"android":"levelo://app?vid=a8420d12-5ea1-4553-ba77-74153419b9a1","ios":"levelo://app?vid=a8420d12-5ea1-4553-ba77-74153419b9a1"},"vehicle_type_id":"4","last_reported":1715619984,"current_range_meters":31200,"station_id":"ce4bgv92rcd13ifvqcq0","pricing_plan_id":"cebpf4jnsgd1na2vs0mg"},{"bike_id":"039adc48-1496-419d-b41f-78f07522c336","system_id":"levelo_inurba_marseille","lat":43.31707,"lon":5.37735,"is_reserved":false,"is_disabled":false,"rental_uris":{"android":"levelo://app?vid=039adc48-1496-419d-b41f-78f07522c336","ios":"levelo://app?vid=039adc48-1496-419d-b41f-78f07522c336"},"vehicle_type_id":"4","last_reported":1715619984,"current_range_meters":400,"station_id":"ce4bgth2rcd13ifvqch0","pricing_plan_id":"cebpf4jnsgd1na2vs0mg"},{"bike_id":"411be982-01e2-49ab-a0fb-f6fcb5bc846f","system_id":"levelo_inurba_marseille","lat":43.317075,"lon":5.377367,"is_reserved":false,"is_disabled":false,"rental_uris":{"android":"levelo://app?vid=411be982-01e2-49ab-a0fb-f6fcb5bc846f","ios":"levelo://app?vid=411be982-01e2-49ab-a0fb-f6fcb5bc846f"},"vehicle_type_id":"4","last_reported":1715619984,"current_range_meters":8800,"station_id":"ce4bgth2rcd13ifvqch0","pricing_plan_id":"cebpf4jnsgd1na2vs0mg"},{"bike_id":"e170f3cc-f7df-4b32-a11f-2523cad7455c","system_id":"levelo_inurba_marseille","lat":43.31708,"lon":5.37758,"is_reserved":false,"is_disabled":false,"rental_uris":{"android":"levelo://app?vid=e170f3cc-f7df-4b32-a11f-2523cad7455c","ios":"levelo://app?vid=e170f3cc-f7df-4b32-a11f-2523cad7455c"},"vehicle_type_id":"4","last_reported":1715619984,"current_range_meters":14400,"station_id":"ce4bgth2rcd13ifvqch0","pricing_plan_id":"cebpf4jnsgd1na2vs0mg"},{"bike_id":"06332f1b-caaa-406f-9748-8b247f7f0398","system_id":"levelo_inurba_marseille","lat":43.30319,"lon":5.36897,"is_reserved":false,"is_disabled":false,"rental_uris":{"android":"levelo://app?vid=06332f1b-caaa-406f-9748-8b247f7f0398","ios":"levelo://app?vid=06332f1b-caaa-406f-9748-8b247f7f0398"},"vehicle_type_id":"4","last_reported":1715619984,"current_range_meters":0,"station_id":"ce4bgqh2rcd13ifvqc5g","pricing_plan_id":"cebpf4jnsgd1na2vs0mg"},{"bike_id":"fb294158-dcbd-432f-b920-c1297123147b","system_id":"levelo_inurba_marseille","lat":43.315289,"lon":5.380349,"is_reserved":false,"is_disabled":false,"rental_uris":{"android":"levelo://app?vid=fb294158-dcbd-432f-b920-c1297123147b","ios":"levelo://app?vid=fb294158-dcbd-432f-b920-c1297123147b"},"vehicle_type_id":"4","last_reported":1715619984,"current_range_meters":13200,"station_id":"ce4bhsp2rcd13ifvqi50","pricing_plan_id":"cebpf4jnsgd1na2vs0mg"},{"bike_id":"a37cdda5-216b-490e-9d2b-eead123fc9e0","system_id":"levelo_inurba_marseille","lat":43.315289,"lon":5.380349,"is_reserved":false,"is_disabled":false,"rental_uris":{"android":"levelo://app?vid=a37cdda5-216b-490e-9d2b-eead123fc9e0","ios":"levelo://app?vid=a37cdda5-216b-490e-9d2b-eead123fc9e0"},"vehicle_type_id":"4","last_reported":1715619984,"current_range_meters":4400,"station_id":"ce4bhsp2rcd13ifvqi50","pricing_plan_id":"cebpf4jnsgd1na2vs0mg"},{"bike_id":"b7f9aa4d-cc31-48b5-aad7-2bf5141fe6b0","system_id":"levelo_inurba_marseille","lat":43.308012,"lon":5.381511,"is_reserved":false,"is_disabled":false,"rental_uris":{"android":"levelo://app?vid=b7f9aa4d-cc31-48b5-aad7-2bf5141fe6b0","ios":"levelo://app?vid=b7f9aa4d-cc31-48b5-aad7-2bf5141fe6b0"},"vehicle_type_id":"4","last_reported":1715619984,"current_range_meters":24800,"station_id":"ce4bgt12rcd13ifvqce0","pricing_plan_id":"cebpf4jnsgd1na2vs0mg"},{"bike_id":"614b0f09-3a8a-4b6b-9368-63f781a234fe","system_id":"levelo_inurba_marseille","lat":43.308012,"lon":5.381511,"is_reserved":false,"is_disabled":false,"rental_uris":{"android":"levelo://app?vid=614b0f09-3a8a-4b6b-9368-63f781a234fe","ios":"levelo://app?vid=614b0f09-3a8a-4b6b-9368-63f781a234fe"},"vehicle_type_id":"4","last_reported":1715619984,"current_range_meters":0,"station_id":"ce4bgt12rcd13ifvqce0","pricing_plan_id":"cebpf4jnsgd1na2vs0mg"},{"bike_id":"950062fa-3a7b-463b-9e6c-f55aa078604c","system_id":"levelo_inurba_marseille","lat":43.30317,"lon":5.37608,"is_reserved":false,"is_disabled":false,"rental_uris":{"android":"levelo://app?vid=950062fa-3a7b-463b-9e6c-f55aa078604c","ios":"levelo://app?vid=950062fa-3a7b-463b-9e6c-f55aa078604c"},"vehicle_type_id":"4","last_reported":1715619984,"current_range_meters":13200,"station_id":"","pricing_plan_id":"cebpf4jnsgd1na2vs0mg"},{"bike_id":"813dc3de-ae26-460a-a10d-eacdbe8bbc97","system_id":"levelo_inurba_marseille","lat":43.308012,"lon":5.381511,"is_reserved":false,"is_disabled":false,"rental_uris":{"android":"levelo://app?vid=813dc3de-ae26-460a-a10d-eacdbe8bbc97","ios":"levelo://app?vid=813dc3de-ae26-460a-a10d-eacdbe8bbc97"},"vehicle_type_id":"4","last_reported":1715619984,"current_range_meters":13200,"station_id":"ce4bgt12rcd13ifvqce0","pricing_plan_id":"cebpf4jnsgd1na2vs0mg"},{"bike_id":"c3f12908-f6eb-48d0-8760-956123d3d1f7","system_id":"levelo_inurba_marseille","lat":43.304606,"lon":5.379026,"is_reserved":false,"is_disabled":false,"rental_uris":{"android":"levelo://app?vid=c3f12908-f6eb-48d0-8760-956123d3d1f7","ios":"levelo://app?vid=c3f12908-f6eb-48d0-8760-956123d3d1f7"},"vehicle_type_id":"4","last_reported":1715619984,"current_range_meters":14800,"station_id":"ce4bgup2rcd13ifvqcn0","pricing_plan_id":"cebpf4jnsgd1na2vs0mg"},{"bike_id":"a52c2e62-b6bc-42cd-ab48-a153f99e58ab","system_id":"levelo_inurba_marseille","lat":43.304606,"lon":5.379026,"is_reserved":false,"is_disabled":false,"rental_uris":{"android":"levelo://app?vid=a52c2e62-b6bc-42cd-ab48-a153f99e58ab","ios":"levelo://app?vid=a52c2e62-b6bc-42cd-ab48-a153f99e58ab"},"vehicle_type_id":"4","last_reported":1715619984,"current_range_meters":20000,"station_id":"ce4bgup2rcd13ifvqcn0","pricing_plan_id":"cebpf4jnsgd1na2vs0mg"},{"bike_id":"7bde3c61-4232-4ccd-8c1d-610184d39686","system_id":"levelo_inurba_marseille","lat":43.324771,"lon":5.36557,"is_reserved":false,"is_disabled":false,"rental_uris":{"android":"levelo://app?vid=7bde3c61-4232-4ccd-8c1d-610184d39686","ios":"levelo://app?vid=7bde3c61-4232-4ccd-8c1d-610184d39686"},"vehicle_type_id":"4","last_reported":1715619984,"current_range_meters":14000,"station_id":"ce4bhs12rcd13ifvqhvg","pricing_plan_id":"cebpf4jnsgd1na2vs0mg"},{"bike_id":"7279300e-a5c4-4f3b-858a-e2bd296be7c9","system_id":"levelo_inurba_marseille","lat":43.324751,"lon":5.365619,"is_reserved":false,"is_disabled":false,"rental_uris":{"android":"levelo://app?vid=7279300e-a5c4-4f3b-858a-e2bd296be7c9","ios":"levelo://app?vid=7279300e-a5c4-4f3b-858a-e2bd296be7c9"},"vehicle_type_id":"4","last_reported":1715619984,"current_range_meters":9200,"station_id":"ce4bhs12rcd13ifvqhvg","pricing_plan_id":"cebpf4jnsgd1na2vs0mg"},{"bike_id":"efda828e-782b-4ac2-9ab1-3be832bf6b0c","system_id":"levelo_inurba_marseille","lat":43.32477,"lon":5.36584,"is_reserved":false,"is_disabled":false,"rental_uris":{"android":"levelo://app?vid=efda828e-782b-4ac2-9ab1-3be832bf6b0c","ios":"levelo://app?vid=efda828e-782b-4ac2-9ab1-3be832bf6b0c"},"vehicle_type_id":"4","last_reported":1715619984,"current_range_meters":0,"station_id":"ce4bhs12rcd13ifvqhvg","pricing_plan_id":"cebpf4jnsgd1na2vs0mg"},{"bike_id":"4a9a9665-1cd2-49ce-8806-5d25ff857789","system_id":"levelo_inurba_marseille","lat":43.32479,"lon":5.365654,"is_reserved":false,"is_disabled":false,"rental_uris":{"android":"levelo://app?vid=4a9a9665-1cd2-49ce-8806-5d25ff857789","ios":"levelo://app?vid=4a9a9665-1cd2-49ce-8806-5d25ff857789"},"vehicle_type_id":"4","last_reported":1715619984,"current_range_meters":12400,"station_id":"ce4bhs12rcd13ifvqhvg","pricing_plan_id":"cebpf4jnsgd1na2vs0mg"},{"bike_id":"de363a9b-b8dd-4f25-97c4-05ca23eea0b0","system_id":"levelo_inurba_marseille","lat":43.324771,"lon":5.36557,"is_reserved":false,"is_disabled":false,"rental_uris":{"android":"levelo://app?vid=de363a9b-b8dd-4f25-97c4-05ca23eea0b0","ios":"levelo://app?vid=de363a9b-b8dd-4f25-97c4-05ca23eea0b0"},"vehicle_type_id":"4","last_reported":1715619984,"current_range_meters":22800,"station_id":"ce4bhs12rcd13ifvqhvg","pricing_plan_id":"cebpf4jnsgd1na2vs0mg"},{"bike_id":"855e19b2-a879-402e-b914-323ad8136d11","system_id":"levelo_inurba_marseille","lat":43.324771,"lon":5.36557,"is_reserved":false,"is_disabled":false,"rental_uris":{"android":"levelo://app?vid=855e19b2-a879-402e-b914-323ad8136d11","ios":"levelo://app?vid=855e19b2-a879-402e-b914-323ad8136d11"},"vehicle_type_id":"4","last_reported":1715619984,"current_range_meters":12000,"station_id":"ce4bhs12rcd13ifvqhvg","pricing_plan_id":"cebpf4jnsgd1na2vs0mg"},{"bike_id":"26bd8217-5511-4bf1-a4d4-7323f3ee6d22","system_id":"levelo_inurba_marseille","lat":43.324771,"lon":5.36557,"is_reserved":false,"is_disabled":false,"rental_uris":{"android":"levelo://app?vid=26bd8217-5511-4bf1-a4d4-7323f3ee6d22","ios":"levelo://app?vid=26bd8217-5511-4bf1-a4d4-7323f3ee6d22"},"vehicle_type_id":"4","last_reported":1715619984,"current_range_meters":11200,"station_id":"ce4bhs12rcd13ifvqhvg","pricing_plan_id":"cebpf4jnsgd1na2vs0mg"},{"bike_id":"ec42202b-e6fa-4a97-a614-2846aed801f1","system_id":"levelo_inurba_marseille","lat":43.324771,"lon":5.36557,"is_reserved":false,"is_disabled":false,"rental_uris":{"android":"levelo://app?vid=ec42202b-e6fa-4a97-a614-2846aed801f1","ios":"levelo://app?vid=ec42202b-e6fa-4a97-a614-2846aed801f1"},"vehicle_type_id":"4","last_reported":1715619984,"current_range_meters":5600,"station_id":"ce4bhs12rcd13ifvqhvg","pricing_plan_id":"cebpf4jnsgd1na2vs0mg"},{"bike_id":"4eb37566-cfb5-4c86-a3ea-ad0e279d9efa","system_id":"levelo_inurba_marseille","lat":43.32485,"lon":5.36576,"is_reserved":false,"is_disabled":false,"rental_uris":{"android":"levelo://app?vid=4eb37566-cfb5-4c86-a3ea-ad0e279d9efa","ios":"levelo://app?vid=4eb37566-cfb5-4c86-a3ea-ad0e279d9efa"},"vehicle_type_id":"4","last_reported":1715619984,"current_range_meters":18400,"station_id":"ce4bhs12rcd13ifvqhvg","pricing_plan_id":"cebpf4jnsgd1na2vs0mg"},{"bike_id":"ab294a79-14d3-426e-b97b-f105f6a1e37c","system_id":"levelo_inurba_marseille","lat":43.324771,"lon":5.36557,"is_reserved":false,"is_disabled":false,"rental_uris":{"android":"levelo://app?vid=ab294a79-14d3-426e-b97b-f105f6a1e37c","ios":"levelo://app?vid=ab294a79-14d3-426e-b97b-f105f6a1e37c"},"vehicle_type_id":"4","last_reported":1715619984,"current_range_meters":23600,"station_id":"ce4bhs12rcd13ifvqhvg","pricing_plan_id":"cebpf4jnsgd1na2vs0mg"},{"bike_id":"e462428f-8777-46bf-be71-6ec0eeb2736e","system_id":"levelo_inurba_marseille","lat":43.32486,"lon":5.36578,"is_reserved":false,"is_disabled":false,"rental_uris":{"android":"levelo://app?vid=e462428f-8777-46bf-be71-6ec0eeb2736e","ios":"levelo://app?vid=e462428f-8777-46bf-be71-6ec0eeb2736e"},"vehicle_type_id":"4","last_reported":1715619984,"current_range_meters":31200,"station_id":"ce4bhs12rcd13ifvqhvg","pricing_plan_id":"cebpf4jnsgd1na2vs0mg"},{"bike_id":"3a519d4f-c77d-4275-9e44-996feb3a9a9b","system_id":"levelo_inurba_marseille","lat":43.324771,"lon":5.36557,"is_reserved":false,"is_disabled":false,"rental_uris":{"android":"levelo://app?vid=3a519d4f-c77d-4275-9e44-996feb3a9a9b","ios":"levelo://app?vid=3a519d4f-c77d-4275-9e44-996feb3a9a9b"},"vehicle_type_id":"4","last_reported":1715619984,"current_range_meters":30000,"station_id":"ce4bhs12rcd13ifvqhvg","pricing_plan_id":"cebpf4jnsgd1na2vs0mg"},{"bike_id":"5f2fb073-342c-4a76-a284-ae0f1fce59d0","system_id":"levelo_inurba_marseille","lat":43.32486,"lon":5.36556,"is_reserved":false,"is_disabled":false,"rental_uris":{"android":"levelo://app?vid=5f2fb073-342c-4a76-a284-ae0f1fce59d0","ios":"levelo://app?vid=5f2fb073-342c-4a76-a284-ae0f1fce59d0"},"vehicle_type_id":"4","last_reported":1715619984,"current_range_meters":11200,"station_id":"ce4bhs12rcd13ifvqhvg","pricing_plan_id":"cebpf4jnsgd1na2vs0mg"},{"bike_id":"fb3c9b9a-5a86-4c2d-8a78-340604ebf99c","system_id":"levelo_inurba_marseille","lat":43.310804,"lon":5.38359,"is_reserved":false,"is_disabled":false,"rental_uris":{"android":"levelo://app?vid=fb3c9b9a-5a86-4c2d-8a78-340604ebf99c","ios":"levelo://app?vid=fb3c9b9a-5a86-4c2d-8a78-340604ebf99c"},"vehicle_type_id":"4","last_reported":1715619984,"current_range_meters":0,"station_id":"ce4bgv92rcd13ifvqcr0","pricing_plan_id":"cebpf4jnsgd1na2vs0mg"},{"bike_id":"3c230e11-2b28-4d5a-9f3d-53e3ba415a41","system_id":"levelo_inurba_marseille","lat":43.302784,"lon":5.377158,"is_reserved":false,"is_disabled":false,"rental_uris":{"android":"levelo://app?vid=3c230e11-2b28-4d5a-9f3d-53e3ba415a41","ios":"levelo://app?vid=3c230e11-2b28-4d5a-9f3d-53e3ba415a41"},"vehicle_type_id":"4","last_reported":1715619984,"current_range_meters":17600,"station_id":"ce4bguh2rcd13ifvqcj0","pricing_plan_id":"cebpf4jnsgd1na2vs0mg"},{"bike_id":"282dff93-8df6-4711-b1c2-96b03aefab2d","system_id":"levelo_inurba_marseille","lat":43.302784,"lon":5.377158,"is_reserved":false,"is_disabled":false,"rental_uris":{"android":"levelo://app?vid=282dff93-8df6-4711-b1c2-96b03aefab2d","ios":"levelo://app?vid=282dff93-8df6-4711-b1c2-96b03aefab2d"},"vehicle_type_id":"4","last_reported":1715619984,"current_range_meters":0,"station_id":"ce4bguh2rcd13ifvqcj0","pricing_plan_id":"cebpf4jnsgd1na2vs0mg"},{"bike_id":"9aa16b5c-5eb7-4cba-89d9-f1b454062d64","system_id":"levelo_inurba_marseille","lat":43.301429,"lon":5.37413,"is_reserved":false,"is_disabled":false,"rental_uris":{"android":"levelo://app?vid=9aa16b5c-5eb7-4cba-89d9-f1b454062d64","ios":"levelo://app?vid=9aa16b5c-5eb7-4cba-89d9-f1b454062d64"},"vehicle_type_id":"4","last_reported":1715619984,"current_range_meters":0,"station_id":"ce4bgs92rcd13ifvqcc0","pricing_plan_id":"cebpf4jnsgd1na2vs0mg"},{"bike_id":"98ab7641-4243-4742-83d2-7988a33855e9","system_id":"levelo_inurba_marseille","lat":43.30143,"lon":5.37427,"is_reserved":false,"is_disabled":false,"rental_uris":{"android":"levelo://app?vid=98ab7641-4243-4742-83d2-7988a33855e9","ios":"levelo://app?vid=98ab7641-4243-4742-83d2-7988a33855e9"},"vehicle_type_id":"4","last_reported":1715619984,"current_range_meters":0,"station_id":"ce4bgs92rcd13ifvqcc0","pricing_plan_id":"cebpf4jnsgd1na2vs0mg"},{"bike_id":"31558d58-cda1-44dc-897c-1d96b09e0cf9","system_id":"levelo_inurba_marseille","lat":43.31983,"lon":5.38135,"is_reserved":false,"is_disabled":false,"rental_uris":{"android":"levelo://app?vid=31558d58-cda1-44dc-897c-1d96b09e0cf9","ios":"levelo://app?vid=31558d58-cda1-44dc-897c-1d96b09e0cf9"},"vehicle_type_id":"4","last_reported":1715619984,"current_range_meters":21600,"station_id":"ce4bhr12rcd13ifvqhpg","pricing_plan_id":"cebpf4jnsgd1na2vs0mg"},{"bike_id":"1a4bc433-547e-49fc-a2ad-2e6c34099fa8","system_id":"levelo_inurba_marseille","lat":43.31991,"lon":5.38143,"is_reserved":false,"is_disabled":false,"rental_uris":{"android":"levelo://app?vid=1a4bc433-547e-49fc-a2ad-2e6c34099fa8","ios":"levelo://app?vid=1a4bc433-547e-49fc-a2ad-2e6c34099fa8"},"vehicle_type_id":"4","last_reported":1715619984,"current_range_meters":18000,"station_id":"ce4bhr12rcd13ifvqhpg","pricing_plan_id":"cebpf4jnsgd1na2vs0mg"},{"bike_id":"a8b07aa1-ffaa-467d-bd9e-8d6b49083ea3","system_id":"levelo_inurba_marseille","lat":43.31993,"lon":5.38147,"is_reserved":false,"is_disabled":false,"rental_uris":{"android":"levelo://app?vid=a8b07aa1-ffaa-467d-bd9e-8d6b49083ea3","ios":"levelo://app?vid=a8b07aa1-ffaa-467d-bd9e-8d6b49083ea3"},"vehicle_type_id":"4","last_reported":1715619984,"current_range_meters":800,"station_id":"ce4bhr12rcd13ifvqhpg","pricing_plan_id":"cebpf4jnsgd1na2vs0mg"},{"bike_id":"6256a61a-d924-4cb1-b393-ce7737778c4f","system_id":"levelo_inurba_marseille","lat":43.31995,"lon":5.38146,"is_reserved":false,"is_disabled":false,"rental_uris":{"android":"levelo://app?vid=6256a61a-d924-4cb1-b393-ce7737778c4f","ios":"levelo://app?vid=6256a61a-d924-4cb1-b393-ce7737778c4f"},"vehicle_type_id":"4","last_reported":1715619984,"current_range_meters":2800,"station_id":"ce4bhr12rcd13ifvqhpg","pricing_plan_id":"cebpf4jnsgd1na2vs0mg"},{"bike_id":"12107fff-753a-439a-a1c9-dfeef19a7c39","system_id":"levelo_inurba_marseille","lat":43.319935,"lon":5.381699,"is_reserved":false,"is_disabled":false,"rental_uris":{"android":"levelo://app?vid=12107fff-753a-439a-a1c9-dfeef19a7c39","ios":"levelo://app?vid=12107fff-753a-439a-a1c9-dfeef19a7c39"},"vehicle_type_id":"4","last_reported":1715619984,"current_range_meters":6400,"station_id":"ce4bhr12rcd13ifvqhpg","pricing_plan_id":"cebpf4jnsgd1na2vs0mg"},{"bike_id":"8cab8ff0-48a7-4c38-a233-c0449eccbbd0","system_id":"levelo_inurba_marseille","lat":43.32,"lon":5.381517,"is_reserved":false,"is_disabled":false,"rental_uris":{"android":"levelo://app?vid=8cab8ff0-48a7-4c38-a233-c0449eccbbd0","ios":"levelo://app?vid=8cab8ff0-48a7-4c38-a233-c0449eccbbd0"},"vehicle_type_id":"4","last_reported":1715619984,"current_range_meters":7600,"station_id":"ce4bhr12rcd13ifvqhpg","pricing_plan_id":"cebpf4jnsgd1na2vs0mg"},{"bike_id":"f9ad6031-4a5a-4ab1-848d-90577ec6e52e","system_id":"levelo_inurba_marseille","lat":43.313571,"lon":5.384829,"is_reserved":false,"is_disabled":false,"rental_uris":{"android":"levelo://app?vid=f9ad6031-4a5a-4ab1-848d-90577ec6e52e","ios":"levelo://app?vid=f9ad6031-4a5a-4ab1-848d-90577ec6e52e"},"vehicle_type_id":"4","last_reported":1715619984,"current_range_meters":1200,"station_id":"ce4bgt92rcd13ifvqcf0","pricing_plan_id":"cebpf4jnsgd1na2vs0mg"},{"bike_id":"165f7cfc-a37c-4e4a-8974-e9fbedbd7536","system_id":"levelo_inurba_marseille","lat":43.313571,"lon":5.384829,"is_reserved":false,"is_disabled":false,"rental_uris":{"android":"levelo://app?vid=165f7cfc-a37c-4e4a-8974-e9fbedbd7536","ios":"levelo://app?vid=165f7cfc-a37c-4e4a-8974-e9fbedbd7536"},"vehicle_type_id":"4","last_reported":1715619984,"current_range_meters":0,"station_id":"ce4bgt92rcd13ifvqcf0","pricing_plan_id":"cebpf4jnsgd1na2vs0mg"},{"bike_id":"10a5ab54-1eac-40c8-bf46-a57e31fe6101","system_id":"levelo_inurba_marseille","lat":43.313571,"lon":5.384829,"is_reserved":false,"is_disabled":false,"rental_uris":{"android":"levelo://app?vid=10a5ab54-1eac-40c8-bf46-a57e31fe6101","ios":"levelo://app?vid=10a5ab54-1eac-40c8-bf46-a57e31fe6101"},"vehicle_type_id":"4","last_reported":1715619984,"current_range_meters":28800,"station_id":"ce4bgt92rcd13ifvqcf0","pricing_plan_id":"cebpf4jnsgd1na2vs0mg"},{"bike_id":"c5a2f0e7-3e31-43c2-a89b-5cc220fccc09","system_id":"levelo_inurba_marseille","lat":43.29986,"lon":5.37179,"is_reserved":false,"is_disabled":false,"rental_uris":{"android":"levelo://app?vid=c5a2f0e7-3e31-43c2-a89b-5cc220fccc09","ios":"levelo://app?vid=c5a2f0e7-3e31-43c2-a89b-5cc220fccc09"},"vehicle_type_id":"4","last_reported":1715619984,"current_range_meters":0,"station_id":"ce4bgr92rcd13ifvqc7g","pricing_plan_id":"cebpf4jnsgd1na2vs0mg"},{"bike_id":"4987dde9-00a3-4763-ad86-748d88311c71","system_id":"levelo_inurba_marseille","lat":43.299724,"lon":5.371829,"is_reserved":false,"is_disabled":false,"rental_uris":{"android":"levelo://app?vid=4987dde9-00a3-4763-ad86-748d88311c71","ios":"levelo://app?vid=4987dde9-00a3-4763-ad86-748d88311c71"},"vehicle_type_id":"4","last_reported":1715619984,"current_range_meters":9200,"station_id":"ce4bgr92rcd13ifvqc7g","pricing_plan_id":"cebpf4jnsgd1na2vs0mg"},{"bike_id":"6b12bd72-50e1-48fa-a381-ccc5ddf0ee63","system_id":"levelo_inurba_marseille","lat":43.299222,"lon":5.365554,"is_reserved":false,"is_disabled":false,"rental_uris":{"android":"levelo://app?vid=6b12bd72-50e1-48fa-a381-ccc5ddf0ee63","ios":"levelo://app?vid=6b12bd72-50e1-48fa-a381-ccc5ddf0ee63"},"vehicle_type_id":"4","last_reported":1715619984,"current_range_meters":0,"station_id":"ce4bgm92rcd13ifvqbr0","pricing_plan_id":"cebpf4jnsgd1na2vs0mg"},{"bike_id":"d1fbfb07-95ea-4067-9e38-193c9f5e2d97","system_id":"levelo_inurba_marseille","lat":43.298433,"lon":5.362774,"is_reserved":false,"is_disabled":false,"rental_uris":{"android":"levelo://app?vid=d1fbfb07-95ea-4067-9e38-193c9f5e2d97","ios":"levelo://app?vid=d1fbfb07-95ea-4067-9e38-193c9f5e2d97"},"vehicle_type_id":"4","last_reported":1715619984,"current_range_meters":0,"station_id":"ce4bgpp2rcd13ifvqc3g","pricing_plan_id":"cebpf4jnsgd1na2vs0mg"},{"bike_id":"f2d0bde9-2c34-4a8b-b575-ad33d1143d26","system_id":"levelo_inurba_marseille","lat":43.305364,"lon":5.384119,"is_reserved":false,"is_disabled":false,"rental_uris":{"android":"levelo://app?vid=f2d0bde9-2c34-4a8b-b575-ad33d1143d26","ios":"levelo://app?vid=f2d0bde9-2c34-4a8b-b575-ad33d1143d26"},"vehicle_type_id":"4","last_reported":1715619984,"current_range_meters":0,"station_id":"ce4bgg92rcd13ifvqb30","pricing_plan_id":"cebpf4jnsgd1na2vs0mg"},{"bike_id":"3d0708fd-9583-4387-8188-c7fde88e279e","system_id":"levelo_inurba_marseille","lat":43.298433,"lon":5.362774,"is_reserved":false,"is_disabled":false,"rental_uris":{"android":"levelo://app?vid=3d0708fd-9583-4387-8188-c7fde88e279e","ios":"levelo://app?vid=3d0708fd-9583-4387-8188-c7fde88e279e"},"vehicle_type_id":"4","last_reported":1715619984,"current_range_meters":16400,"station_id":"ce4bgpp2rcd13ifvqc3g","pricing_plan_id":"cebpf4jnsgd1na2vs0mg"},{"bike_id":"0ae17fb8-7545-4909-be87-6e7b2a8bdcc0","system_id":"levelo_inurba_marseille","lat":43.298433,"lon":5.362774,"is_reserved":false,"is_disabled":false,"rental_uris":{"android":"levelo://app?vid=0ae17fb8-7545-4909-be87-6e7b2a8bdcc0","ios":"levelo://app?vid=0ae17fb8-7545-4909-be87-6e7b2a8bdcc0"},"vehicle_type_id":"4","last_reported":1715619984,"current_range_meters":2400,"station_id":"ce4bgpp2rcd13ifvqc3g","pricing_plan_id":"cebpf4jnsgd1na2vs0mg"},{"bike_id":"828b1719-050f-4452-ace8-ac35c60535d7","system_id":"levelo_inurba_marseille","lat":43.305364,"lon":5.384119,"is_reserved":false,"is_disabled":false,"rental_uris":{"android":"levelo://app?vid=828b1719-050f-4452-ace8-ac35c60535d7","ios":"levelo://app?vid=828b1719-050f-4452-ace8-ac35c60535d7"},"vehicle_type_id":"4","last_reported":1715619984,"current_range_meters":17200,"station_id":"ce4bgg92rcd13ifvqb30","pricing_plan_id":"cebpf4jnsgd1na2vs0mg"},{"bike_id":"44d88c47-315a-492f-99cc-e2acfd981aca","system_id":"levelo_inurba_marseille","lat":43.311722,"lon":5.387247,"is_reserved":false,"is_disabled":false,"rental_uris":{"android":"levelo://app?vid=44d88c47-315a-492f-99cc-e2acfd981aca","ios":"levelo://app?vid=44d88c47-315a-492f-99cc-e2acfd981aca"},"vehicle_type_id":"4","last_reported":1715619984,"current_range_meters":800,"station_id":"ce4bgv12rcd13ifvqcp0","pricing_plan_id":"cebpf4jnsgd1na2vs0mg"},{"bike_id":"7a0a3d96-c39d-45f2-9fb3-c899340f3a93","system_id":"levelo_inurba_marseille","lat":43.297774,"lon":5.370875,"is_reserved":false,"is_disabled":false,"rental_uris":{"android":"levelo://app?vid=7a0a3d96-c39d-45f2-9fb3-c899340f3a93","ios":"levelo://app?vid=7a0a3d96-c39d-45f2-9fb3-c899340f3a93"},"vehicle_type_id":"4","last_reported":1715619984,"current_range_meters":14800,"station_id":"ce4bgop2rcd13ifvqc1g","pricing_plan_id":"cebpf4jnsgd1na2vs0mg"},{"bike_id":"7070e582-e1a7-4d4d-a48b-77174caa0ccb","system_id":"levelo_inurba_marseille","lat":43.32787,"lon":5.36578,"is_reserved":false,"is_disabled":false,"rental_uris":{"android":"levelo://app?vid=7070e582-e1a7-4d4d-a48b-77174caa0ccb","ios":"levelo://app?vid=7070e582-e1a7-4d4d-a48b-77174caa0ccb"},"vehicle_type_id":"4","last_reported":1715619984,"current_range_meters":400,"station_id":"","pricing_plan_id":"cebpf4jnsgd1na2vs0mg"},{"bike_id":"6f1f05d6-cb0d-4cad-924b-39e4d591adf6","system_id":"levelo_inurba_marseille","lat":43.297774,"lon":5.370875,"is_reserved":false,"is_disabled":false,"rental_uris":{"android":"levelo://app?vid=6f1f05d6-cb0d-4cad-924b-39e4d591adf6","ios":"levelo://app?vid=6f1f05d6-cb0d-4cad-924b-39e4d591adf6"},"vehicle_type_id":"4","last_reported":1715619984,"current_range_meters":400,"station_id":"ce4bgop2rcd13ifvqc1g","pricing_plan_id":"cebpf4jnsgd1na2vs0mg"},{"bike_id":"2064c373-2442-45f4-af64-47ae8a41b344","system_id":"levelo_inurba_marseille","lat":43.322872,"lon":5.382756,"is_reserved":false,"is_disabled":false,"rental_uris":{"android":"levelo://app?vid=2064c373-2442-45f4-af64-47ae8a41b344","ios":"levelo://app?vid=2064c373-2442-45f4-af64-47ae8a41b344"},"vehicle_type_id":"4","last_reported":1715619984,"current_range_meters":26000,"station_id":"ce4bhr12rcd13ifvqhqg","pricing_plan_id":"cebpf4jnsgd1na2vs0mg"},{"bike_id":"7981f0db-0b55-4b28-9af0-8b759979755c","system_id":"levelo_inurba_marseille","lat":43.29712,"lon":5.36602,"is_reserved":false,"is_disabled":false,"rental_uris":{"android":"levelo://app?vid=7981f0db-0b55-4b28-9af0-8b759979755c","ios":"levelo://app?vid=7981f0db-0b55-4b28-9af0-8b759979755c"},"vehicle_type_id":"4","last_reported":1715619984,"current_range_meters":0,"station_id":"ce4bgn12rcd13ifvqbt0","pricing_plan_id":"cebpf4jnsgd1na2vs0mg"},{"bike_id":"f5c08c57-f457-44c0-99d8-54c22af2dfd3","system_id":"levelo_inurba_marseille","lat":43.297163,"lon":5.365866,"is_reserved":false,"is_disabled":false,"rental_uris":{"android":"levelo://app?vid=f5c08c57-f457-44c0-99d8-54c22af2dfd3","ios":"levelo://app?vid=f5c08c57-f457-44c0-99d8-54c22af2dfd3"},"vehicle_type_id":"4","last_reported":1715619984,"current_range_meters":18000,"station_id":"ce4bgn12rcd13ifvqbt0","pricing_plan_id":"cebpf4jnsgd1na2vs0mg"},{"bike_id":"882a1b6d-c595-4391-9299-4f9813534981","system_id":"levelo_inurba_marseille","lat":43.297163,"lon":5.365866,"is_reserved":false,"is_disabled":false,"rental_uris":{"android":"levelo://app?vid=882a1b6d-c595-4391-9299-4f9813534981","ios":"levelo://app?vid=882a1b6d-c595-4391-9299-4f9813534981"},"vehicle_type_id":"4","last_reported":1715619984,"current_range_meters":400,"station_id":"ce4bgn12rcd13ifvqbt0","pricing_plan_id":"cebpf4jnsgd1na2vs0mg"},{"bike_id":"ebd598d4-8966-4d64-996e-cee153d57936","system_id":"levelo_inurba_marseille","lat":43.29626,"lon":5.37144,"is_reserved":false,"is_disabled":false,"rental_uris":{"android":"levelo://app?vid=ebd598d4-8966-4d64-996e-cee153d57936","ios":"levelo://app?vid=ebd598d4-8966-4d64-996e-cee153d57936"},"vehicle_type_id":"4","last_reported":1715619984,"current_range_meters":0,"station_id":"ce4bgnh2rcd13ifvqc0g","pricing_plan_id":"cebpf4jnsgd1na2vs0mg"},{"bike_id":"b4552dc5-c591-448a-8ba4-2aa84e1d8ec0","system_id":"levelo_inurba_marseille","lat":43.295911,"lon":5.368474,"is_reserved":false,"is_disabled":false,"rental_uris":{"android":"levelo://app?vid=b4552dc5-c591-448a-8ba4-2aa84e1d8ec0","ios":"levelo://app?vid=b4552dc5-c591-448a-8ba4-2aa84e1d8ec0"},"vehicle_type_id":"4","last_reported":1715619984,"current_range_meters":5200,"station_id":"ce4bgph2rcd13ifvqc2g","pricing_plan_id":"cebpf4jnsgd1na2vs0mg"},{"bike_id":"da92491d-5d07-43ae-b947-5e698d775882","system_id":"levelo_inurba_marseille","lat":43.29584,"lon":5.36743,"is_reserved":false,"is_disabled":false,"rental_uris":{"android":"levelo://app?vid=da92491d-5d07-43ae-b947-5e698d775882","ios":"levelo://app?vid=da92491d-5d07-43ae-b947-5e698d775882"},"vehicle_type_id":"4","last_reported":1715619984,"current_range_meters":5600,"station_id":"ce4bgph2rcd13ifvqc2g","pricing_plan_id":"cebpf4jnsgd1na2vs0mg"},{"bike_id":"3631feb7-ed4e-413c-8472-07490e517f09","system_id":"levelo_inurba_marseille","lat":43.29573,"lon":5.367355,"is_reserved":false,"is_disabled":false,"rental_uris":{"android":"levelo://app?vid=3631feb7-ed4e-413c-8472-07490e517f09","ios":"levelo://app?vid=3631feb7-ed4e-413c-8472-07490e517f09"},"vehicle_type_id":"4","last_reported":1715619984,"current_range_meters":9600,"station_id":"ce4bgph2rcd13ifvqc2g","pricing_plan_id":"cebpf4jnsgd1na2vs0mg"},{"bike_id":"cd10ea68-9d3d-46a4-a8f9-5d94fbbc7283","system_id":"levelo_inurba_marseille","lat":43.29573,"lon":5.367355,"is_reserved":false,"is_disabled":false,"rental_uris":{"android":"levelo://app?vid=cd10ea68-9d3d-46a4-a8f9-5d94fbbc7283","ios":"levelo://app?vid=cd10ea68-9d3d-46a4-a8f9-5d94fbbc7283"},"vehicle_type_id":"4","last_reported":1715619984,"current_range_meters":1200,"station_id":"ce4bgph2rcd13ifvqc2g","pricing_plan_id":"cebpf4jnsgd1na2vs0mg"},{"bike_id":"8b942e93-c3fc-44a4-b71f-31ced9562954","system_id":"levelo_inurba_marseille","lat":43.296921,"lon":5.376579,"is_reserved":false,"is_disabled":false,"rental_uris":{"android":"levelo://app?vid=8b942e93-c3fc-44a4-b71f-31ced9562954","ios":"levelo://app?vid=8b942e93-c3fc-44a4-b71f-31ced9562954"},"vehicle_type_id":"4","last_reported":1715619984,"current_range_meters":0,"station_id":"ce4bgkh2rcd13ifvqbl0","pricing_plan_id":"cebpf4jnsgd1na2vs0mg"},{"bike_id":"67898ee2-0700-4b14-a49c-57a07876f2ea","system_id":"levelo_inurba_marseille","lat":43.296921,"lon":5.376579,"is_reserved":false,"is_disabled":false,"rental_uris":{"android":"levelo://app?vid=67898ee2-0700-4b14-a49c-57a07876f2ea","ios":"levelo://app?vid=67898ee2-0700-4b14-a49c-57a07876f2ea"},"vehicle_type_id":"4","last_reported":1715619984,"current_range_meters":24800,"station_id":"ce4bgkh2rcd13ifvqbl0","pricing_plan_id":"cebpf4jnsgd1na2vs0mg"},{"bike_id":"6e99d5a1-3121-4e2f-822d-67f7c099ee21","system_id":"levelo_inurba_marseille","lat":43.317557,"lon":5.390173,"is_reserved":false,"is_disabled":false,"rental_uris":{"android":"levelo://app?vid=6e99d5a1-3121-4e2f-822d-67f7c099ee21","ios":"levelo://app?vid=6e99d5a1-3121-4e2f-822d-67f7c099ee21"},"vehicle_type_id":"4","last_reported":1715619984,"current_range_meters":9600,"station_id":"ce4bhqp2rcd13ifvqhng","pricing_plan_id":"cebpf4jnsgd1na2vs0mg"},{"bike_id":"2a4d87f5-e664-46d1-afeb-5232b618f50e","system_id":"levelo_inurba_marseille","lat":43.317557,"lon":5.390173,"is_reserved":false,"is_disabled":false,"rental_uris":{"android":"levelo://app?vid=2a4d87f5-e664-46d1-afeb-5232b618f50e","ios":"levelo://app?vid=2a4d87f5-e664-46d1-afeb-5232b618f50e"},"vehicle_type_id":"4","last_reported":1715619984,"current_range_meters":20000,"station_id":"ce4bhqp2rcd13ifvqhng","pricing_plan_id":"cebpf4jnsgd1na2vs0mg"},{"bike_id":"4cfa3d85-899d-4d80-a947-52d53955de68","system_id":"levelo_inurba_marseille","lat":43.317557,"lon":5.390173,"is_reserved":false,"is_disabled":false,"rental_uris":{"android":"levelo://app?vid=4cfa3d85-899d-4d80-a947-52d53955de68","ios":"levelo://app?vid=4cfa3d85-899d-4d80-a947-52d53955de68"},"vehicle_type_id":"4","last_reported":1715619984,"current_range_meters":6800,"station_id":"ce4bhqp2rcd13ifvqhng","pricing_plan_id":"cebpf4jnsgd1na2vs0mg"},{"bike_id":"446f897d-592b-433b-a411-4710a6a1f230","system_id":"levelo_inurba_marseille","lat":43.317557,"lon":5.390173,"is_reserved":false,"is_disabled":false,"rental_uris":{"android":"levelo://app?vid=446f897d-592b-433b-a411-4710a6a1f230","ios":"levelo://app?vid=446f897d-592b-433b-a411-4710a6a1f230"},"vehicle_type_id":"4","last_reported":1715619984,"current_range_meters":17600,"station_id":"ce4bhqp2rcd13ifvqhng","pricing_plan_id":"cebpf4jnsgd1na2vs0mg"},{"bike_id":"46c43389-97eb-4033-8e07-da16c22b87be","system_id":"levelo_inurba_marseille","lat":43.298037,"lon":5.381066,"is_reserved":false,"is_disabled":false,"rental_uris":{"android":"levelo://app?vid=46c43389-97eb-4033-8e07-da16c22b87be","ios":"levelo://app?vid=46c43389-97eb-4033-8e07-da16c22b87be"},"vehicle_type_id":"4","last_reported":1715619984,"current_range_meters":0,"station_id":"ce4bgip2rcd13ifvqbb0","pricing_plan_id":"cebpf4jnsgd1na2vs0mg"},{"bike_id":"115f429f-b9f6-44dd-b129-ace2a5e534b1","system_id":"levelo_inurba_marseille","lat":43.304278,"lon":5.388868,"is_reserved":false,"is_disabled":false,"rental_uris":{"android":"levelo://app?vid=115f429f-b9f6-44dd-b129-ace2a5e534b1","ios":"levelo://app?vid=115f429f-b9f6-44dd-b129-ace2a5e534b1"},"vehicle_type_id":"4","last_reported":1715619984,"current_range_meters":18000,"station_id":"ce4bgk12rcd13ifvqbi0","pricing_plan_id":"cebpf4jnsgd1na2vs0mg"},{"bike_id":"1520da17-f30b-4430-a916-042cd46c1d92","system_id":"levelo_inurba_marseille","lat":43.29798,"lon":5.38087,"is_reserved":false,"is_disabled":false,"rental_uris":{"android":"levelo://app?vid=1520da17-f30b-4430-a916-042cd46c1d92","ios":"levelo://app?vid=1520da17-f30b-4430-a916-042cd46c1d92"},"vehicle_type_id":"4","last_reported":1715619984,"current_range_meters":28800,"station_id":"ce4bgip2rcd13ifvqbb0","pricing_plan_id":"cebpf4jnsgd1na2vs0mg"},{"bike_id":"be4a6fbb-1204-4a72-b16a-079a88586cf6","system_id":"levelo_inurba_marseille","lat":43.304274,"lon":5.388873,"is_reserved":false,"is_disabled":false,"rental_uris":{"android":"levelo://app?vid=be4a6fbb-1204-4a72-b16a-079a88586cf6","ios":"levelo://app?vid=be4a6fbb-1204-4a72-b16a-079a88586cf6"},"vehicle_type_id":"4","last_reported":1715619984,"current_range_meters":4800,"station_id":"ce4bgk12rcd13ifvqbi0","pricing_plan_id":"cebpf4jnsgd1na2vs0mg"},{"bike_id":"bb4a41e5-0004-43bb-b8e4-87262073f7c9","system_id":"levelo_inurba_marseille","lat":43.295748,"lon":5.37522,"is_reserved":false,"is_disabled":false,"rental_uris":{"android":"levelo://app?vid=bb4a41e5-0004-43bb-b8e4-87262073f7c9","ios":"levelo://app?vid=bb4a41e5-0004-43bb-b8e4-87262073f7c9"},"vehicle_type_id":"4","last_reported":1715619984,"current_range_meters":10800,"station_id":"ce4bgh92rcd13ifvqb50","pricing_plan_id":"cebpf4jnsgd1na2vs0mg"},{"bike_id":"4cc2da4b-5b32-43ca-8034-407625d18a5d","system_id":"levelo_inurba_marseille","lat":43.29567,"lon":5.37521,"is_reserved":false,"is_disabled":false,"rental_uris":{"android":"levelo://app?vid=4cc2da4b-5b32-43ca-8034-407625d18a5d","ios":"levelo://app?vid=4cc2da4b-5b32-43ca-8034-407625d18a5d"},"vehicle_type_id":"4","last_reported":1715619984,"current_range_meters":8400,"station_id":"ce4bgh92rcd13ifvqb50","pricing_plan_id":"cebpf4jnsgd1na2vs0mg"},{"bike_id":"0e95c8d5-b5f4-4e25-bb61-92b7ec3e0e5e","system_id":"levelo_inurba_marseille","lat":43.304278,"lon":5.388868,"is_reserved":false,"is_disabled":false,"rental_uris":{"android":"levelo://app?vid=0e95c8d5-b5f4-4e25-bb61-92b7ec3e0e5e","ios":"levelo://app?vid=0e95c8d5-b5f4-4e25-bb61-92b7ec3e0e5e"},"vehicle_type_id":"4","last_reported":1715619984,"current_range_meters":13600,"station_id":"ce4bgk12rcd13ifvqbi0","pricing_plan_id":"cebpf4jnsgd1na2vs0mg"},{"bike_id":"019d0e1b-7974-45ca-ac50-23586cf3e22f","system_id":"levelo_inurba_marseille","lat":43.296277,"lon":5.377108,"is_reserved":false,"is_disabled":false,"rental_uris":{"android":"levelo://app?vid=019d0e1b-7974-45ca-ac50-23586cf3e22f","ios":"levelo://app?vid=019d0e1b-7974-45ca-ac50-23586cf3e22f"},"vehicle_type_id":"4","last_reported":1715619984,"current_range_meters":13600,"station_id":"ce4bgi92rcd13ifvqb90","pricing_plan_id":"cebpf4jnsgd1na2vs0mg"},{"bike_id":"4cdc003e-608d-42d4-b0b6-e990089014bf","system_id":"levelo_inurba_marseille","lat":43.29612,"lon":5.37706,"is_reserved":false,"is_disabled":false,"rental_uris":{"android":"levelo://app?vid=4cdc003e-608d-42d4-b0b6-e990089014bf","ios":"levelo://app?vid=4cdc003e-608d-42d4-b0b6-e990089014bf"},"vehicle_type_id":"4","last_reported":1715619984,"current_range_meters":0,"station_id":"ce4bgi92rcd13ifvqb90","pricing_plan_id":"cebpf4jnsgd1na2vs0mg"},{"bike_id":"5645d3f5-e013-4286-aca6-b0845ae291ae","system_id":"levelo_inurba_marseille","lat":43.304274,"lon":5.388873,"is_reserved":false,"is_disabled":false,"rental_uris":{"android":"levelo://app?vid=5645d3f5-e013-4286-aca6-b0845ae291ae","ios":"levelo://app?vid=5645d3f5-e013-4286-aca6-b0845ae291ae"},"vehicle_type_id":"4","last_reported":1715619984,"current_range_meters":10800,"station_id":"ce4bgk12rcd13ifvqbi0","pricing_plan_id":"cebpf4jnsgd1na2vs0mg"},{"bike_id":"42f1090d-b453-47e5-9afd-8b8649694fc0","system_id":"levelo_inurba_marseille","lat":43.299707,"lon":5.384859,"is_reserved":false,"is_disabled":false,"rental_uris":{"android":"levelo://app?vid=42f1090d-b453-47e5-9afd-8b8649694fc0","ios":"levelo://app?vid=42f1090d-b453-47e5-9afd-8b8649694fc0"},"vehicle_type_id":"4","last_reported":1715619984,"current_range_meters":16000,"station_id":"ce4bgj92rcd13ifvqbd0","pricing_plan_id":"cebpf4jnsgd1na2vs0mg"},{"bike_id":"8fb5bfc5-ebd8-4e11-82d1-a576dcaa2f6a","system_id":"levelo_inurba_marseille","lat":43.299707,"lon":5.384859,"is_reserved":false,"is_disabled":false,"rental_uris":{"android":"levelo://app?vid=8fb5bfc5-ebd8-4e11-82d1-a576dcaa2f6a","ios":"levelo://app?vid=8fb5bfc5-ebd8-4e11-82d1-a576dcaa2f6a"},"vehicle_type_id":"4","last_reported":1715619984,"current_range_meters":0,"station_id":"ce4bgj92rcd13ifvqbd0","pricing_plan_id":"cebpf4jnsgd1na2vs0mg"},{"bike_id":"bac75eac-e4c9-4af0-a22a-86fb4d33e81e","system_id":"levelo_inurba_marseille","lat":43.299724,"lon":5.384848,"is_reserved":false,"is_disabled":false,"rental_uris":{"android":"levelo://app?vid=bac75eac-e4c9-4af0-a22a-86fb4d33e81e","ios":"levelo://app?vid=bac75eac-e4c9-4af0-a22a-86fb4d33e81e"},"vehicle_type_id":"4","last_reported":1715619984,"current_range_meters":28400,"station_id":"ce4bgj92rcd13ifvqbd0","pricing_plan_id":"cebpf4jnsgd1na2vs0mg"},{"bike_id":"107f4001-4090-40c6-bb82-10ca55c1adc9","system_id":"levelo_inurba_marseille","lat":43.299724,"lon":5.384848,"is_reserved":false,"is_disabled":false,"rental_uris":{"android":"levelo://app?vid=107f4001-4090-40c6-bb82-10ca55c1adc9","ios":"levelo://app?vid=107f4001-4090-40c6-bb82-10ca55c1adc9"},"vehicle_type_id":"4","last_reported":1715619984,"current_range_meters":12000,"station_id":"ce4bgj92rcd13ifvqbd0","pricing_plan_id":"cebpf4jnsgd1na2vs0mg"},{"bike_id":"605c9a8a-859c-4e8e-a45b-ca60c0a19371","system_id":"levelo_inurba_marseille","lat":43.317557,"lon":5.390173,"is_reserved":false,"is_disabled":false,"rental_uris":{"android":"levelo://app?vid=605c9a8a-859c-4e8e-a45b-ca60c0a19371","ios":"levelo://app?vid=605c9a8a-859c-4e8e-a45b-ca60c0a19371"},"vehicle_type_id":"4","last_reported":1715619984,"current_range_meters":4400,"station_id":"ce4bhqp2rcd13ifvqhng","pricing_plan_id":"cebpf4jnsgd1na2vs0mg"},{"bike_id":"a43a58b6-0fbe-48a0-a45e-e4bb4c0699c8","system_id":"levelo_inurba_marseille","lat":43.29602,"lon":5.381084,"is_reserved":false,"is_disabled":false,"rental_uris":{"android":"levelo://app?vid=a43a58b6-0fbe-48a0-a45e-e4bb4c0699c8","ios":"levelo://app?vid=a43a58b6-0fbe-48a0-a45e-e4bb4c0699c8"},"vehicle_type_id":"4","last_reported":1715619984,"current_range_meters":14400,"station_id":"ce4bgl12rcd13ifvqbo0","pricing_plan_id":"cebpf4jnsgd1na2vs0mg"},{"bike_id":"70d2b7a3-4dea-4f6b-9fd3-80afe29d1acb","system_id":"levelo_inurba_marseille","lat":43.29602,"lon":5.381084,"is_reserved":false,"is_disabled":false,"rental_uris":{"android":"levelo://app?vid=70d2b7a3-4dea-4f6b-9fd3-80afe29d1acb","ios":"levelo://app?vid=70d2b7a3-4dea-4f6b-9fd3-80afe29d1acb"},"vehicle_type_id":"4","last_reported":1715619984,"current_range_meters":400,"station_id":"ce4bgl12rcd13ifvqbo0","pricing_plan_id":"cebpf4jnsgd1na2vs0mg"},{"bike_id":"3a5dc3a0-7970-4074-bfeb-b52fdb829fd9","system_id":"levelo_inurba_marseille","lat":43.293259,"lon":5.371586,"is_reserved":false,"is_disabled":false,"rental_uris":{"android":"levelo://app?vid=3a5dc3a0-7970-4074-bfeb-b52fdb829fd9","ios":"levelo://app?vid=3a5dc3a0-7970-4074-bfeb-b52fdb829fd9"},"vehicle_type_id":"4","last_reported":1715619984,"current_range_meters":11600,"station_id":"ce4bgh92rcd13ifvqb40","pricing_plan_id":"cebpf4jnsgd1na2vs0mg"},{"bike_id":"75f8a243-14d7-4291-acef-45b39c63424d","system_id":"levelo_inurba_marseille","lat":43.293259,"lon":5.371586,"is_reserved":false,"is_disabled":false,"rental_uris":{"android":"levelo://app?vid=75f8a243-14d7-4291-acef-45b39c63424d","ios":"levelo://app?vid=75f8a243-14d7-4291-acef-45b39c63424d"},"vehicle_type_id":"4","last_reported":1715619984,"current_range_meters":17600,"station_id":"ce4bgh92rcd13ifvqb40","pricing_plan_id":"cebpf4jnsgd1na2vs0mg"},{"bike_id":"993ee701-78f4-4a78-8bb1-f02120b47363","system_id":"levelo_inurba_marseille","lat":43.292749,"lon":5.368398,"is_reserved":false,"is_disabled":false,"rental_uris":{"android":"levelo://app?vid=993ee701-78f4-4a78-8bb1-f02120b47363","ios":"levelo://app?vid=993ee701-78f4-4a78-8bb1-f02120b47363"},"vehicle_type_id":"4","last_reported":1715619984,"current_range_meters":23600,"station_id":"ce4bhbp2rcd13ifvqesg","pricing_plan_id":"cebpf4jnsgd1na2vs0mg"},{"bike_id":"15fd8450-fed8-4fcc-a509-925bfdbc8ed3","system_id":"levelo_inurba_marseille","lat":43.294019,"lon":5.378158,"is_reserved":false,"is_disabled":false,"rental_uris":{"android":"levelo://app?vid=15fd8450-fed8-4fcc-a509-925bfdbc8ed3","ios":"levelo://app?vid=15fd8450-fed8-4fcc-a509-925bfdbc8ed3"},"vehicle_type_id":"4","last_reported":1715619984,"current_range_meters":0,"station_id":"ce4bgjh2rcd13ifvqbf0","pricing_plan_id":"cebpf4jnsgd1na2vs0mg"},{"bike_id":"8685bfc5-6f99-4e5c-9964-99b00b26816e","system_id":"levelo_inurba_marseille","lat":43.293009,"lon":5.374584,"is_reserved":false,"is_disabled":false,"rental_uris":{"android":"levelo://app?vid=8685bfc5-6f99-4e5c-9964-99b00b26816e","ios":"levelo://app?vid=8685bfc5-6f99-4e5c-9964-99b00b26816e"},"vehicle_type_id":"4","last_reported":1715619984,"current_range_meters":12400,"station_id":"ce4bgi12rcd13ifvqb70","pricing_plan_id":"cebpf4jnsgd1na2vs0mg"},{"bike_id":"01dff67d-3a01-4637-9663-009d44877bdc","system_id":"levelo_inurba_marseille","lat":43.305994,"lon":5.393687,"is_reserved":false,"is_disabled":false,"rental_uris":{"android":"levelo://app?vid=01dff67d-3a01-4637-9663-009d44877bdc","ios":"levelo://app?vid=01dff67d-3a01-4637-9663-009d44877bdc"},"vehicle_type_id":"4","last_reported":1715619984,"current_range_meters":7200,"station_id":"ce4bh0p2rcd13ifvqd80","pricing_plan_id":"cebpf4jnsgd1na2vs0mg"},{"bike_id":"b17540e8-2ab8-45b7-9ffc-11ba99133dbe","system_id":"levelo_inurba_marseille","lat":43.293009,"lon":5.374584,"is_reserved":false,"is_disabled":false,"rental_uris":{"android":"levelo://app?vid=b17540e8-2ab8-45b7-9ffc-11ba99133dbe","ios":"levelo://app?vid=b17540e8-2ab8-45b7-9ffc-11ba99133dbe"},"vehicle_type_id":"4","last_reported":1715619984,"current_range_meters":14000,"station_id":"ce4bgi12rcd13ifvqb70","pricing_plan_id":"cebpf4jnsgd1na2vs0mg"},{"bike_id":"906e1e2e-4468-46df-9483-b0ed5e7f1550","system_id":"levelo_inurba_marseille","lat":43.305994,"lon":5.393687,"is_reserved":false,"is_disabled":false,"rental_uris":{"android":"levelo://app?vid=906e1e2e-4468-46df-9483-b0ed5e7f1550","ios":"levelo://app?vid=906e1e2e-4468-46df-9483-b0ed5e7f1550"},"vehicle_type_id":"4","last_reported":1715619984,"current_range_meters":2800,"station_id":"ce4bh0p2rcd13ifvqd80","pricing_plan_id":"cebpf4jnsgd1na2vs0mg"},{"bike_id":"add7d6bd-6539-400f-b2f3-63a5c920604c","system_id":"levelo_inurba_marseille","lat":43.29294,"lon":5.37459,"is_reserved":false,"is_disabled":false,"rental_uris":{"android":"levelo://app?vid=add7d6bd-6539-400f-b2f3-63a5c920604c","ios":"levelo://app?vid=add7d6bd-6539-400f-b2f3-63a5c920604c"},"vehicle_type_id":"4","last_reported":1715619984,"current_range_meters":0,"station_id":"ce4bgi12rcd13ifvqb70","pricing_plan_id":"cebpf4jnsgd1na2vs0mg"},{"bike_id":"0f60dba0-043e-40dc-b728-dc0efb56c394","system_id":"levelo_inurba_marseille","lat":43.293009,"lon":5.374584,"is_reserved":false,"is_disabled":false,"rental_uris":{"android":"levelo://app?vid=0f60dba0-043e-40dc-b728-dc0efb56c394","ios":"levelo://app?vid=0f60dba0-043e-40dc-b728-dc0efb56c394"},"vehicle_type_id":"4","last_reported":1715619984,"current_range_meters":9600,"station_id":"ce4bgi12rcd13ifvqb70","pricing_plan_id":"cebpf4jnsgd1na2vs0mg"},{"bike_id":"6ad1ac77-7492-40b3-9bbb-226a41e531ad","system_id":"levelo_inurba_marseille","lat":43.29294,"lon":5.37465,"is_reserved":false,"is_disabled":false,"rental_uris":{"android":"levelo://app?vid=6ad1ac77-7492-40b3-9bbb-226a41e531ad","ios":"levelo://app?vid=6ad1ac77-7492-40b3-9bbb-226a41e531ad"},"vehicle_type_id":"4","last_reported":1715619984,"current_range_meters":4800,"station_id":"ce4bgi12rcd13ifvqb70","pricing_plan_id":"cebpf4jnsgd1na2vs0mg"},{"bike_id":"5d18ee8b-1bb5-4f9c-a62e-af1a63603cf2","system_id":"levelo_inurba_marseille","lat":43.302992,"lon":5.392136,"is_reserved":false,"is_disabled":false,"rental_uris":{"android":"levelo://app?vid=5d18ee8b-1bb5-4f9c-a62e-af1a63603cf2","ios":"levelo://app?vid=5d18ee8b-1bb5-4f9c-a62e-af1a63603cf2"},"vehicle_type_id":"4","last_reported":1715619984,"current_range_meters":18800,"station_id":"ce4bgkh2rcd13ifvqbk0","pricing_plan_id":"cebpf4jnsgd1na2vs0mg"},{"bike_id":"a71b4b5e-8fdf-4b3e-b454-312a73689127","system_id":"levelo_inurba_marseille","lat":43.303002,"lon":5.392142,"is_reserved":false,"is_disabled":false,"rental_uris":{"android":"levelo://app?vid=a71b4b5e-8fdf-4b3e-b454-312a73689127","ios":"levelo://app?vid=a71b4b5e-8fdf-4b3e-b454-312a73689127"},"vehicle_type_id":"4","last_reported":1715619984,"current_range_meters":4400,"station_id":"ce4bgkh2rcd13ifvqbk0","pricing_plan_id":"cebpf4jnsgd1na2vs0mg"},{"bike_id":"5637bf25-5ba1-48c2-8095-5a541da75a3e","system_id":"levelo_inurba_marseille","lat":43.29374,"lon":5.37846,"is_reserved":false,"is_disabled":false,"rental_uris":{"android":"levelo://app?vid=5637bf25-5ba1-48c2-8095-5a541da75a3e","ios":"levelo://app?vid=5637bf25-5ba1-48c2-8095-5a541da75a3e"},"vehicle_type_id":"4","last_reported":1715619984,"current_range_meters":0,"station_id":"ce4bgjh2rcd13ifvqbf0","pricing_plan_id":"cebpf4jnsgd1na2vs0mg"},{"bike_id":"9d89e380-257d-433b-a570-a0de24048346","system_id":"levelo_inurba_marseille","lat":43.302992,"lon":5.392136,"is_reserved":false,"is_disabled":false,"rental_uris":{"android":"levelo://app?vid=9d89e380-257d-433b-a570-a0de24048346","ios":"levelo://app?vid=9d89e380-257d-433b-a570-a0de24048346"},"vehicle_type_id":"4","last_reported":1715619984,"current_range_meters":22400,"station_id":"ce4bgkh2rcd13ifvqbk0","pricing_plan_id":"cebpf4jnsgd1na2vs0mg"},{"bike_id":"98c5763a-4fb2-473c-9f70-cb9eaf3e0ba8","system_id":"levelo_inurba_marseille","lat":43.302992,"lon":5.392136,"is_reserved":false,"is_disabled":false,"rental_uris":{"android":"levelo://app?vid=98c5763a-4fb2-473c-9f70-cb9eaf3e0ba8","ios":"levelo://app?vid=98c5763a-4fb2-473c-9f70-cb9eaf3e0ba8"},"vehicle_type_id":"4","last_reported":1715619984,"current_range_meters":5200,"station_id":"ce4bgkh2rcd13ifvqbk0","pricing_plan_id":"cebpf4jnsgd1na2vs0mg"},{"bike_id":"a0a4cfb4-6d59-4580-949c-e7f97a2076b8","system_id":"levelo_inurba_marseille","lat":43.29363,"lon":5.37835,"is_reserved":false,"is_disabled":false,"rental_uris":{"android":"levelo://app?vid=a0a4cfb4-6d59-4580-949c-e7f97a2076b8","ios":"levelo://app?vid=a0a4cfb4-6d59-4580-949c-e7f97a2076b8"},"vehicle_type_id":"4","last_reported":1715619984,"current_range_meters":0,"station_id":"ce4bgjh2rcd13ifvqbf0","pricing_plan_id":"cebpf4jnsgd1na2vs0mg"},{"bike_id":"2b5a3e10-7b50-4f10-89dd-b0afd6bd7924","system_id":"levelo_inurba_marseille","lat":43.2936,"lon":5.37835,"is_reserved":false,"is_disabled":false,"rental_uris":{"android":"levelo://app?vid=2b5a3e10-7b50-4f10-89dd-b0afd6bd7924","ios":"levelo://app?vid=2b5a3e10-7b50-4f10-89dd-b0afd6bd7924"},"vehicle_type_id":"4","last_reported":1715619984,"current_range_meters":16000,"station_id":"ce4bgjh2rcd13ifvqbf0","pricing_plan_id":"cebpf4jnsgd1na2vs0mg"},{"bike_id":"0c6b853d-af7e-4dcb-9820-5d163306c43e","system_id":"levelo_inurba_marseille","lat":43.302992,"lon":5.392136,"is_reserved":false,"is_disabled":false,"rental_uris":{"android":"levelo://app?vid=0c6b853d-af7e-4dcb-9820-5d163306c43e","ios":"levelo://app?vid=0c6b853d-af7e-4dcb-9820-5d163306c43e"},"vehicle_type_id":"4","last_reported":1715619984,"current_range_meters":1600,"station_id":"ce4bgkh2rcd13ifvqbk0","pricing_plan_id":"cebpf4jnsgd1na2vs0mg"},{"bike_id":"edbf5974-3c94-4bd4-87b4-dcc449d0ddb7","system_id":"levelo_inurba_marseille","lat":43.29364,"lon":5.37847,"is_reserved":false,"is_disabled":false,"rental_uris":{"android":"levelo://app?vid=edbf5974-3c94-4bd4-87b4-dcc449d0ddb7","ios":"levelo://app?vid=edbf5974-3c94-4bd4-87b4-dcc449d0ddb7"},"vehicle_type_id":"4","last_reported":1715619984,"current_range_meters":0,"station_id":"ce4bgjh2rcd13ifvqbf0","pricing_plan_id":"cebpf4jnsgd1na2vs0mg"},{"bike_id":"8c87a9c1-c6db-4bfd-bef4-4dfa314a701e","system_id":"levelo_inurba_marseille","lat":43.290104,"lon":5.356111,"is_reserved":false,"is_disabled":false,"rental_uris":{"android":"levelo://app?vid=8c87a9c1-c6db-4bfd-bef4-4dfa314a701e","ios":"levelo://app?vid=8c87a9c1-c6db-4bfd-bef4-4dfa314a701e"},"vehicle_type_id":"4","last_reported":1715619984,"current_range_meters":2400,"station_id":"ce4bhb92rcd13ifvqen0","pricing_plan_id":"cebpf4jnsgd1na2vs0mg"},{"bike_id":"fdcdb1bf-c2c6-46ab-9ced-645075259ba0","system_id":"levelo_inurba_marseille","lat":43.30085,"lon":5.390856,"is_reserved":false,"is_disabled":false,"rental_uris":{"android":"levelo://app?vid=fdcdb1bf-c2c6-46ab-9ced-645075259ba0","ios":"levelo://app?vid=fdcdb1bf-c2c6-46ab-9ced-645075259ba0"},"vehicle_type_id":"4","last_reported":1715619984,"current_range_meters":8000,"station_id":"ce4bh192rcd13ifvqdb0","pricing_plan_id":"cebpf4jnsgd1na2vs0mg"},{"bike_id":"25a097a3-916a-424d-972d-2233bc8a4d38","system_id":"levelo_inurba_marseille","lat":43.292311,"lon":5.360731,"is_reserved":false,"is_disabled":false,"rental_uris":{"android":"levelo://app?vid=25a097a3-916a-424d-972d-2233bc8a4d38","ios":"levelo://app?vid=25a097a3-916a-424d-972d-2233bc8a4d38"},"vehicle_type_id":"4","last_reported":1715619984,"current_range_meters":28400,"station_id":"ce4bhbh2rcd13ifvqeqg","pricing_plan_id":"cebpf4jnsgd1na2vs0mg"},{"bike_id":"cc24868a-0527-4fa1-ad46-cf5355970171","system_id":"levelo_inurba_marseille","lat":43.292311,"lon":5.360731,"is_reserved":false,"is_disabled":false,"rental_uris":{"android":"levelo://app?vid=cc24868a-0527-4fa1-ad46-cf5355970171","ios":"levelo://app?vid=cc24868a-0527-4fa1-ad46-cf5355970171"},"vehicle_type_id":"4","last_reported":1715619984,"current_range_meters":18400,"station_id":"ce4bhbh2rcd13ifvqeqg","pricing_plan_id":"cebpf4jnsgd1na2vs0mg"},{"bike_id":"73522178-fb10-4430-864c-b86bcba121af","system_id":"levelo_inurba_marseille","lat":43.292311,"lon":5.360731,"is_reserved":false,"is_disabled":false,"rental_uris":{"android":"levelo://app?vid=73522178-fb10-4430-864c-b86bcba121af","ios":"levelo://app?vid=73522178-fb10-4430-864c-b86bcba121af"},"vehicle_type_id":"4","last_reported":1715619984,"current_range_meters":18800,"station_id":"ce4bhbh2rcd13ifvqeqg","pricing_plan_id":"cebpf4jnsgd1na2vs0mg"},{"bike_id":"b6851426-de51-4d04-8289-e60571f73d8c","system_id":"levelo_inurba_marseille","lat":43.298764,"lon":5.388973,"is_reserved":false,"is_disabled":false,"rental_uris":{"android":"levelo://app?vid=b6851426-de51-4d04-8289-e60571f73d8c","ios":"levelo://app?vid=b6851426-de51-4d04-8289-e60571f73d8c"},"vehicle_type_id":"4","last_reported":1715619984,"current_range_meters":4400,"station_id":"ce4bh392rcd13ifvqdl0","pricing_plan_id":"cebpf4jnsgd1na2vs0mg"},{"bike_id":"35b66e44-4a9f-4ff6-933a-7c4456c8068a","system_id":"levelo_inurba_marseille","lat":43.298764,"lon":5.388973,"is_reserved":false,"is_disabled":false,"rental_uris":{"android":"levelo://app?vid=35b66e44-4a9f-4ff6-933a-7c4456c8068a","ios":"levelo://app?vid=35b66e44-4a9f-4ff6-933a-7c4456c8068a"},"vehicle_type_id":"4","last_reported":1715619984,"current_range_meters":13200,"station_id":"ce4bh392rcd13ifvqdl0","pricing_plan_id":"cebpf4jnsgd1na2vs0mg"},{"bike_id":"b144e821-cd29-479b-a0c0-bbe13a458429","system_id":"levelo_inurba_marseille","lat":43.298764,"lon":5.388973,"is_reserved":false,"is_disabled":false,"rental_uris":{"android":"levelo://app?vid=b144e821-cd29-479b-a0c0-bbe13a458429","ios":"levelo://app?vid=b144e821-cd29-479b-a0c0-bbe13a458429"},"vehicle_type_id":"4","last_reported":1715619984,"current_range_meters":0,"station_id":"ce4bh392rcd13ifvqdl0","pricing_plan_id":"cebpf4jnsgd1na2vs0mg"},{"bike_id":"e70e4dba-e461-4100-9110-d241142f99a7","system_id":"levelo_inurba_marseille","lat":43.298764,"lon":5.388973,"is_reserved":false,"is_disabled":false,"rental_uris":{"android":"levelo://app?vid=e70e4dba-e461-4100-9110-d241142f99a7","ios":"levelo://app?vid=e70e4dba-e461-4100-9110-d241142f99a7"},"vehicle_type_id":"4","last_reported":1715619984,"current_range_meters":23600,"station_id":"ce4bh392rcd13ifvqdl0","pricing_plan_id":"cebpf4jnsgd1na2vs0mg"},{"bike_id":"495f9fb5-6aa0-4873-9379-6a1c926d9d72","system_id":"levelo_inurba_marseille","lat":43.290631,"lon":5.359244,"is_reserved":false,"is_disabled":false,"rental_uris":{"android":"levelo://app?vid=495f9fb5-6aa0-4873-9379-6a1c926d9d72","ios":"levelo://app?vid=495f9fb5-6aa0-4873-9379-6a1c926d9d72"},"vehicle_type_id":"4","last_reported":1715619984,"current_range_meters":19200,"station_id":"ce4bha92rcd13ifvqeg0","pricing_plan_id":"cebpf4jnsgd1na2vs0mg"},{"bike_id":"ef088ec2-675f-404a-9224-0609e5e5c87f","system_id":"levelo_inurba_marseille","lat":43.292005,"lon":5.357875,"is_reserved":false,"is_disabled":false,"rental_uris":{"android":"levelo://app?vid=ef088ec2-675f-404a-9224-0609e5e5c87f","ios":"levelo://app?vid=ef088ec2-675f-404a-9224-0609e5e5c87f"},"vehicle_type_id":"4","last_reported":1715619984,"current_range_meters":16400,"station_id":"ce4bhb12rcd13ifvqel0","pricing_plan_id":"cebpf4jnsgd1na2vs0mg"},{"bike_id":"d438b547-bd33-41a3-a144-73be9832d72f","system_id":"levelo_inurba_marseille","lat":43.291994,"lon":5.357886,"is_reserved":false,"is_disabled":false,"rental_uris":{"android":"levelo://app?vid=d438b547-bd33-41a3-a144-73be9832d72f","ios":"levelo://app?vid=d438b547-bd33-41a3-a144-73be9832d72f"},"vehicle_type_id":"4","last_reported":1715619984,"current_range_meters":2800,"station_id":"ce4bhb12rcd13ifvqel0","pricing_plan_id":"cebpf4jnsgd1na2vs0mg"},{"bike_id":"3e037d4a-c7de-4591-8d5c-1cdf88f62b5c","system_id":"levelo_inurba_marseille","lat":43.313291,"lon":5.396838,"is_reserved":false,"is_disabled":false,"rental_uris":{"android":"levelo://app?vid=3e037d4a-c7de-4591-8d5c-1cdf88f62b5c","ios":"levelo://app?vid=3e037d4a-c7de-4591-8d5c-1cdf88f62b5c"},"vehicle_type_id":"4","last_reported":1715619984,"current_range_meters":3200,"station_id":"ce4bgvp2rcd13ifvqcu0","pricing_plan_id":"cebpf4jnsgd1na2vs0mg"},{"bike_id":"8dd66844-ac13-4233-a15d-f1de60751bdb","system_id":"levelo_inurba_marseille","lat":43.291994,"lon":5.357886,"is_reserved":false,"is_disabled":false,"rental_uris":{"android":"levelo://app?vid=8dd66844-ac13-4233-a15d-f1de60751bdb","ios":"levelo://app?vid=8dd66844-ac13-4233-a15d-f1de60751bdb"},"vehicle_type_id":"4","last_reported":1715619984,"current_range_meters":25200,"station_id":"ce4bhb12rcd13ifvqel0","pricing_plan_id":"cebpf4jnsgd1na2vs0mg"},{"bike_id":"76b9b2b4-5adb-4347-8736-8f3cb40c4b14","system_id":"levelo_inurba_marseille","lat":43.291994,"lon":5.357886,"is_reserved":false,"is_disabled":false,"rental_uris":{"android":"levelo://app?vid=76b9b2b4-5adb-4347-8736-8f3cb40c4b14","ios":"levelo://app?vid=76b9b2b4-5adb-4347-8736-8f3cb40c4b14"},"vehicle_type_id":"4","last_reported":1715619984,"current_range_meters":8800,"station_id":"ce4bhb12rcd13ifvqel0","pricing_plan_id":"cebpf4jnsgd1na2vs0mg"},{"bike_id":"db435af8-4a22-4c6e-81ba-f6e07a42d75b","system_id":"levelo_inurba_marseille","lat":43.313291,"lon":5.396838,"is_reserved":false,"is_disabled":false,"rental_uris":{"android":"levelo://app?vid=db435af8-4a22-4c6e-81ba-f6e07a42d75b","ios":"levelo://app?vid=db435af8-4a22-4c6e-81ba-f6e07a42d75b"},"vehicle_type_id":"4","last_reported":1715619984,"current_range_meters":5200,"station_id":"ce4bgvp2rcd13ifvqcu0","pricing_plan_id":"cebpf4jnsgd1na2vs0mg"},{"bike_id":"5defe4d6-2155-4779-8bbb-1ae9e44a5ea9","system_id":"levelo_inurba_marseille","lat":43.308926,"lon":5.396618,"is_reserved":false,"is_disabled":false,"rental_uris":{"android":"levelo://app?vid=5defe4d6-2155-4779-8bbb-1ae9e44a5ea9","ios":"levelo://app?vid=5defe4d6-2155-4779-8bbb-1ae9e44a5ea9"},"vehicle_type_id":"4","last_reported":1715619984,"current_range_meters":0,"station_id":"ce4bh012rcd13ifvqcv0","pricing_plan_id":"cebpf4jnsgd1na2vs0mg"},{"bike_id":"9021a577-d718-4f38-93af-660291b31855","system_id":"levelo_inurba_marseille","lat":43.29535,"lon":5.38539,"is_reserved":false,"is_disabled":false,"rental_uris":{"android":"levelo://app?vid=9021a577-d718-4f38-93af-660291b31855","ios":"levelo://app?vid=9021a577-d718-4f38-93af-660291b31855"},"vehicle_type_id":"4","last_reported":1715619984,"current_range_meters":800,"station_id":"ce4bgih2rcd13ifvqba0","pricing_plan_id":"cebpf4jnsgd1na2vs0mg"},{"bike_id":"1d332ada-492a-44c2-a23e-065ed1c42811","system_id":"levelo_inurba_marseille","lat":43.29535,"lon":5.3854,"is_reserved":false,"is_disabled":false,"rental_uris":{"android":"levelo://app?vid=1d332ada-492a-44c2-a23e-065ed1c42811","ios":"levelo://app?vid=1d332ada-492a-44c2-a23e-065ed1c42811"},"vehicle_type_id":"4","last_reported":1715619984,"current_range_meters":1600,"station_id":"ce4bgih2rcd13ifvqba0","pricing_plan_id":"cebpf4jnsgd1na2vs0mg"},{"bike_id":"e5f29080-8131-4f67-8720-2972ef4e3290","system_id":"levelo_inurba_marseille","lat":43.29535,"lon":5.38547,"is_reserved":false,"is_disabled":false,"rental_uris":{"android":"levelo://app?vid=e5f29080-8131-4f67-8720-2972ef4e3290","ios":"levelo://app?vid=e5f29080-8131-4f67-8720-2972ef4e3290"},"vehicle_type_id":"4","last_reported":1715619984,"current_range_meters":0,"station_id":"ce4bgih2rcd13ifvqba0","pricing_plan_id":"cebpf4jnsgd1na2vs0mg"},{"bike_id":"54d90662-3144-4f35-ac35-db63bed09a82","system_id":"levelo_inurba_marseille","lat":43.295282,"lon":5.385373,"is_reserved":false,"is_disabled":false,"rental_uris":{"android":"levelo://app?vid=54d90662-3144-4f35-ac35-db63bed09a82","ios":"levelo://app?vid=54d90662-3144-4f35-ac35-db63bed09a82"},"vehicle_type_id":"4","last_reported":1715619984,"current_range_meters":26800,"station_id":"ce4bgih2rcd13ifvqba0","pricing_plan_id":"cebpf4jnsgd1na2vs0mg"},{"bike_id":"1296e001-4845-4ed6-a9c1-1129656ba8ff","system_id":"levelo_inurba_marseille","lat":43.29529,"lon":5.385581,"is_reserved":false,"is_disabled":false,"rental_uris":{"android":"levelo://app?vid=1296e001-4845-4ed6-a9c1-1129656ba8ff","ios":"levelo://app?vid=1296e001-4845-4ed6-a9c1-1129656ba8ff"},"vehicle_type_id":"4","last_reported":1715619984,"current_range_meters":12000,"station_id":"ce4bgih2rcd13ifvqba0","pricing_plan_id":"cebpf4jnsgd1na2vs0mg"},{"bike_id":"0742ab4a-1827-4bb4-9112-94c408dc6c6b","system_id":"levelo_inurba_marseille","lat":43.29526,"lon":5.38536,"is_reserved":false,"is_disabled":false,"rental_uris":{"android":"levelo://app?vid=0742ab4a-1827-4bb4-9112-94c408dc6c6b","ios":"levelo://app?vid=0742ab4a-1827-4bb4-9112-94c408dc6c6b"},"vehicle_type_id":"4","last_reported":1715619984,"current_range_meters":10000,"station_id":"ce4bgih2rcd13ifvqba0","pricing_plan_id":"cebpf4jnsgd1na2vs0mg"},{"bike_id":"c9e9a169-e7e0-407c-bff7-69df359b7d29","system_id":"levelo_inurba_marseille","lat":43.29529,"lon":5.38543,"is_reserved":false,"is_disabled":false,"rental_uris":{"android":"levelo://app?vid=c9e9a169-e7e0-407c-bff7-69df359b7d29","ios":"levelo://app?vid=c9e9a169-e7e0-407c-bff7-69df359b7d29"},"vehicle_type_id":"4","last_reported":1715619984,"current_range_meters":0,"station_id":"ce4bgih2rcd13ifvqba0","pricing_plan_id":"cebpf4jnsgd1na2vs0mg"},{"bike_id":"90ebe402-bc58-47fc-8f5f-3078cf0fcce2","system_id":"levelo_inurba_marseille","lat":43.29531,"lon":5.38548,"is_reserved":false,"is_disabled":false,"rental_uris":{"android":"levelo://app?vid=90ebe402-bc58-47fc-8f5f-3078cf0fcce2","ios":"levelo://app?vid=90ebe402-bc58-47fc-8f5f-3078cf0fcce2"},"vehicle_type_id":"4","last_reported":1715619984,"current_range_meters":3200,"station_id":"ce4bgih2rcd13ifvqba0","pricing_plan_id":"cebpf4jnsgd1na2vs0mg"},{"bike_id":"8495baf9-1d4a-4ace-8cc2-5d52848a651f","system_id":"levelo_inurba_marseille","lat":43.302008,"lon":5.394694,"is_reserved":false,"is_disabled":false,"rental_uris":{"android":"levelo://app?vid=8495baf9-1d4a-4ace-8cc2-5d52848a651f","ios":"levelo://app?vid=8495baf9-1d4a-4ace-8cc2-5d52848a651f"},"vehicle_type_id":"4","last_reported":1715619984,"current_range_meters":7600,"station_id":"ce4bh0p2rcd13ifvqd70","pricing_plan_id":"cebpf4jnsgd1na2vs0mg"},{"bike_id":"3f6dafb3-4036-47a8-a130-faef546e17ba","system_id":"levelo_inurba_marseille","lat":43.302008,"lon":5.394694,"is_reserved":false,"is_disabled":false,"rental_uris":{"android":"levelo://app?vid=3f6dafb3-4036-47a8-a130-faef546e17ba","ios":"levelo://app?vid=3f6dafb3-4036-47a8-a130-faef546e17ba"},"vehicle_type_id":"4","last_reported":1715619984,"current_range_meters":12800,"station_id":"ce4bh0p2rcd13ifvqd70","pricing_plan_id":"cebpf4jnsgd1na2vs0mg"},{"bike_id":"25abc26f-2b74-4991-b442-5bbae0c5783f","system_id":"levelo_inurba_marseille","lat":43.290624,"lon":5.359245,"is_reserved":false,"is_disabled":false,"rental_uris":{"android":"levelo://app?vid=25abc26f-2b74-4991-b442-5bbae0c5783f","ios":"levelo://app?vid=25abc26f-2b74-4991-b442-5bbae0c5783f"},"vehicle_type_id":"4","last_reported":1715619984,"current_range_meters":0,"station_id":"ce4bha92rcd13ifvqeg0","pricing_plan_id":"cebpf4jnsgd1na2vs0mg"},{"bike_id":"444d8e22-759c-49ee-bea7-9578cb52e238","system_id":"levelo_inurba_marseille","lat":43.290631,"lon":5.359244,"is_reserved":false,"is_disabled":false,"rental_uris":{"android":"levelo://app?vid=444d8e22-759c-49ee-bea7-9578cb52e238","ios":"levelo://app?vid=444d8e22-759c-49ee-bea7-9578cb52e238"},"vehicle_type_id":"4","last_reported":1715619984,"current_range_meters":20000,"station_id":"ce4bha92rcd13ifvqeg0","pricing_plan_id":"cebpf4jnsgd1na2vs0mg"},{"bike_id":"184bfb8f-cb48-4d7b-9a42-a660f93a2a0c","system_id":"levelo_inurba_marseille","lat":43.290631,"lon":5.359244,"is_reserved":false,"is_disabled":false,"rental_uris":{"android":"levelo://app?vid=184bfb8f-cb48-4d7b-9a42-a660f93a2a0c","ios":"levelo://app?vid=184bfb8f-cb48-4d7b-9a42-a660f93a2a0c"},"vehicle_type_id":"4","last_reported":1715619984,"current_range_meters":2800,"station_id":"ce4bha92rcd13ifvqeg0","pricing_plan_id":"cebpf4jnsgd1na2vs0mg"},{"bike_id":"7aa8229f-3fc0-4c4a-b109-fa35782a2270","system_id":"levelo_inurba_marseille","lat":43.294162,"lon":5.386292,"is_reserved":false,"is_disabled":false,"rental_uris":{"android":"levelo://app?vid=7aa8229f-3fc0-4c4a-b109-fa35782a2270","ios":"levelo://app?vid=7aa8229f-3fc0-4c4a-b109-fa35782a2270"},"vehicle_type_id":"4","last_reported":1715619984,"current_range_meters":0,"station_id":"ce4bh2h2rcd13ifvqdh0","pricing_plan_id":"cebpf4jnsgd1na2vs0mg"},{"bike_id":"3330072d-deef-41e5-bb67-576545469737","system_id":"levelo_inurba_marseille","lat":43.29426,"lon":5.38613,"is_reserved":false,"is_disabled":false,"rental_uris":{"android":"levelo://app?vid=3330072d-deef-41e5-bb67-576545469737","ios":"levelo://app?vid=3330072d-deef-41e5-bb67-576545469737"},"vehicle_type_id":"4","last_reported":1715619984,"current_range_meters":25200,"station_id":"ce4bh2h2rcd13ifvqdh0","pricing_plan_id":"cebpf4jnsgd1na2vs0mg"},{"bike_id":"dae4011f-fba8-4336-beb5-88fbe903fe2e","system_id":"levelo_inurba_marseille","lat":43.29429,"lon":5.3862,"is_reserved":false,"is_disabled":false,"rental_uris":{"android":"levelo://app?vid=dae4011f-fba8-4336-beb5-88fbe903fe2e","ios":"levelo://app?vid=dae4011f-fba8-4336-beb5-88fbe903fe2e"},"vehicle_type_id":"4","last_reported":1715619984,"current_range_meters":11600,"station_id":"ce4bh2h2rcd13ifvqdh0","pricing_plan_id":"cebpf4jnsgd1na2vs0mg"},{"bike_id":"099026a4-ab4d-4cb4-a835-b5c21161fda3","system_id":"levelo_inurba_marseille","lat":43.29422,"lon":5.3862,"is_reserved":false,"is_disabled":false,"rental_uris":{"android":"levelo://app?vid=099026a4-ab4d-4cb4-a835-b5c21161fda3","ios":"levelo://app?vid=099026a4-ab4d-4cb4-a835-b5c21161fda3"},"vehicle_type_id":"4","last_reported":1715619984,"current_range_meters":6000,"station_id":"ce4bh2h2rcd13ifvqdh0","pricing_plan_id":"cebpf4jnsgd1na2vs0mg"},{"bike_id":"1adca55b-19ca-48c8-892f-5fc960bf868e","system_id":"levelo_inurba_marseille","lat":43.2904,"lon":5.3757,"is_reserved":false,"is_disabled":false,"rental_uris":{"android":"levelo://app?vid=1adca55b-19ca-48c8-892f-5fc960bf868e","ios":"levelo://app?vid=1adca55b-19ca-48c8-892f-5fc960bf868e"},"vehicle_type_id":"4","last_reported":1715619984,"current_range_meters":0,"station_id":"ce4bh692rcd13ifvqe90","pricing_plan_id":"cebpf4jnsgd1na2vs0mg"},{"bike_id":"0decff1a-3dd8-430d-89fe-df4da5d24858","system_id":"levelo_inurba_marseille","lat":43.294162,"lon":5.386292,"is_reserved":false,"is_disabled":false,"rental_uris":{"android":"levelo://app?vid=0decff1a-3dd8-430d-89fe-df4da5d24858","ios":"levelo://app?vid=0decff1a-3dd8-430d-89fe-df4da5d24858"},"vehicle_type_id":"4","last_reported":1715619984,"current_range_meters":30000,"station_id":"ce4bh2h2rcd13ifvqdh0","pricing_plan_id":"cebpf4jnsgd1na2vs0mg"},{"bike_id":"97399023-469a-44fd-ad9d-6d775beee5ee","system_id":"levelo_inurba_marseille","lat":43.294153,"lon":5.386305,"is_reserved":false,"is_disabled":false,"rental_uris":{"android":"levelo://app?vid=97399023-469a-44fd-ad9d-6d775beee5ee","ios":"levelo://app?vid=97399023-469a-44fd-ad9d-6d775beee5ee"},"vehicle_type_id":"4","last_reported":1715619984,"current_range_meters":28000,"station_id":"ce4bh2h2rcd13ifvqdh0","pricing_plan_id":"cebpf4jnsgd1na2vs0mg"},{"bike_id":"94c6df3a-fdd6-4cca-8d7a-6a9f3f4e7b21","system_id":"levelo_inurba_marseille","lat":43.294162,"lon":5.386292,"is_reserved":false,"is_disabled":false,"rental_uris":{"android":"levelo://app?vid=94c6df3a-fdd6-4cca-8d7a-6a9f3f4e7b21","ios":"levelo://app?vid=94c6df3a-fdd6-4cca-8d7a-6a9f3f4e7b21"},"vehicle_type_id":"4","last_reported":1715619984,"current_range_meters":3200,"station_id":"ce4bh2h2rcd13ifvqdh0","pricing_plan_id":"cebpf4jnsgd1na2vs0mg"},{"bike_id":"01793f9a-2ac4-4cfc-aa55-a374252c84a9","system_id":"levelo_inurba_marseille","lat":43.29418,"lon":5.38619,"is_reserved":false,"is_disabled":false,"rental_uris":{"android":"levelo://app?vid=01793f9a-2ac4-4cfc-aa55-a374252c84a9","ios":"levelo://app?vid=01793f9a-2ac4-4cfc-aa55-a374252c84a9"},"vehicle_type_id":"4","last_reported":1715619984,"current_range_meters":15600,"station_id":"ce4bh2h2rcd13ifvqdh0","pricing_plan_id":"cebpf4jnsgd1na2vs0mg"},{"bike_id":"13539d69-0169-4b43-9633-b364d0cde669","system_id":"levelo_inurba_marseille","lat":43.294162,"lon":5.386292,"is_reserved":false,"is_disabled":false,"rental_uris":{"android":"levelo://app?vid=13539d69-0169-4b43-9633-b364d0cde669","ios":"levelo://app?vid=13539d69-0169-4b43-9633-b364d0cde669"},"vehicle_type_id":"4","last_reported":1715619984,"current_range_meters":12800,"station_id":"ce4bh2h2rcd13ifvqdh0","pricing_plan_id":"cebpf4jnsgd1na2vs0mg"},{"bike_id":"9f0ddda6-faa4-4091-8991-fafe97f62236","system_id":"levelo_inurba_marseille","lat":43.294162,"lon":5.386292,"is_reserved":false,"is_disabled":false,"rental_uris":{"android":"levelo://app?vid=9f0ddda6-faa4-4091-8991-fafe97f62236","ios":"levelo://app?vid=9f0ddda6-faa4-4091-8991-fafe97f62236"},"vehicle_type_id":"4","last_reported":1715619984,"current_range_meters":31200,"station_id":"ce4bh2h2rcd13ifvqdh0","pricing_plan_id":"cebpf4jnsgd1na2vs0mg"},{"bike_id":"59a36e1b-c9e9-4095-8648-baf86f65c231","system_id":"levelo_inurba_marseille","lat":43.294162,"lon":5.386292,"is_reserved":false,"is_disabled":false,"rental_uris":{"android":"levelo://app?vid=59a36e1b-c9e9-4095-8648-baf86f65c231","ios":"levelo://app?vid=59a36e1b-c9e9-4095-8648-baf86f65c231"},"vehicle_type_id":"4","last_reported":1715619984,"current_range_meters":24800,"station_id":"ce4bh2h2rcd13ifvqdh0","pricing_plan_id":"cebpf4jnsgd1na2vs0mg"},{"bike_id":"580f04aa-abd8-4a41-923f-821c7eb9d511","system_id":"levelo_inurba_marseille","lat":43.29414,"lon":5.38615,"is_reserved":false,"is_disabled":false,"rental_uris":{"android":"levelo://app?vid=580f04aa-abd8-4a41-923f-821c7eb9d511","ios":"levelo://app?vid=580f04aa-abd8-4a41-923f-821c7eb9d511"},"vehicle_type_id":"4","last_reported":1715619984,"current_range_meters":10000,"station_id":"ce4bh2h2rcd13ifvqdh0","pricing_plan_id":"cebpf4jnsgd1na2vs0mg"},{"bike_id":"29073f1b-7f2a-4793-9b7d-83616bc29b85","system_id":"levelo_inurba_marseille","lat":43.289468,"lon":5.363719,"is_reserved":false,"is_disabled":false,"rental_uris":{"android":"levelo://app?vid=29073f1b-7f2a-4793-9b7d-83616bc29b85","ios":"levelo://app?vid=29073f1b-7f2a-4793-9b7d-83616bc29b85"},"vehicle_type_id":"4","last_reported":1715619984,"current_range_meters":3200,"station_id":"ce4bhc92rcd13ifvqetg","pricing_plan_id":"cebpf4jnsgd1na2vs0mg"},{"bike_id":"4d9c7143-8c75-4418-80b1-a3171ffedcc6","system_id":"levelo_inurba_marseille","lat":43.294162,"lon":5.386292,"is_reserved":false,"is_disabled":false,"rental_uris":{"android":"levelo://app?vid=4d9c7143-8c75-4418-80b1-a3171ffedcc6","ios":"levelo://app?vid=4d9c7143-8c75-4418-80b1-a3171ffedcc6"},"vehicle_type_id":"4","last_reported":1715619984,"current_range_meters":7600,"station_id":"ce4bh2h2rcd13ifvqdh0","pricing_plan_id":"cebpf4jnsgd1na2vs0mg"},{"bike_id":"9c97e1b0-af9c-408a-8b98-055364c2685f","system_id":"levelo_inurba_marseille","lat":43.29415,"lon":5.3862,"is_reserved":false,"is_disabled":false,"rental_uris":{"android":"levelo://app?vid=9c97e1b0-af9c-408a-8b98-055364c2685f","ios":"levelo://app?vid=9c97e1b0-af9c-408a-8b98-055364c2685f"},"vehicle_type_id":"4","last_reported":1715619984,"current_range_meters":16400,"station_id":"ce4bh2h2rcd13ifvqdh0","pricing_plan_id":"cebpf4jnsgd1na2vs0mg"},{"bike_id":"2f09e860-6e64-44af-bab3-306bdf90f5df","system_id":"levelo_inurba_marseille","lat":43.29413,"lon":5.38619,"is_reserved":false,"is_disabled":false,"rental_uris":{"android":"levelo://app?vid=2f09e860-6e64-44af-bab3-306bdf90f5df","ios":"levelo://app?vid=2f09e860-6e64-44af-bab3-306bdf90f5df"},"vehicle_type_id":"4","last_reported":1715619984,"current_range_meters":3600,"station_id":"ce4bh2h2rcd13ifvqdh0","pricing_plan_id":"cebpf4jnsgd1na2vs0mg"},{"bike_id":"3055e5ff-9204-4426-852d-e89a0fce2f8c","system_id":"levelo_inurba_marseille","lat":43.294162,"lon":5.386292,"is_reserved":false,"is_disabled":false,"rental_uris":{"android":"levelo://app?vid=3055e5ff-9204-4426-852d-e89a0fce2f8c","ios":"levelo://app?vid=3055e5ff-9204-4426-852d-e89a0fce2f8c"},"vehicle_type_id":"4","last_reported":1715619984,"current_range_meters":6400,"station_id":"ce4bh2h2rcd13ifvqdh0","pricing_plan_id":"cebpf4jnsgd1na2vs0mg"},{"bike_id":"4745de76-18fa-4dc9-8d3e-c4af762f877f","system_id":"levelo_inurba_marseille","lat":43.289184,"lon":5.366408,"is_reserved":false,"is_disabled":false,"rental_uris":{"android":"levelo://app?vid=4745de76-18fa-4dc9-8d3e-c4af762f877f","ios":"levelo://app?vid=4745de76-18fa-4dc9-8d3e-c4af762f877f"},"vehicle_type_id":"4","last_reported":1715619984,"current_range_meters":3200,"station_id":"ce4bhap2rcd13ifvqek0","pricing_plan_id":"cebpf4jnsgd1na2vs0mg"},{"bike_id":"e1fcd140-67a1-46b5-81ae-7020f5499f72","system_id":"levelo_inurba_marseille","lat":43.294077,"lon":5.38614,"is_reserved":false,"is_disabled":false,"rental_uris":{"android":"levelo://app?vid=e1fcd140-67a1-46b5-81ae-7020f5499f72","ios":"levelo://app?vid=e1fcd140-67a1-46b5-81ae-7020f5499f72"},"vehicle_type_id":"4","last_reported":1715619984,"current_range_meters":0,"station_id":"ce4bh2h2rcd13ifvqdh0","pricing_plan_id":"cebpf4jnsgd1na2vs0mg"},{"bike_id":"46298c36-9185-405e-be36-8aaa8747cdab","system_id":"levelo_inurba_marseille","lat":43.289468,"lon":5.363719,"is_reserved":false,"is_disabled":false,"rental_uris":{"android":"levelo://app?vid=46298c36-9185-405e-be36-8aaa8747cdab","ios":"levelo://app?vid=46298c36-9185-405e-be36-8aaa8747cdab"},"vehicle_type_id":"4","last_reported":1715619984,"current_range_meters":5200,"station_id":"ce4bhc92rcd13ifvqetg","pricing_plan_id":"cebpf4jnsgd1na2vs0mg"},{"bike_id":"71f9df9e-e20c-4b2d-8a07-183cd38398ca","system_id":"levelo_inurba_marseille","lat":43.29414,"lon":5.38633,"is_reserved":false,"is_disabled":false,"rental_uris":{"android":"levelo://app?vid=71f9df9e-e20c-4b2d-8a07-183cd38398ca","ios":"levelo://app?vid=71f9df9e-e20c-4b2d-8a07-183cd38398ca"},"vehicle_type_id":"4","last_reported":1715619984,"current_range_meters":0,"station_id":"ce4bh2h2rcd13ifvqdh0","pricing_plan_id":"cebpf4jnsgd1na2vs0mg"},{"bike_id":"11815e6e-098a-4f8e-b569-cbd6e697c754","system_id":"levelo_inurba_marseille","lat":43.289184,"lon":5.366408,"is_reserved":false,"is_disabled":false,"rental_uris":{"android":"levelo://app?vid=11815e6e-098a-4f8e-b569-cbd6e697c754","ios":"levelo://app?vid=11815e6e-098a-4f8e-b569-cbd6e697c754"},"vehicle_type_id":"4","last_reported":1715619984,"current_range_meters":10000,"station_id":"ce4bhap2rcd13ifvqek0","pricing_plan_id":"cebpf4jnsgd1na2vs0mg"},{"bike_id":"b8659000-14af-443a-b34c-64f804cb628c","system_id":"levelo_inurba_marseille","lat":43.289184,"lon":5.366408,"is_reserved":false,"is_disabled":false,"rental_uris":{"android":"levelo://app?vid=b8659000-14af-443a-b34c-64f804cb628c","ios":"levelo://app?vid=b8659000-14af-443a-b34c-64f804cb628c"},"vehicle_type_id":"4","last_reported":1715619984,"current_range_meters":0,"station_id":"ce4bhap2rcd13ifvqek0","pricing_plan_id":"cebpf4jnsgd1na2vs0mg"},{"bike_id":"ce2a2116-a504-49a1-8fe9-c09debc5c0e0","system_id":"levelo_inurba_marseille","lat":43.289468,"lon":5.363719,"is_reserved":false,"is_disabled":false,"rental_uris":{"android":"levelo://app?vid=ce2a2116-a504-49a1-8fe9-c09debc5c0e0","ios":"levelo://app?vid=ce2a2116-a504-49a1-8fe9-c09debc5c0e0"},"vehicle_type_id":"4","last_reported":1715619984,"current_range_meters":800,"station_id":"ce4bhc92rcd13ifvqetg","pricing_plan_id":"cebpf4jnsgd1na2vs0mg"},{"bike_id":"ef75dda9-4523-4bf6-8e70-55523f721edc","system_id":"levelo_inurba_marseille","lat":43.289468,"lon":5.363719,"is_reserved":false,"is_disabled":false,"rental_uris":{"android":"levelo://app?vid=ef75dda9-4523-4bf6-8e70-55523f721edc","ios":"levelo://app?vid=ef75dda9-4523-4bf6-8e70-55523f721edc"},"vehicle_type_id":"4","last_reported":1715619984,"current_range_meters":14000,"station_id":"ce4bhc92rcd13ifvqetg","pricing_plan_id":"cebpf4jnsgd1na2vs0mg"},{"bike_id":"1b691042-d531-41db-a4c7-df9dfb8b3686","system_id":"levelo_inurba_marseille","lat":43.289184,"lon":5.366408,"is_reserved":false,"is_disabled":false,"rental_uris":{"android":"levelo://app?vid=1b691042-d531-41db-a4c7-df9dfb8b3686","ios":"levelo://app?vid=1b691042-d531-41db-a4c7-df9dfb8b3686"},"vehicle_type_id":"4","last_reported":1715619984,"current_range_meters":14400,"station_id":"ce4bhap2rcd13ifvqek0","pricing_plan_id":"cebpf4jnsgd1na2vs0mg"},{"bike_id":"2f869334-7701-4180-94ff-fea8a171b59a","system_id":"levelo_inurba_marseille","lat":43.289468,"lon":5.363719,"is_reserved":false,"is_disabled":false,"rental_uris":{"android":"levelo://app?vid=2f869334-7701-4180-94ff-fea8a171b59a","ios":"levelo://app?vid=2f869334-7701-4180-94ff-fea8a171b59a"},"vehicle_type_id":"4","last_reported":1715619984,"current_range_meters":0,"station_id":"ce4bhc92rcd13ifvqetg","pricing_plan_id":"cebpf4jnsgd1na2vs0mg"},{"bike_id":"1d07dc32-4eaa-4834-8146-0a3e8cf1a63d","system_id":"levelo_inurba_marseille","lat":43.292642,"lon":5.384254,"is_reserved":false,"is_disabled":false,"rental_uris":{"android":"levelo://app?vid=1d07dc32-4eaa-4834-8146-0a3e8cf1a63d","ios":"levelo://app?vid=1d07dc32-4eaa-4834-8146-0a3e8cf1a63d"},"vehicle_type_id":"4","last_reported":1715619984,"current_range_meters":24800,"station_id":"ce4bh692rcd13ifvqea0","pricing_plan_id":"cebpf4jnsgd1na2vs0mg"},{"bike_id":"338e5263-8d1b-4b3c-8e83-7e12eaaad60c","system_id":"levelo_inurba_marseille","lat":43.30422,"lon":5.3974,"is_reserved":false,"is_disabled":false,"rental_uris":{"android":"levelo://app?vid=338e5263-8d1b-4b3c-8e83-7e12eaaad60c","ios":"levelo://app?vid=338e5263-8d1b-4b3c-8e83-7e12eaaad60c"},"vehicle_type_id":"4","last_reported":1715619984,"current_range_meters":21200,"station_id":"ce4bh092rcd13ifvqd20","pricing_plan_id":"cebpf4jnsgd1na2vs0mg"},{"bike_id":"6732bb27-011e-4a69-b5ec-ddb3457f8c2b","system_id":"levelo_inurba_marseille","lat":43.292642,"lon":5.384254,"is_reserved":false,"is_disabled":false,"rental_uris":{"android":"levelo://app?vid=6732bb27-011e-4a69-b5ec-ddb3457f8c2b","ios":"levelo://app?vid=6732bb27-011e-4a69-b5ec-ddb3457f8c2b"},"vehicle_type_id":"4","last_reported":1715619984,"current_range_meters":27200,"station_id":"ce4bh692rcd13ifvqea0","pricing_plan_id":"cebpf4jnsgd1na2vs0mg"},{"bike_id":"8c980d25-04fc-48d6-aefd-34dab91dbe18","system_id":"levelo_inurba_marseille","lat":43.30423,"lon":5.39743,"is_reserved":false,"is_disabled":false,"rental_uris":{"android":"levelo://app?vid=8c980d25-04fc-48d6-aefd-34dab91dbe18","ios":"levelo://app?vid=8c980d25-04fc-48d6-aefd-34dab91dbe18"},"vehicle_type_id":"4","last_reported":1715619984,"current_range_meters":1200,"station_id":"ce4bh092rcd13ifvqd20","pricing_plan_id":"cebpf4jnsgd1na2vs0mg"},{"bike_id":"44ef5c8e-82e7-4d4e-badc-27363167fdcf","system_id":"levelo_inurba_marseille","lat":43.29265,"lon":5.38445,"is_reserved":false,"is_disabled":false,"rental_uris":{"android":"levelo://app?vid=44ef5c8e-82e7-4d4e-badc-27363167fdcf","ios":"levelo://app?vid=44ef5c8e-82e7-4d4e-badc-27363167fdcf"},"vehicle_type_id":"4","last_reported":1715619984,"current_range_meters":0,"station_id":"ce4bh692rcd13ifvqea0","pricing_plan_id":"cebpf4jnsgd1na2vs0mg"},{"bike_id":"ef6b8cf4-6806-4085-a3ff-f8a5636ec5d5","system_id":"levelo_inurba_marseille","lat":43.292644,"lon":5.384257,"is_reserved":false,"is_disabled":false,"rental_uris":{"android":"levelo://app?vid=ef6b8cf4-6806-4085-a3ff-f8a5636ec5d5","ios":"levelo://app?vid=ef6b8cf4-6806-4085-a3ff-f8a5636ec5d5"},"vehicle_type_id":"4","last_reported":1715619984,"current_range_meters":0,"station_id":"ce4bh692rcd13ifvqea0","pricing_plan_id":"cebpf4jnsgd1na2vs0mg"},{"bike_id":"878745e2-b0d2-42f5-a500-efc7460389ed","system_id":"levelo_inurba_marseille","lat":43.283494,"lon":5.380945,"is_reserved":false,"is_disabled":false,"rental_uris":{"android":"levelo://app?vid=878745e2-b0d2-42f5-a500-efc7460389ed","ios":"levelo://app?vid=878745e2-b0d2-42f5-a500-efc7460389ed"},"vehicle_type_id":"4","last_reported":1715619984,"current_range_meters":14400,"station_id":"ce4bh412rcd13ifvqdr0","pricing_plan_id":"cebpf4jnsgd1na2vs0mg"},{"bike_id":"f95b7867-4ebf-4d7c-abbd-69ae9c0e3ad5","system_id":"levelo_inurba_marseille","lat":43.292644,"lon":5.384257,"is_reserved":false,"is_disabled":false,"rental_uris":{"android":"levelo://app?vid=f95b7867-4ebf-4d7c-abbd-69ae9c0e3ad5","ios":"levelo://app?vid=f95b7867-4ebf-4d7c-abbd-69ae9c0e3ad5"},"vehicle_type_id":"4","last_reported":1715619984,"current_range_meters":22400,"station_id":"ce4bh692rcd13ifvqea0","pricing_plan_id":"cebpf4jnsgd1na2vs0mg"},{"bike_id":"a053d0f1-221b-4a96-9f87-b511c30c3633","system_id":"levelo_inurba_marseille","lat":43.30416,"lon":5.39748,"is_reserved":false,"is_disabled":false,"rental_uris":{"android":"levelo://app?vid=a053d0f1-221b-4a96-9f87-b511c30c3633","ios":"levelo://app?vid=a053d0f1-221b-4a96-9f87-b511c30c3633"},"vehicle_type_id":"4","last_reported":1715619984,"current_range_meters":8000,"station_id":"ce4bh092rcd13ifvqd20","pricing_plan_id":"cebpf4jnsgd1na2vs0mg"},{"bike_id":"7d078c81-7413-4080-96ae-ecad7e9c8487","system_id":"levelo_inurba_marseille","lat":43.292642,"lon":5.384254,"is_reserved":false,"is_disabled":false,"rental_uris":{"android":"levelo://app?vid=7d078c81-7413-4080-96ae-ecad7e9c8487","ios":"levelo://app?vid=7d078c81-7413-4080-96ae-ecad7e9c8487"},"vehicle_type_id":"4","last_reported":1715619984,"current_range_meters":7200,"station_id":"ce4bh692rcd13ifvqea0","pricing_plan_id":"cebpf4jnsgd1na2vs0mg"},{"bike_id":"6c5f4c29-05db-4d3b-b1e6-060835f10cf1","system_id":"levelo_inurba_marseille","lat":43.330442,"lon":5.389148,"is_reserved":false,"is_disabled":false,"rental_uris":{"android":"levelo://app?vid=6c5f4c29-05db-4d3b-b1e6-060835f10cf1","ios":"levelo://app?vid=6c5f4c29-05db-4d3b-b1e6-060835f10cf1"},"vehicle_type_id":"4","last_reported":1715619984,"current_range_meters":3600,"station_id":"ce4bhr92rcd13ifvqhrg","pricing_plan_id":"cebpf4jnsgd1na2vs0mg"},{"bike_id":"fe5a6e4b-07a6-431e-a44e-3bd57245df5d","system_id":"levelo_inurba_marseille","lat":43.290103,"lon":5.356114,"is_reserved":false,"is_disabled":false,"rental_uris":{"android":"levelo://app?vid=fe5a6e4b-07a6-431e-a44e-3bd57245df5d","ios":"levelo://app?vid=fe5a6e4b-07a6-431e-a44e-3bd57245df5d"},"vehicle_type_id":"4","last_reported":1715619984,"current_range_meters":0,"station_id":"ce4bhb92rcd13ifvqen0","pricing_plan_id":"cebpf4jnsgd1na2vs0mg"},{"bike_id":"8e01d4cf-4b89-4b90-989f-634cacda9b3a","system_id":"levelo_inurba_marseille","lat":43.290104,"lon":5.356111,"is_reserved":false,"is_disabled":false,"rental_uris":{"android":"levelo://app?vid=8e01d4cf-4b89-4b90-989f-634cacda9b3a","ios":"levelo://app?vid=8e01d4cf-4b89-4b90-989f-634cacda9b3a"},"vehicle_type_id":"4","last_reported":1715619984,"current_range_meters":1600,"station_id":"ce4bhb92rcd13ifvqen0","pricing_plan_id":"cebpf4jnsgd1na2vs0mg"},{"bike_id":"7b7cf8fa-8c4f-4663-abc6-f3d28fc3be24","system_id":"levelo_inurba_marseille","lat":43.290103,"lon":5.356114,"is_reserved":false,"is_disabled":false,"rental_uris":{"android":"levelo://app?vid=7b7cf8fa-8c4f-4663-abc6-f3d28fc3be24","ios":"levelo://app?vid=7b7cf8fa-8c4f-4663-abc6-f3d28fc3be24"},"vehicle_type_id":"4","last_reported":1715619984,"current_range_meters":0,"station_id":"ce4bhb92rcd13ifvqen0","pricing_plan_id":"cebpf4jnsgd1na2vs0mg"},{"bike_id":"cb7d9aef-75a2-4de5-b6b8-885b65228185","system_id":"levelo_inurba_marseille","lat":43.290103,"lon":5.356114,"is_reserved":false,"is_disabled":false,"rental_uris":{"android":"levelo://app?vid=cb7d9aef-75a2-4de5-b6b8-885b65228185","ios":"levelo://app?vid=cb7d9aef-75a2-4de5-b6b8-885b65228185"},"vehicle_type_id":"4","last_reported":1715619984,"current_range_meters":6400,"station_id":"ce4bhb92rcd13ifvqen0","pricing_plan_id":"cebpf4jnsgd1na2vs0mg"},{"bike_id":"c01456cc-c89f-4b49-8c4c-4901a6963b3d","system_id":"levelo_inurba_marseille","lat":43.290104,"lon":5.356111,"is_reserved":false,"is_disabled":false,"rental_uris":{"android":"levelo://app?vid=c01456cc-c89f-4b49-8c4c-4901a6963b3d","ios":"levelo://app?vid=c01456cc-c89f-4b49-8c4c-4901a6963b3d"},"vehicle_type_id":"4","last_reported":1715619984,"current_range_meters":0,"station_id":"ce4bhb92rcd13ifvqen0","pricing_plan_id":"cebpf4jnsgd1na2vs0mg"},{"bike_id":"3084169d-32d0-465e-9f3f-1059e0b19ef1","system_id":"levelo_inurba_marseille","lat":43.290103,"lon":5.356114,"is_reserved":false,"is_disabled":false,"rental_uris":{"android":"levelo://app?vid=3084169d-32d0-465e-9f3f-1059e0b19ef1","ios":"levelo://app?vid=3084169d-32d0-465e-9f3f-1059e0b19ef1"},"vehicle_type_id":"4","last_reported":1715619984,"current_range_meters":2000,"station_id":"ce4bhb92rcd13ifvqen0","pricing_plan_id":"cebpf4jnsgd1na2vs0mg"},{"bike_id":"1a7a4377-f0e8-494d-a627-6da0357dc361","system_id":"levelo_inurba_marseille","lat":43.290949,"lon":5.380942,"is_reserved":false,"is_disabled":false,"rental_uris":{"android":"levelo://app?vid=1a7a4377-f0e8-494d-a627-6da0357dc361","ios":"levelo://app?vid=1a7a4377-f0e8-494d-a627-6da0357dc361"},"vehicle_type_id":"4","last_reported":1715619984,"current_range_meters":12000,"station_id":"ce4bh512rcd13ifvqe2g","pricing_plan_id":"cebpf4jnsgd1na2vs0mg"},{"bike_id":"6a1cf7ac-5ccf-4556-a031-fb62367c3be5","system_id":"levelo_inurba_marseille","lat":43.290103,"lon":5.356114,"is_reserved":false,"is_disabled":false,"rental_uris":{"android":"levelo://app?vid=6a1cf7ac-5ccf-4556-a031-fb62367c3be5","ios":"levelo://app?vid=6a1cf7ac-5ccf-4556-a031-fb62367c3be5"},"vehicle_type_id":"4","last_reported":1715619984,"current_range_meters":1200,"station_id":"ce4bhb92rcd13ifvqen0","pricing_plan_id":"cebpf4jnsgd1na2vs0mg"},{"bike_id":"9ac06945-f106-4c5c-ae6f-7b90e5b4463d","system_id":"levelo_inurba_marseille","lat":43.290104,"lon":5.356111,"is_reserved":false,"is_disabled":false,"rental_uris":{"android":"levelo://app?vid=9ac06945-f106-4c5c-ae6f-7b90e5b4463d","ios":"levelo://app?vid=9ac06945-f106-4c5c-ae6f-7b90e5b4463d"},"vehicle_type_id":"4","last_reported":1715619984,"current_range_meters":24000,"station_id":"ce4bhb92rcd13ifvqen0","pricing_plan_id":"cebpf4jnsgd1na2vs0mg"},{"bike_id":"883e5a1b-eb23-447a-a9e5-a52ac1a9d1f6","system_id":"levelo_inurba_marseille","lat":43.290104,"lon":5.356111,"is_reserved":false,"is_disabled":false,"rental_uris":{"android":"levelo://app?vid=883e5a1b-eb23-447a-a9e5-a52ac1a9d1f6","ios":"levelo://app?vid=883e5a1b-eb23-447a-a9e5-a52ac1a9d1f6"},"vehicle_type_id":"4","last_reported":1715619984,"current_range_meters":15600,"station_id":"ce4bhb92rcd13ifvqen0","pricing_plan_id":"cebpf4jnsgd1na2vs0mg"},{"bike_id":"3f3caf5c-0c7e-41a0-8aa5-15a6cec948c4","system_id":"levelo_inurba_marseille","lat":43.290104,"lon":5.356111,"is_reserved":false,"is_disabled":false,"rental_uris":{"android":"levelo://app?vid=3f3caf5c-0c7e-41a0-8aa5-15a6cec948c4","ios":"levelo://app?vid=3f3caf5c-0c7e-41a0-8aa5-15a6cec948c4"},"vehicle_type_id":"4","last_reported":1715619984,"current_range_meters":2000,"station_id":"ce4bhb92rcd13ifvqen0","pricing_plan_id":"cebpf4jnsgd1na2vs0mg"},{"bike_id":"181a853e-2060-4f45-b9d3-3920fb54ff6f","system_id":"levelo_inurba_marseille","lat":43.330442,"lon":5.389148,"is_reserved":false,"is_disabled":false,"rental_uris":{"android":"levelo://app?vid=181a853e-2060-4f45-b9d3-3920fb54ff6f","ios":"levelo://app?vid=181a853e-2060-4f45-b9d3-3920fb54ff6f"},"vehicle_type_id":"4","last_reported":1715619984,"current_range_meters":10000,"station_id":"ce4bhr92rcd13ifvqhrg","pricing_plan_id":"cebpf4jnsgd1na2vs0mg"},{"bike_id":"9ad42902-4f55-43c7-8436-a8f79a586c60","system_id":"levelo_inurba_marseille","lat":43.290995,"lon":5.381361,"is_reserved":false,"is_disabled":false,"rental_uris":{"android":"levelo://app?vid=9ad42902-4f55-43c7-8436-a8f79a586c60","ios":"levelo://app?vid=9ad42902-4f55-43c7-8436-a8f79a586c60"},"vehicle_type_id":"4","last_reported":1715619984,"current_range_meters":0,"station_id":"ce4bh512rcd13ifvqe2g","pricing_plan_id":"cebpf4jnsgd1na2vs0mg"},{"bike_id":"cbe43624-4f62-4dd1-a464-51d47698deac","system_id":"levelo_inurba_marseille","lat":43.297815,"lon":5.393271,"is_reserved":false,"is_disabled":false,"rental_uris":{"android":"levelo://app?vid=cbe43624-4f62-4dd1-a464-51d47698deac","ios":"levelo://app?vid=cbe43624-4f62-4dd1-a464-51d47698deac"},"vehicle_type_id":"4","last_reported":1715619984,"current_range_meters":0,"station_id":"chh1huq6cuj3fo74tm60","pricing_plan_id":"cebpf4jnsgd1na2vs0mg"},{"bike_id":"76d4bf3e-08f1-42a6-8324-e6e8832e03e8","system_id":"levelo_inurba_marseille","lat":43.289743,"lon":5.378304,"is_reserved":false,"is_disabled":false,"rental_uris":{"android":"levelo://app?vid=76d4bf3e-08f1-42a6-8324-e6e8832e03e8","ios":"levelo://app?vid=76d4bf3e-08f1-42a6-8324-e6e8832e03e8"},"vehicle_type_id":"4","last_reported":1715619984,"current_range_meters":0,"station_id":"ce4bh9p2rcd13ifvqed0","pricing_plan_id":"cebpf4jnsgd1na2vs0mg"},{"bike_id":"2de199f4-5565-485b-81c2-39ac977686a0","system_id":"levelo_inurba_marseille","lat":43.330442,"lon":5.389148,"is_reserved":false,"is_disabled":false,"rental_uris":{"android":"levelo://app?vid=2de199f4-5565-485b-81c2-39ac977686a0","ios":"levelo://app?vid=2de199f4-5565-485b-81c2-39ac977686a0"},"vehicle_type_id":"4","last_reported":1715619984,"current_range_meters":14400,"station_id":"ce4bhr92rcd13ifvqhrg","pricing_plan_id":"cebpf4jnsgd1na2vs0mg"},{"bike_id":"c35121ba-baef-4954-abb2-1c0d7b856e4a","system_id":"levelo_inurba_marseille","lat":43.29787,"lon":5.393489,"is_reserved":false,"is_disabled":false,"rental_uris":{"android":"levelo://app?vid=c35121ba-baef-4954-abb2-1c0d7b856e4a","ios":"levelo://app?vid=c35121ba-baef-4954-abb2-1c0d7b856e4a"},"vehicle_type_id":"4","last_reported":1715619984,"current_range_meters":15600,"station_id":"chh1huq6cuj3fo74tm60","pricing_plan_id":"cebpf4jnsgd1na2vs0mg"},{"bike_id":"a0c941b9-6407-43e0-8ce0-649a83bced81","system_id":"levelo_inurba_marseille","lat":43.33022,"lon":5.39033,"is_reserved":false,"is_disabled":false,"rental_uris":{"android":"levelo://app?vid=a0c941b9-6407-43e0-8ce0-649a83bced81","ios":"levelo://app?vid=a0c941b9-6407-43e0-8ce0-649a83bced81"},"vehicle_type_id":"4","last_reported":1715619984,"current_range_meters":25200,"station_id":"","pricing_plan_id":"cebpf4jnsgd1na2vs0mg"},{"bike_id":"29da3152-920f-43dd-a841-1cd64ce30970","system_id":"levelo_inurba_marseille","lat":43.295169,"lon":5.390426,"is_reserved":false,"is_disabled":false,"rental_uris":{"android":"levelo://app?vid=29da3152-920f-43dd-a841-1cd64ce30970","ios":"levelo://app?vid=29da3152-920f-43dd-a841-1cd64ce30970"},"vehicle_type_id":"4","last_reported":1715619984,"current_range_meters":7200,"station_id":"ce4bh3p2rcd13ifvqdp0","pricing_plan_id":"cebpf4jnsgd1na2vs0mg"},{"bike_id":"1a5cf335-052e-4c18-acbd-1d0858931cf0","system_id":"levelo_inurba_marseille","lat":43.330442,"lon":5.389148,"is_reserved":false,"is_disabled":false,"rental_uris":{"android":"levelo://app?vid=1a5cf335-052e-4c18-acbd-1d0858931cf0","ios":"levelo://app?vid=1a5cf335-052e-4c18-acbd-1d0858931cf0"},"vehicle_type_id":"4","last_reported":1715619984,"current_range_meters":20000,"station_id":"ce4bhr92rcd13ifvqhrg","pricing_plan_id":"cebpf4jnsgd1na2vs0mg"},{"bike_id":"fbd4623a-8214-4558-b1ee-5d3f69fda741","system_id":"levelo_inurba_marseille","lat":43.330442,"lon":5.389148,"is_reserved":false,"is_disabled":false,"rental_uris":{"android":"levelo://app?vid=fbd4623a-8214-4558-b1ee-5d3f69fda741","ios":"levelo://app?vid=fbd4623a-8214-4558-b1ee-5d3f69fda741"},"vehicle_type_id":"4","last_reported":1715619984,"current_range_meters":3600,"station_id":"ce4bhr92rcd13ifvqhrg","pricing_plan_id":"cebpf4jnsgd1na2vs0mg"},{"bike_id":"1b3d6851-74ae-492b-a8f7-288174ec4758","system_id":"levelo_inurba_marseille","lat":43.330442,"lon":5.389148,"is_reserved":false,"is_disabled":false,"rental_uris":{"android":"levelo://app?vid=1b3d6851-74ae-492b-a8f7-288174ec4758","ios":"levelo://app?vid=1b3d6851-74ae-492b-a8f7-288174ec4758"},"vehicle_type_id":"4","last_reported":1715619984,"current_range_meters":6400,"station_id":"ce4bhr92rcd13ifvqhrg","pricing_plan_id":"cebpf4jnsgd1na2vs0mg"},{"bike_id":"b6b8e0d7-dc2b-48ba-a4fd-cfb1ab2da053","system_id":"levelo_inurba_marseille","lat":43.330442,"lon":5.389148,"is_reserved":false,"is_disabled":false,"rental_uris":{"android":"levelo://app?vid=b6b8e0d7-dc2b-48ba-a4fd-cfb1ab2da053","ios":"levelo://app?vid=b6b8e0d7-dc2b-48ba-a4fd-cfb1ab2da053"},"vehicle_type_id":"4","last_reported":1715619984,"current_range_meters":18800,"station_id":"ce4bhr92rcd13ifvqhrg","pricing_plan_id":"cebpf4jnsgd1na2vs0mg"},{"bike_id":"2661a705-ac10-4fda-8b55-f5b272d37774","system_id":"levelo_inurba_marseille","lat":43.330442,"lon":5.389148,"is_reserved":false,"is_disabled":false,"rental_uris":{"android":"levelo://app?vid=2661a705-ac10-4fda-8b55-f5b272d37774","ios":"levelo://app?vid=2661a705-ac10-4fda-8b55-f5b272d37774"},"vehicle_type_id":"4","last_reported":1715619984,"current_range_meters":20400,"station_id":"ce4bhr92rcd13ifvqhrg","pricing_plan_id":"cebpf4jnsgd1na2vs0mg"},{"bike_id":"e2e89851-9589-4ab9-847b-028530778981","system_id":"levelo_inurba_marseille","lat":43.33022,"lon":5.39041,"is_reserved":false,"is_disabled":false,"rental_uris":{"android":"levelo://app?vid=e2e89851-9589-4ab9-847b-028530778981","ios":"levelo://app?vid=e2e89851-9589-4ab9-847b-028530778981"},"vehicle_type_id":"4","last_reported":1715619984,"current_range_meters":4800,"station_id":"ce4bhr92rcd13ifvqhrg","pricing_plan_id":"cebpf4jnsgd1na2vs0mg"},{"bike_id":"5c7d6713-ecf3-49d2-875e-01fb339ceb0b","system_id":"levelo_inurba_marseille","lat":43.330442,"lon":5.389148,"is_reserved":false,"is_disabled":false,"rental_uris":{"android":"levelo://app?vid=5c7d6713-ecf3-49d2-875e-01fb339ceb0b","ios":"levelo://app?vid=5c7d6713-ecf3-49d2-875e-01fb339ceb0b"},"vehicle_type_id":"4","last_reported":1715619984,"current_range_meters":400,"station_id":"ce4bhr92rcd13ifvqhrg","pricing_plan_id":"cebpf4jnsgd1na2vs0mg"},{"bike_id":"a0024ba4-f1cc-46f0-9aca-972d62e83d91","system_id":"levelo_inurba_marseille","lat":43.295169,"lon":5.390426,"is_reserved":false,"is_disabled":false,"rental_uris":{"android":"levelo://app?vid=a0024ba4-f1cc-46f0-9aca-972d62e83d91","ios":"levelo://app?vid=a0024ba4-f1cc-46f0-9aca-972d62e83d91"},"vehicle_type_id":"4","last_reported":1715619984,"current_range_meters":17200,"station_id":"ce4bh3p2rcd13ifvqdp0","pricing_plan_id":"cebpf4jnsgd1na2vs0mg"},{"bike_id":"54abf0da-e321-4d2a-a883-7706492bcd03","system_id":"levelo_inurba_marseille","lat":43.295169,"lon":5.390426,"is_reserved":false,"is_disabled":false,"rental_uris":{"android":"levelo://app?vid=54abf0da-e321-4d2a-a883-7706492bcd03","ios":"levelo://app?vid=54abf0da-e321-4d2a-a883-7706492bcd03"},"vehicle_type_id":"4","last_reported":1715619984,"current_range_meters":29200,"station_id":"ce4bh3p2rcd13ifvqdp0","pricing_plan_id":"cebpf4jnsgd1na2vs0mg"},{"bike_id":"ab3db312-c6b2-4096-b829-76f9954d568b","system_id":"levelo_inurba_marseille","lat":43.295169,"lon":5.390426,"is_reserved":false,"is_disabled":false,"rental_uris":{"android":"levelo://app?vid=ab3db312-c6b2-4096-b829-76f9954d568b","ios":"levelo://app?vid=ab3db312-c6b2-4096-b829-76f9954d568b"},