{"last_updated":1752318502,"ttl":60,"version":"2.2","data":{"bikes":[{"bike_id":"f1fa9c00-43d8-4462-b070-b89a014efd85","system_id":"levelo_inurba_marseille","lat":43.32289,"lon":5.38265,"is_reserved":false,"is_disabled":false,"rental_uris":{"android":"levelo://app?vid=f1fa9c00-43d8-4462-b070-b89a014efd85","ios":"levelo://app?vid=f1fa9c00-43d8-4462-b070-b89a014efd85"},"vehicle_type_id":"4","last_reported":1752318502,"current_range_meters":4400,"station_id":"ce4bhr12rcd13ifvqhqg","pricing_plan_id":"cebpf4jnsgd1na2vs0mg"},{"bike_id":"9149b2bf-0400-4d96-aa49-146ed621ed27","system_id":"levelo_inurba_marseille","lat":43.29803,"lon":5.40396,"is_reserved":false,"is_disabled":false,"rental_uris":{"android":"levelo://app?vid=9149b2bf-0400-4d96-aa49-146ed621ed27","ios":"levelo://app?vid=9149b2bf-0400-4d96-aa49-146ed621ed27"},"vehicle_type_id":"4","last_reported":1752318502,"current_range_meters":4400,"station_id":"ce4bh112rcd13ifvqd90","pricing_plan_id":"cebpf4jnsgd1na2vs0mg"},{"bike_id":"d8f33195-93cb-4919-8fab-bd796498b905","system_id":"levelo_inurba_marseille","lat":43.26526,"lon":5.39025,"is_reserved":false,"is_disabled":true,"rental_uris":{"android":"levelo://app?vid=d8f33195-93cb-4919-8fab-bd796498b905","ios":"levelo://app?vid=d8f33195-93cb-4919-8fab-bd796498b905"},"vehicle_type_id":"4","last_reported":1752318502,"current_range_meters":6000,"station_id":"ce4bhe12rcd13ifvqf30","pricing_plan_id":"cebpf4jnsgd1na2vs0mg"},{"bike_id":"a2339d9d-6be4-415d-a160-f9b9822722fc","system_id":"levelo_inurba_marseille","lat":43.31087,"lon":5.3834,"is_reserved":false,"is_disabled":true,"rental_uris":{"android":"levelo://app?vid=a2339d9d-6be4-415d-a160-f9b9822722fc","ios":"levelo://app?vid=a2339d9d-6be4-415d-a160-f9b9822722fc"},"vehicle_type_id":"4","last_reported":1752318502,"current_range_meters":6000,"station_id":"ce4bgv92rcd13ifvqcr0","pricing_plan_id":"cebpf4jnsgd1na2vs0mg"},{"bike_id":"73507709-8caa-4f7d-9d8a-0f68c30ec148","system_id":"levelo_inurba_marseille","lat":43.21744,"lon":5.34631,"is_reserved":false,"is_disabled":false,"rental_uris":{"android":"levelo://app?vid=73507709-8caa-4f7d-9d8a-0f68c30ec148","ios":"levelo://app?vid=73507709-8caa-4f7d-9d8a-0f68c30ec148"},"vehicle_type_id":"4","last_reported":1752318502,"current_range_meters":6400,"station_id":"st_cvj6r9ubvosntc0bgbag","pricing_plan_id":"cebpf4jnsgd1na2vs0mg"},{"bike_id":"9ebd0fc9-f801-45d4-bb65-f35f3e7d7859","system_id":"levelo_inurba_marseille","lat":43.30001,"lon":5.36479,"is_reserved":false,"is_disabled":false,"rental_uris":{"android":"levelo://app?vid=9ebd0fc9-f801-45d4-bb65-f35f3e7d7859","ios":"levelo://app?vid=9ebd0fc9-f801-45d4-bb65-f35f3e7d7859"},"vehicle_type_id":"4","last_reported":1752318502,"current_range_meters":6400,"station_id":"ce4bgm92rcd13ifvqbr0","pricing_plan_id":"cebpf4jnsgd1na2vs0mg"},{"bike_id":"7f16e563-9d11-4c44-acdc-e27ea962777a","system_id":"levelo_inurba_marseille","lat":43.26961,"lon":5.38636,"is_reserved":false,"is_disabled":false,"rental_uris":{"android":"levelo://app?vid=7f16e563-9d11-4c44-acdc-e27ea962777a","ios":"levelo://app?vid=7f16e563-9d11-4c44-acdc-e27ea962777a"},"vehicle_type_id":"4","last_reported":1752318502,"current_range_meters":8000,"station_id":"ce4bhh92rcd13ifvqfh0","pricing_plan_id":"cebpf4jnsgd1na2vs0mg"},{"bike_id":"10f32343-d6b7-4a51-8c29-e5eb94471e18","system_id":"levelo_inurba_marseille","lat":43.29189,"lon":5.35798,"is_reserved":false,"is_disabled":false,"rental_uris":{"android":"levelo://app?vid=10f32343-d6b7-4a51-8c29-e5eb94471e18","ios":"levelo://app?vid=10f32343-d6b7-4a51-8c29-e5eb94471e18"},"vehicle_type_id":"4","last_reported":1752318502,"current_range_meters":6000,"station_id":"ce4bhb12rcd13ifvqel0","pricing_plan_id":"cebpf4jnsgd1na2vs0mg"},{"bike_id":"73c4cf2b-3eb3-459c-85b2-ec02819c3fdf","system_id":"levelo_inurba_marseille","lat":43.301483,"lon":5.380883,"is_reserved":false,"is_disabled":false,"rental_uris":{"android":"levelo://app?vid=73c4cf2b-3eb3-459c-85b2-ec02819c3fdf","ios":"levelo://app?vid=73c4cf2b-3eb3-459c-85b2-ec02819c3fdf"},"vehicle_type_id":"4","last_reported":1752318502,"current_range_meters":4000,"station_id":"ce4bgjp2rcd13ifvqbh0","pricing_plan_id":"cebpf4jnsgd1na2vs0mg"},{"bike_id":"c7405370-ba71-4b46-b86e-843cc17b604a","system_id":"levelo_inurba_marseille","lat":43.30425,"lon":5.41282,"is_reserved":false,"is_disabled":false,"rental_uris":{"android":"levelo://app?vid=c7405370-ba71-4b46-b86e-843cc17b604a","ios":"levelo://app?vid=c7405370-ba71-4b46-b86e-843cc17b604a"},"vehicle_type_id":"4","last_reported":1752318502,"current_range_meters":6800,"station_id":"ce4bhop2rcd13ifvqh8g","pricing_plan_id":"cebpf4jnsgd1na2vs0mg"},{"bike_id":"daae27ca-7195-4579-83f5-1124f7f79daf","system_id":"levelo_inurba_marseille","lat":43.30157,"lon":5.38081,"is_reserved":false,"is_disabled":false,"rental_uris":{"android":"levelo://app?vid=daae27ca-7195-4579-83f5-1124f7f79daf","ios":"levelo://app?vid=daae27ca-7195-4579-83f5-1124f7f79daf"},"vehicle_type_id":"4","last_reported":1752318502,"current_range_meters":8000,"station_id":"ce4bgjp2rcd13ifvqbh0","pricing_plan_id":"cebpf4jnsgd1na2vs0mg"},{"bike_id":"534ed68d-5ceb-43a8-968b-be30f01dfa74","system_id":"levelo_inurba_marseille","lat":43.282095,"lon":5.390623,"is_reserved":false,"is_disabled":false,"rental_uris":{"android":"levelo://app?vid=534ed68d-5ceb-43a8-968b-be30f01dfa74","ios":"levelo://app?vid=534ed68d-5ceb-43a8-968b-be30f01dfa74"},"vehicle_type_id":"4","last_reported":1752318502,"current_range_meters":8400,"station_id":"","pricing_plan_id":"cebpf4jnsgd1na2vs0mg"},{"bike_id":"629a1cb0-d2f1-4a68-895c-117633dbf9b1","system_id":"levelo_inurba_marseille","lat":43.30536,"lon":5.36551,"is_reserved":false,"is_disabled":false,"rental_uris":{"android":"levelo://app?vid=629a1cb0-d2f1-4a68-895c-117633dbf9b1","ios":"levelo://app?vid=629a1cb0-d2f1-4a68-895c-117633dbf9b1"},"vehicle_type_id":"4","last_reported":1752318502,"current_range_meters":8400,"station_id":"ce4bgs12rcd13ifvqcag","pricing_plan_id":"cebpf4jnsgd1na2vs0mg"},{"bike_id":"d849a247-c2c0-4619-bac8-f5a6994e0014","system_id":"levelo_inurba_marseille","lat":43.320481,"lon":5.415766,"is_reserved":false,"is_disabled":false,"rental_uris":{"android":"levelo://app?vid=d849a247-c2c0-4619-bac8-f5a6994e0014","ios":"levelo://app?vid=d849a247-c2c0-4619-bac8-f5a6994e0014"},"vehicle_type_id":"4","last_reported":1752318502,"current_range_meters":8800,"station_id":"ce4bhq92rcd13ifvqhkg","pricing_plan_id":"cebpf4jnsgd1na2vs0mg"},{"bike_id":"7d3a80db-4526-4d54-9da2-a9dd0f80e831","system_id":"levelo_inurba_marseille","lat":43.30952,"lon":5.39019,"is_reserved":false,"is_disabled":false,"rental_uris":{"android":"levelo://app?vid=7d3a80db-4526-4d54-9da2-a9dd0f80e831","ios":"levelo://app?vid=7d3a80db-4526-4d54-9da2-a9dd0f80e831"},"vehicle_type_id":"4","last_reported":1752318502,"current_range_meters":8800,"station_id":"ce4bgup2rcd13ifvqco0","pricing_plan_id":"cebpf4jnsgd1na2vs0mg"},{"bike_id":"f14a7374-847b-4cad-aa16-a0ee35449972","system_id":"levelo_inurba_marseille","lat":43.23197,"lon":5.35555,"is_reserved":false,"is_disabled":false,"rental_uris":{"android":"levelo://app?vid=f14a7374-847b-4cad-aa16-a0ee35449972","ios":"levelo://app?vid=f14a7374-847b-4cad-aa16-a0ee35449972"},"vehicle_type_id":"4","last_reported":1752318502,"current_range_meters":9200,"station_id":"ce4bhu92rcd13ifvqi70","pricing_plan_id":"cebpf4jnsgd1na2vs0mg"},{"bike_id":"dc2144c2-3f55-44c6-b21c-3ce0ee39bccc","system_id":"levelo_inurba_marseille","lat":43.31479,"lon":5.37311,"is_reserved":false,"is_disabled":false,"rental_uris":{"android":"levelo://app?vid=dc2144c2-3f55-44c6-b21c-3ce0ee39bccc","ios":"levelo://app?vid=dc2144c2-3f55-44c6-b21c-3ce0ee39bccc"},"vehicle_type_id":"4","last_reported":1752318502,"current_range_meters":9200,"station_id":"ce4bgt12rcd13ifvqcd0","pricing_plan_id":"cebpf4jnsgd1na2vs0mg"},{"bike_id":"0cd2fc58-6ce4-40ba-8ab8-e8aff7fd0d3f","system_id":"levelo_inurba_marseille","lat":43.21753,"lon":5.34599,"is_reserved":false,"is_disabled":false,"rental_uris":{"android":"levelo://app?vid=0cd2fc58-6ce4-40ba-8ab8-e8aff7fd0d3f","ios":"levelo://app?vid=0cd2fc58-6ce4-40ba-8ab8-e8aff7fd0d3f"},"vehicle_type_id":"4","last_reported":1752318502,"current_range_meters":9200,"station_id":"st_cvj6r9ubvosntc0bgbag","pricing_plan_id":"cebpf4jnsgd1na2vs0mg"},{"bike_id":"24408ebf-8612-4df2-b491-b3f77a991042","system_id":"levelo_inurba_marseille","lat":43.31771,"lon":5.39013,"is_reserved":false,"is_disabled":false,"rental_uris":{"android":"levelo://app?vid=24408ebf-8612-4df2-b491-b3f77a991042","ios":"levelo://app?vid=24408ebf-8612-4df2-b491-b3f77a991042"},"vehicle_type_id":"4","last_reported":1752318502,"current_range_meters":9600,"station_id":"ce4bhqp2rcd13ifvqhng","pricing_plan_id":"cebpf4jnsgd1na2vs0mg"},{"bike_id":"6e44525d-ed45-445a-a877-081b94eb5813","system_id":"levelo_inurba_marseille","lat":43.303528,"lon":5.418794,"is_reserved":false,"is_disabled":false,"rental_uris":{"android":"levelo://app?vid=6e44525d-ed45-445a-a877-081b94eb5813","ios":"levelo://app?vid=6e44525d-ed45-445a-a877-081b94eb5813"},"vehicle_type_id":"4","last_reported":1752318502,"current_range_meters":9600,"station_id":"ce4bhop2rcd13ifvqh7g","pricing_plan_id":"cebpf4jnsgd1na2vs0mg"},{"bike_id":"70366beb-9db8-4aee-97f7-cf164e3eb2be","system_id":"levelo_inurba_marseille","lat":43.31355,"lon":5.38503,"is_reserved":false,"is_disabled":false,"rental_uris":{"android":"levelo://app?vid=70366beb-9db8-4aee-97f7-cf164e3eb2be","ios":"levelo://app?vid=70366beb-9db8-4aee-97f7-cf164e3eb2be"},"vehicle_type_id":"4","last_reported":1752318502,"current_range_meters":9600,"station_id":"ce4bgt92rcd13ifvqcf0","pricing_plan_id":"cebpf4jnsgd1na2vs0mg"},{"bike_id":"865e8da1-ff4a-402c-b802-ac33ec88e3ea","system_id":"levelo_inurba_marseille","lat":43.33027,"lon":5.39042,"is_reserved":false,"is_disabled":false,"rental_uris":{"android":"levelo://app?vid=865e8da1-ff4a-402c-b802-ac33ec88e3ea","ios":"levelo://app?vid=865e8da1-ff4a-402c-b802-ac33ec88e3ea"},"vehicle_type_id":"4","last_reported":1752318502,"current_range_meters":10000,"station_id":"ce4bhr92rcd13ifvqhrg","pricing_plan_id":"cebpf4jnsgd1na2vs0mg"},{"bike_id":"595e9351-a7ce-45de-8995-771f7d9fe86e","system_id":"levelo_inurba_marseille","lat":43.309243,"lon":5.378088,"is_reserved":false,"is_disabled":false,"rental_uris":{"android":"levelo://app?vid=595e9351-a7ce-45de-8995-771f7d9fe86e","ios":"levelo://app?vid=595e9351-a7ce-45de-8995-771f7d9fe86e"},"vehicle_type_id":"4","last_reported":1752318502,"current_range_meters":10000,"station_id":"","pricing_plan_id":"cebpf4jnsgd1na2vs0mg"},{"bike_id":"6dd3b558-35bb-4444-ab5c-3dcb211bdeb9","system_id":"levelo_inurba_marseille","lat":43.29269,"lon":5.384304,"is_reserved":false,"is_disabled":false,"rental_uris":{"android":"levelo://app?vid=6dd3b558-35bb-4444-ab5c-3dcb211bdeb9","ios":"levelo://app?vid=6dd3b558-35bb-4444-ab5c-3dcb211bdeb9"},"vehicle_type_id":"4","last_reported":1752318502,"current_range_meters":10800,"station_id":"ce4bhc92rcd13ifvqetg","pricing_plan_id":"cebpf4jnsgd1na2vs0mg"},{"bike_id":"080f57f3-a8d5-4466-97ef-f4f40d547d09","system_id":"levelo_inurba_marseille","lat":43.31376,"lon":5.38512,"is_reserved":false,"is_disabled":false,"rental_uris":{"android":"levelo://app?vid=080f57f3-a8d5-4466-97ef-f4f40d547d09","ios":"levelo://app?vid=080f57f3-a8d5-4466-97ef-f4f40d547d09"},"vehicle_type_id":"4","last_reported":1752318502,"current_range_meters":10800,"station_id":"ce4bgt92rcd13ifvqcf0","pricing_plan_id":"cebpf4jnsgd1na2vs0mg"},{"bike_id":"fd9f5c27-5d58-42e5-badc-a12a0344229e","system_id":"levelo_inurba_marseille","lat":43.28926,"lon":5.36076,"is_reserved":false,"is_disabled":false,"rental_uris":{"android":"levelo://app?vid=fd9f5c27-5d58-42e5-badc-a12a0344229e","ios":"levelo://app?vid=fd9f5c27-5d58-42e5-badc-a12a0344229e"},"vehicle_type_id":"4","last_reported":1752318502,"current_range_meters":10800,"station_id":"","pricing_plan_id":"cebpf4jnsgd1na2vs0mg"},{"bike_id":"ef698040-cffd-4a0c-9a91-bf557274de35","system_id":"levelo_inurba_marseille","lat":43.31699,"lon":5.37766,"is_reserved":false,"is_disabled":false,"rental_uris":{"android":"levelo://app?vid=ef698040-cffd-4a0c-9a91-bf557274de35","ios":"levelo://app?vid=ef698040-cffd-4a0c-9a91-bf557274de35"},"vehicle_type_id":"4","last_reported":1752318502,"current_range_meters":10800,"station_id":"ce4bgth2rcd13ifvqch0","pricing_plan_id":"cebpf4jnsgd1na2vs0mg"},{"bike_id":"9b93fe90-25a1-4f2d-9bde-5b611e5b3ce7","system_id":"levelo_inurba_marseille","lat":43.291254,"lon":5.355059,"is_reserved":false,"is_disabled":false,"rental_uris":{"android":"levelo://app?vid=9b93fe90-25a1-4f2d-9bde-5b611e5b3ce7","ios":"levelo://app?vid=9b93fe90-25a1-4f2d-9bde-5b611e5b3ce7"},"vehicle_type_id":"4","last_reported":1752318502,"current_range_meters":10800,"station_id":"ce4bhch2rcd13ifvqeug","pricing_plan_id":"cebpf4jnsgd1na2vs0mg"},{"bike_id":"2711aaaf-3805-4804-9329-3207cf061148","system_id":"levelo_inurba_marseille","lat":43.28421,"lon":5.34982,"is_reserved":false,"is_disabled":false,"rental_uris":{"android":"levelo://app?vid=2711aaaf-3805-4804-9329-3207cf061148","ios":"levelo://app?vid=2711aaaf-3805-4804-9329-3207cf061148"},"vehicle_type_id":"4","last_reported":1752318502,"current_range_meters":10800,"station_id":"ce4bhbh2rcd13ifvqepg","pricing_plan_id":"cebpf4jnsgd1na2vs0mg"},{"bike_id":"b36f945f-a54b-4dbc-a54f-86bf136bf28c","system_id":"levelo_inurba_marseille","lat":43.2927,"lon":5.38433,"is_reserved":false,"is_disabled":false,"rental_uris":{"android":"levelo://app?vid=b36f945f-a54b-4dbc-a54f-86bf136bf28c","ios":"levelo://app?vid=b36f945f-a54b-4dbc-a54f-86bf136bf28c"},"vehicle_type_id":"4","last_reported":1752318502,"current_range_meters":10800,"station_id":"ce4bh692rcd13ifvqea0","pricing_plan_id":"cebpf4jnsgd1na2vs0mg"},{"bike_id":"e3a75ee9-c614-467b-8cc2-f813bcef2ab1","system_id":"levelo_inurba_marseille","lat":43.33743,"lon":5.3919,"is_reserved":false,"is_disabled":false,"rental_uris":{"android":"levelo://app?vid=e3a75ee9-c614-467b-8cc2-f813bcef2ab1","ios":"levelo://app?vid=e3a75ee9-c614-467b-8cc2-f813bcef2ab1"},"vehicle_type_id":"4","last_reported":1752318502,"current_range_meters":10800,"station_id":"ce4bhr92rcd13ifvqhsg","pricing_plan_id":"cebpf4jnsgd1na2vs0mg"},{"bike_id":"62413e55-0898-4a7b-b22f-556afa8277bb","system_id":"levelo_inurba_marseille","lat":43.2862,"lon":5.35097,"is_reserved":false,"is_disabled":false,"rental_uris":{"android":"levelo://app?vid=62413e55-0898-4a7b-b22f-556afa8277bb","ios":"levelo://app?vid=62413e55-0898-4a7b-b22f-556afa8277bb"},"vehicle_type_id":"4","last_reported":1752318502,"current_range_meters":10800,"station_id":"ce4bhch2rcd13ifvqeug","pricing_plan_id":"cebpf4jnsgd1na2vs0mg"},{"bike_id":"eda0ea69-6404-43e6-9ede-2655d170d444","system_id":"levelo_inurba_marseille","lat":43.28951,"lon":5.35788,"is_reserved":false,"is_disabled":true,"rental_uris":{"android":"levelo://app?vid=eda0ea69-6404-43e6-9ede-2655d170d444","ios":"levelo://app?vid=eda0ea69-6404-43e6-9ede-2655d170d444"},"vehicle_type_id":"4","last_reported":1752318502,"current_range_meters":10800,"station_id":"ce4bhb12rcd13ifvqem0","pricing_plan_id":"cebpf4jnsgd1na2vs0mg"},{"bike_id":"ceb8bcf8-9e11-4102-bd78-9a687c0c96d2","system_id":"levelo_inurba_marseille","lat":43.28932,"lon":5.38403,"is_reserved":false,"is_disabled":false,"rental_uris":{"android":"levelo://app?vid=ceb8bcf8-9e11-4102-bd78-9a687c0c96d2","ios":"levelo://app?vid=ceb8bcf8-9e11-4102-bd78-9a687c0c96d2"},"vehicle_type_id":"4","last_reported":1752318502,"current_range_meters":11200,"station_id":"ce4bh612rcd13ifvqe6g","pricing_plan_id":"cebpf4jnsgd1na2vs0mg"},{"bike_id":"5b9b2fff-22f8-4ffc-b7a0-27211dfdc2e0","system_id":"levelo_inurba_marseille","lat":43.25718,"lon":5.41121,"is_reserved":false,"is_disabled":false,"rental_uris":{"android":"levelo://app?vid=5b9b2fff-22f8-4ffc-b7a0-27211dfdc2e0","ios":"levelo://app?vid=5b9b2fff-22f8-4ffc-b7a0-27211dfdc2e0"},"vehicle_type_id":"4","last_reported":1752318502,"current_range_meters":11200,"station_id":"ce4bhkp2rcd13ifvqgd0","pricing_plan_id":"cebpf4jnsgd1na2vs0mg"},{"bike_id":"97d4bafb-1703-482a-9af9-9c0328bf232e","system_id":"levelo_inurba_marseille","lat":43.29527,"lon":5.37525,"is_reserved":false,"is_disabled":false,"rental_uris":{"android":"levelo://app?vid=97d4bafb-1703-482a-9af9-9c0328bf232e","ios":"levelo://app?vid=97d4bafb-1703-482a-9af9-9c0328bf232e"},"vehicle_type_id":"4","last_reported":1752318502,"current_range_meters":11200,"station_id":"ce4bgkp2rcd13ifvqbmg","pricing_plan_id":"cebpf4jnsgd1na2vs0mg"},{"bike_id":"09bf17a6-c79e-496c-a920-fb830fc6be5a","system_id":"levelo_inurba_marseille","lat":43.2958,"lon":5.37503,"is_reserved":false,"is_disabled":false,"rental_uris":{"android":"levelo://app?vid=09bf17a6-c79e-496c-a920-fb830fc6be5a","ios":"levelo://app?vid=09bf17a6-c79e-496c-a920-fb830fc6be5a"},"vehicle_type_id":"4","last_reported":1752318502,"current_range_meters":11200,"station_id":"ce4bgh92rcd13ifvqb50","pricing_plan_id":"cebpf4jnsgd1na2vs0mg"},{"bike_id":"dafa5a87-b26d-4379-9a6b-1f02133b78a6","system_id":"levelo_inurba_marseille","lat":43.211938,"lon":5.350664,"is_reserved":false,"is_disabled":false,"rental_uris":{"android":"levelo://app?vid=dafa5a87-b26d-4379-9a6b-1f02133b78a6","ios":"levelo://app?vid=dafa5a87-b26d-4379-9a6b-1f02133b78a6"},"vehicle_type_id":"4","last_reported":1752318502,"current_range_meters":11200,"station_id":"st_cvj6sg6p6f1abm77japg","pricing_plan_id":"cebpf4jnsgd1na2vs0mg"},{"bike_id":"8929c1bf-fd4d-44e4-aa66-b3eb6538c998","system_id":"levelo_inurba_marseille","lat":43.28587,"lon":5.4296,"is_reserved":false,"is_disabled":false,"rental_uris":{"android":"levelo://app?vid=8929c1bf-fd4d-44e4-aa66-b3eb6538c998","ios":"levelo://app?vid=8929c1bf-fd4d-44e4-aa66-b3eb6538c998"},"vehicle_type_id":"4","last_reported":1752318502,"current_range_meters":11600,"station_id":"","pricing_plan_id":"cebpf4jnsgd1na2vs0mg"},{"bike_id":"4a92b34b-1d43-4830-8a92-a24d5fc4e5ca","system_id":"levelo_inurba_marseille","lat":43.295707,"lon":5.375045,"is_reserved":false,"is_disabled":false,"rental_uris":{"android":"levelo://app?vid=4a92b34b-1d43-4830-8a92-a24d5fc4e5ca","ios":"levelo://app?vid=4a92b34b-1d43-4830-8a92-a24d5fc4e5ca"},"vehicle_type_id":"4","last_reported":1752318502,"current_range_meters":11600,"station_id":"ce4bgh92rcd13ifvqb50","pricing_plan_id":"cebpf4jnsgd1na2vs0mg"},{"bike_id":"84d1266e-c769-4ce6-8b19-f18b8b7a08c3","system_id":"levelo_inurba_marseille","lat":43.23965,"lon":5.36643,"is_reserved":false,"is_disabled":false,"rental_uris":{"android":"levelo://app?vid=84d1266e-c769-4ce6-8b19-f18b8b7a08c3","ios":"levelo://app?vid=84d1266e-c769-4ce6-8b19-f18b8b7a08c3"},"vehicle_type_id":"4","last_reported":1752318502,"current_range_meters":11600,"station_id":"ce4bhi12rcd13ifvqfp0","pricing_plan_id":"cebpf4jnsgd1na2vs0mg"},{"bike_id":"65715245-ae22-4c14-a440-90c4c1db5a80","system_id":"levelo_inurba_marseille","lat":43.29288,"lon":5.37166,"is_reserved":false,"is_disabled":false,"rental_uris":{"android":"levelo://app?vid=65715245-ae22-4c14-a440-90c4c1db5a80","ios":"levelo://app?vid=65715245-ae22-4c14-a440-90c4c1db5a80"},"vehicle_type_id":"4","last_reported":1752318502,"current_range_meters":11600,"station_id":"ce4bgh92rcd13ifvqb40","pricing_plan_id":"cebpf4jnsgd1na2vs0mg"},{"bike_id":"d1600b65-2986-4875-8c08-c4b96ea7a68d","system_id":"levelo_inurba_marseille","lat":43.27068,"lon":5.40246,"is_reserved":false,"is_disabled":false,"rental_uris":{"android":"levelo://app?vid=d1600b65-2986-4875-8c08-c4b96ea7a68d","ios":"levelo://app?vid=d1600b65-2986-4875-8c08-c4b96ea7a68d"},"vehicle_type_id":"4","last_reported":1752318502,"current_range_meters":11600,"station_id":"ce4bhk92rcd13ifvqgc0","pricing_plan_id":"cebpf4jnsgd1na2vs0mg"},{"bike_id":"967caea2-a7f2-4e2b-9965-01599a566843","system_id":"levelo_inurba_marseille","lat":43.21751,"lon":5.34598,"is_reserved":false,"is_disabled":false,"rental_uris":{"android":"levelo://app?vid=967caea2-a7f2-4e2b-9965-01599a566843","ios":"levelo://app?vid=967caea2-a7f2-4e2b-9965-01599a566843"},"vehicle_type_id":"4","last_reported":1752318502,"current_range_meters":11600,"station_id":"st_cvj6r9ubvosntc0bgbag","pricing_plan_id":"cebpf4jnsgd1na2vs0mg"},{"bike_id":"8fccf46e-4269-459a-bd9a-cdd93f6b32bc","system_id":"levelo_inurba_marseille","lat":43.30351,"lon":5.41872,"is_reserved":false,"is_disabled":false,"rental_uris":{"android":"levelo://app?vid=8fccf46e-4269-459a-bd9a-cdd93f6b32bc","ios":"levelo://app?vid=8fccf46e-4269-459a-bd9a-cdd93f6b32bc"},"vehicle_type_id":"4","last_reported":1752318502,"current_range_meters":12000,"station_id":"ce4bhop2rcd13ifvqh7g","pricing_plan_id":"cebpf4jnsgd1na2vs0mg"},{"bike_id":"43b90c82-97e0-4fa7-8b67-2448f07d529e","system_id":"levelo_inurba_marseille","lat":43.211917,"lon":5.35069,"is_reserved":false,"is_disabled":false,"rental_uris":{"android":"levelo://app?vid=43b90c82-97e0-4fa7-8b67-2448f07d529e","ios":"levelo://app?vid=43b90c82-97e0-4fa7-8b67-2448f07d529e"},"vehicle_type_id":"4","last_reported":1752318502,"current_range_meters":12000,"station_id":"st_cvj6sg6p6f1abm77japg","pricing_plan_id":"cebpf4jnsgd1na2vs0mg"},{"bike_id":"335c5434-3596-4d69-8ca8-4f10df0199fe","system_id":"levelo_inurba_marseille","lat":43.27066,"lon":5.40255,"is_reserved":false,"is_disabled":false,"rental_uris":{"android":"levelo://app?vid=335c5434-3596-4d69-8ca8-4f10df0199fe","ios":"levelo://app?vid=335c5434-3596-4d69-8ca8-4f10df0199fe"},"vehicle_type_id":"4","last_reported":1752318502,"current_range_meters":12000,"station_id":"ce4bhk92rcd13ifvqgc0","pricing_plan_id":"cebpf4jnsgd1na2vs0mg"},{"bike_id":"e9fd0cf8-573b-4177-88a6-f1faf33e8aca","system_id":"levelo_inurba_marseille","lat":43.29016,"lon":5.3562,"is_reserved":false,"is_disabled":false,"rental_uris":{"android":"levelo://app?vid=e9fd0cf8-573b-4177-88a6-f1faf33e8aca","ios":"levelo://app?vid=e9fd0cf8-573b-4177-88a6-f1faf33e8aca"},"vehicle_type_id":"4","last_reported":1752318502,"current_range_meters":12400,"station_id":"ce4bhb92rcd13ifvqen0","pricing_plan_id":"cebpf4jnsgd1na2vs0mg"},{"bike_id":"61198919-e72c-4fce-bc96-126627987dc0","system_id":"levelo_inurba_marseille","lat":43.295768,"lon":5.378614,"is_reserved":false,"is_disabled":false,"rental_uris":{"android":"levelo://app?vid=61198919-e72c-4fce-bc96-126627987dc0","ios":"levelo://app?vid=61198919-e72c-4fce-bc96-126627987dc0"},"vehicle_type_id":"4","last_reported":1752318502,"current_range_meters":12400,"station_id":"","pricing_plan_id":"cebpf4jnsgd1na2vs0mg"},{"bike_id":"dc5b6460-f400-48ae-8896-4d097d2ecc9a","system_id":"levelo_inurba_marseille","lat":43.28487,"lon":5.38433,"is_reserved":false,"is_disabled":false,"rental_uris":{"android":"levelo://app?vid=dc5b6460-f400-48ae-8896-4d097d2ecc9a","ios":"levelo://app?vid=dc5b6460-f400-48ae-8896-4d097d2ecc9a"},"vehicle_type_id":"4","last_reported":1752318502,"current_range_meters":12400,"station_id":"ce4bh512rcd13ifvqe3g","pricing_plan_id":"cebpf4jnsgd1na2vs0mg"},{"bike_id":"37b84a38-055a-4a6e-a56a-8ff3d0c1b2ec","system_id":"levelo_inurba_marseille","lat":43.21181,"lon":5.35056,"is_reserved":false,"is_disabled":false,"rental_uris":{"android":"levelo://app?vid=37b84a38-055a-4a6e-a56a-8ff3d0c1b2ec","ios":"levelo://app?vid=37b84a38-055a-4a6e-a56a-8ff3d0c1b2ec"},"vehicle_type_id":"4","last_reported":1752318502,"current_range_meters":12400,"station_id":"st_cvj6sg6p6f1abm77japg","pricing_plan_id":"cebpf4jnsgd1na2vs0mg"},{"bike_id":"e86ba8c9-208d-482c-a826-4c100938472a","system_id":"levelo_inurba_marseille","lat":43.211935,"lon":5.350688,"is_reserved":false,"is_disabled":false,"rental_uris":{"android":"levelo://app?vid=e86ba8c9-208d-482c-a826-4c100938472a","ios":"levelo://app?vid=e86ba8c9-208d-482c-a826-4c100938472a"},"vehicle_type_id":"4","last_reported":1752318502,"current_range_meters":12400,"station_id":"st_cvj6sg6p6f1abm77japg","pricing_plan_id":"cebpf4jnsgd1na2vs0mg"},{"bike_id":"c453155a-5220-48fc-922b-600ca54f8ab5","system_id":"levelo_inurba_marseille","lat":43.286553,"lon":5.363494,"is_reserved":false,"is_disabled":true,"rental_uris":{"android":"levelo://app?vid=c453155a-5220-48fc-922b-600ca54f8ab5","ios":"levelo://app?vid=c453155a-5220-48fc-922b-600ca54f8ab5"},"vehicle_type_id":"4","last_reported":1752318502,"current_range_meters":12400,"station_id":"ce4bhah2rcd13ifvqej0","pricing_plan_id":"cebpf4jnsgd1na2vs0mg"},{"bike_id":"59abd4c4-8a4d-4cab-8aea-7cfc8564355e","system_id":"levelo_inurba_marseille","lat":43.21191,"lon":5.35055,"is_reserved":false,"is_disabled":false,"rental_uris":{"android":"levelo://app?vid=59abd4c4-8a4d-4cab-8aea-7cfc8564355e","ios":"levelo://app?vid=59abd4c4-8a4d-4cab-8aea-7cfc8564355e"},"vehicle_type_id":"4","last_reported":1752318502,"current_range_meters":12800,"station_id":"st_cvj6sg6p6f1abm77japg","pricing_plan_id":"cebpf4jnsgd1na2vs0mg"},{"bike_id":"4edff1c0-26ae-4c39-9bc5-1e6f32f2d248","system_id":"levelo_inurba_marseille","lat":43.27968,"lon":5.38713,"is_reserved":false,"is_disabled":false,"rental_uris":{"android":"levelo://app?vid=4edff1c0-26ae-4c39-9bc5-1e6f32f2d248","ios":"levelo://app?vid=4edff1c0-26ae-4c39-9bc5-1e6f32f2d248"},"vehicle_type_id":"4","last_reported":1752318502,"current_range_meters":12800,"station_id":"ce4bhg12rcd13ifvqf80","pricing_plan_id":"cebpf4jnsgd1na2vs0mg"},{"bike_id":"3e749c2b-9b08-4a32-809e-ee16fb35500c","system_id":"levelo_inurba_marseille","lat":43.28921,"lon":5.3639,"is_reserved":false,"is_disabled":false,"rental_uris":{"android":"levelo://app?vid=3e749c2b-9b08-4a32-809e-ee16fb35500c","ios":"levelo://app?vid=3e749c2b-9b08-4a32-809e-ee16fb35500c"},"vehicle_type_id":"4","last_reported":1752318502,"current_range_meters":12800,"station_id":"ce4bhc92rcd13ifvqetg","pricing_plan_id":"cebpf4jnsgd1na2vs0mg"},{"bike_id":"452e8211-4f44-45d0-814a-3e9e25b8c44e","system_id":"levelo_inurba_marseille","lat":43.21183,"lon":5.35079,"is_reserved":false,"is_disabled":false,"rental_uris":{"android":"levelo://app?vid=452e8211-4f44-45d0-814a-3e9e25b8c44e","ios":"levelo://app?vid=452e8211-4f44-45d0-814a-3e9e25b8c44e"},"vehicle_type_id":"4","last_reported":1752318502,"current_range_meters":12800,"station_id":"st_cvj6sg6p6f1abm77japg","pricing_plan_id":"cebpf4jnsgd1na2vs0mg"},{"bike_id":"dbba3321-20c7-4989-a7b5-ea9ab2c4b3e8","system_id":"levelo_inurba_marseille","lat":43.261935,"lon":5.374477,"is_reserved":false,"is_disabled":false,"rental_uris":{"android":"levelo://app?vid=dbba3321-20c7-4989-a7b5-ea9ab2c4b3e8","ios":"levelo://app?vid=dbba3321-20c7-4989-a7b5-ea9ab2c4b3e8"},"vehicle_type_id":"4","last_reported":1752318502,"current_range_meters":12800,"station_id":"ce4bhgp2rcd13ifvqfc0","pricing_plan_id":"cebpf4jnsgd1na2vs0mg"},{"bike_id":"fad5b927-7454-4603-9273-2f3cf382c0e2","system_id":"levelo_inurba_marseille","lat":43.3036,"lon":5.41881,"is_reserved":false,"is_disabled":false,"rental_uris":{"android":"levelo://app?vid=fad5b927-7454-4603-9273-2f3cf382c0e2","ios":"levelo://app?vid=fad5b927-7454-4603-9273-2f3cf382c0e2"},"vehicle_type_id":"4","last_reported":1752318502,"current_range_meters":12400,"station_id":"ce4bhop2rcd13ifvqh7g","pricing_plan_id":"cebpf4jnsgd1na2vs0mg"},{"bike_id":"a3462c6b-7d9a-4283-ae5e-bf32253fe92b","system_id":"levelo_inurba_marseille","lat":43.26029,"lon":5.37545,"is_reserved":false,"is_disabled":false,"rental_uris":{"android":"levelo://app?vid=a3462c6b-7d9a-4283-ae5e-bf32253fe92b","ios":"levelo://app?vid=a3462c6b-7d9a-4283-ae5e-bf32253fe92b"},"vehicle_type_id":"4","last_reported":1752318502,"current_range_meters":12800,"station_id":"ce4bhgh2rcd13ifvqfa0","pricing_plan_id":"cebpf4jnsgd1na2vs0mg"},{"bike_id":"a581eef9-f0fb-4e5d-8be0-84b96bfd2d41","system_id":"levelo_inurba_marseille","lat":43.29363,"lon":5.37865,"is_reserved":false,"is_disabled":false,"rental_uris":{"android":"levelo://app?vid=a581eef9-f0fb-4e5d-8be0-84b96bfd2d41","ios":"levelo://app?vid=a581eef9-f0fb-4e5d-8be0-84b96bfd2d41"},"vehicle_type_id":"4","last_reported":1752318502,"current_range_meters":13600,"station_id":"ce4bgjh2rcd13ifvqbf0","pricing_plan_id":"cebpf4jnsgd1na2vs0mg"},{"bike_id":"4a1a615d-d0dd-4247-b943-dda1ffed742d","system_id":"levelo_inurba_marseille","lat":43.29314,"lon":5.37171,"is_reserved":false,"is_disabled":false,"rental_uris":{"android":"levelo://app?vid=4a1a615d-d0dd-4247-b943-dda1ffed742d","ios":"levelo://app?vid=4a1a615d-d0dd-4247-b943-dda1ffed742d"},"vehicle_type_id":"4","last_reported":1752318502,"current_range_meters":13600,"station_id":"ce4bgh92rcd13ifvqb40","pricing_plan_id":"cebpf4jnsgd1na2vs0mg"},{"bike_id":"a100566b-d122-47f7-b059-1aae620ff9b3","system_id":"levelo_inurba_marseille","lat":43.24116,"lon":5.37822,"is_reserved":false,"is_disabled":false,"rental_uris":{"android":"levelo://app?vid=a100566b-d122-47f7-b059-1aae620ff9b3","ios":"levelo://app?vid=a100566b-d122-47f7-b059-1aae620ff9b3"},"vehicle_type_id":"4","last_reported":1752318502,"current_range_meters":13600,"station_id":"ce4bhnp2rcd13ifvqgvg","pricing_plan_id":"cebpf4jnsgd1na2vs0mg"},{"bike_id":"40fa8e88-5ce0-4daa-9b7e-ad11275cee4f","system_id":"levelo_inurba_marseille","lat":43.28939,"lon":5.36387,"is_reserved":false,"is_disabled":false,"rental_uris":{"android":"levelo://app?vid=40fa8e88-5ce0-4daa-9b7e-ad11275cee4f","ios":"levelo://app?vid=40fa8e88-5ce0-4daa-9b7e-ad11275cee4f"},"vehicle_type_id":"4","last_reported":1752318502,"current_range_meters":13600,"station_id":"ce4bhc92rcd13ifvqetg","pricing_plan_id":"cebpf4jnsgd1na2vs0mg"},{"bike_id":"65eb05b8-449d-4dd2-96e0-e3aff941f577","system_id":"levelo_inurba_marseille","lat":43.26927,"lon":5.40239,"is_reserved":false,"is_disabled":false,"rental_uris":{"android":"levelo://app?vid=65eb05b8-449d-4dd2-96e0-e3aff941f577","ios":"levelo://app?vid=65eb05b8-449d-4dd2-96e0-e3aff941f577"},"vehicle_type_id":"4","last_reported":1752318502,"current_range_meters":14000,"station_id":"cjm6bp8fraef2m0cb0m0","pricing_plan_id":"cebpf4jnsgd1na2vs0mg"},{"bike_id":"be4818b8-9c2a-41c3-b83b-d30bee857cf2","system_id":"levelo_inurba_marseille","lat":43.29249,"lon":5.37631,"is_reserved":false,"is_disabled":false,"rental_uris":{"android":"levelo://app?vid=be4818b8-9c2a-41c3-b83b-d30bee857cf2","ios":"levelo://app?vid=be4818b8-9c2a-41c3-b83b-d30bee857cf2"},"vehicle_type_id":"4","last_reported":1752318502,"current_range_meters":14000,"station_id":"ce4bgi12rcd13ifvqb80","pricing_plan_id":"cebpf4jnsgd1na2vs0mg"},{"bike_id":"2ad3fabe-b0f7-4ff5-b7d0-22383a1a9f8e","system_id":"levelo_inurba_marseille","lat":43.29262,"lon":5.38443,"is_reserved":false,"is_disabled":false,"rental_uris":{"android":"levelo://app?vid=2ad3fabe-b0f7-4ff5-b7d0-22383a1a9f8e","ios":"levelo://app?vid=2ad3fabe-b0f7-4ff5-b7d0-22383a1a9f8e"},"vehicle_type_id":"4","last_reported":1752318502,"current_range_meters":14000,"station_id":"ce4bh692rcd13ifvqea0","pricing_plan_id":"cebpf4jnsgd1na2vs0mg"},{"bike_id":"008260af-f96d-46f7-9f16-44b7a7c6d361","system_id":"levelo_inurba_marseille","lat":43.29247,"lon":5.36847,"is_reserved":false,"is_disabled":false,"rental_uris":{"android":"levelo://app?vid=008260af-f96d-46f7-9f16-44b7a7c6d361","ios":"levelo://app?vid=008260af-f96d-46f7-9f16-44b7a7c6d361"},"vehicle_type_id":"4","last_reported":1752318502,"current_range_meters":14400,"station_id":"ce4bhbp2rcd13ifvqesg","pricing_plan_id":"cebpf4jnsgd1na2vs0mg"},{"bike_id":"f05b8bfe-6934-41c1-8e7b-6912b26dbed6","system_id":"levelo_inurba_marseille","lat":43.26548,"lon":5.39013,"is_reserved":false,"is_disabled":false,"rental_uris":{"android":"levelo://app?vid=f05b8bfe-6934-41c1-8e7b-6912b26dbed6","ios":"levelo://app?vid=f05b8bfe-6934-41c1-8e7b-6912b26dbed6"},"vehicle_type_id":"4","last_reported":1752318502,"current_range_meters":14400,"station_id":"ce4bhe12rcd13ifvqf30","pricing_plan_id":"cebpf4jnsgd1na2vs0mg"},{"bike_id":"d64b31e2-2cb0-4191-8d3d-7a087e35fa79","system_id":"levelo_inurba_marseille","lat":43.21198,"lon":5.35082,"is_reserved":false,"is_disabled":false,"rental_uris":{"android":"levelo://app?vid=d64b31e2-2cb0-4191-8d3d-7a087e35fa79","ios":"levelo://app?vid=d64b31e2-2cb0-4191-8d3d-7a087e35fa79"},"vehicle_type_id":"4","last_reported":1752318502,"current_range_meters":14400,"station_id":"st_cvj6sg6p6f1abm77japg","pricing_plan_id":"cebpf4jnsgd1na2vs0mg"},{"bike_id":"ad3a92a9-aac6-4694-a2f3-20c935fef2b6","system_id":"levelo_inurba_marseille","lat":43.292986,"lon":5.374656,"is_reserved":false,"is_disabled":false,"rental_uris":{"android":"levelo://app?vid=ad3a92a9-aac6-4694-a2f3-20c935fef2b6","ios":"levelo://app?vid=ad3a92a9-aac6-4694-a2f3-20c935fef2b6"},"vehicle_type_id":"4","last_reported":1752318502,"current_range_meters":14400,"station_id":"","pricing_plan_id":"cebpf4jnsgd1na2vs0mg"},{"bike_id":"4807356c-9359-477f-9e8b-c50294961557","system_id":"levelo_inurba_marseille","lat":43.31887,"lon":5.40739,"is_reserved":false,"is_disabled":false,"rental_uris":{"android":"levelo://app?vid=4807356c-9359-477f-9e8b-c50294961557","ios":"levelo://app?vid=4807356c-9359-477f-9e8b-c50294961557"},"vehicle_type_id":"4","last_reported":1752318502,"current_range_meters":14000,"station_id":"ce4bhq12rcd13ifvqhig","pricing_plan_id":"cebpf4jnsgd1na2vs0mg"},{"bike_id":"215d69e0-e127-4660-bcb1-04a41d5b501e","system_id":"levelo_inurba_marseille","lat":43.24808,"lon":5.37454,"is_reserved":false,"is_disabled":false,"rental_uris":{"android":"levelo://app?vid=215d69e0-e127-4660-bcb1-04a41d5b501e","ios":"levelo://app?vid=215d69e0-e127-4660-bcb1-04a41d5b501e"},"vehicle_type_id":"4","last_reported":1752318502,"current_range_meters":14400,"station_id":"ce4bhgh2rcd13ifvqfb0","pricing_plan_id":"cebpf4jnsgd1na2vs0mg"},{"bike_id":"57c84c66-066e-4358-b1d0-aebc3e80469c","system_id":"levelo_inurba_marseille","lat":43.29371,"lon":5.37835,"is_reserved":false,"is_disabled":false,"rental_uris":{"android":"levelo://app?vid=57c84c66-066e-4358-b1d0-aebc3e80469c","ios":"levelo://app?vid=57c84c66-066e-4358-b1d0-aebc3e80469c"},"vehicle_type_id":"4","last_reported":1752318502,"current_range_meters":14800,"station_id":"ce4bgjh2rcd13ifvqbf0","pricing_plan_id":"cebpf4jnsgd1na2vs0mg"},{"bike_id":"1080c49e-307f-4ac6-968b-c093ab459a73","system_id":"levelo_inurba_marseille","lat":43.32049,"lon":5.41526,"is_reserved":false,"is_disabled":false,"rental_uris":{"android":"levelo://app?vid=1080c49e-307f-4ac6-968b-c093ab459a73","ios":"levelo://app?vid=1080c49e-307f-4ac6-968b-c093ab459a73"},"vehicle_type_id":"4","last_reported":1752318502,"current_range_meters":14800,"station_id":"ce4bhq92rcd13ifvqhkg","pricing_plan_id":"cebpf4jnsgd1na2vs0mg"},{"bike_id":"cfee0657-6493-4e9d-b55a-affdef745be3","system_id":"levelo_inurba_marseille","lat":43.29847,"lon":5.376559,"is_reserved":false,"is_disabled":false,"rental_uris":{"android":"levelo://app?vid=cfee0657-6493-4e9d-b55a-affdef745be3","ios":"levelo://app?vid=cfee0657-6493-4e9d-b55a-affdef745be3"},"vehicle_type_id":"4","last_reported":1752318502,"current_range_meters":14800,"station_id":"","pricing_plan_id":"cebpf4jnsgd1na2vs0mg"},{"bike_id":"ad023729-3d33-44a6-99ca-a047715b7f88","system_id":"levelo_inurba_marseille","lat":43.21192,"lon":5.35093,"is_reserved":false,"is_disabled":false,"rental_uris":{"android":"levelo://app?vid=ad023729-3d33-44a6-99ca-a047715b7f88","ios":"levelo://app?vid=ad023729-3d33-44a6-99ca-a047715b7f88"},"vehicle_type_id":"4","last_reported":1752318502,"current_range_meters":14800,"station_id":"st_cvj6sg6p6f1abm77japg","pricing_plan_id":"cebpf4jnsgd1na2vs0mg"},{"bike_id":"a105c0c6-6fb2-4348-a250-f82e4e3e3272","system_id":"levelo_inurba_marseille","lat":43.21199,"lon":5.35046,"is_reserved":false,"is_disabled":false,"rental_uris":{"android":"levelo://app?vid=a105c0c6-6fb2-4348-a250-f82e4e3e3272","ios":"levelo://app?vid=a105c0c6-6fb2-4348-a250-f82e4e3e3272"},"vehicle_type_id":"4","last_reported":1752318502,"current_range_meters":14800,"station_id":"st_cvj6sg6p6f1abm77japg","pricing_plan_id":"cebpf4jnsgd1na2vs0mg"},{"bike_id":"d81fc32a-e83b-43aa-88f6-45ae21d3a857","system_id":"levelo_inurba_marseille","lat":43.31685,"lon":5.40472,"is_reserved":false,"is_disabled":false,"rental_uris":{"android":"levelo://app?vid=d81fc32a-e83b-43aa-88f6-45ae21d3a857","ios":"levelo://app?vid=d81fc32a-e83b-43aa-88f6-45ae21d3a857"},"vehicle_type_id":"4","last_reported":1752318502,"current_range_meters":15200,"station_id":"ce4bh012rcd13ifvqd00","pricing_plan_id":"cebpf4jnsgd1na2vs0mg"},{"bike_id":"dddd87dc-7f90-4b55-bc84-f33d20753519","system_id":"levelo_inurba_marseille","lat":43.30936,"lon":5.37171,"is_reserved":false,"is_disabled":false,"rental_uris":{"android":"levelo://app?vid=dddd87dc-7f90-4b55-bc84-f33d20753519","ios":"levelo://app?vid=dddd87dc-7f90-4b55-bc84-f33d20753519"},"vehicle_type_id":"4","last_reported":1752318502,"current_range_meters":15200,"station_id":"ce4bguh2rcd13ifvqckg","pricing_plan_id":"cebpf4jnsgd1na2vs0mg"},{"bike_id":"470d1e9d-8c05-40b8-a6b2-039f183b9f6a","system_id":"levelo_inurba_marseille","lat":43.23201,"lon":5.35563,"is_reserved":false,"is_disabled":true,"rental_uris":{"android":"levelo://app?vid=470d1e9d-8c05-40b8-a6b2-039f183b9f6a","ios":"levelo://app?vid=470d1e9d-8c05-40b8-a6b2-039f183b9f6a"},"vehicle_type_id":"4","last_reported":1752318502,"current_range_meters":15200,"station_id":"ce4bhu92rcd13ifvqi70","pricing_plan_id":"cebpf4jnsgd1na2vs0mg"},{"bike_id":"888bd7d8-4ec5-4282-97cb-63503f2485c0","system_id":"levelo_inurba_marseille","lat":43.308056,"lon":5.381331,"is_reserved":false,"is_disabled":false,"rental_uris":{"android":"levelo://app?vid=888bd7d8-4ec5-4282-97cb-63503f2485c0","ios":"levelo://app?vid=888bd7d8-4ec5-4282-97cb-63503f2485c0"},"vehicle_type_id":"4","last_reported":1752318502,"current_range_meters":16000,"station_id":"ce4bgt12rcd13ifvqce0","pricing_plan_id":"cebpf4jnsgd1na2vs0mg"},{"bike_id":"dd65270d-52f9-4b06-883b-daafeab3b1e3","system_id":"levelo_inurba_marseille","lat":43.3237,"lon":5.36759,"is_reserved":false,"is_disabled":false,"rental_uris":{"android":"levelo://app?vid=dd65270d-52f9-4b06-883b-daafeab3b1e3","ios":"levelo://app?vid=dd65270d-52f9-4b06-883b-daafeab3b1e3"},"vehicle_type_id":"4","last_reported":1752318502,"current_range_meters":16000,"station_id":"ce4bhsh2rcd13ifvqi2g","pricing_plan_id":"cebpf4jnsgd1na2vs0mg"},{"bike_id":"407b1e77-51dc-4983-95cf-04f962d77eac","system_id":"levelo_inurba_marseille","lat":43.279617,"lon":5.387069,"is_reserved":false,"is_disabled":false,"rental_uris":{"android":"levelo://app?vid=407b1e77-51dc-4983-95cf-04f962d77eac","ios":"levelo://app?vid=407b1e77-51dc-4983-95cf-04f962d77eac"},"vehicle_type_id":"4","last_reported":1752318502,"current_range_meters":16400,"station_id":"ce4bhg12rcd13ifvqf80","pricing_plan_id":"cebpf4jnsgd1na2vs0mg"},{"bike_id":"919e600e-ebda-4ca0-9126-38ed65a36143","system_id":"levelo_inurba_marseille","lat":43.21196,"lon":5.350728,"is_reserved":false,"is_disabled":false,"rental_uris":{"android":"levelo://app?vid=919e600e-ebda-4ca0-9126-38ed65a36143","ios":"levelo://app?vid=919e600e-ebda-4ca0-9126-38ed65a36143"},"vehicle_type_id":"4","last_reported":1752318502,"current_range_meters":16000,"station_id":"st_cvj6sg6p6f1abm77japg","pricing_plan_id":"cebpf4jnsgd1na2vs0mg"},{"bike_id":"a862a812-a4e3-41db-bffe-dc440146afeb","system_id":"levelo_inurba_marseille","lat":43.2705,"lon":5.40274,"is_reserved":false,"is_disabled":false,"rental_uris":{"android":"levelo://app?vid=a862a812-a4e3-41db-bffe-dc440146afeb","ios":"levelo://app?vid=a862a812-a4e3-41db-bffe-dc440146afeb"},"vehicle_type_id":"4","last_reported":1752318502,"current_range_meters":16400,"station_id":"ce4bhk92rcd13ifvqgc0","pricing_plan_id":"cebpf4jnsgd1na2vs0mg"},{"bike_id":"51890362-46b0-4ee7-9f02-afbf036d064e","system_id":"levelo_inurba_marseille","lat":43.21198,"lon":5.35064,"is_reserved":false,"is_disabled":false,"rental_uris":{"android":"levelo://app?vid=51890362-46b0-4ee7-9f02-afbf036d064e","ios":"levelo://app?vid=51890362-46b0-4ee7-9f02-afbf036d064e"},"vehicle_type_id":"4","last_reported":1752318502,"current_range_meters":16400,"station_id":"st_cvj6sg6p6f1abm77japg","pricing_plan_id":"cebpf4jnsgd1na2vs0mg"},{"bike_id":"605d5b3b-f287-4690-bd49-bc257cb106c3","system_id":"levelo_inurba_marseille","lat":43.23963,"lon":5.36634,"is_reserved":false,"is_disabled":false,"rental_uris":{"android":"levelo://app?vid=605d5b3b-f287-4690-bd49-bc257cb106c3","ios":"levelo://app?vid=605d5b3b-f287-4690-bd49-bc257cb106c3"},"vehicle_type_id":"4","last_reported":1752318502,"current_range_meters":16400,"station_id":"ce4bhi12rcd13ifvqfp0","pricing_plan_id":"cebpf4jnsgd1na2vs0mg"},{"bike_id":"b3c3491c-305d-44b9-99fe-71afe816f55d","system_id":"levelo_inurba_marseille","lat":43.23197,"lon":5.35545,"is_reserved":false,"is_disabled":false,"rental_uris":{"android":"levelo://app?vid=b3c3491c-305d-44b9-99fe-71afe816f55d","ios":"levelo://app?vid=b3c3491c-305d-44b9-99fe-71afe816f55d"},"vehicle_type_id":"4","last_reported":1752318502,"current_range_meters":16400,"station_id":"ce4bhu92rcd13ifvqi70","pricing_plan_id":"cebpf4jnsgd1na2vs0mg"},{"bike_id":"8e96cc1c-7c1c-42f1-8e93-5f09751459d9","system_id":"levelo_inurba_marseille","lat":43.29286,"lon":5.37471,"is_reserved":false,"is_disabled":false,"rental_uris":{"android":"levelo://app?vid=8e96cc1c-7c1c-42f1-8e93-5f09751459d9","ios":"levelo://app?vid=8e96cc1c-7c1c-42f1-8e93-5f09751459d9"},"vehicle_type_id":"4","last_reported":1752318502,"current_range_meters":16400,"station_id":"ce4bgi12rcd13ifvqb70","pricing_plan_id":"cebpf4jnsgd1na2vs0mg"},{"bike_id":"c6f7dabd-b092-4554-a710-07eb4af96a4c","system_id":"levelo_inurba_marseille","lat":43.21197,"lon":5.351,"is_reserved":false,"is_disabled":false,"rental_uris":{"android":"levelo://app?vid=c6f7dabd-b092-4554-a710-07eb4af96a4c","ios":"levelo://app?vid=c6f7dabd-b092-4554-a710-07eb4af96a4c"},"vehicle_type_id":"4","last_reported":1752318502,"current_range_meters":16400,"station_id":"st_cvj6sg6p6f1abm77japg","pricing_plan_id":"cebpf4jnsgd1na2vs0mg"},{"bike_id":"737ead6f-e608-42f1-8a55-8949c954e8e3","system_id":"levelo_inurba_marseille","lat":43.21195,"lon":5.35081,"is_reserved":false,"is_disabled":false,"rental_uris":{"android":"levelo://app?vid=737ead6f-e608-42f1-8a55-8949c954e8e3","ios":"levelo://app?vid=737ead6f-e608-42f1-8a55-8949c954e8e3"},"vehicle_type_id":"4","last_reported":1752318502,"current_range_meters":16400,"station_id":"st_cvj6sg6p6f1abm77japg","pricing_plan_id":"cebpf4jnsgd1na2vs0mg"},{"bike_id":"00bc0b3b-e317-4a17-a011-a3a9a29d816a","system_id":"levelo_inurba_marseille","lat":43.21202,"lon":5.35076,"is_reserved":false,"is_disabled":false,"rental_uris":{"android":"levelo://app?vid=00bc0b3b-e317-4a17-a011-a3a9a29d816a","ios":"levelo://app?vid=00bc0b3b-e317-4a17-a011-a3a9a29d816a"},"vehicle_type_id":"4","last_reported":1752318502,"current_range_meters":16800,"station_id":"st_cvj6sg6p6f1abm77japg","pricing_plan_id":"cebpf4jnsgd1na2vs0mg"},{"bike_id":"b9ef4702-89c4-44ae-835a-ce06e3cf439c","system_id":"levelo_inurba_marseille","lat":43.21754,"lon":5.34616,"is_reserved":false,"is_disabled":false,"rental_uris":{"android":"levelo://app?vid=b9ef4702-89c4-44ae-835a-ce06e3cf439c","ios":"levelo://app?vid=b9ef4702-89c4-44ae-835a-ce06e3cf439c"},"vehicle_type_id":"4","last_reported":1752318502,"current_range_meters":16800,"station_id":"st_cvj6r9ubvosntc0bgbag","pricing_plan_id":"cebpf4jnsgd1na2vs0mg"},{"bike_id":"fad1c04d-5c30-4d9a-b925-01d5ad582a6b","system_id":"levelo_inurba_marseille","lat":43.29227,"lon":5.36074,"is_reserved":false,"is_disabled":false,"rental_uris":{"android":"levelo://app?vid=fad1c04d-5c30-4d9a-b925-01d5ad582a6b","ios":"levelo://app?vid=fad1c04d-5c30-4d9a-b925-01d5ad582a6b"},"vehicle_type_id":"4","last_reported":1752318502,"current_range_meters":16800,"station_id":"ce4bhbh2rcd13ifvqeqg","pricing_plan_id":"cebpf4jnsgd1na2vs0mg"},{"bike_id":"53b2e3fb-77f4-44bd-9b1f-4c6e207a18dc","system_id":"levelo_inurba_marseille","lat":43.26483,"lon":5.39565,"is_reserved":false,"is_disabled":false,"rental_uris":{"android":"levelo://app?vid=53b2e3fb-77f4-44bd-9b1f-4c6e207a18dc","ios":"levelo://app?vid=53b2e3fb-77f4-44bd-9b1f-4c6e207a18dc"},"vehicle_type_id":"4","last_reported":1752318502,"current_range_meters":16800,"station_id":"ce4bhi12rcd13ifvqfq0","pricing_plan_id":"cebpf4jnsgd1na2vs0mg"},{"bike_id":"13a0d282-fad6-4c2a-8105-5ae41bf4d5e7","system_id":"levelo_inurba_marseille","lat":43.26792,"lon":5.39409,"is_reserved":false,"is_disabled":false,"rental_uris":{"android":"levelo://app?vid=13a0d282-fad6-4c2a-8105-5ae41bf4d5e7","ios":"levelo://app?vid=13a0d282-fad6-4c2a-8105-5ae41bf4d5e7"},"vehicle_type_id":"4","last_reported":1752318502,"current_range_meters":16800,"station_id":"ce4bhh12rcd13ifvqfg0","pricing_plan_id":"cebpf4jnsgd1na2vs0mg"},{"bike_id":"73ba6319-f467-482c-8270-547b389c062a","system_id":"levelo_inurba_marseille","lat":43.29372,"lon":5.37847,"is_reserved":false,"is_disabled":false,"rental_uris":{"android":"levelo://app?vid=73ba6319-f467-482c-8270-547b389c062a","ios":"levelo://app?vid=73ba6319-f467-482c-8270-547b389c062a"},"vehicle_type_id":"4","last_reported":1752318502,"current_range_meters":16800,"station_id":"ce4bgjh2rcd13ifvqbf0","pricing_plan_id":"cebpf4jnsgd1na2vs0mg"},{"bike_id":"b82fb1dc-55f5-4fd0-ad23-9d6c11fe104d","system_id":"levelo_inurba_marseille","lat":43.33608,"lon":5.41033,"is_reserved":false,"is_disabled":false,"rental_uris":{"android":"levelo://app?vid=b82fb1dc-55f5-4fd0-ad23-9d6c11fe104d","ios":"levelo://app?vid=b82fb1dc-55f5-4fd0-ad23-9d6c11fe104d"},"vehicle_type_id":"4","last_reported":1752318502,"current_range_meters":16800,"station_id":"ce4bhqh2rcd13ifvqhmg","pricing_plan_id":"cebpf4jnsgd1na2vs0mg"},{"bike_id":"06ceac69-3619-47b3-a3b2-d856a10a44f1","system_id":"levelo_inurba_marseille","lat":43.24386,"lon":5.37021,"is_reserved":false,"is_disabled":false,"rental_uris":{"android":"levelo://app?vid=06ceac69-3619-47b3-a3b2-d856a10a44f1","ios":"levelo://app?vid=06ceac69-3619-47b3-a3b2-d856a10a44f1"},"vehicle_type_id":"4","last_reported":1752318502,"current_range_meters":16800,"station_id":"ce4bhhh2rcd13ifvqfk0","pricing_plan_id":"cebpf4jnsgd1na2vs0mg"},{"bike_id":"a0137104-c9f4-434a-a5e3-80725cd5a2b4","system_id":"levelo_inurba_marseille","lat":43.211891,"lon":5.350708,"is_reserved":false,"is_disabled":false,"rental_uris":{"android":"levelo://app?vid=a0137104-c9f4-434a-a5e3-80725cd5a2b4","ios":"levelo://app?vid=a0137104-c9f4-434a-a5e3-80725cd5a2b4"},"vehicle_type_id":"4","last_reported":1752318502,"current_range_meters":16800,"station_id":"st_cvj6sg6p6f1abm77japg","pricing_plan_id":"cebpf4jnsgd1na2vs0mg"},{"bike_id":"53ea0c38-b6df-4349-88e1-bd9a828d8cc4","system_id":"levelo_inurba_marseille","lat":43.28489,"lon":5.38415,"is_reserved":false,"is_disabled":false,"rental_uris":{"android":"levelo://app?vid=53ea0c38-b6df-4349-88e1-bd9a828d8cc4","ios":"levelo://app?vid=53ea0c38-b6df-4349-88e1-bd9a828d8cc4"},"vehicle_type_id":"4","last_reported":1752318502,"current_range_meters":17200,"station_id":"ce4bh512rcd13ifvqe3g","pricing_plan_id":"cebpf4jnsgd1na2vs0mg"},{"bike_id":"ee5338dd-18a1-4b48-a5b0-f8c72f7b1319","system_id":"levelo_inurba_marseille","lat":43.31808,"lon":5.36853,"is_reserved":false,"is_disabled":false,"rental_uris":{"android":"levelo://app?vid=ee5338dd-18a1-4b48-a5b0-f8c72f7b1319","ios":"levelo://app?vid=ee5338dd-18a1-4b48-a5b0-f8c72f7b1319"},"vehicle_type_id":"4","last_reported":1752318502,"current_range_meters":17200,"station_id":"","pricing_plan_id":"cebpf4jnsgd1na2vs0mg"},{"bike_id":"d9058a98-0e95-4c3b-848f-74abee5207b3","system_id":"levelo_inurba_marseille","lat":43.23186,"lon":5.39984,"is_reserved":false,"is_disabled":false,"rental_uris":{"android":"levelo://app?vid=d9058a98-0e95-4c3b-848f-74abee5207b3","ios":"levelo://app?vid=d9058a98-0e95-4c3b-848f-74abee5207b3"},"vehicle_type_id":"4","last_reported":1752318502,"current_range_meters":17200,"station_id":"ce4bhn12rcd13ifvqgqg","pricing_plan_id":"cebpf4jnsgd1na2vs0mg"},{"bike_id":"5654660c-2254-4b6a-8901-f14ecd459246","system_id":"levelo_inurba_marseille","lat":43.31118,"lon":5.37767,"is_reserved":false,"is_disabled":false,"rental_uris":{"android":"levelo://app?vid=5654660c-2254-4b6a-8901-f14ecd459246","ios":"levelo://app?vid=5654660c-2254-4b6a-8901-f14ecd459246"},"vehicle_type_id":"4","last_reported":1752318502,"current_range_meters":17200,"station_id":"ce4bgt92rcd13ifvqcg0","pricing_plan_id":"cebpf4jnsgd1na2vs0mg"},{"bike_id":"715646cc-87aa-466c-a34b-df843b8622d4","system_id":"levelo_inurba_marseille","lat":43.29557,"lon":5.37506,"is_reserved":false,"is_disabled":false,"rental_uris":{"android":"levelo://app?vid=715646cc-87aa-466c-a34b-df843b8622d4","ios":"levelo://app?vid=715646cc-87aa-466c-a34b-df843b8622d4"},"vehicle_type_id":"4","last_reported":1752318502,"current_range_meters":17200,"station_id":"ce4bgh92rcd13ifvqb50","pricing_plan_id":"cebpf4jnsgd1na2vs0mg"},{"bike_id":"8b37f03f-f226-4bbc-8648-b109da7ba145","system_id":"levelo_inurba_marseille","lat":43.30536,"lon":5.366999,"is_reserved":false,"is_disabled":false,"rental_uris":{"android":"levelo://app?vid=8b37f03f-f226-4bbc-8648-b109da7ba145","ios":"levelo://app?vid=8b37f03f-f226-4bbc-8648-b109da7ba145"},"vehicle_type_id":"4","last_reported":1752318502,"current_range_meters":17200,"station_id":"","pricing_plan_id":"cebpf4jnsgd1na2vs0mg"},{"bike_id":"38e70852-2f7a-4b34-a55f-7175aa6a06f9","system_id":"levelo_inurba_marseille","lat":43.27965,"lon":5.38028,"is_reserved":false,"is_disabled":false,"rental_uris":{"android":"levelo://app?vid=38e70852-2f7a-4b34-a55f-7175aa6a06f9","ios":"levelo://app?vid=38e70852-2f7a-4b34-a55f-7175aa6a06f9"},"vehicle_type_id":"4","last_reported":1752318502,"current_range_meters":17600,"station_id":"","pricing_plan_id":"cebpf4jnsgd1na2vs0mg"},{"bike_id":"59f6cf39-cbfd-4f4b-bb29-a579321fa3c6","system_id":"levelo_inurba_marseille","lat":43.30143,"lon":5.37415,"is_reserved":false,"is_disabled":false,"rental_uris":{"android":"levelo://app?vid=59f6cf39-cbfd-4f4b-bb29-a579321fa3c6","ios":"levelo://app?vid=59f6cf39-cbfd-4f4b-bb29-a579321fa3c6"},"vehicle_type_id":"4","last_reported":1752318502,"current_range_meters":17200,"station_id":"ce4bgs92rcd13ifvqcc0","pricing_plan_id":"cebpf4jnsgd1na2vs0mg"},{"bike_id":"b59e51ca-d910-4846-ae9d-c6b0b3ae1ac3","system_id":"levelo_inurba_marseille","lat":43.28329,"lon":5.35057,"is_reserved":false,"is_disabled":false,"rental_uris":{"android":"levelo://app?vid=b59e51ca-d910-4846-ae9d-c6b0b3ae1ac3","ios":"levelo://app?vid=b59e51ca-d910-4846-ae9d-c6b0b3ae1ac3"},"vehicle_type_id":"4","last_reported":1752318502,"current_range_meters":17600,"station_id":"","pricing_plan_id":"cebpf4jnsgd1na2vs0mg"},{"bike_id":"f23760ff-ab61-4853-aa67-28aac93822c1","system_id":"levelo_inurba_marseille","lat":43.337444,"lon":5.374475,"is_reserved":false,"is_disabled":false,"rental_uris":{"android":"levelo://app?vid=f23760ff-ab61-4853-aa67-28aac93822c1","ios":"levelo://app?vid=f23760ff-ab61-4853-aa67-28aac93822c1"},"vehicle_type_id":"4","last_reported":1752318502,"current_range_meters":17600,"station_id":"","pricing_plan_id":"cebpf4jnsgd1na2vs0mg"},{"bike_id":"a1fd6319-d711-4530-bdbe-f3e95b34f736","system_id":"levelo_inurba_marseille","lat":43.28485,"lon":5.38422,"is_reserved":false,"is_disabled":false,"rental_uris":{"android":"levelo://app?vid=a1fd6319-d711-4530-bdbe-f3e95b34f736","ios":"levelo://app?vid=a1fd6319-d711-4530-bdbe-f3e95b34f736"},"vehicle_type_id":"4","last_reported":1752318502,"current_range_meters":17600,"station_id":"ce4bh512rcd13ifvqe3g","pricing_plan_id":"cebpf4jnsgd1na2vs0mg"},{"bike_id":"d799b321-3a7d-4201-b46e-ffe2ad124f19","system_id":"levelo_inurba_marseille","lat":43.328803,"lon":5.383964,"is_reserved":false,"is_disabled":false,"rental_uris":{"android":"levelo://app?vid=d799b321-3a7d-4201-b46e-ffe2ad124f19","ios":"levelo://app?vid=d799b321-3a7d-4201-b46e-ffe2ad124f19"},"vehicle_type_id":"4","last_reported":1752318502,"current_range_meters":17600,"station_id":"","pricing_plan_id":"cebpf4jnsgd1na2vs0mg"},{"bike_id":"49801dc2-618a-44b8-84ae-416cd87fdbe9","system_id":"levelo_inurba_marseille","lat":43.29435,"lon":5.37435,"is_reserved":false,"is_disabled":false,"rental_uris":{"android":"levelo://app?vid=49801dc2-618a-44b8-84ae-416cd87fdbe9","ios":"levelo://app?vid=49801dc2-618a-44b8-84ae-416cd87fdbe9"},"vehicle_type_id":"4","last_reported":1752318502,"current_range_meters":17600,"station_id":"","pricing_plan_id":"cebpf4jnsgd1na2vs0mg"},{"bike_id":"6d3f299a-d341-49bc-a1f9-7534528d9b67","system_id":"levelo_inurba_marseille","lat":43.23187,"lon":5.35567,"is_reserved":false,"is_disabled":false,"rental_uris":{"android":"levelo://app?vid=6d3f299a-d341-49bc-a1f9-7534528d9b67","ios":"levelo://app?vid=6d3f299a-d341-49bc-a1f9-7534528d9b67"},"vehicle_type_id":"4","last_reported":1752318502,"current_range_meters":18000,"station_id":"ce4bhu92rcd13ifvqi70","pricing_plan_id":"cebpf4jnsgd1na2vs0mg"},{"bike_id":"844b44b6-4e33-4917-878d-a3c647561239","system_id":"levelo_inurba_marseille","lat":43.30723,"lon":5.42451,"is_reserved":false,"is_disabled":false,"rental_uris":{"android":"levelo://app?vid=844b44b6-4e33-4917-878d-a3c647561239","ios":"levelo://app?vid=844b44b6-4e33-4917-878d-a3c647561239"},"vehicle_type_id":"4","last_reported":1752318502,"current_range_meters":18000,"station_id":"st_cvj6ca6bvosntc0bfgr0","pricing_plan_id":"cebpf4jnsgd1na2vs0mg"},{"bike_id":"4b8da722-ee9e-48a4-a5e5-3a8a10364708","system_id":"levelo_inurba_marseille","lat":43.31242,"lon":5.37819,"is_reserved":false,"is_disabled":false,"rental_uris":{"android":"levelo://app?vid=4b8da722-ee9e-48a4-a5e5-3a8a10364708","ios":"levelo://app?vid=4b8da722-ee9e-48a4-a5e5-3a8a10364708"},"vehicle_type_id":"4","last_reported":1752318502,"current_range_meters":18000,"station_id":"","pricing_plan_id":"cebpf4jnsgd1na2vs0mg"},{"bike_id":"e1fc1979-ec96-466e-b517-2f6d7ae658c2","system_id":"levelo_inurba_marseille","lat":43.30178,"lon":5.3807,"is_reserved":false,"is_disabled":false,"rental_uris":{"android":"levelo://app?vid=e1fc1979-ec96-466e-b517-2f6d7ae658c2","ios":"levelo://app?vid=e1fc1979-ec96-466e-b517-2f6d7ae658c2"},"vehicle_type_id":"4","last_reported":1752318502,"current_range_meters":18000,"station_id":"ce4bgjp2rcd13ifvqbh0","pricing_plan_id":"cebpf4jnsgd1na2vs0mg"},{"bike_id":"57692aae-9841-41ad-bc01-254866eaf8b0","system_id":"levelo_inurba_marseille","lat":43.32337,"lon":5.40601,"is_reserved":false,"is_disabled":false,"rental_uris":{"android":"levelo://app?vid=57692aae-9841-41ad-bc01-254866eaf8b0","ios":"levelo://app?vid=57692aae-9841-41ad-bc01-254866eaf8b0"},"vehicle_type_id":"4","last_reported":1752318502,"current_range_meters":18000,"station_id":"ce4bhq92rcd13ifvqhjg","pricing_plan_id":"cebpf4jnsgd1na2vs0mg"},{"bike_id":"92638092-dfa4-477f-adc9-e6393c07c7da","system_id":"levelo_inurba_marseille","lat":43.243802,"lon":5.370657,"is_reserved":false,"is_disabled":false,"rental_uris":{"android":"levelo://app?vid=92638092-dfa4-477f-adc9-e6393c07c7da","ios":"levelo://app?vid=92638092-dfa4-477f-adc9-e6393c07c7da"},"vehicle_type_id":"4","last_reported":1752318502,"current_range_meters":18000,"station_id":"ce4bhhh2rcd13ifvqfk0","pricing_plan_id":"cebpf4jnsgd1na2vs0mg"},{"bike_id":"5a1aa169-e8de-4c42-8232-f9cf794c57f1","system_id":"levelo_inurba_marseille","lat":43.21198,"lon":5.35077,"is_reserved":false,"is_disabled":false,"rental_uris":{"android":"levelo://app?vid=5a1aa169-e8de-4c42-8232-f9cf794c57f1","ios":"levelo://app?vid=5a1aa169-e8de-4c42-8232-f9cf794c57f1"},"vehicle_type_id":"4","last_reported":1752318502,"current_range_meters":18000,"station_id":"st_cvj6sg6p6f1abm77japg","pricing_plan_id":"cebpf4jnsgd1na2vs0mg"},{"bike_id":"e817dbcf-1eb6-4edb-9c23-a648f327672e","system_id":"levelo_inurba_marseille","lat":43.30312,"lon":5.40441,"is_reserved":false,"is_disabled":false,"rental_uris":{"android":"levelo://app?vid=e817dbcf-1eb6-4edb-9c23-a648f327672e","ios":"levelo://app?vid=e817dbcf-1eb6-4edb-9c23-a648f327672e"},"vehicle_type_id":"4","last_reported":1752318502,"current_range_meters":18000,"station_id":"ce4bh012rcd13ifvqd10","pricing_plan_id":"cebpf4jnsgd1na2vs0mg"},{"bike_id":"5463b110-913c-4786-b5df-a799c8fb9d7d","system_id":"levelo_inurba_marseille","lat":43.30426,"lon":5.39741,"is_reserved":false,"is_disabled":false,"rental_uris":{"android":"levelo://app?vid=5463b110-913c-4786-b5df-a799c8fb9d7d","ios":"levelo://app?vid=5463b110-913c-4786-b5df-a799c8fb9d7d"},"vehicle_type_id":"4","last_reported":1752318502,"current_range_meters":18000,"station_id":"ce4bh092rcd13ifvqd20","pricing_plan_id":"cebpf4jnsgd1na2vs0mg"},{"bike_id":"a4f4b932-29df-405e-8523-6bc156ecf891","system_id":"levelo_inurba_marseille","lat":43.26503,"lon":5.39537,"is_reserved":false,"is_disabled":false,"rental_uris":{"android":"levelo://app?vid=a4f4b932-29df-405e-8523-6bc156ecf891","ios":"levelo://app?vid=a4f4b932-29df-405e-8523-6bc156ecf891"},"vehicle_type_id":"4","last_reported":1752318502,"current_range_meters":18800,"station_id":"ce4bhi12rcd13ifvqfq0","pricing_plan_id":"cebpf4jnsgd1na2vs0mg"},{"bike_id":"30587c59-5e8a-4da4-abf1-84f32b59930a","system_id":"levelo_inurba_marseille","lat":43.243866,"lon":5.37057,"is_reserved":false,"is_disabled":false,"rental_uris":{"android":"levelo://app?vid=30587c59-5e8a-4da4-abf1-84f32b59930a","ios":"levelo://app?vid=30587c59-5e8a-4da4-abf1-84f32b59930a"},"vehicle_type_id":"4","last_reported":1752318502,"current_range_meters":18800,"station_id":"ce4bhhh2rcd13ifvqfk0","pricing_plan_id":"cebpf4jnsgd1na2vs0mg"},{"bike_id":"5af35bc3-c835-45dc-8089-0d78e9c38b02","system_id":"levelo_inurba_marseille","lat":43.27885,"lon":5.38031,"is_reserved":false,"is_disabled":false,"rental_uris":{"android":"levelo://app?vid=5af35bc3-c835-45dc-8089-0d78e9c38b02","ios":"levelo://app?vid=5af35bc3-c835-45dc-8089-0d78e9c38b02"},"vehicle_type_id":"4","last_reported":1752318502,"current_range_meters":18800,"station_id":"ce4bhf92rcd13ifvqf50","pricing_plan_id":"cebpf4jnsgd1na2vs0mg"},{"bike_id":"14b914a7-ac81-4524-a358-77b861ff3535","system_id":"levelo_inurba_marseille","lat":43.27622,"lon":5.36126,"is_reserved":false,"is_disabled":false,"rental_uris":{"android":"levelo://app?vid=14b914a7-ac81-4524-a358-77b861ff3535","ios":"levelo://app?vid=14b914a7-ac81-4524-a358-77b861ff3535"},"vehicle_type_id":"4","last_reported":1752318502,"current_range_meters":18800,"station_id":"ce4bgj92rcd13ifvqbe0","pricing_plan_id":"cebpf4jnsgd1na2vs0mg"},{"bike_id":"ed244cc4-4a1b-4a5b-8cc3-fea59def7998","system_id":"levelo_inurba_marseille","lat":43.30552,"lon":5.3657,"is_reserved":false,"is_disabled":false,"rental_uris":{"android":"levelo://app?vid=ed244cc4-4a1b-4a5b-8cc3-fea59def7998","ios":"levelo://app?vid=ed244cc4-4a1b-4a5b-8cc3-fea59def7998"},"vehicle_type_id":"4","last_reported":1752318502,"current_range_meters":18800,"station_id":"ce4bgs12rcd13ifvqcag","pricing_plan_id":"cebpf4jnsgd1na2vs0mg"},{"bike_id":"8c039c7c-e83b-4758-84e7-2cf2409fc607","system_id":"levelo_inurba_marseille","lat":43.28928,"lon":5.38387,"is_reserved":false,"is_disabled":false,"rental_uris":{"android":"levelo://app?vid=8c039c7c-e83b-4758-84e7-2cf2409fc607","ios":"levelo://app?vid=8c039c7c-e83b-4758-84e7-2cf2409fc607"},"vehicle_type_id":"4","last_reported":1752318502,"current_range_meters":18800,"station_id":"ce4bh612rcd13ifvqe6g","pricing_plan_id":"cebpf4jnsgd1na2vs0mg"},{"bike_id":"c1e31621-0aed-4b5e-af3d-40677b8cf3e0","system_id":"levelo_inurba_marseille","lat":43.29316,"lon":5.37186,"is_reserved":false,"is_disabled":false,"rental_uris":{"android":"levelo://app?vid=c1e31621-0aed-4b5e-af3d-40677b8cf3e0","ios":"levelo://app?vid=c1e31621-0aed-4b5e-af3d-40677b8cf3e0"},"vehicle_type_id":"4","last_reported":1752318502,"current_range_meters":18800,"station_id":"ce4bgh92rcd13ifvqb40","pricing_plan_id":"cebpf4jnsgd1na2vs0mg"},{"bike_id":"f1b2b101-57e1-48d9-bb5f-6d4b4f1a8fc9","system_id":"levelo_inurba_marseille","lat":43.29096,"lon":5.38125,"is_reserved":false,"is_disabled":false,"rental_uris":{"android":"levelo://app?vid=f1b2b101-57e1-48d9-bb5f-6d4b4f1a8fc9","ios":"levelo://app?vid=f1b2b101-57e1-48d9-bb5f-6d4b4f1a8fc9"},"vehicle_type_id":"4","last_reported":1752318502,"current_range_meters":19200,"station_id":"ce4bh512rcd13ifvqe2g","pricing_plan_id":"cebpf4jnsgd1na2vs0mg"},{"bike_id":"916e11e7-7c72-4b4e-a8ad-659b7cc3d16d","system_id":"levelo_inurba_marseille","lat":43.26032,"lon":5.37549,"is_reserved":false,"is_disabled":false,"rental_uris":{"android":"levelo://app?vid=916e11e7-7c72-4b4e-a8ad-659b7cc3d16d","ios":"levelo://app?vid=916e11e7-7c72-4b4e-a8ad-659b7cc3d16d"},"vehicle_type_id":"4","last_reported":1752318502,"current_range_meters":19200,"station_id":"ce4bhgh2rcd13ifvqfa0","pricing_plan_id":"cebpf4jnsgd1na2vs0mg"},{"bike_id":"f9924005-c8ac-4086-8e25-9a21391f65ea","system_id":"levelo_inurba_marseille","lat":43.21191,"lon":5.35111,"is_reserved":false,"is_disabled":false,"rental_uris":{"android":"levelo://app?vid=f9924005-c8ac-4086-8e25-9a21391f65ea","ios":"levelo://app?vid=f9924005-c8ac-4086-8e25-9a21391f65ea"},"vehicle_type_id":"4","last_reported":1752318502,"current_range_meters":19200,"station_id":"st_cvj6sg6p6f1abm77japg","pricing_plan_id":"cebpf4jnsgd1na2vs0mg"},{"bike_id":"2afd10ce-5f23-4122-9c7a-a3416be941b2","system_id":"levelo_inurba_marseille","lat":43.260289,"lon":5.375515,"is_reserved":false,"is_disabled":true,"rental_uris":{"android":"levelo://app?vid=2afd10ce-5f23-4122-9c7a-a3416be941b2","ios":"levelo://app?vid=2afd10ce-5f23-4122-9c7a-a3416be941b2"},"vehicle_type_id":"4","last_reported":1752318502,"current_range_meters":19200,"station_id":"ce4bhgh2rcd13ifvqfa0","pricing_plan_id":"cebpf4jnsgd1na2vs0mg"},{"bike_id":"a258dc86-7c84-4445-ad0e-265b9f56cb91","system_id":"levelo_inurba_marseille","lat":43.29558,"lon":5.42295,"is_reserved":false,"is_disabled":false,"rental_uris":{"android":"levelo://app?vid=a258dc86-7c84-4445-ad0e-265b9f56cb91","ios":"levelo://app?vid=a258dc86-7c84-4445-ad0e-265b9f56cb91"},"vehicle_type_id":"4","last_reported":1752318502,"current_range_meters":19200,"station_id":"ce4bhph2rcd13ifvqhdg","pricing_plan_id":"cebpf4jnsgd1na2vs0mg"},{"bike_id":"71ffafe8-ba4f-4329-9795-1b18b71c34dd","system_id":"levelo_inurba_marseille","lat":43.29778,"lon":5.371001,"is_reserved":false,"is_disabled":false,"rental_uris":{"android":"levelo://app?vid=71ffafe8-ba4f-4329-9795-1b18b71c34dd","ios":"levelo://app?vid=71ffafe8-ba4f-4329-9795-1b18b71c34dd"},"vehicle_type_id":"4","last_reported":1752318502,"current_range_meters":19600,"station_id":"ce4bgop2rcd13ifvqc1g","pricing_plan_id":"cebpf4jnsgd1na2vs0mg"},{"bike_id":"f97f91a1-84d2-4824-83aa-a86af3708e5d","system_id":"levelo_inurba_marseille","lat":43.31353,"lon":5.36719,"is_reserved":false,"is_disabled":false,"rental_uris":{"android":"levelo://app?vid=f97f91a1-84d2-4824-83aa-a86af3708e5d","ios":"levelo://app?vid=f97f91a1-84d2-4824-83aa-a86af3708e5d"},"vehicle_type_id":"4","last_reported":1752318502,"current_range_meters":19200,"station_id":"ce4bgr92rcd13ifvqc6g","pricing_plan_id":"cebpf4jnsgd1na2vs0mg"},{"bike_id":"2789363d-6c32-4f54-a6f0-e032059a9c8e","system_id":"levelo_inurba_marseille","lat":43.24362,"lon":5.37107,"is_reserved":false,"is_disabled":false,"rental_uris":{"android":"levelo://app?vid=2789363d-6c32-4f54-a6f0-e032059a9c8e","ios":"levelo://app?vid=2789363d-6c32-4f54-a6f0-e032059a9c8e"},"vehicle_type_id":"4","last_reported":1752318502,"current_range_meters":19600,"station_id":"ce4bhhh2rcd13ifvqfk0","pricing_plan_id":"cebpf4jnsgd1na2vs0mg"},{"bike_id":"c6a8feb4-6823-4a2b-9599-dbfcc793a999","system_id":"levelo_inurba_marseille","lat":43.29265,"lon":5.37642,"is_reserved":false,"is_disabled":false,"rental_uris":{"android":"levelo://app?vid=c6a8feb4-6823-4a2b-9599-dbfcc793a999","ios":"levelo://app?vid=c6a8feb4-6823-4a2b-9599-dbfcc793a999"},"vehicle_type_id":"4","last_reported":1752318502,"current_range_meters":19600,"station_id":"ce4bgi12rcd13ifvqb80","pricing_plan_id":"cebpf4jnsgd1na2vs0mg"},{"bike_id":"ece5e006-0a29-4a34-88d5-2dde675964aa","system_id":"levelo_inurba_marseille","lat":43.276153,"lon":5.361055,"is_reserved":false,"is_disabled":false,"rental_uris":{"android":"levelo://app?vid=ece5e006-0a29-4a34-88d5-2dde675964aa","ios":"levelo://app?vid=ece5e006-0a29-4a34-88d5-2dde675964aa"},"vehicle_type_id":"4","last_reported":1752318502,"current_range_meters":19600,"station_id":"ce4bgj92rcd13ifvqbe0","pricing_plan_id":"cebpf4jnsgd1na2vs0mg"},{"bike_id":"b030b529-2fc9-4fff-8da1-00a4905114e6","system_id":"levelo_inurba_marseille","lat":43.250885,"lon":5.395254,"is_reserved":false,"is_disabled":false,"rental_uris":{"android":"levelo://app?vid=b030b529-2fc9-4fff-8da1-00a4905114e6","ios":"levelo://app?vid=b030b529-2fc9-4fff-8da1-00a4905114e6"},"vehicle_type_id":"4","last_reported":1752318502,"current_range_meters":19600,"station_id":"ce4bhm12rcd13ifvqgkg","pricing_plan_id":"cebpf4jnsgd1na2vs0mg"},{"bike_id":"a71b38fa-618c-4719-85dc-c82feed16bf0","system_id":"levelo_inurba_marseille","lat":43.29958,"lon":5.41312,"is_reserved":false,"is_disabled":false,"rental_uris":{"android":"levelo://app?vid=a71b38fa-618c-4719-85dc-c82feed16bf0","ios":"levelo://app?vid=a71b38fa-618c-4719-85dc-c82feed16bf0"},"vehicle_type_id":"4","last_reported":1752318502,"current_range_meters":20000,"station_id":"ce4bhp12rcd13ifvqh9g","pricing_plan_id":"cebpf4jnsgd1na2vs0mg"},{"bike_id":"dcd4e6b2-5e2e-4f6f-8646-98d4c6ad77aa","system_id":"levelo_inurba_marseille","lat":43.23182,"lon":5.39985,"is_reserved":false,"is_disabled":false,"rental_uris":{"android":"levelo://app?vid=dcd4e6b2-5e2e-4f6f-8646-98d4c6ad77aa","ios":"levelo://app?vid=dcd4e6b2-5e2e-4f6f-8646-98d4c6ad77aa"},"vehicle_type_id":"4","last_reported":1752318502,"current_range_meters":19600,"station_id":"ce4bhn12rcd13ifvqgqg","pricing_plan_id":"cebpf4jnsgd1na2vs0mg"},{"bike_id":"9b40dc73-509b-4d2f-8a27-44696719b175","system_id":"levelo_inurba_marseille","lat":43.27069,"lon":5.42238,"is_reserved":false,"is_disabled":false,"rental_uris":{"android":"levelo://app?vid=9b40dc73-509b-4d2f-8a27-44696719b175","ios":"levelo://app?vid=9b40dc73-509b-4d2f-8a27-44696719b175"},"vehicle_type_id":"4","last_reported":1752318502,"current_range_meters":20000,"station_id":"ce4bhk92rcd13ifvqgb0","pricing_plan_id":"cebpf4jnsgd1na2vs0mg"},{"bike_id":"45be3528-fd16-498e-8434-e30e29d5ac2e","system_id":"levelo_inurba_marseille","lat":43.30384,"lon":5.39804,"is_reserved":false,"is_disabled":false,"rental_uris":{"android":"levelo://app?vid=45be3528-fd16-498e-8434-e30e29d5ac2e","ios":"levelo://app?vid=45be3528-fd16-498e-8434-e30e29d5ac2e"},"vehicle_type_id":"4","last_reported":1752318502,"current_range_meters":20400,"station_id":"","pricing_plan_id":"cebpf4jnsgd1na2vs0mg"},{"bike_id":"30929512-e32a-406f-8517-e720d5016609","system_id":"levelo_inurba_marseille","lat":43.29851,"lon":5.36283,"is_reserved":false,"is_disabled":false,"rental_uris":{"android":"levelo://app?vid=30929512-e32a-406f-8517-e720d5016609","ios":"levelo://app?vid=30929512-e32a-406f-8517-e720d5016609"},"vehicle_type_id":"4","last_reported":1752318502,"current_range_meters":20000,"station_id":"ce4bgpp2rcd13ifvqc3g","pricing_plan_id":"cebpf4jnsgd1na2vs0mg"},{"bike_id":"080b7127-a74b-4753-8953-42608b829633","system_id":"levelo_inurba_marseille","lat":43.30254,"lon":5.40079,"is_reserved":false,"is_disabled":false,"rental_uris":{"android":"levelo://app?vid=080b7127-a74b-4753-8953-42608b829633","ios":"levelo://app?vid=080b7127-a74b-4753-8953-42608b829633"},"vehicle_type_id":"4","last_reported":1752318502,"current_range_meters":19600,"station_id":"ce4bgvh2rcd13ifvqcs0","pricing_plan_id":"cebpf4jnsgd1na2vs0mg"},{"bike_id":"02c71304-9c4f-4ebf-b265-2eb94afb5a95","system_id":"levelo_inurba_marseille","lat":43.30932,"lon":5.36832,"is_reserved":false,"is_disabled":false,"rental_uris":{"android":"levelo://app?vid=02c71304-9c4f-4ebf-b265-2eb94afb5a95","ios":"levelo://app?vid=02c71304-9c4f-4ebf-b265-2eb94afb5a95"},"vehicle_type_id":"4","last_reported":1752318502,"current_range_meters":20400,"station_id":"","pricing_plan_id":"cebpf4jnsgd1na2vs0mg"},{"bike_id":"2b65cf6b-9915-4572-bc54-f25f380cdabf","system_id":"levelo_inurba_marseille","lat":43.24648,"lon":5.38894,"is_reserved":false,"is_disabled":false,"rental_uris":{"android":"levelo://app?vid=2b65cf6b-9915-4572-bc54-f25f380cdabf","ios":"levelo://app?vid=2b65cf6b-9915-4572-bc54-f25f380cdabf"},"vehicle_type_id":"4","last_reported":1752318502,"current_range_meters":20400,"station_id":"ce4bhg12rcd13ifvqf60","pricing_plan_id":"cebpf4jnsgd1na2vs0mg"},{"bike_id":"93c09de0-2b96-4ddc-a9e4-3f313e1c4431","system_id":"levelo_inurba_marseille","lat":43.29725,"lon":5.36608,"is_reserved":false,"is_disabled":false,"rental_uris":{"android":"levelo://app?vid=93c09de0-2b96-4ddc-a9e4-3f313e1c4431","ios":"levelo://app?vid=93c09de0-2b96-4ddc-a9e4-3f313e1c4431"},"vehicle_type_id":"4","last_reported":1752318502,"current_range_meters":20400,"station_id":"ce4bgn12rcd13ifvqbt0","pricing_plan_id":"cebpf4jnsgd1na2vs0mg"},{"bike_id":"ab7daa0d-bc6c-4ca1-871b-cf07f959e961","system_id":"levelo_inurba_marseille","lat":43.30144,"lon":5.38079,"is_reserved":false,"is_disabled":false,"rental_uris":{"android":"levelo://app?vid=ab7daa0d-bc6c-4ca1-871b-cf07f959e961","ios":"levelo://app?vid=ab7daa0d-bc6c-4ca1-871b-cf07f959e961"},"vehicle_type_id":"4","last_reported":1752318502,"current_range_meters":20400,"station_id":"ce4bgjp2rcd13ifvqbh0","pricing_plan_id":"cebpf4jnsgd1na2vs0mg"},{"bike_id":"fd6c4217-5929-42da-9fd9-3bbad6bf9407","system_id":"levelo_inurba_marseille","lat":43.29608,"lon":5.37713,"is_reserved":false,"is_disabled":false,"rental_uris":{"android":"levelo://app?vid=fd6c4217-5929-42da-9fd9-3bbad6bf9407","ios":"levelo://app?vid=fd6c4217-5929-42da-9fd9-3bbad6bf9407"},"vehicle_type_id":"4","last_reported":1752318502,"current_range_meters":20400,"station_id":"ce4bgi92rcd13ifvqb90","pricing_plan_id":"cebpf4jnsgd1na2vs0mg"},{"bike_id":"38298c0d-29f0-4b70-bb3d-6ce5c24e58d9","system_id":"levelo_inurba_marseille","lat":43.29869,"lon":5.38907,"is_reserved":false,"is_disabled":false,"rental_uris":{"android":"levelo://app?vid=38298c0d-29f0-4b70-bb3d-6ce5c24e58d9","ios":"levelo://app?vid=38298c0d-29f0-4b70-bb3d-6ce5c24e58d9"},"vehicle_type_id":"4","last_reported":1752318502,"current_range_meters":20400,"station_id":"ce4bh392rcd13ifvqdl0","pricing_plan_id":"cebpf4jnsgd1na2vs0mg"},{"bike_id":"64a38ec4-fc94-41ec-9cac-64b983a23663","system_id":"levelo_inurba_marseille","lat":43.25004,"lon":5.38921,"is_reserved":false,"is_disabled":false,"rental_uris":{"android":"levelo://app?vid=64a38ec4-fc94-41ec-9cac-64b983a23663","ios":"levelo://app?vid=64a38ec4-fc94-41ec-9cac-64b983a23663"},"vehicle_type_id":"4","last_reported":1752318502,"current_range_meters":20000,"station_id":"ce4bhgp2rcd13ifvqfd0","pricing_plan_id":"cebpf4jnsgd1na2vs0mg"},{"bike_id":"4c63a874-28e6-4bf3-8b41-ae83b106b1a9","system_id":"levelo_inurba_marseille","lat":43.23193,"lon":5.35535,"is_reserved":false,"is_disabled":false,"rental_uris":{"android":"levelo://app?vid=4c63a874-28e6-4bf3-8b41-ae83b106b1a9","ios":"levelo://app?vid=4c63a874-28e6-4bf3-8b41-ae83b106b1a9"},"vehicle_type_id":"4","last_reported":1752318502,"current_range_meters":20400,"station_id":"ce4bhu92rcd13ifvqi70","pricing_plan_id":"cebpf4jnsgd1na2vs0mg"},{"bike_id":"e007f327-652c-464f-9ac1-4434e68fb203","system_id":"levelo_inurba_marseille","lat":43.29269,"lon":5.38429,"is_reserved":false,"is_disabled":false,"rental_uris":{"android":"levelo://app?vid=e007f327-652c-464f-9ac1-4434e68fb203","ios":"levelo://app?vid=e007f327-652c-464f-9ac1-4434e68fb203"},"vehicle_type_id":"4","last_reported":1752318502,"current_range_meters":20400,"station_id":"ce4bh692rcd13ifvqea0","pricing_plan_id":"cebpf4jnsgd1na2vs0mg"},{"bike_id":"b1680c67-d087-4b85-b416-41c69ce4d631","system_id":"levelo_inurba_marseille","lat":43.26794,"lon":5.39412,"is_reserved":false,"is_disabled":false,"rental_uris":{"android":"levelo://app?vid=b1680c67-d087-4b85-b416-41c69ce4d631","ios":"levelo://app?vid=b1680c67-d087-4b85-b416-41c69ce4d631"},"vehicle_type_id":"4","last_reported":1752318502,"current_range_meters":20400,"station_id":"ce4bhh12rcd13ifvqfg0","pricing_plan_id":"cebpf4jnsgd1na2vs0mg"},{"bike_id":"5db06cae-226b-4cef-b5fd-d914294fb2f2","system_id":"levelo_inurba_marseille","lat":43.29175,"lon":5.35795,"is_reserved":false,"is_disabled":false,"rental_uris":{"android":"levelo://app?vid=5db06cae-226b-4cef-b5fd-d914294fb2f2","ios":"levelo://app?vid=5db06cae-226b-4cef-b5fd-d914294fb2f2"},"vehicle_type_id":"4","last_reported":1752318502,"current_range_meters":20800,"station_id":"ce4bhb12rcd13ifvqel0","pricing_plan_id":"cebpf4jnsgd1na2vs0mg"},{"bike_id":"5bd66fd2-a579-49f0-82c1-03d4944456a3","system_id":"levelo_inurba_marseille","lat":43.2973,"lon":5.37692,"is_reserved":false,"is_disabled":false,"rental_uris":{"android":"levelo://app?vid=5bd66fd2-a579-49f0-82c1-03d4944456a3","ios":"levelo://app?vid=5bd66fd2-a579-49f0-82c1-03d4944456a3"},"vehicle_type_id":"4","last_reported":1752318502,"current_range_meters":20800,"station_id":"ce4bgkh2rcd13ifvqbl0","pricing_plan_id":"cebpf4jnsgd1na2vs0mg"},{"bike_id":"bf96a28c-b576-4418-99da-2cf644d7cc65","system_id":"levelo_inurba_marseille","lat":43.232505,"lon":5.356829,"is_reserved":false,"is_disabled":false,"rental_uris":{"android":"levelo://app?vid=bf96a28c-b576-4418-99da-2cf644d7cc65","ios":"levelo://app?vid=bf96a28c-b576-4418-99da-2cf644d7cc65"},"vehicle_type_id":"4","last_reported":1752318502,"current_range_meters":20400,"station_id":"ce4bhu92rcd13ifvqi70","pricing_plan_id":"cebpf4jnsgd1na2vs0mg"},{"bike_id":"579c9257-e9d2-4fed-8af3-001a27548604","system_id":"levelo_inurba_marseille","lat":43.2176,"lon":5.34591,"is_reserved":false,"is_disabled":false,"rental_uris":{"android":"levelo://app?vid=579c9257-e9d2-4fed-8af3-001a27548604","ios":"levelo://app?vid=579c9257-e9d2-4fed-8af3-001a27548604"},"vehicle_type_id":"4","last_reported":1752318502,"current_range_meters":21600,"station_id":"st_cvj6r9ubvosntc0bgbag","pricing_plan_id":"cebpf4jnsgd1na2vs0mg"},{"bike_id":"37e04037-4751-45cc-9e56-db1728107dad","system_id":"levelo_inurba_marseille","lat":43.311134,"lon":5.37763,"is_reserved":false,"is_disabled":false,"rental_uris":{"android":"levelo://app?vid=37e04037-4751-45cc-9e56-db1728107dad","ios":"levelo://app?vid=37e04037-4751-45cc-9e56-db1728107dad"},"vehicle_type_id":"4","last_reported":1752318502,"current_range_meters":21600,"station_id":"ce4bgt92rcd13ifvqcg0","pricing_plan_id":"cebpf4jnsgd1na2vs0mg"},{"bike_id":"b209347f-83f5-4b30-be47-cc7087b38216","system_id":"levelo_inurba_marseille","lat":43.28619,"lon":5.35106,"is_reserved":false,"is_disabled":false,"rental_uris":{"android":"levelo://app?vid=b209347f-83f5-4b30-be47-cc7087b38216","ios":"levelo://app?vid=b209347f-83f5-4b30-be47-cc7087b38216"},"vehicle_type_id":"4","last_reported":1752318502,"current_range_meters":21600,"station_id":"ce4bhch2rcd13ifvqeug","pricing_plan_id":"cebpf4jnsgd1na2vs0mg"},{"bike_id":"80706ed8-34fd-4666-9e3e-8aacbb0a19ea","system_id":"levelo_inurba_marseille","lat":43.267966,"lon":5.402679,"is_reserved":false,"is_disabled":true,"rental_uris":{"android":"levelo://app?vid=80706ed8-34fd-4666-9e3e-8aacbb0a19ea","ios":"levelo://app?vid=80706ed8-34fd-4666-9e3e-8aacbb0a19ea"},"vehicle_type_id":"4","last_reported":1752318502,"current_range_meters":21600,"station_id":"ce501612rcd8frsf0b60","pricing_plan_id":"cebpf4jnsgd1na2vs0mg"},{"bike_id":"7296e1a6-8f08-4412-b397-045001941fec","system_id":"levelo_inurba_marseille","lat":43.30899,"lon":5.3719,"is_reserved":false,"is_disabled":false,"rental_uris":{"android":"levelo://app?vid=7296e1a6-8f08-4412-b397-045001941fec","ios":"levelo://app?vid=7296e1a6-8f08-4412-b397-045001941fec"},"vehicle_type_id":"4","last_reported":1752318502,"current_range_meters":21600,"station_id":"ce4bguh2rcd13ifvqckg","pricing_plan_id":"cebpf4jnsgd1na2vs0mg"},{"bike_id":"f5a47db5-6fb2-46bd-a2de-efa4ad13bf60","system_id":"levelo_inurba_marseille","lat":43.211908,"lon":5.350701,"is_reserved":false,"is_disabled":false,"rental_uris":{"android":"levelo://app?vid=f5a47db5-6fb2-46bd-a2de-efa4ad13bf60","ios":"levelo://app?vid=f5a47db5-6fb2-46bd-a2de-efa4ad13bf60"},"vehicle_type_id":"4","last_reported":1752318502,"current_range_meters":22000,"station_id":"st_cvj6sg6p6f1abm77japg","pricing_plan_id":"cebpf4jnsgd1na2vs0mg"},{"bike_id":"58375fde-ca97-4dab-be52-59caf98323d3","system_id":"levelo_inurba_marseille","lat":43.26555,"lon":5.37279,"is_reserved":false,"is_disabled":true,"rental_uris":{"android":"levelo://app?vid=58375fde-ca97-4dab-be52-59caf98323d3","ios":"levelo://app?vid=58375fde-ca97-4dab-be52-59caf98323d3"},"vehicle_type_id":"4","last_reported":1752318502,"current_range_meters":22000,"station_id":"ce4bhg12rcd13ifvqf70","pricing_plan_id":"cebpf4jnsgd1na2vs0mg"},{"bike_id":"9bfc7d3d-4e60-4f8a-9c32-ef3d0e77ec5b","system_id":"levelo_inurba_marseille","lat":43.21193,"lon":5.35075,"is_reserved":false,"is_disabled":false,"rental_uris":{"android":"levelo://app?vid=9bfc7d3d-4e60-4f8a-9c32-ef3d0e77ec5b","ios":"levelo://app?vid=9bfc7d3d-4e60-4f8a-9c32-ef3d0e77ec5b"},"vehicle_type_id":"4","last_reported":1752318502,"current_range_meters":22000,"station_id":"st_cvj6sg6p6f1abm77japg","pricing_plan_id":"cebpf4jnsgd1na2vs0mg"},{"bike_id":"b8eb3130-c203-4842-b5ea-03fa9e487ff4","system_id":"levelo_inurba_marseille","lat":43.24161,"lon":5.36405,"is_reserved":false,"is_disabled":false,"rental_uris":{"android":"levelo://app?vid=b8eb3130-c203-4842-b5ea-03fa9e487ff4","ios":"levelo://app?vid=b8eb3130-c203-4842-b5ea-03fa9e487ff4"},"vehicle_type_id":"4","last_reported":1752318502,"current_range_meters":22000,"station_id":"cpo36qri1sfpv3e86is0","pricing_plan_id":"cebpf4jnsgd1na2vs0mg"},{"bike_id":"10666549-7ebc-45b0-9816-8cedb6235d7b","system_id":"levelo_inurba_marseille","lat":43.28613,"lon":5.37085,"is_reserved":false,"is_disabled":false,"rental_uris":{"android":"levelo://app?vid=10666549-7ebc-45b0-9816-8cedb6235d7b","ios":"levelo://app?vid=10666549-7ebc-45b0-9816-8cedb6235d7b"},"vehicle_type_id":"4","last_reported":1752318502,"current_range_meters":22400,"station_id":"ce4bht12rcd13ifvqi60","pricing_plan_id":"cebpf4jnsgd1na2vs0mg"},{"bike_id":"b0690d14-833d-4864-9b0b-a536495bff4c","system_id":"levelo_inurba_marseille","lat":43.282131,"lon":5.386127,"is_reserved":false,"is_disabled":false,"rental_uris":{"android":"levelo://app?vid=b0690d14-833d-4864-9b0b-a536495bff4c","ios":"levelo://app?vid=b0690d14-833d-4864-9b0b-a536495bff4c"},"vehicle_type_id":"4","last_reported":1752318502,"current_range_meters":22000,"station_id":"ce4bh492rcd13ifvqdvg","pricing_plan_id":"cebpf4jnsgd1na2vs0mg"},{"bike_id":"e5124c3e-bb93-4252-999c-eee8820a227b","system_id":"levelo_inurba_marseille","lat":43.30155,"lon":5.38097,"is_reserved":false,"is_disabled":false,"rental_uris":{"android":"levelo://app?vid=e5124c3e-bb93-4252-999c-eee8820a227b","ios":"levelo://app?vid=e5124c3e-bb93-4252-999c-eee8820a227b"},"vehicle_type_id":"4","last_reported":1752318502,"current_range_meters":22400,"station_id":"ce4bgjp2rcd13ifvqbh0","pricing_plan_id":"cebpf4jnsgd1na2vs0mg"},{"bike_id":"d2eb7848-4e16-492e-bb2e-34b216f30c20","system_id":"levelo_inurba_marseille","lat":43.2593,"lon":5.409,"is_reserved":false,"is_disabled":false,"rental_uris":{"android":"levelo://app?vid=d2eb7848-4e16-492e-bb2e-34b216f30c20","ios":"levelo://app?vid=d2eb7848-4e16-492e-bb2e-34b216f30c20"},"vehicle_type_id":"4","last_reported":1752318502,"current_range_meters":22400,"station_id":"ce4bhm92rcd13ifvqglg","pricing_plan_id":"cebpf4jnsgd1na2vs0mg"},{"bike_id":"0a3bd191-b500-4060-87b1-4795fb800ab4","system_id":"levelo_inurba_marseille","lat":43.30359,"lon":5.4188,"is_reserved":false,"is_disabled":false,"rental_uris":{"android":"levelo://app?vid=0a3bd191-b500-4060-87b1-4795fb800ab4","ios":"levelo://app?vid=0a3bd191-b500-4060-87b1-4795fb800ab4"},"vehicle_type_id":"4","last_reported":1752318502,"current_range_meters":22400,"station_id":"ce4bhop2rcd13ifvqh7g","pricing_plan_id":"cebpf4jnsgd1na2vs0mg"},{"bike_id":"d2501d8a-17a4-488b-92ac-71df945193d6","system_id":"levelo_inurba_marseille","lat":43.27071,"lon":5.42283,"is_reserved":false,"is_disabled":false,"rental_uris":{"android":"levelo://app?vid=d2501d8a-17a4-488b-92ac-71df945193d6","ios":"levelo://app?vid=d2501d8a-17a4-488b-92ac-71df945193d6"},"vehicle_type_id":"4","last_reported":1752318502,"current_range_meters":22400,"station_id":"ce4bhk92rcd13ifvqgb0","pricing_plan_id":"cebpf4jnsgd1na2vs0mg"},{"bike_id":"8c1f804e-5239-4ab4-8fd6-6515b0690b99","system_id":"levelo_inurba_marseille","lat":43.30194,"lon":5.38023,"is_reserved":false,"is_disabled":false,"rental_uris":{"android":"levelo://app?vid=8c1f804e-5239-4ab4-8fd6-6515b0690b99","ios":"levelo://app?vid=8c1f804e-5239-4ab4-8fd6-6515b0690b99"},"vehicle_type_id":"4","last_reported":1752318502,"current_range_meters":22400,"station_id":"","pricing_plan_id":"cebpf4jnsgd1na2vs0mg"},{"bike_id":"2b0509e1-0ef4-45ec-abcd-22993d56a972","system_id":"levelo_inurba_marseille","lat":43.30191,"lon":5.3662,"is_reserved":false,"is_disabled":false,"rental_uris":{"android":"levelo://app?vid=2b0509e1-0ef4-45ec-abcd-22993d56a972","ios":"levelo://app?vid=2b0509e1-0ef4-45ec-abcd-22993d56a972"},"vehicle_type_id":"4","last_reported":1752318502,"current_range_meters":22400,"station_id":"ce4bgrh2rcd13ifvqc8g","pricing_plan_id":"cebpf4jnsgd1na2vs0mg"},{"bike_id":"cc6260c7-e588-42d7-afef-96c409802ccc","system_id":"levelo_inurba_marseille","lat":43.211921,"lon":5.350708,"is_reserved":false,"is_disabled":false,"rental_uris":{"android":"levelo://app?vid=cc6260c7-e588-42d7-afef-96c409802ccc","ios":"levelo://app?vid=cc6260c7-e588-42d7-afef-96c409802ccc"},"vehicle_type_id":"4","last_reported":1752318502,"current_range_meters":22400,"station_id":"st_cvj6sg6p6f1abm77japg","pricing_plan_id":"cebpf4jnsgd1na2vs0mg"},{"bike_id":"d39d79fe-b14f-4f92-b5d2-ee5d46871426","system_id":"levelo_inurba_marseille","lat":43.25007,"lon":5.38934,"is_reserved":false,"is_disabled":false,"rental_uris":{"android":"levelo://app?vid=d39d79fe-b14f-4f92-b5d2-ee5d46871426","ios":"levelo://app?vid=d39d79fe-b14f-4f92-b5d2-ee5d46871426"},"vehicle_type_id":"4","last_reported":1752318502,"current_range_meters":22400,"station_id":"ce4bhgp2rcd13ifvqfd0","pricing_plan_id":"cebpf4jnsgd1na2vs0mg"},{"bike_id":"3b1bb547-4fa9-4d14-874f-2f58aa774d5a","system_id":"levelo_inurba_marseille","lat":43.29806,"lon":5.38098,"is_reserved":false,"is_disabled":false,"rental_uris":{"android":"levelo://app?vid=3b1bb547-4fa9-4d14-874f-2f58aa774d5a","ios":"levelo://app?vid=3b1bb547-4fa9-4d14-874f-2f58aa774d5a"},"vehicle_type_id":"4","last_reported":1752318502,"current_range_meters":22800,"station_id":"ce4bgip2rcd13ifvqbb0","pricing_plan_id":"cebpf4jnsgd1na2vs0mg"},{"bike_id":"7b24d22c-7607-4d99-a30c-c524d01a3c3f","system_id":"levelo_inurba_marseille","lat":43.28614,"lon":5.35106,"is_reserved":false,"is_disabled":false,"rental_uris":{"android":"levelo://app?vid=7b24d22c-7607-4d99-a30c-c524d01a3c3f","ios":"levelo://app?vid=7b24d22c-7607-4d99-a30c-c524d01a3c3f"},"vehicle_type_id":"4","last_reported":1752318502,"current_range_meters":22800,"station_id":"ce4bhch2rcd13ifvqeug","pricing_plan_id":"cebpf4jnsgd1na2vs0mg"},{"bike_id":"df7fff74-36b5-40d1-b9fb-09077a9efd8f","system_id":"levelo_inurba_marseille","lat":43.29366,"lon":5.37849,"is_reserved":false,"is_disabled":false,"rental_uris":{"android":"levelo://app?vid=df7fff74-36b5-40d1-b9fb-09077a9efd8f","ios":"levelo://app?vid=df7fff74-36b5-40d1-b9fb-09077a9efd8f"},"vehicle_type_id":"4","last_reported":1752318502,"current_range_meters":22800,"station_id":"ce4bgjh2rcd13ifvqbf0","pricing_plan_id":"cebpf4jnsgd1na2vs0mg"},{"bike_id":"8dc0c035-73d3-42c9-aafe-01961473b48d","system_id":"levelo_inurba_marseille","lat":43.2901,"lon":5.35612,"is_reserved":false,"is_disabled":false,"rental_uris":{"android":"levelo://app?vid=8dc0c035-73d3-42c9-aafe-01961473b48d","ios":"levelo://app?vid=8dc0c035-73d3-42c9-aafe-01961473b48d"},"vehicle_type_id":"4","last_reported":1752318502,"current_range_meters":22800,"station_id":"ce4bhb92rcd13ifvqen0","pricing_plan_id":"cebpf4jnsgd1na2vs0mg"},{"bike_id":"9fc4a9a4-df65-4ffb-87a7-e95c9bee6d88","system_id":"levelo_inurba_marseille","lat":43.25096,"lon":5.39523,"is_reserved":false,"is_disabled":false,"rental_uris":{"android":"levelo://app?vid=9fc4a9a4-df65-4ffb-87a7-e95c9bee6d88","ios":"levelo://app?vid=9fc4a9a4-df65-4ffb-87a7-e95c9bee6d88"},"vehicle_type_id":"4","last_reported":1752318502,"current_range_meters":22800,"station_id":"ce4bhm12rcd13ifvqgkg","pricing_plan_id":"cebpf4jnsgd1na2vs0mg"},{"bike_id":"c8c4de1a-846f-4f5b-aace-9fb14bf7ad52","system_id":"levelo_inurba_marseille","lat":43.21186,"lon":5.35081,"is_reserved":false,"is_disabled":false,"rental_uris":{"android":"levelo://app?vid=c8c4de1a-846f-4f5b-aace-9fb14bf7ad52","ios":"levelo://app?vid=c8c4de1a-846f-4f5b-aace-9fb14bf7ad52"},"vehicle_type_id":"4","last_reported":1752318502,"current_range_meters":22800,"station_id":"st_cvj6sg6p6f1abm77japg","pricing_plan_id":"cebpf4jnsgd1na2vs0mg"},{"bike_id":"ab20069c-9e84-45f3-b27d-f4a3eb257439","system_id":"levelo_inurba_marseille","lat":43.25583,"lon":5.38229,"is_reserved":false,"is_disabled":false,"rental_uris":{"android":"levelo://app?vid=ab20069c-9e84-45f3-b27d-f4a3eb257439","ios":"levelo://app?vid=ab20069c-9e84-45f3-b27d-f4a3eb257439"},"vehicle_type_id":"4","last_reported":1752318502,"current_range_meters":22800,"station_id":"ce4bhih2rcd13ifvqfs0","pricing_plan_id":"cebpf4jnsgd1na2vs0mg"},{"bike_id":"99ae43ef-9981-41ec-907c-f94f73cc9ad2","system_id":"levelo_inurba_marseille","lat":43.29985,"lon":5.38484,"is_reserved":false,"is_disabled":false,"rental_uris":{"android":"levelo://app?vid=99ae43ef-9981-41ec-907c-f94f73cc9ad2","ios":"levelo://app?vid=99ae43ef-9981-41ec-907c-f94f73cc9ad2"},"vehicle_type_id":"4","last_reported":1752318502,"current_range_meters":22800,"station_id":"ce4bgj92rcd13ifvqbd0","pricing_plan_id":"cebpf4jnsgd1na2vs0mg"},{"bike_id":"2ec427da-b403-4a7e-86be-3f48ba535d18","system_id":"levelo_inurba_marseille","lat":43.2119,"lon":5.35078,"is_reserved":false,"is_disabled":false,"rental_uris":{"android":"levelo://app?vid=2ec427da-b403-4a7e-86be-3f48ba535d18","ios":"levelo://app?vid=2ec427da-b403-4a7e-86be-3f48ba535d18"},"vehicle_type_id":"4","last_reported":1752318502,"current_range_meters":23200,"station_id":"st_cvj6sg6p6f1abm77japg","pricing_plan_id":"cebpf4jnsgd1na2vs0mg"},{"bike_id":"de671b43-c288-474b-8b75-6f0972818435","system_id":"levelo_inurba_marseille","lat":43.2865,"lon":5.36361,"is_reserved":false,"is_disabled":false,"rental_uris":{"android":"levelo://app?vid=de671b43-c288-474b-8b75-6f0972818435","ios":"levelo://app?vid=de671b43-c288-474b-8b75-6f0972818435"},"vehicle_type_id":"4","last_reported":1752318502,"current_range_meters":23200,"station_id":"ce4bhah2rcd13ifvqej0","pricing_plan_id":"cebpf4jnsgd1na2vs0mg"},{"bike_id":"156d234d-0810-49dc-ad72-c87b18a9e888","system_id":"levelo_inurba_marseille","lat":43.26795,"lon":5.39409,"is_reserved":false,"is_disabled":false,"rental_uris":{"android":"levelo://app?vid=156d234d-0810-49dc-ad72-c87b18a9e888","ios":"levelo://app?vid=156d234d-0810-49dc-ad72-c87b18a9e888"},"vehicle_type_id":"4","last_reported":1752318502,"current_range_meters":23200,"station_id":"ce4bhh12rcd13ifvqfg0","pricing_plan_id":"cebpf4jnsgd1na2vs0mg"},{"bike_id":"e551c81f-beb8-4535-a76a-0860bd6c5653","system_id":"levelo_inurba_marseille","lat":43.29417,"lon":5.38623,"is_reserved":false,"is_disabled":true,"rental_uris":{"android":"levelo://app?vid=e551c81f-beb8-4535-a76a-0860bd6c5653","ios":"levelo://app?vid=e551c81f-beb8-4535-a76a-0860bd6c5653"},"vehicle_type_id":"4","last_reported":1752318502,"current_range_meters":23200,"station_id":"ce4bh2h2rcd13ifvqdh0","pricing_plan_id":"cebpf4jnsgd1na2vs0mg"},{"bike_id":"5dc91c1e-fda1-4c49-9fa3-09df1ce152a2","system_id":"levelo_inurba_marseille","lat":43.28277,"lon":5.35068,"is_reserved":false,"is_disabled":true,"rental_uris":{"android":"levelo://app?vid=5dc91c1e-fda1-4c49-9fa3-09df1ce152a2","ios":"levelo://app?vid=5dc91c1e-fda1-4c49-9fa3-09df1ce152a2"},"vehicle_type_id":"4","last_reported":1752318502,"current_range_meters":23200,"station_id":"ce4bhbp2rcd13ifvqerg","pricing_plan_id":"cebpf4jnsgd1na2vs0mg"},{"bike_id":"c5387a44-98a9-469f-8e39-0e268b7f371f","system_id":"levelo_inurba_marseille","lat":43.30535,"lon":5.36561,"is_reserved":false,"is_disabled":false,"rental_uris":{"android":"levelo://app?vid=c5387a44-98a9-469f-8e39-0e268b7f371f","ios":"levelo://app?vid=c5387a44-98a9-469f-8e39-0e268b7f371f"},"vehicle_type_id":"4","last_reported":1752318502,"current_range_meters":22800,"station_id":"ce4bgs12rcd13ifvqcag","pricing_plan_id":"cebpf4jnsgd1na2vs0mg"},{"bike_id":"4cbc3477-2104-4d18-9dd5-c012e99a5a87","system_id":"levelo_inurba_marseille","lat":43.2118,"lon":5.3507,"is_reserved":false,"is_disabled":false,"rental_uris":{"android":"levelo://app?vid=4cbc3477-2104-4d18-9dd5-c012e99a5a87","ios":"levelo://app?vid=4cbc3477-2104-4d18-9dd5-c012e99a5a87"},"vehicle_type_id":"4","last_reported":1752318502,"current_range_meters":23200,"station_id":"st_cvj6sg6p6f1abm77japg","pricing_plan_id":"cebpf4jnsgd1na2vs0mg"},{"bike_id":"32d055e0-9ce6-4d86-a2d6-1fcbda07ccf0","system_id":"levelo_inurba_marseille","lat":43.2959,"lon":5.38117,"is_reserved":false,"is_disabled":false,"rental_uris":{"android":"levelo://app?vid=32d055e0-9ce6-4d86-a2d6-1fcbda07ccf0","ios":"levelo://app?vid=32d055e0-9ce6-4d86-a2d6-1fcbda07ccf0"},"vehicle_type_id":"4","last_reported":1752318502,"current_range_meters":23200,"station_id":"ce4bgl12rcd13ifvqbo0","pricing_plan_id":"cebpf4jnsgd1na2vs0mg"},{"bike_id":"0740fead-5ad2-4801-a771-8085b7a7798e","system_id":"levelo_inurba_marseille","lat":43.28028,"lon":5.36956,"is_reserved":false,"is_disabled":false,"rental_uris":{"android":"levelo://app?vid=0740fead-5ad2-4801-a771-8085b7a7798e","ios":"levelo://app?vid=0740fead-5ad2-4801-a771-8085b7a7798e"},"vehicle_type_id":"4","last_reported":1752318502,"current_range_meters":23200,"station_id":"ce4bha12rcd13ifvqef0","pricing_plan_id":"cebpf4jnsgd1na2vs0mg"},{"bike_id":"697d5fc4-b988-4a4e-8323-c1ce5ed61a61","system_id":"levelo_inurba_marseille","lat":43.21196,"lon":5.35069,"is_reserved":false,"is_disabled":false,"rental_uris":{"android":"levelo://app?vid=697d5fc4-b988-4a4e-8323-c1ce5ed61a61","ios":"levelo://app?vid=697d5fc4-b988-4a4e-8323-c1ce5ed61a61"},"vehicle_type_id":"4","last_reported":1752318502,"current_range_meters":24000,"station_id":"st_cvj6sg6p6f1abm77japg","pricing_plan_id":"cebpf4jnsgd1na2vs0mg"},{"bike_id":"634611d7-6f4d-4c18-861c-ecd8c7d6fc41","system_id":"levelo_inurba_marseille","lat":43.29359,"lon":5.37849,"is_reserved":false,"is_disabled":false,"rental_uris":{"android":"levelo://app?vid=634611d7-6f4d-4c18-861c-ecd8c7d6fc41","ios":"levelo://app?vid=634611d7-6f4d-4c18-861c-ecd8c7d6fc41"},"vehicle_type_id":"4","last_reported":1752318502,"current_range_meters":24000,"station_id":"ce4bgjh2rcd13ifvqbf0","pricing_plan_id":"cebpf4jnsgd1na2vs0mg"},{"bike_id":"3999555b-2c38-461f-853b-32db70a4da91","system_id":"levelo_inurba_marseille","lat":43.28613,"lon":5.37059,"is_reserved":false,"is_disabled":false,"rental_uris":{"android":"levelo://app?vid=3999555b-2c38-461f-853b-32db70a4da91","ios":"levelo://app?vid=3999555b-2c38-461f-853b-32db70a4da91"},"vehicle_type_id":"4","last_reported":1752318502,"current_range_meters":23200,"station_id":"ce4bht12rcd13ifvqi60","pricing_plan_id":"cebpf4jnsgd1na2vs0mg"},{"bike_id":"b29c635f-9f64-466c-a57c-b8a3bc4058b4","system_id":"levelo_inurba_marseille","lat":43.30845,"lon":5.40029,"is_reserved":false,"is_disabled":false,"rental_uris":{"android":"levelo://app?vid=b29c635f-9f64-466c-a57c-b8a3bc4058b4","ios":"levelo://app?vid=b29c635f-9f64-466c-a57c-b8a3bc4058b4"},"vehicle_type_id":"4","last_reported":1752318502,"current_range_meters":24000,"station_id":"","pricing_plan_id":"cebpf4jnsgd1na2vs0mg"},{"bike_id":"80955d0f-8669-4c02-b90f-c6fe20790c37","system_id":"levelo_inurba_marseille","lat":43.23223,"lon":5.35025,"is_reserved":false,"is_disabled":false,"rental_uris":{"android":"levelo://app?vid=80955d0f-8669-4c02-b90f-c6fe20790c37","ios":"levelo://app?vid=80955d0f-8669-4c02-b90f-c6fe20790c37"},"vehicle_type_id":"4","last_reported":1752318502,"current_range_meters":24000,"station_id":"","pricing_plan_id":"cebpf4jnsgd1na2vs0mg"},{"bike_id":"f59f6657-f62a-42fc-a273-bf50a25645d6","system_id":"levelo_inurba_marseille","lat":43.27379,"lon":5.36295,"is_reserved":false,"is_disabled":false,"rental_uris":{"android":"levelo://app?vid=f59f6657-f62a-42fc-a273-bf50a25645d6","ios":"levelo://app?vid=f59f6657-f62a-42fc-a273-bf50a25645d6"},"vehicle_type_id":"4","last_reported":1752318502,"current_range_meters":24000,"station_id":"ce4bhbh2rcd13ifvqeo0","pricing_plan_id":"cebpf4jnsgd1na2vs0mg"},{"bike_id":"c9131229-fc26-406d-9791-d9ba8a95b1f4","system_id":"levelo_inurba_marseille","lat":43.337703,"lon":5.374329,"is_reserved":false,"is_disabled":false,"rental_uris":{"android":"levelo://app?vid=c9131229-fc26-406d-9791-d9ba8a95b1f4","ios":"levelo://app?vid=c9131229-fc26-406d-9791-d9ba8a95b1f4"},"vehicle_type_id":"4","last_reported":1752318502,"current_range_meters":24000,"station_id":"","pricing_plan_id":"cebpf4jnsgd1na2vs0mg"},{"bike_id":"ce24a0bb-5737-47d8-ab38-d3141f1e0b32","system_id":"levelo_inurba_marseille","lat":43.29314,"lon":5.3745,"is_reserved":false,"is_disabled":false,"rental_uris":{"android":"levelo://app?vid=ce24a0bb-5737-47d8-ab38-d3141f1e0b32","ios":"levelo://app?vid=ce24a0bb-5737-47d8-ab38-d3141f1e0b32"},"vehicle_type_id":"4","last_reported":1752318502,"current_range_meters":24000,"station_id":"ce4bgi12rcd13ifvqb70","pricing_plan_id":"cebpf4jnsgd1na2vs0mg"},{"bike_id":"b799f899-220f-4d7e-bfad-6862bab05a50","system_id":"levelo_inurba_marseille","lat":43.24721,"lon":5.41176,"is_reserved":false,"is_disabled":false,"rental_uris":{"android":"levelo://app?vid=b799f899-220f-4d7e-bfad-6862bab05a50","ios":"levelo://app?vid=b799f899-220f-4d7e-bfad-6862bab05a50"},"vehicle_type_id":"4","last_reported":1752318502,"current_range_meters":24000,"station_id":"","pricing_plan_id":"cebpf4jnsgd1na2vs0mg"},{"bike_id":"2d4c05dd-5a63-40cd-b218-1f82c782ca9b","system_id":"levelo_inurba_marseille","lat":43.28886,"lon":5.38287,"is_reserved":false,"is_disabled":false,"rental_uris":{"android":"levelo://app?vid=2d4c05dd-5a63-40cd-b218-1f82c782ca9b","ios":"levelo://app?vid=2d4c05dd-5a63-40cd-b218-1f82c782ca9b"},"vehicle_type_id":"4","last_reported":1752318502,"current_range_meters":24000,"station_id":"","pricing_plan_id":"cebpf4jnsgd1na2vs0mg"},{"bike_id":"d59c2391-74a0-4be3-ac76-24c20574fbb2","system_id":"levelo_inurba_marseille","lat":43.243892,"lon":5.370591,"is_reserved":false,"is_disabled":false,"rental_uris":{"android":"levelo://app?vid=d59c2391-74a0-4be3-ac76-24c20574fbb2","ios":"levelo://app?vid=d59c2391-74a0-4be3-ac76-24c20574fbb2"},"vehicle_type_id":"4","last_reported":1752318502,"current_range_meters":24400,"station_id":"","pricing_plan_id":"cebpf4jnsgd1na2vs0mg"},{"bike_id":"6ac174d4-75c5-4a9c-9699-97cd631c6e65","system_id":"levelo_inurba_marseille","lat":43.25457,"lon":5.39944,"is_reserved":false,"is_disabled":false,"rental_uris":{"android":"levelo://app?vid=6ac174d4-75c5-4a9c-9699-97cd631c6e65","ios":"levelo://app?vid=6ac174d4-75c5-4a9c-9699-97cd631c6e65"},"vehicle_type_id":"4","last_reported":1752318502,"current_range_meters":24400,"station_id":"","pricing_plan_id":"cebpf4jnsgd1na2vs0mg"},{"bike_id":"da983724-2189-4fc3-8aaf-a6ee9bbfd66a","system_id":"levelo_inurba_marseille","lat":43.26955,"lon":5.403,"is_reserved":false,"is_disabled":false,"rental_uris":{"android":"levelo://app?vid=da983724-2189-4fc3-8aaf-a6ee9bbfd66a","ios":"levelo://app?vid=da983724-2189-4fc3-8aaf-a6ee9bbfd66a"},"vehicle_type_id":"4","last_reported":1752318502,"current_range_meters":24400,"station_id":"cjm6bp8fraef2m0cb0m0","pricing_plan_id":"cebpf4jnsgd1na2vs0mg"},{"bike_id":"b640c36c-6c5a-408e-8ac7-d6548dede463","system_id":"levelo_inurba_marseille","lat":43.24073,"lon":5.37758,"is_reserved":false,"is_disabled":false,"rental_uris":{"android":"levelo://app?vid=b640c36c-6c5a-408e-8ac7-d6548dede463","ios":"levelo://app?vid=b640c36c-6c5a-408e-8ac7-d6548dede463"},"vehicle_type_id":"4","last_reported":1752318502,"current_range_meters":24400,"station_id":"ce4bhnp2rcd13ifvqgvg","pricing_plan_id":"cebpf4jnsgd1na2vs0mg"},{"bike_id":"bee25bc8-e658-4715-a35e-0156f870df48","system_id":"levelo_inurba_marseille","lat":43.31355,"lon":5.38495,"is_reserved":false,"is_disabled":false,"rental_uris":{"android":"levelo://app?vid=bee25bc8-e658-4715-a35e-0156f870df48","ios":"levelo://app?vid=bee25bc8-e658-4715-a35e-0156f870df48"},"vehicle_type_id":"4","last_reported":1752318502,"current_range_meters":24400,"station_id":"ce4bgt92rcd13ifvqcf0","pricing_plan_id":"cebpf4jnsgd1na2vs0mg"},{"bike_id":"a4d07f45-19f9-4df9-9728-be6623530a64","system_id":"levelo_inurba_marseille","lat":43.23713,"lon":5.38845,"is_reserved":false,"is_disabled":false,"rental_uris":{"android":"levelo://app?vid=a4d07f45-19f9-4df9-9728-be6623530a64","ios":"levelo://app?vid=a4d07f45-19f9-4df9-9728-be6623530a64"},"vehicle_type_id":"4","last_reported":1752318502,"current_range_meters":24400,"station_id":"","pricing_plan_id":"cebpf4jnsgd1na2vs0mg"},{"bike_id":"8ad58758-a996-4b15-9696-9e763ae6ed1e","system_id":"levelo_inurba_marseille","lat":43.29306,"lon":5.37462,"is_reserved":false,"is_disabled":false,"rental_uris":{"android":"levelo://app?vid=8ad58758-a996-4b15-9696-9e763ae6ed1e","ios":"levelo://app?vid=8ad58758-a996-4b15-9696-9e763ae6ed1e"},"vehicle_type_id":"4","last_reported":1752318502,"current_range_meters":24400,"station_id":"ce4bgi12rcd13ifvqb70","pricing_plan_id":"cebpf4jnsgd1na2vs0mg"},{"bike_id":"8a01e88a-8371-4085-9838-47ae11897cd3","system_id":"levelo_inurba_marseille","lat":43.28162,"lon":5.42646,"is_reserved":false,"is_disabled":true,"rental_uris":{"android":"levelo://app?vid=8a01e88a-8371-4085-9838-47ae11897cd3","ios":"levelo://app?vid=8a01e88a-8371-4085-9838-47ae11897cd3"},"vehicle_type_id":"4","last_reported":1752318502,"current_range_meters":24400,"station_id":"ce4bhnh2rcd13ifvqgug","pricing_plan_id":"cebpf4jnsgd1na2vs0mg"},{"bike_id":"20d37ed8-3532-4e6d-ba29-6abdde3b6fb4","system_id":"levelo_inurba_marseille","lat":43.30651,"lon":5.40086,"is_reserved":false,"is_disabled":false,"rental_uris":{"android":"levelo://app?vid=20d37ed8-3532-4e6d-ba29-6abdde3b6fb4","ios":"levelo://app?vid=20d37ed8-3532-4e6d-ba29-6abdde3b6fb4"},"vehicle_type_id":"4","last_reported":1752318502,"current_range_meters":24400,"station_id":"ce4bh112rcd13ifvqda0","pricing_plan_id":"cebpf4jnsgd1na2vs0mg"},{"bike_id":"c37d61cb-d2b0-440e-ad25-04b15ead9aa7","system_id":"levelo_inurba_marseille","lat":43.2972,"lon":5.37696,"is_reserved":false,"is_disabled":false,"rental_uris":{"android":"levelo://app?vid=c37d61cb-d2b0-440e-ad25-04b15ead9aa7","ios":"levelo://app?vid=c37d61cb-d2b0-440e-ad25-04b15ead9aa7"},"vehicle_type_id":"4","last_reported":1752318502,"current_range_meters":24400,"station_id":"ce4bgkh2rcd13ifvqbl0","pricing_plan_id":"cebpf4jnsgd1na2vs0mg"},{"bike_id":"281a9a4f-e71f-4ac0-8996-4b7e57fa702f","system_id":"levelo_inurba_marseille","lat":43.29227,"lon":5.36056,"is_reserved":false,"is_disabled":false,"rental_uris":{"android":"levelo://app?vid=281a9a4f-e71f-4ac0-8996-4b7e57fa702f","ios":"levelo://app?vid=281a9a4f-e71f-4ac0-8996-4b7e57fa702f"},"vehicle_type_id":"4","last_reported":1752318502,"current_range_meters":24400,"station_id":"ce4bhbh2rcd13ifvqeqg","pricing_plan_id":"cebpf4jnsgd1na2vs0mg"},{"bike_id":"355cb463-1888-4e8b-870a-d1c775a94702","system_id":"levelo_inurba_marseille","lat":43.31997,"lon":5.3816,"is_reserved":false,"is_disabled":false,"rental_uris":{"android":"levelo://app?vid=355cb463-1888-4e8b-870a-d1c775a94702","ios":"levelo://app?vid=355cb463-1888-4e8b-870a-d1c775a94702"},"vehicle_type_id":"4","last_reported":1752318502,"current_range_meters":24000,"station_id":"ce4bhr12rcd13ifvqhpg","pricing_plan_id":"cebpf4jnsgd1na2vs0mg"},{"bike_id":"5cb9f2ff-e30c-4f3f-a74a-22aaa10f216c","system_id":"levelo_inurba_marseille","lat":43.27922,"lon":5.38022,"is_reserved":false,"is_disabled":false,"rental_uris":{"android":"levelo://app?vid=5cb9f2ff-e30c-4f3f-a74a-22aaa10f216c","ios":"levelo://app?vid=5cb9f2ff-e30c-4f3f-a74a-22aaa10f216c"},"vehicle_type_id":"4","last_reported":1752318502,"current_range_meters":24800,"station_id":"ce4bhf92rcd13ifvqf50","pricing_plan_id":"cebpf4jnsgd1na2vs0mg"},