{"last_updated":1747508865,"ttl":60,"version":"2.2","data":{"bikes":[{"bike_id":"c0b9fd4f-e181-46ce-b0bf-f5119973334f","system_id":"levelo_inurba_marseille","lat":43.33771,"lon":5.37424,"is_reserved":false,"is_disabled":false,"rental_uris":{"android":"levelo://app?vid=c0b9fd4f-e181-46ce-b0bf-f5119973334f","ios":"levelo://app?vid=c0b9fd4f-e181-46ce-b0bf-f5119973334f"},"vehicle_type_id":"4","last_reported":1747508865,"current_range_meters":4400,"station_id":"","pricing_plan_id":"cebpf4jnsgd1na2vs0mg"},{"bike_id":"fc2577e7-1497-425b-9d4f-ab8d7dc843c6","system_id":"levelo_inurba_marseille","lat":43.33771,"lon":5.37485,"is_reserved":false,"is_disabled":true,"rental_uris":{"android":"levelo://app?vid=fc2577e7-1497-425b-9d4f-ab8d7dc843c6","ios":"levelo://app?vid=fc2577e7-1497-425b-9d4f-ab8d7dc843c6"},"vehicle_type_id":"4","last_reported":1747508865,"current_range_meters":0,"station_id":"","pricing_plan_id":"cebpf4jnsgd1na2vs0mg"},{"bike_id":"7e8f9622-74b3-4df1-9fba-94b450718227","system_id":"levelo_inurba_marseille","lat":43.28764,"lon":5.38249,"is_reserved":false,"is_disabled":true,"rental_uris":{"android":"levelo://app?vid=7e8f9622-74b3-4df1-9fba-94b450718227","ios":"levelo://app?vid=7e8f9622-74b3-4df1-9fba-94b450718227"},"vehicle_type_id":"4","last_reported":1747508865,"current_range_meters":0,"station_id":"","pricing_plan_id":"cebpf4jnsgd1na2vs0mg"},{"bike_id":"c783481e-653f-48a9-9873-514dc3340bce","system_id":"levelo_inurba_marseille","lat":43.31234,"lon":5.38637,"is_reserved":false,"is_disabled":true,"rental_uris":{"android":"levelo://app?vid=c783481e-653f-48a9-9873-514dc3340bce","ios":"levelo://app?vid=c783481e-653f-48a9-9873-514dc3340bce"},"vehicle_type_id":"4","last_reported":1747508865,"current_range_meters":0,"station_id":"","pricing_plan_id":"cebpf4jnsgd1na2vs0mg"},{"bike_id":"80d0d83f-909d-4568-b4e7-8a3ef4eed2de","system_id":"levelo_inurba_marseille","lat":43.25322,"lon":5.41924,"is_reserved":false,"is_disabled":true,"rental_uris":{"android":"levelo://app?vid=80d0d83f-909d-4568-b4e7-8a3ef4eed2de","ios":"levelo://app?vid=80d0d83f-909d-4568-b4e7-8a3ef4eed2de"},"vehicle_type_id":"4","last_reported":1747508865,"current_range_meters":0,"station_id":"","pricing_plan_id":"cebpf4jnsgd1na2vs0mg"},{"bike_id":"59e33bab-443b-4b82-946a-94b602858b07","system_id":"levelo_inurba_marseille","lat":43.28178,"lon":5.38456,"is_reserved":false,"is_disabled":true,"rental_uris":{"android":"levelo://app?vid=59e33bab-443b-4b82-946a-94b602858b07","ios":"levelo://app?vid=59e33bab-443b-4b82-946a-94b602858b07"},"vehicle_type_id":"4","last_reported":1747508865,"current_range_meters":0,"station_id":"","pricing_plan_id":"cebpf4jnsgd1na2vs0mg"},{"bike_id":"0b7b8d9e-a565-4a78-b09b-a8c868649f48","system_id":"levelo_inurba_marseille","lat":43.337444,"lon":5.374475,"is_reserved":false,"is_disabled":true,"rental_uris":{"android":"levelo://app?vid=0b7b8d9e-a565-4a78-b09b-a8c868649f48","ios":"levelo://app?vid=0b7b8d9e-a565-4a78-b09b-a8c868649f48"},"vehicle_type_id":"4","last_reported":1747508865,"current_range_meters":0,"station_id":"","pricing_plan_id":"cebpf4jnsgd1na2vs0mg"},{"bike_id":"ce4325af-2448-4172-bdec-81d552ee0b62","system_id":"levelo_inurba_marseille","lat":43.26173,"lon":5.42004,"is_reserved":false,"is_disabled":true,"rental_uris":{"android":"levelo://app?vid=ce4325af-2448-4172-bdec-81d552ee0b62","ios":"levelo://app?vid=ce4325af-2448-4172-bdec-81d552ee0b62"},"vehicle_type_id":"4","last_reported":1747508865,"current_range_meters":0,"station_id":"","pricing_plan_id":"cebpf4jnsgd1na2vs0mg"},{"bike_id":"23939faf-d206-4b93-ade4-199417584041","system_id":"levelo_inurba_marseille","lat":43.249485,"lon":5.375398,"is_reserved":false,"is_disabled":true,"rental_uris":{"android":"levelo://app?vid=23939faf-d206-4b93-ade4-199417584041","ios":"levelo://app?vid=23939faf-d206-4b93-ade4-199417584041"},"vehicle_type_id":"4","last_reported":1747508865,"current_range_meters":0,"station_id":"","pricing_plan_id":"cebpf4jnsgd1na2vs0mg"},{"bike_id":"792567c6-0442-4011-aff0-9c05e25deb48","system_id":"levelo_inurba_marseille","lat":43.337444,"lon":5.374475,"is_reserved":false,"is_disabled":true,"rental_uris":{"android":"levelo://app?vid=792567c6-0442-4011-aff0-9c05e25deb48","ios":"levelo://app?vid=792567c6-0442-4011-aff0-9c05e25deb48"},"vehicle_type_id":"4","last_reported":1747508865,"current_range_meters":0,"station_id":"","pricing_plan_id":"cebpf4jnsgd1na2vs0mg"},{"bike_id":"bb0baa39-1e01-43e0-a77c-5ba8d631e8a2","system_id":"levelo_inurba_marseille","lat":43.27246,"lon":5.38569,"is_reserved":false,"is_disabled":true,"rental_uris":{"android":"levelo://app?vid=bb0baa39-1e01-43e0-a77c-5ba8d631e8a2","ios":"levelo://app?vid=bb0baa39-1e01-43e0-a77c-5ba8d631e8a2"},"vehicle_type_id":"4","last_reported":1747508865,"current_range_meters":0,"station_id":"","pricing_plan_id":"cebpf4jnsgd1na2vs0mg"},{"bike_id":"e840e5da-2285-498a-8ebc-813c7f2791e4","system_id":"levelo_inurba_marseille","lat":43.33026,"lon":5.39044,"is_reserved":false,"is_disabled":true,"rental_uris":{"android":"levelo://app?vid=e840e5da-2285-498a-8ebc-813c7f2791e4","ios":"levelo://app?vid=e840e5da-2285-498a-8ebc-813c7f2791e4"},"vehicle_type_id":"4","last_reported":1747508865,"current_range_meters":0,"station_id":"","pricing_plan_id":"cebpf4jnsgd1na2vs0mg"},{"bike_id":"5d82970f-d802-4d28-8bef-c93ce3b4c20b","system_id":"levelo_inurba_marseille","lat":43.29804,"lon":5.38104,"is_reserved":false,"is_disabled":true,"rental_uris":{"android":"levelo://app?vid=5d82970f-d802-4d28-8bef-c93ce3b4c20b","ios":"levelo://app?vid=5d82970f-d802-4d28-8bef-c93ce3b4c20b"},"vehicle_type_id":"4","last_reported":1747508865,"current_range_meters":0,"station_id":"ce4bgip2rcd13ifvqbb0","pricing_plan_id":"cebpf4jnsgd1na2vs0mg"},{"bike_id":"0b7ad680-94fb-4563-b505-81b61e2c4ba4","system_id":"levelo_inurba_marseille","lat":43.301491,"lon":5.380875,"is_reserved":false,"is_disabled":true,"rental_uris":{"android":"levelo://app?vid=0b7ad680-94fb-4563-b505-81b61e2c4ba4","ios":"levelo://app?vid=0b7ad680-94fb-4563-b505-81b61e2c4ba4"},"vehicle_type_id":"4","last_reported":1747508865,"current_range_meters":0,"station_id":"ce4bgjp2rcd13ifvqbh0","pricing_plan_id":"cebpf4jnsgd1na2vs0mg"},{"bike_id":"295d4169-66a5-455f-b1d3-983bae0e74c2","system_id":"levelo_inurba_marseille","lat":43.29581,"lon":5.36741,"is_reserved":false,"is_disabled":true,"rental_uris":{"android":"levelo://app?vid=295d4169-66a5-455f-b1d3-983bae0e74c2","ios":"levelo://app?vid=295d4169-66a5-455f-b1d3-983bae0e74c2"},"vehicle_type_id":"4","last_reported":1747508865,"current_range_meters":0,"station_id":"ce4bgph2rcd13ifvqc2g","pricing_plan_id":"cebpf4jnsgd1na2vs0mg"},{"bike_id":"e8fc14a8-77e3-4c29-bf4f-7a9ab1cf7841","system_id":"levelo_inurba_marseille","lat":43.28927,"lon":5.3841,"is_reserved":false,"is_disabled":true,"rental_uris":{"android":"levelo://app?vid=e8fc14a8-77e3-4c29-bf4f-7a9ab1cf7841","ios":"levelo://app?vid=e8fc14a8-77e3-4c29-bf4f-7a9ab1cf7841"},"vehicle_type_id":"4","last_reported":1747508865,"current_range_meters":0,"station_id":"ce4bh612rcd13ifvqe6g","pricing_plan_id":"cebpf4jnsgd1na2vs0mg"},{"bike_id":"f9f19beb-54b8-4e5a-a563-58d59af76b72","system_id":"levelo_inurba_marseille","lat":43.28919,"lon":5.38393,"is_reserved":false,"is_disabled":true,"rental_uris":{"android":"levelo://app?vid=f9f19beb-54b8-4e5a-a563-58d59af76b72","ios":"levelo://app?vid=f9f19beb-54b8-4e5a-a563-58d59af76b72"},"vehicle_type_id":"4","last_reported":1747508865,"current_range_meters":0,"station_id":"ce4bh612rcd13ifvqe6g","pricing_plan_id":"cebpf4jnsgd1na2vs0mg"},{"bike_id":"fcb96f77-1ab5-4980-a3a4-d6da6cf0aaa9","system_id":"levelo_inurba_marseille","lat":43.27372,"lon":5.36259,"is_reserved":false,"is_disabled":false,"rental_uris":{"android":"levelo://app?vid=fcb96f77-1ab5-4980-a3a4-d6da6cf0aaa9","ios":"levelo://app?vid=fcb96f77-1ab5-4980-a3a4-d6da6cf0aaa9"},"vehicle_type_id":"4","last_reported":1747508865,"current_range_meters":0,"station_id":"ce4bhbh2rcd13ifvqeo0","pricing_plan_id":"cebpf4jnsgd1na2vs0mg"},{"bike_id":"6abe8a9a-55c7-482e-938d-e3b1d92f406c","system_id":"levelo_inurba_marseille","lat":43.28939,"lon":5.36392,"is_reserved":false,"is_disabled":true,"rental_uris":{"android":"levelo://app?vid=6abe8a9a-55c7-482e-938d-e3b1d92f406c","ios":"levelo://app?vid=6abe8a9a-55c7-482e-938d-e3b1d92f406c"},"vehicle_type_id":"4","last_reported":1747508865,"current_range_meters":0,"station_id":"ce4bhc92rcd13ifvqetg","pricing_plan_id":"cebpf4jnsgd1na2vs0mg"},{"bike_id":"e8492bc6-76ea-45a6-89a5-07063b6667c9","system_id":"levelo_inurba_marseille","lat":43.26567,"lon":5.39008,"is_reserved":false,"is_disabled":true,"rental_uris":{"android":"levelo://app?vid=e8492bc6-76ea-45a6-89a5-07063b6667c9","ios":"levelo://app?vid=e8492bc6-76ea-45a6-89a5-07063b6667c9"},"vehicle_type_id":"4","last_reported":1747508865,"current_range_meters":0,"station_id":"ce4bhe12rcd13ifvqf30","pricing_plan_id":"cebpf4jnsgd1na2vs0mg"},{"bike_id":"b9b4675e-003c-4f80-bd52-6f1976e81129","system_id":"levelo_inurba_marseille","lat":43.27969,"lon":5.38732,"is_reserved":false,"is_disabled":true,"rental_uris":{"android":"levelo://app?vid=b9b4675e-003c-4f80-bd52-6f1976e81129","ios":"levelo://app?vid=b9b4675e-003c-4f80-bd52-6f1976e81129"},"vehicle_type_id":"4","last_reported":1747508865,"current_range_meters":0,"station_id":"ce4bhg12rcd13ifvqf80","pricing_plan_id":"cebpf4jnsgd1na2vs0mg"},{"bike_id":"c1243bd4-c230-45cb-917f-f9c8746757e1","system_id":"levelo_inurba_marseille","lat":43.270548,"lon":5.40261,"is_reserved":false,"is_disabled":true,"rental_uris":{"android":"levelo://app?vid=c1243bd4-c230-45cb-917f-f9c8746757e1","ios":"levelo://app?vid=c1243bd4-c230-45cb-917f-f9c8746757e1"},"vehicle_type_id":"4","last_reported":1747508865,"current_range_meters":0,"station_id":"ce4bhk92rcd13ifvqgc0","pricing_plan_id":"cebpf4jnsgd1na2vs0mg"},{"bike_id":"98b8c9da-77e0-4213-bef2-e59272dfbed2","system_id":"levelo_inurba_marseille","lat":43.23147,"lon":5.43717,"is_reserved":false,"is_disabled":true,"rental_uris":{"android":"levelo://app?vid=98b8c9da-77e0-4213-bef2-e59272dfbed2","ios":"levelo://app?vid=98b8c9da-77e0-4213-bef2-e59272dfbed2"},"vehicle_type_id":"4","last_reported":1747508865,"current_range_meters":0,"station_id":"ce4bhmp2rcd13ifvqgog","pricing_plan_id":"cebpf4jnsgd1na2vs0mg"},{"bike_id":"0d5ec5dc-1184-4e2f-b2c9-ab60a3457c0f","system_id":"levelo_inurba_marseille","lat":43.23185,"lon":5.43716,"is_reserved":false,"is_disabled":true,"rental_uris":{"android":"levelo://app?vid=0d5ec5dc-1184-4e2f-b2c9-ab60a3457c0f","ios":"levelo://app?vid=0d5ec5dc-1184-4e2f-b2c9-ab60a3457c0f"},"vehicle_type_id":"4","last_reported":1747508865,"current_range_meters":0,"station_id":"ce4bhmp2rcd13ifvqgog","pricing_plan_id":"cebpf4jnsgd1na2vs0mg"},{"bike_id":"a1c9066c-592b-4af5-9d41-868c49186776","system_id":"levelo_inurba_marseille","lat":43.2782,"lon":5.40712,"is_reserved":false,"is_disabled":true,"rental_uris":{"android":"levelo://app?vid=a1c9066c-592b-4af5-9d41-868c49186776","ios":"levelo://app?vid=a1c9066c-592b-4af5-9d41-868c49186776"},"vehicle_type_id":"4","last_reported":1747508865,"current_range_meters":0,"station_id":"ce4bhnh2rcd13ifvqgtg","pricing_plan_id":"cebpf4jnsgd1na2vs0mg"},{"bike_id":"4e5cfbec-6aac-4ee7-ac9c-110bf218aee5","system_id":"levelo_inurba_marseille","lat":43.28138,"lon":5.42624,"is_reserved":false,"is_disabled":true,"rental_uris":{"android":"levelo://app?vid=4e5cfbec-6aac-4ee7-ac9c-110bf218aee5","ios":"levelo://app?vid=4e5cfbec-6aac-4ee7-ac9c-110bf218aee5"},"vehicle_type_id":"4","last_reported":1747508865,"current_range_meters":0,"station_id":"ce4bhnh2rcd13ifvqgug","pricing_plan_id":"cebpf4jnsgd1na2vs0mg"},{"bike_id":"fb6cbb8d-6d17-45aa-9ecc-50771b7a38c7","system_id":"levelo_inurba_marseille","lat":43.24057,"lon":5.37768,"is_reserved":false,"is_disabled":true,"rental_uris":{"android":"levelo://app?vid=fb6cbb8d-6d17-45aa-9ecc-50771b7a38c7","ios":"levelo://app?vid=fb6cbb8d-6d17-45aa-9ecc-50771b7a38c7"},"vehicle_type_id":"4","last_reported":1747508865,"current_range_meters":0,"station_id":"ce4bhnp2rcd13ifvqgvg","pricing_plan_id":"cebpf4jnsgd1na2vs0mg"},{"bike_id":"8dfc7a93-fe59-4dc8-899a-44c379b230b3","system_id":"levelo_inurba_marseille","lat":43.27944,"lon":5.41067,"is_reserved":false,"is_disabled":true,"rental_uris":{"android":"levelo://app?vid=8dfc7a93-fe59-4dc8-899a-44c379b230b3","ios":"levelo://app?vid=8dfc7a93-fe59-4dc8-899a-44c379b230b3"},"vehicle_type_id":"4","last_reported":1747508865,"current_range_meters":0,"station_id":"ce4bhnp2rcd13ifvqh0g","pricing_plan_id":"cebpf4jnsgd1na2vs0mg"},{"bike_id":"2157e5f1-d7c6-4bc3-9f22-02a74b6daaaf","system_id":"levelo_inurba_marseille","lat":43.2794,"lon":5.41055,"is_reserved":false,"is_disabled":true,"rental_uris":{"android":"levelo://app?vid=2157e5f1-d7c6-4bc3-9f22-02a74b6daaaf","ios":"levelo://app?vid=2157e5f1-d7c6-4bc3-9f22-02a74b6daaaf"},"vehicle_type_id":"4","last_reported":1747508865,"current_range_meters":0,"station_id":"ce4bhnp2rcd13ifvqh0g","pricing_plan_id":"cebpf4jnsgd1na2vs0mg"},{"bike_id":"8733722a-7f02-4a97-aa2f-53bd57dbc573","system_id":"levelo_inurba_marseille","lat":43.32049,"lon":5.41536,"is_reserved":false,"is_disabled":true,"rental_uris":{"android":"levelo://app?vid=8733722a-7f02-4a97-aa2f-53bd57dbc573","ios":"levelo://app?vid=8733722a-7f02-4a97-aa2f-53bd57dbc573"},"vehicle_type_id":"4","last_reported":1747508865,"current_range_meters":0,"station_id":"ce4bhq92rcd13ifvqhkg","pricing_plan_id":"cebpf4jnsgd1na2vs0mg"},{"bike_id":"1bb0be1c-319f-4c80-bc82-cf76495a1deb","system_id":"levelo_inurba_marseille","lat":43.31996,"lon":5.38158,"is_reserved":false,"is_disabled":true,"rental_uris":{"android":"levelo://app?vid=1bb0be1c-319f-4c80-bc82-cf76495a1deb","ios":"levelo://app?vid=1bb0be1c-319f-4c80-bc82-cf76495a1deb"},"vehicle_type_id":"4","last_reported":1747508865,"current_range_meters":0,"station_id":"ce4bhr12rcd13ifvqhpg","pricing_plan_id":"cebpf4jnsgd1na2vs0mg"},{"bike_id":"7eeccab9-07dc-4386-bc9d-467a204dddb3","system_id":"levelo_inurba_marseille","lat":43.3247,"lon":5.36577,"is_reserved":false,"is_disabled":true,"rental_uris":{"android":"levelo://app?vid=7eeccab9-07dc-4386-bc9d-467a204dddb3","ios":"levelo://app?vid=7eeccab9-07dc-4386-bc9d-467a204dddb3"},"vehicle_type_id":"4","last_reported":1747508865,"current_range_meters":0,"station_id":"ce4bhs12rcd13ifvqhvg","pricing_plan_id":"cebpf4jnsgd1na2vs0mg"},{"bike_id":"d55315b6-7f96-4c08-92d0-976ca6f43b61","system_id":"levelo_inurba_marseille","lat":43.2697,"lon":5.40282,"is_reserved":false,"is_disabled":true,"rental_uris":{"android":"levelo://app?vid=d55315b6-7f96-4c08-92d0-976ca6f43b61","ios":"levelo://app?vid=d55315b6-7f96-4c08-92d0-976ca6f43b61"},"vehicle_type_id":"4","last_reported":1747508865,"current_range_meters":0,"station_id":"cjm6bp8fraef2m0cb0m0","pricing_plan_id":"cebpf4jnsgd1na2vs0mg"},{"bike_id":"abf15dc6-c35d-41bc-9e4d-a3a2e93b4caa","system_id":"levelo_inurba_marseille","lat":43.26938,"lon":5.40254,"is_reserved":false,"is_disabled":true,"rental_uris":{"android":"levelo://app?vid=abf15dc6-c35d-41bc-9e4d-a3a2e93b4caa","ios":"levelo://app?vid=abf15dc6-c35d-41bc-9e4d-a3a2e93b4caa"},"vehicle_type_id":"4","last_reported":1747508865,"current_range_meters":0,"station_id":"cjm6bp8fraef2m0cb0m0","pricing_plan_id":"cebpf4jnsgd1na2vs0mg"},{"bike_id":"761f97ef-3d44-49e1-a980-dbcf9a00e013","system_id":"levelo_inurba_marseille","lat":43.22508,"lon":5.34778,"is_reserved":false,"is_disabled":true,"rental_uris":{"android":"levelo://app?vid=761f97ef-3d44-49e1-a980-dbcf9a00e013","ios":"levelo://app?vid=761f97ef-3d44-49e1-a980-dbcf9a00e013"},"vehicle_type_id":"4","last_reported":1747508865,"current_range_meters":0,"station_id":"st_cvj5dfep6f1abm77gieg","pricing_plan_id":"cebpf4jnsgd1na2vs0mg"},{"bike_id":"32fa6b7c-4745-406f-aa88-bb8ba2cbb379","system_id":"levelo_inurba_marseille","lat":43.29704,"lon":5.36612,"is_reserved":false,"is_disabled":true,"rental_uris":{"android":"levelo://app?vid=32fa6b7c-4745-406f-aa88-bb8ba2cbb379","ios":"levelo://app?vid=32fa6b7c-4745-406f-aa88-bb8ba2cbb379"},"vehicle_type_id":"4","last_reported":1747508865,"current_range_meters":400,"station_id":"ce4bgn12rcd13ifvqbt0","pricing_plan_id":"cebpf4jnsgd1na2vs0mg"},{"bike_id":"90568f2c-133f-46c8-8320-81d4e2eb3082","system_id":"levelo_inurba_marseille","lat":43.29868,"lon":5.39734,"is_reserved":false,"is_disabled":true,"rental_uris":{"android":"levelo://app?vid=90568f2c-133f-46c8-8320-81d4e2eb3082","ios":"levelo://app?vid=90568f2c-133f-46c8-8320-81d4e2eb3082"},"vehicle_type_id":"4","last_reported":1747508865,"current_range_meters":400,"station_id":"ce4bh0h2rcd13ifvqd50","pricing_plan_id":"cebpf4jnsgd1na2vs0mg"},{"bike_id":"bc618f0d-9901-45c0-b735-3dab64d9a465","system_id":"levelo_inurba_marseille","lat":43.294159,"lon":5.386098,"is_reserved":false,"is_disabled":false,"rental_uris":{"android":"levelo://app?vid=bc618f0d-9901-45c0-b735-3dab64d9a465","ios":"levelo://app?vid=bc618f0d-9901-45c0-b735-3dab64d9a465"},"vehicle_type_id":"4","last_reported":1747508865,"current_range_meters":400,"station_id":"ce4bh2h2rcd13ifvqdh0","pricing_plan_id":"cebpf4jnsgd1na2vs0mg"},{"bike_id":"2e89e729-7d68-4992-8691-dec481a6efab","system_id":"levelo_inurba_marseille","lat":43.28608,"lon":5.37062,"is_reserved":false,"is_disabled":true,"rental_uris":{"android":"levelo://app?vid=2e89e729-7d68-4992-8691-dec481a6efab","ios":"levelo://app?vid=2e89e729-7d68-4992-8691-dec481a6efab"},"vehicle_type_id":"4","last_reported":1747508865,"current_range_meters":400,"station_id":"ce4bht12rcd13ifvqi60","pricing_plan_id":"cebpf4jnsgd1na2vs0mg"},{"bike_id":"235d939f-e986-4c8a-bcd8-4ee5f51a88ac","system_id":"levelo_inurba_marseille","lat":43.29911,"lon":5.3813,"is_reserved":false,"is_disabled":true,"rental_uris":{"android":"levelo://app?vid=235d939f-e986-4c8a-bcd8-4ee5f51a88ac","ios":"levelo://app?vid=235d939f-e986-4c8a-bcd8-4ee5f51a88ac"},"vehicle_type_id":"4","last_reported":1747508865,"current_range_meters":800,"station_id":"ce4bgj12rcd13ifvqbc0","pricing_plan_id":"cebpf4jnsgd1na2vs0mg"},{"bike_id":"ec205c72-784a-45a1-b0e0-d8da927ed203","system_id":"levelo_inurba_marseille","lat":43.30136,"lon":5.39827,"is_reserved":false,"is_disabled":true,"rental_uris":{"android":"levelo://app?vid=ec205c72-784a-45a1-b0e0-d8da927ed203","ios":"levelo://app?vid=ec205c72-784a-45a1-b0e0-d8da927ed203"},"vehicle_type_id":"4","last_reported":1747508865,"current_range_meters":800,"station_id":"ce4bh0h2rcd13ifvqd40","pricing_plan_id":"cebpf4jnsgd1na2vs0mg"},{"bike_id":"f28ea04e-bd06-471a-ac02-702648f386d7","system_id":"levelo_inurba_marseille","lat":43.27902,"lon":5.38011,"is_reserved":false,"is_disabled":true,"rental_uris":{"android":"levelo://app?vid=f28ea04e-bd06-471a-ac02-702648f386d7","ios":"levelo://app?vid=f28ea04e-bd06-471a-ac02-702648f386d7"},"vehicle_type_id":"4","last_reported":1747508865,"current_range_meters":800,"station_id":"ce4bhf92rcd13ifvqf50","pricing_plan_id":"cebpf4jnsgd1na2vs0mg"},{"bike_id":"629665cf-b6b4-4847-9948-1ee9290cbca7","system_id":"levelo_inurba_marseille","lat":43.26569,"lon":5.37273,"is_reserved":false,"is_disabled":true,"rental_uris":{"android":"levelo://app?vid=629665cf-b6b4-4847-9948-1ee9290cbca7","ios":"levelo://app?vid=629665cf-b6b4-4847-9948-1ee9290cbca7"},"vehicle_type_id":"4","last_reported":1747508865,"current_range_meters":800,"station_id":"ce4bhg12rcd13ifvqf70","pricing_plan_id":"cebpf4jnsgd1na2vs0mg"},{"bike_id":"5f6aa085-8dd0-43d0-8ca5-dbb3ec26e4f0","system_id":"levelo_inurba_marseille","lat":43.24387,"lon":5.37075,"is_reserved":false,"is_disabled":true,"rental_uris":{"android":"levelo://app?vid=5f6aa085-8dd0-43d0-8ca5-dbb3ec26e4f0","ios":"levelo://app?vid=5f6aa085-8dd0-43d0-8ca5-dbb3ec26e4f0"},"vehicle_type_id":"4","last_reported":1747508865,"current_range_meters":800,"station_id":"ce4bhhh2rcd13ifvqfk0","pricing_plan_id":"cebpf4jnsgd1na2vs0mg"},{"bike_id":"c0ed1878-0723-4620-ad72-8a2f0e97a7cf","system_id":"levelo_inurba_marseille","lat":43.26228,"lon":5.40443,"is_reserved":false,"is_disabled":true,"rental_uris":{"android":"levelo://app?vid=c0ed1878-0723-4620-ad72-8a2f0e97a7cf","ios":"levelo://app?vid=c0ed1878-0723-4620-ad72-8a2f0e97a7cf"},"vehicle_type_id":"4","last_reported":1747508865,"current_range_meters":800,"station_id":"ce4bhmh2rcd13ifvqgmg","pricing_plan_id":"cebpf4jnsgd1na2vs0mg"},{"bike_id":"f03cbb86-1380-4293-8567-f7212ddf3dc6","system_id":"levelo_inurba_marseille","lat":43.23148,"lon":5.43725,"is_reserved":false,"is_disabled":true,"rental_uris":{"android":"levelo://app?vid=f03cbb86-1380-4293-8567-f7212ddf3dc6","ios":"levelo://app?vid=f03cbb86-1380-4293-8567-f7212ddf3dc6"},"vehicle_type_id":"4","last_reported":1747508865,"current_range_meters":800,"station_id":"ce4bhmp2rcd13ifvqgog","pricing_plan_id":"cebpf4jnsgd1na2vs0mg"},{"bike_id":"79014c20-9fb3-4bde-888f-87cd4445595a","system_id":"levelo_inurba_marseille","lat":43.31721,"lon":5.42393,"is_reserved":false,"is_disabled":true,"rental_uris":{"android":"levelo://app?vid=79014c20-9fb3-4bde-888f-87cd4445595a","ios":"levelo://app?vid=79014c20-9fb3-4bde-888f-87cd4445595a"},"vehicle_type_id":"4","last_reported":1747508865,"current_range_meters":800,"station_id":"ce4bhp92rcd13ifvqhbg","pricing_plan_id":"cebpf4jnsgd1na2vs0mg"},{"bike_id":"6bcceb72-95f7-4cb9-a864-7c700a7bb10f","system_id":"levelo_inurba_marseille","lat":43.284669,"lon":5.359118,"is_reserved":false,"is_disabled":true,"rental_uris":{"android":"levelo://app?vid=6bcceb72-95f7-4cb9-a864-7c700a7bb10f","ios":"levelo://app?vid=6bcceb72-95f7-4cb9-a864-7c700a7bb10f"},"vehicle_type_id":"4","last_reported":1747508865,"current_range_meters":1200,"station_id":"ce4bhah2rcd13ifvqei0","pricing_plan_id":"cebpf4jnsgd1na2vs0mg"},{"bike_id":"4d6a6364-2fff-4853-b51b-1376d68ea27a","system_id":"levelo_inurba_marseille","lat":43.270584,"lon":5.402591,"is_reserved":false,"is_disabled":true,"rental_uris":{"android":"levelo://app?vid=4d6a6364-2fff-4853-b51b-1376d68ea27a","ios":"levelo://app?vid=4d6a6364-2fff-4853-b51b-1376d68ea27a"},"vehicle_type_id":"4","last_reported":1747508865,"current_range_meters":1200,"station_id":"ce4bhk92rcd13ifvqgc0","pricing_plan_id":"cebpf4jnsgd1na2vs0mg"},{"bike_id":"39861343-a820-4da4-9f63-1d93d32f99e3","system_id":"levelo_inurba_marseille","lat":43.28609,"lon":5.37062,"is_reserved":false,"is_disabled":true,"rental_uris":{"android":"levelo://app?vid=39861343-a820-4da4-9f63-1d93d32f99e3","ios":"levelo://app?vid=39861343-a820-4da4-9f63-1d93d32f99e3"},"vehicle_type_id":"4","last_reported":1747508865,"current_range_meters":1200,"station_id":"ce4bht12rcd13ifvqi60","pricing_plan_id":"cebpf4jnsgd1na2vs0mg"},{"bike_id":"59f9598d-e110-4192-bc18-7a255f754535","system_id":"levelo_inurba_marseille","lat":43.2178,"lon":5.34587,"is_reserved":false,"is_disabled":true,"rental_uris":{"android":"levelo://app?vid=59f9598d-e110-4192-bc18-7a255f754535","ios":"levelo://app?vid=59f9598d-e110-4192-bc18-7a255f754535"},"vehicle_type_id":"4","last_reported":1747508865,"current_range_meters":1200,"station_id":"st_cvj6r9ubvosntc0bgbag","pricing_plan_id":"cebpf4jnsgd1na2vs0mg"},{"bike_id":"957167e1-d85f-4edc-be0c-c35620ae58da","system_id":"levelo_inurba_marseille","lat":43.24465,"lon":5.36975,"is_reserved":false,"is_disabled":true,"rental_uris":{"android":"levelo://app?vid=957167e1-d85f-4edc-be0c-c35620ae58da","ios":"levelo://app?vid=957167e1-d85f-4edc-be0c-c35620ae58da"},"vehicle_type_id":"4","last_reported":1747508865,"current_range_meters":1600,"station_id":"","pricing_plan_id":"cebpf4jnsgd1na2vs0mg"},{"bike_id":"9231676e-0708-4d6c-a8c8-eaaf10892cbe","system_id":"levelo_inurba_marseille","lat":43.30667,"lon":5.40048,"is_reserved":false,"is_disabled":true,"rental_uris":{"android":"levelo://app?vid=9231676e-0708-4d6c-a8c8-eaaf10892cbe","ios":"levelo://app?vid=9231676e-0708-4d6c-a8c8-eaaf10892cbe"},"vehicle_type_id":"4","last_reported":1747508865,"current_range_meters":1600,"station_id":"","pricing_plan_id":"cebpf4jnsgd1na2vs0mg"},{"bike_id":"5ef50e93-5bfb-45f3-b4c8-8dc605ee904c","system_id":"levelo_inurba_marseille","lat":43.29578,"lon":5.36746,"is_reserved":false,"is_disabled":true,"rental_uris":{"android":"levelo://app?vid=5ef50e93-5bfb-45f3-b4c8-8dc605ee904c","ios":"levelo://app?vid=5ef50e93-5bfb-45f3-b4c8-8dc605ee904c"},"vehicle_type_id":"4","last_reported":1747508865,"current_range_meters":1600,"station_id":"ce4bgph2rcd13ifvqc2g","pricing_plan_id":"cebpf4jnsgd1na2vs0mg"},{"bike_id":"488e206b-3704-4a04-bc00-ac5432570fc9","system_id":"levelo_inurba_marseille","lat":43.30951,"lon":5.40153,"is_reserved":false,"is_disabled":true,"rental_uris":{"android":"levelo://app?vid=488e206b-3704-4a04-bc00-ac5432570fc9","ios":"levelo://app?vid=488e206b-3704-4a04-bc00-ac5432570fc9"},"vehicle_type_id":"4","last_reported":1747508865,"current_range_meters":1600,"station_id":"ce4bgvp2rcd13ifvqct0","pricing_plan_id":"cebpf4jnsgd1na2vs0mg"},{"bike_id":"97d832e0-c86d-499b-96ae-c758dd823786","system_id":"levelo_inurba_marseille","lat":43.2792,"lon":5.39578,"is_reserved":false,"is_disabled":true,"rental_uris":{"android":"levelo://app?vid=97d832e0-c86d-499b-96ae-c758dd823786","ios":"levelo://app?vid=97d832e0-c86d-499b-96ae-c758dd823786"},"vehicle_type_id":"4","last_reported":1747508865,"current_range_meters":1600,"station_id":"ce4bhf92rcd13ifvqf40","pricing_plan_id":"cebpf4jnsgd1na2vs0mg"},{"bike_id":"be98142e-ab99-4f68-b04a-ff2165061bb2","system_id":"levelo_inurba_marseille","lat":43.26953,"lon":5.38643,"is_reserved":false,"is_disabled":true,"rental_uris":{"android":"levelo://app?vid=be98142e-ab99-4f68-b04a-ff2165061bb2","ios":"levelo://app?vid=be98142e-ab99-4f68-b04a-ff2165061bb2"},"vehicle_type_id":"4","last_reported":1747508865,"current_range_meters":1600,"station_id":"ce4bhh92rcd13ifvqfh0","pricing_plan_id":"cebpf4jnsgd1na2vs0mg"},{"bike_id":"d8911881-e82e-4c7b-963e-42a565f0cadb","system_id":"levelo_inurba_marseille","lat":43.27043,"lon":5.40682,"is_reserved":false,"is_disabled":true,"rental_uris":{"android":"levelo://app?vid=d8911881-e82e-4c7b-963e-42a565f0cadb","ios":"levelo://app?vid=d8911881-e82e-4c7b-963e-42a565f0cadb"},"vehicle_type_id":"4","last_reported":1747508865,"current_range_meters":2000,"station_id":"","pricing_plan_id":"cebpf4jnsgd1na2vs0mg"},{"bike_id":"51cedc44-de48-45b0-b520-ff2235349195","system_id":"levelo_inurba_marseille","lat":43.29364,"lon":5.37837,"is_reserved":false,"is_disabled":true,"rental_uris":{"android":"levelo://app?vid=51cedc44-de48-45b0-b520-ff2235349195","ios":"levelo://app?vid=51cedc44-de48-45b0-b520-ff2235349195"},"vehicle_type_id":"4","last_reported":1747508865,"current_range_meters":2000,"station_id":"ce4bgjh2rcd13ifvqbf0","pricing_plan_id":"cebpf4jnsgd1na2vs0mg"},{"bike_id":"6e81e550-1451-4e29-a152-8e58bb2a7685","system_id":"levelo_inurba_marseille","lat":43.30143,"lon":5.37418,"is_reserved":false,"is_disabled":false,"rental_uris":{"android":"levelo://app?vid=6e81e550-1451-4e29-a152-8e58bb2a7685","ios":"levelo://app?vid=6e81e550-1451-4e29-a152-8e58bb2a7685"},"vehicle_type_id":"4","last_reported":1747508865,"current_range_meters":2000,"station_id":"ce4bgs92rcd13ifvqcc0","pricing_plan_id":"cebpf4jnsgd1na2vs0mg"},{"bike_id":"15bdb2cb-60a0-4c42-8c18-0e6826a8f67b","system_id":"levelo_inurba_marseille","lat":43.27381,"lon":5.39413,"is_reserved":false,"is_disabled":true,"rental_uris":{"android":"levelo://app?vid=15bdb2cb-60a0-4c42-8c18-0e6826a8f67b","ios":"levelo://app?vid=15bdb2cb-60a0-4c42-8c18-0e6826a8f67b"},"vehicle_type_id":"4","last_reported":1747508865,"current_range_meters":2000,"station_id":"ce4bhdp2rcd13ifvqf20","pricing_plan_id":"cebpf4jnsgd1na2vs0mg"},{"bike_id":"045895e2-9f3a-401b-ae26-1a51bee393a7","system_id":"levelo_inurba_marseille","lat":43.239612,"lon":5.366303,"is_reserved":false,"is_disabled":true,"rental_uris":{"android":"levelo://app?vid=045895e2-9f3a-401b-ae26-1a51bee393a7","ios":"levelo://app?vid=045895e2-9f3a-401b-ae26-1a51bee393a7"},"vehicle_type_id":"4","last_reported":1747508865,"current_range_meters":2000,"station_id":"ce4bhi12rcd13ifvqfp0","pricing_plan_id":"cebpf4jnsgd1na2vs0mg"},{"bike_id":"834d5d75-c90c-4df0-ac49-c3d98dc93fb0","system_id":"levelo_inurba_marseille","lat":43.26203,"lon":5.37926,"is_reserved":false,"is_disabled":false,"rental_uris":{"android":"levelo://app?vid=834d5d75-c90c-4df0-ac49-c3d98dc93fb0","ios":"levelo://app?vid=834d5d75-c90c-4df0-ac49-c3d98dc93fb0"},"vehicle_type_id":"4","last_reported":1747508865,"current_range_meters":2000,"station_id":"ce4bhjp2rcd13ifvqg90","pricing_plan_id":"cebpf4jnsgd1na2vs0mg"},{"bike_id":"47128361-b657-4fcb-8fc6-c92dd14191ae","system_id":"levelo_inurba_marseille","lat":43.25111,"lon":5.40333,"is_reserved":false,"is_disabled":true,"rental_uris":{"android":"levelo://app?vid=47128361-b657-4fcb-8fc6-c92dd14191ae","ios":"levelo://app?vid=47128361-b657-4fcb-8fc6-c92dd14191ae"},"vehicle_type_id":"4","last_reported":1747508865,"current_range_meters":2000,"station_id":"ce4bhlh2rcd13ifvqgig","pricing_plan_id":"cebpf4jnsgd1na2vs0mg"},{"bike_id":"628f6542-25e0-4a42-9679-76d795a02a87","system_id":"levelo_inurba_marseille","lat":43.28162,"lon":5.42629,"is_reserved":false,"is_disabled":true,"rental_uris":{"android":"levelo://app?vid=628f6542-25e0-4a42-9679-76d795a02a87","ios":"levelo://app?vid=628f6542-25e0-4a42-9679-76d795a02a87"},"vehicle_type_id":"4","last_reported":1747508865,"current_range_meters":2000,"station_id":"ce4bhnh2rcd13ifvqgug","pricing_plan_id":"cebpf4jnsgd1na2vs0mg"},{"bike_id":"af0d3936-70f7-4156-b10d-985a4f044711","system_id":"levelo_inurba_marseille","lat":43.28477,"lon":5.39138,"is_reserved":false,"is_disabled":false,"rental_uris":{"android":"levelo://app?vid=af0d3936-70f7-4156-b10d-985a4f044711","ios":"levelo://app?vid=af0d3936-70f7-4156-b10d-985a4f044711"},"vehicle_type_id":"4","last_reported":1747508865,"current_range_meters":2800,"station_id":"","pricing_plan_id":"cebpf4jnsgd1na2vs0mg"},{"bike_id":"0c319e20-343c-4f99-be0d-018787dbcc36","system_id":"levelo_inurba_marseille","lat":43.286926,"lon":5.373853,"is_reserved":false,"is_disabled":false,"rental_uris":{"android":"levelo://app?vid=0c319e20-343c-4f99-be0d-018787dbcc36","ios":"levelo://app?vid=0c319e20-343c-4f99-be0d-018787dbcc36"},"vehicle_type_id":"4","last_reported":1747508865,"current_range_meters":2800,"station_id":"ce4bh3p2rcd13ifvqdq0","pricing_plan_id":"cebpf4jnsgd1na2vs0mg"},{"bike_id":"bd5c4e36-3f42-4ebd-a4a3-b51abb10496e","system_id":"levelo_inurba_marseille","lat":43.24425,"lon":5.3704,"is_reserved":false,"is_disabled":false,"rental_uris":{"android":"levelo://app?vid=bd5c4e36-3f42-4ebd-a4a3-b51abb10496e","ios":"levelo://app?vid=bd5c4e36-3f42-4ebd-a4a3-b51abb10496e"},"vehicle_type_id":"4","last_reported":1747508865,"current_range_meters":2800,"station_id":"ce4bhhh2rcd13ifvqfk0","pricing_plan_id":"cebpf4jnsgd1na2vs0mg"},{"bike_id":"655940fc-4e23-406a-91e2-888d884f5291","system_id":"levelo_inurba_marseille","lat":43.26949,"lon":5.40256,"is_reserved":false,"is_disabled":true,"rental_uris":{"android":"levelo://app?vid=655940fc-4e23-406a-91e2-888d884f5291","ios":"levelo://app?vid=655940fc-4e23-406a-91e2-888d884f5291"},"vehicle_type_id":"4","last_reported":1747508865,"current_range_meters":2800,"station_id":"cjm6bp8fraef2m0cb0m0","pricing_plan_id":"cebpf4jnsgd1na2vs0mg"},{"bike_id":"d5dd500d-ca59-4e03-8ba5-8b12c0fb446c","system_id":"levelo_inurba_marseille","lat":43.25114,"lon":5.40323,"is_reserved":false,"is_disabled":false,"rental_uris":{"android":"levelo://app?vid=d5dd500d-ca59-4e03-8ba5-8b12c0fb446c","ios":"levelo://app?vid=d5dd500d-ca59-4e03-8ba5-8b12c0fb446c"},"vehicle_type_id":"4","last_reported":1747508865,"current_range_meters":3200,"station_id":"ce4bhlh2rcd13ifvqgig","pricing_plan_id":"cebpf4jnsgd1na2vs0mg"},{"bike_id":"5b845c1e-b8e6-40e2-8115-7b487be55e6c","system_id":"levelo_inurba_marseille","lat":43.298401,"lon":5.362792,"is_reserved":false,"is_disabled":false,"rental_uris":{"android":"levelo://app?vid=5b845c1e-b8e6-40e2-8115-7b487be55e6c","ios":"levelo://app?vid=5b845c1e-b8e6-40e2-8115-7b487be55e6c"},"vehicle_type_id":"4","last_reported":1747508865,"current_range_meters":3600,"station_id":"ce4bgpp2rcd13ifvqc3g","pricing_plan_id":"cebpf4jnsgd1na2vs0mg"},{"bike_id":"87119600-d1f5-4470-9c7b-cbd3f5f6db56","system_id":"levelo_inurba_marseille","lat":43.29021,"lon":5.38637,"is_reserved":false,"is_disabled":false,"rental_uris":{"android":"levelo://app?vid=87119600-d1f5-4470-9c7b-cbd3f5f6db56","ios":"levelo://app?vid=87119600-d1f5-4470-9c7b-cbd3f5f6db56"},"vehicle_type_id":"4","last_reported":1747508865,"current_range_meters":3600,"station_id":"ce4bh4p2rcd13ifvqe0g","pricing_plan_id":"cebpf4jnsgd1na2vs0mg"},{"bike_id":"511e1d6b-4adb-45f8-be10-010886ccdaa6","system_id":"levelo_inurba_marseille","lat":43.2847,"lon":5.3842,"is_reserved":false,"is_disabled":false,"rental_uris":{"android":"levelo://app?vid=511e1d6b-4adb-45f8-be10-010886ccdaa6","ios":"levelo://app?vid=511e1d6b-4adb-45f8-be10-010886ccdaa6"},"vehicle_type_id":"4","last_reported":1747508865,"current_range_meters":3600,"station_id":"ce4bh512rcd13ifvqe3g","pricing_plan_id":"cebpf4jnsgd1na2vs0mg"},{"bike_id":"2b4d4b2a-d183-4bd7-b3bf-63eedc11b4e4","system_id":"levelo_inurba_marseille","lat":43.26561,"lon":5.37284,"is_reserved":false,"is_disabled":false,"rental_uris":{"android":"levelo://app?vid=2b4d4b2a-d183-4bd7-b3bf-63eedc11b4e4","ios":"levelo://app?vid=2b4d4b2a-d183-4bd7-b3bf-63eedc11b4e4"},"vehicle_type_id":"4","last_reported":1747508865,"current_range_meters":3600,"station_id":"ce4bhg12rcd13ifvqf70","pricing_plan_id":"cebpf4jnsgd1na2vs0mg"},{"bike_id":"74814491-cb0c-42ba-902d-fd8d6f117f8e","system_id":"levelo_inurba_marseille","lat":43.24664,"lon":5.38161,"is_reserved":false,"is_disabled":false,"rental_uris":{"android":"levelo://app?vid=74814491-cb0c-42ba-902d-fd8d6f117f8e","ios":"levelo://app?vid=74814491-cb0c-42ba-902d-fd8d6f117f8e"},"vehicle_type_id":"4","last_reported":1747508865,"current_range_meters":3600,"station_id":"ce4bhih2rcd13ifvqfr0","pricing_plan_id":"cebpf4jnsgd1na2vs0mg"},{"bike_id":"2f4862e2-472e-4fd5-b37d-a90ffd1097b8","system_id":"levelo_inurba_marseille","lat":43.32488,"lon":5.36571,"is_reserved":false,"is_disabled":false,"rental_uris":{"android":"levelo://app?vid=2f4862e2-472e-4fd5-b37d-a90ffd1097b8","ios":"levelo://app?vid=2f4862e2-472e-4fd5-b37d-a90ffd1097b8"},"vehicle_type_id":"4","last_reported":1747508865,"current_range_meters":3600,"station_id":"ce4bhs12rcd13ifvqhvg","pricing_plan_id":"cebpf4jnsgd1na2vs0mg"},{"bike_id":"3f56209f-fcf8-405c-ad29-4968f9789036","system_id":"levelo_inurba_marseille","lat":43.26943,"lon":5.40255,"is_reserved":false,"is_disabled":false,"rental_uris":{"android":"levelo://app?vid=3f56209f-fcf8-405c-ad29-4968f9789036","ios":"levelo://app?vid=3f56209f-fcf8-405c-ad29-4968f9789036"},"vehicle_type_id":"4","last_reported":1747508865,"current_range_meters":4000,"station_id":"cjm6bp8fraef2m0cb0m0","pricing_plan_id":"cebpf4jnsgd1na2vs0mg"},{"bike_id":"e6a07989-1b4b-48b4-b152-e0cc5ad235a7","system_id":"levelo_inurba_marseille","lat":43.3019,"lon":5.36625,"is_reserved":false,"is_disabled":false,"rental_uris":{"android":"levelo://app?vid=e6a07989-1b4b-48b4-b152-e0cc5ad235a7","ios":"levelo://app?vid=e6a07989-1b4b-48b4-b152-e0cc5ad235a7"},"vehicle_type_id":"4","last_reported":1747508865,"current_range_meters":4400,"station_id":"","pricing_plan_id":"cebpf4jnsgd1na2vs0mg"},{"bike_id":"507a3853-1096-4a0c-855f-1a6f24c59d8d","system_id":"levelo_inurba_marseille","lat":43.24388,"lon":5.37046,"is_reserved":false,"is_disabled":false,"rental_uris":{"android":"levelo://app?vid=507a3853-1096-4a0c-855f-1a6f24c59d8d","ios":"levelo://app?vid=507a3853-1096-4a0c-855f-1a6f24c59d8d"},"vehicle_type_id":"4","last_reported":1747508865,"current_range_meters":4400,"station_id":"ce4bhhh2rcd13ifvqfk0","pricing_plan_id":"cebpf4jnsgd1na2vs0mg"},{"bike_id":"e7e478a0-941c-4f45-b64a-6ac71f0d7f09","system_id":"levelo_inurba_marseille","lat":43.23183,"lon":5.39986,"is_reserved":false,"is_disabled":false,"rental_uris":{"android":"levelo://app?vid=e7e478a0-941c-4f45-b64a-6ac71f0d7f09","ios":"levelo://app?vid=e7e478a0-941c-4f45-b64a-6ac71f0d7f09"},"vehicle_type_id":"4","last_reported":1747508865,"current_range_meters":4400,"station_id":"ce4bhn12rcd13ifvqgqg","pricing_plan_id":"cebpf4jnsgd1na2vs0mg"},{"bike_id":"81c2872b-cbdf-46b2-97b3-c916923ffb65","system_id":"levelo_inurba_marseille","lat":43.26943,"lon":5.40241,"is_reserved":false,"is_disabled":false,"rental_uris":{"android":"levelo://app?vid=81c2872b-cbdf-46b2-97b3-c916923ffb65","ios":"levelo://app?vid=81c2872b-cbdf-46b2-97b3-c916923ffb65"},"vehicle_type_id":"4","last_reported":1747508865,"current_range_meters":4400,"station_id":"cjm6bp8fraef2m0cb0m0","pricing_plan_id":"cebpf4jnsgd1na2vs0mg"},{"bike_id":"eb9c9c35-c423-4bef-96d5-777b3a110df0","system_id":"levelo_inurba_marseille","lat":43.2953,"lon":5.38539,"is_reserved":false,"is_disabled":false,"rental_uris":{"android":"levelo://app?vid=eb9c9c35-c423-4bef-96d5-777b3a110df0","ios":"levelo://app?vid=eb9c9c35-c423-4bef-96d5-777b3a110df0"},"vehicle_type_id":"4","last_reported":1747508865,"current_range_meters":4800,"station_id":"ce4bgih2rcd13ifvqba0","pricing_plan_id":"cebpf4jnsgd1na2vs0mg"},{"bike_id":"5921eafe-c33b-4d5e-8818-952bbae89d0c","system_id":"levelo_inurba_marseille","lat":43.29844,"lon":5.36268,"is_reserved":false,"is_disabled":false,"rental_uris":{"android":"levelo://app?vid=5921eafe-c33b-4d5e-8818-952bbae89d0c","ios":"levelo://app?vid=5921eafe-c33b-4d5e-8818-952bbae89d0c"},"vehicle_type_id":"4","last_reported":1747508865,"current_range_meters":4800,"station_id":"ce4bgpp2rcd13ifvqc3g","pricing_plan_id":"cebpf4jnsgd1na2vs0mg"},{"bike_id":"2d92891c-61fd-4734-a020-9d3f53fcbb11","system_id":"levelo_inurba_marseille","lat":43.309527,"lon":5.401477,"is_reserved":false,"is_disabled":false,"rental_uris":{"android":"levelo://app?vid=2d92891c-61fd-4734-a020-9d3f53fcbb11","ios":"levelo://app?vid=2d92891c-61fd-4734-a020-9d3f53fcbb11"},"vehicle_type_id":"4","last_reported":1747508865,"current_range_meters":4800,"station_id":"ce4bgvp2rcd13ifvqct0","pricing_plan_id":"cebpf4jnsgd1na2vs0mg"},{"bike_id":"9fd661b4-e33b-4178-9872-1d2175b25913","system_id":"levelo_inurba_marseille","lat":43.27814,"lon":5.4071,"is_reserved":false,"is_disabled":false,"rental_uris":{"android":"levelo://app?vid=9fd661b4-e33b-4178-9872-1d2175b25913","ios":"levelo://app?vid=9fd661b4-e33b-4178-9872-1d2175b25913"},"vehicle_type_id":"4","last_reported":1747508865,"current_range_meters":4800,"station_id":"ce4bhnh2rcd13ifvqgtg","pricing_plan_id":"cebpf4jnsgd1na2vs0mg"},{"bike_id":"99b3f424-7090-4014-8646-8632ab2960cb","system_id":"levelo_inurba_marseille","lat":43.31162,"lon":5.38717,"is_reserved":false,"is_disabled":false,"rental_uris":{"android":"levelo://app?vid=99b3f424-7090-4014-8646-8632ab2960cb","ios":"levelo://app?vid=99b3f424-7090-4014-8646-8632ab2960cb"},"vehicle_type_id":"4","last_reported":1747508865,"current_range_meters":5600,"station_id":"ce4bgv12rcd13ifvqcp0","pricing_plan_id":"cebpf4jnsgd1na2vs0mg"},{"bike_id":"a6726076-72de-4d74-98a5-ccea8384ac66","system_id":"levelo_inurba_marseille","lat":43.31073,"lon":5.38351,"is_reserved":false,"is_disabled":false,"rental_uris":{"android":"levelo://app?vid=a6726076-72de-4d74-98a5-ccea8384ac66","ios":"levelo://app?vid=a6726076-72de-4d74-98a5-ccea8384ac66"},"vehicle_type_id":"4","last_reported":1747508865,"current_range_meters":5600,"station_id":"ce4bgv92rcd13ifvqcr0","pricing_plan_id":"cebpf4jnsgd1na2vs0mg"},{"bike_id":"322de00a-7218-49d3-8120-4dc4185b7686","system_id":"levelo_inurba_marseille","lat":43.28715,"lon":5.37933,"is_reserved":false,"is_disabled":false,"rental_uris":{"android":"levelo://app?vid=322de00a-7218-49d3-8120-4dc4185b7686","ios":"levelo://app?vid=322de00a-7218-49d3-8120-4dc4185b7686"},"vehicle_type_id":"4","last_reported":1747508865,"current_range_meters":5600,"station_id":"ce4bh9p2rcd13ifvqec0","pricing_plan_id":"cebpf4jnsgd1na2vs0mg"},{"bike_id":"03921903-6b5d-43cc-9b01-96ff9c50c166","system_id":"levelo_inurba_marseille","lat":43.23173,"lon":5.3998,"is_reserved":false,"is_disabled":false,"rental_uris":{"android":"levelo://app?vid=03921903-6b5d-43cc-9b01-96ff9c50c166","ios":"levelo://app?vid=03921903-6b5d-43cc-9b01-96ff9c50c166"},"vehicle_type_id":"4","last_reported":1747508865,"current_range_meters":5600,"station_id":"ce4bhn12rcd13ifvqgqg","pricing_plan_id":"cebpf4jnsgd1na2vs0mg"},{"bike_id":"535a055b-01d7-4fd1-9ca5-434fa55c2e1a","system_id":"levelo_inurba_marseille","lat":43.2408,"lon":5.37752,"is_reserved":false,"is_disabled":false,"rental_uris":{"android":"levelo://app?vid=535a055b-01d7-4fd1-9ca5-434fa55c2e1a","ios":"levelo://app?vid=535a055b-01d7-4fd1-9ca5-434fa55c2e1a"},"vehicle_type_id":"4","last_reported":1747508865,"current_range_meters":5600,"station_id":"ce4bhnp2rcd13ifvqgvg","pricing_plan_id":"cebpf4jnsgd1na2vs0mg"},{"bike_id":"76eea6a4-9e02-4b58-8823-5d3042108e9c","system_id":"levelo_inurba_marseille","lat":43.26941,"lon":5.4025,"is_reserved":false,"is_disabled":false,"rental_uris":{"android":"levelo://app?vid=76eea6a4-9e02-4b58-8823-5d3042108e9c","ios":"levelo://app?vid=76eea6a4-9e02-4b58-8823-5d3042108e9c"},"vehicle_type_id":"4","last_reported":1747508865,"current_range_meters":5600,"station_id":"cjm6bp8fraef2m0cb0m0","pricing_plan_id":"cebpf4jnsgd1na2vs0mg"},{"bike_id":"518c5473-989b-42ac-8b15-65530ec29f7a","system_id":"levelo_inurba_marseille","lat":43.29308,"lon":5.37159,"is_reserved":false,"is_disabled":false,"rental_uris":{"android":"levelo://app?vid=518c5473-989b-42ac-8b15-65530ec29f7a","ios":"levelo://app?vid=518c5473-989b-42ac-8b15-65530ec29f7a"},"vehicle_type_id":"4","last_reported":1747508865,"current_range_meters":6000,"station_id":"ce4bgh92rcd13ifvqb40","pricing_plan_id":"cebpf4jnsgd1na2vs0mg"},{"bike_id":"0fd235b6-005e-41d9-bf92-71a9589030c8","system_id":"levelo_inurba_marseille","lat":43.29859,"lon":5.36301,"is_reserved":false,"is_disabled":false,"rental_uris":{"android":"levelo://app?vid=0fd235b6-005e-41d9-bf92-71a9589030c8","ios":"levelo://app?vid=0fd235b6-005e-41d9-bf92-71a9589030c8"},"vehicle_type_id":"4","last_reported":1747508865,"current_range_meters":6000,"station_id":"ce4bgpp2rcd13ifvqc3g","pricing_plan_id":"cebpf4jnsgd1na2vs0mg"},{"bike_id":"473b1fd9-6a2e-427b-b7f1-cec7b5d7edcd","system_id":"levelo_inurba_marseille","lat":43.301957,"lon":5.366336,"is_reserved":false,"is_disabled":false,"rental_uris":{"android":"levelo://app?vid=473b1fd9-6a2e-427b-b7f1-cec7b5d7edcd","ios":"levelo://app?vid=473b1fd9-6a2e-427b-b7f1-cec7b5d7edcd"},"vehicle_type_id":"4","last_reported":1747508865,"current_range_meters":6000,"station_id":"ce4bgrh2rcd13ifvqc8g","pricing_plan_id":"cebpf4jnsgd1na2vs0mg"},{"bike_id":"4bf53c9d-eb59-4d3d-826c-cc2e03988d82","system_id":"levelo_inurba_marseille","lat":43.30146,"lon":5.37428,"is_reserved":false,"is_disabled":false,"rental_uris":{"android":"levelo://app?vid=4bf53c9d-eb59-4d3d-826c-cc2e03988d82","ios":"levelo://app?vid=4bf53c9d-eb59-4d3d-826c-cc2e03988d82"},"vehicle_type_id":"4","last_reported":1747508865,"current_range_meters":6000,"station_id":"ce4bgs92rcd13ifvqcc0","pricing_plan_id":"cebpf4jnsgd1na2vs0mg"},{"bike_id":"13fbe9ee-361e-483b-a02c-f276b3fe2df5","system_id":"levelo_inurba_marseille","lat":43.29255,"lon":5.38449,"is_reserved":false,"is_disabled":false,"rental_uris":{"android":"levelo://app?vid=13fbe9ee-361e-483b-a02c-f276b3fe2df5","ios":"levelo://app?vid=13fbe9ee-361e-483b-a02c-f276b3fe2df5"},"vehicle_type_id":"4","last_reported":1747508865,"current_range_meters":6000,"station_id":"ce4bh692rcd13ifvqea0","pricing_plan_id":"cebpf4jnsgd1na2vs0mg"},{"bike_id":"1b304bc2-c944-4223-872d-62e1b1fab845","system_id":"levelo_inurba_marseille","lat":43.26924,"lon":5.40271,"is_reserved":false,"is_disabled":false,"rental_uris":{"android":"levelo://app?vid=1b304bc2-c944-4223-872d-62e1b1fab845","ios":"levelo://app?vid=1b304bc2-c944-4223-872d-62e1b1fab845"},"vehicle_type_id":"4","last_reported":1747508865,"current_range_meters":6000,"station_id":"cjm6bp8fraef2m0cb0m0","pricing_plan_id":"cebpf4jnsgd1na2vs0mg"},{"bike_id":"6e612e7b-28be-478c-9618-97651a5de57b","system_id":"levelo_inurba_marseille","lat":43.247,"lon":5.39598,"is_reserved":false,"is_disabled":false,"rental_uris":{"android":"levelo://app?vid=6e612e7b-28be-478c-9618-97651a5de57b","ios":"levelo://app?vid=6e612e7b-28be-478c-9618-97651a5de57b"},"vehicle_type_id":"4","last_reported":1747508865,"current_range_meters":6400,"station_id":"","pricing_plan_id":"cebpf4jnsgd1na2vs0mg"},{"bike_id":"01912f8b-cada-486e-8883-353412f3e99f","system_id":"levelo_inurba_marseille","lat":43.294159,"lon":5.386244,"is_reserved":false,"is_disabled":false,"rental_uris":{"android":"levelo://app?vid=01912f8b-cada-486e-8883-353412f3e99f","ios":"levelo://app?vid=01912f8b-cada-486e-8883-353412f3e99f"},"vehicle_type_id":"4","last_reported":1747508865,"current_range_meters":6400,"station_id":"ce4bh2h2rcd13ifvqdh0","pricing_plan_id":"cebpf4jnsgd1na2vs0mg"},{"bike_id":"de8b43f2-7b91-458a-b357-7c78767591f0","system_id":"levelo_inurba_marseille","lat":43.29178,"lon":5.37152,"is_reserved":false,"is_disabled":false,"rental_uris":{"android":"levelo://app?vid=de8b43f2-7b91-458a-b357-7c78767591f0","ios":"levelo://app?vid=de8b43f2-7b91-458a-b357-7c78767591f0"},"vehicle_type_id":"4","last_reported":1747508865,"current_range_meters":6400,"station_id":"ce4bha92rcd13ifvqeh0","pricing_plan_id":"cebpf4jnsgd1na2vs0mg"},{"bike_id":"7c9e4504-147a-4d1d-a979-4a5b1cfa71b1","system_id":"levelo_inurba_marseille","lat":43.29225,"lon":5.3607,"is_reserved":false,"is_disabled":false,"rental_uris":{"android":"levelo://app?vid=7c9e4504-147a-4d1d-a979-4a5b1cfa71b1","ios":"levelo://app?vid=7c9e4504-147a-4d1d-a979-4a5b1cfa71b1"},"vehicle_type_id":"4","last_reported":1747508865,"current_range_meters":6400,"station_id":"ce4bhbh2rcd13ifvqeqg","pricing_plan_id":"cebpf4jnsgd1na2vs0mg"},{"bike_id":"547f3f82-ba1b-4520-b634-adf098624e39","system_id":"levelo_inurba_marseille","lat":43.271877,"lon":5.391647,"is_reserved":false,"is_disabled":false,"rental_uris":{"android":"levelo://app?vid=547f3f82-ba1b-4520-b634-adf098624e39","ios":"levelo://app?vid=547f3f82-ba1b-4520-b634-adf098624e39"},"vehicle_type_id":"4","last_reported":1747508865,"current_range_meters":6400,"station_id":"ce4bhhp2rcd13ifvqfm0","pricing_plan_id":"cebpf4jnsgd1na2vs0mg"},{"bike_id":"80b513fa-6ba7-4ae4-b04e-bfcb07031fea","system_id":"levelo_inurba_marseille","lat":43.27215,"lon":5.39187,"is_reserved":false,"is_disabled":false,"rental_uris":{"android":"levelo://app?vid=80b513fa-6ba7-4ae4-b04e-bfcb07031fea","ios":"levelo://app?vid=80b513fa-6ba7-4ae4-b04e-bfcb07031fea"},"vehicle_type_id":"4","last_reported":1747508865,"current_range_meters":6400,"station_id":"ce4bhhp2rcd13ifvqfm0","pricing_plan_id":"cebpf4jnsgd1na2vs0mg"},{"bike_id":"56ec3a2e-d19c-4f12-94ed-4a538421c087","system_id":"levelo_inurba_marseille","lat":43.26495,"lon":5.39534,"is_reserved":false,"is_disabled":false,"rental_uris":{"android":"levelo://app?vid=56ec3a2e-d19c-4f12-94ed-4a538421c087","ios":"levelo://app?vid=56ec3a2e-d19c-4f12-94ed-4a538421c087"},"vehicle_type_id":"4","last_reported":1747508865,"current_range_meters":6400,"station_id":"ce4bhi12rcd13ifvqfq0","pricing_plan_id":"cebpf4jnsgd1na2vs0mg"},{"bike_id":"ece04caa-c45d-48c6-9caf-2fdbaafdde50","system_id":"levelo_inurba_marseille","lat":43.26941,"lon":5.40248,"is_reserved":false,"is_disabled":false,"rental_uris":{"android":"levelo://app?vid=ece04caa-c45d-48c6-9caf-2fdbaafdde50","ios":"levelo://app?vid=ece04caa-c45d-48c6-9caf-2fdbaafdde50"},"vehicle_type_id":"4","last_reported":1747508865,"current_range_meters":6400,"station_id":"cjm6bp8fraef2m0cb0m0","pricing_plan_id":"cebpf4jnsgd1na2vs0mg"},{"bike_id":"78b6bc8f-ce2f-4c76-bf94-56581d4854e1","system_id":"levelo_inurba_marseille","lat":43.31827,"lon":5.37402,"is_reserved":false,"is_disabled":false,"rental_uris":{"android":"levelo://app?vid=78b6bc8f-ce2f-4c76-bf94-56581d4854e1","ios":"levelo://app?vid=78b6bc8f-ce2f-4c76-bf94-56581d4854e1"},"vehicle_type_id":"4","last_reported":1747508865,"current_range_meters":6800,"station_id":"","pricing_plan_id":"cebpf4jnsgd1na2vs0mg"},{"bike_id":"9f2c685a-6871-4bb5-a9ec-83d2f7e8074b","system_id":"levelo_inurba_marseille","lat":43.29909,"lon":5.38145,"is_reserved":false,"is_disabled":false,"rental_uris":{"android":"levelo://app?vid=9f2c685a-6871-4bb5-a9ec-83d2f7e8074b","ios":"levelo://app?vid=9f2c685a-6871-4bb5-a9ec-83d2f7e8074b"},"vehicle_type_id":"4","last_reported":1747508865,"current_range_meters":6800,"station_id":"ce4bgj12rcd13ifvqbc0","pricing_plan_id":"cebpf4jnsgd1na2vs0mg"},{"bike_id":"c106489d-3153-48d5-ab1e-ccc2bdfc676a","system_id":"levelo_inurba_marseille","lat":43.29886,"lon":5.36286,"is_reserved":false,"is_disabled":false,"rental_uris":{"android":"levelo://app?vid=c106489d-3153-48d5-ab1e-ccc2bdfc676a","ios":"levelo://app?vid=c106489d-3153-48d5-ab1e-ccc2bdfc676a"},"vehicle_type_id":"4","last_reported":1747508865,"current_range_meters":6800,"station_id":"ce4bgpp2rcd13ifvqc3g","pricing_plan_id":"cebpf4jnsgd1na2vs0mg"},{"bike_id":"be0eeaa6-6a01-46b0-a0ef-e5c5255336fe","system_id":"levelo_inurba_marseille","lat":43.29847,"lon":5.36278,"is_reserved":false,"is_disabled":false,"rental_uris":{"android":"levelo://app?vid=be0eeaa6-6a01-46b0-a0ef-e5c5255336fe","ios":"levelo://app?vid=be0eeaa6-6a01-46b0-a0ef-e5c5255336fe"},"vehicle_type_id":"4","last_reported":1747508865,"current_range_meters":6800,"station_id":"ce4bgpp2rcd13ifvqc3g","pricing_plan_id":"cebpf4jnsgd1na2vs0mg"},{"bike_id":"7d8130ae-9331-4223-b554-30ab8f0d0a05","system_id":"levelo_inurba_marseille","lat":43.27305,"lon":5.39082,"is_reserved":false,"is_disabled":false,"rental_uris":{"android":"levelo://app?vid=7d8130ae-9331-4223-b554-30ab8f0d0a05","ios":"levelo://app?vid=7d8130ae-9331-4223-b554-30ab8f0d0a05"},"vehicle_type_id":"4","last_reported":1747508865,"current_range_meters":6800,"station_id":"ce4bhgp2rcd13ifvqfe0","pricing_plan_id":"cebpf4jnsgd1na2vs0mg"},{"bike_id":"8633dd42-2b3d-479b-bf91-ed2f5516ba1a","system_id":"levelo_inurba_marseille","lat":43.25823,"lon":5.39433,"is_reserved":false,"is_disabled":false,"rental_uris":{"android":"levelo://app?vid=8633dd42-2b3d-479b-bf91-ed2f5516ba1a","ios":"levelo://app?vid=8633dd42-2b3d-479b-bf91-ed2f5516ba1a"},"vehicle_type_id":"4","last_reported":1747508865,"current_range_meters":6800,"station_id":"ce4bhip2rcd13ifvqft0","pricing_plan_id":"cebpf4jnsgd1na2vs0mg"},{"bike_id":"5e16ea8f-95fb-446c-ab51-fae1112c0aff","system_id":"levelo_inurba_marseille","lat":43.25933,"lon":5.40913,"is_reserved":false,"is_disabled":false,"rental_uris":{"android":"levelo://app?vid=5e16ea8f-95fb-446c-ab51-fae1112c0aff","ios":"levelo://app?vid=5e16ea8f-95fb-446c-ab51-fae1112c0aff"},"vehicle_type_id":"4","last_reported":1747508865,"current_range_meters":6800,"station_id":"ce4bhm92rcd13ifvqglg","pricing_plan_id":"cebpf4jnsgd1na2vs0mg"},{"bike_id":"91381b81-084a-478e-b975-fc463814df4d","system_id":"levelo_inurba_marseille","lat":43.24158,"lon":5.39725,"is_reserved":false,"is_disabled":false,"rental_uris":{"android":"levelo://app?vid=91381b81-084a-478e-b975-fc463814df4d","ios":"levelo://app?vid=91381b81-084a-478e-b975-fc463814df4d"},"vehicle_type_id":"4","last_reported":1747508865,"current_range_meters":6800,"station_id":"ce4bhn12rcd13ifvqgpg","pricing_plan_id":"cebpf4jnsgd1na2vs0mg"},{"bike_id":"6f0eb859-c354-4ec9-9ed0-fc59fdc99960","system_id":"levelo_inurba_marseille","lat":43.317194,"lon":5.423997,"is_reserved":false,"is_disabled":false,"rental_uris":{"android":"levelo://app?vid=6f0eb859-c354-4ec9-9ed0-fc59fdc99960","ios":"levelo://app?vid=6f0eb859-c354-4ec9-9ed0-fc59fdc99960"},"vehicle_type_id":"4","last_reported":1747508865,"current_range_meters":6800,"station_id":"ce4bhp92rcd13ifvqhbg","pricing_plan_id":"cebpf4jnsgd1na2vs0mg"},{"bike_id":"6cd5c425-f8ac-4068-b8ea-a8bfbef29ee5","system_id":"levelo_inurba_marseille","lat":43.25001,"lon":5.37953,"is_reserved":false,"is_disabled":false,"rental_uris":{"android":"levelo://app?vid=6cd5c425-f8ac-4068-b8ea-a8bfbef29ee5","ios":"levelo://app?vid=6cd5c425-f8ac-4068-b8ea-a8bfbef29ee5"},"vehicle_type_id":"4","last_reported":1747508865,"current_range_meters":7200,"station_id":"","pricing_plan_id":"cebpf4jnsgd1na2vs0mg"},{"bike_id":"031f51ca-379b-41d6-9cab-a1a6586d0a85","system_id":"levelo_inurba_marseille","lat":43.29604,"lon":5.381,"is_reserved":false,"is_disabled":false,"rental_uris":{"android":"levelo://app?vid=031f51ca-379b-41d6-9cab-a1a6586d0a85","ios":"levelo://app?vid=031f51ca-379b-41d6-9cab-a1a6586d0a85"},"vehicle_type_id":"4","last_reported":1747508865,"current_range_meters":7200,"station_id":"ce4bgl12rcd13ifvqbo0","pricing_plan_id":"cebpf4jnsgd1na2vs0mg"},{"bike_id":"b8881f4d-3ff3-46ae-91d9-a5252d01a8c1","system_id":"levelo_inurba_marseille","lat":43.29277,"lon":5.36848,"is_reserved":false,"is_disabled":false,"rental_uris":{"android":"levelo://app?vid=b8881f4d-3ff3-46ae-91d9-a5252d01a8c1","ios":"levelo://app?vid=b8881f4d-3ff3-46ae-91d9-a5252d01a8c1"},"vehicle_type_id":"4","last_reported":1747508865,"current_range_meters":7200,"station_id":"ce4bhbp2rcd13ifvqesg","pricing_plan_id":"cebpf4jnsgd1na2vs0mg"},{"bike_id":"dfc0feb1-2931-4a43-a719-72f7776d0b4d","system_id":"levelo_inurba_marseille","lat":43.27673,"lon":5.38876,"is_reserved":false,"is_disabled":false,"rental_uris":{"android":"levelo://app?vid=dfc0feb1-2931-4a43-a719-72f7776d0b4d","ios":"levelo://app?vid=dfc0feb1-2931-4a43-a719-72f7776d0b4d"},"vehicle_type_id":"4","last_reported":1747508865,"current_range_meters":7200,"station_id":"ce4bhi12rcd13ifvqfo0","pricing_plan_id":"cebpf4jnsgd1na2vs0mg"},{"bike_id":"7f6746c4-1c7c-4c44-a078-4a2fb50d8073","system_id":"levelo_inurba_marseille","lat":43.24545,"lon":5.39523,"is_reserved":false,"is_disabled":false,"rental_uris":{"android":"levelo://app?vid=7f6746c4-1c7c-4c44-a078-4a2fb50d8073","ios":"levelo://app?vid=7f6746c4-1c7c-4c44-a078-4a2fb50d8073"},"vehicle_type_id":"4","last_reported":1747508865,"current_range_meters":7200,"station_id":"ce4bhlp2rcd13ifvqgjg","pricing_plan_id":"cebpf4jnsgd1na2vs0mg"},{"bike_id":"bbd82c95-01a7-4785-92ed-ebfbcf1fab88","system_id":"levelo_inurba_marseille","lat":43.23223,"lon":5.35552,"is_reserved":false,"is_disabled":false,"rental_uris":{"android":"levelo://app?vid=bbd82c95-01a7-4785-92ed-ebfbcf1fab88","ios":"levelo://app?vid=bbd82c95-01a7-4785-92ed-ebfbcf1fab88"},"vehicle_type_id":"4","last_reported":1747508865,"current_range_meters":7200,"station_id":"ce4bhu92rcd13ifvqi70","pricing_plan_id":"cebpf4jnsgd1na2vs0mg"},{"bike_id":"ef10585b-102c-4f96-bf5e-485f7b1073a9","system_id":"levelo_inurba_marseille","lat":43.29529,"lon":5.38552,"is_reserved":false,"is_disabled":false,"rental_uris":{"android":"levelo://app?vid=ef10585b-102c-4f96-bf5e-485f7b1073a9","ios":"levelo://app?vid=ef10585b-102c-4f96-bf5e-485f7b1073a9"},"vehicle_type_id":"4","last_reported":1747508865,"current_range_meters":8000,"station_id":"ce4bgih2rcd13ifvqba0","pricing_plan_id":"cebpf4jnsgd1na2vs0mg"},{"bike_id":"584efaa5-0d52-422a-bf05-d28c3f6afb61","system_id":"levelo_inurba_marseille","lat":43.29785,"lon":5.37099,"is_reserved":false,"is_disabled":false,"rental_uris":{"android":"levelo://app?vid=584efaa5-0d52-422a-bf05-d28c3f6afb61","ios":"levelo://app?vid=584efaa5-0d52-422a-bf05-d28c3f6afb61"},"vehicle_type_id":"4","last_reported":1747508865,"current_range_meters":8000,"station_id":"ce4bgop2rcd13ifvqc1g","pricing_plan_id":"cebpf4jnsgd1na2vs0mg"},{"bike_id":"de94389c-489a-4da1-a603-c406f024563c","system_id":"levelo_inurba_marseille","lat":43.29846,"lon":5.36267,"is_reserved":false,"is_disabled":false,"rental_uris":{"android":"levelo://app?vid=de94389c-489a-4da1-a603-c406f024563c","ios":"levelo://app?vid=de94389c-489a-4da1-a603-c406f024563c"},"vehicle_type_id":"4","last_reported":1747508865,"current_range_meters":8000,"station_id":"ce4bgpp2rcd13ifvqc3g","pricing_plan_id":"cebpf4jnsgd1na2vs0mg"},{"bike_id":"72d25371-285c-425f-8e49-89b5725a8e0a","system_id":"levelo_inurba_marseille","lat":43.3014,"lon":5.37408,"is_reserved":false,"is_disabled":false,"rental_uris":{"android":"levelo://app?vid=72d25371-285c-425f-8e49-89b5725a8e0a","ios":"levelo://app?vid=72d25371-285c-425f-8e49-89b5725a8e0a"},"vehicle_type_id":"4","last_reported":1747508865,"current_range_meters":8000,"station_id":"ce4bgs92rcd13ifvqcc0","pricing_plan_id":"cebpf4jnsgd1na2vs0mg"},{"bike_id":"da973b6e-dbca-4131-b699-f9d1d82c3982","system_id":"levelo_inurba_marseille","lat":43.30957,"lon":5.39041,"is_reserved":false,"is_disabled":false,"rental_uris":{"android":"levelo://app?vid=da973b6e-dbca-4131-b699-f9d1d82c3982","ios":"levelo://app?vid=da973b6e-dbca-4131-b699-f9d1d82c3982"},"vehicle_type_id":"4","last_reported":1747508865,"current_range_meters":8000,"station_id":"ce4bgup2rcd13ifvqco0","pricing_plan_id":"cebpf4jnsgd1na2vs0mg"},{"bike_id":"77f5c7d3-3de4-43f9-861b-69adfdee9091","system_id":"levelo_inurba_marseille","lat":43.292265,"lon":5.36055,"is_reserved":false,"is_disabled":false,"rental_uris":{"android":"levelo://app?vid=77f5c7d3-3de4-43f9-861b-69adfdee9091","ios":"levelo://app?vid=77f5c7d3-3de4-43f9-861b-69adfdee9091"},"vehicle_type_id":"4","last_reported":1747508865,"current_range_meters":8000,"station_id":"ce4bhbh2rcd13ifvqeqg","pricing_plan_id":"cebpf4jnsgd1na2vs0mg"},{"bike_id":"e6b90654-f35c-49ac-9d3a-a1d46fcb69e3","system_id":"levelo_inurba_marseille","lat":43.27312,"lon":5.39093,"is_reserved":false,"is_disabled":false,"rental_uris":{"android":"levelo://app?vid=e6b90654-f35c-49ac-9d3a-a1d46fcb69e3","ios":"levelo://app?vid=e6b90654-f35c-49ac-9d3a-a1d46fcb69e3"},"vehicle_type_id":"4","last_reported":1747508865,"current_range_meters":8000,"station_id":"ce4bhgp2rcd13ifvqfe0","pricing_plan_id":"cebpf4jnsgd1na2vs0mg"},{"bike_id":"2013cd87-0d43-443c-a50a-2ae65b408add","system_id":"levelo_inurba_marseille","lat":43.32368,"lon":5.38888,"is_reserved":false,"is_disabled":false,"rental_uris":{"android":"levelo://app?vid=2013cd87-0d43-443c-a50a-2ae65b408add","ios":"levelo://app?vid=2013cd87-0d43-443c-a50a-2ae65b408add"},"vehicle_type_id":"4","last_reported":1747508865,"current_range_meters":8000,"station_id":"ce4bhqp2rcd13ifvqhog","pricing_plan_id":"cebpf4jnsgd1na2vs0mg"},{"bike_id":"ba458feb-4b63-4cc6-9bb1-139f51f0ffef","system_id":"levelo_inurba_marseille","lat":43.30541,"lon":5.38407,"is_reserved":false,"is_disabled":false,"rental_uris":{"android":"levelo://app?vid=ba458feb-4b63-4cc6-9bb1-139f51f0ffef","ios":"levelo://app?vid=ba458feb-4b63-4cc6-9bb1-139f51f0ffef"},"vehicle_type_id":"4","last_reported":1747508865,"current_range_meters":8400,"station_id":"ce4bgg92rcd13ifvqb30","pricing_plan_id":"cebpf4jnsgd1na2vs0mg"},{"bike_id":"b936eab4-27d5-4bef-a856-5b5f9862e5ee","system_id":"levelo_inurba_marseille","lat":43.293049,"lon":5.374635,"is_reserved":false,"is_disabled":false,"rental_uris":{"android":"levelo://app?vid=b936eab4-27d5-4bef-a856-5b5f9862e5ee","ios":"levelo://app?vid=b936eab4-27d5-4bef-a856-5b5f9862e5ee"},"vehicle_type_id":"4","last_reported":1747508865,"current_range_meters":8400,"station_id":"ce4bgi12rcd13ifvqb70","pricing_plan_id":"cebpf4jnsgd1na2vs0mg"},{"bike_id":"49d88bc7-96ad-4662-b063-4de22854d9e3","system_id":"levelo_inurba_marseille","lat":43.31678,"lon":5.40464,"is_reserved":false,"is_disabled":false,"rental_uris":{"android":"levelo://app?vid=49d88bc7-96ad-4662-b063-4de22854d9e3","ios":"levelo://app?vid=49d88bc7-96ad-4662-b063-4de22854d9e3"},"vehicle_type_id":"4","last_reported":1747508865,"current_range_meters":8400,"station_id":"ce4bh012rcd13ifvqd00","pricing_plan_id":"cebpf4jnsgd1na2vs0mg"},{"bike_id":"b136bf4d-0c7a-403c-b2a3-4b342fc4e34e","system_id":"levelo_inurba_marseille","lat":43.28481,"lon":5.38543,"is_reserved":false,"is_disabled":false,"rental_uris":{"android":"levelo://app?vid=b136bf4d-0c7a-403c-b2a3-4b342fc4e34e","ios":"levelo://app?vid=b136bf4d-0c7a-403c-b2a3-4b342fc4e34e"},"vehicle_type_id":"4","last_reported":1747508865,"current_range_meters":8400,"station_id":"ce4bh8p2rcd13ifvqeb0","pricing_plan_id":"cebpf4jnsgd1na2vs0mg"},{"bike_id":"416fb16a-cb47-49d2-a3c4-d3e95d5a2830","system_id":"levelo_inurba_marseille","lat":43.24807,"lon":5.37454,"is_reserved":false,"is_disabled":false,"rental_uris":{"android":"levelo://app?vid=416fb16a-cb47-49d2-a3c4-d3e95d5a2830","ios":"levelo://app?vid=416fb16a-cb47-49d2-a3c4-d3e95d5a2830"},"vehicle_type_id":"4","last_reported":1747508865,"current_range_meters":8400,"station_id":"ce4bhgh2rcd13ifvqfb0","pricing_plan_id":"cebpf4jnsgd1na2vs0mg"},{"bike_id":"a426efda-4cca-481c-a251-bed54005baad","system_id":"levelo_inurba_marseille","lat":43.24999,"lon":5.38924,"is_reserved":false,"is_disabled":false,"rental_uris":{"android":"levelo://app?vid=a426efda-4cca-481c-a251-bed54005baad","ios":"levelo://app?vid=a426efda-4cca-481c-a251-bed54005baad"},"vehicle_type_id":"4","last_reported":1747508865,"current_range_meters":8400,"station_id":"ce4bhgp2rcd13ifvqfd0","pricing_plan_id":"cebpf4jnsgd1na2vs0mg"},{"bike_id":"30661b8c-3838-4560-8422-5e444587b594","system_id":"levelo_inurba_marseille","lat":43.27311,"lon":5.39091,"is_reserved":false,"is_disabled":false,"rental_uris":{"android":"levelo://app?vid=30661b8c-3838-4560-8422-5e444587b594","ios":"levelo://app?vid=30661b8c-3838-4560-8422-5e444587b594"},"vehicle_type_id":"4","last_reported":1747508865,"current_range_meters":8400,"station_id":"ce4bhgp2rcd13ifvqfe0","pricing_plan_id":"cebpf4jnsgd1na2vs0mg"},{"bike_id":"1e5a7839-d218-47a9-988d-f5fdcdfa5acb","system_id":"levelo_inurba_marseille","lat":43.25821,"lon":5.39427,"is_reserved":false,"is_disabled":false,"rental_uris":{"android":"levelo://app?vid=1e5a7839-d218-47a9-988d-f5fdcdfa5acb","ios":"levelo://app?vid=1e5a7839-d218-47a9-988d-f5fdcdfa5acb"},"vehicle_type_id":"4","last_reported":1747508865,"current_range_meters":8400,"station_id":"ce4bhip2rcd13ifvqft0","pricing_plan_id":"cebpf4jnsgd1na2vs0mg"},{"bike_id":"44f1f641-0f80-4e14-aa76-3b963b673248","system_id":"levelo_inurba_marseille","lat":43.2694,"lon":5.40252,"is_reserved":false,"is_disabled":false,"rental_uris":{"android":"levelo://app?vid=44f1f641-0f80-4e14-aa76-3b963b673248","ios":"levelo://app?vid=44f1f641-0f80-4e14-aa76-3b963b673248"},"vehicle_type_id":"4","last_reported":1747508865,"current_range_meters":8400,"station_id":"cjm6bp8fraef2m0cb0m0","pricing_plan_id":"cebpf4jnsgd1na2vs0mg"},{"bike_id":"55fb771a-6e76-45c4-a9b7-cda97a0011d0","system_id":"levelo_inurba_marseille","lat":43.28672,"lon":5.38305,"is_reserved":false,"is_disabled":false,"rental_uris":{"android":"levelo://app?vid=55fb771a-6e76-45c4-a9b7-cda97a0011d0","ios":"levelo://app?vid=55fb771a-6e76-45c4-a9b7-cda97a0011d0"},"vehicle_type_id":"4","last_reported":1747508865,"current_range_meters":8800,"station_id":"","pricing_plan_id":"cebpf4jnsgd1na2vs0mg"},{"bike_id":"d48d27d3-95dc-4895-a95f-12c689d7e76f","system_id":"levelo_inurba_marseille","lat":43.29528,"lon":5.38546,"is_reserved":false,"is_disabled":false,"rental_uris":{"android":"levelo://app?vid=d48d27d3-95dc-4895-a95f-12c689d7e76f","ios":"levelo://app?vid=d48d27d3-95dc-4895-a95f-12c689d7e76f"},"vehicle_type_id":"4","last_reported":1747508865,"current_range_meters":8800,"station_id":"ce4bgih2rcd13ifvqba0","pricing_plan_id":"cebpf4jnsgd1na2vs0mg"},{"bike_id":"42561cbd-3fa1-4eff-8f60-5295e15220cf","system_id":"levelo_inurba_marseille","lat":43.30949,"lon":5.39035,"is_reserved":false,"is_disabled":false,"rental_uris":{"android":"levelo://app?vid=42561cbd-3fa1-4eff-8f60-5295e15220cf","ios":"levelo://app?vid=42561cbd-3fa1-4eff-8f60-5295e15220cf"},"vehicle_type_id":"4","last_reported":1747508865,"current_range_meters":8800,"station_id":"ce4bgup2rcd13ifvqco0","pricing_plan_id":"cebpf4jnsgd1na2vs0mg"},{"bike_id":"e4bceea5-4a63-4d49-bb82-25103513e5bb","system_id":"levelo_inurba_marseille","lat":43.26565,"lon":5.39004,"is_reserved":false,"is_disabled":false,"rental_uris":{"android":"levelo://app?vid=e4bceea5-4a63-4d49-bb82-25103513e5bb","ios":"levelo://app?vid=e4bceea5-4a63-4d49-bb82-25103513e5bb"},"vehicle_type_id":"4","last_reported":1747508865,"current_range_meters":8800,"station_id":"ce4bhe12rcd13ifvqf30","pricing_plan_id":"cebpf4jnsgd1na2vs0mg"},{"bike_id":"d0cc36ba-dea5-4301-b9bc-2db32098db5e","system_id":"levelo_inurba_marseille","lat":43.25086,"lon":5.39503,"is_reserved":false,"is_disabled":false,"rental_uris":{"android":"levelo://app?vid=d0cc36ba-dea5-4301-b9bc-2db32098db5e","ios":"levelo://app?vid=d0cc36ba-dea5-4301-b9bc-2db32098db5e"},"vehicle_type_id":"4","last_reported":1747508865,"current_range_meters":8800,"station_id":"ce4bhm12rcd13ifvqgkg","pricing_plan_id":"cebpf4jnsgd1na2vs0mg"},{"bike_id":"4004816e-123b-44bd-8254-b65446e4d206","system_id":"levelo_inurba_marseille","lat":43.30368,"lon":5.41894,"is_reserved":false,"is_disabled":false,"rental_uris":{"android":"levelo://app?vid=4004816e-123b-44bd-8254-b65446e4d206","ios":"levelo://app?vid=4004816e-123b-44bd-8254-b65446e4d206"},"vehicle_type_id":"4","last_reported":1747508865,"current_range_meters":8800,"station_id":"ce4bhop2rcd13ifvqh7g","pricing_plan_id":"cebpf4jnsgd1na2vs0mg"},{"bike_id":"be223ffd-dcb4-4f22-ab45-6820e3ed756a","system_id":"levelo_inurba_marseille","lat":43.32658,"lon":5.40993,"is_reserved":false,"is_disabled":false,"rental_uris":{"android":"levelo://app?vid=be223ffd-dcb4-4f22-ab45-6820e3ed756a","ios":"levelo://app?vid=be223ffd-dcb4-4f22-ab45-6820e3ed756a"},"vehicle_type_id":"4","last_reported":1747508865,"current_range_meters":8800,"station_id":"ce4bhpp2rcd13ifvqhgg","pricing_plan_id":"cebpf4jnsgd1na2vs0mg"},{"bike_id":"c19d6bde-a1d0-4aec-b37b-3835839558e9","system_id":"levelo_inurba_marseille","lat":43.28679,"lon":5.38666,"is_reserved":false,"is_disabled":false,"rental_uris":{"android":"levelo://app?vid=c19d6bde-a1d0-4aec-b37b-3835839558e9","ios":"levelo://app?vid=c19d6bde-a1d0-4aec-b37b-3835839558e9"},"vehicle_type_id":"4","last_reported":1747508865,"current_range_meters":9200,"station_id":"","pricing_plan_id":"cebpf4jnsgd1na2vs0mg"},{"bike_id":"53ce8cf9-5bdf-4af5-831f-57bdd4e0e256","system_id":"levelo_inurba_marseille","lat":43.29423,"lon":5.38618,"is_reserved":false,"is_disabled":false,"rental_uris":{"android":"levelo://app?vid=53ce8cf9-5bdf-4af5-831f-57bdd4e0e256","ios":"levelo://app?vid=53ce8cf9-5bdf-4af5-831f-57bdd4e0e256"},"vehicle_type_id":"4","last_reported":1747508865,"current_range_meters":9200,"station_id":"ce4bh2h2rcd13ifvqdh0","pricing_plan_id":"cebpf4jnsgd1na2vs0mg"},{"bike_id":"70976753-fbac-47e3-986a-b148d954ee6a","system_id":"levelo_inurba_marseille","lat":43.29281,"lon":5.40117,"is_reserved":false,"is_disabled":false,"rental_uris":{"android":"levelo://app?vid=70976753-fbac-47e3-986a-b148d954ee6a","ios":"levelo://app?vid=70976753-fbac-47e3-986a-b148d954ee6a"},"vehicle_type_id":"4","last_reported":1747508865,"current_range_meters":9200,"station_id":"ce4bh312rcd13ifvqdk0","pricing_plan_id":"cebpf4jnsgd1na2vs0mg"},{"bike_id":"580b6f03-8579-4224-b28e-e8c77e245b14","system_id":"levelo_inurba_marseille","lat":43.24546,"lon":5.39525,"is_reserved":false,"is_disabled":false,"rental_uris":{"android":"levelo://app?vid=580b6f03-8579-4224-b28e-e8c77e245b14","ios":"levelo://app?vid=580b6f03-8579-4224-b28e-e8c77e245b14"},"vehicle_type_id":"4","last_reported":1747508865,"current_range_meters":9200,"station_id":"ce4bhlp2rcd13ifvqgjg","pricing_plan_id":"cebpf4jnsgd1na2vs0mg"},{"bike_id":"9d1ced73-c438-4da3-99cb-5368d05e355b","system_id":"levelo_inurba_marseille","lat":43.26935,"lon":5.4026,"is_reserved":false,"is_disabled":false,"rental_uris":{"android":"levelo://app?vid=9d1ced73-c438-4da3-99cb-5368d05e355b","ios":"levelo://app?vid=9d1ced73-c438-4da3-99cb-5368d05e355b"},"vehicle_type_id":"4","last_reported":1747508865,"current_range_meters":9200,"station_id":"cjm6bp8fraef2m0cb0m0","pricing_plan_id":"cebpf4jnsgd1na2vs0mg"},{"bike_id":"6a4abd9f-a0b2-44cb-887b-ada3a1dd2658","system_id":"levelo_inurba_marseille","lat":43.29873,"lon":5.36198,"is_reserved":false,"is_disabled":false,"rental_uris":{"android":"levelo://app?vid=6a4abd9f-a0b2-44cb-887b-ada3a1dd2658","ios":"levelo://app?vid=6a4abd9f-a0b2-44cb-887b-ada3a1dd2658"},"vehicle_type_id":"4","last_reported":1747508865,"current_range_meters":9600,"station_id":"","pricing_plan_id":"cebpf4jnsgd1na2vs0mg"},{"bike_id":"26808a24-9e36-4930-921c-a3113ce9be8a","system_id":"levelo_inurba_marseille","lat":43.27216,"lon":5.39113,"is_reserved":false,"is_disabled":false,"rental_uris":{"android":"levelo://app?vid=26808a24-9e36-4930-921c-a3113ce9be8a","ios":"levelo://app?vid=26808a24-9e36-4930-921c-a3113ce9be8a"},"vehicle_type_id":"4","last_reported":1747508865,"current_range_meters":9600,"station_id":"","pricing_plan_id":"cebpf4jnsgd1na2vs0mg"},{"bike_id":"aa11b021-7f5b-40f4-8383-73fa3d703c6a","system_id":"levelo_inurba_marseille","lat":43.302658,"lon":5.379773,"is_reserved":false,"is_disabled":false,"rental_uris":{"android":"levelo://app?vid=aa11b021-7f5b-40f4-8383-73fa3d703c6a","ios":"levelo://app?vid=aa11b021-7f5b-40f4-8383-73fa3d703c6a"},"vehicle_type_id":"4","last_reported":1747508865,"current_range_meters":9600,"station_id":"","pricing_plan_id":"cebpf4jnsgd1na2vs0mg"},{"bike_id":"e3051ea7-2282-4025-ba9a-255f168a09d3","system_id":"levelo_inurba_marseille","lat":43.30134,"lon":5.3878,"is_reserved":false,"is_disabled":false,"rental_uris":{"android":"levelo://app?vid=e3051ea7-2282-4025-ba9a-255f168a09d3","ios":"levelo://app?vid=e3051ea7-2282-4025-ba9a-255f168a09d3"},"vehicle_type_id":"4","last_reported":1747508865,"current_range_meters":9600,"station_id":"ce4bghh2rcd13ifvqb60","pricing_plan_id":"cebpf4jnsgd1na2vs0mg"},{"bike_id":"088a952d-05ec-4a50-84cb-9e0beaf63713","system_id":"levelo_inurba_marseille","lat":43.295879,"lon":5.367449,"is_reserved":false,"is_disabled":false,"rental_uris":{"android":"levelo://app?vid=088a952d-05ec-4a50-84cb-9e0beaf63713","ios":"levelo://app?vid=088a952d-05ec-4a50-84cb-9e0beaf63713"},"vehicle_type_id":"4","last_reported":1747508865,"current_range_meters":9600,"station_id":"ce4bgph2rcd13ifvqc2g","pricing_plan_id":"cebpf4jnsgd1na2vs0mg"},{"bike_id":"0390d809-9393-482c-b3c5-bf6e57a8f578","system_id":"levelo_inurba_marseille","lat":43.29871,"lon":5.36294,"is_reserved":false,"is_disabled":false,"rental_uris":{"android":"levelo://app?vid=0390d809-9393-482c-b3c5-bf6e57a8f578","ios":"levelo://app?vid=0390d809-9393-482c-b3c5-bf6e57a8f578"},"vehicle_type_id":"4","last_reported":1747508865,"current_range_meters":9600,"station_id":"ce4bgpp2rcd13ifvqc3g","pricing_plan_id":"cebpf4jnsgd1na2vs0mg"},{"bike_id":"a063b40b-df40-49a7-9f2d-1f2ba19974f2","system_id":"levelo_inurba_marseille","lat":43.298554,"lon":5.362838,"is_reserved":false,"is_disabled":false,"rental_uris":{"android":"levelo://app?vid=a063b40b-df40-49a7-9f2d-1f2ba19974f2","ios":"levelo://app?vid=a063b40b-df40-49a7-9f2d-1f2ba19974f2"},"vehicle_type_id":"4","last_reported":1747508865,"current_range_meters":9600,"station_id":"ce4bgpp2rcd13ifvqc3g","pricing_plan_id":"cebpf4jnsgd1na2vs0mg"},{"bike_id":"23fc5b12-ac21-40fd-a8c7-9f71c7fda175","system_id":"levelo_inurba_marseille","lat":43.28928,"lon":5.3664,"is_reserved":false,"is_disabled":false,"rental_uris":{"android":"levelo://app?vid=23fc5b12-ac21-40fd-a8c7-9f71c7fda175","ios":"levelo://app?vid=23fc5b12-ac21-40fd-a8c7-9f71c7fda175"},"vehicle_type_id":"4","last_reported":1747508865,"current_range_meters":9600,"station_id":"ce4bhap2rcd13ifvqek0","pricing_plan_id":"cebpf4jnsgd1na2vs0mg"},{"bike_id":"b8e6468b-87db-4ff6-8122-ef13bf5b7c8c","system_id":"levelo_inurba_marseille","lat":43.31379,"lon":5.37916,"is_reserved":false,"is_disabled":false,"rental_uris":{"android":"levelo://app?vid=b8e6468b-87db-4ff6-8122-ef13bf5b7c8c","ios":"levelo://app?vid=b8e6468b-87db-4ff6-8122-ef13bf5b7c8c"},"vehicle_type_id":"4","last_reported":1747508865,"current_range_meters":10000,"station_id":"","pricing_plan_id":"cebpf4jnsgd1na2vs0mg"},{"bike_id":"9001dfbe-007b-460a-abd6-ec52769da0d5","system_id":"levelo_inurba_marseille","lat":43.311757,"lon":5.387194,"is_reserved":false,"is_disabled":false,"rental_uris":{"android":"levelo://app?vid=9001dfbe-007b-460a-abd6-ec52769da0d5","ios":"levelo://app?vid=9001dfbe-007b-460a-abd6-ec52769da0d5"},"vehicle_type_id":"4","last_reported":1747508865,"current_range_meters":10000,"station_id":"ce4bgv12rcd13ifvqcp0","pricing_plan_id":"cebpf4jnsgd1na2vs0mg"},{"bike_id":"c533c7ec-5a25-4fbf-822b-0daf00828a77","system_id":"levelo_inurba_marseille","lat":43.29257,"lon":5.40895,"is_reserved":false,"is_disabled":false,"rental_uris":{"android":"levelo://app?vid=c533c7ec-5a25-4fbf-822b-0daf00828a77","ios":"levelo://app?vid=c533c7ec-5a25-4fbf-822b-0daf00828a77"},"vehicle_type_id":"4","last_reported":1747508865,"current_range_meters":10000,"station_id":"ce4bh192rcd13ifvqdc0","pricing_plan_id":"cebpf4jnsgd1na2vs0mg"},{"bike_id":"3a357737-d71d-47d6-b314-f2f3a5057a1c","system_id":"levelo_inurba_marseille","lat":43.28943,"lon":5.3663,"is_reserved":false,"is_disabled":false,"rental_uris":{"android":"levelo://app?vid=3a357737-d71d-47d6-b314-f2f3a5057a1c","ios":"levelo://app?vid=3a357737-d71d-47d6-b314-f2f3a5057a1c"},"vehicle_type_id":"4","last_reported":1747508865,"current_range_meters":10000,"station_id":"ce4bhap2rcd13ifvqek0","pricing_plan_id":"cebpf4jnsgd1na2vs0mg"},{"bike_id":"6a3884a6-c71b-45eb-b53d-44c4c58bd642","system_id":"levelo_inurba_marseille","lat":43.24811,"lon":5.37458,"is_reserved":false,"is_disabled":false,"rental_uris":{"android":"levelo://app?vid=6a3884a6-c71b-45eb-b53d-44c4c58bd642","ios":"levelo://app?vid=6a3884a6-c71b-45eb-b53d-44c4c58bd642"},"vehicle_type_id":"4","last_reported":1747508865,"current_range_meters":10000,"station_id":"ce4bhgh2rcd13ifvqfb0","pricing_plan_id":"cebpf4jnsgd1na2vs0mg"},{"bike_id":"ca046087-a8bc-4f7b-9b15-45221230521d","system_id":"levelo_inurba_marseille","lat":43.27311,"lon":5.39104,"is_reserved":false,"is_disabled":false,"rental_uris":{"android":"levelo://app?vid=ca046087-a8bc-4f7b-9b15-45221230521d","ios":"levelo://app?vid=ca046087-a8bc-4f7b-9b15-45221230521d"},"vehicle_type_id":"4","last_reported":1747508865,"current_range_meters":10000,"station_id":"ce4bhgp2rcd13ifvqfe0","pricing_plan_id":"cebpf4jnsgd1na2vs0mg"},{"bike_id":"5f91106b-7213-4219-a63b-d47c788ceaf7","system_id":"levelo_inurba_marseille","lat":43.273193,"lon":5.390794,"is_reserved":false,"is_disabled":false,"rental_uris":{"android":"levelo://app?vid=5f91106b-7213-4219-a63b-d47c788ceaf7","ios":"levelo://app?vid=5f91106b-7213-4219-a63b-d47c788ceaf7"},"vehicle_type_id":"4","last_reported":1747508865,"current_range_meters":10000,"station_id":"ce4bhgp2rcd13ifvqfe0","pricing_plan_id":"cebpf4jnsgd1na2vs0mg"},{"bike_id":"24914f33-4c30-4b6c-afbe-58179514859d","system_id":"levelo_inurba_marseille","lat":43.23957,"lon":5.36631,"is_reserved":false,"is_disabled":false,"rental_uris":{"android":"levelo://app?vid=24914f33-4c30-4b6c-afbe-58179514859d","ios":"levelo://app?vid=24914f33-4c30-4b6c-afbe-58179514859d"},"vehicle_type_id":"4","last_reported":1747508865,"current_range_meters":10000,"station_id":"ce4bhi12rcd13ifvqfp0","pricing_plan_id":"cebpf4jnsgd1na2vs0mg"},{"bike_id":"db3e4676-07e8-45b4-a071-2f7a961dbfe5","system_id":"levelo_inurba_marseille","lat":43.2816,"lon":5.42648,"is_reserved":false,"is_disabled":false,"rental_uris":{"android":"levelo://app?vid=db3e4676-07e8-45b4-a071-2f7a961dbfe5","ios":"levelo://app?vid=db3e4676-07e8-45b4-a071-2f7a961dbfe5"},"vehicle_type_id":"4","last_reported":1747508865,"current_range_meters":10000,"station_id":"ce4bhnh2rcd13ifvqgug","pricing_plan_id":"cebpf4jnsgd1na2vs0mg"},{"bike_id":"6bad99d6-c400-4729-a6f1-dd5f2da6c3f2","system_id":"levelo_inurba_marseille","lat":43.31717,"lon":5.4242,"is_reserved":false,"is_disabled":false,"rental_uris":{"android":"levelo://app?vid=6bad99d6-c400-4729-a6f1-dd5f2da6c3f2","ios":"levelo://app?vid=6bad99d6-c400-4729-a6f1-dd5f2da6c3f2"},"vehicle_type_id":"4","last_reported":1747508865,"current_range_meters":10000,"station_id":"ce4bhp92rcd13ifvqhbg","pricing_plan_id":"cebpf4jnsgd1na2vs0mg"},{"bike_id":"61aa91a2-acbb-418c-af2e-e5620f9b05a7","system_id":"levelo_inurba_marseille","lat":43.29963,"lon":5.37176,"is_reserved":false,"is_disabled":false,"rental_uris":{"android":"levelo://app?vid=61aa91a2-acbb-418c-af2e-e5620f9b05a7","ios":"levelo://app?vid=61aa91a2-acbb-418c-af2e-e5620f9b05a7"},"vehicle_type_id":"4","last_reported":1747508865,"current_range_meters":10800,"station_id":"ce4bgr92rcd13ifvqc7g","pricing_plan_id":"cebpf4jnsgd1na2vs0mg"},{"bike_id":"30a95384-84a0-4dcf-9499-faaad9d86b8d","system_id":"levelo_inurba_marseille","lat":43.3046,"lon":5.37902,"is_reserved":false,"is_disabled":false,"rental_uris":{"android":"levelo://app?vid=30a95384-84a0-4dcf-9499-faaad9d86b8d","ios":"levelo://app?vid=30a95384-84a0-4dcf-9499-faaad9d86b8d"},"vehicle_type_id":"4","last_reported":1747508865,"current_range_meters":10800,"station_id":"ce4bgup2rcd13ifvqcn0","pricing_plan_id":"cebpf4jnsgd1na2vs0mg"},{"bike_id":"aacb7e42-8e71-48c4-8fdd-bc5b7fe6e916","system_id":"levelo_inurba_marseille","lat":43.29423,"lon":5.38621,"is_reserved":false,"is_disabled":false,"rental_uris":{"android":"levelo://app?vid=aacb7e42-8e71-48c4-8fdd-bc5b7fe6e916","ios":"levelo://app?vid=aacb7e42-8e71-48c4-8fdd-bc5b7fe6e916"},"vehicle_type_id":"4","last_reported":1747508865,"current_range_meters":10800,"station_id":"ce4bh2h2rcd13ifvqdh0","pricing_plan_id":"cebpf4jnsgd1na2vs0mg"},{"bike_id":"da17cca1-6049-4552-aa9f-6f82f234a76a","system_id":"levelo_inurba_marseille","lat":43.29421,"lon":5.38621,"is_reserved":false,"is_disabled":false,"rental_uris":{"android":"levelo://app?vid=da17cca1-6049-4552-aa9f-6f82f234a76a","ios":"levelo://app?vid=da17cca1-6049-4552-aa9f-6f82f234a76a"},"vehicle_type_id":"4","last_reported":1747508865,"current_range_meters":10800,"station_id":"ce4bh2h2rcd13ifvqdh0","pricing_plan_id":"cebpf4jnsgd1na2vs0mg"},{"bike_id":"264c07ec-dfec-47be-9f59-b98b9730cf6f","system_id":"levelo_inurba_marseille","lat":43.28712,"lon":5.37945,"is_reserved":false,"is_disabled":false,"rental_uris":{"android":"levelo://app?vid=264c07ec-dfec-47be-9f59-b98b9730cf6f","ios":"levelo://app?vid=264c07ec-dfec-47be-9f59-b98b9730cf6f"},"vehicle_type_id":"4","last_reported":1747508865,"current_range_meters":10800,"station_id":"ce4bh9p2rcd13ifvqec0","pricing_plan_id":"cebpf4jnsgd1na2vs0mg"},{"bike_id":"70a559ff-dfbd-4913-b541-1d1f2237ce10","system_id":"levelo_inurba_marseille","lat":43.28705,"lon":5.39998,"is_reserved":false,"is_disabled":false,"rental_uris":{"android":"levelo://app?vid=70a559ff-dfbd-4913-b541-1d1f2237ce10","ios":"levelo://app?vid=70a559ff-dfbd-4913-b541-1d1f2237ce10"},"vehicle_type_id":"4","last_reported":1747508865,"current_range_meters":10800,"station_id":"ce4bho92rcd13ifvqh3g","pricing_plan_id":"cebpf4jnsgd1na2vs0mg"},{"bike_id":"a1aeb7d4-cb27-433c-b277-ad0c6d1dd06d","system_id":"levelo_inurba_marseille","lat":43.31701,"lon":5.40466,"is_reserved":false,"is_disabled":false,"rental_uris":{"android":"levelo://app?vid=a1aeb7d4-cb27-433c-b277-ad0c6d1dd06d","ios":"levelo://app?vid=a1aeb7d4-cb27-433c-b277-ad0c6d1dd06d"},"vehicle_type_id":"4","last_reported":1747508865,"current_range_meters":11200,"station_id":"ce4bh012rcd13ifvqd00","pricing_plan_id":"cebpf4jnsgd1na2vs0mg"},{"bike_id":"5ea6f467-857b-4ea7-a4b9-4a241fcc702a","system_id":"levelo_inurba_marseille","lat":43.24662,"lon":5.3816,"is_reserved":false,"is_disabled":false,"rental_uris":{"android":"levelo://app?vid=5ea6f467-857b-4ea7-a4b9-4a241fcc702a","ios":"levelo://app?vid=5ea6f467-857b-4ea7-a4b9-4a241fcc702a"},"vehicle_type_id":"4","last_reported":1747508865,"current_range_meters":11200,"station_id":"ce4bhih2rcd13ifvqfr0","pricing_plan_id":"cebpf4jnsgd1na2vs0mg"},{"bike_id":"67b01589-837a-45b2-857e-96fca12abd70","system_id":"levelo_inurba_marseille","lat":43.25832,"lon":5.3943,"is_reserved":false,"is_disabled":false,"rental_uris":{"android":"levelo://app?vid=67b01589-837a-45b2-857e-96fca12abd70","ios":"levelo://app?vid=67b01589-837a-45b2-857e-96fca12abd70"},"vehicle_type_id":"4","last_reported":1747508865,"current_range_meters":11200,"station_id":"ce4bhip2rcd13ifvqft0","pricing_plan_id":"cebpf4jnsgd1na2vs0mg"},{"bike_id":"6e1bd625-3ec1-43df-9657-36d71ae09f8d","system_id":"levelo_inurba_marseille","lat":43.33758,"lon":5.37471,"is_reserved":false,"is_disabled":false,"rental_uris":{"android":"levelo://app?vid=6e1bd625-3ec1-43df-9657-36d71ae09f8d","ios":"levelo://app?vid=6e1bd625-3ec1-43df-9657-36d71ae09f8d"},"vehicle_type_id":"4","last_reported":1747508865,"current_range_meters":11600,"station_id":"","pricing_plan_id":"cebpf4jnsgd1na2vs0mg"},{"bike_id":"9f882957-d63a-4947-a35b-9b4aaf28ddb5","system_id":"levelo_inurba_marseille","lat":43.29423,"lon":5.38632,"is_reserved":false,"is_disabled":false,"rental_uris":{"android":"levelo://app?vid=9f882957-d63a-4947-a35b-9b4aaf28ddb5","ios":"levelo://app?vid=9f882957-d63a-4947-a35b-9b4aaf28ddb5"},"vehicle_type_id":"4","last_reported":1747508865,"current_range_meters":11600,"station_id":"ce4bh2h2rcd13ifvqdh0","pricing_plan_id":"cebpf4jnsgd1na2vs0mg"},{"bike_id":"c67be3ff-2159-4818-a915-6b4509662a38","system_id":"levelo_inurba_marseille","lat":43.29173,"lon":5.36106,"is_reserved":false,"is_disabled":false,"rental_uris":{"android":"levelo://app?vid=c67be3ff-2159-4818-a915-6b4509662a38","ios":"levelo://app?vid=c67be3ff-2159-4818-a915-6b4509662a38"},"vehicle_type_id":"4","last_reported":1747508865,"current_range_meters":11600,"station_id":"ce4bhbh2rcd13ifvqeqg","pricing_plan_id":"cebpf4jnsgd1na2vs0mg"},{"bike_id":"0fd82a21-0c9c-47a5-9940-9b40b2889b76","system_id":"levelo_inurba_marseille","lat":43.25123,"lon":5.40311,"is_reserved":false,"is_disabled":false,"rental_uris":{"android":"levelo://app?vid=0fd82a21-0c9c-47a5-9940-9b40b2889b76","ios":"levelo://app?vid=0fd82a21-0c9c-47a5-9940-9b40b2889b76"},"vehicle_type_id":"4","last_reported":1747508865,"current_range_meters":11600,"station_id":"ce4bhlh2rcd13ifvqgig","pricing_plan_id":"cebpf4jnsgd1na2vs0mg"},{"bike_id":"14603e41-b2dd-4757-a53c-2e366aa4f983","system_id":"levelo_inurba_marseille","lat":43.269961,"lon":5.428193,"is_reserved":false,"is_disabled":false,"rental_uris":{"android":"levelo://app?vid=14603e41-b2dd-4757-a53c-2e366aa4f983","ios":"levelo://app?vid=14603e41-b2dd-4757-a53c-2e366aa4f983"},"vehicle_type_id":"4","last_reported":1747508865,"current_range_meters":12000,"station_id":"","pricing_plan_id":"cebpf4jnsgd1na2vs0mg"},{"bike_id":"373f6ba1-bd80-4b20-9524-cf9076066896","system_id":"levelo_inurba_marseille","lat":43.312265,"lon":5.368445,"is_reserved":false,"is_disabled":false,"rental_uris":{"android":"levelo://app?vid=373f6ba1-bd80-4b20-9524-cf9076066896","ios":"levelo://app?vid=373f6ba1-bd80-4b20-9524-cf9076066896"},"vehicle_type_id":"4","last_reported":1747508865,"current_range_meters":12000,"station_id":"ce4bgl92rcd13ifvqbq0","pricing_plan_id":"cebpf4jnsgd1na2vs0mg"},{"bike_id":"5c7d5ff1-4256-4b62-8f2f-b3f2344a873d","system_id":"levelo_inurba_marseille","lat":43.31491,"lon":5.37308,"is_reserved":false,"is_disabled":false,"rental_uris":{"android":"levelo://app?vid=5c7d5ff1-4256-4b62-8f2f-b3f2344a873d","ios":"levelo://app?vid=5c7d5ff1-4256-4b62-8f2f-b3f2344a873d"},"vehicle_type_id":"4","last_reported":1747508865,"current_range_meters":12000,"station_id":"ce4bgt12rcd13ifvqcd0","pricing_plan_id":"cebpf4jnsgd1na2vs0mg"},{"bike_id":"78e1da3c-b6b2-4f14-b5bb-706aa24108a6","system_id":"levelo_inurba_marseille","lat":43.27187,"lon":5.39213,"is_reserved":false,"is_disabled":false,"rental_uris":{"android":"levelo://app?vid=78e1da3c-b6b2-4f14-b5bb-706aa24108a6","ios":"levelo://app?vid=78e1da3c-b6b2-4f14-b5bb-706aa24108a6"},"vehicle_type_id":"4","last_reported":1747508865,"current_range_meters":12000,"station_id":"ce4bhhp2rcd13ifvqfm0","pricing_plan_id":"cebpf4jnsgd1na2vs0mg"},{"bike_id":"99795b96-409c-4a95-83d9-3540ec7c8d7d","system_id":"levelo_inurba_marseille","lat":43.272145,"lon":5.391835,"is_reserved":false,"is_disabled":false,"rental_uris":{"android":"levelo://app?vid=99795b96-409c-4a95-83d9-3540ec7c8d7d","ios":"levelo://app?vid=99795b96-409c-4a95-83d9-3540ec7c8d7d"},"vehicle_type_id":"4","last_reported":1747508865,"current_range_meters":12000,"station_id":"ce4bhhp2rcd13ifvqfm0","pricing_plan_id":"cebpf4jnsgd1na2vs0mg"},{"bike_id":"4a86f4fc-3711-4a60-b7dd-21c6880091fe","system_id":"levelo_inurba_marseille","lat":43.27662,"lon":5.38901,"is_reserved":false,"is_disabled":false,"rental_uris":{"android":"levelo://app?vid=4a86f4fc-3711-4a60-b7dd-21c6880091fe","ios":"levelo://app?vid=4a86f4fc-3711-4a60-b7dd-21c6880091fe"},"vehicle_type_id":"4","last_reported":1747508865,"current_range_meters":12000,"station_id":"ce4bhi12rcd13ifvqfo0","pricing_plan_id":"cebpf4jnsgd1na2vs0mg"},{"bike_id":"3980d76b-e904-45ba-9bbd-4ee10919b44c","system_id":"levelo_inurba_marseille","lat":43.31067,"lon":5.38155,"is_reserved":false,"is_disabled":false,"rental_uris":{"android":"levelo://app?vid=3980d76b-e904-45ba-9bbd-4ee10919b44c","ios":"levelo://app?vid=3980d76b-e904-45ba-9bbd-4ee10919b44c"},"vehicle_type_id":"4","last_reported":1747508865,"current_range_meters":12400,"station_id":"","pricing_plan_id":"cebpf4jnsgd1na2vs0mg"},{"bike_id":"2ae924da-09c5-45b5-a959-ea584d25f981","system_id":"levelo_inurba_marseille","lat":43.299645,"lon":5.365786,"is_reserved":false,"is_disabled":false,"rental_uris":{"android":"levelo://app?vid=2ae924da-09c5-45b5-a959-ea584d25f981","ios":"levelo://app?vid=2ae924da-09c5-45b5-a959-ea584d25f981"},"vehicle_type_id":"4","last_reported":1747508865,"current_range_meters":12400,"station_id":"ce4bgm92rcd13ifvqbr0","pricing_plan_id":"cebpf4jnsgd1na2vs0mg"},{"bike_id":"9dbba1b7-fc63-4e4c-9eb3-be0648ca56a6","system_id":"levelo_inurba_marseille","lat":43.31726,"lon":5.42392,"is_reserved":false,"is_disabled":false,"rental_uris":{"android":"levelo://app?vid=9dbba1b7-fc63-4e4c-9eb3-be0648ca56a6","ios":"levelo://app?vid=9dbba1b7-fc63-4e4c-9eb3-be0648ca56a6"},"vehicle_type_id":"4","last_reported":1747508865,"current_range_meters":12400,"station_id":"ce4bhp92rcd13ifvqhbg","pricing_plan_id":"cebpf4jnsgd1na2vs0mg"},{"bike_id":"d1f0818a-c57d-456e-a824-2cfbb360f9e5","system_id":"levelo_inurba_marseille","lat":43.298,"lon":5.38092,"is_reserved":false,"is_disabled":false,"rental_uris":{"android":"levelo://app?vid=d1f0818a-c57d-456e-a824-2cfbb360f9e5","ios":"levelo://app?vid=d1f0818a-c57d-456e-a824-2cfbb360f9e5"},"vehicle_type_id":"4","last_reported":1747508865,"current_range_meters":12800,"station_id":"ce4bgip2rcd13ifvqbb0","pricing_plan_id":"cebpf4jnsgd1na2vs0mg"},{"bike_id":"f1048496-1bad-4ee4-bd22-cfe9455b0496","system_id":"levelo_inurba_marseille","lat":43.29939,"lon":5.36534,"is_reserved":false,"is_disabled":false,"rental_uris":{"android":"levelo://app?vid=f1048496-1bad-4ee4-bd22-cfe9455b0496","ios":"levelo://app?vid=f1048496-1bad-4ee4-bd22-cfe9455b0496"},"vehicle_type_id":"4","last_reported":1747508865,"current_range_meters":12800,"station_id":"ce4bgm92rcd13ifvqbr0","pricing_plan_id":"cebpf4jnsgd1na2vs0mg"},{"bike_id":"dd178092-32ce-4247-bd9a-1da0d3f846aa","system_id":"levelo_inurba_marseille","lat":43.29647,"lon":5.37171,"is_reserved":false,"is_disabled":false,"rental_uris":{"android":"levelo://app?vid=dd178092-32ce-4247-bd9a-1da0d3f846aa","ios":"levelo://app?vid=dd178092-32ce-4247-bd9a-1da0d3f846aa"},"vehicle_type_id":"4","last_reported":1747508865,"current_range_meters":12800,"station_id":"ce4bgnh2rcd13ifvqc0g","pricing_plan_id":"cebpf4jnsgd1na2vs0mg"},{"bike_id":"2dcd9dca-06e0-4888-88d7-8def1cbafe06","system_id":"levelo_inurba_marseille","lat":43.29579,"lon":5.36718,"is_reserved":false,"is_disabled":false,"rental_uris":{"android":"levelo://app?vid=2dcd9dca-06e0-4888-88d7-8def1cbafe06","ios":"levelo://app?vid=2dcd9dca-06e0-4888-88d7-8def1cbafe06"},"vehicle_type_id":"4","last_reported":1747508865,"current_range_meters":12800,"station_id":"ce4bgph2rcd13ifvqc2g","pricing_plan_id":"cebpf4jnsgd1na2vs0mg"},{"bike_id":"c043cee6-85ee-4a05-886e-d2a425ffcb70","system_id":"levelo_inurba_marseille","lat":43.31324,"lon":5.39696,"is_reserved":false,"is_disabled":false,"rental_uris":{"android":"levelo://app?vid=c043cee6-85ee-4a05-886e-d2a425ffcb70","ios":"levelo://app?vid=c043cee6-85ee-4a05-886e-d2a425ffcb70"},"vehicle_type_id":"4","last_reported":1747508865,"current_range_meters":12800,"station_id":"ce4bgvp2rcd13ifvqcu0","pricing_plan_id":"cebpf4jnsgd1na2vs0mg"},{"bike_id":"792c9dbd-158e-4661-91d4-2c1ed379e655","system_id":"levelo_inurba_marseille","lat":43.2467,"lon":5.38178,"is_reserved":false,"is_disabled":false,"rental_uris":{"android":"levelo://app?vid=792c9dbd-158e-4661-91d4-2c1ed379e655","ios":"levelo://app?vid=792c9dbd-158e-4661-91d4-2c1ed379e655"},"vehicle_type_id":"4","last_reported":1747508865,"current_range_meters":12800,"station_id":"ce4bhih2rcd13ifvqfr0","pricing_plan_id":"cebpf4jnsgd1na2vs0mg"},{"bike_id":"245842b5-57db-4495-8e93-09ac47ef0fb2","system_id":"levelo_inurba_marseille","lat":43.303306,"lon":5.404383,"is_reserved":false,"is_disabled":false,"rental_uris":{"android":"levelo://app?vid=245842b5-57db-4495-8e93-09ac47ef0fb2","ios":"levelo://app?vid=245842b5-57db-4495-8e93-09ac47ef0fb2"},"vehicle_type_id":"4","last_reported":1747508865,"current_range_meters":13600,"station_id":"ce4bh012rcd13ifvqd10","pricing_plan_id":"cebpf4jnsgd1na2vs0mg"},{"bike_id":"1e43172a-9346-4c1b-8269-c58aa85d54ce","system_id":"levelo_inurba_marseille","lat":43.29089,"lon":5.38117,"is_reserved":false,"is_disabled":false,"rental_uris":{"android":"levelo://app?vid=1e43172a-9346-4c1b-8269-c58aa85d54ce","ios":"levelo://app?vid=1e43172a-9346-4c1b-8269-c58aa85d54ce"},"vehicle_type_id":"4","last_reported":1747508865,"current_range_meters":13600,"station_id":"ce4bh512rcd13ifvqe2g","pricing_plan_id":"cebpf4jnsgd1na2vs0mg"},{"bike_id":"9535e810-033b-4ffc-935b-3cde38c5f5d2","system_id":"levelo_inurba_marseille","lat":43.29075,"lon":5.37181,"is_reserved":false,"is_disabled":false,"rental_uris":{"android":"levelo://app?vid=9535e810-033b-4ffc-935b-3cde38c5f5d2","ios":"levelo://app?vid=9535e810-033b-4ffc-935b-3cde38c5f5d2"},"vehicle_type_id":"4","last_reported":1747508865,"current_range_meters":13600,"station_id":"ce4bh5p2rcd13ifvqe4g","pricing_plan_id":"cebpf4jnsgd1na2vs0mg"},{"bike_id":"68552e02-e8c8-4064-9632-7772370886f0","system_id":"levelo_inurba_marseille","lat":43.31677,"lon":5.37337,"is_reserved":false,"is_disabled":false,"rental_uris":{"android":"levelo://app?vid=68552e02-e8c8-4064-9632-7772370886f0","ios":"levelo://app?vid=68552e02-e8c8-4064-9632-7772370886f0"},"vehicle_type_id":"4","last_reported":1747508865,"current_range_meters":14000,"station_id":"","pricing_plan_id":"cebpf4jnsgd1na2vs0mg"},{"bike_id":"33179a5d-fa02-4780-a9de-03f30cf0892c","system_id":"levelo_inurba_marseille","lat":43.29619,"lon":5.37739,"is_reserved":false,"is_disabled":false,"rental_uris":{"android":"levelo://app?vid=33179a5d-fa02-4780-a9de-03f30cf0892c","ios":"levelo://app?vid=33179a5d-fa02-4780-a9de-03f30cf0892c"},"vehicle_type_id":"4","last_reported":1747508865,"current_range_meters":14000,"station_id":"ce4bgi92rcd13ifvqb90","pricing_plan_id":"cebpf4jnsgd1na2vs0mg"},{"bike_id":"85b04771-8958-4fc8-9d53-c8d4bd350b71","system_id":"levelo_inurba_marseille","lat":43.299713,"lon":5.384869,"is_reserved":false,"is_disabled":false,"rental_uris":{"android":"levelo://app?vid=85b04771-8958-4fc8-9d53-c8d4bd350b71","ios":"levelo://app?vid=85b04771-8958-4fc8-9d53-c8d4bd350b71"},"vehicle_type_id":"4","last_reported":1747508865,"current_range_meters":14000,"station_id":"ce4bgj92rcd13ifvqbd0","pricing_plan_id":"cebpf4jnsgd1na2vs0mg"},{"bike_id":"c5ddb572-22d8-4ba5-8736-5dc6eed67101","system_id":"levelo_inurba_marseille","lat":43.30313,"lon":5.36899,"is_reserved":false,"is_disabled":false,"rental_uris":{"android":"levelo://app?vid=c5ddb572-22d8-4ba5-8736-5dc6eed67101","ios":"levelo://app?vid=c5ddb572-22d8-4ba5-8736-5dc6eed67101"},"vehicle_type_id":"4","last_reported":1747508865,"current_range_meters":14000,"station_id":"ce4bgqh2rcd13ifvqc5g","pricing_plan_id":"cebpf4jnsgd1na2vs0mg"},{"bike_id":"053f7383-cba3-441d-b188-84fde78a8153","system_id":"levelo_inurba_marseille","lat":43.27418,"lon":5.39416,"is_reserved":false,"is_disabled":false,"rental_uris":{"android":"levelo://app?vid=053f7383-cba3-441d-b188-84fde78a8153","ios":"levelo://app?vid=053f7383-cba3-441d-b188-84fde78a8153"},"vehicle_type_id":"4","last_reported":1747508865,"current_range_meters":14000,"station_id":"ce4bhdp2rcd13ifvqf20","pricing_plan_id":"cebpf4jnsgd1na2vs0mg"},{"bike_id":"9a9efadb-fc6e-45d4-a4e0-bd32b0f1da46","system_id":"levelo_inurba_marseille","lat":43.27961,"lon":5.38738,"is_reserved":false,"is_disabled":false,"rental_uris":{"android":"levelo://app?vid=9a9efadb-fc6e-45d4-a4e0-bd32b0f1da46","ios":"levelo://app?vid=9a9efadb-fc6e-45d4-a4e0-bd32b0f1da46"},"vehicle_type_id":"4","last_reported":1747508865,"current_range_meters":14000,"station_id":"ce4bhg12rcd13ifvqf80","pricing_plan_id":"cebpf4jnsgd1na2vs0mg"},{"bike_id":"8ec5b191-2995-4ff1-9eba-c6dab6c95aa6","system_id":"levelo_inurba_marseille","lat":43.27316,"lon":5.39093,"is_reserved":false,"is_disabled":false,"rental_uris":{"android":"levelo://app?vid=8ec5b191-2995-4ff1-9eba-c6dab6c95aa6","ios":"levelo://app?vid=8ec5b191-2995-4ff1-9eba-c6dab6c95aa6"},"vehicle_type_id":"4","last_reported":1747508865,"current_range_meters":14000,"station_id":"ce4bhgp2rcd13ifvqfe0","pricing_plan_id":"cebpf4jnsgd1na2vs0mg"},{"bike_id":"8d3ba799-4866-4e13-8f0a-753a801550a2","system_id":"levelo_inurba_marseille","lat":43.27305,"lon":5.39095,"is_reserved":false,"is_disabled":false,"rental_uris":{"android":"levelo://app?vid=8d3ba799-4866-4e13-8f0a-753a801550a2","ios":"levelo://app?vid=8d3ba799-4866-4e13-8f0a-753a801550a2"},"vehicle_type_id":"4","last_reported":1747508865,"current_range_meters":14000,"station_id":"ce4bhgp2rcd13ifvqfe0","pricing_plan_id":"cebpf4jnsgd1na2vs0mg"},{"bike_id":"09b3eb29-a917-4cfd-803f-f199cab89b4d","system_id":"levelo_inurba_marseille","lat":43.25537,"lon":5.37665,"is_reserved":false,"is_disabled":false,"rental_uris":{"android":"levelo://app?vid=09b3eb29-a917-4cfd-803f-f199cab89b4d","ios":"levelo://app?vid=09b3eb29-a917-4cfd-803f-f199cab89b4d"},"vehicle_type_id":"4","last_reported":1747508865,"current_range_meters":14000,"station_id":"ce4bhh12rcd13ifvqff0","pricing_plan_id":"cebpf4jnsgd1na2vs0mg"},{"bike_id":"64112e14-f93f-4a9c-8e75-f0b86fe02be3","system_id":"levelo_inurba_marseille","lat":43.29867,"lon":5.36282,"is_reserved":false,"is_disabled":false,"rental_uris":{"android":"levelo://app?vid=64112e14-f93f-4a9c-8e75-f0b86fe02be3","ios":"levelo://app?vid=64112e14-f93f-4a9c-8e75-f0b86fe02be3"},"vehicle_type_id":"4","last_reported":1747508865,"current_range_meters":14400,"station_id":"ce4bgpp2rcd13ifvqc3g","pricing_plan_id":"cebpf4jnsgd1na2vs0mg"},{"bike_id":"15caac30-ff34-4eb5-8b2f-9dbe2d10cb47","system_id":"levelo_inurba_marseille","lat":43.30892,"lon":5.39653,"is_reserved":false,"is_disabled":false,"rental_uris":{"android":"levelo://app?vid=15caac30-ff34-4eb5-8b2f-9dbe2d10cb47","ios":"levelo://app?vid=15caac30-ff34-4eb5-8b2f-9dbe2d10cb47"},"vehicle_type_id":"4","last_reported":1747508865,"current_range_meters":14400,"station_id":"ce4bh012rcd13ifvqcv0","pricing_plan_id":"cebpf4jnsgd1na2vs0mg"},{"bike_id":"bf93b8e5-a0b9-4edc-b782-cf27eae5c686","system_id":"levelo_inurba_marseille","lat":43.28716,"lon":5.37948,"is_reserved":false,"is_disabled":false,"rental_uris":{"android":"levelo://app?vid=bf93b8e5-a0b9-4edc-b782-cf27eae5c686","ios":"levelo://app?vid=bf93b8e5-a0b9-4edc-b782-cf27eae5c686"},"vehicle_type_id":"4","last_reported":1747508865,"current_range_meters":14400,"station_id":"ce4bh9p2rcd13ifvqec0","pricing_plan_id":"cebpf4jnsgd1na2vs0mg"},{"bike_id":"2a46a27d-d648-4495-8e85-ee20cdd16b9f","system_id":"levelo_inurba_marseille","lat":43.27983,"lon":5.3873,"is_reserved":false,"is_disabled":false,"rental_uris":{"android":"levelo://app?vid=2a46a27d-d648-4495-8e85-ee20cdd16b9f","ios":"levelo://app?vid=2a46a27d-d648-4495-8e85-ee20cdd16b9f"},"vehicle_type_id":"4","last_reported":1747508865,"current_range_meters":14400,"station_id":"ce4bhg12rcd13ifvqf80","pricing_plan_id":"cebpf4jnsgd1na2vs0mg"},{"bike_id":"64eaddc9-1e45-4998-b16f-5d0997b71b0d","system_id":"levelo_inurba_marseille","lat":43.30792,"lon":5.43533,"is_reserved":false,"is_disabled":false,"rental_uris":{"android":"levelo://app?vid=64eaddc9-1e45-4998-b16f-5d0997b71b0d","ios":"levelo://app?vid=64eaddc9-1e45-4998-b16f-5d0997b71b0d"},"vehicle_type_id":"4","last_reported":1747508865,"current_range_meters":14400,"station_id":"ce4bhph2rcd13ifvqheg","pricing_plan_id":"cebpf4jnsgd1na2vs0mg"},{"bike_id":"88de6b1d-aed1-4f1e-8a95-f4ad2364e003","system_id":"levelo_inurba_marseille","lat":43.23198,"lon":5.35546,"is_reserved":false,"is_disabled":false,"rental_uris":{"android":"levelo://app?vid=88de6b1d-aed1-4f1e-8a95-f4ad2364e003","ios":"levelo://app?vid=88de6b1d-aed1-4f1e-8a95-f4ad2364e003"},"vehicle_type_id":"4","last_reported":1747508865,"current_range_meters":14400,"station_id":"ce4bhu92rcd13ifvqi70","pricing_plan_id":"cebpf4jnsgd1na2vs0mg"},{"bike_id":"4c57dbdf-50cf-400e-856c-02f38b605415","system_id":"levelo_inurba_marseille","lat":43.29946,"lon":5.36524,"is_reserved":false,"is_disabled":false,"rental_uris":{"android":"levelo://app?vid=4c57dbdf-50cf-400e-856c-02f38b605415","ios":"levelo://app?vid=4c57dbdf-50cf-400e-856c-02f38b605415"},"vehicle_type_id":"4","last_reported":1747508865,"current_range_meters":14800,"station_id":"ce4bgm92rcd13ifvqbr0","pricing_plan_id":"cebpf4jnsgd1na2vs0mg"},{"bike_id":"f4f4a8be-72dd-4230-bfaf-80cab08b9b44","system_id":"levelo_inurba_marseille","lat":43.28709,"lon":5.39989,"is_reserved":false,"is_disabled":false,"rental_uris":{"android":"levelo://app?vid=f4f4a8be-72dd-4230-bfaf-80cab08b9b44","ios":"levelo://app?vid=f4f4a8be-72dd-4230-bfaf-80cab08b9b44"},"vehicle_type_id":"4","last_reported":1747508865,"current_range_meters":14800,"station_id":"ce4bho92rcd13ifvqh3g","pricing_plan_id":"cebpf4jnsgd1na2vs0mg"},{"bike_id":"a96c8754-34a3-48c5-9526-f6d1b9a50eb1","system_id":"levelo_inurba_marseille","lat":43.2694,"lon":5.40246,"is_reserved":false,"is_disabled":false,"rental_uris":{"android":"levelo://app?vid=a96c8754-34a3-48c5-9526-f6d1b9a50eb1","ios":"levelo://app?vid=a96c8754-34a3-48c5-9526-f6d1b9a50eb1"},"vehicle_type_id":"4","last_reported":1747508865,"current_range_meters":14800,"station_id":"cjm6bp8fraef2m0cb0m0","pricing_plan_id":"cebpf4jnsgd1na2vs0mg"},{"bike_id":"9e1a5fd5-2836-4dd0-918f-7584c78cf495","system_id":"levelo_inurba_marseille","lat":43.29856,"lon":5.36266,"is_reserved":false,"is_disabled":false,"rental_uris":{"android":"levelo://app?vid=9e1a5fd5-2836-4dd0-918f-7584c78cf495","ios":"levelo://app?vid=9e1a5fd5-2836-4dd0-918f-7584c78cf495"},"vehicle_type_id":"4","last_reported":1747508865,"current_range_meters":15200,"station_id":"ce4bgpp2rcd13ifvqc3g","pricing_plan_id":"cebpf4jnsgd1na2vs0mg"},{"bike_id":"e85ea5a3-c600-4d97-89a6-282ae9b8ec21","system_id":"levelo_inurba_marseille","lat":43.29072,"lon":5.37175,"is_reserved":false,"is_disabled":false,"rental_uris":{"android":"levelo://app?vid=e85ea5a3-c600-4d97-89a6-282ae9b8ec21","ios":"levelo://app?vid=e85ea5a3-c600-4d97-89a6-282ae9b8ec21"},"vehicle_type_id":"4","last_reported":1747508865,"current_range_meters":15200,"station_id":"ce4bh5p2rcd13ifvqe4g","pricing_plan_id":"cebpf4jnsgd1na2vs0mg"},{"bike_id":"3c298de3-f377-4113-ae09-165c7f68790b","system_id":"levelo_inurba_marseille","lat":43.29224,"lon":5.36073,"is_reserved":false,"is_disabled":false,"rental_uris":{"android":"levelo://app?vid=3c298de3-f377-4113-ae09-165c7f68790b","ios":"levelo://app?vid=3c298de3-f377-4113-ae09-165c7f68790b"},"vehicle_type_id":"4","last_reported":1747508865,"current_range_meters":15200,"station_id":"ce4bhbh2rcd13ifvqeqg","pricing_plan_id":"cebpf4jnsgd1na2vs0mg"},{"bike_id":"90c9ab93-415b-4dd6-875c-58be1317fabd","system_id":"levelo_inurba_marseille","lat":43.27209,"lon":5.39168,"is_reserved":false,"is_disabled":false,"rental_uris":{"android":"levelo://app?vid=90c9ab93-415b-4dd6-875c-58be1317fabd","ios":"levelo://app?vid=90c9ab93-415b-4dd6-875c-58be1317fabd"},"vehicle_type_id":"4","last_reported":1747508865,"current_range_meters":15200,"station_id":"ce4bhhp2rcd13ifvqfm0","pricing_plan_id":"cebpf4jnsgd1na2vs0mg"},