{"last_updated":1770133124,"ttl":60,"version":"2.2","data":{"bikes":[{"bike_id":"d6a7e170-7946-4998-88a5-579cf00a4f9b","system_id":"levelo_inurba_marseille","lat":43.30253,"lon":5.40067,"is_reserved":false,"is_disabled":false,"rental_uris":{"android":"levelo://app?vid=d6a7e170-7946-4998-88a5-579cf00a4f9b","ios":"levelo://app?vid=d6a7e170-7946-4998-88a5-579cf00a4f9b"},"vehicle_type_id":"4","last_reported":1770133125,"current_range_meters":2800,"station_id":"ce4bgvh2rcd13ifvqcs0","pricing_plan_id":"cebpf4jnsgd1na2vs0mg"},{"bike_id":"7e567cb1-411f-4130-9ab9-882ef09e802a","system_id":"levelo_inurba_marseille","lat":43.25086,"lon":5.39511,"is_reserved":false,"is_disabled":false,"rental_uris":{"android":"levelo://app?vid=7e567cb1-411f-4130-9ab9-882ef09e802a","ios":"levelo://app?vid=7e567cb1-411f-4130-9ab9-882ef09e802a"},"vehicle_type_id":"4","last_reported":1770133125,"current_range_meters":2800,"station_id":"ce4bhm12rcd13ifvqgkg","pricing_plan_id":"cebpf4jnsgd1na2vs0mg"},{"bike_id":"658d0b20-6292-4d6c-85b2-b3938e69fd12","system_id":"levelo_inurba_marseille","lat":43.28246,"lon":5.38531,"is_reserved":false,"is_disabled":false,"rental_uris":{"android":"levelo://app?vid=658d0b20-6292-4d6c-85b2-b3938e69fd12","ios":"levelo://app?vid=658d0b20-6292-4d6c-85b2-b3938e69fd12"},"vehicle_type_id":"4","last_reported":1770133125,"current_range_meters":2800,"station_id":"","pricing_plan_id":"cebpf4jnsgd1na2vs0mg"},{"bike_id":"45974f34-e472-4045-a75f-a1085a5f89fa","system_id":"levelo_inurba_marseille","lat":43.25075,"lon":5.39504,"is_reserved":false,"is_disabled":false,"rental_uris":{"android":"levelo://app?vid=45974f34-e472-4045-a75f-a1085a5f89fa","ios":"levelo://app?vid=45974f34-e472-4045-a75f-a1085a5f89fa"},"vehicle_type_id":"4","last_reported":1770133125,"current_range_meters":2800,"station_id":"ce4bhm12rcd13ifvqgkg","pricing_plan_id":"cebpf4jnsgd1na2vs0mg"},{"bike_id":"a1fd3577-3cc5-4124-9918-81c96c0db520","system_id":"levelo_inurba_marseille","lat":43.2961,"lon":5.37734,"is_reserved":false,"is_disabled":false,"rental_uris":{"android":"levelo://app?vid=a1fd3577-3cc5-4124-9918-81c96c0db520","ios":"levelo://app?vid=a1fd3577-3cc5-4124-9918-81c96c0db520"},"vehicle_type_id":"4","last_reported":1770133125,"current_range_meters":2800,"station_id":"ce4bgi92rcd13ifvqb90","pricing_plan_id":"cebpf4jnsgd1na2vs0mg"},{"bike_id":"448aac68-1f9e-4017-99cd-3bab5b285023","system_id":"levelo_inurba_marseille","lat":43.27364,"lon":5.36255,"is_reserved":false,"is_disabled":false,"rental_uris":{"android":"levelo://app?vid=448aac68-1f9e-4017-99cd-3bab5b285023","ios":"levelo://app?vid=448aac68-1f9e-4017-99cd-3bab5b285023"},"vehicle_type_id":"4","last_reported":1770133125,"current_range_meters":3200,"station_id":"ce4bhbh2rcd13ifvqeo0","pricing_plan_id":"cebpf4jnsgd1na2vs0mg"},{"bike_id":"225e9d09-83ee-4f1c-a930-a97429c83cb7","system_id":"levelo_inurba_marseille","lat":43.23197,"lon":5.35545,"is_reserved":false,"is_disabled":false,"rental_uris":{"android":"levelo://app?vid=225e9d09-83ee-4f1c-a930-a97429c83cb7","ios":"levelo://app?vid=225e9d09-83ee-4f1c-a930-a97429c83cb7"},"vehicle_type_id":"4","last_reported":1770133125,"current_range_meters":3200,"station_id":"ce4bhu92rcd13ifvqi70","pricing_plan_id":"cebpf4jnsgd1na2vs0mg"},{"bike_id":"6a131f0d-6128-445c-99a5-319bcf3a622a","system_id":"levelo_inurba_marseille","lat":43.28499,"lon":5.48389,"is_reserved":false,"is_disabled":false,"rental_uris":{"android":"levelo://app?vid=6a131f0d-6128-445c-99a5-319bcf3a622a","ios":"levelo://app?vid=6a131f0d-6128-445c-99a5-319bcf3a622a"},"vehicle_type_id":"4","last_reported":1770133125,"current_range_meters":3200,"station_id":"st_d3svhcjqgbts73a3dn0g","pricing_plan_id":"cebpf4jnsgd1na2vs0mg"},{"bike_id":"91604460-68c0-4492-894c-a238619d1f72","system_id":"levelo_inurba_marseille","lat":43.23194,"lon":5.35545,"is_reserved":false,"is_disabled":false,"rental_uris":{"android":"levelo://app?vid=91604460-68c0-4492-894c-a238619d1f72","ios":"levelo://app?vid=91604460-68c0-4492-894c-a238619d1f72"},"vehicle_type_id":"4","last_reported":1770133125,"current_range_meters":3200,"station_id":"ce4bhu92rcd13ifvqi70","pricing_plan_id":"cebpf4jnsgd1na2vs0mg"},{"bike_id":"9b88fd27-e984-4d47-a1cb-c509cbeae0be","system_id":"levelo_inurba_marseille","lat":43.28,"lon":5.40003,"is_reserved":false,"is_disabled":false,"rental_uris":{"android":"levelo://app?vid=9b88fd27-e984-4d47-a1cb-c509cbeae0be","ios":"levelo://app?vid=9b88fd27-e984-4d47-a1cb-c509cbeae0be"},"vehicle_type_id":"4","last_reported":1770133125,"current_range_meters":3600,"station_id":"ce4bho92rcd13ifvqh4g","pricing_plan_id":"cebpf4jnsgd1na2vs0mg"},{"bike_id":"31cf9375-5a9e-47f5-8fdb-df8689e21572","system_id":"levelo_inurba_marseille","lat":43.29628,"lon":5.37174,"is_reserved":false,"is_disabled":false,"rental_uris":{"android":"levelo://app?vid=31cf9375-5a9e-47f5-8fdb-df8689e21572","ios":"levelo://app?vid=31cf9375-5a9e-47f5-8fdb-df8689e21572"},"vehicle_type_id":"4","last_reported":1770133125,"current_range_meters":3600,"station_id":"ce4bgnh2rcd13ifvqc0g","pricing_plan_id":"cebpf4jnsgd1na2vs0mg"},{"bike_id":"a8beb464-d9b6-4781-aa93-0dbe0284570d","system_id":"levelo_inurba_marseille","lat":43.27625,"lon":5.36117,"is_reserved":false,"is_disabled":false,"rental_uris":{"android":"levelo://app?vid=a8beb464-d9b6-4781-aa93-0dbe0284570d","ios":"levelo://app?vid=a8beb464-d9b6-4781-aa93-0dbe0284570d"},"vehicle_type_id":"4","last_reported":1770133125,"current_range_meters":3600,"station_id":"ce4bgj92rcd13ifvqbe0","pricing_plan_id":"cebpf4jnsgd1na2vs0mg"},{"bike_id":"1e8cac79-2b22-4bdd-895d-e0ede6ab4b58","system_id":"levelo_inurba_marseille","lat":43.30543,"lon":5.3655,"is_reserved":false,"is_disabled":false,"rental_uris":{"android":"levelo://app?vid=1e8cac79-2b22-4bdd-895d-e0ede6ab4b58","ios":"levelo://app?vid=1e8cac79-2b22-4bdd-895d-e0ede6ab4b58"},"vehicle_type_id":"4","last_reported":1770133125,"current_range_meters":3600,"station_id":"ce4bgs12rcd13ifvqcag","pricing_plan_id":"cebpf4jnsgd1na2vs0mg"},{"bike_id":"d7b17f85-1817-4125-b49e-d72744f84ef7","system_id":"levelo_inurba_marseille","lat":43.28673,"lon":5.38672,"is_reserved":false,"is_disabled":false,"rental_uris":{"android":"levelo://app?vid=d7b17f85-1817-4125-b49e-d72744f84ef7","ios":"levelo://app?vid=d7b17f85-1817-4125-b49e-d72744f84ef7"},"vehicle_type_id":"4","last_reported":1770133125,"current_range_meters":3600,"station_id":"ce4bh492rcd13ifvqdug","pricing_plan_id":"cebpf4jnsgd1na2vs0mg"},{"bike_id":"fe724a3b-d714-4e93-82f4-9a3d376b9221","system_id":"levelo_inurba_marseille","lat":43.28271,"lon":5.35066,"is_reserved":false,"is_disabled":false,"rental_uris":{"android":"levelo://app?vid=fe724a3b-d714-4e93-82f4-9a3d376b9221","ios":"levelo://app?vid=fe724a3b-d714-4e93-82f4-9a3d376b9221"},"vehicle_type_id":"4","last_reported":1770133125,"current_range_meters":3600,"station_id":"ce4bhbp2rcd13ifvqerg","pricing_plan_id":"cebpf4jnsgd1na2vs0mg"},{"bike_id":"3dccfbc0-21a3-4f00-9a17-1cc5f408fc31","system_id":"levelo_inurba_marseille","lat":43.26939,"lon":5.40259,"is_reserved":false,"is_disabled":false,"rental_uris":{"android":"levelo://app?vid=3dccfbc0-21a3-4f00-9a17-1cc5f408fc31","ios":"levelo://app?vid=3dccfbc0-21a3-4f00-9a17-1cc5f408fc31"},"vehicle_type_id":"4","last_reported":1770133125,"current_range_meters":4000,"station_id":"cjm6bp8fraef2m0cb0m0","pricing_plan_id":"cebpf4jnsgd1na2vs0mg"},{"bike_id":"4aac712a-d797-46b0-a676-6be6010a5311","system_id":"levelo_inurba_marseille","lat":43.30214,"lon":5.39466,"is_reserved":false,"is_disabled":false,"rental_uris":{"android":"levelo://app?vid=4aac712a-d797-46b0-a676-6be6010a5311","ios":"levelo://app?vid=4aac712a-d797-46b0-a676-6be6010a5311"},"vehicle_type_id":"4","last_reported":1770133125,"current_range_meters":4000,"station_id":"ce4bh0p2rcd13ifvqd70","pricing_plan_id":"cebpf4jnsgd1na2vs0mg"},{"bike_id":"664d2af6-54a1-4fd6-87e2-5fbb34567155","system_id":"levelo_inurba_marseille","lat":43.26958,"lon":5.38633,"is_reserved":false,"is_disabled":false,"rental_uris":{"android":"levelo://app?vid=664d2af6-54a1-4fd6-87e2-5fbb34567155","ios":"levelo://app?vid=664d2af6-54a1-4fd6-87e2-5fbb34567155"},"vehicle_type_id":"4","last_reported":1770133125,"current_range_meters":4000,"station_id":"ce4bhh92rcd13ifvqfh0","pricing_plan_id":"cebpf4jnsgd1na2vs0mg"},{"bike_id":"eda11006-539d-4ac5-b351-07bd6d27fd10","system_id":"levelo_inurba_marseille","lat":43.2793,"lon":5.3956,"is_reserved":false,"is_disabled":false,"rental_uris":{"android":"levelo://app?vid=eda11006-539d-4ac5-b351-07bd6d27fd10","ios":"levelo://app?vid=eda11006-539d-4ac5-b351-07bd6d27fd10"},"vehicle_type_id":"4","last_reported":1770133125,"current_range_meters":4000,"station_id":"ce4bhf92rcd13ifvqf40","pricing_plan_id":"cebpf4jnsgd1na2vs0mg"},{"bike_id":"75d6e842-cbda-4b63-9ab8-49199bf74e6e","system_id":"levelo_inurba_marseille","lat":43.24676,"lon":5.38131,"is_reserved":false,"is_disabled":false,"rental_uris":{"android":"levelo://app?vid=75d6e842-cbda-4b63-9ab8-49199bf74e6e","ios":"levelo://app?vid=75d6e842-cbda-4b63-9ab8-49199bf74e6e"},"vehicle_type_id":"4","last_reported":1770133125,"current_range_meters":4000,"station_id":"ce4bhih2rcd13ifvqfr0","pricing_plan_id":"cebpf4jnsgd1na2vs0mg"},{"bike_id":"b8b2b9f0-ad4e-4365-8853-3528d8191b39","system_id":"levelo_inurba_marseille","lat":43.33028,"lon":5.39032,"is_reserved":false,"is_disabled":false,"rental_uris":{"android":"levelo://app?vid=b8b2b9f0-ad4e-4365-8853-3528d8191b39","ios":"levelo://app?vid=b8b2b9f0-ad4e-4365-8853-3528d8191b39"},"vehicle_type_id":"4","last_reported":1770133125,"current_range_meters":4000,"station_id":"ce4bhr92rcd13ifvqhrg","pricing_plan_id":"cebpf4jnsgd1na2vs0mg"},{"bike_id":"fb6d0c92-aa07-41c5-bb64-ff22908e7b14","system_id":"levelo_inurba_marseille","lat":43.3354,"lon":5.37497,"is_reserved":false,"is_disabled":false,"rental_uris":{"android":"levelo://app?vid=fb6d0c92-aa07-41c5-bb64-ff22908e7b14","ios":"levelo://app?vid=fb6d0c92-aa07-41c5-bb64-ff22908e7b14"},"vehicle_type_id":"4","last_reported":1770133125,"current_range_meters":4000,"station_id":"st_d46tts09ee8s73dlu43g","pricing_plan_id":"cebpf4jnsgd1na2vs0mg"},{"bike_id":"3b15ef1d-d491-4377-b134-a5b139ed4414","system_id":"levelo_inurba_marseille","lat":43.293915,"lon":5.374287,"is_reserved":false,"is_disabled":false,"rental_uris":{"android":"levelo://app?vid=3b15ef1d-d491-4377-b134-a5b139ed4414","ios":"levelo://app?vid=3b15ef1d-d491-4377-b134-a5b139ed4414"},"vehicle_type_id":"4","last_reported":1770133125,"current_range_meters":4400,"station_id":"","pricing_plan_id":"cebpf4jnsgd1na2vs0mg"},{"bike_id":"c9492000-f5aa-45cf-8310-a78df83fbf58","system_id":"levelo_inurba_marseille","lat":43.29264,"lon":5.38442,"is_reserved":false,"is_disabled":false,"rental_uris":{"android":"levelo://app?vid=c9492000-f5aa-45cf-8310-a78df83fbf58","ios":"levelo://app?vid=c9492000-f5aa-45cf-8310-a78df83fbf58"},"vehicle_type_id":"4","last_reported":1770133125,"current_range_meters":4400,"station_id":"ce4bh692rcd13ifvqea0","pricing_plan_id":"cebpf4jnsgd1na2vs0mg"},{"bike_id":"b22fe20e-b31a-45b3-85d7-e7226f45b2bd","system_id":"levelo_inurba_marseille","lat":43.212013,"lon":5.350716,"is_reserved":false,"is_disabled":false,"rental_uris":{"android":"levelo://app?vid=b22fe20e-b31a-45b3-85d7-e7226f45b2bd","ios":"levelo://app?vid=b22fe20e-b31a-45b3-85d7-e7226f45b2bd"},"vehicle_type_id":"4","last_reported":1770133125,"current_range_meters":4400,"station_id":"st_cvj6sg6p6f1abm77japg","pricing_plan_id":"cebpf4jnsgd1na2vs0mg"},{"bike_id":"b4890122-8e44-4c5f-bd5c-7fe9f82b9090","system_id":"levelo_inurba_marseille","lat":43.29612,"lon":5.37757,"is_reserved":false,"is_disabled":false,"rental_uris":{"android":"levelo://app?vid=b4890122-8e44-4c5f-bd5c-7fe9f82b9090","ios":"levelo://app?vid=b4890122-8e44-4c5f-bd5c-7fe9f82b9090"},"vehicle_type_id":"4","last_reported":1770133125,"current_range_meters":4400,"station_id":"ce4bgi92rcd13ifvqb90","pricing_plan_id":"cebpf4jnsgd1na2vs0mg"},{"bike_id":"0a6292f7-50dd-43c2-b393-e08dde080051","system_id":"levelo_inurba_marseille","lat":43.2661,"lon":5.39015,"is_reserved":false,"is_disabled":false,"rental_uris":{"android":"levelo://app?vid=0a6292f7-50dd-43c2-b393-e08dde080051","ios":"levelo://app?vid=0a6292f7-50dd-43c2-b393-e08dde080051"},"vehicle_type_id":"4","last_reported":1770133125,"current_range_meters":4400,"station_id":"","pricing_plan_id":"cebpf4jnsgd1na2vs0mg"},{"bike_id":"4dd6841e-e470-4207-bb73-65a47c0e81c5","system_id":"levelo_inurba_marseille","lat":43.31158,"lon":5.38022,"is_reserved":false,"is_disabled":false,"rental_uris":{"android":"levelo://app?vid=4dd6841e-e470-4207-bb73-65a47c0e81c5","ios":"levelo://app?vid=4dd6841e-e470-4207-bb73-65a47c0e81c5"},"vehicle_type_id":"4","last_reported":1770133125,"current_range_meters":4400,"station_id":"","pricing_plan_id":"cebpf4jnsgd1na2vs0mg"},{"bike_id":"5dae8e7a-771c-417a-921b-2f019b85b891","system_id":"levelo_inurba_marseille","lat":43.29876,"lon":5.43684,"is_reserved":false,"is_disabled":false,"rental_uris":{"android":"levelo://app?vid=5dae8e7a-771c-417a-921b-2f019b85b891","ios":"levelo://app?vid=5dae8e7a-771c-417a-921b-2f019b85b891"},"vehicle_type_id":"4","last_reported":1770133125,"current_range_meters":4400,"station_id":"ce4bhpp2rcd13ifvqhfg","pricing_plan_id":"cebpf4jnsgd1na2vs0mg"},{"bike_id":"a4d7151c-7473-4d3b-8890-ddd758ab554d","system_id":"levelo_inurba_marseille","lat":43.24949,"lon":5.40495,"is_reserved":false,"is_disabled":false,"rental_uris":{"android":"levelo://app?vid=a4d7151c-7473-4d3b-8890-ddd758ab554d","ios":"levelo://app?vid=a4d7151c-7473-4d3b-8890-ddd758ab554d"},"vehicle_type_id":"4","last_reported":1770133125,"current_range_meters":4800,"station_id":"st_d2ngiaodas8pm72gd1h0","pricing_plan_id":"cebpf4jnsgd1na2vs0mg"},{"bike_id":"fd255415-bd36-46f6-bf79-5ae7aa4c5f1d","system_id":"levelo_inurba_marseille","lat":43.29189,"lon":5.3579,"is_reserved":false,"is_disabled":false,"rental_uris":{"android":"levelo://app?vid=fd255415-bd36-46f6-bf79-5ae7aa4c5f1d","ios":"levelo://app?vid=fd255415-bd36-46f6-bf79-5ae7aa4c5f1d"},"vehicle_type_id":"4","last_reported":1770133125,"current_range_meters":4800,"station_id":"ce4bhb12rcd13ifvqel0","pricing_plan_id":"cebpf4jnsgd1na2vs0mg"},{"bike_id":"76154380-766b-4767-81b3-83dc44f40b7b","system_id":"levelo_inurba_marseille","lat":43.3356,"lon":5.37471,"is_reserved":false,"is_disabled":false,"rental_uris":{"android":"levelo://app?vid=76154380-766b-4767-81b3-83dc44f40b7b","ios":"levelo://app?vid=76154380-766b-4767-81b3-83dc44f40b7b"},"vehicle_type_id":"4","last_reported":1770133125,"current_range_meters":4800,"station_id":"st_d46tts09ee8s73dlu43g","pricing_plan_id":"cebpf4jnsgd1na2vs0mg"},{"bike_id":"fc19dd51-abab-466a-9c15-e4e13f94f916","system_id":"levelo_inurba_marseille","lat":43.29783,"lon":5.42768,"is_reserved":false,"is_disabled":false,"rental_uris":{"android":"levelo://app?vid=fc19dd51-abab-466a-9c15-e4e13f94f916","ios":"levelo://app?vid=fc19dd51-abab-466a-9c15-e4e13f94f916"},"vehicle_type_id":"4","last_reported":1770133125,"current_range_meters":4800,"station_id":"st_d3md5207bmas73dh9klg","pricing_plan_id":"cebpf4jnsgd1na2vs0mg"},{"bike_id":"33155caa-8021-4913-a666-e828c4426fe1","system_id":"levelo_inurba_marseille","lat":43.23209,"lon":5.35527,"is_reserved":false,"is_disabled":false,"rental_uris":{"android":"levelo://app?vid=33155caa-8021-4913-a666-e828c4426fe1","ios":"levelo://app?vid=33155caa-8021-4913-a666-e828c4426fe1"},"vehicle_type_id":"4","last_reported":1770133125,"current_range_meters":4800,"station_id":"ce4bhu92rcd13ifvqi70","pricing_plan_id":"cebpf4jnsgd1na2vs0mg"},{"bike_id":"27fab638-9b04-43d2-9887-3912e98ff8d1","system_id":"levelo_inurba_marseille","lat":43.28478,"lon":5.38408,"is_reserved":false,"is_disabled":false,"rental_uris":{"android":"levelo://app?vid=27fab638-9b04-43d2-9887-3912e98ff8d1","ios":"levelo://app?vid=27fab638-9b04-43d2-9887-3912e98ff8d1"},"vehicle_type_id":"4","last_reported":1770133125,"current_range_meters":4800,"station_id":"ce4bh512rcd13ifvqe3g","pricing_plan_id":"cebpf4jnsgd1na2vs0mg"},{"bike_id":"c04d02e9-4522-4664-80d1-72f19e30f66b","system_id":"levelo_inurba_marseille","lat":43.25303,"lon":5.38587,"is_reserved":false,"is_disabled":false,"rental_uris":{"android":"levelo://app?vid=c04d02e9-4522-4664-80d1-72f19e30f66b","ios":"levelo://app?vid=c04d02e9-4522-4664-80d1-72f19e30f66b"},"vehicle_type_id":"4","last_reported":1770133125,"current_range_meters":4800,"station_id":"","pricing_plan_id":"cebpf4jnsgd1na2vs0mg"},{"bike_id":"d03d7cd3-7e68-4042-ba36-fc35b6039cc7","system_id":"levelo_inurba_marseille","lat":43.28869,"lon":5.39338,"is_reserved":false,"is_disabled":false,"rental_uris":{"android":"levelo://app?vid=d03d7cd3-7e68-4042-ba36-fc35b6039cc7","ios":"levelo://app?vid=d03d7cd3-7e68-4042-ba36-fc35b6039cc7"},"vehicle_type_id":"4","last_reported":1770133125,"current_range_meters":4800,"station_id":"ce4bh2p2rcd13ifvqdi0","pricing_plan_id":"cebpf4jnsgd1na2vs0mg"},{"bike_id":"eb1b2124-84d2-467d-b1f5-56516dcfd958","system_id":"levelo_inurba_marseille","lat":43.211954,"lon":5.350721,"is_reserved":false,"is_disabled":false,"rental_uris":{"android":"levelo://app?vid=eb1b2124-84d2-467d-b1f5-56516dcfd958","ios":"levelo://app?vid=eb1b2124-84d2-467d-b1f5-56516dcfd958"},"vehicle_type_id":"4","last_reported":1770133125,"current_range_meters":5600,"station_id":"","pricing_plan_id":"cebpf4jnsgd1na2vs0mg"},{"bike_id":"02b06200-6f0c-4fbe-a288-f34e85c983a1","system_id":"levelo_inurba_marseille","lat":43.23774,"lon":5.36633,"is_reserved":false,"is_disabled":false,"rental_uris":{"android":"levelo://app?vid=02b06200-6f0c-4fbe-a288-f34e85c983a1","ios":"levelo://app?vid=02b06200-6f0c-4fbe-a288-f34e85c983a1"},"vehicle_type_id":"4","last_reported":1770133125,"current_range_meters":5600,"station_id":"st_d3nk18o9ro0c73en2l3g","pricing_plan_id":"cebpf4jnsgd1na2vs0mg"},{"bike_id":"f57600aa-3553-4c5b-8eb9-2131032f6811","system_id":"levelo_inurba_marseille","lat":43.282096,"lon":5.390609,"is_reserved":false,"is_disabled":true,"rental_uris":{"android":"levelo://app?vid=f57600aa-3553-4c5b-8eb9-2131032f6811","ios":"levelo://app?vid=f57600aa-3553-4c5b-8eb9-2131032f6811"},"vehicle_type_id":"4","last_reported":1770133125,"current_range_meters":5600,"station_id":"ce4bhn92rcd13ifvqgsg","pricing_plan_id":"cebpf4jnsgd1na2vs0mg"},{"bike_id":"63b02aee-1d6a-499d-9cb5-6efa2ebf1a07","system_id":"levelo_inurba_marseille","lat":43.30347,"lon":5.41881,"is_reserved":false,"is_disabled":false,"rental_uris":{"android":"levelo://app?vid=63b02aee-1d6a-499d-9cb5-6efa2ebf1a07","ios":"levelo://app?vid=63b02aee-1d6a-499d-9cb5-6efa2ebf1a07"},"vehicle_type_id":"4","last_reported":1770133125,"current_range_meters":6000,"station_id":"ce4bhop2rcd13ifvqh7g","pricing_plan_id":"cebpf4jnsgd1na2vs0mg"},{"bike_id":"eee54609-a6c8-4bc7-a936-6a1b442519d3","system_id":"levelo_inurba_marseille","lat":43.31057,"lon":5.37179,"is_reserved":false,"is_disabled":false,"rental_uris":{"android":"levelo://app?vid=eee54609-a6c8-4bc7-a936-6a1b442519d3","ios":"levelo://app?vid=eee54609-a6c8-4bc7-a936-6a1b442519d3"},"vehicle_type_id":"4","last_reported":1770133125,"current_range_meters":6000,"station_id":"st_d4kl2rp97mjs73e7tdfg","pricing_plan_id":"cebpf4jnsgd1na2vs0mg"},{"bike_id":"9436c3fb-a74e-4fd5-8b2a-988e84b82382","system_id":"levelo_inurba_marseille","lat":43.24181,"lon":5.39734,"is_reserved":false,"is_disabled":false,"rental_uris":{"android":"levelo://app?vid=9436c3fb-a74e-4fd5-8b2a-988e84b82382","ios":"levelo://app?vid=9436c3fb-a74e-4fd5-8b2a-988e84b82382"},"vehicle_type_id":"4","last_reported":1770133125,"current_range_meters":6000,"station_id":"ce4bhn12rcd13ifvqgpg","pricing_plan_id":"cebpf4jnsgd1na2vs0mg"},{"bike_id":"03cfe8ff-bad7-4324-a169-164f68b4c260","system_id":"levelo_inurba_marseille","lat":43.337444,"lon":5.374475,"is_reserved":false,"is_disabled":false,"rental_uris":{"android":"levelo://app?vid=03cfe8ff-bad7-4324-a169-164f68b4c260","ios":"levelo://app?vid=03cfe8ff-bad7-4324-a169-164f68b4c260"},"vehicle_type_id":"4","last_reported":1770133125,"current_range_meters":6000,"station_id":"","pricing_plan_id":"cebpf4jnsgd1na2vs0mg"},{"bike_id":"9e057795-08d0-428c-a4d6-14e223435515","system_id":"levelo_inurba_marseille","lat":43.24577,"lon":5.37353,"is_reserved":false,"is_disabled":false,"rental_uris":{"android":"levelo://app?vid=9e057795-08d0-428c-a4d6-14e223435515","ios":"levelo://app?vid=9e057795-08d0-428c-a4d6-14e223435515"},"vehicle_type_id":"4","last_reported":1770133125,"current_range_meters":6000,"station_id":"","pricing_plan_id":"cebpf4jnsgd1na2vs0mg"},{"bike_id":"77ee2386-41ea-476e-b76b-f435873f6247","system_id":"levelo_inurba_marseille","lat":43.243876,"lon":5.370565,"is_reserved":false,"is_disabled":false,"rental_uris":{"android":"levelo://app?vid=77ee2386-41ea-476e-b76b-f435873f6247","ios":"levelo://app?vid=77ee2386-41ea-476e-b76b-f435873f6247"},"vehicle_type_id":"4","last_reported":1770133125,"current_range_meters":6000,"station_id":"ce4bhhh2rcd13ifvqfk0","pricing_plan_id":"cebpf4jnsgd1na2vs0mg"},{"bike_id":"c5cba592-c8ea-4299-867c-e35aceae73bc","system_id":"levelo_inurba_marseille","lat":43.31767,"lon":5.39016,"is_reserved":false,"is_disabled":false,"rental_uris":{"android":"levelo://app?vid=c5cba592-c8ea-4299-867c-e35aceae73bc","ios":"levelo://app?vid=c5cba592-c8ea-4299-867c-e35aceae73bc"},"vehicle_type_id":"4","last_reported":1770133125,"current_range_meters":6000,"station_id":"ce4bhqp2rcd13ifvqhng","pricing_plan_id":"cebpf4jnsgd1na2vs0mg"},{"bike_id":"9027f68c-4daa-4e10-848d-180d3b6c7003","system_id":"levelo_inurba_marseille","lat":43.29733,"lon":5.37675,"is_reserved":false,"is_disabled":false,"rental_uris":{"android":"levelo://app?vid=9027f68c-4daa-4e10-848d-180d3b6c7003","ios":"levelo://app?vid=9027f68c-4daa-4e10-848d-180d3b6c7003"},"vehicle_type_id":"4","last_reported":1770133125,"current_range_meters":6000,"station_id":"ce4bgkh2rcd13ifvqbl0","pricing_plan_id":"cebpf4jnsgd1na2vs0mg"},{"bike_id":"cc7d6a58-2c60-4246-b3ec-60b87c8871b8","system_id":"levelo_inurba_marseille","lat":43.28414,"lon":5.37524,"is_reserved":false,"is_disabled":true,"rental_uris":{"android":"levelo://app?vid=cc7d6a58-2c60-4246-b3ec-60b87c8871b8","ios":"levelo://app?vid=cc7d6a58-2c60-4246-b3ec-60b87c8871b8"},"vehicle_type_id":"4","last_reported":1770133125,"current_range_meters":6000,"station_id":"ce4bh412rcd13ifvqds0","pricing_plan_id":"cebpf4jnsgd1na2vs0mg"},{"bike_id":"d388463a-14b8-4c1f-ab9f-e537ee3d0317","system_id":"levelo_inurba_marseille","lat":43.26213,"lon":5.37443,"is_reserved":false,"is_disabled":false,"rental_uris":{"android":"levelo://app?vid=d388463a-14b8-4c1f-ab9f-e537ee3d0317","ios":"levelo://app?vid=d388463a-14b8-4c1f-ab9f-e537ee3d0317"},"vehicle_type_id":"4","last_reported":1770133125,"current_range_meters":6000,"station_id":"ce4bhgp2rcd13ifvqfc0","pricing_plan_id":"cebpf4jnsgd1na2vs0mg"},{"bike_id":"04f2b816-4fdb-416c-8cd6-0321ddea7cc1","system_id":"levelo_inurba_marseille","lat":43.26289,"lon":5.39867,"is_reserved":false,"is_disabled":false,"rental_uris":{"android":"levelo://app?vid=04f2b816-4fdb-416c-8cd6-0321ddea7cc1","ios":"levelo://app?vid=04f2b816-4fdb-416c-8cd6-0321ddea7cc1"},"vehicle_type_id":"4","last_reported":1770133125,"current_range_meters":6400,"station_id":"ce4bgs12rcd13ifvqcag","pricing_plan_id":"cebpf4jnsgd1na2vs0mg"},{"bike_id":"7830c5a0-6716-49ce-9fb9-030a83055837","system_id":"levelo_inurba_marseille","lat":43.30318,"lon":5.36901,"is_reserved":false,"is_disabled":true,"rental_uris":{"android":"levelo://app?vid=7830c5a0-6716-49ce-9fb9-030a83055837","ios":"levelo://app?vid=7830c5a0-6716-49ce-9fb9-030a83055837"},"vehicle_type_id":"4","last_reported":1770133125,"current_range_meters":6400,"station_id":"ce4bgqh2rcd13ifvqc5g","pricing_plan_id":"cebpf4jnsgd1na2vs0mg"},{"bike_id":"fe2e49c8-5375-4394-815b-bc5a5aa8c58a","system_id":"levelo_inurba_marseille","lat":43.27494,"lon":5.42451,"is_reserved":false,"is_disabled":false,"rental_uris":{"android":"levelo://app?vid=fe2e49c8-5375-4394-815b-bc5a5aa8c58a","ios":"levelo://app?vid=fe2e49c8-5375-4394-815b-bc5a5aa8c58a"},"vehicle_type_id":"4","last_reported":1770133125,"current_range_meters":6400,"station_id":"ce4bhn92rcd13ifvqgrg","pricing_plan_id":"cebpf4jnsgd1na2vs0mg"},{"bike_id":"97da94e8-6710-449e-b681-519d523f1bd3","system_id":"levelo_inurba_marseille","lat":43.24074,"lon":5.37739,"is_reserved":false,"is_disabled":false,"rental_uris":{"android":"levelo://app?vid=97da94e8-6710-449e-b681-519d523f1bd3","ios":"levelo://app?vid=97da94e8-6710-449e-b681-519d523f1bd3"},"vehicle_type_id":"4","last_reported":1770133125,"current_range_meters":6400,"station_id":"ce4bhnp2rcd13ifvqgvg","pricing_plan_id":"cebpf4jnsgd1na2vs0mg"},{"bike_id":"659b2fe8-8a06-4a27-93de-c9d7bd01e359","system_id":"levelo_inurba_marseille","lat":43.29673,"lon":5.37674,"is_reserved":false,"is_disabled":false,"rental_uris":{"android":"levelo://app?vid=659b2fe8-8a06-4a27-93de-c9d7bd01e359","ios":"levelo://app?vid=659b2fe8-8a06-4a27-93de-c9d7bd01e359"},"vehicle_type_id":"4","last_reported":1770133125,"current_range_meters":6400,"station_id":"ce4bgkh2rcd13ifvqbl0","pricing_plan_id":"cebpf4jnsgd1na2vs0mg"},{"bike_id":"6ddf7e79-fc33-436a-9f2e-0297899e5607","system_id":"levelo_inurba_marseille","lat":43.28497,"lon":5.48365,"is_reserved":false,"is_disabled":false,"rental_uris":{"android":"levelo://app?vid=6ddf7e79-fc33-436a-9f2e-0297899e5607","ios":"levelo://app?vid=6ddf7e79-fc33-436a-9f2e-0297899e5607"},"vehicle_type_id":"4","last_reported":1770133125,"current_range_meters":6400,"station_id":"","pricing_plan_id":"cebpf4jnsgd1na2vs0mg"},{"bike_id":"d96b5276-ddb9-4dda-bf61-4ae90512437d","system_id":"levelo_inurba_marseille","lat":43.24159,"lon":5.36402,"is_reserved":false,"is_disabled":false,"rental_uris":{"android":"levelo://app?vid=d96b5276-ddb9-4dda-bf61-4ae90512437d","ios":"levelo://app?vid=d96b5276-ddb9-4dda-bf61-4ae90512437d"},"vehicle_type_id":"4","last_reported":1770133125,"current_range_meters":6400,"station_id":"cpo36qri1sfpv3e86is0","pricing_plan_id":"cebpf4jnsgd1na2vs0mg"},{"bike_id":"a5d01c06-fbf8-43f6-9a3c-e7c126458e3c","system_id":"levelo_inurba_marseille","lat":43.29025,"lon":5.38656,"is_reserved":false,"is_disabled":false,"rental_uris":{"android":"levelo://app?vid=a5d01c06-fbf8-43f6-9a3c-e7c126458e3c","ios":"levelo://app?vid=a5d01c06-fbf8-43f6-9a3c-e7c126458e3c"},"vehicle_type_id":"4","last_reported":1770133125,"current_range_meters":6400,"station_id":"ce4bh4p2rcd13ifvqe0g","pricing_plan_id":"cebpf4jnsgd1na2vs0mg"},{"bike_id":"93756343-7ad0-479a-a7cd-d392a63f18dd","system_id":"levelo_inurba_marseille","lat":43.29619,"lon":5.37729,"is_reserved":false,"is_disabled":false,"rental_uris":{"android":"levelo://app?vid=93756343-7ad0-479a-a7cd-d392a63f18dd","ios":"levelo://app?vid=93756343-7ad0-479a-a7cd-d392a63f18dd"},"vehicle_type_id":"4","last_reported":1770133125,"current_range_meters":6400,"station_id":"ce4bgi92rcd13ifvqb90","pricing_plan_id":"cebpf4jnsgd1na2vs0mg"},{"bike_id":"549d637b-91c5-48ec-83fa-865a463b6a4b","system_id":"levelo_inurba_marseille","lat":43.23195,"lon":5.355348,"is_reserved":false,"is_disabled":false,"rental_uris":{"android":"levelo://app?vid=549d637b-91c5-48ec-83fa-865a463b6a4b","ios":"levelo://app?vid=549d637b-91c5-48ec-83fa-865a463b6a4b"},"vehicle_type_id":"4","last_reported":1770133125,"current_range_meters":6400,"station_id":"ce4bhu92rcd13ifvqi70","pricing_plan_id":"cebpf4jnsgd1na2vs0mg"},{"bike_id":"1f41782b-be61-4e19-81d3-472c863b6c1c","system_id":"levelo_inurba_marseille","lat":43.23969,"lon":5.36632,"is_reserved":false,"is_disabled":false,"rental_uris":{"android":"levelo://app?vid=1f41782b-be61-4e19-81d3-472c863b6c1c","ios":"levelo://app?vid=1f41782b-be61-4e19-81d3-472c863b6c1c"},"vehicle_type_id":"4","last_reported":1770133125,"current_range_meters":6400,"station_id":"ce4bhi12rcd13ifvqfp0","pricing_plan_id":"cebpf4jnsgd1na2vs0mg"},{"bike_id":"a3d3a949-e6a8-49ab-9f8a-4cfb992af1b3","system_id":"levelo_inurba_marseille","lat":43.21198,"lon":5.35083,"is_reserved":false,"is_disabled":false,"rental_uris":{"android":"levelo://app?vid=a3d3a949-e6a8-49ab-9f8a-4cfb992af1b3","ios":"levelo://app?vid=a3d3a949-e6a8-49ab-9f8a-4cfb992af1b3"},"vehicle_type_id":"4","last_reported":1770133125,"current_range_meters":6400,"station_id":"","pricing_plan_id":"cebpf4jnsgd1na2vs0mg"},{"bike_id":"7005532b-dd6f-4ab5-bd29-c19dcf541a29","system_id":"levelo_inurba_marseille","lat":43.29981,"lon":5.37176,"is_reserved":false,"is_disabled":false,"rental_uris":{"android":"levelo://app?vid=7005532b-dd6f-4ab5-bd29-c19dcf541a29","ios":"levelo://app?vid=7005532b-dd6f-4ab5-bd29-c19dcf541a29"},"vehicle_type_id":"4","last_reported":1770133125,"current_range_meters":6400,"station_id":"ce4bgr92rcd13ifvqc7g","pricing_plan_id":"cebpf4jnsgd1na2vs0mg"},{"bike_id":"bc28241a-109a-41bd-b1b3-b26f572685c6","system_id":"levelo_inurba_marseille","lat":43.28347,"lon":5.3811,"is_reserved":false,"is_disabled":false,"rental_uris":{"android":"levelo://app?vid=bc28241a-109a-41bd-b1b3-b26f572685c6","ios":"levelo://app?vid=bc28241a-109a-41bd-b1b3-b26f572685c6"},"vehicle_type_id":"4","last_reported":1770133125,"current_range_meters":6400,"station_id":"ce4bh412rcd13ifvqdr0","pricing_plan_id":"cebpf4jnsgd1na2vs0mg"},{"bike_id":"68fab0cb-af9a-40af-9fd4-0400dcfd435f","system_id":"levelo_inurba_marseille","lat":43.30648,"lon":5.40112,"is_reserved":false,"is_disabled":false,"rental_uris":{"android":"levelo://app?vid=68fab0cb-af9a-40af-9fd4-0400dcfd435f","ios":"levelo://app?vid=68fab0cb-af9a-40af-9fd4-0400dcfd435f"},"vehicle_type_id":"4","last_reported":1770133125,"current_range_meters":6400,"station_id":"ce4bh112rcd13ifvqda0","pricing_plan_id":"cebpf4jnsgd1na2vs0mg"},{"bike_id":"eca45be2-a4c5-45fe-9aa7-ffa888ce9cbe","system_id":"levelo_inurba_marseille","lat":43.2926,"lon":5.38449,"is_reserved":false,"is_disabled":false,"rental_uris":{"android":"levelo://app?vid=eca45be2-a4c5-45fe-9aa7-ffa888ce9cbe","ios":"levelo://app?vid=eca45be2-a4c5-45fe-9aa7-ffa888ce9cbe"},"vehicle_type_id":"4","last_reported":1770133125,"current_range_meters":6400,"station_id":"ce4bh692rcd13ifvqea0","pricing_plan_id":"cebpf4jnsgd1na2vs0mg"},{"bike_id":"85699543-7712-4eb1-9147-51a0b81a24dc","system_id":"levelo_inurba_marseille","lat":43.24995,"lon":5.38945,"is_reserved":false,"is_disabled":false,"rental_uris":{"android":"levelo://app?vid=85699543-7712-4eb1-9147-51a0b81a24dc","ios":"levelo://app?vid=85699543-7712-4eb1-9147-51a0b81a24dc"},"vehicle_type_id":"4","last_reported":1770133125,"current_range_meters":6400,"station_id":"ce4bhgp2rcd13ifvqfd0","pricing_plan_id":"cebpf4jnsgd1na2vs0mg"},{"bike_id":"f8e7e4d9-f87a-42a2-9144-b6886b943f25","system_id":"levelo_inurba_marseille","lat":43.25003,"lon":5.38932,"is_reserved":false,"is_disabled":false,"rental_uris":{"android":"levelo://app?vid=f8e7e4d9-f87a-42a2-9144-b6886b943f25","ios":"levelo://app?vid=f8e7e4d9-f87a-42a2-9144-b6886b943f25"},"vehicle_type_id":"4","last_reported":1770133125,"current_range_meters":6800,"station_id":"ce4bhgp2rcd13ifvqfd0","pricing_plan_id":"cebpf4jnsgd1na2vs0mg"},{"bike_id":"08d22f81-17af-4b92-a3f0-62e0480f3ecb","system_id":"levelo_inurba_marseille","lat":43.28622,"lon":5.35092,"is_reserved":false,"is_disabled":false,"rental_uris":{"android":"levelo://app?vid=08d22f81-17af-4b92-a3f0-62e0480f3ecb","ios":"levelo://app?vid=08d22f81-17af-4b92-a3f0-62e0480f3ecb"},"vehicle_type_id":"4","last_reported":1770133125,"current_range_meters":6800,"station_id":"ce4bhch2rcd13ifvqeug","pricing_plan_id":"cebpf4jnsgd1na2vs0mg"},{"bike_id":"fd4003f9-ae57-43d9-af54-09e855d38b22","system_id":"levelo_inurba_marseille","lat":43.28542,"lon":5.44089,"is_reserved":false,"is_disabled":false,"rental_uris":{"android":"levelo://app?vid=fd4003f9-ae57-43d9-af54-09e855d38b22","ios":"levelo://app?vid=fd4003f9-ae57-43d9-af54-09e855d38b22"},"vehicle_type_id":"4","last_reported":1770133125,"current_range_meters":6800,"station_id":"st_d3j3df2ikq2c7380ej80","pricing_plan_id":"cebpf4jnsgd1na2vs0mg"},{"bike_id":"67949cb0-ad73-42aa-8494-c2a7d6735f87","system_id":"levelo_inurba_marseille","lat":43.31254,"lon":5.36907,"is_reserved":false,"is_disabled":false,"rental_uris":{"android":"levelo://app?vid=67949cb0-ad73-42aa-8494-c2a7d6735f87","ios":"levelo://app?vid=67949cb0-ad73-42aa-8494-c2a7d6735f87"},"vehicle_type_id":"4","last_reported":1770133125,"current_range_meters":6800,"station_id":"ce4bgl92rcd13ifvqbq0","pricing_plan_id":"cebpf4jnsgd1na2vs0mg"},{"bike_id":"c42f2b39-ad01-446e-8300-846276cf6895","system_id":"levelo_inurba_marseille","lat":43.30547,"lon":5.36541,"is_reserved":false,"is_disabled":false,"rental_uris":{"android":"levelo://app?vid=c42f2b39-ad01-446e-8300-846276cf6895","ios":"levelo://app?vid=c42f2b39-ad01-446e-8300-846276cf6895"},"vehicle_type_id":"4","last_reported":1770133125,"current_range_meters":6800,"station_id":"ce4bgs12rcd13ifvqcag","pricing_plan_id":"cebpf4jnsgd1na2vs0mg"},{"bike_id":"e27d9fd3-3153-4341-819f-124f3dbc3656","system_id":"levelo_inurba_marseille","lat":43.29907,"lon":5.37463,"is_reserved":false,"is_disabled":false,"rental_uris":{"android":"levelo://app?vid=e27d9fd3-3153-4341-819f-124f3dbc3656","ios":"levelo://app?vid=e27d9fd3-3153-4341-819f-124f3dbc3656"},"vehicle_type_id":"4","last_reported":1770133125,"current_range_meters":6800,"station_id":"ce4bgjh2rcd13ifvqbg0","pricing_plan_id":"cebpf4jnsgd1na2vs0mg"},{"bike_id":"5d2a7df9-4ddf-4885-8075-b7755ef05fb8","system_id":"levelo_inurba_marseille","lat":43.23035,"lon":5.40294,"is_reserved":false,"is_disabled":false,"rental_uris":{"android":"levelo://app?vid=5d2a7df9-4ddf-4885-8075-b7755ef05fb8","ios":"levelo://app?vid=5d2a7df9-4ddf-4885-8075-b7755ef05fb8"},"vehicle_type_id":"4","last_reported":1770133125,"current_range_meters":6800,"station_id":"","pricing_plan_id":"cebpf4jnsgd1na2vs0mg"},{"bike_id":"7de714e1-e1e3-4cef-a665-bf94e4caea8c","system_id":"levelo_inurba_marseille","lat":43.22558,"lon":5.41654,"is_reserved":false,"is_disabled":false,"rental_uris":{"android":"levelo://app?vid=7de714e1-e1e3-4cef-a665-bf94e4caea8c","ios":"levelo://app?vid=7de714e1-e1e3-4cef-a665-bf94e4caea8c"},"vehicle_type_id":"4","last_reported":1770133125,"current_range_meters":6800,"station_id":"st_d2o4gvlbi1j2169b742g","pricing_plan_id":"cebpf4jnsgd1na2vs0mg"},{"bike_id":"05eaf094-dbe0-4dcd-a211-49f243815c67","system_id":"levelo_inurba_marseille","lat":43.30376,"lon":5.42485,"is_reserved":false,"is_disabled":false,"rental_uris":{"android":"levelo://app?vid=05eaf094-dbe0-4dcd-a211-49f243815c67","ios":"levelo://app?vid=05eaf094-dbe0-4dcd-a211-49f243815c67"},"vehicle_type_id":"4","last_reported":1770133125,"current_range_meters":6800,"station_id":"ce4bhoh2rcd13ifvqh6g","pricing_plan_id":"cebpf4jnsgd1na2vs0mg"},{"bike_id":"bad17cac-477c-4610-8060-b1e013efb2d4","system_id":"levelo_inurba_marseille","lat":43.29976,"lon":5.38509,"is_reserved":false,"is_disabled":false,"rental_uris":{"android":"levelo://app?vid=bad17cac-477c-4610-8060-b1e013efb2d4","ios":"levelo://app?vid=bad17cac-477c-4610-8060-b1e013efb2d4"},"vehicle_type_id":"4","last_reported":1770133125,"current_range_meters":6800,"station_id":"ce4bgj92rcd13ifvqbd0","pricing_plan_id":"cebpf4jnsgd1na2vs0mg"},{"bike_id":"fa19808d-5840-40a6-8f51-2b0cadbdbfcc","system_id":"levelo_inurba_marseille","lat":43.287486,"lon":5.361817,"is_reserved":false,"is_disabled":false,"rental_uris":{"android":"levelo://app?vid=fa19808d-5840-40a6-8f51-2b0cadbdbfcc","ios":"levelo://app?vid=fa19808d-5840-40a6-8f51-2b0cadbdbfcc"},"vehicle_type_id":"4","last_reported":1770133125,"current_range_meters":6800,"station_id":"cki0cbj6b192h4jlfktg","pricing_plan_id":"cebpf4jnsgd1na2vs0mg"},{"bike_id":"e9c5afc7-c303-4df3-a0d1-811595814b02","system_id":"levelo_inurba_marseille","lat":43.24074,"lon":5.37763,"is_reserved":false,"is_disabled":false,"rental_uris":{"android":"levelo://app?vid=e9c5afc7-c303-4df3-a0d1-811595814b02","ios":"levelo://app?vid=e9c5afc7-c303-4df3-a0d1-811595814b02"},"vehicle_type_id":"4","last_reported":1770133125,"current_range_meters":6800,"station_id":"ce4bhnp2rcd13ifvqgvg","pricing_plan_id":"cebpf4jnsgd1na2vs0mg"},{"bike_id":"34e4497e-004e-4d33-b563-df43c3f1dff0","system_id":"levelo_inurba_marseille","lat":43.29158,"lon":5.38835,"is_reserved":false,"is_disabled":false,"rental_uris":{"android":"levelo://app?vid=34e4497e-004e-4d33-b563-df43c3f1dff0","ios":"levelo://app?vid=34e4497e-004e-4d33-b563-df43c3f1dff0"},"vehicle_type_id":"4","last_reported":1770133125,"current_range_meters":6800,"station_id":"ce4bh4p2rcd13ifvqe0g","pricing_plan_id":"cebpf4jnsgd1na2vs0mg"},{"bike_id":"deb9e4eb-a481-4dbd-9838-7e21c4114a77","system_id":"levelo_inurba_marseille","lat":43.24645,"lon":5.38892,"is_reserved":false,"is_disabled":false,"rental_uris":{"android":"levelo://app?vid=deb9e4eb-a481-4dbd-9838-7e21c4114a77","ios":"levelo://app?vid=deb9e4eb-a481-4dbd-9838-7e21c4114a77"},"vehicle_type_id":"4","last_reported":1770133125,"current_range_meters":6800,"station_id":"ce4bhg12rcd13ifvqf60","pricing_plan_id":"cebpf4jnsgd1na2vs0mg"},{"bike_id":"4f4b0263-4a56-4aa8-853e-257e16a095ec","system_id":"levelo_inurba_marseille","lat":43.28723,"lon":5.36081,"is_reserved":false,"is_disabled":false,"rental_uris":{"android":"levelo://app?vid=4f4b0263-4a56-4aa8-853e-257e16a095ec","ios":"levelo://app?vid=4f4b0263-4a56-4aa8-853e-257e16a095ec"},"vehicle_type_id":"4","last_reported":1770133125,"current_range_meters":6800,"station_id":"cki0cbj6b192h4jlfktg","pricing_plan_id":"cebpf4jnsgd1na2vs0mg"},{"bike_id":"87d66721-afca-4be0-bb0a-b594ae08688b","system_id":"levelo_inurba_marseille","lat":43.28692,"lon":5.38657,"is_reserved":false,"is_disabled":false,"rental_uris":{"android":"levelo://app?vid=87d66721-afca-4be0-bb0a-b594ae08688b","ios":"levelo://app?vid=87d66721-afca-4be0-bb0a-b594ae08688b"},"vehicle_type_id":"4","last_reported":1770133125,"current_range_meters":6800,"station_id":"ce4bh492rcd13ifvqdug","pricing_plan_id":"cebpf4jnsgd1na2vs0mg"},{"bike_id":"151047fe-b117-41cf-9416-4f91d0d3c1a9","system_id":"levelo_inurba_marseille","lat":43.31856,"lon":5.36908,"is_reserved":false,"is_disabled":false,"rental_uris":{"android":"levelo://app?vid=151047fe-b117-41cf-9416-4f91d0d3c1a9","ios":"levelo://app?vid=151047fe-b117-41cf-9416-4f91d0d3c1a9"},"vehicle_type_id":"4","last_reported":1770133125,"current_range_meters":7200,"station_id":"","pricing_plan_id":"cebpf4jnsgd1na2vs0mg"},{"bike_id":"8300bb2e-96f4-4e9e-92a9-a4d1e04694a4","system_id":"levelo_inurba_marseille","lat":43.23154,"lon":5.4372,"is_reserved":false,"is_disabled":false,"rental_uris":{"android":"levelo://app?vid=8300bb2e-96f4-4e9e-92a9-a4d1e04694a4","ios":"levelo://app?vid=8300bb2e-96f4-4e9e-92a9-a4d1e04694a4"},"vehicle_type_id":"4","last_reported":1770133125,"current_range_meters":7200,"station_id":"ce4bhmp2rcd13ifvqgog","pricing_plan_id":"cebpf4jnsgd1na2vs0mg"},{"bike_id":"38737ced-bde6-40cd-b214-5980445d0dfa","system_id":"levelo_inurba_marseille","lat":43.2872,"lon":5.37944,"is_reserved":false,"is_disabled":false,"rental_uris":{"android":"levelo://app?vid=38737ced-bde6-40cd-b214-5980445d0dfa","ios":"levelo://app?vid=38737ced-bde6-40cd-b214-5980445d0dfa"},"vehicle_type_id":"4","last_reported":1770133125,"current_range_meters":7200,"station_id":"ce4bh9p2rcd13ifvqec0","pricing_plan_id":"cebpf4jnsgd1na2vs0mg"},{"bike_id":"f234db04-e673-460a-93d1-ebb1daa5f8d2","system_id":"levelo_inurba_marseille","lat":43.29198,"lon":5.35803,"is_reserved":false,"is_disabled":false,"rental_uris":{"android":"levelo://app?vid=f234db04-e673-460a-93d1-ebb1daa5f8d2","ios":"levelo://app?vid=f234db04-e673-460a-93d1-ebb1daa5f8d2"},"vehicle_type_id":"4","last_reported":1770133125,"current_range_meters":7200,"station_id":"ce4bhb12rcd13ifvqel0","pricing_plan_id":"cebpf4jnsgd1na2vs0mg"},{"bike_id":"c3ba0fed-3d29-4191-b8a3-c899b1e9e5ad","system_id":"levelo_inurba_marseille","lat":43.25571,"lon":5.38224,"is_reserved":false,"is_disabled":false,"rental_uris":{"android":"levelo://app?vid=c3ba0fed-3d29-4191-b8a3-c899b1e9e5ad","ios":"levelo://app?vid=c3ba0fed-3d29-4191-b8a3-c899b1e9e5ad"},"vehicle_type_id":"4","last_reported":1770133125,"current_range_meters":7200,"station_id":"ce4bhih2rcd13ifvqfs0","pricing_plan_id":"cebpf4jnsgd1na2vs0mg"},{"bike_id":"ec12566a-9d48-438d-80ed-97edb63a2c03","system_id":"levelo_inurba_marseille","lat":43.24492,"lon":5.42501,"is_reserved":false,"is_disabled":false,"rental_uris":{"android":"levelo://app?vid=ec12566a-9d48-438d-80ed-97edb63a2c03","ios":"levelo://app?vid=ec12566a-9d48-438d-80ed-97edb63a2c03"},"vehicle_type_id":"4","last_reported":1770133125,"current_range_meters":7200,"station_id":"st_d4a3vfp97mjs738cd8kg","pricing_plan_id":"cebpf4jnsgd1na2vs0mg"},{"bike_id":"4bc2e066-05e1-4bec-a8dd-48dd7a8361d5","system_id":"levelo_inurba_marseille","lat":43.31244,"lon":5.36861,"is_reserved":false,"is_disabled":false,"rental_uris":{"android":"levelo://app?vid=4bc2e066-05e1-4bec-a8dd-48dd7a8361d5","ios":"levelo://app?vid=4bc2e066-05e1-4bec-a8dd-48dd7a8361d5"},"vehicle_type_id":"4","last_reported":1770133125,"current_range_meters":7200,"station_id":"ce4bgl92rcd13ifvqbq0","pricing_plan_id":"cebpf4jnsgd1na2vs0mg"},{"bike_id":"2bf19671-0061-46e9-83e3-55d71bb70148","system_id":"levelo_inurba_marseille","lat":43.22934,"lon":5.3538,"is_reserved":false,"is_disabled":false,"rental_uris":{"android":"levelo://app?vid=2bf19671-0061-46e9-83e3-55d71bb70148","ios":"levelo://app?vid=2bf19671-0061-46e9-83e3-55d71bb70148"},"vehicle_type_id":"4","last_reported":1770133125,"current_range_meters":7200,"station_id":"cpo3532slgdg3j2ikp40","pricing_plan_id":"cebpf4jnsgd1na2vs0mg"},{"bike_id":"1ddbaf21-a490-4436-8a80-ca606be75f73","system_id":"levelo_inurba_marseille","lat":43.301347,"lon":5.387736,"is_reserved":false,"is_disabled":false,"rental_uris":{"android":"levelo://app?vid=1ddbaf21-a490-4436-8a80-ca606be75f73","ios":"levelo://app?vid=1ddbaf21-a490-4436-8a80-ca606be75f73"},"vehicle_type_id":"4","last_reported":1770133125,"current_range_meters":7200,"station_id":"ce4bghh2rcd13ifvqb60","pricing_plan_id":"cebpf4jnsgd1na2vs0mg"},{"bike_id":"d2c6f459-0c1f-4e66-9469-2ec60b6540fd","system_id":"levelo_inurba_marseille","lat":43.31165,"lon":5.38713,"is_reserved":false,"is_disabled":false,"rental_uris":{"android":"levelo://app?vid=d2c6f459-0c1f-4e66-9469-2ec60b6540fd","ios":"levelo://app?vid=d2c6f459-0c1f-4e66-9469-2ec60b6540fd"},"vehicle_type_id":"4","last_reported":1770133125,"current_range_meters":7200,"station_id":"ce4bgv12rcd13ifvqcp0","pricing_plan_id":"cebpf4jnsgd1na2vs0mg"},{"bike_id":"530b3fec-7af4-45eb-bf12-cc02b58eae44","system_id":"levelo_inurba_marseille","lat":43.24677,"lon":5.38157,"is_reserved":false,"is_disabled":false,"rental_uris":{"android":"levelo://app?vid=530b3fec-7af4-45eb-bf12-cc02b58eae44","ios":"levelo://app?vid=530b3fec-7af4-45eb-bf12-cc02b58eae44"},"vehicle_type_id":"4","last_reported":1770133125,"current_range_meters":7200,"station_id":"ce4bhih2rcd13ifvqfr0","pricing_plan_id":"cebpf4jnsgd1na2vs0mg"},{"bike_id":"4d2169a3-07f2-482b-8955-8c72e40dc9a8","system_id":"levelo_inurba_marseille","lat":43.29923,"lon":5.37462,"is_reserved":false,"is_disabled":false,"rental_uris":{"android":"levelo://app?vid=4d2169a3-07f2-482b-8955-8c72e40dc9a8","ios":"levelo://app?vid=4d2169a3-07f2-482b-8955-8c72e40dc9a8"},"vehicle_type_id":"4","last_reported":1770133125,"current_range_meters":7200,"station_id":"ce4bgjh2rcd13ifvqbg0","pricing_plan_id":"cebpf4jnsgd1na2vs0mg"},{"bike_id":"bcbaa8a6-886f-4091-ae26-8ec7b68ef274","system_id":"levelo_inurba_marseille","lat":43.23792,"lon":5.36645,"is_reserved":false,"is_disabled":false,"rental_uris":{"android":"levelo://app?vid=bcbaa8a6-886f-4091-ae26-8ec7b68ef274","ios":"levelo://app?vid=bcbaa8a6-886f-4091-ae26-8ec7b68ef274"},"vehicle_type_id":"4","last_reported":1770133125,"current_range_meters":7200,"station_id":"st_d3nk18o9ro0c73en2l3g","pricing_plan_id":"cebpf4jnsgd1na2vs0mg"},{"bike_id":"edcb87a3-89fd-4c81-b16f-a9efdb1bc6b7","system_id":"levelo_inurba_marseille","lat":43.27261,"lon":5.38273,"is_reserved":false,"is_disabled":true,"rental_uris":{"android":"levelo://app?vid=edcb87a3-89fd-4c81-b16f-a9efdb1bc6b7","ios":"levelo://app?vid=edcb87a3-89fd-4c81-b16f-a9efdb1bc6b7"},"vehicle_type_id":"4","last_reported":1770133125,"current_range_meters":7200,"station_id":"","pricing_plan_id":"cebpf4jnsgd1na2vs0mg"},{"bike_id":"07c9aeb7-306b-41e9-9837-5a68fbcf019a","system_id":"levelo_inurba_marseille","lat":43.290192,"lon":5.386559,"is_reserved":false,"is_disabled":false,"rental_uris":{"android":"levelo://app?vid=07c9aeb7-306b-41e9-9837-5a68fbcf019a","ios":"levelo://app?vid=07c9aeb7-306b-41e9-9837-5a68fbcf019a"},"vehicle_type_id":"4","last_reported":1770133125,"current_range_meters":7200,"station_id":"ce4bh4p2rcd13ifvqe0g","pricing_plan_id":"cebpf4jnsgd1na2vs0mg"},{"bike_id":"530df8c7-bf9f-47ac-a0e7-f1ffb5906c84","system_id":"levelo_inurba_marseille","lat":43.29228,"lon":5.42519,"is_reserved":false,"is_disabled":false,"rental_uris":{"android":"levelo://app?vid=530df8c7-bf9f-47ac-a0e7-f1ffb5906c84","ios":"levelo://app?vid=530df8c7-bf9f-47ac-a0e7-f1ffb5906c84"},"vehicle_type_id":"4","last_reported":1770133125,"current_range_meters":7200,"station_id":"","pricing_plan_id":"cebpf4jnsgd1na2vs0mg"},{"bike_id":"0f0793a9-b549-49f5-af61-4dfd7436531d","system_id":"levelo_inurba_marseille","lat":43.23965,"lon":5.36635,"is_reserved":false,"is_disabled":false,"rental_uris":{"android":"levelo://app?vid=0f0793a9-b549-49f5-af61-4dfd7436531d","ios":"levelo://app?vid=0f0793a9-b549-49f5-af61-4dfd7436531d"},"vehicle_type_id":"4","last_reported":1770133125,"current_range_meters":7200,"station_id":"ce4bhi12rcd13ifvqfp0","pricing_plan_id":"cebpf4jnsgd1na2vs0mg"},{"bike_id":"cc999d96-b6a7-48ce-90c7-b69f554fd60a","system_id":"levelo_inurba_marseille","lat":43.31949,"lon":5.36978,"is_reserved":false,"is_disabled":false,"rental_uris":{"android":"levelo://app?vid=cc999d96-b6a7-48ce-90c7-b69f554fd60a","ios":"levelo://app?vid=cc999d96-b6a7-48ce-90c7-b69f554fd60a"},"vehicle_type_id":"4","last_reported":1770133125,"current_range_meters":7200,"station_id":"","pricing_plan_id":"cebpf4jnsgd1na2vs0mg"},{"bike_id":"5396fda1-c3a0-4d51-8ba0-cfe497a166d7","system_id":"levelo_inurba_marseille","lat":43.26557,"lon":5.38986,"is_reserved":false,"is_disabled":false,"rental_uris":{"android":"levelo://app?vid=5396fda1-c3a0-4d51-8ba0-cfe497a166d7","ios":"levelo://app?vid=5396fda1-c3a0-4d51-8ba0-cfe497a166d7"},"vehicle_type_id":"4","last_reported":1770133125,"current_range_meters":7200,"station_id":"ce4bhe12rcd13ifvqf30","pricing_plan_id":"cebpf4jnsgd1na2vs0mg"},{"bike_id":"8cfb75ca-2345-42b4-a130-74f2039380af","system_id":"levelo_inurba_marseille","lat":43.274902,"lon":5.424528,"is_reserved":false,"is_disabled":false,"rental_uris":{"android":"levelo://app?vid=8cfb75ca-2345-42b4-a130-74f2039380af","ios":"levelo://app?vid=8cfb75ca-2345-42b4-a130-74f2039380af"},"vehicle_type_id":"4","last_reported":1770133125,"current_range_meters":8000,"station_id":"ce4bhn92rcd13ifvqgrg","pricing_plan_id":"cebpf4jnsgd1na2vs0mg"},{"bike_id":"dcaa4a8f-eeeb-4a65-b90b-db85565e00da","system_id":"levelo_inurba_marseille","lat":43.24178,"lon":5.36387,"is_reserved":false,"is_disabled":false,"rental_uris":{"android":"levelo://app?vid=dcaa4a8f-eeeb-4a65-b90b-db85565e00da","ios":"levelo://app?vid=dcaa4a8f-eeeb-4a65-b90b-db85565e00da"},"vehicle_type_id":"4","last_reported":1770133125,"current_range_meters":8000,"station_id":"cpo36qri1sfpv3e86is0","pricing_plan_id":"cebpf4jnsgd1na2vs0mg"},{"bike_id":"6813da95-9100-4304-9152-ee9261f4f6d7","system_id":"levelo_inurba_marseille","lat":43.31683,"lon":5.4039,"is_reserved":false,"is_disabled":false,"rental_uris":{"android":"levelo://app?vid=6813da95-9100-4304-9152-ee9261f4f6d7","ios":"levelo://app?vid=6813da95-9100-4304-9152-ee9261f4f6d7"},"vehicle_type_id":"4","last_reported":1770133125,"current_range_meters":8000,"station_id":"ce4bh012rcd13ifvqd00","pricing_plan_id":"cebpf4jnsgd1na2vs0mg"},{"bike_id":"c4603ade-bc80-4529-a626-33cdceb38089","system_id":"levelo_inurba_marseille","lat":43.31189,"lon":5.37375,"is_reserved":false,"is_disabled":false,"rental_uris":{"android":"levelo://app?vid=c4603ade-bc80-4529-a626-33cdceb38089","ios":"levelo://app?vid=c4603ade-bc80-4529-a626-33cdceb38089"},"vehicle_type_id":"4","last_reported":1770133125,"current_range_meters":8000,"station_id":"","pricing_plan_id":"cebpf4jnsgd1na2vs0mg"},{"bike_id":"998500e1-c806-47bf-8d4c-0f7806fe2eea","system_id":"levelo_inurba_marseille","lat":43.24076,"lon":5.37764,"is_reserved":false,"is_disabled":false,"rental_uris":{"android":"levelo://app?vid=998500e1-c806-47bf-8d4c-0f7806fe2eea","ios":"levelo://app?vid=998500e1-c806-47bf-8d4c-0f7806fe2eea"},"vehicle_type_id":"4","last_reported":1770133125,"current_range_meters":8000,"station_id":"ce4bhnp2rcd13ifvqgvg","pricing_plan_id":"cebpf4jnsgd1na2vs0mg"},{"bike_id":"81f974fe-76a7-4b0a-927b-0f80730a75ae","system_id":"levelo_inurba_marseille","lat":43.29551,"lon":5.38003,"is_reserved":false,"is_disabled":false,"rental_uris":{"android":"levelo://app?vid=81f974fe-76a7-4b0a-927b-0f80730a75ae","ios":"levelo://app?vid=81f974fe-76a7-4b0a-927b-0f80730a75ae"},"vehicle_type_id":"4","last_reported":1770133125,"current_range_meters":8000,"station_id":"","pricing_plan_id":"cebpf4jnsgd1na2vs0mg"},{"bike_id":"7f77f6a6-911c-44cf-97f5-71224b3633e0","system_id":"levelo_inurba_marseille","lat":43.25245,"lon":5.38015,"is_reserved":false,"is_disabled":false,"rental_uris":{"android":"levelo://app?vid=7f77f6a6-911c-44cf-97f5-71224b3633e0","ios":"levelo://app?vid=7f77f6a6-911c-44cf-97f5-71224b3633e0"},"vehicle_type_id":"4","last_reported":1770133125,"current_range_meters":8000,"station_id":"","pricing_plan_id":"cebpf4jnsgd1na2vs0mg"},{"bike_id":"e67ee85c-41ce-461b-95e1-e68d3d1ac59f","system_id":"levelo_inurba_marseille","lat":43.254791,"lon":5.376834,"is_reserved":false,"is_disabled":false,"rental_uris":{"android":"levelo://app?vid=e67ee85c-41ce-461b-95e1-e68d3d1ac59f","ios":"levelo://app?vid=e67ee85c-41ce-461b-95e1-e68d3d1ac59f"},"vehicle_type_id":"4","last_reported":1770133125,"current_range_meters":8000,"station_id":"ce4bhh12rcd13ifvqff0","pricing_plan_id":"cebpf4jnsgd1na2vs0mg"},{"bike_id":"5b3811ef-5681-4c18-aac4-a62920f9a85c","system_id":"levelo_inurba_marseille","lat":43.28485,"lon":5.51492,"is_reserved":false,"is_disabled":false,"rental_uris":{"android":"levelo://app?vid=5b3811ef-5681-4c18-aac4-a62920f9a85c","ios":"levelo://app?vid=5b3811ef-5681-4c18-aac4-a62920f9a85c"},"vehicle_type_id":"4","last_reported":1770133125,"current_range_meters":8000,"station_id":"","pricing_plan_id":"cebpf4jnsgd1na2vs0mg"},{"bike_id":"2600221b-9c88-41d5-80cd-845f28136e09","system_id":"levelo_inurba_marseille","lat":43.30644,"lon":5.40099,"is_reserved":false,"is_disabled":false,"rental_uris":{"android":"levelo://app?vid=2600221b-9c88-41d5-80cd-845f28136e09","ios":"levelo://app?vid=2600221b-9c88-41d5-80cd-845f28136e09"},"vehicle_type_id":"4","last_reported":1770133125,"current_range_meters":8000,"station_id":"ce4bh112rcd13ifvqda0","pricing_plan_id":"cebpf4jnsgd1na2vs0mg"},{"bike_id":"87dffb4b-d7b9-4f8e-9448-f95f19907dd3","system_id":"levelo_inurba_marseille","lat":43.337444,"lon":5.374475,"is_reserved":false,"is_disabled":false,"rental_uris":{"android":"levelo://app?vid=87dffb4b-d7b9-4f8e-9448-f95f19907dd3","ios":"levelo://app?vid=87dffb4b-d7b9-4f8e-9448-f95f19907dd3"},"vehicle_type_id":"4","last_reported":1770133125,"current_range_meters":8000,"station_id":"","pricing_plan_id":"cebpf4jnsgd1na2vs0mg"},{"bike_id":"6648b726-248a-4235-8962-e02d3f57c3f3","system_id":"levelo_inurba_marseille","lat":43.2499,"lon":5.3897,"is_reserved":false,"is_disabled":false,"rental_uris":{"android":"levelo://app?vid=6648b726-248a-4235-8962-e02d3f57c3f3","ios":"levelo://app?vid=6648b726-248a-4235-8962-e02d3f57c3f3"},"vehicle_type_id":"4","last_reported":1770133125,"current_range_meters":8000,"station_id":"ce4bhgp2rcd13ifvqfd0","pricing_plan_id":"cebpf4jnsgd1na2vs0mg"},{"bike_id":"f3f63223-f3f5-420a-b77c-5e5688bfaa07","system_id":"levelo_inurba_marseille","lat":43.31232,"lon":5.36882,"is_reserved":false,"is_disabled":false,"rental_uris":{"android":"levelo://app?vid=f3f63223-f3f5-420a-b77c-5e5688bfaa07","ios":"levelo://app?vid=f3f63223-f3f5-420a-b77c-5e5688bfaa07"},"vehicle_type_id":"4","last_reported":1770133125,"current_range_meters":8000,"station_id":"ce4bgl92rcd13ifvqbq0","pricing_plan_id":"cebpf4jnsgd1na2vs0mg"},{"bike_id":"b347f7c4-5f9a-4cad-bcfd-d005eeb4793c","system_id":"levelo_inurba_marseille","lat":43.2737,"lon":5.3626,"is_reserved":false,"is_disabled":false,"rental_uris":{"android":"levelo://app?vid=b347f7c4-5f9a-4cad-bcfd-d005eeb4793c","ios":"levelo://app?vid=b347f7c4-5f9a-4cad-bcfd-d005eeb4793c"},"vehicle_type_id":"4","last_reported":1770133125,"current_range_meters":8400,"station_id":"ce4bhbh2rcd13ifvqeo0","pricing_plan_id":"cebpf4jnsgd1na2vs0mg"},{"bike_id":"3496e3d5-ade9-4ef3-89c7-6224a9796381","system_id":"levelo_inurba_marseille","lat":43.23225,"lon":5.35589,"is_reserved":false,"is_disabled":false,"rental_uris":{"android":"levelo://app?vid=3496e3d5-ade9-4ef3-89c7-6224a9796381","ios":"levelo://app?vid=3496e3d5-ade9-4ef3-89c7-6224a9796381"},"vehicle_type_id":"4","last_reported":1770133125,"current_range_meters":8400,"station_id":"ce4bhu92rcd13ifvqi70","pricing_plan_id":"cebpf4jnsgd1na2vs0mg"},{"bike_id":"aaf22886-8931-43f5-890d-fc99243945fc","system_id":"levelo_inurba_marseille","lat":43.24166,"lon":5.39695,"is_reserved":false,"is_disabled":false,"rental_uris":{"android":"levelo://app?vid=aaf22886-8931-43f5-890d-fc99243945fc","ios":"levelo://app?vid=aaf22886-8931-43f5-890d-fc99243945fc"},"vehicle_type_id":"4","last_reported":1770133125,"current_range_meters":8400,"station_id":"ce4bhn12rcd13ifvqgpg","pricing_plan_id":"cebpf4jnsgd1na2vs0mg"},{"bike_id":"e1b3cad6-dccc-4f80-892b-59b83fe43b75","system_id":"levelo_inurba_marseille","lat":43.29572,"lon":5.36721,"is_reserved":false,"is_disabled":false,"rental_uris":{"android":"levelo://app?vid=e1b3cad6-dccc-4f80-892b-59b83fe43b75","ios":"levelo://app?vid=e1b3cad6-dccc-4f80-892b-59b83fe43b75"},"vehicle_type_id":"4","last_reported":1770133125,"current_range_meters":8400,"station_id":"ce4bgph2rcd13ifvqc2g","pricing_plan_id":"cebpf4jnsgd1na2vs0mg"},{"bike_id":"62ad5150-f236-4ea7-a3e4-617610a034f6","system_id":"levelo_inurba_marseille","lat":43.31172,"lon":5.38725,"is_reserved":false,"is_disabled":false,"rental_uris":{"android":"levelo://app?vid=62ad5150-f236-4ea7-a3e4-617610a034f6","ios":"levelo://app?vid=62ad5150-f236-4ea7-a3e4-617610a034f6"},"vehicle_type_id":"4","last_reported":1770133125,"current_range_meters":8400,"station_id":"ce4bgv12rcd13ifvqcp0","pricing_plan_id":"cebpf4jnsgd1na2vs0mg"},{"bike_id":"5268a57b-c5c9-446a-87ff-ede823dc6bfa","system_id":"levelo_inurba_marseille","lat":43.28565,"lon":5.39492,"is_reserved":false,"is_disabled":false,"rental_uris":{"android":"levelo://app?vid=5268a57b-c5c9-446a-87ff-ede823dc6bfa","ios":"levelo://app?vid=5268a57b-c5c9-446a-87ff-ede823dc6bfa"},"vehicle_type_id":"4","last_reported":1770133125,"current_range_meters":8400,"station_id":"ce4bh292rcd13ifvqdg0","pricing_plan_id":"cebpf4jnsgd1na2vs0mg"},{"bike_id":"836aaf97-5b71-4406-9ebb-d3e02c306423","system_id":"levelo_inurba_marseille","lat":43.290449,"lon":5.35934,"is_reserved":false,"is_disabled":false,"rental_uris":{"android":"levelo://app?vid=836aaf97-5b71-4406-9ebb-d3e02c306423","ios":"levelo://app?vid=836aaf97-5b71-4406-9ebb-d3e02c306423"},"vehicle_type_id":"4","last_reported":1770133125,"current_range_meters":8400,"station_id":"ce4bha92rcd13ifvqeg0","pricing_plan_id":"cebpf4jnsgd1na2vs0mg"},{"bike_id":"454ec198-d273-438b-b7dc-8d61915cb03a","system_id":"levelo_inurba_marseille","lat":43.23151,"lon":5.43713,"is_reserved":false,"is_disabled":false,"rental_uris":{"android":"levelo://app?vid=454ec198-d273-438b-b7dc-8d61915cb03a","ios":"levelo://app?vid=454ec198-d273-438b-b7dc-8d61915cb03a"},"vehicle_type_id":"4","last_reported":1770133125,"current_range_meters":8400,"station_id":"ce4bhmp2rcd13ifvqgog","pricing_plan_id":"cebpf4jnsgd1na2vs0mg"},{"bike_id":"8563d6f8-a4f4-4740-a056-db170b1c4c6a","system_id":"levelo_inurba_marseille","lat":43.27206,"lon":5.39178,"is_reserved":false,"is_disabled":false,"rental_uris":{"android":"levelo://app?vid=8563d6f8-a4f4-4740-a056-db170b1c4c6a","ios":"levelo://app?vid=8563d6f8-a4f4-4740-a056-db170b1c4c6a"},"vehicle_type_id":"4","last_reported":1770133125,"current_range_meters":8400,"station_id":"ce4bhhp2rcd13ifvqfm0","pricing_plan_id":"cebpf4jnsgd1na2vs0mg"},{"bike_id":"6cf6debc-8cce-4a40-bbef-de8934d9873b","system_id":"levelo_inurba_marseille","lat":43.341382,"lon":5.409033,"is_reserved":false,"is_disabled":false,"rental_uris":{"android":"levelo://app?vid=6cf6debc-8cce-4a40-bbef-de8934d9873b","ios":"levelo://app?vid=6cf6debc-8cce-4a40-bbef-de8934d9873b"},"vehicle_type_id":"4","last_reported":1770133125,"current_range_meters":8400,"station_id":"ce4bhqh2rcd13ifvqhlg","pricing_plan_id":"cebpf4jnsgd1na2vs0mg"},{"bike_id":"be70caff-2e0e-431e-9f74-c9236acbffd9","system_id":"levelo_inurba_marseille","lat":43.294578,"lon":5.375365,"is_reserved":false,"is_disabled":false,"rental_uris":{"android":"levelo://app?vid=be70caff-2e0e-431e-9f74-c9236acbffd9","ios":"levelo://app?vid=be70caff-2e0e-431e-9f74-c9236acbffd9"},"vehicle_type_id":"4","last_reported":1770133125,"current_range_meters":8400,"station_id":"ce4bgkp2rcd13ifvqbmg","pricing_plan_id":"cebpf4jnsgd1na2vs0mg"},{"bike_id":"fba83296-cf08-4ba9-8267-d1dc13133a44","system_id":"levelo_inurba_marseille","lat":43.26202,"lon":5.40441,"is_reserved":false,"is_disabled":false,"rental_uris":{"android":"levelo://app?vid=fba83296-cf08-4ba9-8267-d1dc13133a44","ios":"levelo://app?vid=fba83296-cf08-4ba9-8267-d1dc13133a44"},"vehicle_type_id":"4","last_reported":1770133125,"current_range_meters":8400,"station_id":"ce4bhmh2rcd13ifvqgmg","pricing_plan_id":"cebpf4jnsgd1na2vs0mg"},{"bike_id":"1b5a9ce0-a712-4e6e-83a1-5b3d08083ec7","system_id":"levelo_inurba_marseille","lat":43.23201,"lon":5.35554,"is_reserved":false,"is_disabled":false,"rental_uris":{"android":"levelo://app?vid=1b5a9ce0-a712-4e6e-83a1-5b3d08083ec7","ios":"levelo://app?vid=1b5a9ce0-a712-4e6e-83a1-5b3d08083ec7"},"vehicle_type_id":"4","last_reported":1770133125,"current_range_meters":8400,"station_id":"ce4bhu92rcd13ifvqi70","pricing_plan_id":"cebpf4jnsgd1na2vs0mg"},{"bike_id":"19a1f68e-8e1f-4c83-becb-16fa340f9459","system_id":"levelo_inurba_marseille","lat":43.3092,"lon":5.36857,"is_reserved":false,"is_disabled":false,"rental_uris":{"android":"levelo://app?vid=19a1f68e-8e1f-4c83-becb-16fa340f9459","ios":"levelo://app?vid=19a1f68e-8e1f-4c83-becb-16fa340f9459"},"vehicle_type_id":"4","last_reported":1770133125,"current_range_meters":8400,"station_id":"ce4bgn92rcd13ifvqbvg","pricing_plan_id":"cebpf4jnsgd1na2vs0mg"},{"bike_id":"efea85db-b1c8-46f7-b3e0-9fa246910aa6","system_id":"levelo_inurba_marseille","lat":43.23196,"lon":5.39985,"is_reserved":false,"is_disabled":false,"rental_uris":{"android":"levelo://app?vid=efea85db-b1c8-46f7-b3e0-9fa246910aa6","ios":"levelo://app?vid=efea85db-b1c8-46f7-b3e0-9fa246910aa6"},"vehicle_type_id":"4","last_reported":1770133125,"current_range_meters":8400,"station_id":"ce4bhn12rcd13ifvqgqg","pricing_plan_id":"cebpf4jnsgd1na2vs0mg"},{"bike_id":"1bff195f-878b-4a6e-8675-61979ef9dcf7","system_id":"levelo_inurba_marseille","lat":43.23193,"lon":5.35546,"is_reserved":false,"is_disabled":false,"rental_uris":{"android":"levelo://app?vid=1bff195f-878b-4a6e-8675-61979ef9dcf7","ios":"levelo://app?vid=1bff195f-878b-4a6e-8675-61979ef9dcf7"},"vehicle_type_id":"4","last_reported":1770133125,"current_range_meters":8400,"station_id":"ce4bhu92rcd13ifvqi70","pricing_plan_id":"cebpf4jnsgd1na2vs0mg"},{"bike_id":"8dc7c767-a7e6-486e-afbf-a81df6ab78a2","system_id":"levelo_inurba_marseille","lat":43.23152,"lon":5.43708,"is_reserved":false,"is_disabled":false,"rental_uris":{"android":"levelo://app?vid=8dc7c767-a7e6-486e-afbf-a81df6ab78a2","ios":"levelo://app?vid=8dc7c767-a7e6-486e-afbf-a81df6ab78a2"},"vehicle_type_id":"4","last_reported":1770133125,"current_range_meters":8400,"station_id":"ce4bhmp2rcd13ifvqgog","pricing_plan_id":"cebpf4jnsgd1na2vs0mg"},{"bike_id":"19e2feff-6c2f-469b-9a6a-9b93faca06da","system_id":"levelo_inurba_marseille","lat":43.28868,"lon":5.42512,"is_reserved":false,"is_disabled":false,"rental_uris":{"android":"levelo://app?vid=19e2feff-6c2f-469b-9a6a-9b93faca06da","ios":"levelo://app?vid=19e2feff-6c2f-469b-9a6a-9b93faca06da"},"vehicle_type_id":"4","last_reported":1770133125,"current_range_meters":8400,"station_id":"st_d3b462108ojc7389ooeg","pricing_plan_id":"cebpf4jnsgd1na2vs0mg"},{"bike_id":"ccad5bb8-727e-4e27-b0cc-7b2f496ea109","system_id":"levelo_inurba_marseille","lat":43.29552,"lon":5.42285,"is_reserved":false,"is_disabled":false,"rental_uris":{"android":"levelo://app?vid=ccad5bb8-727e-4e27-b0cc-7b2f496ea109","ios":"levelo://app?vid=ccad5bb8-727e-4e27-b0cc-7b2f496ea109"},"vehicle_type_id":"4","last_reported":1770133125,"current_range_meters":8400,"station_id":"ce4bhph2rcd13ifvqhdg","pricing_plan_id":"cebpf4jnsgd1na2vs0mg"},{"bike_id":"5aac6fd0-42e7-4460-9483-3cac48c68780","system_id":"levelo_inurba_marseille","lat":43.23152,"lon":5.43685,"is_reserved":false,"is_disabled":false,"rental_uris":{"android":"levelo://app?vid=5aac6fd0-42e7-4460-9483-3cac48c68780","ios":"levelo://app?vid=5aac6fd0-42e7-4460-9483-3cac48c68780"},"vehicle_type_id":"4","last_reported":1770133125,"current_range_meters":8400,"station_id":"ce4bhmp2rcd13ifvqgog","pricing_plan_id":"cebpf4jnsgd1na2vs0mg"},{"bike_id":"b76b0812-c1ce-4144-9b78-716e1fd3e796","system_id":"levelo_inurba_marseille","lat":43.2862,"lon":5.351,"is_reserved":false,"is_disabled":false,"rental_uris":{"android":"levelo://app?vid=b76b0812-c1ce-4144-9b78-716e1fd3e796","ios":"levelo://app?vid=b76b0812-c1ce-4144-9b78-716e1fd3e796"},"vehicle_type_id":"4","last_reported":1770133125,"current_range_meters":8400,"station_id":"ce4bhch2rcd13ifvqeug","pricing_plan_id":"cebpf4jnsgd1na2vs0mg"},{"bike_id":"39ddabf1-ed7c-4285-ab6c-0f07541c811d","system_id":"levelo_inurba_marseille","lat":43.25338,"lon":5.42157,"is_reserved":false,"is_disabled":false,"rental_uris":{"android":"levelo://app?vid=39ddabf1-ed7c-4285-ab6c-0f07541c811d","ios":"levelo://app?vid=39ddabf1-ed7c-4285-ab6c-0f07541c811d"},"vehicle_type_id":"4","last_reported":1770133125,"current_range_meters":8400,"station_id":"st_d2m65c5bi1j21697t3ng","pricing_plan_id":"cebpf4jnsgd1na2vs0mg"},{"bike_id":"34454c89-b631-4b7d-98c3-f063daabfec5","system_id":"levelo_inurba_marseille","lat":43.29765,"lon":5.42781,"is_reserved":false,"is_disabled":false,"rental_uris":{"android":"levelo://app?vid=34454c89-b631-4b7d-98c3-f063daabfec5","ios":"levelo://app?vid=34454c89-b631-4b7d-98c3-f063daabfec5"},"vehicle_type_id":"4","last_reported":1770133125,"current_range_meters":8400,"station_id":"st_d3md5207bmas73dh9klg","pricing_plan_id":"cebpf4jnsgd1na2vs0mg"},{"bike_id":"a0ad01ac-32c0-494d-848a-000d35047b88","system_id":"levelo_inurba_marseille","lat":43.27973,"lon":5.38747,"is_reserved":false,"is_disabled":false,"rental_uris":{"android":"levelo://app?vid=a0ad01ac-32c0-494d-848a-000d35047b88","ios":"levelo://app?vid=a0ad01ac-32c0-494d-848a-000d35047b88"},"vehicle_type_id":"4","last_reported":1770133125,"current_range_meters":8400,"station_id":"ce4bhg12rcd13ifvqf80","pricing_plan_id":"cebpf4jnsgd1na2vs0mg"},{"bike_id":"ea0605bc-9b87-4404-abdb-7451c00b5dd6","system_id":"levelo_inurba_marseille","lat":43.28923,"lon":5.38383,"is_reserved":false,"is_disabled":false,"rental_uris":{"android":"levelo://app?vid=ea0605bc-9b87-4404-abdb-7451c00b5dd6","ios":"levelo://app?vid=ea0605bc-9b87-4404-abdb-7451c00b5dd6"},"vehicle_type_id":"4","last_reported":1770133125,"current_range_meters":8400,"station_id":"ce4bh612rcd13ifvqe6g","pricing_plan_id":"cebpf4jnsgd1na2vs0mg"},{"bike_id":"0c9e0f6d-b002-4509-9e1e-ad52cabe52a1","system_id":"levelo_inurba_marseille","lat":43.29633,"lon":5.40593,"is_reserved":false,"is_disabled":false,"rental_uris":{"android":"levelo://app?vid=0c9e0f6d-b002-4509-9e1e-ad52cabe52a1","ios":"levelo://app?vid=0c9e0f6d-b002-4509-9e1e-ad52cabe52a1"},"vehicle_type_id":"4","last_reported":1770133125,"current_range_meters":8400,"station_id":"ce4bh0h2rcd13ifvqd60","pricing_plan_id":"cebpf4jnsgd1na2vs0mg"},{"bike_id":"283577a2-3f65-4c13-855b-d144157582c8","system_id":"levelo_inurba_marseille","lat":43.30157,"lon":5.38092,"is_reserved":false,"is_disabled":false,"rental_uris":{"android":"levelo://app?vid=283577a2-3f65-4c13-855b-d144157582c8","ios":"levelo://app?vid=283577a2-3f65-4c13-855b-d144157582c8"},"vehicle_type_id":"4","last_reported":1770133125,"current_range_meters":8400,"station_id":"ce4bgjp2rcd13ifvqbh0","pricing_plan_id":"cebpf4jnsgd1na2vs0mg"},{"bike_id":"8e312380-e745-433d-90b9-ff07a309073d","system_id":"levelo_inurba_marseille","lat":43.247972,"lon":5.374592,"is_reserved":false,"is_disabled":false,"rental_uris":{"android":"levelo://app?vid=8e312380-e745-433d-90b9-ff07a309073d","ios":"levelo://app?vid=8e312380-e745-433d-90b9-ff07a309073d"},"vehicle_type_id":"4","last_reported":1770133125,"current_range_meters":8800,"station_id":"ce4bhgh2rcd13ifvqfb0","pricing_plan_id":"cebpf4jnsgd1na2vs0mg"},{"bike_id":"c056efdd-bfd4-4d90-a2c4-30f136ba140c","system_id":"levelo_inurba_marseille","lat":43.33512,"lon":5.37508,"is_reserved":false,"is_disabled":false,"rental_uris":{"android":"levelo://app?vid=c056efdd-bfd4-4d90-a2c4-30f136ba140c","ios":"levelo://app?vid=c056efdd-bfd4-4d90-a2c4-30f136ba140c"},"vehicle_type_id":"4","last_reported":1770133125,"current_range_meters":8800,"station_id":"","pricing_plan_id":"cebpf4jnsgd1na2vs0mg"},{"bike_id":"edb8eb08-00e4-4ed3-a37f-676e3cf0339f","system_id":"levelo_inurba_marseille","lat":43.27971,"lon":5.38742,"is_reserved":false,"is_disabled":false,"rental_uris":{"android":"levelo://app?vid=edb8eb08-00e4-4ed3-a37f-676e3cf0339f","ios":"levelo://app?vid=edb8eb08-00e4-4ed3-a37f-676e3cf0339f"},"vehicle_type_id":"4","last_reported":1770133125,"current_range_meters":8800,"station_id":"ce4bhg12rcd13ifvqf80","pricing_plan_id":"cebpf4jnsgd1na2vs0mg"},{"bike_id":"56a1b9ba-7d3b-4d4d-816d-8ff70d14355a","system_id":"levelo_inurba_marseille","lat":43.24661,"lon":5.38163,"is_reserved":false,"is_disabled":false,"rental_uris":{"android":"levelo://app?vid=56a1b9ba-7d3b-4d4d-816d-8ff70d14355a","ios":"levelo://app?vid=56a1b9ba-7d3b-4d4d-816d-8ff70d14355a"},"vehicle_type_id":"4","last_reported":1770133125,"current_range_meters":8800,"station_id":"ce4bhih2rcd13ifvqfr0","pricing_plan_id":"cebpf4jnsgd1na2vs0mg"},{"bike_id":"3cdda250-36eb-4bd4-b94a-0b0ee8adb8cf","system_id":"levelo_inurba_marseille","lat":43.289329,"lon":5.366252,"is_reserved":false,"is_disabled":false,"rental_uris":{"android":"levelo://app?vid=3cdda250-36eb-4bd4-b94a-0b0ee8adb8cf","ios":"levelo://app?vid=3cdda250-36eb-4bd4-b94a-0b0ee8adb8cf"},"vehicle_type_id":"4","last_reported":1770133125,"current_range_meters":8800,"station_id":"ce4bhap2rcd13ifvqek0","pricing_plan_id":"cebpf4jnsgd1na2vs0mg"},{"bike_id":"574b46f0-3f1e-4de0-961b-a840353bfcf3","system_id":"levelo_inurba_marseille","lat":43.23783,"lon":5.36636,"is_reserved":false,"is_disabled":false,"rental_uris":{"android":"levelo://app?vid=574b46f0-3f1e-4de0-961b-a840353bfcf3","ios":"levelo://app?vid=574b46f0-3f1e-4de0-961b-a840353bfcf3"},"vehicle_type_id":"4","last_reported":1770133125,"current_range_meters":8800,"station_id":"st_d3nk18o9ro0c73en2l3g","pricing_plan_id":"cebpf4jnsgd1na2vs0mg"},{"bike_id":"85abf2ca-c23c-4f48-b10d-5858680e2422","system_id":"levelo_inurba_marseille","lat":43.26203,"lon":5.37947,"is_reserved":false,"is_disabled":false,"rental_uris":{"android":"levelo://app?vid=85abf2ca-c23c-4f48-b10d-5858680e2422","ios":"levelo://app?vid=85abf2ca-c23c-4f48-b10d-5858680e2422"},"vehicle_type_id":"4","last_reported":1770133125,"current_range_meters":8800,"station_id":"ce4bhjp2rcd13ifvqg90","pricing_plan_id":"cebpf4jnsgd1na2vs0mg"},{"bike_id":"bef4a9c6-0606-4bcb-a34f-550a36b8640e","system_id":"levelo_inurba_marseille","lat":43.28273,"lon":5.35077,"is_reserved":false,"is_disabled":false,"rental_uris":{"android":"levelo://app?vid=bef4a9c6-0606-4bcb-a34f-550a36b8640e","ios":"levelo://app?vid=bef4a9c6-0606-4bcb-a34f-550a36b8640e"},"vehicle_type_id":"4","last_reported":1770133125,"current_range_meters":8800,"station_id":"ce4bhbp2rcd13ifvqerg","pricing_plan_id":"cebpf4jnsgd1na2vs0mg"},{"bike_id":"ba3390f5-14ed-4160-abcf-8bea19885613","system_id":"levelo_inurba_marseille","lat":43.28501,"lon":5.48364,"is_reserved":false,"is_disabled":false,"rental_uris":{"android":"levelo://app?vid=ba3390f5-14ed-4160-abcf-8bea19885613","ios":"levelo://app?vid=ba3390f5-14ed-4160-abcf-8bea19885613"},"vehicle_type_id":"4","last_reported":1770133125,"current_range_meters":8800,"station_id":"st_d3svhcjqgbts73a3dn0g","pricing_plan_id":"cebpf4jnsgd1na2vs0mg"},{"bike_id":"02cb8e6d-d72c-4447-a724-d8f35492fa92","system_id":"levelo_inurba_marseille","lat":43.30863,"lon":5.36882,"is_reserved":false,"is_disabled":false,"rental_uris":{"android":"levelo://app?vid=02cb8e6d-d72c-4447-a724-d8f35492fa92","ios":"levelo://app?vid=02cb8e6d-d72c-4447-a724-d8f35492fa92"},"vehicle_type_id":"4","last_reported":1770133125,"current_range_meters":8800,"station_id":"","pricing_plan_id":"cebpf4jnsgd1na2vs0mg"},{"bike_id":"ef30bb24-f45f-400c-9967-a2a3b2da1488","system_id":"levelo_inurba_marseille","lat":43.28283,"lon":5.39429,"is_reserved":false,"is_disabled":false,"rental_uris":{"android":"levelo://app?vid=ef30bb24-f45f-400c-9967-a2a3b2da1488","ios":"levelo://app?vid=ef30bb24-f45f-400c-9967-a2a3b2da1488"},"vehicle_type_id":"4","last_reported":1770133125,"current_range_meters":8800,"station_id":"","pricing_plan_id":"cebpf4jnsgd1na2vs0mg"},{"bike_id":"b886faeb-2ae5-4849-a4c7-c906741f8bf1","system_id":"levelo_inurba_marseille","lat":43.26568,"lon":5.40323,"is_reserved":false,"is_disabled":false,"rental_uris":{"android":"levelo://app?vid=b886faeb-2ae5-4849-a4c7-c906741f8bf1","ios":"levelo://app?vid=b886faeb-2ae5-4849-a4c7-c906741f8bf1"},"vehicle_type_id":"4","last_reported":1770133125,"current_range_meters":8800,"station_id":"ce4bhmp2rcd13ifvqgng","pricing_plan_id":"cebpf4jnsgd1na2vs0mg"},{"bike_id":"584cca06-c4c6-42e6-bd7f-5b84d6607c6c","system_id":"levelo_inurba_marseille","lat":43.28487,"lon":5.38412,"is_reserved":false,"is_disabled":false,"rental_uris":{"android":"levelo://app?vid=584cca06-c4c6-42e6-bd7f-5b84d6607c6c","ios":"levelo://app?vid=584cca06-c4c6-42e6-bd7f-5b84d6607c6c"},"vehicle_type_id":"4","last_reported":1770133125,"current_range_meters":8800,"station_id":"ce4bh512rcd13ifvqe3g","pricing_plan_id":"cebpf4jnsgd1na2vs0mg"},{"bike_id":"95bd78dd-3339-41b7-b055-9b7419c0bb1e","system_id":"levelo_inurba_marseille","lat":43.2655,"lon":5.37293,"is_reserved":false,"is_disabled":false,"rental_uris":{"android":"levelo://app?vid=95bd78dd-3339-41b7-b055-9b7419c0bb1e","ios":"levelo://app?vid=95bd78dd-3339-41b7-b055-9b7419c0bb1e"},"vehicle_type_id":"4","last_reported":1770133125,"current_range_meters":8800,"station_id":"ce4bhg12rcd13ifvqf70","pricing_plan_id":"cebpf4jnsgd1na2vs0mg"},{"bike_id":"068098b6-2917-46c3-bbcd-2f4568f90c7b","system_id":"levelo_inurba_marseille","lat":43.28623,"lon":5.35104,"is_reserved":false,"is_disabled":true,"rental_uris":{"android":"levelo://app?vid=068098b6-2917-46c3-bbcd-2f4568f90c7b","ios":"levelo://app?vid=068098b6-2917-46c3-bbcd-2f4568f90c7b"},"vehicle_type_id":"4","last_reported":1770133125,"current_range_meters":8800,"station_id":"","pricing_plan_id":"cebpf4jnsgd1na2vs0mg"},{"bike_id":"03957cd6-ee2d-47d1-948d-c3da3284d226","system_id":"levelo_inurba_marseille","lat":43.28948,"lon":5.36375,"is_reserved":false,"is_disabled":true,"rental_uris":{"android":"levelo://app?vid=03957cd6-ee2d-47d1-948d-c3da3284d226","ios":"levelo://app?vid=03957cd6-ee2d-47d1-948d-c3da3284d226"},"vehicle_type_id":"4","last_reported":1770133125,"current_range_meters":8800,"station_id":"ce4bhc92rcd13ifvqetg","pricing_plan_id":"cebpf4jnsgd1na2vs0mg"},{"bike_id":"27eb5eca-1ec5-48c0-939e-193c1aa4edc9","system_id":"levelo_inurba_marseille","lat":43.25335,"lon":5.42159,"is_reserved":false,"is_disabled":false,"rental_uris":{"android":"levelo://app?vid=27eb5eca-1ec5-48c0-939e-193c1aa4edc9","ios":"levelo://app?vid=27eb5eca-1ec5-48c0-939e-193c1aa4edc9"},"vehicle_type_id":"4","last_reported":1770133125,"current_range_meters":8800,"station_id":"st_d2m65c5bi1j21697t3ng","pricing_plan_id":"cebpf4jnsgd1na2vs0mg"},{"bike_id":"04ab4868-a773-4da8-b9a9-f5fedd6e47ae","system_id":"levelo_inurba_marseille","lat":43.25759,"lon":5.41103,"is_reserved":false,"is_disabled":false,"rental_uris":{"android":"levelo://app?vid=04ab4868-a773-4da8-b9a9-f5fedd6e47ae","ios":"levelo://app?vid=04ab4868-a773-4da8-b9a9-f5fedd6e47ae"},"vehicle_type_id":"4","last_reported":1770133125,"current_range_meters":8800,"station_id":"","pricing_plan_id":"cebpf4jnsgd1na2vs0mg"},{"bike_id":"1a8cbd53-f3cd-463e-8c24-fde20404b7ee","system_id":"levelo_inurba_marseille","lat":43.25586,"lon":5.38224,"is_reserved":false,"is_disabled":false,"rental_uris":{"android":"levelo://app?vid=1a8cbd53-f3cd-463e-8c24-fde20404b7ee","ios":"levelo://app?vid=1a8cbd53-f3cd-463e-8c24-fde20404b7ee"},"vehicle_type_id":"4","last_reported":1770133125,"current_range_meters":8800,"station_id":"ce4bhih2rcd13ifvqfs0","pricing_plan_id":"cebpf4jnsgd1na2vs0mg"},{"bike_id":"4c230e66-4945-4489-bab5-620761c5715c","system_id":"levelo_inurba_marseille","lat":43.2894,"lon":5.38424,"is_reserved":false,"is_disabled":false,"rental_uris":{"android":"levelo://app?vid=4c230e66-4945-4489-bab5-620761c5715c","ios":"levelo://app?vid=4c230e66-4945-4489-bab5-620761c5715c"},"vehicle_type_id":"4","last_reported":1770133125,"current_range_meters":8800,"station_id":"","pricing_plan_id":"cebpf4jnsgd1na2vs0mg"},{"bike_id":"f213cd55-4487-4823-bb99-1e69478c6719","system_id":"levelo_inurba_marseille","lat":43.32366,"lon":5.38508,"is_reserved":false,"is_disabled":false,"rental_uris":{"android":"levelo://app?vid=f213cd55-4487-4823-bb99-1e69478c6719","ios":"levelo://app?vid=f213cd55-4487-4823-bb99-1e69478c6719"},"vehicle_type_id":"4","last_reported":1770133125,"current_range_meters":8800,"station_id":"st_d45171o9ee8s73djdqug","pricing_plan_id":"cebpf4jnsgd1na2vs0mg"},{"bike_id":"ee0c3726-1b90-451b-95d4-33b506a39c2f","system_id":"levelo_inurba_marseille","lat":43.25016,"lon":5.38912,"is_reserved":false,"is_disabled":false,"rental_uris":{"android":"levelo://app?vid=ee0c3726-1b90-451b-95d4-33b506a39c2f","ios":"levelo://app?vid=ee0c3726-1b90-451b-95d4-33b506a39c2f"},"vehicle_type_id":"4","last_reported":1770133125,"current_range_meters":8800,"station_id":"ce4bhgp2rcd13ifvqfd0","pricing_plan_id":"cebpf4jnsgd1na2vs0mg"},{"bike_id":"d25c30ce-208a-4865-aa8f-61a37bd60365","system_id":"levelo_inurba_marseille","lat":43.29561,"lon":5.38136,"is_reserved":false,"is_disabled":false,"rental_uris":{"android":"levelo://app?vid=d25c30ce-208a-4865-aa8f-61a37bd60365","ios":"levelo://app?vid=d25c30ce-208a-4865-aa8f-61a37bd60365"},"vehicle_type_id":"4","last_reported":1770133125,"current_range_meters":8800,"station_id":"ce4bgl12rcd13ifvqbo0","pricing_plan_id":"cebpf4jnsgd1na2vs0mg"},{"bike_id":"163b8a94-9ff2-444c-9a92-fa3e343961fe","system_id":"levelo_inurba_marseille","lat":43.3266,"lon":5.40993,"is_reserved":false,"is_disabled":false,"rental_uris":{"android":"levelo://app?vid=163b8a94-9ff2-444c-9a92-fa3e343961fe","ios":"levelo://app?vid=163b8a94-9ff2-444c-9a92-fa3e343961fe"},"vehicle_type_id":"4","last_reported":1770133125,"current_range_meters":8800,"station_id":"ce4bhpp2rcd13ifvqhgg","pricing_plan_id":"cebpf4jnsgd1na2vs0mg"},{"bike_id":"b3a54eab-b946-460c-8d1b-dbc0ce5bc3c5","system_id":"levelo_inurba_marseille","lat":43.28155,"lon":5.42629,"is_reserved":false,"is_disabled":false,"rental_uris":{"android":"levelo://app?vid=b3a54eab-b946-460c-8d1b-dbc0ce5bc3c5","ios":"levelo://app?vid=b3a54eab-b946-460c-8d1b-dbc0ce5bc3c5"},"vehicle_type_id":"4","last_reported":1770133125,"current_range_meters":8800,"station_id":"ce4bhnh2rcd13ifvqgug","pricing_plan_id":"cebpf4jnsgd1na2vs0mg"},{"bike_id":"41efee0d-caa2-45b0-863d-489d81dde529","system_id":"levelo_inurba_marseille","lat":43.28535,"lon":5.44098,"is_reserved":false,"is_disabled":false,"rental_uris":{"android":"levelo://app?vid=41efee0d-caa2-45b0-863d-489d81dde529","ios":"levelo://app?vid=41efee0d-caa2-45b0-863d-489d81dde529"},"vehicle_type_id":"4","last_reported":1770133125,"current_range_meters":8800,"station_id":"st_d3j3df2ikq2c7380ej80","pricing_plan_id":"cebpf4jnsgd1na2vs0mg"},{"bike_id":"df99b820-a07c-4577-9ddc-0675139e41fe","system_id":"levelo_inurba_marseille","lat":43.23129,"lon":5.43701,"is_reserved":false,"is_disabled":false,"rental_uris":{"android":"levelo://app?vid=df99b820-a07c-4577-9ddc-0675139e41fe","ios":"levelo://app?vid=df99b820-a07c-4577-9ddc-0675139e41fe"},"vehicle_type_id":"4","last_reported":1770133125,"current_range_meters":8800,"station_id":"ce4bhmp2rcd13ifvqgog","pricing_plan_id":"cebpf4jnsgd1na2vs0mg"},{"bike_id":"5db40262-c973-4b13-b2a9-ee1639ccf6b3","system_id":"levelo_inurba_marseille","lat":43.24817,"lon":5.37432,"is_reserved":false,"is_disabled":false,"rental_uris":{"android":"levelo://app?vid=5db40262-c973-4b13-b2a9-ee1639ccf6b3","ios":"levelo://app?vid=5db40262-c973-4b13-b2a9-ee1639ccf6b3"},"vehicle_type_id":"4","last_reported":1770133125,"current_range_meters":9200,"station_id":"ce4bhgh2rcd13ifvqfb0","pricing_plan_id":"cebpf4jnsgd1na2vs0mg"},{"bike_id":"98fce53e-2f71-43cb-b9de-a1e78e7dc72e","system_id":"levelo_inurba_marseille","lat":43.23197,"lon":5.39963,"is_reserved":false,"is_disabled":false,"rental_uris":{"android":"levelo://app?vid=98fce53e-2f71-43cb-b9de-a1e78e7dc72e","ios":"levelo://app?vid=98fce53e-2f71-43cb-b9de-a1e78e7dc72e"},"vehicle_type_id":"4","last_reported":1770133125,"current_range_meters":9200,"station_id":"ce4bhn12rcd13ifvqgqg","pricing_plan_id":"cebpf4jnsgd1na2vs0mg"},{"bike_id":"b1232b0b-c020-4056-bbb1-407f7cec3c01","system_id":"levelo_inurba_marseille","lat":43.297914,"lon":5.38094,"is_reserved":false,"is_disabled":false,"rental_uris":{"android":"levelo://app?vid=b1232b0b-c020-4056-bbb1-407f7cec3c01","ios":"levelo://app?vid=b1232b0b-c020-4056-bbb1-407f7cec3c01"},"vehicle_type_id":"4","last_reported":1770133125,"current_range_meters":9200,"station_id":"ce4bgip2rcd13ifvqbb0","pricing_plan_id":"cebpf4jnsgd1na2vs0mg"},{"bike_id":"8c915c94-df75-4897-93cc-c572ef348996","system_id":"levelo_inurba_marseille","lat":43.295336,"lon":5.37502,"is_reserved":false,"is_disabled":false,"rental_uris":{"android":"levelo://app?vid=8c915c94-df75-4897-93cc-c572ef348996","ios":"levelo://app?vid=8c915c94-df75-4897-93cc-c572ef348996"},"vehicle_type_id":"4","last_reported":1770133125,"current_range_meters":9200,"station_id":"ce4bgkp2rcd13ifvqbmg","pricing_plan_id":"cebpf4jnsgd1na2vs0mg"},{"bike_id":"25ed47fc-271f-4de7-a2a6-6e589391bb92","system_id":"levelo_inurba_marseille","lat":43.28414,"lon":5.34969,"is_reserved":false,"is_disabled":false,"rental_uris":{"android":"levelo://app?vid=25ed47fc-271f-4de7-a2a6-6e589391bb92","ios":"levelo://app?vid=25ed47fc-271f-4de7-a2a6-6e589391bb92"},"vehicle_type_id":"4","last_reported":1770133125,"current_range_meters":9200,"station_id":"ce4bhbh2rcd13ifvqepg","pricing_plan_id":"cebpf4jnsgd1na2vs0mg"},{"bike_id":"1348634a-5a45-4bb9-94b6-c5f05c2ab98e","system_id":"levelo_inurba_marseille","lat":43.29707,"lon":5.36606,"is_reserved":false,"is_disabled":false,"rental_uris":{"android":"levelo://app?vid=1348634a-5a45-4bb9-94b6-c5f05c2ab98e","ios":"levelo://app?vid=1348634a-5a45-4bb9-94b6-c5f05c2ab98e"},"vehicle_type_id":"4","last_reported":1770133125,"current_range_meters":9200,"station_id":"ce4bgn12rcd13ifvqbt0","pricing_plan_id":"cebpf4jnsgd1na2vs0mg"},{"bike_id":"5892fc85-7848-4ac6-9041-3115ffbc60b4","system_id":"levelo_inurba_marseille","lat":43.24654,"lon":5.38145,"is_reserved":false,"is_disabled":false,"rental_uris":{"android":"levelo://app?vid=5892fc85-7848-4ac6-9041-3115ffbc60b4","ios":"levelo://app?vid=5892fc85-7848-4ac6-9041-3115ffbc60b4"},"vehicle_type_id":"4","last_reported":1770133125,"current_range_meters":9200,"station_id":"ce4bhih2rcd13ifvqfr0","pricing_plan_id":"cebpf4jnsgd1na2vs0mg"},{"bike_id":"e6192afe-2a62-43ea-9ff6-d08f1cf1e7d8","system_id":"levelo_inurba_marseille","lat":43.31343,"lon":5.3672,"is_reserved":false,"is_disabled":false,"rental_uris":{"android":"levelo://app?vid=e6192afe-2a62-43ea-9ff6-d08f1cf1e7d8","ios":"levelo://app?vid=e6192afe-2a62-43ea-9ff6-d08f1cf1e7d8"},"vehicle_type_id":"4","last_reported":1770133125,"current_range_meters":9200,"station_id":"ce4bgr92rcd13ifvqc6g","pricing_plan_id":"cebpf4jnsgd1na2vs0mg"},{"bike_id":"242256f5-f0bd-4204-9565-2087ceacdda5","system_id":"levelo_inurba_marseille","lat":43.22559,"lon":5.41632,"is_reserved":false,"is_disabled":false,"rental_uris":{"android":"levelo://app?vid=242256f5-f0bd-4204-9565-2087ceacdda5","ios":"levelo://app?vid=242256f5-f0bd-4204-9565-2087ceacdda5"},"vehicle_type_id":"4","last_reported":1770133125,"current_range_meters":9200,"station_id":"st_d2o4gvlbi1j2169b742g","pricing_plan_id":"cebpf4jnsgd1na2vs0mg"},{"bike_id":"20820e08-d026-49ef-a432-d6370cd971d2","system_id":"levelo_inurba_marseille","lat":43.3119,"lon":5.36838,"is_reserved":false,"is_disabled":false,"rental_uris":{"android":"levelo://app?vid=20820e08-d026-49ef-a432-d6370cd971d2","ios":"levelo://app?vid=20820e08-d026-49ef-a432-d6370cd971d2"},"vehicle_type_id":"4","last_reported":1770133125,"current_range_meters":9200,"station_id":"ce4bgl92rcd13ifvqbq0","pricing_plan_id":"cebpf4jnsgd1na2vs0mg"},{"bike_id":"68d486c2-43a2-454d-b578-33d6d1fcfcee","system_id":"levelo_inurba_marseille","lat":43.30151,"lon":5.37422,"is_reserved":false,"is_disabled":false,"rental_uris":{"android":"levelo://app?vid=68d486c2-43a2-454d-b578-33d6d1fcfcee","ios":"levelo://app?vid=68d486c2-43a2-454d-b578-33d6d1fcfcee"},"vehicle_type_id":"4","last_reported":1770133125,"current_range_meters":9200,"station_id":"ce4bgs92rcd13ifvqcc0","pricing_plan_id":"cebpf4jnsgd1na2vs0mg"},{"bike_id":"a1d40264-31fa-4368-a92c-3f50c8a64b96","system_id":"levelo_inurba_marseille","lat":43.23147,"lon":5.43673,"is_reserved":false,"is_disabled":false,"rental_uris":{"android":"levelo://app?vid=a1d40264-31fa-4368-a92c-3f50c8a64b96","ios":"levelo://app?vid=a1d40264-31fa-4368-a92c-3f50c8a64b96"},"vehicle_type_id":"4","last_reported":1770133125,"current_range_meters":9200,"station_id":"ce4bhmp2rcd13ifvqgog","pricing_plan_id":"cebpf4jnsgd1na2vs0mg"},{"bike_id":"ef4aafd7-31d8-4f9b-97f1-b8af2e53c15d","system_id":"levelo_inurba_marseille","lat":43.29902,"lon":5.43666,"is_reserved":false,"is_disabled":false,"rental_uris":{"android":"levelo://app?vid=ef4aafd7-31d8-4f9b-97f1-b8af2e53c15d","ios":"levelo://app?vid=ef4aafd7-31d8-4f9b-97f1-b8af2e53c15d"},"vehicle_type_id":"4","last_reported":1770133125,"current_range_meters":9200,"station_id":"ce4bhpp2rcd13ifvqhfg","pricing_plan_id":"cebpf4jnsgd1na2vs0mg"},{"bike_id":"a6c78dd6-2f13-4e58-9e46-28ec0ab4ccb6","system_id":"levelo_inurba_marseille","lat":43.29715,"lon":5.37705,"is_reserved":false,"is_disabled":false,"rental_uris":{"android":"levelo://app?vid=a6c78dd6-2f13-4e58-9e46-28ec0ab4ccb6","ios":"levelo://app?vid=a6c78dd6-2f13-4e58-9e46-28ec0ab4ccb6"},"vehicle_type_id":"4","last_reported":1770133125,"current_range_meters":9200,"station_id":"ce4bgkh2rcd13ifvqbl0","pricing_plan_id":"cebpf4jnsgd1na2vs0mg"},{"bike_id":"1b944126-8760-4ea9-b6e0-f28267fa360d","system_id":"levelo_inurba_marseille","lat":43.29211,"lon":5.39331,"is_reserved":false,"is_disabled":false,"rental_uris":{"android":"levelo://app?vid=1b944126-8760-4ea9-b6e0-f28267fa360d","ios":"levelo://app?vid=1b944126-8760-4ea9-b6e0-f28267fa360d"},"vehicle_type_id":"4","last_reported":1770133125,"current_range_meters":9200,"station_id":"ce4bh192rcd13ifvqdd0","pricing_plan_id":"cebpf4jnsgd1na2vs0mg"},{"bike_id":"a5eda67a-1af7-4789-9b16-aa7217c90cd3","system_id":"levelo_inurba_marseille","lat":43.23716,"lon":5.40177,"is_reserved":false,"is_disabled":false,"rental_uris":{"android":"levelo://app?vid=a5eda67a-1af7-4789-9b16-aa7217c90cd3","ios":"levelo://app?vid=a5eda67a-1af7-4789-9b16-aa7217c90cd3"},"vehicle_type_id":"4","last_reported":1770133125,"current_range_meters":9200,"station_id":"","pricing_plan_id":"cebpf4jnsgd1na2vs0mg"},{"bike_id":"ef7eb373-c13c-4512-94e4-1d7f2167363f","system_id":"levelo_inurba_marseille","lat":43.24681,"lon":5.3814,"is_reserved":false,"is_disabled":false,"rental_uris":{"android":"levelo://app?vid=ef7eb373-c13c-4512-94e4-1d7f2167363f","ios":"levelo://app?vid=ef7eb373-c13c-4512-94e4-1d7f2167363f"},"vehicle_type_id":"4","last_reported":1770133125,"current_range_meters":9200,"station_id":"ce4bhih2rcd13ifvqfr0","pricing_plan_id":"cebpf4jnsgd1na2vs0mg"},{"bike_id":"6d2a7c85-905c-456e-aeaa-ea9b7a315075","system_id":"levelo_inurba_marseille","lat":43.30136,"lon":5.3742,"is_reserved":false,"is_disabled":false,"rental_uris":{"android":"levelo://app?vid=6d2a7c85-905c-456e-aeaa-ea9b7a315075","ios":"levelo://app?vid=6d2a7c85-905c-456e-aeaa-ea9b7a315075"},"vehicle_type_id":"4","last_reported":1770133125,"current_range_meters":9200,"station_id":"ce4bgs92rcd13ifvqcc0","pricing_plan_id":"cebpf4jnsgd1na2vs0mg"},{"bike_id":"b8b46aba-6562-4a3f-ad30-4b2b508d974c","system_id":"levelo_inurba_marseille","lat":43.29536,"lon":5.39411,"is_reserved":false,"is_disabled":false,"rental_uris":{"android":"levelo://app?vid=b8b46aba-6562-4a3f-ad30-4b2b508d974c","ios":"levelo://app?vid=b8b46aba-6562-4a3f-ad30-4b2b508d974c"},"vehicle_type_id":"4","last_reported":1770133125,"current_range_meters":9200,"station_id":"ce4bh292rcd13ifvqdf0","pricing_plan_id":"cebpf4jnsgd1na2vs0mg"},{"bike_id":"5ffc162c-3876-4a49-af02-3661f44effbb","system_id":"levelo_inurba_marseille","lat":43.28473,"lon":5.48402,"is_reserved":false,"is_disabled":false,"rental_uris":{"android":"levelo://app?vid=5ffc162c-3876-4a49-af02-3661f44effbb","ios":"levelo://app?vid=5ffc162c-3876-4a49-af02-3661f44effbb"},"vehicle_type_id":"4","last_reported":1770133125,"current_range_meters":9200,"station_id":"st_d3svhcjqgbts73a3dn0g","pricing_plan_id":"cebpf4jnsgd1na2vs0mg"},{"bike_id":"eb06baa3-f3b4-41de-85d8-b59f30b83f78","system_id":"levelo_inurba_marseille","lat":43.31278,"lon":5.36871,"is_reserved":false,"is_disabled":false,"rental_uris":{"android":"levelo://app?vid=eb06baa3-f3b4-41de-85d8-b59f30b83f78","ios":"levelo://app?vid=eb06baa3-f3b4-41de-85d8-b59f30b83f78"},"vehicle_type_id":"4","last_reported":1770133125,"current_range_meters":9200,"station_id":"","pricing_plan_id":"cebpf4jnsgd1na2vs0mg"},{"bike_id":"988afa8e-d306-4003-baf9-728102144f56","system_id":"levelo_inurba_marseille","lat":43.26761,"lon":5.38302,"is_reserved":false,"is_disabled":false,"rental_uris":{"android":"levelo://app?vid=988afa8e-d306-4003-baf9-728102144f56","ios":"levelo://app?vid=988afa8e-d306-4003-baf9-728102144f56"},"vehicle_type_id":"4","last_reported":1770133125,"current_range_meters":9600,"station_id":"","pricing_plan_id":"cebpf4jnsgd1na2vs0mg"},{"bike_id":"96b680bc-a481-4144-a2be-35f7ce1aeaa1","system_id":"levelo_inurba_marseille","lat":43.29013,"lon":5.35615,"is_reserved":false,"is_disabled":false,"rental_uris":{"android":"levelo://app?vid=96b680bc-a481-4144-a2be-35f7ce1aeaa1","ios":"levelo://app?vid=96b680bc-a481-4144-a2be-35f7ce1aeaa1"},"vehicle_type_id":"4","last_reported":1770133125,"current_range_meters":9600,"station_id":"ce4bhb92rcd13ifvqen0","pricing_plan_id":"cebpf4jnsgd1na2vs0mg"},{"bike_id":"a833d5a7-29d1-45cd-b301-252c47d71939","system_id":"levelo_inurba_marseille","lat":43.28492,"lon":5.38418,"is_reserved":false,"is_disabled":false,"rental_uris":{"android":"levelo://app?vid=a833d5a7-29d1-45cd-b301-252c47d71939","ios":"levelo://app?vid=a833d5a7-29d1-45cd-b301-252c47d71939"},"vehicle_type_id":"4","last_reported":1770133125,"current_range_meters":9600,"station_id":"ce4bh512rcd13ifvqe3g","pricing_plan_id":"cebpf4jnsgd1na2vs0mg"},{"bike_id":"818ea31d-b71c-487e-ae02-1f51892d7189","system_id":"levelo_inurba_marseille","lat":43.29005,"lon":5.35611,"is_reserved":false,"is_disabled":false,"rental_uris":{"android":"levelo://app?vid=818ea31d-b71c-487e-ae02-1f51892d7189","ios":"levelo://app?vid=818ea31d-b71c-487e-ae02-1f51892d7189"},"vehicle_type_id":"4","last_reported":1770133125,"current_range_meters":9600,"station_id":"ce4bhb92rcd13ifvqen0","pricing_plan_id":"cebpf4jnsgd1na2vs0mg"},{"bike_id":"35cabcd8-3fb1-448a-bb2c-99fe4b6133ec","system_id":"levelo_inurba_marseille","lat":43.29514,"lon":5.37495,"is_reserved":false,"is_disabled":false,"rental_uris":{"android":"levelo://app?vid=35cabcd8-3fb1-448a-bb2c-99fe4b6133ec","ios":"levelo://app?vid=35cabcd8-3fb1-448a-bb2c-99fe4b6133ec"},"vehicle_type_id":"4","last_reported":1770133125,"current_range_meters":9600,"station_id":"ce4bgkp2rcd13ifvqbmg","pricing_plan_id":"cebpf4jnsgd1na2vs0mg"},{"bike_id":"1794fc4b-f1e9-4439-acd6-7a3c137a2b38","system_id":"levelo_inurba_marseille","lat":43.2379,"lon":5.36628,"is_reserved":false,"is_disabled":false,"rental_uris":{"android":"levelo://app?vid=1794fc4b-f1e9-4439-acd6-7a3c137a2b38","ios":"levelo://app?vid=1794fc4b-f1e9-4439-acd6-7a3c137a2b38"},"vehicle_type_id":"4","last_reported":1770133125,"current_range_meters":9600,"station_id":"st_d3nk18o9ro0c73en2l3g","pricing_plan_id":"cebpf4jnsgd1na2vs0mg"},{"bike_id":"30a564fc-cc84-4416-a8a0-217a2d812352","system_id":"levelo_inurba_marseille","lat":43.31723,"lon":5.40469,"is_reserved":false,"is_disabled":false,"rental_uris":{"android":"levelo://app?vid=30a564fc-cc84-4416-a8a0-217a2d812352","ios":"levelo://app?vid=30a564fc-cc84-4416-a8a0-217a2d812352"},"vehicle_type_id":"4","last_reported":1770133125,"current_range_meters":9600,"station_id":"ce4bh012rcd13ifvqd00","pricing_plan_id":"cebpf4jnsgd1na2vs0mg"},{"bike_id":"9d79ec10-3ed1-4035-8609-ff591e4f54d3","system_id":"levelo_inurba_marseille","lat":43.25587,"lon":5.38203,"is_reserved":false,"is_disabled":false,"rental_uris":{"android":"levelo://app?vid=9d79ec10-3ed1-4035-8609-ff591e4f54d3","ios":"levelo://app?vid=9d79ec10-3ed1-4035-8609-ff591e4f54d3"},"vehicle_type_id":"4","last_reported":1770133125,"current_range_meters":9600,"station_id":"ce4bhih2rcd13ifvqfs0","pricing_plan_id":"cebpf4jnsgd1na2vs0mg"},{"bike_id":"e6244285-1fd0-41e0-898a-c6a02355a2d1","system_id":"levelo_inurba_marseille","lat":43.2828,"lon":5.35069,"is_reserved":false,"is_disabled":false,"rental_uris":{"android":"levelo://app?vid=e6244285-1fd0-41e0-898a-c6a02355a2d1","ios":"levelo://app?vid=e6244285-1fd0-41e0-898a-c6a02355a2d1"},"vehicle_type_id":"4","last_reported":1770133125,"current_range_meters":9600,"station_id":"ce4bhbp2rcd13ifvqerg","pricing_plan_id":"cebpf4jnsgd1na2vs0mg"},{"bike_id":"9a41c992-8ec6-4c5f-9787-da9fbb815a48","system_id":"levelo_inurba_marseille","lat":43.25569,"lon":5.38232,"is_reserved":false,"is_disabled":false,"rental_uris":{"android":"levelo://app?vid=9a41c992-8ec6-4c5f-9787-da9fbb815a48","ios":"levelo://app?vid=9a41c992-8ec6-4c5f-9787-da9fbb815a48"},"vehicle_type_id":"4","last_reported":1770133125,"current_range_meters":9600,"station_id":"ce4bhih2rcd13ifvqfs0","pricing_plan_id":"cebpf4jnsgd1na2vs0mg"},{"bike_id":"3e96821d-f8a2-4961-8893-311448c3de36","system_id":"levelo_inurba_marseille","lat":43.24007,"lon":5.3771,"is_reserved":false,"is_disabled":false,"rental_uris":{"android":"levelo://app?vid=3e96821d-f8a2-4961-8893-311448c3de36","ios":"levelo://app?vid=3e96821d-f8a2-4961-8893-311448c3de36"},"vehicle_type_id":"4","last_reported":1770133125,"current_range_meters":9600,"station_id":"","pricing_plan_id":"cebpf4jnsgd1na2vs0mg"},{"bike_id":"e3b54794-7cdf-4297-8a36-b895c6b216c9","system_id":"levelo_inurba_marseille","lat":43.29526,"lon":5.39044,"is_reserved":false,"is_disabled":false,"rental_uris":{"android":"levelo://app?vid=e3b54794-7cdf-4297-8a36-b895c6b216c9","ios":"levelo://app?vid=e3b54794-7cdf-4297-8a36-b895c6b216c9"},"vehicle_type_id":"4","last_reported":1770133125,"current_range_meters":9600,"station_id":"ce4bh3p2rcd13ifvqdp0","pricing_plan_id":"cebpf4jnsgd1na2vs0mg"},{"bike_id":"3e44f900-fbf1-4436-8b48-30779631baaf","system_id":"levelo_inurba_marseille","lat":43.29531,"lon":5.39028,"is_reserved":false,"is_disabled":false,"rental_uris":{"android":"levelo://app?vid=3e44f900-fbf1-4436-8b48-30779631baaf","ios":"levelo://app?vid=3e44f900-fbf1-4436-8b48-30779631baaf"},"vehicle_type_id":"4","last_reported":1770133125,"current_range_meters":9600,"station_id":"ce4bh3p2rcd13ifvqdp0","pricing_plan_id":"cebpf4jnsgd1na2vs0mg"},{"bike_id":"eddc97aa-c7ac-477f-a005-20280f45f0a1","system_id":"levelo_inurba_marseille","lat":43.26942,"lon":5.40242,"is_reserved":false,"is_disabled":false,"rental_uris":{"android":"levelo://app?vid=eddc97aa-c7ac-477f-a005-20280f45f0a1","ios":"levelo://app?vid=eddc97aa-c7ac-477f-a005-20280f45f0a1"},"vehicle_type_id":"4","last_reported":1770133125,"current_range_meters":9600,"station_id":"cjm6bp8fraef2m0cb0m0","pricing_plan_id":"cebpf4jnsgd1na2vs0mg"},{"bike_id":"0079e5b1-6125-4f00-9db5-9450c128e646","system_id":"levelo_inurba_marseille","lat":43.23153,"lon":5.43704,"is_reserved":false,"is_disabled":false,"rental_uris":{"android":"levelo://app?vid=0079e5b1-6125-4f00-9db5-9450c128e646","ios":"levelo://app?vid=0079e5b1-6125-4f00-9db5-9450c128e646"},"vehicle_type_id":"4","last_reported":1770133125,"current_range_meters":9600,"station_id":"ce4bhmp2rcd13ifvqgog","pricing_plan_id":"cebpf4jnsgd1na2vs0mg"},{"bike_id":"da4d19a5-63fa-471e-bc87-bb23db14643b","system_id":"levelo_inurba_marseille","lat":43.29559,"lon":5.42592,"is_reserved":false,"is_disabled":false,"rental_uris":{"android":"levelo://app?vid=da4d19a5-63fa-471e-bc87-bb23db14643b","ios":"levelo://app?vid=da4d19a5-63fa-471e-bc87-bb23db14643b"},"vehicle_type_id":"4","last_reported":1770133125,"current_range_meters":9600,"station_id":"","pricing_plan_id":"cebpf4jnsgd1na2vs0mg"},{"bike_id":"958be705-2a4e-4da4-b1a2-155a288d2bb2","system_id":"levelo_inurba_marseille","lat":43.23188,"lon":5.35564,"is_reserved":false,"is_disabled":false,"rental_uris":{"android":"levelo://app?vid=958be705-2a4e-4da4-b1a2-155a288d2bb2","ios":"levelo://app?vid=958be705-2a4e-4da4-b1a2-155a288d2bb2"},"vehicle_type_id":"4","last_reported":1770133125,"current_range_meters":9600,"station_id":"ce4bhu92rcd13ifvqi70","pricing_plan_id":"cebpf4jnsgd1na2vs0mg"},{"bike_id":"4df93785-ce15-4061-9f08-7ec07724cffb","system_id":"levelo_inurba_marseille","lat":43.29649,"lon":5.40584,"is_reserved":false,"is_disabled":false,"rental_uris":{"android":"levelo://app?vid=4df93785-ce15-4061-9f08-7ec07724cffb","ios":"levelo://app?vid=4df93785-ce15-4061-9f08-7ec07724cffb"},"vehicle_type_id":"4","last_reported":1770133125,"current_range_meters":9600,"station_id":"ce4bh0h2rcd13ifvqd60","pricing_plan_id":"cebpf4jnsgd1na2vs0mg"},{"bike_id":"e5a5aac3-e9ff-41eb-aba9-199f8f4139e6","system_id":"levelo_inurba_marseille","lat":43.315843,"lon":5.407577,"is_reserved":false,"is_disabled":false,"rental_uris":{"android":"levelo://app?vid=e5a5aac3-e9ff-41eb-aba9-199f8f4139e6","ios":"levelo://app?vid=e5a5aac3-e9ff-41eb-aba9-199f8f4139e6"},"vehicle_type_id":"4","last_reported":1770133125,"current_range_meters":9600,"station_id":"","pricing_plan_id":"cebpf4jnsgd1na2vs0mg"},{"bike_id":"df36a58d-76c8-4869-a358-a686f8da503c","system_id":"levelo_inurba_marseille","lat":43.28728,"lon":5.37934,"is_reserved":false,"is_disabled":false,"rental_uris":{"android":"levelo://app?vid=df36a58d-76c8-4869-a358-a686f8da503c","ios":"levelo://app?vid=df36a58d-76c8-4869-a358-a686f8da503c"},"vehicle_type_id":"4","last_reported":1770133125,"current_range_meters":10000,"station_id":"ce4bh9p2rcd13ifvqec0","pricing_plan_id":"cebpf4jnsgd1na2vs0mg"},{"bike_id":"5fefc5a3-6db6-4a8e-a9a7-96cb41e550d4","system_id":"levelo_inurba_marseille","lat":43.31069,"lon":5.38368,"is_reserved":false,"is_disabled":false,"rental_uris":{"android":"levelo://app?vid=5fefc5a3-6db6-4a8e-a9a7-96cb41e550d4","ios":"levelo://app?vid=5fefc5a3-6db6-4a8e-a9a7-96cb41e550d4"},"vehicle_type_id":"4","last_reported":1770133125,"current_range_meters":10000,"station_id":"ce4bgv92rcd13ifvqcr0","pricing_plan_id":"cebpf4jnsgd1na2vs0mg"},{"bike_id":"5db98934-da73-4fba-97ec-0da311a9e9e1","system_id":"levelo_inurba_marseille","lat":43.31204,"lon":5.36853,"is_reserved":false,"is_disabled":false,"rental_uris":{"android":"levelo://app?vid=5db98934-da73-4fba-97ec-0da311a9e9e1","ios":"levelo://app?vid=5db98934-da73-4fba-97ec-0da311a9e9e1"},"vehicle_type_id":"4","last_reported":1770133125,"current_range_meters":10000,"station_id":"ce4bgl92rcd13ifvqbq0","pricing_plan_id":"cebpf4jnsgd1na2vs0mg"},{"bike_id":"0404183b-d098-4059-9b6b-584ff60e730c","system_id":"levelo_inurba_marseille","lat":43.265576,"lon":5.390136,"is_reserved":false,"is_disabled":true,"rental_uris":{"android":"levelo://app?vid=0404183b-d098-4059-9b6b-584ff60e730c","ios":"levelo://app?vid=0404183b-d098-4059-9b6b-584ff60e730c"},"vehicle_type_id":"4","last_reported":1770133125,"current_range_meters":10000,"station_id":"ce4bhe12rcd13ifvqf30","pricing_plan_id":"cebpf4jnsgd1na2vs0mg"},{"bike_id":"4a8f2c25-1442-4a68-be3f-b8059e82c7d2","system_id":"levelo_inurba_marseille","lat":43.24404,"lon":5.37061,"is_reserved":false,"is_disabled":false,"rental_uris":{"android":"levelo://app?vid=4a8f2c25-1442-4a68-be3f-b8059e82c7d2","ios":"levelo://app?vid=4a8f2c25-1442-4a68-be3f-b8059e82c7d2"},"vehicle_type_id":"4","last_reported":1770133125,"current_range_meters":10000,"station_id":"ce4bhhh2rcd13ifvqfk0","pricing_plan_id":"cebpf4jnsgd1na2vs0mg"},{"bike_id":"45cb6210-e190-4a06-86d5-da7f69871bb3","system_id":"levelo_inurba_marseille","lat":43.23183,"lon":5.39987,"is_reserved":false,"is_disabled":false,"rental_uris":{"android":"levelo://app?vid=45cb6210-e190-4a06-86d5-da7f69871bb3","ios":"levelo://app?vid=45cb6210-e190-4a06-86d5-da7f69871bb3"},"vehicle_type_id":"4","last_reported":1770133125,"current_range_meters":10000,"station_id":"ce4bhn12rcd13ifvqgqg","pricing_plan_id":"cebpf4jnsgd1na2vs0mg"},{"bike_id":"97439aa1-31ad-4375-8f64-db4b0521352b","system_id":"levelo_inurba_marseille","lat":43.29302,"lon":5.37192,"is_reserved":false,"is_disabled":false,"rental_uris":{"android":"levelo://app?vid=97439aa1-31ad-4375-8f64-db4b0521352b","ios":"levelo://app?vid=97439aa1-31ad-4375-8f64-db4b0521352b"},"vehicle_type_id":"4","last_reported":1770133125,"current_range_meters":10000,"station_id":"ce4bgh92rcd13ifvqb40","pricing_plan_id":"cebpf4jnsgd1na2vs0mg"},{"bike_id":"d72c8d0b-6864-4eb2-b074-4484e5b3c2c1","system_id":"levelo_inurba_marseille","lat":43.28475,"lon":5.48426,"is_reserved":false,"is_disabled":false,"rental_uris":{"android":"levelo://app?vid=d72c8d0b-6864-4eb2-b074-4484e5b3c2c1","ios":"levelo://app?vid=d72c8d0b-6864-4eb2-b074-4484e5b3c2c1"},"vehicle_type_id":"4","last_reported":1770133125,"current_range_meters":10000,"station_id":"st_d3svhcjqgbts73a3dn0g","pricing_plan_id":"cebpf4jnsgd1na2vs0mg"},{"bike_id":"c214f81c-e58b-4475-ad7c-a9d63d7d79c5","system_id":"levelo_inurba_marseille","lat":43.29551,"lon":5.42271,"is_reserved":false,"is_disabled":false,"rental_uris":{"android":"levelo://app?vid=c214f81c-e58b-4475-ad7c-a9d63d7d79c5","ios":"levelo://app?vid=c214f81c-e58b-4475-ad7c-a9d63d7d79c5"},"vehicle_type_id":"4","last_reported":1770133125,"current_range_meters":10000,"station_id":"ce4bhph2rcd13ifvqhdg","pricing_plan_id":"cebpf4jnsgd1na2vs0mg"},{"bike_id":"708d8107-a502-4715-8ee8-97e259938ef7","system_id":"levelo_inurba_marseille","lat":43.24164,"lon":5.36394,"is_reserved":false,"is_disabled":false,"rental_uris":{"android":"levelo://app?vid=708d8107-a502-4715-8ee8-97e259938ef7","ios":"levelo://app?vid=708d8107-a502-4715-8ee8-97e259938ef7"},"vehicle_type_id":"4","last_reported":1770133125,"current_range_meters":10000,"station_id":"cpo36qri1sfpv3e86is0","pricing_plan_id":"cebpf4jnsgd1na2vs0mg"},{"bike_id":"7b2df10f-d97d-4068-9983-8f53d0a78517","system_id":"levelo_inurba_marseille","lat":43.28868,"lon":5.42516,"is_reserved":false,"is_disabled":false,"rental_uris":{"android":"levelo://app?vid=7b2df10f-d97d-4068-9983-8f53d0a78517","ios":"levelo://app?vid=7b2df10f-d97d-4068-9983-8f53d0a78517"},"vehicle_type_id":"4","last_reported":1770133125,"current_range_meters":10000,"station_id":"st_d3b462108ojc7389ooeg","pricing_plan_id":"cebpf4jnsgd1na2vs0mg"},