{"last_updated":1765912330,"ttl":60,"version":"2.2","data":{"bikes":[{"bike_id":"badd8d20-9209-4436-9c1f-a017c0e70e8a","system_id":"levelo_inurba_marseille","lat":43.3256,"lon":5.39321,"is_reserved":false,"is_disabled":false,"rental_uris":{"android":"levelo://app?vid=badd8d20-9209-4436-9c1f-a017c0e70e8a","ios":"levelo://app?vid=badd8d20-9209-4436-9c1f-a017c0e70e8a"},"vehicle_type_id":"4","last_reported":1765912330,"current_range_meters":2800,"station_id":"","pricing_plan_id":"cebpf4jnsgd1na2vs0mg"},{"bike_id":"ac677658-f53c-4e71-8b6b-dc5b7a33417e","system_id":"levelo_inurba_marseille","lat":43.28612,"lon":5.39876,"is_reserved":false,"is_disabled":false,"rental_uris":{"android":"levelo://app?vid=ac677658-f53c-4e71-8b6b-dc5b7a33417e","ios":"levelo://app?vid=ac677658-f53c-4e71-8b6b-dc5b7a33417e"},"vehicle_type_id":"4","last_reported":1765912330,"current_range_meters":2800,"station_id":"st_d4a7ka997mjs738ck50g","pricing_plan_id":"cebpf4jnsgd1na2vs0mg"},{"bike_id":"30f13715-619b-4249-959c-c827dc5d6f60","system_id":"levelo_inurba_marseille","lat":43.28441,"lon":5.39199,"is_reserved":false,"is_disabled":false,"rental_uris":{"android":"levelo://app?vid=30f13715-619b-4249-959c-c827dc5d6f60","ios":"levelo://app?vid=30f13715-619b-4249-959c-c827dc5d6f60"},"vehicle_type_id":"4","last_reported":1765912330,"current_range_meters":3600,"station_id":"ce4bhoh2rcd13ifvqh5g","pricing_plan_id":"cebpf4jnsgd1na2vs0mg"},{"bike_id":"9a30b3d3-f94c-492d-86a2-44eec22ac81d","system_id":"levelo_inurba_marseille","lat":43.25865,"lon":5.39892,"is_reserved":false,"is_disabled":false,"rental_uris":{"android":"levelo://app?vid=9a30b3d3-f94c-492d-86a2-44eec22ac81d","ios":"levelo://app?vid=9a30b3d3-f94c-492d-86a2-44eec22ac81d"},"vehicle_type_id":"4","last_reported":1765912330,"current_range_meters":3600,"station_id":"ce4bhl92rcd13ifvqghg","pricing_plan_id":"cebpf4jnsgd1na2vs0mg"},{"bike_id":"6e3ab641-d40b-4739-904d-1d6d9554e40b","system_id":"levelo_inurba_marseille","lat":43.30146,"lon":5.374144,"is_reserved":false,"is_disabled":false,"rental_uris":{"android":"levelo://app?vid=6e3ab641-d40b-4739-904d-1d6d9554e40b","ios":"levelo://app?vid=6e3ab641-d40b-4739-904d-1d6d9554e40b"},"vehicle_type_id":"4","last_reported":1765912330,"current_range_meters":3600,"station_id":"ce4bgs92rcd13ifvqcc0","pricing_plan_id":"cebpf4jnsgd1na2vs0mg"},{"bike_id":"e171e9b5-7206-45f5-8945-b7dd5a5390d4","system_id":"levelo_inurba_marseille","lat":43.27673,"lon":5.38883,"is_reserved":false,"is_disabled":false,"rental_uris":{"android":"levelo://app?vid=e171e9b5-7206-45f5-8945-b7dd5a5390d4","ios":"levelo://app?vid=e171e9b5-7206-45f5-8945-b7dd5a5390d4"},"vehicle_type_id":"4","last_reported":1765912330,"current_range_meters":4000,"station_id":"ce4bhi12rcd13ifvqfo0","pricing_plan_id":"cebpf4jnsgd1na2vs0mg"},{"bike_id":"1a432ab7-3327-4b5e-98d3-f998667da1cc","system_id":"levelo_inurba_marseille","lat":43.29025,"lon":5.38651,"is_reserved":false,"is_disabled":false,"rental_uris":{"android":"levelo://app?vid=1a432ab7-3327-4b5e-98d3-f998667da1cc","ios":"levelo://app?vid=1a432ab7-3327-4b5e-98d3-f998667da1cc"},"vehicle_type_id":"4","last_reported":1765912330,"current_range_meters":4000,"station_id":"ce4bh4p2rcd13ifvqe0g","pricing_plan_id":"cebpf4jnsgd1na2vs0mg"},{"bike_id":"bd75965b-fdf6-4f89-8edf-bc21a9e9f06f","system_id":"levelo_inurba_marseille","lat":43.29614,"lon":5.38098,"is_reserved":false,"is_disabled":false,"rental_uris":{"android":"levelo://app?vid=bd75965b-fdf6-4f89-8edf-bc21a9e9f06f","ios":"levelo://app?vid=bd75965b-fdf6-4f89-8edf-bc21a9e9f06f"},"vehicle_type_id":"4","last_reported":1765912330,"current_range_meters":4000,"station_id":"ce4bgl12rcd13ifvqbo0","pricing_plan_id":"cebpf4jnsgd1na2vs0mg"},{"bike_id":"96099bf2-0f38-4dda-a86d-701ea27a4a60","system_id":"levelo_inurba_marseille","lat":43.28872,"lon":5.42557,"is_reserved":false,"is_disabled":false,"rental_uris":{"android":"levelo://app?vid=96099bf2-0f38-4dda-a86d-701ea27a4a60","ios":"levelo://app?vid=96099bf2-0f38-4dda-a86d-701ea27a4a60"},"vehicle_type_id":"4","last_reported":1765912330,"current_range_meters":4000,"station_id":"st_d3b462108ojc7389ooeg","pricing_plan_id":"cebpf4jnsgd1na2vs0mg"},{"bike_id":"66e10194-8e2d-4634-89ad-d66d649b5e60","system_id":"levelo_inurba_marseille","lat":43.28483,"lon":5.48395,"is_reserved":false,"is_disabled":false,"rental_uris":{"android":"levelo://app?vid=66e10194-8e2d-4634-89ad-d66d649b5e60","ios":"levelo://app?vid=66e10194-8e2d-4634-89ad-d66d649b5e60"},"vehicle_type_id":"4","last_reported":1765912330,"current_range_meters":4000,"station_id":"","pricing_plan_id":"cebpf4jnsgd1na2vs0mg"},{"bike_id":"6432b4a3-0f70-4d03-8a28-95401daa9b00","system_id":"levelo_inurba_marseille","lat":43.29266,"lon":5.38436,"is_reserved":false,"is_disabled":false,"rental_uris":{"android":"levelo://app?vid=6432b4a3-0f70-4d03-8a28-95401daa9b00","ios":"levelo://app?vid=6432b4a3-0f70-4d03-8a28-95401daa9b00"},"vehicle_type_id":"4","last_reported":1765912330,"current_range_meters":4400,"station_id":"ce4bh692rcd13ifvqea0","pricing_plan_id":"cebpf4jnsgd1na2vs0mg"},{"bike_id":"6b3a7aee-6009-4a87-8e4b-d7e0ec91e44e","system_id":"levelo_inurba_marseille","lat":43.30793,"lon":5.37641,"is_reserved":false,"is_disabled":false,"rental_uris":{"android":"levelo://app?vid=6b3a7aee-6009-4a87-8e4b-d7e0ec91e44e","ios":"levelo://app?vid=6b3a7aee-6009-4a87-8e4b-d7e0ec91e44e"},"vehicle_type_id":"4","last_reported":1765912330,"current_range_meters":4400,"station_id":"ce4bgv92rcd13ifvqcq0","pricing_plan_id":"cebpf4jnsgd1na2vs0mg"},{"bike_id":"9aa88667-03b5-4b04-bc5e-d9feb7f7e82c","system_id":"levelo_inurba_marseille","lat":43.30785,"lon":5.38158,"is_reserved":false,"is_disabled":false,"rental_uris":{"android":"levelo://app?vid=9aa88667-03b5-4b04-bc5e-d9feb7f7e82c","ios":"levelo://app?vid=9aa88667-03b5-4b04-bc5e-d9feb7f7e82c"},"vehicle_type_id":"4","last_reported":1765912330,"current_range_meters":4400,"station_id":"ce4bgt12rcd13ifvqce0","pricing_plan_id":"cebpf4jnsgd1na2vs0mg"},{"bike_id":"8809623b-bcab-46c3-8a73-160886551c22","system_id":"levelo_inurba_marseille","lat":43.231824,"lon":5.399967,"is_reserved":false,"is_disabled":false,"rental_uris":{"android":"levelo://app?vid=8809623b-bcab-46c3-8a73-160886551c22","ios":"levelo://app?vid=8809623b-bcab-46c3-8a73-160886551c22"},"vehicle_type_id":"4","last_reported":1765912330,"current_range_meters":4400,"station_id":"ce4bhn12rcd13ifvqgqg","pricing_plan_id":"cebpf4jnsgd1na2vs0mg"},{"bike_id":"af60ad45-1773-4b17-8cbf-b5714f9a120e","system_id":"levelo_inurba_marseille","lat":43.337666,"lon":5.374436,"is_reserved":false,"is_disabled":false,"rental_uris":{"android":"levelo://app?vid=af60ad45-1773-4b17-8cbf-b5714f9a120e","ios":"levelo://app?vid=af60ad45-1773-4b17-8cbf-b5714f9a120e"},"vehicle_type_id":"4","last_reported":1765912330,"current_range_meters":4800,"station_id":"","pricing_plan_id":"cebpf4jnsgd1na2vs0mg"},{"bike_id":"6f0035ec-941e-4a73-bb17-9b8fe2dbf9e1","system_id":"levelo_inurba_marseille","lat":43.299655,"lon":5.384976,"is_reserved":false,"is_disabled":false,"rental_uris":{"android":"levelo://app?vid=6f0035ec-941e-4a73-bb17-9b8fe2dbf9e1","ios":"levelo://app?vid=6f0035ec-941e-4a73-bb17-9b8fe2dbf9e1"},"vehicle_type_id":"4","last_reported":1765912330,"current_range_meters":4800,"station_id":"ce4bgih2rcd13ifvqba0","pricing_plan_id":"cebpf4jnsgd1na2vs0mg"},{"bike_id":"6fe3060f-17ee-4243-91a2-653d74d75a11","system_id":"levelo_inurba_marseille","lat":43.2254,"lon":5.34822,"is_reserved":false,"is_disabled":false,"rental_uris":{"android":"levelo://app?vid=6fe3060f-17ee-4243-91a2-653d74d75a11","ios":"levelo://app?vid=6fe3060f-17ee-4243-91a2-653d74d75a11"},"vehicle_type_id":"4","last_reported":1765912330,"current_range_meters":4800,"station_id":"","pricing_plan_id":"cebpf4jnsgd1na2vs0mg"},{"bike_id":"5cfcac19-e885-4209-96ab-a70a0192b25a","system_id":"levelo_inurba_marseille","lat":43.33768,"lon":5.37427,"is_reserved":false,"is_disabled":false,"rental_uris":{"android":"levelo://app?vid=5cfcac19-e885-4209-96ab-a70a0192b25a","ios":"levelo://app?vid=5cfcac19-e885-4209-96ab-a70a0192b25a"},"vehicle_type_id":"4","last_reported":1765912330,"current_range_meters":4800,"station_id":"","pricing_plan_id":"cebpf4jnsgd1na2vs0mg"},{"bike_id":"54f10328-3628-42fc-8edc-6b68f8d2f062","system_id":"levelo_inurba_marseille","lat":43.258216,"lon":5.394436,"is_reserved":false,"is_disabled":false,"rental_uris":{"android":"levelo://app?vid=54f10328-3628-42fc-8edc-6b68f8d2f062","ios":"levelo://app?vid=54f10328-3628-42fc-8edc-6b68f8d2f062"},"vehicle_type_id":"4","last_reported":1765912330,"current_range_meters":4800,"station_id":"ce4bhip2rcd13ifvqft0","pricing_plan_id":"cebpf4jnsgd1na2vs0mg"},{"bike_id":"4e86adaf-f7db-433e-8dcf-29c9c9956ecf","system_id":"levelo_inurba_marseille","lat":43.29271,"lon":5.38436,"is_reserved":false,"is_disabled":false,"rental_uris":{"android":"levelo://app?vid=4e86adaf-f7db-433e-8dcf-29c9c9956ecf","ios":"levelo://app?vid=4e86adaf-f7db-433e-8dcf-29c9c9956ecf"},"vehicle_type_id":"4","last_reported":1765912330,"current_range_meters":4800,"station_id":"ce4bh692rcd13ifvqea0","pricing_plan_id":"cebpf4jnsgd1na2vs0mg"},{"bike_id":"c6d6c2e9-e126-464e-ab61-c690a6c96db0","system_id":"levelo_inurba_marseille","lat":43.29526,"lon":5.39402,"is_reserved":false,"is_disabled":false,"rental_uris":{"android":"levelo://app?vid=c6d6c2e9-e126-464e-ab61-c690a6c96db0","ios":"levelo://app?vid=c6d6c2e9-e126-464e-ab61-c690a6c96db0"},"vehicle_type_id":"4","last_reported":1765912330,"current_range_meters":4800,"station_id":"ce4bh292rcd13ifvqdf0","pricing_plan_id":"cebpf4jnsgd1na2vs0mg"},{"bike_id":"83f3870d-e030-4e9c-bc60-e39817a358df","system_id":"levelo_inurba_marseille","lat":43.30568,"lon":5.36513,"is_reserved":false,"is_disabled":false,"rental_uris":{"android":"levelo://app?vid=83f3870d-e030-4e9c-bc60-e39817a358df","ios":"levelo://app?vid=83f3870d-e030-4e9c-bc60-e39817a358df"},"vehicle_type_id":"4","last_reported":1765912330,"current_range_meters":5600,"station_id":"ce4bgs12rcd13ifvqcag","pricing_plan_id":"cebpf4jnsgd1na2vs0mg"},{"bike_id":"b45d2bbe-5126-48a9-aba8-e2d84650bde7","system_id":"levelo_inurba_marseille","lat":43.28436,"lon":5.34974,"is_reserved":false,"is_disabled":false,"rental_uris":{"android":"levelo://app?vid=b45d2bbe-5126-48a9-aba8-e2d84650bde7","ios":"levelo://app?vid=b45d2bbe-5126-48a9-aba8-e2d84650bde7"},"vehicle_type_id":"4","last_reported":1765912330,"current_range_meters":5600,"station_id":"ce4bhbh2rcd13ifvqepg","pricing_plan_id":"cebpf4jnsgd1na2vs0mg"},{"bike_id":"0300703c-eb70-486d-8dcb-3ab8dd70d6cc","system_id":"levelo_inurba_marseille","lat":43.28536,"lon":5.44104,"is_reserved":false,"is_disabled":false,"rental_uris":{"android":"levelo://app?vid=0300703c-eb70-486d-8dcb-3ab8dd70d6cc","ios":"levelo://app?vid=0300703c-eb70-486d-8dcb-3ab8dd70d6cc"},"vehicle_type_id":"4","last_reported":1765912330,"current_range_meters":5600,"station_id":"st_d3j3df2ikq2c7380ej80","pricing_plan_id":"cebpf4jnsgd1na2vs0mg"},{"bike_id":"bf9abb4a-71a5-491a-9327-4bd209ff9d45","system_id":"levelo_inurba_marseille","lat":43.30302,"lon":5.39217,"is_reserved":false,"is_disabled":false,"rental_uris":{"android":"levelo://app?vid=bf9abb4a-71a5-491a-9327-4bd209ff9d45","ios":"levelo://app?vid=bf9abb4a-71a5-491a-9327-4bd209ff9d45"},"vehicle_type_id":"4","last_reported":1765912330,"current_range_meters":5600,"station_id":"ce4bgkh2rcd13ifvqbk0","pricing_plan_id":"cebpf4jnsgd1na2vs0mg"},{"bike_id":"7272fd92-c3cc-46e0-b75b-3057de98b239","system_id":"levelo_inurba_marseille","lat":43.26931,"lon":5.38915,"is_reserved":false,"is_disabled":false,"rental_uris":{"android":"levelo://app?vid=7272fd92-c3cc-46e0-b75b-3057de98b239","ios":"levelo://app?vid=7272fd92-c3cc-46e0-b75b-3057de98b239"},"vehicle_type_id":"4","last_reported":1765912330,"current_range_meters":5600,"station_id":"ce4bhhh2rcd13ifvqfl0","pricing_plan_id":"cebpf4jnsgd1na2vs0mg"},{"bike_id":"05718151-6257-48be-ac8e-f9cc9be25529","system_id":"levelo_inurba_marseille","lat":43.32054,"lon":5.41575,"is_reserved":false,"is_disabled":false,"rental_uris":{"android":"levelo://app?vid=05718151-6257-48be-ac8e-f9cc9be25529","ios":"levelo://app?vid=05718151-6257-48be-ac8e-f9cc9be25529"},"vehicle_type_id":"4","last_reported":1765912330,"current_range_meters":5600,"station_id":"ce4bhq92rcd13ifvqhkg","pricing_plan_id":"cebpf4jnsgd1na2vs0mg"},{"bike_id":"aac3a556-eab0-4156-bc9c-29564664e6f5","system_id":"levelo_inurba_marseille","lat":43.337725,"lon":5.374316,"is_reserved":false,"is_disabled":false,"rental_uris":{"android":"levelo://app?vid=aac3a556-eab0-4156-bc9c-29564664e6f5","ios":"levelo://app?vid=aac3a556-eab0-4156-bc9c-29564664e6f5"},"vehicle_type_id":"4","last_reported":1765912330,"current_range_meters":5600,"station_id":"","pricing_plan_id":"cebpf4jnsgd1na2vs0mg"},{"bike_id":"b5d63cab-7292-4c85-8075-cef67fadeb9d","system_id":"levelo_inurba_marseille","lat":43.28479,"lon":5.48388,"is_reserved":false,"is_disabled":false,"rental_uris":{"android":"levelo://app?vid=b5d63cab-7292-4c85-8075-cef67fadeb9d","ios":"levelo://app?vid=b5d63cab-7292-4c85-8075-cef67fadeb9d"},"vehicle_type_id":"4","last_reported":1765912330,"current_range_meters":5600,"station_id":"st_d3svhcjqgbts73a3dn0g","pricing_plan_id":"cebpf4jnsgd1na2vs0mg"},{"bike_id":"ccac01a3-1afb-428f-a272-5e4c39e0a3ed","system_id":"levelo_inurba_marseille","lat":43.311722,"lon":5.387216,"is_reserved":false,"is_disabled":false,"rental_uris":{"android":"levelo://app?vid=ccac01a3-1afb-428f-a272-5e4c39e0a3ed","ios":"levelo://app?vid=ccac01a3-1afb-428f-a272-5e4c39e0a3ed"},"vehicle_type_id":"4","last_reported":1765912330,"current_range_meters":5600,"station_id":"ce4bgv12rcd13ifvqcp0","pricing_plan_id":"cebpf4jnsgd1na2vs0mg"},{"bike_id":"0de61957-2ae1-4d80-a5c0-cdeac0d10929","system_id":"levelo_inurba_marseille","lat":43.3043,"lon":5.38881,"is_reserved":false,"is_disabled":false,"rental_uris":{"android":"levelo://app?vid=0de61957-2ae1-4d80-a5c0-cdeac0d10929","ios":"levelo://app?vid=0de61957-2ae1-4d80-a5c0-cdeac0d10929"},"vehicle_type_id":"4","last_reported":1765912330,"current_range_meters":5600,"station_id":"ce4bgk12rcd13ifvqbi0","pricing_plan_id":"cebpf4jnsgd1na2vs0mg"},{"bike_id":"4a03dbba-e5b4-4f11-b0f9-d5d1883ab050","system_id":"levelo_inurba_marseille","lat":43.310821,"lon":5.424272,"is_reserved":false,"is_disabled":false,"rental_uris":{"android":"levelo://app?vid=4a03dbba-e5b4-4f11-b0f9-d5d1883ab050","ios":"levelo://app?vid=4a03dbba-e5b4-4f11-b0f9-d5d1883ab050"},"vehicle_type_id":"4","last_reported":1765912330,"current_range_meters":6000,"station_id":"ce4bhp92rcd13ifvqhag","pricing_plan_id":"cebpf4jnsgd1na2vs0mg"},{"bike_id":"d3c83fe0-d981-40bd-809a-723ce3ba3f18","system_id":"levelo_inurba_marseille","lat":43.31564,"lon":5.3667,"is_reserved":false,"is_disabled":false,"rental_uris":{"android":"levelo://app?vid=d3c83fe0-d981-40bd-809a-723ce3ba3f18","ios":"levelo://app?vid=d3c83fe0-d981-40bd-809a-723ce3ba3f18"},"vehicle_type_id":"4","last_reported":1765912330,"current_range_meters":6000,"station_id":"","pricing_plan_id":"cebpf4jnsgd1na2vs0mg"},{"bike_id":"2b4210e4-4730-4935-b6a7-1d1233bf9948","system_id":"levelo_inurba_marseille","lat":43.29981,"lon":5.37174,"is_reserved":false,"is_disabled":false,"rental_uris":{"android":"levelo://app?vid=2b4210e4-4730-4935-b6a7-1d1233bf9948","ios":"levelo://app?vid=2b4210e4-4730-4935-b6a7-1d1233bf9948"},"vehicle_type_id":"4","last_reported":1765912330,"current_range_meters":6000,"station_id":"ce4bgr92rcd13ifvqc7g","pricing_plan_id":"cebpf4jnsgd1na2vs0mg"},{"bike_id":"0224f08a-bd8a-4dcc-9ae0-e6df47d6d7f2","system_id":"levelo_inurba_marseille","lat":43.337444,"lon":5.374475,"is_reserved":false,"is_disabled":false,"rental_uris":{"android":"levelo://app?vid=0224f08a-bd8a-4dcc-9ae0-e6df47d6d7f2","ios":"levelo://app?vid=0224f08a-bd8a-4dcc-9ae0-e6df47d6d7f2"},"vehicle_type_id":"4","last_reported":1765912330,"current_range_meters":6000,"station_id":"","pricing_plan_id":"cebpf4jnsgd1na2vs0mg"},{"bike_id":"8e3b2c6e-d319-416b-af76-fd046628b744","system_id":"levelo_inurba_marseille","lat":43.24394,"lon":5.37069,"is_reserved":false,"is_disabled":false,"rental_uris":{"android":"levelo://app?vid=8e3b2c6e-d319-416b-af76-fd046628b744","ios":"levelo://app?vid=8e3b2c6e-d319-416b-af76-fd046628b744"},"vehicle_type_id":"4","last_reported":1765912330,"current_range_meters":6400,"station_id":"ce4bhhh2rcd13ifvqfk0","pricing_plan_id":"cebpf4jnsgd1na2vs0mg"},{"bike_id":"4c731bb1-7ac1-44c6-a0f8-b7eee059c8cf","system_id":"levelo_inurba_marseille","lat":43.30104,"lon":5.39071,"is_reserved":false,"is_disabled":false,"rental_uris":{"android":"levelo://app?vid=4c731bb1-7ac1-44c6-a0f8-b7eee059c8cf","ios":"levelo://app?vid=4c731bb1-7ac1-44c6-a0f8-b7eee059c8cf"},"vehicle_type_id":"4","last_reported":1765912330,"current_range_meters":6400,"station_id":"ce4bh192rcd13ifvqdb0","pricing_plan_id":"cebpf4jnsgd1na2vs0mg"},{"bike_id":"ecd351c2-2712-475a-b416-8c7ed7ae1f69","system_id":"levelo_inurba_marseille","lat":43.302468,"lon":5.40068,"is_reserved":false,"is_disabled":false,"rental_uris":{"android":"levelo://app?vid=ecd351c2-2712-475a-b416-8c7ed7ae1f69","ios":"levelo://app?vid=ecd351c2-2712-475a-b416-8c7ed7ae1f69"},"vehicle_type_id":"4","last_reported":1765912330,"current_range_meters":6400,"station_id":"ce4bgvh2rcd13ifvqcs0","pricing_plan_id":"cebpf4jnsgd1na2vs0mg"},{"bike_id":"bcc5bedc-f0fc-4492-af00-3ee72302c706","system_id":"levelo_inurba_marseille","lat":43.3186,"lon":5.40016,"is_reserved":false,"is_disabled":false,"rental_uris":{"android":"levelo://app?vid=bcc5bedc-f0fc-4492-af00-3ee72302c706","ios":"levelo://app?vid=bcc5bedc-f0fc-4492-af00-3ee72302c706"},"vehicle_type_id":"4","last_reported":1765912330,"current_range_meters":6400,"station_id":"","pricing_plan_id":"cebpf4jnsgd1na2vs0mg"},{"bike_id":"3dbe70f7-23ce-4bcc-8032-3fd2bca71577","system_id":"levelo_inurba_marseille","lat":43.29187,"lon":5.39347,"is_reserved":false,"is_disabled":false,"rental_uris":{"android":"levelo://app?vid=3dbe70f7-23ce-4bcc-8032-3fd2bca71577","ios":"levelo://app?vid=3dbe70f7-23ce-4bcc-8032-3fd2bca71577"},"vehicle_type_id":"4","last_reported":1765912330,"current_range_meters":6400,"station_id":"ce4bh192rcd13ifvqdd0","pricing_plan_id":"cebpf4jnsgd1na2vs0mg"},{"bike_id":"a613a717-96a3-4acb-9729-59a3a8cc0b12","system_id":"levelo_inurba_marseille","lat":43.286622,"lon":5.363409,"is_reserved":false,"is_disabled":false,"rental_uris":{"android":"levelo://app?vid=a613a717-96a3-4acb-9729-59a3a8cc0b12","ios":"levelo://app?vid=a613a717-96a3-4acb-9729-59a3a8cc0b12"},"vehicle_type_id":"4","last_reported":1765912330,"current_range_meters":6400,"station_id":"ce4bhah2rcd13ifvqej0","pricing_plan_id":"cebpf4jnsgd1na2vs0mg"},{"bike_id":"cc67b8e2-7a84-4377-9f1e-5661b3c36915","system_id":"levelo_inurba_marseille","lat":43.29038,"lon":5.37558,"is_reserved":false,"is_disabled":false,"rental_uris":{"android":"levelo://app?vid=cc67b8e2-7a84-4377-9f1e-5661b3c36915","ios":"levelo://app?vid=cc67b8e2-7a84-4377-9f1e-5661b3c36915"},"vehicle_type_id":"4","last_reported":1765912330,"current_range_meters":6400,"station_id":"ce4bh692rcd13ifvqe90","pricing_plan_id":"cebpf4jnsgd1na2vs0mg"},{"bike_id":"0e49c737-64fa-42df-b477-b17639740d5d","system_id":"levelo_inurba_marseille","lat":43.21194,"lon":5.35086,"is_reserved":false,"is_disabled":false,"rental_uris":{"android":"levelo://app?vid=0e49c737-64fa-42df-b477-b17639740d5d","ios":"levelo://app?vid=0e49c737-64fa-42df-b477-b17639740d5d"},"vehicle_type_id":"4","last_reported":1765912330,"current_range_meters":6400,"station_id":"","pricing_plan_id":"cebpf4jnsgd1na2vs0mg"},{"bike_id":"06a782a1-e489-47c6-8fa8-960f34c6f802","system_id":"levelo_inurba_marseille","lat":43.29269,"lon":5.37617,"is_reserved":false,"is_disabled":false,"rental_uris":{"android":"levelo://app?vid=06a782a1-e489-47c6-8fa8-960f34c6f802","ios":"levelo://app?vid=06a782a1-e489-47c6-8fa8-960f34c6f802"},"vehicle_type_id":"4","last_reported":1765912330,"current_range_meters":6800,"station_id":"ce4bgi12rcd13ifvqb80","pricing_plan_id":"cebpf4jnsgd1na2vs0mg"},{"bike_id":"0fdbccb3-d978-4c79-b952-ed3c22a4499b","system_id":"levelo_inurba_marseille","lat":43.247902,"lon":5.375096,"is_reserved":false,"is_disabled":false,"rental_uris":{"android":"levelo://app?vid=0fdbccb3-d978-4c79-b952-ed3c22a4499b","ios":"levelo://app?vid=0fdbccb3-d978-4c79-b952-ed3c22a4499b"},"vehicle_type_id":"4","last_reported":1765912330,"current_range_meters":6800,"station_id":"ce4bhbh2rcd13ifvqeqg","pricing_plan_id":"cebpf4jnsgd1na2vs0mg"},{"bike_id":"8b4ec205-81bb-4fe4-a25a-8d4a5ee131ee","system_id":"levelo_inurba_marseille","lat":43.2481,"lon":5.374611,"is_reserved":false,"is_disabled":false,"rental_uris":{"android":"levelo://app?vid=8b4ec205-81bb-4fe4-a25a-8d4a5ee131ee","ios":"levelo://app?vid=8b4ec205-81bb-4fe4-a25a-8d4a5ee131ee"},"vehicle_type_id":"4","last_reported":1765912330,"current_range_meters":6800,"station_id":"ce4bh0p2rcd13ifvqd70","pricing_plan_id":"cebpf4jnsgd1na2vs0mg"},{"bike_id":"dcf86aea-2e35-4fc9-b06f-cfd052d91d73","system_id":"levelo_inurba_marseille","lat":43.21186,"lon":5.35074,"is_reserved":false,"is_disabled":false,"rental_uris":{"android":"levelo://app?vid=dcf86aea-2e35-4fc9-b06f-cfd052d91d73","ios":"levelo://app?vid=dcf86aea-2e35-4fc9-b06f-cfd052d91d73"},"vehicle_type_id":"4","last_reported":1765912330,"current_range_meters":6800,"station_id":"st_cvj6sg6p6f1abm77japg","pricing_plan_id":"cebpf4jnsgd1na2vs0mg"},{"bike_id":"5e7e082d-c949-4efd-b442-be6d0cf3943e","system_id":"levelo_inurba_marseille","lat":43.24546,"lon":5.40004,"is_reserved":false,"is_disabled":false,"rental_uris":{"android":"levelo://app?vid=5e7e082d-c949-4efd-b442-be6d0cf3943e","ios":"levelo://app?vid=5e7e082d-c949-4efd-b442-be6d0cf3943e"},"vehicle_type_id":"4","last_reported":1765912330,"current_range_meters":6800,"station_id":"","pricing_plan_id":"cebpf4jnsgd1na2vs0mg"},{"bike_id":"e080d691-4951-43e9-9ffd-9277319373bb","system_id":"levelo_inurba_marseille","lat":43.316035,"lon":5.379218,"is_reserved":false,"is_disabled":false,"rental_uris":{"android":"levelo://app?vid=e080d691-4951-43e9-9ffd-9277319373bb","ios":"levelo://app?vid=e080d691-4951-43e9-9ffd-9277319373bb"},"vehicle_type_id":"4","last_reported":1765912330,"current_range_meters":6800,"station_id":"","pricing_plan_id":"cebpf4jnsgd1na2vs0mg"},{"bike_id":"0d73611a-9631-46ac-89e9-64187d3a374c","system_id":"levelo_inurba_marseille","lat":43.2718,"lon":5.40992,"is_reserved":false,"is_disabled":false,"rental_uris":{"android":"levelo://app?vid=0d73611a-9631-46ac-89e9-64187d3a374c","ios":"levelo://app?vid=0d73611a-9631-46ac-89e9-64187d3a374c"},"vehicle_type_id":"4","last_reported":1765912330,"current_range_meters":6800,"station_id":"ce4bhl12rcd13ifvqgf0","pricing_plan_id":"cebpf4jnsgd1na2vs0mg"},{"bike_id":"9916aee8-38ee-4718-8ab5-188be146fb87","system_id":"levelo_inurba_marseille","lat":43.30113,"lon":5.36548,"is_reserved":false,"is_disabled":false,"rental_uris":{"android":"levelo://app?vid=9916aee8-38ee-4718-8ab5-188be146fb87","ios":"levelo://app?vid=9916aee8-38ee-4718-8ab5-188be146fb87"},"vehicle_type_id":"4","last_reported":1765912330,"current_range_meters":6800,"station_id":"","pricing_plan_id":"cebpf4jnsgd1na2vs0mg"},{"bike_id":"9ee1cdaa-4127-4795-b844-6595e93e6848","system_id":"levelo_inurba_marseille","lat":43.27812,"lon":5.40711,"is_reserved":false,"is_disabled":false,"rental_uris":{"android":"levelo://app?vid=9ee1cdaa-4127-4795-b844-6595e93e6848","ios":"levelo://app?vid=9ee1cdaa-4127-4795-b844-6595e93e6848"},"vehicle_type_id":"4","last_reported":1765912330,"current_range_meters":6800,"station_id":"ce4bhnh2rcd13ifvqgtg","pricing_plan_id":"cebpf4jnsgd1na2vs0mg"},{"bike_id":"7c36070f-bddc-40ed-a333-875a2d58c60c","system_id":"levelo_inurba_marseille","lat":43.26511,"lon":5.3943,"is_reserved":false,"is_disabled":false,"rental_uris":{"android":"levelo://app?vid=7c36070f-bddc-40ed-a333-875a2d58c60c","ios":"levelo://app?vid=7c36070f-bddc-40ed-a333-875a2d58c60c"},"vehicle_type_id":"4","last_reported":1765912330,"current_range_meters":6800,"station_id":"","pricing_plan_id":"cebpf4jnsgd1na2vs0mg"},{"bike_id":"8f0ccffa-870d-4bbe-857a-a434fc466128","system_id":"levelo_inurba_marseille","lat":43.29965,"lon":5.38501,"is_reserved":false,"is_disabled":false,"rental_uris":{"android":"levelo://app?vid=8f0ccffa-870d-4bbe-857a-a434fc466128","ios":"levelo://app?vid=8f0ccffa-870d-4bbe-857a-a434fc466128"},"vehicle_type_id":"4","last_reported":1765912330,"current_range_meters":6800,"station_id":"ce4bgj92rcd13ifvqbd0","pricing_plan_id":"cebpf4jnsgd1na2vs0mg"},{"bike_id":"5f2530f0-6e5a-4c2b-9c60-252bb107e74f","system_id":"levelo_inurba_marseille","lat":43.24076,"lon":5.37751,"is_reserved":false,"is_disabled":false,"rental_uris":{"android":"levelo://app?vid=5f2530f0-6e5a-4c2b-9c60-252bb107e74f","ios":"levelo://app?vid=5f2530f0-6e5a-4c2b-9c60-252bb107e74f"},"vehicle_type_id":"4","last_reported":1765912330,"current_range_meters":7200,"station_id":"ce4bhnp2rcd13ifvqgvg","pricing_plan_id":"cebpf4jnsgd1na2vs0mg"},{"bike_id":"95567a31-05f1-4ddf-a8ae-7a2ff296f99c","system_id":"levelo_inurba_marseille","lat":43.28539,"lon":5.40016,"is_reserved":false,"is_disabled":false,"rental_uris":{"android":"levelo://app?vid=95567a31-05f1-4ddf-a8ae-7a2ff296f99c","ios":"levelo://app?vid=95567a31-05f1-4ddf-a8ae-7a2ff296f99c"},"vehicle_type_id":"4","last_reported":1765912330,"current_range_meters":7200,"station_id":"","pricing_plan_id":"cebpf4jnsgd1na2vs0mg"},{"bike_id":"a0250cd9-047b-4dcb-96a7-b1959783fdaf","system_id":"levelo_inurba_marseille","lat":43.33739,"lon":5.37424,"is_reserved":false,"is_disabled":false,"rental_uris":{"android":"levelo://app?vid=a0250cd9-047b-4dcb-96a7-b1959783fdaf","ios":"levelo://app?vid=a0250cd9-047b-4dcb-96a7-b1959783fdaf"},"vehicle_type_id":"4","last_reported":1765912330,"current_range_meters":7200,"station_id":"","pricing_plan_id":"cebpf4jnsgd1na2vs0mg"},{"bike_id":"79f4b6e0-d75c-4303-950b-7cb95c7c9b6b","system_id":"levelo_inurba_marseille","lat":43.24082,"lon":5.37763,"is_reserved":false,"is_disabled":false,"rental_uris":{"android":"levelo://app?vid=79f4b6e0-d75c-4303-950b-7cb95c7c9b6b","ios":"levelo://app?vid=79f4b6e0-d75c-4303-950b-7cb95c7c9b6b"},"vehicle_type_id":"4","last_reported":1765912330,"current_range_meters":7200,"station_id":"ce4bhnp2rcd13ifvqgvg","pricing_plan_id":"cebpf4jnsgd1na2vs0mg"},{"bike_id":"f9e14766-119a-4cc9-814a-3510e7849c5d","system_id":"levelo_inurba_marseille","lat":43.2848,"lon":5.48379,"is_reserved":false,"is_disabled":false,"rental_uris":{"android":"levelo://app?vid=f9e14766-119a-4cc9-814a-3510e7849c5d","ios":"levelo://app?vid=f9e14766-119a-4cc9-814a-3510e7849c5d"},"vehicle_type_id":"4","last_reported":1765912330,"current_range_meters":7200,"station_id":"st_d3svhcjqgbts73a3dn0g","pricing_plan_id":"cebpf4jnsgd1na2vs0mg"},{"bike_id":"850184bc-d4cf-4521-b35e-4473cd72a028","system_id":"levelo_inurba_marseille","lat":43.29089,"lon":5.38121,"is_reserved":false,"is_disabled":false,"rental_uris":{"android":"levelo://app?vid=850184bc-d4cf-4521-b35e-4473cd72a028","ios":"levelo://app?vid=850184bc-d4cf-4521-b35e-4473cd72a028"},"vehicle_type_id":"4","last_reported":1765912330,"current_range_meters":8000,"station_id":"","pricing_plan_id":"cebpf4jnsgd1na2vs0mg"},{"bike_id":"4e6b3c9a-0d64-4429-9baf-20868e591e41","system_id":"levelo_inurba_marseille","lat":43.28607,"lon":5.39889,"is_reserved":false,"is_disabled":false,"rental_uris":{"android":"levelo://app?vid=4e6b3c9a-0d64-4429-9baf-20868e591e41","ios":"levelo://app?vid=4e6b3c9a-0d64-4429-9baf-20868e591e41"},"vehicle_type_id":"4","last_reported":1765912330,"current_range_meters":8000,"station_id":"st_d4a7ka997mjs738ck50g","pricing_plan_id":"cebpf4jnsgd1na2vs0mg"},{"bike_id":"802b5155-9590-46c8-8d38-92126314c1cb","system_id":"levelo_inurba_marseille","lat":43.2904,"lon":5.38643,"is_reserved":false,"is_disabled":false,"rental_uris":{"android":"levelo://app?vid=802b5155-9590-46c8-8d38-92126314c1cb","ios":"levelo://app?vid=802b5155-9590-46c8-8d38-92126314c1cb"},"vehicle_type_id":"4","last_reported":1765912330,"current_range_meters":8000,"station_id":"ce4bh4p2rcd13ifvqe0g","pricing_plan_id":"cebpf4jnsgd1na2vs0mg"},{"bike_id":"a59fef70-c689-483c-8d85-5fd358f8f5fe","system_id":"levelo_inurba_marseille","lat":43.28479,"lon":5.38762,"is_reserved":false,"is_disabled":false,"rental_uris":{"android":"levelo://app?vid=a59fef70-c689-483c-8d85-5fd358f8f5fe","ios":"levelo://app?vid=a59fef70-c689-483c-8d85-5fd358f8f5fe"},"vehicle_type_id":"4","last_reported":1765912330,"current_range_meters":8400,"station_id":"","pricing_plan_id":"cebpf4jnsgd1na2vs0mg"},{"bike_id":"1e625209-9358-4099-a321-2da514fe3d2b","system_id":"levelo_inurba_marseille","lat":43.295216,"lon":5.375036,"is_reserved":false,"is_disabled":false,"rental_uris":{"android":"levelo://app?vid=1e625209-9358-4099-a321-2da514fe3d2b","ios":"levelo://app?vid=1e625209-9358-4099-a321-2da514fe3d2b"},"vehicle_type_id":"4","last_reported":1765912330,"current_range_meters":8400,"station_id":"ce4bgkp2rcd13ifvqbmg","pricing_plan_id":"cebpf4jnsgd1na2vs0mg"},{"bike_id":"990afa25-af6c-45c6-b463-3bc91788f9e0","system_id":"levelo_inurba_marseille","lat":43.29171,"lon":5.37146,"is_reserved":false,"is_disabled":false,"rental_uris":{"android":"levelo://app?vid=990afa25-af6c-45c6-b463-3bc91788f9e0","ios":"levelo://app?vid=990afa25-af6c-45c6-b463-3bc91788f9e0"},"vehicle_type_id":"4","last_reported":1765912330,"current_range_meters":8400,"station_id":"ce4bha92rcd13ifvqeh0","pricing_plan_id":"cebpf4jnsgd1na2vs0mg"},{"bike_id":"09e813b2-2857-4cc7-85b7-0aafd525ae60","system_id":"levelo_inurba_marseille","lat":43.26547,"lon":5.37294,"is_reserved":false,"is_disabled":false,"rental_uris":{"android":"levelo://app?vid=09e813b2-2857-4cc7-85b7-0aafd525ae60","ios":"levelo://app?vid=09e813b2-2857-4cc7-85b7-0aafd525ae60"},"vehicle_type_id":"4","last_reported":1765912330,"current_range_meters":8400,"station_id":"ce4bhg12rcd13ifvqf70","pricing_plan_id":"cebpf4jnsgd1na2vs0mg"},{"bike_id":"3dac36d8-381f-4edc-bfac-fb16da1ca87b","system_id":"levelo_inurba_marseille","lat":43.249593,"lon":5.389568,"is_reserved":false,"is_disabled":false,"rental_uris":{"android":"levelo://app?vid=3dac36d8-381f-4edc-bfac-fb16da1ca87b","ios":"levelo://app?vid=3dac36d8-381f-4edc-bfac-fb16da1ca87b"},"vehicle_type_id":"4","last_reported":1765912330,"current_range_meters":8400,"station_id":"ce4bhgp2rcd13ifvqfd0","pricing_plan_id":"cebpf4jnsgd1na2vs0mg"},{"bike_id":"dd5aa473-c8e7-41f8-9e2a-c088c0cf88de","system_id":"levelo_inurba_marseille","lat":43.26218,"lon":5.37452,"is_reserved":false,"is_disabled":false,"rental_uris":{"android":"levelo://app?vid=dd5aa473-c8e7-41f8-9e2a-c088c0cf88de","ios":"levelo://app?vid=dd5aa473-c8e7-41f8-9e2a-c088c0cf88de"},"vehicle_type_id":"4","last_reported":1765912330,"current_range_meters":8400,"station_id":"ce4bhgp2rcd13ifvqfc0","pricing_plan_id":"cebpf4jnsgd1na2vs0mg"},{"bike_id":"6a231246-970f-4358-a458-e904d3b12896","system_id":"levelo_inurba_marseille","lat":43.26499,"lon":5.39557,"is_reserved":false,"is_disabled":false,"rental_uris":{"android":"levelo://app?vid=6a231246-970f-4358-a458-e904d3b12896","ios":"levelo://app?vid=6a231246-970f-4358-a458-e904d3b12896"},"vehicle_type_id":"4","last_reported":1765912330,"current_range_meters":8400,"station_id":"ce4bhi12rcd13ifvqfq0","pricing_plan_id":"cebpf4jnsgd1na2vs0mg"},{"bike_id":"0f921bc5-5f0b-41fb-a1bb-b2ca0e06b21d","system_id":"levelo_inurba_marseille","lat":43.27078,"lon":5.42267,"is_reserved":false,"is_disabled":false,"rental_uris":{"android":"levelo://app?vid=0f921bc5-5f0b-41fb-a1bb-b2ca0e06b21d","ios":"levelo://app?vid=0f921bc5-5f0b-41fb-a1bb-b2ca0e06b21d"},"vehicle_type_id":"4","last_reported":1765912330,"current_range_meters":8800,"station_id":"ce4bhk92rcd13ifvqgb0","pricing_plan_id":"cebpf4jnsgd1na2vs0mg"},{"bike_id":"46f71852-aa55-4b98-ac65-8c4708a4d9a4","system_id":"levelo_inurba_marseille","lat":43.324988,"lon":5.383201,"is_reserved":false,"is_disabled":false,"rental_uris":{"android":"levelo://app?vid=46f71852-aa55-4b98-ac65-8c4708a4d9a4","ios":"levelo://app?vid=46f71852-aa55-4b98-ac65-8c4708a4d9a4"},"vehicle_type_id":"4","last_reported":1765912330,"current_range_meters":8800,"station_id":"st_d4asgbiv49dc73anf9m0","pricing_plan_id":"cebpf4jnsgd1na2vs0mg"},{"bike_id":"7a3e6838-9d3e-4c76-bcee-bdbba33b8ca3","system_id":"levelo_inurba_marseille","lat":43.28473,"lon":5.48408,"is_reserved":false,"is_disabled":false,"rental_uris":{"android":"levelo://app?vid=7a3e6838-9d3e-4c76-bcee-bdbba33b8ca3","ios":"levelo://app?vid=7a3e6838-9d3e-4c76-bcee-bdbba33b8ca3"},"vehicle_type_id":"4","last_reported":1765912330,"current_range_meters":8800,"station_id":"st_d3svhcjqgbts73a3dn0g","pricing_plan_id":"cebpf4jnsgd1na2vs0mg"},{"bike_id":"0b103030-ee1c-4fb8-acce-f4d0bde61d80","system_id":"levelo_inurba_marseille","lat":43.27175,"lon":5.40997,"is_reserved":false,"is_disabled":false,"rental_uris":{"android":"levelo://app?vid=0b103030-ee1c-4fb8-acce-f4d0bde61d80","ios":"levelo://app?vid=0b103030-ee1c-4fb8-acce-f4d0bde61d80"},"vehicle_type_id":"4","last_reported":1765912330,"current_range_meters":9200,"station_id":"ce4bhl12rcd13ifvqgf0","pricing_plan_id":"cebpf4jnsgd1na2vs0mg"},{"bike_id":"187e95dd-1ca0-44dd-bfaf-b9ad8a869387","system_id":"levelo_inurba_marseille","lat":43.3143,"lon":5.37421,"is_reserved":false,"is_disabled":false,"rental_uris":{"android":"levelo://app?vid=187e95dd-1ca0-44dd-bfaf-b9ad8a869387","ios":"levelo://app?vid=187e95dd-1ca0-44dd-bfaf-b9ad8a869387"},"vehicle_type_id":"4","last_reported":1765912330,"current_range_meters":9200,"station_id":"","pricing_plan_id":"cebpf4jnsgd1na2vs0mg"},{"bike_id":"bdedb51b-c0c7-4e81-8046-2d1b2001a496","system_id":"levelo_inurba_marseille","lat":43.295404,"lon":5.385375,"is_reserved":false,"is_disabled":true,"rental_uris":{"android":"levelo://app?vid=bdedb51b-c0c7-4e81-8046-2d1b2001a496","ios":"levelo://app?vid=bdedb51b-c0c7-4e81-8046-2d1b2001a496"},"vehicle_type_id":"4","last_reported":1765912330,"current_range_meters":9200,"station_id":"ce4bgih2rcd13ifvqba0","pricing_plan_id":"cebpf4jnsgd1na2vs0mg"},{"bike_id":"9b173e86-3ede-4973-b8cb-b42ea2c91907","system_id":"levelo_inurba_marseille","lat":43.310213,"lon":5.393437,"is_reserved":false,"is_disabled":false,"rental_uris":{"android":"levelo://app?vid=9b173e86-3ede-4973-b8cb-b42ea2c91907","ios":"levelo://app?vid=9b173e86-3ede-4973-b8cb-b42ea2c91907"},"vehicle_type_id":"4","last_reported":1765912330,"current_range_meters":9200,"station_id":"","pricing_plan_id":"cebpf4jnsgd1na2vs0mg"},{"bike_id":"de703928-a818-43ad-b2be-d85e3a5f72c8","system_id":"levelo_inurba_marseille","lat":43.28488,"lon":5.48386,"is_reserved":false,"is_disabled":false,"rental_uris":{"android":"levelo://app?vid=de703928-a818-43ad-b2be-d85e3a5f72c8","ios":"levelo://app?vid=de703928-a818-43ad-b2be-d85e3a5f72c8"},"vehicle_type_id":"4","last_reported":1765912330,"current_range_meters":9200,"station_id":"st_d3svhcjqgbts73a3dn0g","pricing_plan_id":"cebpf4jnsgd1na2vs0mg"},{"bike_id":"ad53f682-b81d-4e81-bf4b-f3e0576b53a7","system_id":"levelo_inurba_marseille","lat":43.304636,"lon":5.375914,"is_reserved":false,"is_disabled":false,"rental_uris":{"android":"levelo://app?vid=ad53f682-b81d-4e81-bf4b-f3e0576b53a7","ios":"levelo://app?vid=ad53f682-b81d-4e81-bf4b-f3e0576b53a7"},"vehicle_type_id":"4","last_reported":1765912330,"current_range_meters":9600,"station_id":"ce4bguh2rcd13ifvqcj0","pricing_plan_id":"cebpf4jnsgd1na2vs0mg"},{"bike_id":"a3cf6e32-8a5b-405a-8e1a-e62fc2a41c92","system_id":"levelo_inurba_marseille","lat":43.28017,"lon":5.42124,"is_reserved":false,"is_disabled":false,"rental_uris":{"android":"levelo://app?vid=a3cf6e32-8a5b-405a-8e1a-e62fc2a41c92","ios":"levelo://app?vid=a3cf6e32-8a5b-405a-8e1a-e62fc2a41c92"},"vehicle_type_id":"4","last_reported":1765912330,"current_range_meters":9600,"station_id":"","pricing_plan_id":"cebpf4jnsgd1na2vs0mg"},{"bike_id":"cac87912-c676-4b2a-bd7b-433323e0f09c","system_id":"levelo_inurba_marseille","lat":43.28548,"lon":5.44094,"is_reserved":false,"is_disabled":false,"rental_uris":{"android":"levelo://app?vid=cac87912-c676-4b2a-bd7b-433323e0f09c","ios":"levelo://app?vid=cac87912-c676-4b2a-bd7b-433323e0f09c"},"vehicle_type_id":"4","last_reported":1765912330,"current_range_meters":9600,"station_id":"st_d3j3df2ikq2c7380ej80","pricing_plan_id":"cebpf4jnsgd1na2vs0mg"},{"bike_id":"949d50d6-20f1-49d0-b23a-bbbab29f60e5","system_id":"levelo_inurba_marseille","lat":43.30216,"lon":5.39466,"is_reserved":false,"is_disabled":false,"rental_uris":{"android":"levelo://app?vid=949d50d6-20f1-49d0-b23a-bbbab29f60e5","ios":"levelo://app?vid=949d50d6-20f1-49d0-b23a-bbbab29f60e5"},"vehicle_type_id":"4","last_reported":1765912330,"current_range_meters":9600,"station_id":"ce4bh0p2rcd13ifvqd70","pricing_plan_id":"cebpf4jnsgd1na2vs0mg"},{"bike_id":"46b9da8e-600f-4b77-a964-111e9eafd3fa","system_id":"levelo_inurba_marseille","lat":43.26462,"lon":5.37365,"is_reserved":false,"is_disabled":false,"rental_uris":{"android":"levelo://app?vid=46b9da8e-600f-4b77-a964-111e9eafd3fa","ios":"levelo://app?vid=46b9da8e-600f-4b77-a964-111e9eafd3fa"},"vehicle_type_id":"4","last_reported":1765912330,"current_range_meters":9600,"station_id":"","pricing_plan_id":"cebpf4jnsgd1na2vs0mg"},{"bike_id":"d2824214-3abf-43c6-9175-15082714a100","system_id":"levelo_inurba_marseille","lat":43.29916,"lon":5.38152,"is_reserved":false,"is_disabled":false,"rental_uris":{"android":"levelo://app?vid=d2824214-3abf-43c6-9175-15082714a100","ios":"levelo://app?vid=d2824214-3abf-43c6-9175-15082714a100"},"vehicle_type_id":"4","last_reported":1765912330,"current_range_meters":9600,"station_id":"ce4bgj12rcd13ifvqbc0","pricing_plan_id":"cebpf4jnsgd1na2vs0mg"},{"bike_id":"35106443-073f-4bdf-a843-a2bb3b78f14c","system_id":"levelo_inurba_marseille","lat":43.29036,"lon":5.3756,"is_reserved":false,"is_disabled":false,"rental_uris":{"android":"levelo://app?vid=35106443-073f-4bdf-a843-a2bb3b78f14c","ios":"levelo://app?vid=35106443-073f-4bdf-a843-a2bb3b78f14c"},"vehicle_type_id":"4","last_reported":1765912330,"current_range_meters":9600,"station_id":"ce4bh692rcd13ifvqe90","pricing_plan_id":"cebpf4jnsgd1na2vs0mg"},{"bike_id":"4f2c2ae9-cceb-4f6c-925d-23d363970b60","system_id":"levelo_inurba_marseille","lat":43.2762,"lon":5.36118,"is_reserved":false,"is_disabled":false,"rental_uris":{"android":"levelo://app?vid=4f2c2ae9-cceb-4f6c-925d-23d363970b60","ios":"levelo://app?vid=4f2c2ae9-cceb-4f6c-925d-23d363970b60"},"vehicle_type_id":"4","last_reported":1765912330,"current_range_meters":9600,"station_id":"ce4bgj92rcd13ifvqbe0","pricing_plan_id":"cebpf4jnsgd1na2vs0mg"},{"bike_id":"e6dceac0-c846-49c5-b084-99e8ce968b73","system_id":"levelo_inurba_marseille","lat":43.29308,"lon":5.37464,"is_reserved":false,"is_disabled":false,"rental_uris":{"android":"levelo://app?vid=e6dceac0-c846-49c5-b084-99e8ce968b73","ios":"levelo://app?vid=e6dceac0-c846-49c5-b084-99e8ce968b73"},"vehicle_type_id":"4","last_reported":1765912330,"current_range_meters":9600,"station_id":"ce4bgi12rcd13ifvqb70","pricing_plan_id":"cebpf4jnsgd1na2vs0mg"},{"bike_id":"559f2688-429d-47c2-bc34-d534672abaf5","system_id":"levelo_inurba_marseille","lat":43.28727,"lon":5.37934,"is_reserved":false,"is_disabled":false,"rental_uris":{"android":"levelo://app?vid=559f2688-429d-47c2-bc34-d534672abaf5","ios":"levelo://app?vid=559f2688-429d-47c2-bc34-d534672abaf5"},"vehicle_type_id":"4","last_reported":1765912330,"current_range_meters":9600,"station_id":"ce4bh9p2rcd13ifvqec0","pricing_plan_id":"cebpf4jnsgd1na2vs0mg"},{"bike_id":"ba63d727-0bb0-4968-918c-07e0f5c5ff47","system_id":"levelo_inurba_marseille","lat":43.28688,"lon":5.38668,"is_reserved":false,"is_disabled":false,"rental_uris":{"android":"levelo://app?vid=ba63d727-0bb0-4968-918c-07e0f5c5ff47","ios":"levelo://app?vid=ba63d727-0bb0-4968-918c-07e0f5c5ff47"},"vehicle_type_id":"4","last_reported":1765912330,"current_range_meters":9600,"station_id":"ce4bh492rcd13ifvqdug","pricing_plan_id":"cebpf4jnsgd1na2vs0mg"},{"bike_id":"7ac0ed58-66a8-4567-a72f-fa2ba056e9cb","system_id":"levelo_inurba_marseille","lat":43.23788,"lon":5.36637,"is_reserved":false,"is_disabled":false,"rental_uris":{"android":"levelo://app?vid=7ac0ed58-66a8-4567-a72f-fa2ba056e9cb","ios":"levelo://app?vid=7ac0ed58-66a8-4567-a72f-fa2ba056e9cb"},"vehicle_type_id":"4","last_reported":1765912330,"current_range_meters":9600,"station_id":"st_d3nk18o9ro0c73en2l3g","pricing_plan_id":"cebpf4jnsgd1na2vs0mg"},{"bike_id":"44a89420-89c7-4454-8c91-297f256d7f59","system_id":"levelo_inurba_marseille","lat":43.31332,"lon":5.396886,"is_reserved":false,"is_disabled":false,"rental_uris":{"android":"levelo://app?vid=44a89420-89c7-4454-8c91-297f256d7f59","ios":"levelo://app?vid=44a89420-89c7-4454-8c91-297f256d7f59"},"vehicle_type_id":"4","last_reported":1765912330,"current_range_meters":9600,"station_id":"ce4bgvp2rcd13ifvqcu0","pricing_plan_id":"cebpf4jnsgd1na2vs0mg"},{"bike_id":"d12af7a5-44bb-49bb-8327-5b1077d5398d","system_id":"levelo_inurba_marseille","lat":43.29782,"lon":5.3933,"is_reserved":false,"is_disabled":false,"rental_uris":{"android":"levelo://app?vid=d12af7a5-44bb-49bb-8327-5b1077d5398d","ios":"levelo://app?vid=d12af7a5-44bb-49bb-8327-5b1077d5398d"},"vehicle_type_id":"4","last_reported":1765912330,"current_range_meters":10000,"station_id":"chh1huq6cuj3fo74tm60","pricing_plan_id":"cebpf4jnsgd1na2vs0mg"},{"bike_id":"6df4c56c-c6f5-4fb1-84fc-9f50cb5ef178","system_id":"levelo_inurba_marseille","lat":43.23205,"lon":5.35539,"is_reserved":false,"is_disabled":true,"rental_uris":{"android":"levelo://app?vid=6df4c56c-c6f5-4fb1-84fc-9f50cb5ef178","ios":"levelo://app?vid=6df4c56c-c6f5-4fb1-84fc-9f50cb5ef178"},"vehicle_type_id":"4","last_reported":1765912330,"current_range_meters":10000,"station_id":"ce4bhu92rcd13ifvqi70","pricing_plan_id":"cebpf4jnsgd1na2vs0mg"},{"bike_id":"fd7fe341-e9e1-43e0-9282-b94a778a6675","system_id":"levelo_inurba_marseille","lat":43.337444,"lon":5.374475,"is_reserved":false,"is_disabled":false,"rental_uris":{"android":"levelo://app?vid=fd7fe341-e9e1-43e0-9282-b94a778a6675","ios":"levelo://app?vid=fd7fe341-e9e1-43e0-9282-b94a778a6675"},"vehicle_type_id":"4","last_reported":1765912330,"current_range_meters":10000,"station_id":"","pricing_plan_id":"cebpf4jnsgd1na2vs0mg"},{"bike_id":"f0607238-9fab-432e-a6c6-c5acd6257feb","system_id":"levelo_inurba_marseille","lat":43.30353,"lon":5.39294,"is_reserved":false,"is_disabled":true,"rental_uris":{"android":"levelo://app?vid=f0607238-9fab-432e-a6c6-c5acd6257feb","ios":"levelo://app?vid=f0607238-9fab-432e-a6c6-c5acd6257feb"},"vehicle_type_id":"4","last_reported":1765912330,"current_range_meters":10000,"station_id":"","pricing_plan_id":"cebpf4jnsgd1na2vs0mg"},{"bike_id":"3f373ac0-0cc6-4807-baa0-6917799d14e7","system_id":"levelo_inurba_marseille","lat":43.30328,"lon":5.4042,"is_reserved":false,"is_disabled":false,"rental_uris":{"android":"levelo://app?vid=3f373ac0-0cc6-4807-baa0-6917799d14e7","ios":"levelo://app?vid=3f373ac0-0cc6-4807-baa0-6917799d14e7"},"vehicle_type_id":"4","last_reported":1765912330,"current_range_meters":10000,"station_id":"ce4bh012rcd13ifvqd10","pricing_plan_id":"cebpf4jnsgd1na2vs0mg"},{"bike_id":"c2dbecdc-0ef9-48e5-a6d6-1106c2dfe04a","system_id":"levelo_inurba_marseille","lat":43.274902,"lon":5.424391,"is_reserved":false,"is_disabled":false,"rental_uris":{"android":"levelo://app?vid=c2dbecdc-0ef9-48e5-a6d6-1106c2dfe04a","ios":"levelo://app?vid=c2dbecdc-0ef9-48e5-a6d6-1106c2dfe04a"},"vehicle_type_id":"4","last_reported":1765912330,"current_range_meters":10000,"station_id":"ce4bhn92rcd13ifvqgrg","pricing_plan_id":"cebpf4jnsgd1na2vs0mg"},{"bike_id":"dbd4ee99-e250-413d-bdce-471d46749382","system_id":"levelo_inurba_marseille","lat":43.30525,"lon":5.36697,"is_reserved":false,"is_disabled":false,"rental_uris":{"android":"levelo://app?vid=dbd4ee99-e250-413d-bdce-471d46749382","ios":"levelo://app?vid=dbd4ee99-e250-413d-bdce-471d46749382"},"vehicle_type_id":"4","last_reported":1765912330,"current_range_meters":10000,"station_id":"ce4bgrp2rcd13ifvqc9g","pricing_plan_id":"cebpf4jnsgd1na2vs0mg"},{"bike_id":"f5d9a9b3-558f-4d87-a4a3-2e93dcd5a3b9","system_id":"levelo_inurba_marseille","lat":43.28486,"lon":5.48388,"is_reserved":false,"is_disabled":false,"rental_uris":{"android":"levelo://app?vid=f5d9a9b3-558f-4d87-a4a3-2e93dcd5a3b9","ios":"levelo://app?vid=f5d9a9b3-558f-4d87-a4a3-2e93dcd5a3b9"},"vehicle_type_id":"4","last_reported":1765912330,"current_range_meters":10000,"station_id":"st_d3svhcjqgbts73a3dn0g","pricing_plan_id":"cebpf4jnsgd1na2vs0mg"},{"bike_id":"0a8dfef5-8d6c-4c99-ad44-a10c3e9d7d8b","system_id":"levelo_inurba_marseille","lat":43.26501,"lon":5.39572,"is_reserved":false,"is_disabled":false,"rental_uris":{"android":"levelo://app?vid=0a8dfef5-8d6c-4c99-ad44-a10c3e9d7d8b","ios":"levelo://app?vid=0a8dfef5-8d6c-4c99-ad44-a10c3e9d7d8b"},"vehicle_type_id":"4","last_reported":1765912330,"current_range_meters":10000,"station_id":"ce4bhi12rcd13ifvqfq0","pricing_plan_id":"cebpf4jnsgd1na2vs0mg"},{"bike_id":"985e8cc7-6ff0-466b-98bf-adf9784f48fc","system_id":"levelo_inurba_marseille","lat":43.27573,"lon":5.38389,"is_reserved":false,"is_disabled":false,"rental_uris":{"android":"levelo://app?vid=985e8cc7-6ff0-466b-98bf-adf9784f48fc","ios":"levelo://app?vid=985e8cc7-6ff0-466b-98bf-adf9784f48fc"},"vehicle_type_id":"4","last_reported":1765912330,"current_range_meters":10000,"station_id":"ce4bhh92rcd13ifvqfi0","pricing_plan_id":"cebpf4jnsgd1na2vs0mg"},{"bike_id":"dc9b6e3f-8e79-47b2-8319-e45dd942c044","system_id":"levelo_inurba_marseille","lat":43.29561,"lon":5.37539,"is_reserved":false,"is_disabled":false,"rental_uris":{"android":"levelo://app?vid=dc9b6e3f-8e79-47b2-8319-e45dd942c044","ios":"levelo://app?vid=dc9b6e3f-8e79-47b2-8319-e45dd942c044"},"vehicle_type_id":"4","last_reported":1765912330,"current_range_meters":10800,"station_id":"ce4bgh92rcd13ifvqb50","pricing_plan_id":"cebpf4jnsgd1na2vs0mg"},{"bike_id":"4f8ad109-8352-4f43-a7a6-267abdf04ef1","system_id":"levelo_inurba_marseille","lat":43.27917,"lon":5.39574,"is_reserved":false,"is_disabled":false,"rental_uris":{"android":"levelo://app?vid=4f8ad109-8352-4f43-a7a6-267abdf04ef1","ios":"levelo://app?vid=4f8ad109-8352-4f43-a7a6-267abdf04ef1"},"vehicle_type_id":"4","last_reported":1765912330,"current_range_meters":10800,"station_id":"ce4bhf92rcd13ifvqf40","pricing_plan_id":"cebpf4jnsgd1na2vs0mg"},{"bike_id":"e45efa6d-accd-464a-9075-fff430c1c349","system_id":"levelo_inurba_marseille","lat":43.26495,"lon":5.39557,"is_reserved":false,"is_disabled":false,"rental_uris":{"android":"levelo://app?vid=e45efa6d-accd-464a-9075-fff430c1c349","ios":"levelo://app?vid=e45efa6d-accd-464a-9075-fff430c1c349"},"vehicle_type_id":"4","last_reported":1765912330,"current_range_meters":10800,"station_id":"ce4bhi12rcd13ifvqfq0","pricing_plan_id":"cebpf4jnsgd1na2vs0mg"},{"bike_id":"2ef24484-8e4e-49c0-a3a9-f83b77f53191","system_id":"levelo_inurba_marseille","lat":43.27066,"lon":5.42277,"is_reserved":false,"is_disabled":true,"rental_uris":{"android":"levelo://app?vid=2ef24484-8e4e-49c0-a3a9-f83b77f53191","ios":"levelo://app?vid=2ef24484-8e4e-49c0-a3a9-f83b77f53191"},"vehicle_type_id":"4","last_reported":1765912330,"current_range_meters":10800,"station_id":"ce4bhk92rcd13ifvqgb0","pricing_plan_id":"cebpf4jnsgd1na2vs0mg"},{"bike_id":"bc74ef6c-60c8-4f6c-abb8-03b7a515cf09","system_id":"levelo_inurba_marseille","lat":43.31585,"lon":5.37305,"is_reserved":false,"is_disabled":false,"rental_uris":{"android":"levelo://app?vid=bc74ef6c-60c8-4f6c-abb8-03b7a515cf09","ios":"levelo://app?vid=bc74ef6c-60c8-4f6c-abb8-03b7a515cf09"},"vehicle_type_id":"4","last_reported":1765912330,"current_range_meters":10800,"station_id":"","pricing_plan_id":"cebpf4jnsgd1na2vs0mg"},{"bike_id":"859b6470-b443-40bc-a99e-b96f72559e87","system_id":"levelo_inurba_marseille","lat":43.28487,"lon":5.38406,"is_reserved":false,"is_disabled":false,"rental_uris":{"android":"levelo://app?vid=859b6470-b443-40bc-a99e-b96f72559e87","ios":"levelo://app?vid=859b6470-b443-40bc-a99e-b96f72559e87"},"vehicle_type_id":"4","last_reported":1765912330,"current_range_meters":10800,"station_id":"ce4bh512rcd13ifvqe3g","pricing_plan_id":"cebpf4jnsgd1na2vs0mg"},{"bike_id":"5baf169f-bf45-4dd8-bfb0-f5b474d99a69","system_id":"levelo_inurba_marseille","lat":43.28734,"lon":5.38434,"is_reserved":false,"is_disabled":false,"rental_uris":{"android":"levelo://app?vid=5baf169f-bf45-4dd8-bfb0-f5b474d99a69","ios":"levelo://app?vid=5baf169f-bf45-4dd8-bfb0-f5b474d99a69"},"vehicle_type_id":"4","last_reported":1765912330,"current_range_meters":10800,"station_id":"","pricing_plan_id":"cebpf4jnsgd1na2vs0mg"},{"bike_id":"30373659-1302-4bf2-b36d-72447b8a5e72","system_id":"levelo_inurba_marseille","lat":43.28698,"lon":5.37951,"is_reserved":false,"is_disabled":false,"rental_uris":{"android":"levelo://app?vid=30373659-1302-4bf2-b36d-72447b8a5e72","ios":"levelo://app?vid=30373659-1302-4bf2-b36d-72447b8a5e72"},"vehicle_type_id":"4","last_reported":1765912330,"current_range_meters":10800,"station_id":"ce4bh9p2rcd13ifvqec0","pricing_plan_id":"cebpf4jnsgd1na2vs0mg"},{"bike_id":"b959cc19-b00a-4f78-bf9b-f737abeb0c3b","system_id":"levelo_inurba_marseille","lat":43.29492,"lon":5.38305,"is_reserved":false,"is_disabled":false,"rental_uris":{"android":"levelo://app?vid=b959cc19-b00a-4f78-bf9b-f737abeb0c3b","ios":"levelo://app?vid=b959cc19-b00a-4f78-bf9b-f737abeb0c3b"},"vehicle_type_id":"4","last_reported":1765912330,"current_range_meters":10800,"station_id":"","pricing_plan_id":"cebpf4jnsgd1na2vs0mg"},{"bike_id":"d6f90051-adc4-44d1-a726-3c1a90bf2e04","system_id":"levelo_inurba_marseille","lat":43.28237,"lon":5.34913,"is_reserved":false,"is_disabled":false,"rental_uris":{"android":"levelo://app?vid=d6f90051-adc4-44d1-a726-3c1a90bf2e04","ios":"levelo://app?vid=d6f90051-adc4-44d1-a726-3c1a90bf2e04"},"vehicle_type_id":"4","last_reported":1765912330,"current_range_meters":11200,"station_id":"","pricing_plan_id":"cebpf4jnsgd1na2vs0mg"},{"bike_id":"012464b2-f554-4e53-81a7-f940b7988d22","system_id":"levelo_inurba_marseille","lat":43.25578,"lon":5.38238,"is_reserved":false,"is_disabled":false,"rental_uris":{"android":"levelo://app?vid=012464b2-f554-4e53-81a7-f940b7988d22","ios":"levelo://app?vid=012464b2-f554-4e53-81a7-f940b7988d22"},"vehicle_type_id":"4","last_reported":1765912330,"current_range_meters":11200,"station_id":"ce4bhih2rcd13ifvqfs0","pricing_plan_id":"cebpf4jnsgd1na2vs0mg"},{"bike_id":"8f1e215d-7f38-4b5d-954b-5cf04b55b078","system_id":"levelo_inurba_marseille","lat":43.2707,"lon":5.38308,"is_reserved":false,"is_disabled":false,"rental_uris":{"android":"levelo://app?vid=8f1e215d-7f38-4b5d-954b-5cf04b55b078","ios":"levelo://app?vid=8f1e215d-7f38-4b5d-954b-5cf04b55b078"},"vehicle_type_id":"4","last_reported":1765912330,"current_range_meters":11200,"station_id":"st_d3n2fo6cfp8s73cte1j0","pricing_plan_id":"cebpf4jnsgd1na2vs0mg"},{"bike_id":"e7026bae-7da3-4b90-9837-e13e2564e524","system_id":"levelo_inurba_marseille","lat":43.3169,"lon":5.40476,"is_reserved":false,"is_disabled":false,"rental_uris":{"android":"levelo://app?vid=e7026bae-7da3-4b90-9837-e13e2564e524","ios":"levelo://app?vid=e7026bae-7da3-4b90-9837-e13e2564e524"},"vehicle_type_id":"4","last_reported":1765912330,"current_range_meters":11200,"station_id":"ce4bh012rcd13ifvqd00","pricing_plan_id":"cebpf4jnsgd1na2vs0mg"},{"bike_id":"26b80302-89f9-4ee1-b739-d718b492d391","system_id":"levelo_inurba_marseille","lat":43.29042,"lon":5.37573,"is_reserved":false,"is_disabled":false,"rental_uris":{"android":"levelo://app?vid=26b80302-89f9-4ee1-b739-d718b492d391","ios":"levelo://app?vid=26b80302-89f9-4ee1-b739-d718b492d391"},"vehicle_type_id":"4","last_reported":1765912330,"current_range_meters":11200,"station_id":"ce4bh692rcd13ifvqe90","pricing_plan_id":"cebpf4jnsgd1na2vs0mg"},{"bike_id":"2833047e-5d18-4b3c-9479-5d7320904cd9","system_id":"levelo_inurba_marseille","lat":43.28535,"lon":5.44093,"is_reserved":false,"is_disabled":false,"rental_uris":{"android":"levelo://app?vid=2833047e-5d18-4b3c-9479-5d7320904cd9","ios":"levelo://app?vid=2833047e-5d18-4b3c-9479-5d7320904cd9"},"vehicle_type_id":"4","last_reported":1765912330,"current_range_meters":11200,"station_id":"st_d3j3df2ikq2c7380ej80","pricing_plan_id":"cebpf4jnsgd1na2vs0mg"},{"bike_id":"87906b7e-c83a-4a0a-9e5d-68fcc9faacbf","system_id":"levelo_inurba_marseille","lat":43.28045,"lon":5.36938,"is_reserved":false,"is_disabled":false,"rental_uris":{"android":"levelo://app?vid=87906b7e-c83a-4a0a-9e5d-68fcc9faacbf","ios":"levelo://app?vid=87906b7e-c83a-4a0a-9e5d-68fcc9faacbf"},"vehicle_type_id":"4","last_reported":1765912330,"current_range_meters":11200,"station_id":"ce4bha12rcd13ifvqef0","pricing_plan_id":"cebpf4jnsgd1na2vs0mg"},{"bike_id":"c1e4c341-206a-4b7d-9c7f-49edf9a4b2b2","system_id":"levelo_inurba_marseille","lat":43.24072,"lon":5.37757,"is_reserved":false,"is_disabled":false,"rental_uris":{"android":"levelo://app?vid=c1e4c341-206a-4b7d-9c7f-49edf9a4b2b2","ios":"levelo://app?vid=c1e4c341-206a-4b7d-9c7f-49edf9a4b2b2"},"vehicle_type_id":"4","last_reported":1765912330,"current_range_meters":11200,"station_id":"ce4bhnp2rcd13ifvqgvg","pricing_plan_id":"cebpf4jnsgd1na2vs0mg"},{"bike_id":"4c1c7053-1690-46ae-b248-e8260967b03f","system_id":"levelo_inurba_marseille","lat":43.316791,"lon":5.375612,"is_reserved":false,"is_disabled":false,"rental_uris":{"android":"levelo://app?vid=4c1c7053-1690-46ae-b248-e8260967b03f","ios":"levelo://app?vid=4c1c7053-1690-46ae-b248-e8260967b03f"},"vehicle_type_id":"4","last_reported":1765912330,"current_range_meters":11600,"station_id":"","pricing_plan_id":"cebpf4jnsgd1na2vs0mg"},{"bike_id":"ccd4b405-0e75-4896-bddb-d0ca794ff795","system_id":"levelo_inurba_marseille","lat":43.27177,"lon":5.40995,"is_reserved":false,"is_disabled":false,"rental_uris":{"android":"levelo://app?vid=ccd4b405-0e75-4896-bddb-d0ca794ff795","ios":"levelo://app?vid=ccd4b405-0e75-4896-bddb-d0ca794ff795"},"vehicle_type_id":"4","last_reported":1765912330,"current_range_meters":11600,"station_id":"ce4bhl12rcd13ifvqgf0","pricing_plan_id":"cebpf4jnsgd1na2vs0mg"},{"bike_id":"d3a2e4e7-6aac-4366-981a-52d89642477a","system_id":"levelo_inurba_marseille","lat":43.30301,"lon":5.3778,"is_reserved":false,"is_disabled":true,"rental_uris":{"android":"levelo://app?vid=d3a2e4e7-6aac-4366-981a-52d89642477a","ios":"levelo://app?vid=d3a2e4e7-6aac-4366-981a-52d89642477a"},"vehicle_type_id":"4","last_reported":1765912330,"current_range_meters":11600,"station_id":"","pricing_plan_id":"cebpf4jnsgd1na2vs0mg"},{"bike_id":"9361265c-0965-4217-8d32-ee404792e62d","system_id":"levelo_inurba_marseille","lat":43.30599,"lon":5.39361,"is_reserved":false,"is_disabled":false,"rental_uris":{"android":"levelo://app?vid=9361265c-0965-4217-8d32-ee404792e62d","ios":"levelo://app?vid=9361265c-0965-4217-8d32-ee404792e62d"},"vehicle_type_id":"4","last_reported":1765912330,"current_range_meters":11600,"station_id":"ce4bh0p2rcd13ifvqd80","pricing_plan_id":"cebpf4jnsgd1na2vs0mg"},{"bike_id":"0cdf34a3-78d9-4339-ba60-fd4b0fc2fd4f","system_id":"levelo_inurba_marseille","lat":43.286667,"lon":5.386652,"is_reserved":false,"is_disabled":false,"rental_uris":{"android":"levelo://app?vid=0cdf34a3-78d9-4339-ba60-fd4b0fc2fd4f","ios":"levelo://app?vid=0cdf34a3-78d9-4339-ba60-fd4b0fc2fd4f"},"vehicle_type_id":"4","last_reported":1765912330,"current_range_meters":11600,"station_id":"ce4bh492rcd13ifvqdug","pricing_plan_id":"cebpf4jnsgd1na2vs0mg"},{"bike_id":"7d06ecef-c544-4470-a31f-809e6441ad73","system_id":"levelo_inurba_marseille","lat":43.25828,"lon":5.39439,"is_reserved":false,"is_disabled":false,"rental_uris":{"android":"levelo://app?vid=7d06ecef-c544-4470-a31f-809e6441ad73","ios":"levelo://app?vid=7d06ecef-c544-4470-a31f-809e6441ad73"},"vehicle_type_id":"4","last_reported":1765912330,"current_range_meters":11600,"station_id":"ce4bhip2rcd13ifvqft0","pricing_plan_id":"cebpf4jnsgd1na2vs0mg"},{"bike_id":"d969ddc8-1fa1-4359-907e-09087c32195b","system_id":"levelo_inurba_marseille","lat":43.29851,"lon":5.36279,"is_reserved":false,"is_disabled":false,"rental_uris":{"android":"levelo://app?vid=d969ddc8-1fa1-4359-907e-09087c32195b","ios":"levelo://app?vid=d969ddc8-1fa1-4359-907e-09087c32195b"},"vehicle_type_id":"4","last_reported":1765912330,"current_range_meters":11600,"station_id":"ce4bgpp2rcd13ifvqc3g","pricing_plan_id":"cebpf4jnsgd1na2vs0mg"},{"bike_id":"ccef0899-710a-4b4f-8a8b-41600db5e911","system_id":"levelo_inurba_marseille","lat":43.30563,"lon":5.36532,"is_reserved":false,"is_disabled":false,"rental_uris":{"android":"levelo://app?vid=ccef0899-710a-4b4f-8a8b-41600db5e911","ios":"levelo://app?vid=ccef0899-710a-4b4f-8a8b-41600db5e911"},"vehicle_type_id":"4","last_reported":1765912330,"current_range_meters":12000,"station_id":"ce4bgs12rcd13ifvqcag","pricing_plan_id":"cebpf4jnsgd1na2vs0mg"},{"bike_id":"0842d1d3-5ffd-403c-8b8e-75cc6c0c6212","system_id":"levelo_inurba_marseille","lat":43.26965,"lon":5.3862,"is_reserved":false,"is_disabled":false,"rental_uris":{"android":"levelo://app?vid=0842d1d3-5ffd-403c-8b8e-75cc6c0c6212","ios":"levelo://app?vid=0842d1d3-5ffd-403c-8b8e-75cc6c0c6212"},"vehicle_type_id":"4","last_reported":1765912330,"current_range_meters":12000,"station_id":"ce4bhh92rcd13ifvqfh0","pricing_plan_id":"cebpf4jnsgd1na2vs0mg"},{"bike_id":"71508078-6838-4792-8f86-6d1edd517671","system_id":"levelo_inurba_marseille","lat":43.285407,"lon":5.441046,"is_reserved":false,"is_disabled":false,"rental_uris":{"android":"levelo://app?vid=71508078-6838-4792-8f86-6d1edd517671","ios":"levelo://app?vid=71508078-6838-4792-8f86-6d1edd517671"},"vehicle_type_id":"4","last_reported":1765912330,"current_range_meters":12000,"station_id":"st_d3j3df2ikq2c7380ej80","pricing_plan_id":"cebpf4jnsgd1na2vs0mg"},{"bike_id":"65ef1610-5e5b-4ae4-92ec-9a2a1dd20a47","system_id":"levelo_inurba_marseille","lat":43.25332,"lon":5.4218,"is_reserved":false,"is_disabled":false,"rental_uris":{"android":"levelo://app?vid=65ef1610-5e5b-4ae4-92ec-9a2a1dd20a47","ios":"levelo://app?vid=65ef1610-5e5b-4ae4-92ec-9a2a1dd20a47"},"vehicle_type_id":"4","last_reported":1765912330,"current_range_meters":12000,"station_id":"st_d2m65c5bi1j21697t3ng","pricing_plan_id":"cebpf4jnsgd1na2vs0mg"},{"bike_id":"9ebcaad2-2e19-4608-9c02-cecea313b5ae","system_id":"levelo_inurba_marseille","lat":43.24645,"lon":5.43136,"is_reserved":false,"is_disabled":false,"rental_uris":{"android":"levelo://app?vid=9ebcaad2-2e19-4608-9c02-cecea313b5ae","ios":"levelo://app?vid=9ebcaad2-2e19-4608-9c02-cecea313b5ae"},"vehicle_type_id":"4","last_reported":1765912330,"current_range_meters":12000,"station_id":"st_d2m6c4gdas8pm72e190g","pricing_plan_id":"cebpf4jnsgd1na2vs0mg"},{"bike_id":"094e6f42-8188-456e-b536-25ce771d7e44","system_id":"levelo_inurba_marseille","lat":43.241664,"lon":5.363884,"is_reserved":false,"is_disabled":false,"rental_uris":{"android":"levelo://app?vid=094e6f42-8188-456e-b536-25ce771d7e44","ios":"levelo://app?vid=094e6f42-8188-456e-b536-25ce771d7e44"},"vehicle_type_id":"4","last_reported":1765912330,"current_range_meters":12000,"station_id":"cpo36qri1sfpv3e86is0","pricing_plan_id":"cebpf4jnsgd1na2vs0mg"},{"bike_id":"74c7bd5d-4e92-4ba0-96e5-9b71d5c2cb41","system_id":"levelo_inurba_marseille","lat":43.24954,"lon":5.40474,"is_reserved":false,"is_disabled":false,"rental_uris":{"android":"levelo://app?vid=74c7bd5d-4e92-4ba0-96e5-9b71d5c2cb41","ios":"levelo://app?vid=74c7bd5d-4e92-4ba0-96e5-9b71d5c2cb41"},"vehicle_type_id":"4","last_reported":1765912330,"current_range_meters":12000,"station_id":"st_d2ngiaodas8pm72gd1h0","pricing_plan_id":"cebpf4jnsgd1na2vs0mg"},{"bike_id":"966ee9b8-6cc6-4ddb-a687-fdc2139f50ef","system_id":"levelo_inurba_marseille","lat":43.288575,"lon":5.35845,"is_reserved":false,"is_disabled":false,"rental_uris":{"android":"levelo://app?vid=966ee9b8-6cc6-4ddb-a687-fdc2139f50ef","ios":"levelo://app?vid=966ee9b8-6cc6-4ddb-a687-fdc2139f50ef"},"vehicle_type_id":"4","last_reported":1765912330,"current_range_meters":12000,"station_id":"ce4bhb12rcd13ifvqem0","pricing_plan_id":"cebpf4jnsgd1na2vs0mg"},{"bike_id":"ee06b2d1-4d37-4b26-987d-0b09fc1dd263","system_id":"levelo_inurba_marseille","lat":43.29796,"lon":5.38094,"is_reserved":false,"is_disabled":false,"rental_uris":{"android":"levelo://app?vid=ee06b2d1-4d37-4b26-987d-0b09fc1dd263","ios":"levelo://app?vid=ee06b2d1-4d37-4b26-987d-0b09fc1dd263"},"vehicle_type_id":"4","last_reported":1765912330,"current_range_meters":12000,"station_id":"ce4bgip2rcd13ifvqbb0","pricing_plan_id":"cebpf4jnsgd1na2vs0mg"},{"bike_id":"ec025ddd-e46a-46ed-b97d-7c73102604e0","system_id":"levelo_inurba_marseille","lat":43.27319,"lon":5.39132,"is_reserved":false,"is_disabled":true,"rental_uris":{"android":"levelo://app?vid=ec025ddd-e46a-46ed-b97d-7c73102604e0","ios":"levelo://app?vid=ec025ddd-e46a-46ed-b97d-7c73102604e0"},"vehicle_type_id":"4","last_reported":1765912330,"current_range_meters":12000,"station_id":"ce4bhgp2rcd13ifvqfe0","pricing_plan_id":"cebpf4jnsgd1na2vs0mg"},{"bike_id":"b32e4917-4651-4915-accd-6ad72ebf913f","system_id":"levelo_inurba_marseille","lat":43.29225,"lon":5.3605,"is_reserved":false,"is_disabled":true,"rental_uris":{"android":"levelo://app?vid=b32e4917-4651-4915-accd-6ad72ebf913f","ios":"levelo://app?vid=b32e4917-4651-4915-accd-6ad72ebf913f"},"vehicle_type_id":"4","last_reported":1765912330,"current_range_meters":12000,"station_id":"ce4bhbh2rcd13ifvqeqg","pricing_plan_id":"cebpf4jnsgd1na2vs0mg"},{"bike_id":"516b3289-2209-47cd-8852-dcc2c8e7a52a","system_id":"levelo_inurba_marseille","lat":43.28662,"lon":5.36351,"is_reserved":false,"is_disabled":false,"rental_uris":{"android":"levelo://app?vid=516b3289-2209-47cd-8852-dcc2c8e7a52a","ios":"levelo://app?vid=516b3289-2209-47cd-8852-dcc2c8e7a52a"},"vehicle_type_id":"4","last_reported":1765912330,"current_range_meters":12000,"station_id":"ce4bhah2rcd13ifvqej0","pricing_plan_id":"cebpf4jnsgd1na2vs0mg"},{"bike_id":"3f0dde94-863b-4cc5-9b06-877117e9b0fd","system_id":"levelo_inurba_marseille","lat":43.29849,"lon":5.36269,"is_reserved":false,"is_disabled":false,"rental_uris":{"android":"levelo://app?vid=3f0dde94-863b-4cc5-9b06-877117e9b0fd","ios":"levelo://app?vid=3f0dde94-863b-4cc5-9b06-877117e9b0fd"},"vehicle_type_id":"4","last_reported":1765912330,"current_range_meters":12000,"station_id":"ce4bgpp2rcd13ifvqc3g","pricing_plan_id":"cebpf4jnsgd1na2vs0mg"},{"bike_id":"2baf383b-6381-419d-bee0-bdbabee5e0e0","system_id":"levelo_inurba_marseille","lat":43.229341,"lon":5.353771,"is_reserved":false,"is_disabled":false,"rental_uris":{"android":"levelo://app?vid=2baf383b-6381-419d-bee0-bdbabee5e0e0","ios":"levelo://app?vid=2baf383b-6381-419d-bee0-bdbabee5e0e0"},"vehicle_type_id":"4","last_reported":1765912330,"current_range_meters":12000,"station_id":"cpo3532slgdg3j2ikp40","pricing_plan_id":"cebpf4jnsgd1na2vs0mg"},{"bike_id":"f717c69c-452d-498c-b35f-0e9c987b4875","system_id":"levelo_inurba_marseille","lat":43.29265,"lon":5.38431,"is_reserved":false,"is_disabled":false,"rental_uris":{"android":"levelo://app?vid=f717c69c-452d-498c-b35f-0e9c987b4875","ios":"levelo://app?vid=f717c69c-452d-498c-b35f-0e9c987b4875"},"vehicle_type_id":"4","last_reported":1765912330,"current_range_meters":12000,"station_id":"ce4bh692rcd13ifvqea0","pricing_plan_id":"cebpf4jnsgd1na2vs0mg"},{"bike_id":"38398cb9-a369-40f5-a96c-0dce9d1fa098","system_id":"levelo_inurba_marseille","lat":43.297074,"lon":5.377023,"is_reserved":false,"is_disabled":false,"rental_uris":{"android":"levelo://app?vid=38398cb9-a369-40f5-a96c-0dce9d1fa098","ios":"levelo://app?vid=38398cb9-a369-40f5-a96c-0dce9d1fa098"},"vehicle_type_id":"4","last_reported":1765912330,"current_range_meters":12000,"station_id":"ce4bgkh2rcd13ifvqbl0","pricing_plan_id":"cebpf4jnsgd1na2vs0mg"},{"bike_id":"e41d969c-d64a-438b-b008-851f2317551a","system_id":"levelo_inurba_marseille","lat":43.26951,"lon":5.38627,"is_reserved":false,"is_disabled":false,"rental_uris":{"android":"levelo://app?vid=e41d969c-d64a-438b-b008-851f2317551a","ios":"levelo://app?vid=e41d969c-d64a-438b-b008-851f2317551a"},"vehicle_type_id":"4","last_reported":1765912330,"current_range_meters":12000,"station_id":"ce4bhh92rcd13ifvqfh0","pricing_plan_id":"cebpf4jnsgd1na2vs0mg"},{"bike_id":"acef88f3-04e9-43c4-ba5c-620b6998f263","system_id":"levelo_inurba_marseille","lat":43.309092,"lon":5.371835,"is_reserved":false,"is_disabled":false,"rental_uris":{"android":"levelo://app?vid=acef88f3-04e9-43c4-ba5c-620b6998f263","ios":"levelo://app?vid=acef88f3-04e9-43c4-ba5c-620b6998f263"},"vehicle_type_id":"4","last_reported":1765912330,"current_range_meters":12000,"station_id":"","pricing_plan_id":"cebpf4jnsgd1na2vs0mg"},{"bike_id":"6c232982-1aaf-453e-92d3-c0fc6119573a","system_id":"levelo_inurba_marseille","lat":43.2953,"lon":5.38545,"is_reserved":false,"is_disabled":false,"rental_uris":{"android":"levelo://app?vid=6c232982-1aaf-453e-92d3-c0fc6119573a","ios":"levelo://app?vid=6c232982-1aaf-453e-92d3-c0fc6119573a"},"vehicle_type_id":"4","last_reported":1765912330,"current_range_meters":12400,"station_id":"ce4bgih2rcd13ifvqba0","pricing_plan_id":"cebpf4jnsgd1na2vs0mg"},{"bike_id":"5b9b0249-af26-48bc-a6fd-72f489db67a9","system_id":"levelo_inurba_marseille","lat":43.32357,"lon":5.36755,"is_reserved":false,"is_disabled":false,"rental_uris":{"android":"levelo://app?vid=5b9b0249-af26-48bc-a6fd-72f489db67a9","ios":"levelo://app?vid=5b9b0249-af26-48bc-a6fd-72f489db67a9"},"vehicle_type_id":"4","last_reported":1765912330,"current_range_meters":12400,"station_id":"ce4bhsh2rcd13ifvqi2g","pricing_plan_id":"cebpf4jnsgd1na2vs0mg"},{"bike_id":"8427701b-53bc-44d1-91bd-2ff3c9bae359","system_id":"levelo_inurba_marseille","lat":43.29538,"lon":5.37491,"is_reserved":false,"is_disabled":false,"rental_uris":{"android":"levelo://app?vid=8427701b-53bc-44d1-91bd-2ff3c9bae359","ios":"levelo://app?vid=8427701b-53bc-44d1-91bd-2ff3c9bae359"},"vehicle_type_id":"4","last_reported":1765912330,"current_range_meters":12400,"station_id":"ce4bgkp2rcd13ifvqbmg","pricing_plan_id":"cebpf4jnsgd1na2vs0mg"},{"bike_id":"f13507cb-dd7b-49a8-9e65-015b8f41659d","system_id":"levelo_inurba_marseille","lat":43.27622,"lon":5.36113,"is_reserved":false,"is_disabled":false,"rental_uris":{"android":"levelo://app?vid=f13507cb-dd7b-49a8-9e65-015b8f41659d","ios":"levelo://app?vid=f13507cb-dd7b-49a8-9e65-015b8f41659d"},"vehicle_type_id":"4","last_reported":1765912330,"current_range_meters":12400,"station_id":"ce4bgj92rcd13ifvqbe0","pricing_plan_id":"cebpf4jnsgd1na2vs0mg"},{"bike_id":"a692d2f7-d3aa-4100-8502-620612dcb980","system_id":"levelo_inurba_marseille","lat":43.29304,"lon":5.37463,"is_reserved":false,"is_disabled":false,"rental_uris":{"android":"levelo://app?vid=a692d2f7-d3aa-4100-8502-620612dcb980","ios":"levelo://app?vid=a692d2f7-d3aa-4100-8502-620612dcb980"},"vehicle_type_id":"4","last_reported":1765912330,"current_range_meters":12400,"station_id":"ce4bgi12rcd13ifvqb70","pricing_plan_id":"cebpf4jnsgd1na2vs0mg"},{"bike_id":"e2cbb5e6-3f9d-4a3d-a899-57d885f29ddd","system_id":"levelo_inurba_marseille","lat":43.337444,"lon":5.374475,"is_reserved":false,"is_disabled":false,"rental_uris":{"android":"levelo://app?vid=e2cbb5e6-3f9d-4a3d-a899-57d885f29ddd","ios":"levelo://app?vid=e2cbb5e6-3f9d-4a3d-a899-57d885f29ddd"},"vehicle_type_id":"4","last_reported":1765912330,"current_range_meters":12800,"station_id":"","pricing_plan_id":"cebpf4jnsgd1na2vs0mg"},{"bike_id":"9483486a-df89-4cb9-9a5f-8106cc6e6096","system_id":"levelo_inurba_marseille","lat":43.3015,"lon":5.380674,"is_reserved":false,"is_disabled":false,"rental_uris":{"android":"levelo://app?vid=9483486a-df89-4cb9-9a5f-8106cc6e6096","ios":"levelo://app?vid=9483486a-df89-4cb9-9a5f-8106cc6e6096"},"vehicle_type_id":"4","last_reported":1765912330,"current_range_meters":12800,"station_id":"","pricing_plan_id":"cebpf4jnsgd1na2vs0mg"},{"bike_id":"f96d197e-d68e-4b9e-b261-84222baa54d9","system_id":"levelo_inurba_marseille","lat":43.23786,"lon":5.36629,"is_reserved":false,"is_disabled":false,"rental_uris":{"android":"levelo://app?vid=f96d197e-d68e-4b9e-b261-84222baa54d9","ios":"levelo://app?vid=f96d197e-d68e-4b9e-b261-84222baa54d9"},"vehicle_type_id":"4","last_reported":1765912330,"current_range_meters":12800,"station_id":"st_d3nk18o9ro0c73en2l3g","pricing_plan_id":"cebpf4jnsgd1na2vs0mg"},{"bike_id":"651b29d3-4f51-4bd5-bf59-d7b9bcb7f108","system_id":"levelo_inurba_marseille","lat":43.25353,"lon":5.42164,"is_reserved":false,"is_disabled":true,"rental_uris":{"android":"levelo://app?vid=651b29d3-4f51-4bd5-bf59-d7b9bcb7f108","ios":"levelo://app?vid=651b29d3-4f51-4bd5-bf59-d7b9bcb7f108"},"vehicle_type_id":"4","last_reported":1765912330,"current_range_meters":12800,"station_id":"st_d2m65c5bi1j21697t3ng","pricing_plan_id":"cebpf4jnsgd1na2vs0mg"},{"bike_id":"ebd8bf1b-f660-4eb5-8ea2-2aef2922fbd8","system_id":"levelo_inurba_marseille","lat":43.24545,"lon":5.39524,"is_reserved":false,"is_disabled":true,"rental_uris":{"android":"levelo://app?vid=ebd8bf1b-f660-4eb5-8ea2-2aef2922fbd8","ios":"levelo://app?vid=ebd8bf1b-f660-4eb5-8ea2-2aef2922fbd8"},"vehicle_type_id":"4","last_reported":1765912330,"current_range_meters":12800,"station_id":"ce4bhlp2rcd13ifvqgjg","pricing_plan_id":"cebpf4jnsgd1na2vs0mg"},{"bike_id":"2f55b60b-9e1e-48dc-bbbb-c371d55361ae","system_id":"levelo_inurba_marseille","lat":43.246472,"lon":5.388919,"is_reserved":false,"is_disabled":false,"rental_uris":{"android":"levelo://app?vid=2f55b60b-9e1e-48dc-bbbb-c371d55361ae","ios":"levelo://app?vid=2f55b60b-9e1e-48dc-bbbb-c371d55361ae"},"vehicle_type_id":"4","last_reported":1765912330,"current_range_meters":12800,"station_id":"ce4bhg12rcd13ifvqf60","pricing_plan_id":"cebpf4jnsgd1na2vs0mg"},{"bike_id":"c46d889d-8739-4f48-afd1-aea4a42e3fc9","system_id":"levelo_inurba_marseille","lat":43.29785,"lon":5.39335,"is_reserved":false,"is_disabled":false,"rental_uris":{"android":"levelo://app?vid=c46d889d-8739-4f48-afd1-aea4a42e3fc9","ios":"levelo://app?vid=c46d889d-8739-4f48-afd1-aea4a42e3fc9"},"vehicle_type_id":"4","last_reported":1765912330,"current_range_meters":12800,"station_id":"chh1huq6cuj3fo74tm60","pricing_plan_id":"cebpf4jnsgd1na2vs0mg"},{"bike_id":"37c64312-bacf-418e-938c-ab682523f7de","system_id":"levelo_inurba_marseille","lat":43.28533,"lon":5.44126,"is_reserved":false,"is_disabled":false,"rental_uris":{"android":"levelo://app?vid=37c64312-bacf-418e-938c-ab682523f7de","ios":"levelo://app?vid=37c64312-bacf-418e-938c-ab682523f7de"},"vehicle_type_id":"4","last_reported":1765912330,"current_range_meters":12800,"station_id":"st_d3j3df2ikq2c7380ej80","pricing_plan_id":"cebpf4jnsgd1na2vs0mg"},{"bike_id":"2ab2710b-733d-44fe-a9f8-fe4cbf8606c7","system_id":"levelo_inurba_marseille","lat":43.33524,"lon":5.3748,"is_reserved":false,"is_disabled":false,"rental_uris":{"android":"levelo://app?vid=2ab2710b-733d-44fe-a9f8-fe4cbf8606c7","ios":"levelo://app?vid=2ab2710b-733d-44fe-a9f8-fe4cbf8606c7"},"vehicle_type_id":"4","last_reported":1765912330,"current_range_meters":12800,"station_id":"st_d46tts09ee8s73dlu43g","pricing_plan_id":"cebpf4jnsgd1na2vs0mg"},{"bike_id":"50434642-f9bc-48a5-9aa9-e1c1ac067a3f","system_id":"levelo_inurba_marseille","lat":43.24804,"lon":5.37462,"is_reserved":false,"is_disabled":false,"rental_uris":{"android":"levelo://app?vid=50434642-f9bc-48a5-9aa9-e1c1ac067a3f","ios":"levelo://app?vid=50434642-f9bc-48a5-9aa9-e1c1ac067a3f"},"vehicle_type_id":"4","last_reported":1765912330,"current_range_meters":12800,"station_id":"ce4bhgh2rcd13ifvqfb0","pricing_plan_id":"cebpf4jnsgd1na2vs0mg"},{"bike_id":"8c2c2ce3-73da-4ebf-ba92-d3797395fcb1","system_id":"levelo_inurba_marseille","lat":43.24634,"lon":5.43151,"is_reserved":false,"is_disabled":true,"rental_uris":{"android":"levelo://app?vid=8c2c2ce3-73da-4ebf-ba92-d3797395fcb1","ios":"levelo://app?vid=8c2c2ce3-73da-4ebf-ba92-d3797395fcb1"},"vehicle_type_id":"4","last_reported":1765912330,"current_range_meters":13600,"station_id":"st_d2m6c4gdas8pm72e190g","pricing_plan_id":"cebpf4jnsgd1na2vs0mg"},{"bike_id":"ddb7d15d-3f99-4d7a-aae0-1a9d45669c33","system_id":"levelo_inurba_marseille","lat":43.23157,"lon":5.43706,"is_reserved":false,"is_disabled":true,"rental_uris":{"android":"levelo://app?vid=ddb7d15d-3f99-4d7a-aae0-1a9d45669c33","ios":"levelo://app?vid=ddb7d15d-3f99-4d7a-aae0-1a9d45669c33"},"vehicle_type_id":"4","last_reported":1765912330,"current_range_meters":13600,"station_id":"ce4bhmp2rcd13ifvqgog","pricing_plan_id":"cebpf4jnsgd1na2vs0mg"},{"bike_id":"dcf7f466-451f-4dc2-aa6a-64376446a890","system_id":"levelo_inurba_marseille","lat":43.26959,"lon":5.38638,"is_reserved":false,"is_disabled":false,"rental_uris":{"android":"levelo://app?vid=dcf7f466-451f-4dc2-aa6a-64376446a890","ios":"levelo://app?vid=dcf7f466-451f-4dc2-aa6a-64376446a890"},"vehicle_type_id":"4","last_reported":1765912330,"current_range_meters":13600,"station_id":"ce4bhh92rcd13ifvqfh0","pricing_plan_id":"cebpf4jnsgd1na2vs0mg"},{"bike_id":"b46b77cb-0c8f-4895-8e1c-454cd3bf74fc","system_id":"levelo_inurba_marseille","lat":43.2958,"lon":5.37524,"is_reserved":false,"is_disabled":false,"rental_uris":{"android":"levelo://app?vid=b46b77cb-0c8f-4895-8e1c-454cd3bf74fc","ios":"levelo://app?vid=b46b77cb-0c8f-4895-8e1c-454cd3bf74fc"},"vehicle_type_id":"4","last_reported":1765912330,"current_range_meters":13600,"station_id":"ce4bgh92rcd13ifvqb50","pricing_plan_id":"cebpf4jnsgd1na2vs0mg"},{"bike_id":"0b9299da-2145-4472-a752-9522638c09f9","system_id":"levelo_inurba_marseille","lat":43.27991,"lon":5.40015,"is_reserved":false,"is_disabled":false,"rental_uris":{"android":"levelo://app?vid=0b9299da-2145-4472-a752-9522638c09f9","ios":"levelo://app?vid=0b9299da-2145-4472-a752-9522638c09f9"},"vehicle_type_id":"4","last_reported":1765912330,"current_range_meters":13600,"station_id":"ce4bho92rcd13ifvqh4g","pricing_plan_id":"cebpf4jnsgd1na2vs0mg"},{"bike_id":"73622435-c5fd-4005-8594-c94cc5b0c5e3","system_id":"levelo_inurba_marseille","lat":43.29502,"lon":5.39034,"is_reserved":false,"is_disabled":true,"rental_uris":{"android":"levelo://app?vid=73622435-c5fd-4005-8594-c94cc5b0c5e3","ios":"levelo://app?vid=73622435-c5fd-4005-8594-c94cc5b0c5e3"},"vehicle_type_id":"4","last_reported":1765912330,"current_range_meters":13600,"station_id":"ce4bh3p2rcd13ifvqdp0","pricing_plan_id":"cebpf4jnsgd1na2vs0mg"},{"bike_id":"19b66638-3211-46a9-8beb-4f12406d7672","system_id":"levelo_inurba_marseille","lat":43.27283,"lon":5.41078,"is_reserved":false,"is_disabled":false,"rental_uris":{"android":"levelo://app?vid=19b66638-3211-46a9-8beb-4f12406d7672","ios":"levelo://app?vid=19b66638-3211-46a9-8beb-4f12406d7672"},"vehicle_type_id":"4","last_reported":1765912330,"current_range_meters":13600,"station_id":"","pricing_plan_id":"cebpf4jnsgd1na2vs0mg"},{"bike_id":"b1e7d9d9-1e91-401c-b1a2-de76d7489a9d","system_id":"levelo_inurba_marseille","lat":43.29533,"lon":5.38538,"is_reserved":false,"is_disabled":false,"rental_uris":{"android":"levelo://app?vid=b1e7d9d9-1e91-401c-b1a2-de76d7489a9d","ios":"levelo://app?vid=b1e7d9d9-1e91-401c-b1a2-de76d7489a9d"},"vehicle_type_id":"4","last_reported":1765912330,"current_range_meters":13600,"station_id":"ce4bgih2rcd13ifvqba0","pricing_plan_id":"cebpf4jnsgd1na2vs0mg"},{"bike_id":"486c0964-2d36-4a09-bd4e-308eb84dc832","system_id":"levelo_inurba_marseille","lat":43.29909,"lon":5.37464,"is_reserved":false,"is_disabled":false,"rental_uris":{"android":"levelo://app?vid=486c0964-2d36-4a09-bd4e-308eb84dc832","ios":"levelo://app?vid=486c0964-2d36-4a09-bd4e-308eb84dc832"},"vehicle_type_id":"4","last_reported":1765912330,"current_range_meters":13600,"station_id":"ce4bgjh2rcd13ifvqbg0","pricing_plan_id":"cebpf4jnsgd1na2vs0mg"},{"bike_id":"3d4f48d1-eba2-4765-96c6-e8c80875ece2","system_id":"levelo_inurba_marseille","lat":43.29045,"lon":5.35917,"is_reserved":false,"is_disabled":false,"rental_uris":{"android":"levelo://app?vid=3d4f48d1-eba2-4765-96c6-e8c80875ece2","ios":"levelo://app?vid=3d4f48d1-eba2-4765-96c6-e8c80875ece2"},"vehicle_type_id":"4","last_reported":1765912330,"current_range_meters":13600,"station_id":"ce4bha92rcd13ifvqeg0","pricing_plan_id":"cebpf4jnsgd1na2vs0mg"},{"bike_id":"b972c994-16b3-47fe-974f-b887645957a5","system_id":"levelo_inurba_marseille","lat":43.265576,"lon":5.372854,"is_reserved":false,"is_disabled":false,"rental_uris":{"android":"levelo://app?vid=b972c994-16b3-47fe-974f-b887645957a5","ios":"levelo://app?vid=b972c994-16b3-47fe-974f-b887645957a5"},"vehicle_type_id":"4","last_reported":1765912330,"current_range_meters":14000,"station_id":"ce4bhih2rcd13ifvqfr0","pricing_plan_id":"cebpf4jnsgd1na2vs0mg"},{"bike_id":"9b29053c-e585-42a1-b27f-f40b36b4853f","system_id":"levelo_inurba_marseille","lat":43.29302,"lon":5.37464,"is_reserved":false,"is_disabled":false,"rental_uris":{"android":"levelo://app?vid=9b29053c-e585-42a1-b27f-f40b36b4853f","ios":"levelo://app?vid=9b29053c-e585-42a1-b27f-f40b36b4853f"},"vehicle_type_id":"4","last_reported":1765912330,"current_range_meters":14000,"station_id":"ce4bgi12rcd13ifvqb70","pricing_plan_id":"cebpf4jnsgd1na2vs0mg"},{"bike_id":"2beaffa6-8bca-4ec0-8c78-30674bba7f30","system_id":"levelo_inurba_marseille","lat":43.28407,"lon":5.37524,"is_reserved":false,"is_disabled":false,"rental_uris":{"android":"levelo://app?vid=2beaffa6-8bca-4ec0-8c78-30674bba7f30","ios":"levelo://app?vid=2beaffa6-8bca-4ec0-8c78-30674bba7f30"},"vehicle_type_id":"4","last_reported":1765912330,"current_range_meters":14000,"station_id":"ce4bh412rcd13ifvqds0","pricing_plan_id":"cebpf4jnsgd1na2vs0mg"},{"bike_id":"33583a3e-eb6f-4736-a38d-d228e9cd63c0","system_id":"levelo_inurba_marseille","lat":43.29814,"lon":5.44069,"is_reserved":false,"is_disabled":false,"rental_uris":{"android":"levelo://app?vid=33583a3e-eb6f-4736-a38d-d228e9cd63c0","ios":"levelo://app?vid=33583a3e-eb6f-4736-a38d-d228e9cd63c0"},"vehicle_type_id":"4","last_reported":1765912330,"current_range_meters":14000,"station_id":"","pricing_plan_id":"cebpf4jnsgd1na2vs0mg"},{"bike_id":"5e6d2f4f-45a2-42c7-b61c-14e34160b4c2","system_id":"levelo_inurba_marseille","lat":43.25939,"lon":5.40912,"is_reserved":false,"is_disabled":false,"rental_uris":{"android":"levelo://app?vid=5e6d2f4f-45a2-42c7-b61c-14e34160b4c2","ios":"levelo://app?vid=5e6d2f4f-45a2-42c7-b61c-14e34160b4c2"},"vehicle_type_id":"4","last_reported":1765912330,"current_range_meters":14000,"station_id":"ce4bhm92rcd13ifvqglg","pricing_plan_id":"cebpf4jnsgd1na2vs0mg"},{"bike_id":"9019d9b8-86ea-49f7-a56a-aeb4972533ff","system_id":"levelo_inurba_marseille","lat":43.29935,"lon":5.36521,"is_reserved":false,"is_disabled":false,"rental_uris":{"android":"levelo://app?vid=9019d9b8-86ea-49f7-a56a-aeb4972533ff","ios":"levelo://app?vid=9019d9b8-86ea-49f7-a56a-aeb4972533ff"},"vehicle_type_id":"4","last_reported":1765912330,"current_range_meters":14000,"station_id":"ce4bgm92rcd13ifvqbr0","pricing_plan_id":"cebpf4jnsgd1na2vs0mg"},{"bike_id":"21d4f5e5-4720-489c-a0fd-b39efae20b1c","system_id":"levelo_inurba_marseille","lat":43.24079,"lon":5.37754,"is_reserved":false,"is_disabled":false,"rental_uris":{"android":"levelo://app?vid=21d4f5e5-4720-489c-a0fd-b39efae20b1c","ios":"levelo://app?vid=21d4f5e5-4720-489c-a0fd-b39efae20b1c"},"vehicle_type_id":"4","last_reported":1765912330,"current_range_meters":14400,"station_id":"ce4bhnp2rcd13ifvqgvg","pricing_plan_id":"cebpf4jnsgd1na2vs0mg"},{"bike_id":"5560bc30-feb5-441e-bb0e-aa8412fb304f","system_id":"levelo_inurba_marseille","lat":43.26769,"lon":5.39323,"is_reserved":false,"is_disabled":false,"rental_uris":{"android":"levelo://app?vid=5560bc30-feb5-441e-bb0e-aa8412fb304f","ios":"levelo://app?vid=5560bc30-feb5-441e-bb0e-aa8412fb304f"},"vehicle_type_id":"4","last_reported":1765912330,"current_range_meters":14400,"station_id":"","pricing_plan_id":"cebpf4jnsgd1na2vs0mg"},{"bike_id":"8c7465bb-38d0-4c5c-a95d-c15db3e1fefe","system_id":"levelo_inurba_marseille","lat":43.31998,"lon":5.38157,"is_reserved":false,"is_disabled":false,"rental_uris":{"android":"levelo://app?vid=8c7465bb-38d0-4c5c-a95d-c15db3e1fefe","ios":"levelo://app?vid=8c7465bb-38d0-4c5c-a95d-c15db3e1fefe"},"vehicle_type_id":"4","last_reported":1765912330,"current_range_meters":14400,"station_id":"ce4bhr12rcd13ifvqhpg","pricing_plan_id":"cebpf4jnsgd1na2vs0mg"},{"bike_id":"0dd965e5-394e-4578-bc4b-f4a1a49a4402","system_id":"levelo_inurba_marseille","lat":43.31124,"lon":5.37763,"is_reserved":false,"is_disabled":false,"rental_uris":{"android":"levelo://app?vid=0dd965e5-394e-4578-bc4b-f4a1a49a4402","ios":"levelo://app?vid=0dd965e5-394e-4578-bc4b-f4a1a49a4402"},"vehicle_type_id":"4","last_reported":1765912330,"current_range_meters":14400,"station_id":"ce4bgt92rcd13ifvqcg0","pricing_plan_id":"cebpf4jnsgd1na2vs0mg"},{"bike_id":"43e98a42-00ee-44db-bbb8-0326349684be","system_id":"levelo_inurba_marseille","lat":43.31721,"lon":5.43702,"is_reserved":false,"is_disabled":false,"rental_uris":{"android":"levelo://app?vid=43e98a42-00ee-44db-bbb8-0326349684be","ios":"levelo://app?vid=43e98a42-00ee-44db-bbb8-0326349684be"},"vehicle_type_id":"4","last_reported":1765912330,"current_range_meters":14400,"station_id":"ce4bhp92rcd13ifvqhcg","pricing_plan_id":"cebpf4jnsgd1na2vs0mg"},{"bike_id":"1761dee6-2fc9-43ea-a081-e6bc83df43e8","system_id":"levelo_inurba_marseille","lat":43.31742,"lon":5.37618,"is_reserved":false,"is_disabled":false,"rental_uris":{"android":"levelo://app?vid=1761dee6-2fc9-43ea-a081-e6bc83df43e8","ios":"levelo://app?vid=1761dee6-2fc9-43ea-a081-e6bc83df43e8"},"vehicle_type_id":"4","last_reported":1765912330,"current_range_meters":14800,"station_id":"","pricing_plan_id":"cebpf4jnsgd1na2vs0mg"},{"bike_id":"29a5cb6a-a46c-4ea0-a272-7a2d51ec0f87","system_id":"levelo_inurba_marseille","lat":43.29301,"lon":5.3717,"is_reserved":false,"is_disabled":false,"rental_uris":{"android":"levelo://app?vid=29a5cb6a-a46c-4ea0-a272-7a2d51ec0f87","ios":"levelo://app?vid=29a5cb6a-a46c-4ea0-a272-7a2d51ec0f87"},"vehicle_type_id":"4","last_reported":1765912330,"current_range_meters":14800,"station_id":"ce4bgh92rcd13ifvqb40","pricing_plan_id":"cebpf4jnsgd1na2vs0mg"},{"bike_id":"4824a2bb-7351-4049-8fb9-1f8b55445bbe","system_id":"levelo_inurba_marseille","lat":43.24172,"lon":5.36398,"is_reserved":false,"is_disabled":false,"rental_uris":{"android":"levelo://app?vid=4824a2bb-7351-4049-8fb9-1f8b55445bbe","ios":"levelo://app?vid=4824a2bb-7351-4049-8fb9-1f8b55445bbe"},"vehicle_type_id":"4","last_reported":1765912330,"current_range_meters":14800,"station_id":"cpo36qri1sfpv3e86is0","pricing_plan_id":"cebpf4jnsgd1na2vs0mg"},{"bike_id":"a46445b0-0e05-4854-90e8-7e9116d714dc","system_id":"levelo_inurba_marseille","lat":43.337634,"lon":5.37441,"is_reserved":false,"is_disabled":false,"rental_uris":{"android":"levelo://app?vid=a46445b0-0e05-4854-90e8-7e9116d714dc","ios":"levelo://app?vid=a46445b0-0e05-4854-90e8-7e9116d714dc"},"vehicle_type_id":"4","last_reported":1765912330,"current_range_meters":14800,"station_id":"","pricing_plan_id":"cebpf4jnsgd1na2vs0mg"},{"bike_id":"8fb69c52-e174-4c35-b229-8436cc385bed","system_id":"levelo_inurba_marseille","lat":43.28692,"lon":5.3741,"is_reserved":false,"is_disabled":true,"rental_uris":{"android":"levelo://app?vid=8fb69c52-e174-4c35-b229-8436cc385bed","ios":"levelo://app?vid=8fb69c52-e174-4c35-b229-8436cc385bed"},"vehicle_type_id":"4","last_reported":1765912330,"current_range_meters":14800,"station_id":"ce4bh3p2rcd13ifvqdq0","pricing_plan_id":"cebpf4jnsgd1na2vs0mg"},{"bike_id":"2d9be9df-3d9b-45f9-8822-775a0a71b6a1","system_id":"levelo_inurba_marseille","lat":43.28146,"lon":5.42639,"is_reserved":false,"is_disabled":false,"rental_uris":{"android":"levelo://app?vid=2d9be9df-3d9b-45f9-8822-775a0a71b6a1","ios":"levelo://app?vid=2d9be9df-3d9b-45f9-8822-775a0a71b6a1"},"vehicle_type_id":"4","last_reported":1765912330,"current_range_meters":14800,"station_id":"ce4bhnh2rcd13ifvqgug","pricing_plan_id":"cebpf4jnsgd1na2vs0mg"},{"bike_id":"f137e521-88b2-47ee-9694-5b04da1023bb","system_id":"levelo_inurba_marseille","lat":43.30948,"lon":5.39052,"is_reserved":false,"is_disabled":false,"rental_uris":{"android":"levelo://app?vid=f137e521-88b2-47ee-9694-5b04da1023bb","ios":"levelo://app?vid=f137e521-88b2-47ee-9694-5b04da1023bb"},"vehicle_type_id":"4","last_reported":1765912330,"current_range_meters":14800,"station_id":"ce4bgup2rcd13ifvqco0","pricing_plan_id":"cebpf4jnsgd1na2vs0mg"},{"bike_id":"1d2455c6-f0bf-453f-9956-10480769b06b","system_id":"levelo_inurba_marseille","lat":43.257998,"lon":5.394423,"is_reserved":false,"is_disabled":false,"rental_uris":{"android":"levelo://app?vid=1d2455c6-f0bf-453f-9956-10480769b06b","ios":"levelo://app?vid=1d2455c6-f0bf-453f-9956-10480769b06b"},"vehicle_type_id":"4","last_reported":1765912330,"current_range_meters":14800,"station_id":"ce4bhip2rcd13ifvqft0","pricing_plan_id":"cebpf4jnsgd1na2vs0mg"},{"bike_id":"8c438b31-ae1b-4de0-a11e-be327713f739","system_id":"levelo_inurba_marseille","lat":43.27994,"lon":5.40015,"is_reserved":false,"is_disabled":false,"rental_uris":{"android":"levelo://app?vid=8c438b31-ae1b-4de0-a11e-be327713f739","ios":"levelo://app?vid=8c438b31-ae1b-4de0-a11e-be327713f739"},"vehicle_type_id":"4","last_reported":1765912330,"current_range_meters":14800,"station_id":"ce4bho92rcd13ifvqh4g","pricing_plan_id":"cebpf4jnsgd1na2vs0mg"},{"bike_id":"8c9125f2-ff55-4322-8386-0785c8a01fb4","system_id":"levelo_inurba_marseille","lat":43.27943,"lon":5.41052,"is_reserved":false,"is_disabled":false,"rental_uris":{"android":"levelo://app?vid=8c9125f2-ff55-4322-8386-0785c8a01fb4","ios":"levelo://app?vid=8c9125f2-ff55-4322-8386-0785c8a01fb4"},"vehicle_type_id":"4","last_reported":1765912330,"current_range_meters":14800,"station_id":"ce4bhnp2rcd13ifvqh0g","pricing_plan_id":"cebpf4jnsgd1na2vs0mg"},{"bike_id":"7497a7c7-81f4-4185-b24b-6e5caa682128","system_id":"levelo_inurba_marseille","lat":43.28538,"lon":5.44091,"is_reserved":false,"is_disabled":false,"rental_uris":{"android":"levelo://app?vid=7497a7c7-81f4-4185-b24b-6e5caa682128","ios":"levelo://app?vid=7497a7c7-81f4-4185-b24b-6e5caa682128"},"vehicle_type_id":"4","last_reported":1765912330,"current_range_meters":14800,"station_id":"st_d3j3df2ikq2c7380ej80","pricing_plan_id":"cebpf4jnsgd1na2vs0mg"},{"bike_id":"dcd49a5a-f87a-4b6c-98e9-bff6083d1b4b","system_id":"levelo_inurba_marseille","lat":43.28709,"lon":5.39997,"is_reserved":false,"is_disabled":false,"rental_uris":{"android":"levelo://app?vid=dcd49a5a-f87a-4b6c-98e9-bff6083d1b4b","ios":"levelo://app?vid=dcd49a5a-f87a-4b6c-98e9-bff6083d1b4b"},"vehicle_type_id":"4","last_reported":1765912330,"current_range_meters":15200,"station_id":"ce4bho92rcd13ifvqh3g","pricing_plan_id":"cebpf4jnsgd1na2vs0mg"},{"bike_id":"d624ea1e-42c8-428b-8145-fda7a530b4e9","system_id":"levelo_inurba_marseille","lat":43.2861,"lon":5.3986,"is_reserved":false,"is_disabled":false,"rental_uris":{"android":"levelo://app?vid=d624ea1e-42c8-428b-8145-fda7a530b4e9","ios":"levelo://app?vid=d624ea1e-42c8-428b-8145-fda7a530b4e9"},"vehicle_type_id":"4","last_reported":1765912330,"current_range_meters":15200,"station_id":"st_d4a7ka997mjs738ck50g","pricing_plan_id":"cebpf4jnsgd1na2vs0mg"},{"bike_id":"5327d406-699b-4b98-952a-3c158f7fb458","system_id":"levelo_inurba_marseille","lat":43.29259,"lon":5.38435,"is_reserved":false,"is_disabled":false,"rental_uris":{"android":"levelo://app?vid=5327d406-699b-4b98-952a-3c158f7fb458","ios":"levelo://app?vid=5327d406-699b-4b98-952a-3c158f7fb458"},"vehicle_type_id":"4","last_reported":1765912330,"current_range_meters":15200,"station_id":"ce4bh692rcd13ifvqea0","pricing_plan_id":"cebpf4jnsgd1na2vs0mg"},{"bike_id":"86329e37-081d-45a2-a015-8aec02e2f895","system_id":"levelo_inurba_marseille","lat":43.2481,"lon":5.37469,"is_reserved":false,"is_disabled":false,"rental_uris":{"android":"levelo://app?vid=86329e37-081d-45a2-a015-8aec02e2f895","ios":"levelo://app?vid=86329e37-081d-45a2-a015-8aec02e2f895"},"vehicle_type_id":"4","last_reported":1765912330,"current_range_meters":15200,"station_id":"ce4bhgh2rcd13ifvqfb0","pricing_plan_id":"cebpf4jnsgd1na2vs0mg"},{"bike_id":"8f444c81-73e2-4250-8cf4-4c25aa9fc238","system_id":"levelo_inurba_marseille","lat":43.27818,"lon":5.40709,"is_reserved":false,"is_disabled":false,"rental_uris":{"android":"levelo://app?vid=8f444c81-73e2-4250-8cf4-4c25aa9fc238","ios":"levelo://app?vid=8f444c81-73e2-4250-8cf4-4c25aa9fc238"},"vehicle_type_id":"4","last_reported":1765912330,"current_range_meters":15200,"station_id":"ce4bhnh2rcd13ifvqgtg","pricing_plan_id":"cebpf4jnsgd1na2vs0mg"},{"bike_id":"98d2c231-3355-40c4-9cb9-72d854d9b9c7","system_id":"levelo_inurba_marseille","lat":43.28572,"lon":5.39491,"is_reserved":false,"is_disabled":false,"rental_uris":{"android":"levelo://app?vid=98d2c231-3355-40c4-9cb9-72d854d9b9c7","ios":"levelo://app?vid=98d2c231-3355-40c4-9cb9-72d854d9b9c7"},"vehicle_type_id":"4","last_reported":1765912330,"current_range_meters":16000,"station_id":"ce4bh292rcd13ifvqdg0","pricing_plan_id":"cebpf4jnsgd1na2vs0mg"},{"bike_id":"8e42f5bd-0a55-4d3c-9096-d82a20a55cfc","system_id":"levelo_inurba_marseille","lat":43.286,"lon":5.38356,"is_reserved":false,"is_disabled":false,"rental_uris":{"android":"levelo://app?vid=8e42f5bd-0a55-4d3c-9096-d82a20a55cfc","ios":"levelo://app?vid=8e42f5bd-0a55-4d3c-9096-d82a20a55cfc"},"vehicle_type_id":"4","last_reported":1765912330,"current_range_meters":16000,"station_id":"","pricing_plan_id":"cebpf4jnsgd1na2vs0mg"},{"bike_id":"3d59aa86-8754-4f37-bba3-bfe09d0092fc","system_id":"levelo_inurba_marseille","lat":43.26577,"lon":5.38994,"is_reserved":false,"is_disabled":false,"rental_uris":{"android":"levelo://app?vid=3d59aa86-8754-4f37-bba3-bfe09d0092fc","ios":"levelo://app?vid=3d59aa86-8754-4f37-bba3-bfe09d0092fc"},"vehicle_type_id":"4","last_reported":1765912330,"current_range_meters":16000,"station_id":"ce4bhe12rcd13ifvqf30","pricing_plan_id":"cebpf4jnsgd1na2vs0mg"},{"bike_id":"14d5783d-2674-4909-97d9-c13f8170b44c","system_id":"levelo_inurba_marseille","lat":43.3153,"lon":5.38027,"is_reserved":false,"is_disabled":false,"rental_uris":{"android":"levelo://app?vid=14d5783d-2674-4909-97d9-c13f8170b44c","ios":"levelo://app?vid=14d5783d-2674-4909-97d9-c13f8170b44c"},"vehicle_type_id":"4","last_reported":1765912330,"current_range_meters":16000,"station_id":"ce4bhsp2rcd13ifvqi50","pricing_plan_id":"cebpf4jnsgd1na2vs0mg"},{"bike_id":"49cd8dc6-4f5d-4dbe-8e38-2fb68552ad4d","system_id":"levelo_inurba_marseille","lat":43.31117,"lon":5.37775,"is_reserved":false,"is_disabled":false,"rental_uris":{"android":"levelo://app?vid=49cd8dc6-4f5d-4dbe-8e38-2fb68552ad4d","ios":"levelo://app?vid=49cd8dc6-4f5d-4dbe-8e38-2fb68552ad4d"},"vehicle_type_id":"4","last_reported":1765912330,"current_range_meters":16000,"station_id":"ce4bgt92rcd13ifvqcg0","pricing_plan_id":"cebpf4jnsgd1na2vs0mg"},{"bike_id":"fd9ad82f-20c6-45b1-88b2-610323446587","system_id":"levelo_inurba_marseille","lat":43.31728,"lon":5.40451,"is_reserved":false,"is_disabled":false,"rental_uris":{"android":"levelo://app?vid=fd9ad82f-20c6-45b1-88b2-610323446587","ios":"levelo://app?vid=fd9ad82f-20c6-45b1-88b2-610323446587"},"vehicle_type_id":"4","last_reported":1765912330,"current_range_meters":16000,"station_id":"ce4bh012rcd13ifvqd00","pricing_plan_id":"cebpf4jnsgd1na2vs0mg"},{"bike_id":"ffb3d8e6-2935-45db-a83e-7c315d359bf2","system_id":"levelo_inurba_marseille","lat":43.29537,"lon":5.38543,"is_reserved":false,"is_disabled":false,"rental_uris":{"android":"levelo://app?vid=ffb3d8e6-2935-45db-a83e-7c315d359bf2","ios":"levelo://app?vid=ffb3d8e6-2935-45db-a83e-7c315d359bf2"},"vehicle_type_id":"4","last_reported":1765912330,"current_range_meters":16400,"station_id":"ce4bgih2rcd13ifvqba0","pricing_plan_id":"cebpf4jnsgd1na2vs0mg"},{"bike_id":"103401f7-dff1-4044-90bd-ee3d2d530810","system_id":"levelo_inurba_marseille","lat":43.24388,"lon":5.37053,"is_reserved":false,"is_disabled":false,"rental_uris":{"android":"levelo://app?vid=103401f7-dff1-4044-90bd-ee3d2d530810","ios":"levelo://app?vid=103401f7-dff1-4044-90bd-ee3d2d530810"},"vehicle_type_id":"4","last_reported":1765912330,"current_range_meters":16400,"station_id":"ce4bhhh2rcd13ifvqfk0","pricing_plan_id":"cebpf4jnsgd1na2vs0mg"},{"bike_id":"3c198f8e-c202-4cd7-87c0-b6a1763c2b4b","system_id":"levelo_inurba_marseille","lat":43.29304,"lon":5.37466,"is_reserved":false,"is_disabled":false,"rental_uris":{"android":"levelo://app?vid=3c198f8e-c202-4cd7-87c0-b6a1763c2b4b","ios":"levelo://app?vid=3c198f8e-c202-4cd7-87c0-b6a1763c2b4b"},"vehicle_type_id":"4","last_reported":1765912330,"current_range_meters":16400,"station_id":"ce4bgi12rcd13ifvqb70","pricing_plan_id":"cebpf4jnsgd1na2vs0mg"},{"bike_id":"898c83e8-e27e-4b63-81c6-6c5f2696af7f","system_id":"levelo_inurba_marseille","lat":43.29587,"lon":5.36742,"is_reserved":false,"is_disabled":false,"rental_uris":{"android":"levelo://app?vid=898c83e8-e27e-4b63-81c6-6c5f2696af7f","ios":"levelo://app?vid=898c83e8-e27e-4b63-81c6-6c5f2696af7f"},"vehicle_type_id":"4","last_reported":1765912330,"current_range_meters":16400,"station_id":"ce4bgph2rcd13ifvqc2g","pricing_plan_id":"cebpf4jnsgd1na2vs0mg"},{"bike_id":"5542e50a-0abd-4334-b9c8-d3ed3aed793c","system_id":"levelo_inurba_marseille","lat":43.30443,"lon":5.3711,"is_reserved":false,"is_disabled":false,"rental_uris":{"android":"levelo://app?vid=5542e50a-0abd-4334-b9c8-d3ed3aed793c","ios":"levelo://app?vid=5542e50a-0abd-4334-b9c8-d3ed3aed793c"},"vehicle_type_id":"4","last_reported":1765912330,"current_range_meters":16400,"station_id":"","pricing_plan_id":"cebpf4jnsgd1na2vs0mg"},{"bike_id":"aae25742-9eeb-49ec-a8e5-f2b92e66260e","system_id":"levelo_inurba_marseille","lat":43.284715,"lon":5.483959,"is_reserved":false,"is_disabled":false,"rental_uris":{"android":"levelo://app?vid=aae25742-9eeb-49ec-a8e5-f2b92e66260e","ios":"levelo://app?vid=aae25742-9eeb-49ec-a8e5-f2b92e66260e"},"vehicle_type_id":"4","last_reported":1765912330,"current_range_meters":16400,"station_id":"st_d3svhcjqgbts73a3dn0g","pricing_plan_id":"cebpf4jnsgd1na2vs0mg"},{"bike_id":"50a5b016-cf9a-497e-8e9c-2f2d39e2c6a3","system_id":"levelo_inurba_marseille","lat":43.32118,"lon":5.36779,"is_reserved":false,"is_disabled":false,"rental_uris":{"android":"levelo://app?vid=50a5b016-cf9a-497e-8e9c-2f2d39e2c6a3","ios":"levelo://app?vid=50a5b016-cf9a-497e-8e9c-2f2d39e2c6a3"},"vehicle_type_id":"4","last_reported":1765912330,"current_range_meters":16400,"station_id":"ce4bhrh2rcd13ifvqhug","pricing_plan_id":"cebpf4jnsgd1na2vs0mg"},{"bike_id":"47386b70-d1a6-403d-bcde-2b22b9b9b4a4","system_id":"levelo_inurba_marseille","lat":43.29191,"lon":5.39293,"is_reserved":false,"is_disabled":true,"rental_uris":{"android":"levelo://app?vid=47386b70-d1a6-403d-bcde-2b22b9b9b4a4","ios":"levelo://app?vid=47386b70-d1a6-403d-bcde-2b22b9b9b4a4"},"vehicle_type_id":"4","last_reported":1765912330,"current_range_meters":16400,"station_id":"ce4bh192rcd13ifvqdd0","pricing_plan_id":"cebpf4jnsgd1na2vs0mg"},{"bike_id":"bb2ecb62-c5ec-403d-987f-26a9ae118742","system_id":"levelo_inurba_marseille","lat":43.295738,"lon":5.375235,"is_reserved":false,"is_disabled":false,"rental_uris":{"android":"levelo://app?vid=bb2ecb62-c5ec-403d-987f-26a9ae118742","ios":"levelo://app?vid=bb2ecb62-c5ec-403d-987f-26a9ae118742"},"vehicle_type_id":"4","last_reported":1765912330,"current_range_meters":16400,"station_id":"ce4bgh92rcd13ifvqb50","pricing_plan_id":"cebpf4jnsgd1na2vs0mg"},{"bike_id":"4515132a-3268-4b1c-81eb-02cb63ec18dc","system_id":"levelo_inurba_marseille","lat":43.33155,"lon":5.37701,"is_reserved":false,"is_disabled":false,"rental_uris":{"android":"levelo://app?vid=4515132a-3268-4b1c-81eb-02cb63ec18dc","ios":"levelo://app?vid=4515132a-3268-4b1c-81eb-02cb63ec18dc"},"vehicle_type_id":"4","last_reported":1765912330,"current_range_meters":16400,"station_id":"st_d46cu089ee8s73dldbu0","pricing_plan_id":"cebpf4jnsgd1na2vs0mg"},{"bike_id":"6b43d3b9-1459-4d69-b4cc-d5d7836be96a","system_id":"levelo_inurba_marseille","lat":43.27812,"lon":5.40698,"is_reserved":false,"is_disabled":false,"rental_uris":{"android":"levelo://app?vid=6b43d3b9-1459-4d69-b4cc-d5d7836be96a","ios":"levelo://app?vid=6b43d3b9-1459-4d69-b4cc-d5d7836be96a"},"vehicle_type_id":"4","last_reported":1765912330,"current_range_meters":16400,"station_id":"ce4bhnh2rcd13ifvqgtg","pricing_plan_id":"cebpf4jnsgd1na2vs0mg"},{"bike_id":"a5f85ed1-5432-4565-9d3f-00675e2bbf99","system_id":"levelo_inurba_marseille","lat":43.30152,"lon":5.38096,"is_reserved":false,"is_disabled":true,"rental_uris":{"android":"levelo://app?vid=a5f85ed1-5432-4565-9d3f-00675e2bbf99","ios":"levelo://app?vid=a5f85ed1-5432-4565-9d3f-00675e2bbf99"},"vehicle_type_id":"4","last_reported":1765912330,"current_range_meters":16400,"station_id":"ce4bgjp2rcd13ifvqbh0","pricing_plan_id":"cebpf4jnsgd1na2vs0mg"},{"bike_id":"ee7f3f2a-526d-4a18-93d7-505b194391fb","system_id":"levelo_inurba_marseille","lat":43.31699,"lon":5.37772,"is_reserved":false,"is_disabled":false,"rental_uris":{"android":"levelo://app?vid=ee7f3f2a-526d-4a18-93d7-505b194391fb","ios":"levelo://app?vid=ee7f3f2a-526d-4a18-93d7-505b194391fb"},"vehicle_type_id":"4","last_reported":1765912330,"current_range_meters":16400,"station_id":"ce4bgth2rcd13ifvqch0","pricing_plan_id":"cebpf4jnsgd1na2vs0mg"},{"bike_id":"e22e0d7a-4f65-4e4c-a149-07fdcc9d5bda","system_id":"levelo_inurba_marseille","lat":43.298111,"lon":5.381091,"is_reserved":false,"is_disabled":false,"rental_uris":{"android":"levelo://app?vid=e22e0d7a-4f65-4e4c-a149-07fdcc9d5bda","ios":"levelo://app?vid=e22e0d7a-4f65-4e4c-a149-07fdcc9d5bda"},"vehicle_type_id":"4","last_reported":1765912330,"current_range_meters":16400,"station_id":"ce4bgip2rcd13ifvqbb0","pricing_plan_id":"cebpf4jnsgd1na2vs0mg"},{"bike_id":"6a1c7e85-8e77-445a-88b1-93dccc0c75c2","system_id":"levelo_inurba_marseille","lat":43.31764,"lon":5.39005,"is_reserved":false,"is_disabled":false,"rental_uris":{"android":"levelo://app?vid=6a1c7e85-8e77-445a-88b1-93dccc0c75c2","ios":"levelo://app?vid=6a1c7e85-8e77-445a-88b1-93dccc0c75c2"},"vehicle_type_id":"4","last_reported":1765912330,"current_range_meters":16400,"station_id":"ce4bhqp2rcd13ifvqhng","pricing_plan_id":"cebpf4jnsgd1na2vs0mg"},{"bike_id":"006db195-49b6-4530-9dad-8802ecdd03f2","system_id":"levelo_inurba_marseille","lat":43.30212,"lon":5.39464,"is_reserved":false,"is_disabled":false,"rental_uris":{"android":"levelo://app?vid=006db195-49b6-4530-9dad-8802ecdd03f2","ios":"levelo://app?vid=006db195-49b6-4530-9dad-8802ecdd03f2"},"vehicle_type_id":"4","last_reported":1765912330,"current_range_meters":16400,"station_id":"ce4bh0p2rcd13ifvqd70","pricing_plan_id":"cebpf4jnsgd1na2vs0mg"},{"bike_id":"d726324f-1229-4ee5-babb-773d48683f7d","system_id":"levelo_inurba_marseille","lat":43.25112,"lon":5.40323,"is_reserved":false,"is_disabled":false,"rental_uris":{"android":"levelo://app?vid=d726324f-1229-4ee5-babb-773d48683f7d","ios":"levelo://app?vid=d726324f-1229-4ee5-babb-773d48683f7d"},"vehicle_type_id":"4","last_reported":1765912330,"current_range_meters":16800,"station_id":"ce4bhlh2rcd13ifvqgig","pricing_plan_id":"cebpf4jnsgd1na2vs0mg"},{"bike_id":"2f48a76a-f4e0-44e8-b1db-59ee514aacb8","system_id":"levelo_inurba_marseille","lat":43.29915,"lon":5.374652,"is_reserved":false,"is_disabled":false,"rental_uris":{"android":"levelo://app?vid=2f48a76a-f4e0-44e8-b1db-59ee514aacb8","ios":"levelo://app?vid=2f48a76a-f4e0-44e8-b1db-59ee514aacb8"},"vehicle_type_id":"4","last_reported":1765912330,"current_range_meters":16800,"station_id":"ce4bgjh2rcd13ifvqbg0","pricing_plan_id":"cebpf4jnsgd1na2vs0mg"},{"bike_id":"d0e47d82-46b1-4391-9c6a-cf32785e1c0d","system_id":"levelo_inurba_marseille","lat":43.28466,"lon":5.38444,"is_reserved":false,"is_disabled":false,"rental_uris":{"android":"levelo://app?vid=d0e47d82-46b1-4391-9c6a-cf32785e1c0d","ios":"levelo://app?vid=d0e47d82-46b1-4391-9c6a-cf32785e1c0d"},"vehicle_type_id":"4","last_reported":1765912330,"current_range_meters":16800,"station_id":"ce4bh512rcd13ifvqe3g","pricing_plan_id":"cebpf4jnsgd1na2vs0mg"},{"bike_id":"d3ed7dff-1fd6-4938-b39e-005a522edd6b","system_id":"levelo_inurba_marseille","lat":43.2885,"lon":5.39302,"is_reserved":false,"is_disabled":false,"rental_uris":{"android":"levelo://app?vid=d3ed7dff-1fd6-4938-b39e-005a522edd6b","ios":"levelo://app?vid=d3ed7dff-1fd6-4938-b39e-005a522edd6b"},"vehicle_type_id":"4","last_reported":1765912330,"current_range_meters":16800,"station_id":"ce4bh2p2rcd13ifvqdi0","pricing_plan_id":"cebpf4jnsgd1na2vs0mg"},