{"last_updated":1774620189,"ttl":60,"version":"2.2","data":{"bikes":[{"bike_id":"bc6f68ef-ff2e-4910-8fbf-a9c7619cd5d1","system_id":"levelo_inurba_marseille","lat":43.33556,"lon":5.37444,"is_reserved":false,"is_disabled":false,"rental_uris":{"android":"levelo://app?vid=bc6f68ef-ff2e-4910-8fbf-a9c7619cd5d1","ios":"levelo://app?vid=bc6f68ef-ff2e-4910-8fbf-a9c7619cd5d1"},"vehicle_type_id":"4","last_reported":1774620190,"current_range_meters":2800,"station_id":"st_d46tts09ee8s73dlu43g","pricing_plan_id":"cebpf4jnsgd1na2vs0mg"},{"bike_id":"db8e1c36-1d9c-44d2-bc2d-f91041c6fca2","system_id":"levelo_inurba_marseille","lat":43.28558,"lon":5.45953,"is_reserved":false,"is_disabled":false,"rental_uris":{"android":"levelo://app?vid=db8e1c36-1d9c-44d2-bc2d-f91041c6fca2","ios":"levelo://app?vid=db8e1c36-1d9c-44d2-bc2d-f91041c6fca2"},"vehicle_type_id":"4","last_reported":1774620190,"current_range_meters":2800,"station_id":"","pricing_plan_id":"cebpf4jnsgd1na2vs0mg"},{"bike_id":"4da55c97-1586-4251-858f-6692c855eec7","system_id":"levelo_inurba_marseille","lat":43.28933,"lon":5.36405,"is_reserved":false,"is_disabled":false,"rental_uris":{"android":"levelo://app?vid=4da55c97-1586-4251-858f-6692c855eec7","ios":"levelo://app?vid=4da55c97-1586-4251-858f-6692c855eec7"},"vehicle_type_id":"4","last_reported":1774620190,"current_range_meters":2800,"station_id":"ce4bhc92rcd13ifvqetg","pricing_plan_id":"cebpf4jnsgd1na2vs0mg"},{"bike_id":"694bae3c-6034-441f-89a5-7049c1cfc6aa","system_id":"levelo_inurba_marseille","lat":43.27507,"lon":5.42444,"is_reserved":false,"is_disabled":false,"rental_uris":{"android":"levelo://app?vid=694bae3c-6034-441f-89a5-7049c1cfc6aa","ios":"levelo://app?vid=694bae3c-6034-441f-89a5-7049c1cfc6aa"},"vehicle_type_id":"4","last_reported":1774620190,"current_range_meters":2800,"station_id":"ce4bhn92rcd13ifvqgrg","pricing_plan_id":"cebpf4jnsgd1na2vs0mg"},{"bike_id":"b15d28bf-754f-48cb-b3a0-bf5d138e4a87","system_id":"levelo_inurba_marseille","lat":43.23195,"lon":5.35564,"is_reserved":false,"is_disabled":false,"rental_uris":{"android":"levelo://app?vid=b15d28bf-754f-48cb-b3a0-bf5d138e4a87","ios":"levelo://app?vid=b15d28bf-754f-48cb-b3a0-bf5d138e4a87"},"vehicle_type_id":"4","last_reported":1774620190,"current_range_meters":2800,"station_id":"ce4bhu92rcd13ifvqi70","pricing_plan_id":"cebpf4jnsgd1na2vs0mg"},{"bike_id":"770ee2ec-62b5-4f13-b252-5e0a77aa2913","system_id":"levelo_inurba_marseille","lat":43.3187,"lon":5.37628,"is_reserved":false,"is_disabled":false,"rental_uris":{"android":"levelo://app?vid=770ee2ec-62b5-4f13-b252-5e0a77aa2913","ios":"levelo://app?vid=770ee2ec-62b5-4f13-b252-5e0a77aa2913"},"vehicle_type_id":"4","last_reported":1774620190,"current_range_meters":2800,"station_id":"","pricing_plan_id":"cebpf4jnsgd1na2vs0mg"},{"bike_id":"17ce6aad-471a-486c-ad1e-423f652029f4","system_id":"levelo_inurba_marseille","lat":43.23896,"lon":5.37445,"is_reserved":false,"is_disabled":false,"rental_uris":{"android":"levelo://app?vid=17ce6aad-471a-486c-ad1e-423f652029f4","ios":"levelo://app?vid=17ce6aad-471a-486c-ad1e-423f652029f4"},"vehicle_type_id":"4","last_reported":1774620190,"current_range_meters":2800,"station_id":"st_d6sm7csbq4hs73f8fpjg","pricing_plan_id":"cebpf4jnsgd1na2vs0mg"},{"bike_id":"666f4397-7c90-43b6-a860-7771d213c752","system_id":"levelo_inurba_marseille","lat":43.26024,"lon":5.3754,"is_reserved":false,"is_disabled":false,"rental_uris":{"android":"levelo://app?vid=666f4397-7c90-43b6-a860-7771d213c752","ios":"levelo://app?vid=666f4397-7c90-43b6-a860-7771d213c752"},"vehicle_type_id":"4","last_reported":1774620190,"current_range_meters":2800,"station_id":"ce4bhgh2rcd13ifvqfa0","pricing_plan_id":"cebpf4jnsgd1na2vs0mg"},{"bike_id":"05eb7591-b8a3-403f-9900-eaebe9428266","system_id":"levelo_inurba_marseille","lat":43.240766,"lon":5.377595,"is_reserved":false,"is_disabled":true,"rental_uris":{"android":"levelo://app?vid=05eb7591-b8a3-403f-9900-eaebe9428266","ios":"levelo://app?vid=05eb7591-b8a3-403f-9900-eaebe9428266"},"vehicle_type_id":"4","last_reported":1774620190,"current_range_meters":2800,"station_id":"ce4bhnp2rcd13ifvqgvg","pricing_plan_id":"cebpf4jnsgd1na2vs0mg"},{"bike_id":"026bbd3e-661d-4021-a8c5-649d1bcfdca0","system_id":"levelo_inurba_marseille","lat":43.29501,"lon":5.37391,"is_reserved":false,"is_disabled":false,"rental_uris":{"android":"levelo://app?vid=026bbd3e-661d-4021-a8c5-649d1bcfdca0","ios":"levelo://app?vid=026bbd3e-661d-4021-a8c5-649d1bcfdca0"},"vehicle_type_id":"4","last_reported":1774620190,"current_range_meters":3200,"station_id":"","pricing_plan_id":"cebpf4jnsgd1na2vs0mg"},{"bike_id":"2cb5cd58-9e2d-42f2-add2-d82eea54ba59","system_id":"levelo_inurba_marseille","lat":43.32059,"lon":5.41579,"is_reserved":false,"is_disabled":false,"rental_uris":{"android":"levelo://app?vid=2cb5cd58-9e2d-42f2-add2-d82eea54ba59","ios":"levelo://app?vid=2cb5cd58-9e2d-42f2-add2-d82eea54ba59"},"vehicle_type_id":"4","last_reported":1774620190,"current_range_meters":3200,"station_id":"ce4bhq92rcd13ifvqhkg","pricing_plan_id":"cebpf4jnsgd1na2vs0mg"},{"bike_id":"95062790-6cce-4e40-bd4c-3b693b1539eb","system_id":"levelo_inurba_marseille","lat":43.25667,"lon":5.41054,"is_reserved":false,"is_disabled":false,"rental_uris":{"android":"levelo://app?vid=95062790-6cce-4e40-bd4c-3b693b1539eb","ios":"levelo://app?vid=95062790-6cce-4e40-bd4c-3b693b1539eb"},"vehicle_type_id":"4","last_reported":1774620190,"current_range_meters":3200,"station_id":"","pricing_plan_id":"cebpf4jnsgd1na2vs0mg"},{"bike_id":"d896d699-3ac7-4823-b169-2267a272f07c","system_id":"levelo_inurba_marseille","lat":43.25824,"lon":5.39415,"is_reserved":false,"is_disabled":false,"rental_uris":{"android":"levelo://app?vid=d896d699-3ac7-4823-b169-2267a272f07c","ios":"levelo://app?vid=d896d699-3ac7-4823-b169-2267a272f07c"},"vehicle_type_id":"4","last_reported":1774620190,"current_range_meters":3200,"station_id":"ce4bhip2rcd13ifvqft0","pricing_plan_id":"cebpf4jnsgd1na2vs0mg"},{"bike_id":"d3ea30b5-6be7-4c73-90b0-3dce63b8e835","system_id":"levelo_inurba_marseille","lat":43.29021,"lon":5.3861,"is_reserved":false,"is_disabled":false,"rental_uris":{"android":"levelo://app?vid=d3ea30b5-6be7-4c73-90b0-3dce63b8e835","ios":"levelo://app?vid=d3ea30b5-6be7-4c73-90b0-3dce63b8e835"},"vehicle_type_id":"4","last_reported":1774620190,"current_range_meters":3200,"station_id":"ce4bh4p2rcd13ifvqe0g","pricing_plan_id":"cebpf4jnsgd1na2vs0mg"},{"bike_id":"b3893f95-3cb0-432a-a562-85254097d9ad","system_id":"levelo_inurba_marseille","lat":43.2391,"lon":5.37459,"is_reserved":false,"is_disabled":false,"rental_uris":{"android":"levelo://app?vid=b3893f95-3cb0-432a-a562-85254097d9ad","ios":"levelo://app?vid=b3893f95-3cb0-432a-a562-85254097d9ad"},"vehicle_type_id":"4","last_reported":1774620190,"current_range_meters":3600,"station_id":"st_d6sm7csbq4hs73f8fpjg","pricing_plan_id":"cebpf4jnsgd1na2vs0mg"},{"bike_id":"dc64370d-29ec-4299-b6f4-a03d42267945","system_id":"levelo_inurba_marseille","lat":43.27207,"lon":5.39179,"is_reserved":false,"is_disabled":false,"rental_uris":{"android":"levelo://app?vid=dc64370d-29ec-4299-b6f4-a03d42267945","ios":"levelo://app?vid=dc64370d-29ec-4299-b6f4-a03d42267945"},"vehicle_type_id":"4","last_reported":1774620190,"current_range_meters":3600,"station_id":"ce4bhhp2rcd13ifvqfm0","pricing_plan_id":"cebpf4jnsgd1na2vs0mg"},{"bike_id":"9a1b7562-5c14-4853-ad31-a4b1e826c8d0","system_id":"levelo_inurba_marseille","lat":43.22572,"lon":5.41621,"is_reserved":false,"is_disabled":false,"rental_uris":{"android":"levelo://app?vid=9a1b7562-5c14-4853-ad31-a4b1e826c8d0","ios":"levelo://app?vid=9a1b7562-5c14-4853-ad31-a4b1e826c8d0"},"vehicle_type_id":"4","last_reported":1774620190,"current_range_meters":3600,"station_id":"st_d2o4gvlbi1j2169b742g","pricing_plan_id":"cebpf4jnsgd1na2vs0mg"},{"bike_id":"636c19d8-2149-478a-9e32-477982c4e00a","system_id":"levelo_inurba_marseille","lat":43.29549,"lon":5.42321,"is_reserved":false,"is_disabled":false,"rental_uris":{"android":"levelo://app?vid=636c19d8-2149-478a-9e32-477982c4e00a","ios":"levelo://app?vid=636c19d8-2149-478a-9e32-477982c4e00a"},"vehicle_type_id":"4","last_reported":1774620190,"current_range_meters":3600,"station_id":"ce4bhph2rcd13ifvqhdg","pricing_plan_id":"cebpf4jnsgd1na2vs0mg"},{"bike_id":"c357227c-5316-43b9-ab54-cd647cd24f5b","system_id":"levelo_inurba_marseille","lat":43.30142,"lon":5.38081,"is_reserved":false,"is_disabled":false,"rental_uris":{"android":"levelo://app?vid=c357227c-5316-43b9-ab54-cd647cd24f5b","ios":"levelo://app?vid=c357227c-5316-43b9-ab54-cd647cd24f5b"},"vehicle_type_id":"4","last_reported":1774620190,"current_range_meters":3600,"station_id":"ce4bgjp2rcd13ifvqbh0","pricing_plan_id":"cebpf4jnsgd1na2vs0mg"},{"bike_id":"f6705d2e-2629-44d9-bcee-450af9aa1a23","system_id":"levelo_inurba_marseille","lat":43.30323,"lon":5.40443,"is_reserved":false,"is_disabled":false,"rental_uris":{"android":"levelo://app?vid=f6705d2e-2629-44d9-bcee-450af9aa1a23","ios":"levelo://app?vid=f6705d2e-2629-44d9-bcee-450af9aa1a23"},"vehicle_type_id":"4","last_reported":1774620190,"current_range_meters":3600,"station_id":"ce4bh012rcd13ifvqd10","pricing_plan_id":"cebpf4jnsgd1na2vs0mg"},{"bike_id":"b0257da6-29b0-40f2-a5bf-6ff6c48b36b8","system_id":"levelo_inurba_marseille","lat":43.28473,"lon":5.48391,"is_reserved":false,"is_disabled":false,"rental_uris":{"android":"levelo://app?vid=b0257da6-29b0-40f2-a5bf-6ff6c48b36b8","ios":"levelo://app?vid=b0257da6-29b0-40f2-a5bf-6ff6c48b36b8"},"vehicle_type_id":"4","last_reported":1774620190,"current_range_meters":3600,"station_id":"","pricing_plan_id":"cebpf4jnsgd1na2vs0mg"},{"bike_id":"6823ffc9-5cad-4ce3-b86d-8d999ced6302","system_id":"levelo_inurba_marseille","lat":43.31242,"lon":5.36838,"is_reserved":false,"is_disabled":false,"rental_uris":{"android":"levelo://app?vid=6823ffc9-5cad-4ce3-b86d-8d999ced6302","ios":"levelo://app?vid=6823ffc9-5cad-4ce3-b86d-8d999ced6302"},"vehicle_type_id":"4","last_reported":1774620190,"current_range_meters":3600,"station_id":"ce4bgl92rcd13ifvqbq0","pricing_plan_id":"cebpf4jnsgd1na2vs0mg"},{"bike_id":"7aef4281-0ff4-43c1-b20b-8c14a286c836","system_id":"levelo_inurba_marseille","lat":43.26571,"lon":5.39004,"is_reserved":false,"is_disabled":false,"rental_uris":{"android":"levelo://app?vid=7aef4281-0ff4-43c1-b20b-8c14a286c836","ios":"levelo://app?vid=7aef4281-0ff4-43c1-b20b-8c14a286c836"},"vehicle_type_id":"4","last_reported":1774620190,"current_range_meters":3600,"station_id":"ce4bhe12rcd13ifvqf30","pricing_plan_id":"cebpf4jnsgd1na2vs0mg"},{"bike_id":"e2fabea8-fec8-4403-91af-ad7f2d964bb9","system_id":"levelo_inurba_marseille","lat":43.29887,"lon":5.42079,"is_reserved":false,"is_disabled":false,"rental_uris":{"android":"levelo://app?vid=e2fabea8-fec8-4403-91af-ad7f2d964bb9","ios":"levelo://app?vid=e2fabea8-fec8-4403-91af-ad7f2d964bb9"},"vehicle_type_id":"4","last_reported":1774620190,"current_range_meters":4000,"station_id":"st_d6tc004otcvc738tfe70","pricing_plan_id":"cebpf4jnsgd1na2vs0mg"},{"bike_id":"a98e7b73-b30a-4f9b-96c6-ec530884d631","system_id":"levelo_inurba_marseille","lat":43.23777,"lon":5.36618,"is_reserved":false,"is_disabled":false,"rental_uris":{"android":"levelo://app?vid=a98e7b73-b30a-4f9b-96c6-ec530884d631","ios":"levelo://app?vid=a98e7b73-b30a-4f9b-96c6-ec530884d631"},"vehicle_type_id":"4","last_reported":1774620190,"current_range_meters":4000,"station_id":"st_d3nk18o9ro0c73en2l3g","pricing_plan_id":"cebpf4jnsgd1na2vs0mg"},{"bike_id":"0503b862-e3d8-47d6-9da1-48a2cc570e36","system_id":"levelo_inurba_marseille","lat":43.27916,"lon":5.38717,"is_reserved":false,"is_disabled":false,"rental_uris":{"android":"levelo://app?vid=0503b862-e3d8-47d6-9da1-48a2cc570e36","ios":"levelo://app?vid=0503b862-e3d8-47d6-9da1-48a2cc570e36"},"vehicle_type_id":"4","last_reported":1774620190,"current_range_meters":4000,"station_id":"","pricing_plan_id":"cebpf4jnsgd1na2vs0mg"},{"bike_id":"0ceeb825-61d0-4218-a26c-40bd8fc78330","system_id":"levelo_inurba_marseille","lat":43.28652,"lon":5.38665,"is_reserved":false,"is_disabled":true,"rental_uris":{"android":"levelo://app?vid=0ceeb825-61d0-4218-a26c-40bd8fc78330","ios":"levelo://app?vid=0ceeb825-61d0-4218-a26c-40bd8fc78330"},"vehicle_type_id":"4","last_reported":1774620190,"current_range_meters":4000,"station_id":"ce4bh492rcd13ifvqdug","pricing_plan_id":"cebpf4jnsgd1na2vs0mg"},{"bike_id":"aa929685-e4dd-4a31-a1c6-979463fa81a3","system_id":"levelo_inurba_marseille","lat":43.28491,"lon":5.48393,"is_reserved":false,"is_disabled":false,"rental_uris":{"android":"levelo://app?vid=aa929685-e4dd-4a31-a1c6-979463fa81a3","ios":"levelo://app?vid=aa929685-e4dd-4a31-a1c6-979463fa81a3"},"vehicle_type_id":"4","last_reported":1774620190,"current_range_meters":4000,"station_id":"st_d3svhcjqgbts73a3dn0g","pricing_plan_id":"cebpf4jnsgd1na2vs0mg"},{"bike_id":"4bf5ee1a-db28-4d49-a9e5-e023cbb5efa9","system_id":"levelo_inurba_marseille","lat":43.26513,"lon":5.37958,"is_reserved":false,"is_disabled":false,"rental_uris":{"android":"levelo://app?vid=4bf5ee1a-db28-4d49-a9e5-e023cbb5efa9","ios":"levelo://app?vid=4bf5ee1a-db28-4d49-a9e5-e023cbb5efa9"},"vehicle_type_id":"4","last_reported":1774620190,"current_range_meters":4000,"station_id":"","pricing_plan_id":"cebpf4jnsgd1na2vs0mg"},{"bike_id":"a206a1fc-ad71-47c7-8011-84675fafc178","system_id":"levelo_inurba_marseille","lat":43.31202,"lon":5.36894,"is_reserved":false,"is_disabled":false,"rental_uris":{"android":"levelo://app?vid=a206a1fc-ad71-47c7-8011-84675fafc178","ios":"levelo://app?vid=a206a1fc-ad71-47c7-8011-84675fafc178"},"vehicle_type_id":"4","last_reported":1774620190,"current_range_meters":4000,"station_id":"ce4bgl92rcd13ifvqbq0","pricing_plan_id":"cebpf4jnsgd1na2vs0mg"},{"bike_id":"5ee79f78-c077-4e4b-853f-9dadde04ec9a","system_id":"levelo_inurba_marseille","lat":43.32496,"lon":5.38291,"is_reserved":false,"is_disabled":false,"rental_uris":{"android":"levelo://app?vid=5ee79f78-c077-4e4b-853f-9dadde04ec9a","ios":"levelo://app?vid=5ee79f78-c077-4e4b-853f-9dadde04ec9a"},"vehicle_type_id":"4","last_reported":1774620190,"current_range_meters":4000,"station_id":"st_d4asgbiv49dc73anf9m0","pricing_plan_id":"cebpf4jnsgd1na2vs0mg"},{"bike_id":"95499898-c966-4d35-ae05-c608fe124272","system_id":"levelo_inurba_marseille","lat":43.2751,"lon":5.41548,"is_reserved":false,"is_disabled":false,"rental_uris":{"android":"levelo://app?vid=95499898-c966-4d35-ae05-c608fe124272","ios":"levelo://app?vid=95499898-c966-4d35-ae05-c608fe124272"},"vehicle_type_id":"4","last_reported":1774620190,"current_range_meters":4000,"station_id":"st_d6im8g6chgec73a5pndg","pricing_plan_id":"cebpf4jnsgd1na2vs0mg"},{"bike_id":"5d50e5a1-2776-45f5-b9ff-1dc20663f1a3","system_id":"levelo_inurba_marseille","lat":43.27192,"lon":5.40993,"is_reserved":false,"is_disabled":false,"rental_uris":{"android":"levelo://app?vid=5d50e5a1-2776-45f5-b9ff-1dc20663f1a3","ios":"levelo://app?vid=5d50e5a1-2776-45f5-b9ff-1dc20663f1a3"},"vehicle_type_id":"4","last_reported":1774620190,"current_range_meters":4000,"station_id":"ce4bhl12rcd13ifvqgf0","pricing_plan_id":"cebpf4jnsgd1na2vs0mg"},{"bike_id":"df42c234-a1af-4e0c-a409-09947bdf6343","system_id":"levelo_inurba_marseille","lat":43.24951,"lon":5.40487,"is_reserved":false,"is_disabled":false,"rental_uris":{"android":"levelo://app?vid=df42c234-a1af-4e0c-a409-09947bdf6343","ios":"levelo://app?vid=df42c234-a1af-4e0c-a409-09947bdf6343"},"vehicle_type_id":"4","last_reported":1774620190,"current_range_meters":4000,"station_id":"st_d2ngiaodas8pm72gd1h0","pricing_plan_id":"cebpf4jnsgd1na2vs0mg"},{"bike_id":"6f07c129-266c-469d-a387-50f1e4dab4dc","system_id":"levelo_inurba_marseille","lat":43.29555,"lon":5.42277,"is_reserved":false,"is_disabled":false,"rental_uris":{"android":"levelo://app?vid=6f07c129-266c-469d-a387-50f1e4dab4dc","ios":"levelo://app?vid=6f07c129-266c-469d-a387-50f1e4dab4dc"},"vehicle_type_id":"4","last_reported":1774620190,"current_range_meters":4000,"station_id":"ce4bhph2rcd13ifvqhdg","pricing_plan_id":"cebpf4jnsgd1na2vs0mg"},{"bike_id":"a2cac0c3-58e7-4db2-9d1b-129715506fb8","system_id":"levelo_inurba_marseille","lat":43.30895,"lon":5.39641,"is_reserved":false,"is_disabled":false,"rental_uris":{"android":"levelo://app?vid=a2cac0c3-58e7-4db2-9d1b-129715506fb8","ios":"levelo://app?vid=a2cac0c3-58e7-4db2-9d1b-129715506fb8"},"vehicle_type_id":"4","last_reported":1774620190,"current_range_meters":4000,"station_id":"ce4bh012rcd13ifvqcv0","pricing_plan_id":"cebpf4jnsgd1na2vs0mg"},{"bike_id":"d6a9bcda-35b2-48cf-b9d7-4558988256b9","system_id":"levelo_inurba_marseille","lat":43.26567,"lon":5.39031,"is_reserved":false,"is_disabled":false,"rental_uris":{"android":"levelo://app?vid=d6a9bcda-35b2-48cf-b9d7-4558988256b9","ios":"levelo://app?vid=d6a9bcda-35b2-48cf-b9d7-4558988256b9"},"vehicle_type_id":"4","last_reported":1774620190,"current_range_meters":4000,"station_id":"ce4bhe12rcd13ifvqf30","pricing_plan_id":"cebpf4jnsgd1na2vs0mg"},{"bike_id":"d2cd3311-407c-40ad-86b8-625941579697","system_id":"levelo_inurba_marseille","lat":43.24078,"lon":5.37752,"is_reserved":false,"is_disabled":false,"rental_uris":{"android":"levelo://app?vid=d2cd3311-407c-40ad-86b8-625941579697","ios":"levelo://app?vid=d2cd3311-407c-40ad-86b8-625941579697"},"vehicle_type_id":"4","last_reported":1774620190,"current_range_meters":4400,"station_id":"ce4bhnp2rcd13ifvqgvg","pricing_plan_id":"cebpf4jnsgd1na2vs0mg"},{"bike_id":"3ab98d54-0020-4383-9198-d1ae40e931d7","system_id":"levelo_inurba_marseille","lat":43.26224,"lon":5.40449,"is_reserved":false,"is_disabled":false,"rental_uris":{"android":"levelo://app?vid=3ab98d54-0020-4383-9198-d1ae40e931d7","ios":"levelo://app?vid=3ab98d54-0020-4383-9198-d1ae40e931d7"},"vehicle_type_id":"4","last_reported":1774620190,"current_range_meters":4400,"station_id":"ce4bhmh2rcd13ifvqgmg","pricing_plan_id":"cebpf4jnsgd1na2vs0mg"},{"bike_id":"0f56ada4-0139-4533-81b0-539cec19117a","system_id":"levelo_inurba_marseille","lat":43.30026,"lon":5.3768,"is_reserved":false,"is_disabled":false,"rental_uris":{"android":"levelo://app?vid=0f56ada4-0139-4533-81b0-539cec19117a","ios":"levelo://app?vid=0f56ada4-0139-4533-81b0-539cec19117a"},"vehicle_type_id":"4","last_reported":1774620190,"current_range_meters":4400,"station_id":"","pricing_plan_id":"cebpf4jnsgd1na2vs0mg"},{"bike_id":"304f09eb-d9e2-49f5-ab92-08bad78da312","system_id":"levelo_inurba_marseille","lat":43.23777,"lon":5.36626,"is_reserved":false,"is_disabled":false,"rental_uris":{"android":"levelo://app?vid=304f09eb-d9e2-49f5-ab92-08bad78da312","ios":"levelo://app?vid=304f09eb-d9e2-49f5-ab92-08bad78da312"},"vehicle_type_id":"4","last_reported":1774620190,"current_range_meters":4400,"station_id":"st_d3nk18o9ro0c73en2l3g","pricing_plan_id":"cebpf4jnsgd1na2vs0mg"},{"bike_id":"9622d6a1-0148-4917-a3c8-65e1e3794664","system_id":"levelo_inurba_marseille","lat":43.28162,"lon":5.42629,"is_reserved":false,"is_disabled":false,"rental_uris":{"android":"levelo://app?vid=9622d6a1-0148-4917-a3c8-65e1e3794664","ios":"levelo://app?vid=9622d6a1-0148-4917-a3c8-65e1e3794664"},"vehicle_type_id":"4","last_reported":1774620190,"current_range_meters":4400,"station_id":"ce4bhnh2rcd13ifvqgug","pricing_plan_id":"cebpf4jnsgd1na2vs0mg"},{"bike_id":"d9f1e599-9996-4001-a299-ae38459379b5","system_id":"levelo_inurba_marseille","lat":43.31927,"lon":5.36817,"is_reserved":false,"is_disabled":false,"rental_uris":{"android":"levelo://app?vid=d9f1e599-9996-4001-a299-ae38459379b5","ios":"levelo://app?vid=d9f1e599-9996-4001-a299-ae38459379b5"},"vehicle_type_id":"4","last_reported":1774620190,"current_range_meters":4400,"station_id":"","pricing_plan_id":"cebpf4jnsgd1na2vs0mg"},{"bike_id":"99fdde14-d00f-4b87-a06e-d19f16d9d69a","system_id":"levelo_inurba_marseille","lat":43.30214,"lon":5.38034,"is_reserved":false,"is_disabled":false,"rental_uris":{"android":"levelo://app?vid=99fdde14-d00f-4b87-a06e-d19f16d9d69a","ios":"levelo://app?vid=99fdde14-d00f-4b87-a06e-d19f16d9d69a"},"vehicle_type_id":"4","last_reported":1774620190,"current_range_meters":4400,"station_id":"","pricing_plan_id":"cebpf4jnsgd1na2vs0mg"},{"bike_id":"9ac2d7e7-51d6-4c20-9245-1abdbf115c06","system_id":"levelo_inurba_marseille","lat":43.27528,"lon":5.41583,"is_reserved":false,"is_disabled":false,"rental_uris":{"android":"levelo://app?vid=9ac2d7e7-51d6-4c20-9245-1abdbf115c06","ios":"levelo://app?vid=9ac2d7e7-51d6-4c20-9245-1abdbf115c06"},"vehicle_type_id":"4","last_reported":1774620190,"current_range_meters":4800,"station_id":"st_d6im8g6chgec73a5pndg","pricing_plan_id":"cebpf4jnsgd1na2vs0mg"},{"bike_id":"5197c838-db20-4855-9d3e-a13ea3574fa3","system_id":"levelo_inurba_marseille","lat":43.2559,"lon":5.38206,"is_reserved":false,"is_disabled":false,"rental_uris":{"android":"levelo://app?vid=5197c838-db20-4855-9d3e-a13ea3574fa3","ios":"levelo://app?vid=5197c838-db20-4855-9d3e-a13ea3574fa3"},"vehicle_type_id":"4","last_reported":1774620190,"current_range_meters":4800,"station_id":"ce4bhih2rcd13ifvqfs0","pricing_plan_id":"cebpf4jnsgd1na2vs0mg"},{"bike_id":"5f84302b-a60d-4aba-a4a6-1a33c5d5487a","system_id":"levelo_inurba_marseille","lat":43.28276,"lon":5.35078,"is_reserved":false,"is_disabled":false,"rental_uris":{"android":"levelo://app?vid=5f84302b-a60d-4aba-a4a6-1a33c5d5487a","ios":"levelo://app?vid=5f84302b-a60d-4aba-a4a6-1a33c5d5487a"},"vehicle_type_id":"4","last_reported":1774620190,"current_range_meters":4800,"station_id":"ce4bhbp2rcd13ifvqerg","pricing_plan_id":"cebpf4jnsgd1na2vs0mg"},{"bike_id":"eaa6ebea-eea9-474f-9b5a-dfab591f9614","system_id":"levelo_inurba_marseille","lat":43.26359,"lon":5.41078,"is_reserved":false,"is_disabled":false,"rental_uris":{"android":"levelo://app?vid=eaa6ebea-eea9-474f-9b5a-dfab591f9614","ios":"levelo://app?vid=eaa6ebea-eea9-474f-9b5a-dfab591f9614"},"vehicle_type_id":"4","last_reported":1774620190,"current_range_meters":4800,"station_id":"st_d4e5ca6na9uc73bfl5fg","pricing_plan_id":"cebpf4jnsgd1na2vs0mg"},{"bike_id":"195e0631-ed2b-43bc-b6d1-51410ce940b3","system_id":"levelo_inurba_marseille","lat":43.28486,"lon":5.48391,"is_reserved":false,"is_disabled":false,"rental_uris":{"android":"levelo://app?vid=195e0631-ed2b-43bc-b6d1-51410ce940b3","ios":"levelo://app?vid=195e0631-ed2b-43bc-b6d1-51410ce940b3"},"vehicle_type_id":"4","last_reported":1774620190,"current_range_meters":5600,"station_id":"","pricing_plan_id":"cebpf4jnsgd1na2vs0mg"},{"bike_id":"f39d8b02-6dc1-4aa3-9619-221f5e63d8fe","system_id":"levelo_inurba_marseille","lat":43.27076,"lon":5.42273,"is_reserved":false,"is_disabled":false,"rental_uris":{"android":"levelo://app?vid=f39d8b02-6dc1-4aa3-9619-221f5e63d8fe","ios":"levelo://app?vid=f39d8b02-6dc1-4aa3-9619-221f5e63d8fe"},"vehicle_type_id":"4","last_reported":1774620190,"current_range_meters":5600,"station_id":"ce4bhk92rcd13ifvqgb0","pricing_plan_id":"cebpf4jnsgd1na2vs0mg"},{"bike_id":"beca5126-c985-47d5-859f-464bcda92937","system_id":"levelo_inurba_marseille","lat":43.23784,"lon":5.36637,"is_reserved":false,"is_disabled":false,"rental_uris":{"android":"levelo://app?vid=beca5126-c985-47d5-859f-464bcda92937","ios":"levelo://app?vid=beca5126-c985-47d5-859f-464bcda92937"},"vehicle_type_id":"4","last_reported":1774620190,"current_range_meters":5600,"station_id":"st_d3nk18o9ro0c73en2l3g","pricing_plan_id":"cebpf4jnsgd1na2vs0mg"},{"bike_id":"60745d19-0a4f-44d5-90ce-af1c93b483f7","system_id":"levelo_inurba_marseille","lat":43.28417,"lon":5.34986,"is_reserved":false,"is_disabled":false,"rental_uris":{"android":"levelo://app?vid=60745d19-0a4f-44d5-90ce-af1c93b483f7","ios":"levelo://app?vid=60745d19-0a4f-44d5-90ce-af1c93b483f7"},"vehicle_type_id":"4","last_reported":1774620190,"current_range_meters":5600,"station_id":"ce4bhbh2rcd13ifvqepg","pricing_plan_id":"cebpf4jnsgd1na2vs0mg"},{"bike_id":"e4a07499-c2e6-4aa7-ac42-955893842553","system_id":"levelo_inurba_marseille","lat":43.27333,"lon":5.39052,"is_reserved":false,"is_disabled":false,"rental_uris":{"android":"levelo://app?vid=e4a07499-c2e6-4aa7-ac42-955893842553","ios":"levelo://app?vid=e4a07499-c2e6-4aa7-ac42-955893842553"},"vehicle_type_id":"4","last_reported":1774620190,"current_range_meters":5600,"station_id":"ce4bhgp2rcd13ifvqfe0","pricing_plan_id":"cebpf4jnsgd1na2vs0mg"},{"bike_id":"75930538-3f71-4cda-9ff8-3a9d55cdc250","system_id":"levelo_inurba_marseille","lat":43.30648,"lon":5.40103,"is_reserved":false,"is_disabled":false,"rental_uris":{"android":"levelo://app?vid=75930538-3f71-4cda-9ff8-3a9d55cdc250","ios":"levelo://app?vid=75930538-3f71-4cda-9ff8-3a9d55cdc250"},"vehicle_type_id":"4","last_reported":1774620190,"current_range_meters":5600,"station_id":"ce4bh112rcd13ifvqda0","pricing_plan_id":"cebpf4jnsgd1na2vs0mg"},{"bike_id":"b5114d54-1a10-4d09-9c82-f6aa7d7d3f8c","system_id":"levelo_inurba_marseille","lat":43.22565,"lon":5.41608,"is_reserved":false,"is_disabled":false,"rental_uris":{"android":"levelo://app?vid=b5114d54-1a10-4d09-9c82-f6aa7d7d3f8c","ios":"levelo://app?vid=b5114d54-1a10-4d09-9c82-f6aa7d7d3f8c"},"vehicle_type_id":"4","last_reported":1774620190,"current_range_meters":6000,"station_id":"st_d2o4gvlbi1j2169b742g","pricing_plan_id":"cebpf4jnsgd1na2vs0mg"},{"bike_id":"9c1cdab7-8171-442d-9864-8c0c68039557","system_id":"levelo_inurba_marseille","lat":43.32112,"lon":5.36772,"is_reserved":false,"is_disabled":false,"rental_uris":{"android":"levelo://app?vid=9c1cdab7-8171-442d-9864-8c0c68039557","ios":"levelo://app?vid=9c1cdab7-8171-442d-9864-8c0c68039557"},"vehicle_type_id":"4","last_reported":1774620190,"current_range_meters":6000,"station_id":"ce4bhrh2rcd13ifvqhug","pricing_plan_id":"cebpf4jnsgd1na2vs0mg"},{"bike_id":"3a5873d1-23d6-43d5-ba0d-f0e2c7459829","system_id":"levelo_inurba_marseille","lat":43.29042,"lon":5.35905,"is_reserved":false,"is_disabled":false,"rental_uris":{"android":"levelo://app?vid=3a5873d1-23d6-43d5-ba0d-f0e2c7459829","ios":"levelo://app?vid=3a5873d1-23d6-43d5-ba0d-f0e2c7459829"},"vehicle_type_id":"4","last_reported":1774620190,"current_range_meters":6000,"station_id":"ce4bha92rcd13ifvqeg0","pricing_plan_id":"cebpf4jnsgd1na2vs0mg"},{"bike_id":"bfd7cb66-3073-4920-8151-129c410ea860","system_id":"levelo_inurba_marseille","lat":43.33527,"lon":5.37491,"is_reserved":false,"is_disabled":false,"rental_uris":{"android":"levelo://app?vid=bfd7cb66-3073-4920-8151-129c410ea860","ios":"levelo://app?vid=bfd7cb66-3073-4920-8151-129c410ea860"},"vehicle_type_id":"4","last_reported":1774620190,"current_range_meters":6000,"station_id":"st_d46tts09ee8s73dlu43g","pricing_plan_id":"cebpf4jnsgd1na2vs0mg"},{"bike_id":"01336c29-76f7-452a-a669-aca7c1c80632","system_id":"levelo_inurba_marseille","lat":43.28606,"lon":5.37072,"is_reserved":false,"is_disabled":false,"rental_uris":{"android":"levelo://app?vid=01336c29-76f7-452a-a669-aca7c1c80632","ios":"levelo://app?vid=01336c29-76f7-452a-a669-aca7c1c80632"},"vehicle_type_id":"4","last_reported":1774620190,"current_range_meters":6000,"station_id":"ce4bht12rcd13ifvqi60","pricing_plan_id":"cebpf4jnsgd1na2vs0mg"},{"bike_id":"23790860-1c28-44d6-bad4-2b507bc01f6e","system_id":"levelo_inurba_marseille","lat":43.2958,"lon":5.36729,"is_reserved":false,"is_disabled":false,"rental_uris":{"android":"levelo://app?vid=23790860-1c28-44d6-bad4-2b507bc01f6e","ios":"levelo://app?vid=23790860-1c28-44d6-bad4-2b507bc01f6e"},"vehicle_type_id":"4","last_reported":1774620190,"current_range_meters":6000,"station_id":"ce4bgph2rcd13ifvqc2g","pricing_plan_id":"cebpf4jnsgd1na2vs0mg"},{"bike_id":"d98423cf-94ce-4749-89f6-e8a1ee474779","system_id":"levelo_inurba_marseille","lat":43.28444,"lon":5.34966,"is_reserved":false,"is_disabled":false,"rental_uris":{"android":"levelo://app?vid=d98423cf-94ce-4749-89f6-e8a1ee474779","ios":"levelo://app?vid=d98423cf-94ce-4749-89f6-e8a1ee474779"},"vehicle_type_id":"4","last_reported":1774620190,"current_range_meters":6000,"station_id":"ce4bhbh2rcd13ifvqepg","pricing_plan_id":"cebpf4jnsgd1na2vs0mg"},{"bike_id":"00069d30-891e-4d0d-88dd-657842141fd0","system_id":"levelo_inurba_marseille","lat":43.26587,"lon":5.39,"is_reserved":false,"is_disabled":false,"rental_uris":{"android":"levelo://app?vid=00069d30-891e-4d0d-88dd-657842141fd0","ios":"levelo://app?vid=00069d30-891e-4d0d-88dd-657842141fd0"},"vehicle_type_id":"4","last_reported":1774620190,"current_range_meters":6000,"station_id":"ce4bhe12rcd13ifvqf30","pricing_plan_id":"cebpf4jnsgd1na2vs0mg"},{"bike_id":"a8f06237-a81d-423b-b1e0-bc4de728be68","system_id":"levelo_inurba_marseille","lat":43.24673,"lon":5.38144,"is_reserved":false,"is_disabled":false,"rental_uris":{"android":"levelo://app?vid=a8f06237-a81d-423b-b1e0-bc4de728be68","ios":"levelo://app?vid=a8f06237-a81d-423b-b1e0-bc4de728be68"},"vehicle_type_id":"4","last_reported":1774620190,"current_range_meters":6000,"station_id":"ce4bhih2rcd13ifvqfr0","pricing_plan_id":"cebpf4jnsgd1na2vs0mg"},{"bike_id":"10fe5563-f532-4492-919a-4905f9dfe4ff","system_id":"levelo_inurba_marseille","lat":43.28474,"lon":5.48386,"is_reserved":false,"is_disabled":false,"rental_uris":{"android":"levelo://app?vid=10fe5563-f532-4492-919a-4905f9dfe4ff","ios":"levelo://app?vid=10fe5563-f532-4492-919a-4905f9dfe4ff"},"vehicle_type_id":"4","last_reported":1774620190,"current_range_meters":6000,"station_id":"","pricing_plan_id":"cebpf4jnsgd1na2vs0mg"},{"bike_id":"c87bdda4-3bb0-4147-b8ab-d7ef57652d3c","system_id":"levelo_inurba_marseille","lat":43.30555,"lon":5.36498,"is_reserved":false,"is_disabled":false,"rental_uris":{"android":"levelo://app?vid=c87bdda4-3bb0-4147-b8ab-d7ef57652d3c","ios":"levelo://app?vid=c87bdda4-3bb0-4147-b8ab-d7ef57652d3c"},"vehicle_type_id":"4","last_reported":1774620190,"current_range_meters":6400,"station_id":"","pricing_plan_id":"cebpf4jnsgd1na2vs0mg"},{"bike_id":"15d0db8f-dc3f-4fdd-ada3-2e61321529b8","system_id":"levelo_inurba_marseille","lat":43.28612,"lon":5.35121,"is_reserved":false,"is_disabled":false,"rental_uris":{"android":"levelo://app?vid=15d0db8f-dc3f-4fdd-ada3-2e61321529b8","ios":"levelo://app?vid=15d0db8f-dc3f-4fdd-ada3-2e61321529b8"},"vehicle_type_id":"4","last_reported":1774620190,"current_range_meters":6400,"station_id":"ce4bhch2rcd13ifvqeug","pricing_plan_id":"cebpf4jnsgd1na2vs0mg"},{"bike_id":"4a6ad84e-6e22-459e-abd6-075453ffbbfd","system_id":"levelo_inurba_marseille","lat":43.30521,"lon":5.36526,"is_reserved":false,"is_disabled":false,"rental_uris":{"android":"levelo://app?vid=4a6ad84e-6e22-459e-abd6-075453ffbbfd","ios":"levelo://app?vid=4a6ad84e-6e22-459e-abd6-075453ffbbfd"},"vehicle_type_id":"4","last_reported":1774620190,"current_range_meters":6400,"station_id":"","pricing_plan_id":"cebpf4jnsgd1na2vs0mg"},{"bike_id":"0e3d4c2e-9c7b-478f-9fac-739f9f7dbdf6","system_id":"levelo_inurba_marseille","lat":43.31379,"lon":5.36741,"is_reserved":false,"is_disabled":false,"rental_uris":{"android":"levelo://app?vid=0e3d4c2e-9c7b-478f-9fac-739f9f7dbdf6","ios":"levelo://app?vid=0e3d4c2e-9c7b-478f-9fac-739f9f7dbdf6"},"vehicle_type_id":"4","last_reported":1774620190,"current_range_meters":6400,"station_id":"ce4bgr92rcd13ifvqc6g","pricing_plan_id":"cebpf4jnsgd1na2vs0mg"},{"bike_id":"ee5766f8-ffad-4847-b6aa-a4f3b10d40a9","system_id":"levelo_inurba_marseille","lat":43.28539,"lon":5.441,"is_reserved":false,"is_disabled":false,"rental_uris":{"android":"levelo://app?vid=ee5766f8-ffad-4847-b6aa-a4f3b10d40a9","ios":"levelo://app?vid=ee5766f8-ffad-4847-b6aa-a4f3b10d40a9"},"vehicle_type_id":"4","last_reported":1774620190,"current_range_meters":6400,"station_id":"st_d3j3df2ikq2c7380ej80","pricing_plan_id":"cebpf4jnsgd1na2vs0mg"},{"bike_id":"0a77b6e1-05db-46f0-a0db-225ba15242da","system_id":"levelo_inurba_marseille","lat":43.24653,"lon":5.38142,"is_reserved":false,"is_disabled":false,"rental_uris":{"android":"levelo://app?vid=0a77b6e1-05db-46f0-a0db-225ba15242da","ios":"levelo://app?vid=0a77b6e1-05db-46f0-a0db-225ba15242da"},"vehicle_type_id":"4","last_reported":1774620190,"current_range_meters":6400,"station_id":"ce4bhih2rcd13ifvqfr0","pricing_plan_id":"cebpf4jnsgd1na2vs0mg"},{"bike_id":"e32451f7-fc38-4c0a-8bf5-9f4be23d5540","system_id":"levelo_inurba_marseille","lat":43.3317,"lon":5.37698,"is_reserved":false,"is_disabled":false,"rental_uris":{"android":"levelo://app?vid=e32451f7-fc38-4c0a-8bf5-9f4be23d5540","ios":"levelo://app?vid=e32451f7-fc38-4c0a-8bf5-9f4be23d5540"},"vehicle_type_id":"4","last_reported":1774620190,"current_range_meters":6400,"station_id":"st_d46cu089ee8s73dldbu0","pricing_plan_id":"cebpf4jnsgd1na2vs0mg"},{"bike_id":"27c547a4-33e7-4ac4-b96a-1b0bee3eb424","system_id":"levelo_inurba_marseille","lat":43.26927,"lon":5.3892,"is_reserved":false,"is_disabled":false,"rental_uris":{"android":"levelo://app?vid=27c547a4-33e7-4ac4-b96a-1b0bee3eb424","ios":"levelo://app?vid=27c547a4-33e7-4ac4-b96a-1b0bee3eb424"},"vehicle_type_id":"4","last_reported":1774620190,"current_range_meters":6800,"station_id":"ce4bhhh2rcd13ifvqfl0","pricing_plan_id":"cebpf4jnsgd1na2vs0mg"},{"bike_id":"23073227-3a78-43b2-9a20-abb8d01d4e7c","system_id":"levelo_inurba_marseille","lat":43.2558,"lon":5.38231,"is_reserved":false,"is_disabled":false,"rental_uris":{"android":"levelo://app?vid=23073227-3a78-43b2-9a20-abb8d01d4e7c","ios":"levelo://app?vid=23073227-3a78-43b2-9a20-abb8d01d4e7c"},"vehicle_type_id":"4","last_reported":1774620190,"current_range_meters":6800,"station_id":"ce4bhih2rcd13ifvqfs0","pricing_plan_id":"cebpf4jnsgd1na2vs0mg"},{"bike_id":"a58c589f-75d5-4926-9f44-7a679918028c","system_id":"levelo_inurba_marseille","lat":43.28931,"lon":5.36619,"is_reserved":false,"is_disabled":false,"rental_uris":{"android":"levelo://app?vid=a58c589f-75d5-4926-9f44-7a679918028c","ios":"levelo://app?vid=a58c589f-75d5-4926-9f44-7a679918028c"},"vehicle_type_id":"4","last_reported":1774620190,"current_range_meters":6800,"station_id":"ce4bhap2rcd13ifvqek0","pricing_plan_id":"cebpf4jnsgd1na2vs0mg"},{"bike_id":"91bd31f2-be9b-436a-b78a-8cf5541031ec","system_id":"levelo_inurba_marseille","lat":43.33758,"lon":5.3748,"is_reserved":false,"is_disabled":false,"rental_uris":{"android":"levelo://app?vid=91bd31f2-be9b-436a-b78a-8cf5541031ec","ios":"levelo://app?vid=91bd31f2-be9b-436a-b78a-8cf5541031ec"},"vehicle_type_id":"4","last_reported":1774620190,"current_range_meters":6800,"station_id":"","pricing_plan_id":"cebpf4jnsgd1na2vs0mg"},{"bike_id":"2457fc1b-679d-4a71-90e9-ad408ab6ed9d","system_id":"levelo_inurba_marseille","lat":43.32556,"lon":5.38336,"is_reserved":false,"is_disabled":false,"rental_uris":{"android":"levelo://app?vid=2457fc1b-679d-4a71-90e9-ad408ab6ed9d","ios":"levelo://app?vid=2457fc1b-679d-4a71-90e9-ad408ab6ed9d"},"vehicle_type_id":"4","last_reported":1774620190,"current_range_meters":6800,"station_id":"","pricing_plan_id":"cebpf4jnsgd1na2vs0mg"},{"bike_id":"529427bc-37ad-490a-8d78-6796c0cbf3a7","system_id":"levelo_inurba_marseille","lat":43.29408,"lon":5.37598,"is_reserved":false,"is_disabled":false,"rental_uris":{"android":"levelo://app?vid=529427bc-37ad-490a-8d78-6796c0cbf3a7","ios":"levelo://app?vid=529427bc-37ad-490a-8d78-6796c0cbf3a7"},"vehicle_type_id":"4","last_reported":1774620190,"current_range_meters":6800,"station_id":"","pricing_plan_id":"cebpf4jnsgd1na2vs0mg"},{"bike_id":"2555a893-6a3e-4c23-8e6c-9c60bcd40259","system_id":"levelo_inurba_marseille","lat":43.29859,"lon":5.36259,"is_reserved":false,"is_disabled":false,"rental_uris":{"android":"levelo://app?vid=2555a893-6a3e-4c23-8e6c-9c60bcd40259","ios":"levelo://app?vid=2555a893-6a3e-4c23-8e6c-9c60bcd40259"},"vehicle_type_id":"4","last_reported":1774620190,"current_range_meters":6800,"station_id":"ce4bgpp2rcd13ifvqc3g","pricing_plan_id":"cebpf4jnsgd1na2vs0mg"},{"bike_id":"78a5717b-9330-4082-ae1a-651da7cee451","system_id":"levelo_inurba_marseille","lat":43.26557,"lon":5.37291,"is_reserved":false,"is_disabled":false,"rental_uris":{"android":"levelo://app?vid=78a5717b-9330-4082-ae1a-651da7cee451","ios":"levelo://app?vid=78a5717b-9330-4082-ae1a-651da7cee451"},"vehicle_type_id":"4","last_reported":1774620190,"current_range_meters":6800,"station_id":"ce4bhg12rcd13ifvqf70","pricing_plan_id":"cebpf4jnsgd1na2vs0mg"},{"bike_id":"0e158215-1434-44e6-b740-9d456d67dba0","system_id":"levelo_inurba_marseille","lat":43.23156,"lon":5.43688,"is_reserved":false,"is_disabled":false,"rental_uris":{"android":"levelo://app?vid=0e158215-1434-44e6-b740-9d456d67dba0","ios":"levelo://app?vid=0e158215-1434-44e6-b740-9d456d67dba0"},"vehicle_type_id":"4","last_reported":1774620190,"current_range_meters":6800,"station_id":"ce4bhmp2rcd13ifvqgog","pricing_plan_id":"cebpf4jnsgd1na2vs0mg"},{"bike_id":"20ba71e0-3d55-4d07-b402-43fab81f2269","system_id":"levelo_inurba_marseille","lat":43.30747,"lon":5.36801,"is_reserved":false,"is_disabled":false,"rental_uris":{"android":"levelo://app?vid=20ba71e0-3d55-4d07-b402-43fab81f2269","ios":"levelo://app?vid=20ba71e0-3d55-4d07-b402-43fab81f2269"},"vehicle_type_id":"4","last_reported":1774620190,"current_range_meters":6800,"station_id":"ce4bgn92rcd13ifvqbvg","pricing_plan_id":"cebpf4jnsgd1na2vs0mg"},{"bike_id":"5d4074f7-be9f-44d7-b283-987566d29577","system_id":"levelo_inurba_marseille","lat":43.29958,"lon":5.38129,"is_reserved":false,"is_disabled":false,"rental_uris":{"android":"levelo://app?vid=5d4074f7-be9f-44d7-b283-987566d29577","ios":"levelo://app?vid=5d4074f7-be9f-44d7-b283-987566d29577"},"vehicle_type_id":"4","last_reported":1774620190,"current_range_meters":6800,"station_id":"","pricing_plan_id":"cebpf4jnsgd1na2vs0mg"},{"bike_id":"333fe935-19af-4407-ad08-edd005dd3c80","system_id":"levelo_inurba_marseille","lat":43.3014,"lon":5.37411,"is_reserved":false,"is_disabled":false,"rental_uris":{"android":"levelo://app?vid=333fe935-19af-4407-ad08-edd005dd3c80","ios":"levelo://app?vid=333fe935-19af-4407-ad08-edd005dd3c80"},"vehicle_type_id":"4","last_reported":1774620190,"current_range_meters":6800,"station_id":"ce4bgs92rcd13ifvqcc0","pricing_plan_id":"cebpf4jnsgd1na2vs0mg"},{"bike_id":"b492596c-1f93-4731-9219-481c3eebf72b","system_id":"levelo_inurba_marseille","lat":43.26375,"lon":5.4112,"is_reserved":false,"is_disabled":false,"rental_uris":{"android":"levelo://app?vid=b492596c-1f93-4731-9219-481c3eebf72b","ios":"levelo://app?vid=b492596c-1f93-4731-9219-481c3eebf72b"},"vehicle_type_id":"4","last_reported":1774620190,"current_range_meters":6800,"station_id":"st_d4e5ca6na9uc73bfl5fg","pricing_plan_id":"cebpf4jnsgd1na2vs0mg"},{"bike_id":"b38373c4-334e-43c0-8346-e67621fa9685","system_id":"levelo_inurba_marseille","lat":43.21184,"lon":5.35064,"is_reserved":false,"is_disabled":false,"rental_uris":{"android":"levelo://app?vid=b38373c4-334e-43c0-8346-e67621fa9685","ios":"levelo://app?vid=b38373c4-334e-43c0-8346-e67621fa9685"},"vehicle_type_id":"4","last_reported":1774620190,"current_range_meters":6800,"station_id":"st_cvj6sg6p6f1abm77japg","pricing_plan_id":"cebpf4jnsgd1na2vs0mg"},{"bike_id":"ed9b8903-fd7a-4bcd-a2f1-b692211d5c75","system_id":"levelo_inurba_marseille","lat":43.2981,"lon":5.44073,"is_reserved":false,"is_disabled":false,"rental_uris":{"android":"levelo://app?vid=ed9b8903-fd7a-4bcd-a2f1-b692211d5c75","ios":"levelo://app?vid=ed9b8903-fd7a-4bcd-a2f1-b692211d5c75"},"vehicle_type_id":"4","last_reported":1774620190,"current_range_meters":6800,"station_id":"st_d3jp68qikq2c7381ktn0","pricing_plan_id":"cebpf4jnsgd1na2vs0mg"},{"bike_id":"4c956698-aaa5-41a6-bd7f-2ab41ce6a460","system_id":"levelo_inurba_marseille","lat":43.29264,"lon":5.38436,"is_reserved":false,"is_disabled":false,"rental_uris":{"android":"levelo://app?vid=4c956698-aaa5-41a6-bd7f-2ab41ce6a460","ios":"levelo://app?vid=4c956698-aaa5-41a6-bd7f-2ab41ce6a460"},"vehicle_type_id":"4","last_reported":1774620190,"current_range_meters":6800,"station_id":"ce4bh692rcd13ifvqea0","pricing_plan_id":"cebpf4jnsgd1na2vs0mg"},{"bike_id":"d325a992-e65b-487b-8982-1b55861b080f","system_id":"levelo_inurba_marseille","lat":43.337444,"lon":5.374475,"is_reserved":false,"is_disabled":false,"rental_uris":{"android":"levelo://app?vid=d325a992-e65b-487b-8982-1b55861b080f","ios":"levelo://app?vid=d325a992-e65b-487b-8982-1b55861b080f"},"vehicle_type_id":"4","last_reported":1774620190,"current_range_meters":6800,"station_id":"","pricing_plan_id":"cebpf4jnsgd1na2vs0mg"},{"bike_id":"a2dc3a3f-4e0d-496d-b246-5d2073e3cd10","system_id":"levelo_inurba_marseille","lat":43.23787,"lon":5.36619,"is_reserved":false,"is_disabled":false,"rental_uris":{"android":"levelo://app?vid=a2dc3a3f-4e0d-496d-b246-5d2073e3cd10","ios":"levelo://app?vid=a2dc3a3f-4e0d-496d-b246-5d2073e3cd10"},"vehicle_type_id":"4","last_reported":1774620190,"current_range_meters":7200,"station_id":"st_d3nk18o9ro0c73en2l3g","pricing_plan_id":"cebpf4jnsgd1na2vs0mg"},{"bike_id":"553f6162-9bab-43c3-b5f1-09ad8ba5c227","system_id":"levelo_inurba_marseille","lat":43.26149,"lon":5.39387,"is_reserved":false,"is_disabled":false,"rental_uris":{"android":"levelo://app?vid=553f6162-9bab-43c3-b5f1-09ad8ba5c227","ios":"levelo://app?vid=553f6162-9bab-43c3-b5f1-09ad8ba5c227"},"vehicle_type_id":"4","last_reported":1774620190,"current_range_meters":7200,"station_id":"","pricing_plan_id":"cebpf4jnsgd1na2vs0mg"},{"bike_id":"b6e8f2fa-fae4-4140-af91-d0651531ab91","system_id":"levelo_inurba_marseille","lat":43.22571,"lon":5.41617,"is_reserved":false,"is_disabled":false,"rental_uris":{"android":"levelo://app?vid=b6e8f2fa-fae4-4140-af91-d0651531ab91","ios":"levelo://app?vid=b6e8f2fa-fae4-4140-af91-d0651531ab91"},"vehicle_type_id":"4","last_reported":1774620190,"current_range_meters":7200,"station_id":"st_d2o4gvlbi1j2169b742g","pricing_plan_id":"cebpf4jnsgd1na2vs0mg"},{"bike_id":"c1a36864-578d-471c-86cd-9ea1b477777e","system_id":"levelo_inurba_marseille","lat":43.29859,"lon":5.381,"is_reserved":false,"is_disabled":false,"rental_uris":{"android":"levelo://app?vid=c1a36864-578d-471c-86cd-9ea1b477777e","ios":"levelo://app?vid=c1a36864-578d-471c-86cd-9ea1b477777e"},"vehicle_type_id":"4","last_reported":1774620190,"current_range_meters":7200,"station_id":"","pricing_plan_id":"cebpf4jnsgd1na2vs0mg"},{"bike_id":"ac130e88-9e2f-4bea-b0d7-97afed67ab83","system_id":"levelo_inurba_marseille","lat":43.32361,"lon":5.36715,"is_reserved":false,"is_disabled":false,"rental_uris":{"android":"levelo://app?vid=ac130e88-9e2f-4bea-b0d7-97afed67ab83","ios":"levelo://app?vid=ac130e88-9e2f-4bea-b0d7-97afed67ab83"},"vehicle_type_id":"4","last_reported":1774620190,"current_range_meters":7200,"station_id":"ce4bhsh2rcd13ifvqi2g","pricing_plan_id":"cebpf4jnsgd1na2vs0mg"},{"bike_id":"d4c807a0-5c59-4d90-96e9-d2b1d7e9948c","system_id":"levelo_inurba_marseille","lat":43.28079,"lon":5.3965,"is_reserved":false,"is_disabled":false,"rental_uris":{"android":"levelo://app?vid=d4c807a0-5c59-4d90-96e9-d2b1d7e9948c","ios":"levelo://app?vid=d4c807a0-5c59-4d90-96e9-d2b1d7e9948c"},"vehicle_type_id":"4","last_reported":1774620190,"current_range_meters":7200,"station_id":"ce4bho12rcd13ifvqh2g","pricing_plan_id":"cebpf4jnsgd1na2vs0mg"},{"bike_id":"ae758492-79f2-476f-b0b6-5b6613e02dd5","system_id":"levelo_inurba_marseille","lat":43.21216,"lon":5.3504,"is_reserved":false,"is_disabled":false,"rental_uris":{"android":"levelo://app?vid=ae758492-79f2-476f-b0b6-5b6613e02dd5","ios":"levelo://app?vid=ae758492-79f2-476f-b0b6-5b6613e02dd5"},"vehicle_type_id":"4","last_reported":1774620190,"current_range_meters":7200,"station_id":"","pricing_plan_id":"cebpf4jnsgd1na2vs0mg"},{"bike_id":"c24bc431-ded0-4618-b64c-e21b5bde7f3d","system_id":"levelo_inurba_marseille","lat":43.30943,"lon":5.3911,"is_reserved":false,"is_disabled":false,"rental_uris":{"android":"levelo://app?vid=c24bc431-ded0-4618-b64c-e21b5bde7f3d","ios":"levelo://app?vid=c24bc431-ded0-4618-b64c-e21b5bde7f3d"},"vehicle_type_id":"4","last_reported":1774620190,"current_range_meters":7200,"station_id":"","pricing_plan_id":"cebpf4jnsgd1na2vs0mg"},{"bike_id":"491f2694-6ed1-4268-a23d-fc08c617dff1","system_id":"levelo_inurba_marseille","lat":43.23788,"lon":5.36617,"is_reserved":false,"is_disabled":false,"rental_uris":{"android":"levelo://app?vid=491f2694-6ed1-4268-a23d-fc08c617dff1","ios":"levelo://app?vid=491f2694-6ed1-4268-a23d-fc08c617dff1"},"vehicle_type_id":"4","last_reported":1774620190,"current_range_meters":7200,"station_id":"st_d3nk18o9ro0c73en2l3g","pricing_plan_id":"cebpf4jnsgd1na2vs0mg"},{"bike_id":"41215aec-5f35-41c4-8875-01313ebb4475","system_id":"levelo_inurba_marseille","lat":43.28884,"lon":5.43769,"is_reserved":false,"is_disabled":false,"rental_uris":{"android":"levelo://app?vid=41215aec-5f35-41c4-8875-01313ebb4475","ios":"levelo://app?vid=41215aec-5f35-41c4-8875-01313ebb4475"},"vehicle_type_id":"4","last_reported":1774620190,"current_range_meters":7200,"station_id":"","pricing_plan_id":"cebpf4jnsgd1na2vs0mg"},{"bike_id":"33c4c740-db80-485d-9c0e-f3083e547def","system_id":"levelo_inurba_marseille","lat":43.22566,"lon":5.41632,"is_reserved":false,"is_disabled":false,"rental_uris":{"android":"levelo://app?vid=33c4c740-db80-485d-9c0e-f3083e547def","ios":"levelo://app?vid=33c4c740-db80-485d-9c0e-f3083e547def"},"vehicle_type_id":"4","last_reported":1774620190,"current_range_meters":7200,"station_id":"st_d2o4gvlbi1j2169b742g","pricing_plan_id":"cebpf4jnsgd1na2vs0mg"},{"bike_id":"3ce66bd8-d863-49c9-ab9a-31f303881080","system_id":"levelo_inurba_marseille","lat":43.238,"lon":5.36624,"is_reserved":false,"is_disabled":false,"rental_uris":{"android":"levelo://app?vid=3ce66bd8-d863-49c9-ab9a-31f303881080","ios":"levelo://app?vid=3ce66bd8-d863-49c9-ab9a-31f303881080"},"vehicle_type_id":"4","last_reported":1774620190,"current_range_meters":7200,"station_id":"st_d3nk18o9ro0c73en2l3g","pricing_plan_id":"cebpf4jnsgd1na2vs0mg"},{"bike_id":"a5189253-f89e-4200-92f4-f7e09eb72645","system_id":"levelo_inurba_marseille","lat":43.26688,"lon":5.38261,"is_reserved":false,"is_disabled":false,"rental_uris":{"android":"levelo://app?vid=a5189253-f89e-4200-92f4-f7e09eb72645","ios":"levelo://app?vid=a5189253-f89e-4200-92f4-f7e09eb72645"},"vehicle_type_id":"4","last_reported":1774620190,"current_range_meters":7200,"station_id":"ce4bhg92rcd13ifvqf90","pricing_plan_id":"cebpf4jnsgd1na2vs0mg"},{"bike_id":"1fba693a-26f4-4d23-90c0-11493336c88a","system_id":"levelo_inurba_marseille","lat":43.29179,"lon":5.35811,"is_reserved":false,"is_disabled":false,"rental_uris":{"android":"levelo://app?vid=1fba693a-26f4-4d23-90c0-11493336c88a","ios":"levelo://app?vid=1fba693a-26f4-4d23-90c0-11493336c88a"},"vehicle_type_id":"4","last_reported":1774620190,"current_range_meters":7200,"station_id":"ce4bhb12rcd13ifvqel0","pricing_plan_id":"cebpf4jnsgd1na2vs0mg"},{"bike_id":"5ff0b8e0-c6fc-4471-b906-1fb573f75580","system_id":"levelo_inurba_marseille","lat":43.26783,"lon":5.39409,"is_reserved":false,"is_disabled":false,"rental_uris":{"android":"levelo://app?vid=5ff0b8e0-c6fc-4471-b906-1fb573f75580","ios":"levelo://app?vid=5ff0b8e0-c6fc-4471-b906-1fb573f75580"},"vehicle_type_id":"4","last_reported":1774620190,"current_range_meters":7200,"station_id":"ce4bhh12rcd13ifvqfg0","pricing_plan_id":"cebpf4jnsgd1na2vs0mg"},{"bike_id":"dda26fe6-226c-4701-bb77-0b26c40ac4a2","system_id":"levelo_inurba_marseille","lat":43.2827,"lon":5.35058,"is_reserved":false,"is_disabled":false,"rental_uris":{"android":"levelo://app?vid=dda26fe6-226c-4701-bb77-0b26c40ac4a2","ios":"levelo://app?vid=dda26fe6-226c-4701-bb77-0b26c40ac4a2"},"vehicle_type_id":"4","last_reported":1774620190,"current_range_meters":7200,"station_id":"ce4bhbp2rcd13ifvqerg","pricing_plan_id":"cebpf4jnsgd1na2vs0mg"},{"bike_id":"e018b729-7037-4e23-bcae-84b3b04f8d4e","system_id":"levelo_inurba_marseille","lat":43.28704,"lon":5.39984,"is_reserved":false,"is_disabled":false,"rental_uris":{"android":"levelo://app?vid=e018b729-7037-4e23-bcae-84b3b04f8d4e","ios":"levelo://app?vid=e018b729-7037-4e23-bcae-84b3b04f8d4e"},"vehicle_type_id":"4","last_reported":1774620190,"current_range_meters":7200,"station_id":"ce4bho92rcd13ifvqh3g","pricing_plan_id":"cebpf4jnsgd1na2vs0mg"},{"bike_id":"76c2c9eb-e102-4bd2-8228-7fcdfd34ccbe","system_id":"levelo_inurba_marseille","lat":43.2466,"lon":5.38164,"is_reserved":false,"is_disabled":false,"rental_uris":{"android":"levelo://app?vid=76c2c9eb-e102-4bd2-8228-7fcdfd34ccbe","ios":"levelo://app?vid=76c2c9eb-e102-4bd2-8228-7fcdfd34ccbe"},"vehicle_type_id":"4","last_reported":1774620190,"current_range_meters":7200,"station_id":"ce4bhih2rcd13ifvqfr0","pricing_plan_id":"cebpf4jnsgd1na2vs0mg"},{"bike_id":"80db360c-7472-4e5e-a72d-ff0ab9900c5d","system_id":"levelo_inurba_marseille","lat":43.29201,"lon":5.42611,"is_reserved":false,"is_disabled":false,"rental_uris":{"android":"levelo://app?vid=80db360c-7472-4e5e-a72d-ff0ab9900c5d","ios":"levelo://app?vid=80db360c-7472-4e5e-a72d-ff0ab9900c5d"},"vehicle_type_id":"4","last_reported":1774620190,"current_range_meters":7200,"station_id":"","pricing_plan_id":"cebpf4jnsgd1na2vs0mg"},{"bike_id":"4397ae44-635b-43b0-a1ea-4e1a061d0889","system_id":"levelo_inurba_marseille","lat":43.24175,"lon":5.36373,"is_reserved":false,"is_disabled":false,"rental_uris":{"android":"levelo://app?vid=4397ae44-635b-43b0-a1ea-4e1a061d0889","ios":"levelo://app?vid=4397ae44-635b-43b0-a1ea-4e1a061d0889"},"vehicle_type_id":"4","last_reported":1774620190,"current_range_meters":7200,"station_id":"cpo36qri1sfpv3e86is0","pricing_plan_id":"cebpf4jnsgd1na2vs0mg"},{"bike_id":"e7c950ae-a2fe-4611-a272-b0283c363a43","system_id":"levelo_inurba_marseille","lat":43.23145,"lon":5.43721,"is_reserved":false,"is_disabled":false,"rental_uris":{"android":"levelo://app?vid=e7c950ae-a2fe-4611-a272-b0283c363a43","ios":"levelo://app?vid=e7c950ae-a2fe-4611-a272-b0283c363a43"},"vehicle_type_id":"4","last_reported":1774620190,"current_range_meters":7200,"station_id":"ce4bhmp2rcd13ifvqgog","pricing_plan_id":"cebpf4jnsgd1na2vs0mg"},{"bike_id":"885cc689-57e8-4d95-8cdc-ecb3e6fa8c21","system_id":"levelo_inurba_marseille","lat":43.26357,"lon":5.41102,"is_reserved":false,"is_disabled":false,"rental_uris":{"android":"levelo://app?vid=885cc689-57e8-4d95-8cdc-ecb3e6fa8c21","ios":"levelo://app?vid=885cc689-57e8-4d95-8cdc-ecb3e6fa8c21"},"vehicle_type_id":"4","last_reported":1774620190,"current_range_meters":7200,"station_id":"st_d4e5ca6na9uc73bfl5fg","pricing_plan_id":"cebpf4jnsgd1na2vs0mg"},{"bike_id":"8de4bfda-546d-437e-9d82-edb61be1a049","system_id":"levelo_inurba_marseille","lat":43.24998,"lon":5.38918,"is_reserved":false,"is_disabled":false,"rental_uris":{"android":"levelo://app?vid=8de4bfda-546d-437e-9d82-edb61be1a049","ios":"levelo://app?vid=8de4bfda-546d-437e-9d82-edb61be1a049"},"vehicle_type_id":"4","last_reported":1774620190,"current_range_meters":7200,"station_id":"ce4bhgp2rcd13ifvqfd0","pricing_plan_id":"cebpf4jnsgd1na2vs0mg"},{"bike_id":"361bff30-6f65-4179-8930-4ff3d21333ec","system_id":"levelo_inurba_marseille","lat":43.27174,"lon":5.4098,"is_reserved":false,"is_disabled":false,"rental_uris":{"android":"levelo://app?vid=361bff30-6f65-4179-8930-4ff3d21333ec","ios":"levelo://app?vid=361bff30-6f65-4179-8930-4ff3d21333ec"},"vehicle_type_id":"4","last_reported":1774620190,"current_range_meters":8000,"station_id":"ce4bhl12rcd13ifvqgf0","pricing_plan_id":"cebpf4jnsgd1na2vs0mg"},{"bike_id":"5fba5aa1-320c-4906-a327-855aa06cc391","system_id":"levelo_inurba_marseille","lat":43.28853,"lon":5.39304,"is_reserved":false,"is_disabled":false,"rental_uris":{"android":"levelo://app?vid=5fba5aa1-320c-4906-a327-855aa06cc391","ios":"levelo://app?vid=5fba5aa1-320c-4906-a327-855aa06cc391"},"vehicle_type_id":"4","last_reported":1774620190,"current_range_meters":8000,"station_id":"ce4bh2p2rcd13ifvqdi0","pricing_plan_id":"cebpf4jnsgd1na2vs0mg"},{"bike_id":"2f7aa021-dd6c-4472-8e55-302d266a9599","system_id":"levelo_inurba_marseille","lat":43.26052,"lon":5.39402,"is_reserved":false,"is_disabled":false,"rental_uris":{"android":"levelo://app?vid=2f7aa021-dd6c-4472-8e55-302d266a9599","ios":"levelo://app?vid=2f7aa021-dd6c-4472-8e55-302d266a9599"},"vehicle_type_id":"4","last_reported":1774620190,"current_range_meters":8000,"station_id":"ce4bhh92rcd13ifvqfj0","pricing_plan_id":"cebpf4jnsgd1na2vs0mg"},{"bike_id":"cd9d9b00-0f0e-4b81-98a5-32faab1cebb6","system_id":"levelo_inurba_marseille","lat":43.28421,"lon":5.34996,"is_reserved":false,"is_disabled":false,"rental_uris":{"android":"levelo://app?vid=cd9d9b00-0f0e-4b81-98a5-32faab1cebb6","ios":"levelo://app?vid=cd9d9b00-0f0e-4b81-98a5-32faab1cebb6"},"vehicle_type_id":"4","last_reported":1774620190,"current_range_meters":8000,"station_id":"ce4bhbh2rcd13ifvqepg","pricing_plan_id":"cebpf4jnsgd1na2vs0mg"},{"bike_id":"23c3e25c-45db-4e4f-b71e-e61afefc210a","system_id":"levelo_inurba_marseille","lat":43.27498,"lon":5.41577,"is_reserved":false,"is_disabled":true,"rental_uris":{"android":"levelo://app?vid=23c3e25c-45db-4e4f-b71e-e61afefc210a","ios":"levelo://app?vid=23c3e25c-45db-4e4f-b71e-e61afefc210a"},"vehicle_type_id":"4","last_reported":1774620190,"current_range_meters":8000,"station_id":"st_d6im8g6chgec73a5pndg","pricing_plan_id":"cebpf4jnsgd1na2vs0mg"},{"bike_id":"50359526-dc4c-4d69-98f6-0e796da4761c","system_id":"levelo_inurba_marseille","lat":43.23892,"lon":5.37446,"is_reserved":false,"is_disabled":false,"rental_uris":{"android":"levelo://app?vid=50359526-dc4c-4d69-98f6-0e796da4761c","ios":"levelo://app?vid=50359526-dc4c-4d69-98f6-0e796da4761c"},"vehicle_type_id":"4","last_reported":1774620190,"current_range_meters":8000,"station_id":"st_d6sm7csbq4hs73f8fpjg","pricing_plan_id":"cebpf4jnsgd1na2vs0mg"},{"bike_id":"a34e231e-467e-4ba8-b788-1b72eb50f8c2","system_id":"levelo_inurba_marseille","lat":43.28731,"lon":5.37952,"is_reserved":false,"is_disabled":false,"rental_uris":{"android":"levelo://app?vid=a34e231e-467e-4ba8-b788-1b72eb50f8c2","ios":"levelo://app?vid=a34e231e-467e-4ba8-b788-1b72eb50f8c2"},"vehicle_type_id":"4","last_reported":1774620190,"current_range_meters":8000,"station_id":"ce4bh9p2rcd13ifvqec0","pricing_plan_id":"cebpf4jnsgd1na2vs0mg"},{"bike_id":"29b8f791-7789-4e9b-8e39-c750aefccf04","system_id":"levelo_inurba_marseille","lat":43.2379,"lon":5.36628,"is_reserved":false,"is_disabled":false,"rental_uris":{"android":"levelo://app?vid=29b8f791-7789-4e9b-8e39-c750aefccf04","ios":"levelo://app?vid=29b8f791-7789-4e9b-8e39-c750aefccf04"},"vehicle_type_id":"4","last_reported":1774620190,"current_range_meters":8000,"station_id":"st_d3nk18o9ro0c73en2l3g","pricing_plan_id":"cebpf4jnsgd1na2vs0mg"},{"bike_id":"e9402b1d-86a2-406c-b525-82026936c3d5","system_id":"levelo_inurba_marseille","lat":43.29195,"lon":5.39315,"is_reserved":false,"is_disabled":false,"rental_uris":{"android":"levelo://app?vid=e9402b1d-86a2-406c-b525-82026936c3d5","ios":"levelo://app?vid=e9402b1d-86a2-406c-b525-82026936c3d5"},"vehicle_type_id":"4","last_reported":1774620190,"current_range_meters":8000,"station_id":"ce4bh192rcd13ifvqdd0","pricing_plan_id":"cebpf4jnsgd1na2vs0mg"},{"bike_id":"0bb41f39-21cb-491a-acd7-36d77bd73997","system_id":"levelo_inurba_marseille","lat":43.2466,"lon":5.38142,"is_reserved":false,"is_disabled":false,"rental_uris":{"android":"levelo://app?vid=0bb41f39-21cb-491a-acd7-36d77bd73997","ios":"levelo://app?vid=0bb41f39-21cb-491a-acd7-36d77bd73997"},"vehicle_type_id":"4","last_reported":1774620190,"current_range_meters":8000,"station_id":"ce4bhih2rcd13ifvqfr0","pricing_plan_id":"cebpf4jnsgd1na2vs0mg"},{"bike_id":"c14e1528-02b5-4405-a3ba-8718a5167e5c","system_id":"levelo_inurba_marseille","lat":43.24999,"lon":5.3892,"is_reserved":false,"is_disabled":false,"rental_uris":{"android":"levelo://app?vid=c14e1528-02b5-4405-a3ba-8718a5167e5c","ios":"levelo://app?vid=c14e1528-02b5-4405-a3ba-8718a5167e5c"},"vehicle_type_id":"4","last_reported":1774620190,"current_range_meters":8000,"station_id":"ce4bhgp2rcd13ifvqfd0","pricing_plan_id":"cebpf4jnsgd1na2vs0mg"},{"bike_id":"3958c75b-f26d-45b9-9ba8-f7b4d60729ef","system_id":"levelo_inurba_marseille","lat":43.2668,"lon":5.38262,"is_reserved":false,"is_disabled":false,"rental_uris":{"android":"levelo://app?vid=3958c75b-f26d-45b9-9ba8-f7b4d60729ef","ios":"levelo://app?vid=3958c75b-f26d-45b9-9ba8-f7b4d60729ef"},"vehicle_type_id":"4","last_reported":1774620190,"current_range_meters":8000,"station_id":"ce4bhg92rcd13ifvqf90","pricing_plan_id":"cebpf4jnsgd1na2vs0mg"},{"bike_id":"6671c61a-045c-4d83-b5a9-69cb797098b8","system_id":"levelo_inurba_marseille","lat":43.34393,"lon":5.35962,"is_reserved":false,"is_disabled":false,"rental_uris":{"android":"levelo://app?vid=6671c61a-045c-4d83-b5a9-69cb797098b8","ios":"levelo://app?vid=6671c61a-045c-4d83-b5a9-69cb797098b8"},"vehicle_type_id":"4","last_reported":1774620190,"current_range_meters":8000,"station_id":"","pricing_plan_id":"cebpf4jnsgd1na2vs0mg"},{"bike_id":"18a91529-06e5-4b51-b178-940cb96e7217","system_id":"levelo_inurba_marseille","lat":43.2379,"lon":5.36598,"is_reserved":false,"is_disabled":false,"rental_uris":{"android":"levelo://app?vid=18a91529-06e5-4b51-b178-940cb96e7217","ios":"levelo://app?vid=18a91529-06e5-4b51-b178-940cb96e7217"},"vehicle_type_id":"4","last_reported":1774620190,"current_range_meters":8400,"station_id":"st_d3nk18o9ro0c73en2l3g","pricing_plan_id":"cebpf4jnsgd1na2vs0mg"},{"bike_id":"ee67d274-4fbd-4321-906c-22d4e8f3bac5","system_id":"levelo_inurba_marseille","lat":43.32472,"lon":5.36573,"is_reserved":false,"is_disabled":false,"rental_uris":{"android":"levelo://app?vid=ee67d274-4fbd-4321-906c-22d4e8f3bac5","ios":"levelo://app?vid=ee67d274-4fbd-4321-906c-22d4e8f3bac5"},"vehicle_type_id":"4","last_reported":1774620190,"current_range_meters":8400,"station_id":"ce4bhs12rcd13ifvqhvg","pricing_plan_id":"cebpf4jnsgd1na2vs0mg"},{"bike_id":"e4b97950-5826-475e-8558-d2e5bcc219f8","system_id":"levelo_inurba_marseille","lat":43.298,"lon":5.36533,"is_reserved":false,"is_disabled":false,"rental_uris":{"android":"levelo://app?vid=e4b97950-5826-475e-8558-d2e5bcc219f8","ios":"levelo://app?vid=e4b97950-5826-475e-8558-d2e5bcc219f8"},"vehicle_type_id":"4","last_reported":1774620190,"current_range_meters":8400,"station_id":"","pricing_plan_id":"cebpf4jnsgd1na2vs0mg"},{"bike_id":"69b1b371-26a3-43fc-a8d4-1bc52a219e67","system_id":"levelo_inurba_marseille","lat":43.27558,"lon":5.38432,"is_reserved":false,"is_disabled":false,"rental_uris":{"android":"levelo://app?vid=69b1b371-26a3-43fc-a8d4-1bc52a219e67","ios":"levelo://app?vid=69b1b371-26a3-43fc-a8d4-1bc52a219e67"},"vehicle_type_id":"4","last_reported":1774620190,"current_range_meters":8400,"station_id":"ce4bhh92rcd13ifvqfi0","pricing_plan_id":"cebpf4jnsgd1na2vs0mg"},{"bike_id":"9514a192-93a3-42d2-82c6-bf4389f61812","system_id":"levelo_inurba_marseille","lat":43.28115,"lon":5.37837,"is_reserved":false,"is_disabled":false,"rental_uris":{"android":"levelo://app?vid=9514a192-93a3-42d2-82c6-bf4389f61812","ios":"levelo://app?vid=9514a192-93a3-42d2-82c6-bf4389f61812"},"vehicle_type_id":"4","last_reported":1774620190,"current_range_meters":8400,"station_id":"ce4bha12rcd13ifvqee0","pricing_plan_id":"cebpf4jnsgd1na2vs0mg"},{"bike_id":"34029e39-7297-40c5-b5ab-66003a7a9449","system_id":"levelo_inurba_marseille","lat":43.30951,"lon":5.39033,"is_reserved":false,"is_disabled":false,"rental_uris":{"android":"levelo://app?vid=34029e39-7297-40c5-b5ab-66003a7a9449","ios":"levelo://app?vid=34029e39-7297-40c5-b5ab-66003a7a9449"},"vehicle_type_id":"4","last_reported":1774620190,"current_range_meters":8400,"station_id":"ce4bgup2rcd13ifvqco0","pricing_plan_id":"cebpf4jnsgd1na2vs0mg"},{"bike_id":"e369da6f-cf9a-43c1-bdbc-66801ef116da","system_id":"levelo_inurba_marseille","lat":43.28617,"lon":5.35111,"is_reserved":false,"is_disabled":false,"rental_uris":{"android":"levelo://app?vid=e369da6f-cf9a-43c1-bdbc-66801ef116da","ios":"levelo://app?vid=e369da6f-cf9a-43c1-bdbc-66801ef116da"},"vehicle_type_id":"4","last_reported":1774620190,"current_range_meters":8400,"station_id":"ce4bhch2rcd13ifvqeug","pricing_plan_id":"cebpf4jnsgd1na2vs0mg"},{"bike_id":"7993b2a6-ccf1-42a0-9307-e94116230608","system_id":"levelo_inurba_marseille","lat":43.2861,"lon":5.35113,"is_reserved":false,"is_disabled":false,"rental_uris":{"android":"levelo://app?vid=7993b2a6-ccf1-42a0-9307-e94116230608","ios":"levelo://app?vid=7993b2a6-ccf1-42a0-9307-e94116230608"},"vehicle_type_id":"4","last_reported":1774620190,"current_range_meters":8400,"station_id":"ce4bhch2rcd13ifvqeug","pricing_plan_id":"cebpf4jnsgd1na2vs0mg"},{"bike_id":"2079b28e-e67c-46f2-b341-0eb57b27bb0e","system_id":"levelo_inurba_marseille","lat":43.31248,"lon":5.36868,"is_reserved":false,"is_disabled":false,"rental_uris":{"android":"levelo://app?vid=2079b28e-e67c-46f2-b341-0eb57b27bb0e","ios":"levelo://app?vid=2079b28e-e67c-46f2-b341-0eb57b27bb0e"},"vehicle_type_id":"4","last_reported":1774620190,"current_range_meters":8400,"station_id":"ce4bgl92rcd13ifvqbq0","pricing_plan_id":"cebpf4jnsgd1na2vs0mg"},{"bike_id":"27f65587-f91a-41b1-aacf-8da5e702b79e","system_id":"levelo_inurba_marseille","lat":43.29754,"lon":5.42755,"is_reserved":false,"is_disabled":false,"rental_uris":{"android":"levelo://app?vid=27f65587-f91a-41b1-aacf-8da5e702b79e","ios":"levelo://app?vid=27f65587-f91a-41b1-aacf-8da5e702b79e"},"vehicle_type_id":"4","last_reported":1774620190,"current_range_meters":8400,"station_id":"st_d3md5207bmas73dh9klg","pricing_plan_id":"cebpf4jnsgd1na2vs0mg"},{"bike_id":"cf657228-19e9-4fd8-9e43-cca2dc89b421","system_id":"levelo_inurba_marseille","lat":43.29619,"lon":5.37706,"is_reserved":false,"is_disabled":false,"rental_uris":{"android":"levelo://app?vid=cf657228-19e9-4fd8-9e43-cca2dc89b421","ios":"levelo://app?vid=cf657228-19e9-4fd8-9e43-cca2dc89b421"},"vehicle_type_id":"4","last_reported":1774620190,"current_range_meters":8400,"station_id":"ce4bgi92rcd13ifvqb90","pricing_plan_id":"cebpf4jnsgd1na2vs0mg"},{"bike_id":"94fbb665-e3ce-4226-b37f-5ebe7d9eafe5","system_id":"levelo_inurba_marseille","lat":43.25721,"lon":5.41111,"is_reserved":false,"is_disabled":false,"rental_uris":{"android":"levelo://app?vid=94fbb665-e3ce-4226-b37f-5ebe7d9eafe5","ios":"levelo://app?vid=94fbb665-e3ce-4226-b37f-5ebe7d9eafe5"},"vehicle_type_id":"4","last_reported":1774620190,"current_range_meters":8400,"station_id":"ce4bhkp2rcd13ifvqgd0","pricing_plan_id":"cebpf4jnsgd1na2vs0mg"},{"bike_id":"a432baf0-0704-4d0a-bd8c-ceae8a447104","system_id":"levelo_inurba_marseille","lat":43.25589,"lon":5.38226,"is_reserved":false,"is_disabled":false,"rental_uris":{"android":"levelo://app?vid=a432baf0-0704-4d0a-bd8c-ceae8a447104","ios":"levelo://app?vid=a432baf0-0704-4d0a-bd8c-ceae8a447104"},"vehicle_type_id":"4","last_reported":1774620190,"current_range_meters":8400,"station_id":"ce4bhih2rcd13ifvqfs0","pricing_plan_id":"cebpf4jnsgd1na2vs0mg"},{"bike_id":"30e88e0e-470b-46c9-8ebc-1994865cdbf4","system_id":"levelo_inurba_marseille","lat":43.2621,"lon":5.40461,"is_reserved":false,"is_disabled":false,"rental_uris":{"android":"levelo://app?vid=30e88e0e-470b-46c9-8ebc-1994865cdbf4","ios":"levelo://app?vid=30e88e0e-470b-46c9-8ebc-1994865cdbf4"},"vehicle_type_id":"4","last_reported":1774620190,"current_range_meters":8400,"station_id":"ce4bhmh2rcd13ifvqgmg","pricing_plan_id":"cebpf4jnsgd1na2vs0mg"},{"bike_id":"70735250-f55d-426f-86fe-cd374ca04154","system_id":"levelo_inurba_marseille","lat":43.29218,"lon":5.36066,"is_reserved":false,"is_disabled":false,"rental_uris":{"android":"levelo://app?vid=70735250-f55d-426f-86fe-cd374ca04154","ios":"levelo://app?vid=70735250-f55d-426f-86fe-cd374ca04154"},"vehicle_type_id":"4","last_reported":1774620190,"current_range_meters":8400,"station_id":"ce4bhbh2rcd13ifvqeqg","pricing_plan_id":"cebpf4jnsgd1na2vs0mg"},{"bike_id":"86723fb3-7a32-4a1d-b53a-b3b04e07fae1","system_id":"levelo_inurba_marseille","lat":43.31054,"lon":5.37169,"is_reserved":false,"is_disabled":false,"rental_uris":{"android":"levelo://app?vid=86723fb3-7a32-4a1d-b53a-b3b04e07fae1","ios":"levelo://app?vid=86723fb3-7a32-4a1d-b53a-b3b04e07fae1"},"vehicle_type_id":"4","last_reported":1774620190,"current_range_meters":8400,"station_id":"st_d4kl2rp97mjs73e7tdfg","pricing_plan_id":"cebpf4jnsgd1na2vs0mg"},{"bike_id":"a858ea89-34aa-421e-b0a5-1ea8bb4dbce1","system_id":"levelo_inurba_marseille","lat":43.29271,"lon":5.36851,"is_reserved":false,"is_disabled":false,"rental_uris":{"android":"levelo://app?vid=a858ea89-34aa-421e-b0a5-1ea8bb4dbce1","ios":"levelo://app?vid=a858ea89-34aa-421e-b0a5-1ea8bb4dbce1"},"vehicle_type_id":"4","last_reported":1774620190,"current_range_meters":8400,"station_id":"ce4bhbp2rcd13ifvqesg","pricing_plan_id":"cebpf4jnsgd1na2vs0mg"},{"bike_id":"d7a05937-11dc-470c-8440-c358e1803011","system_id":"levelo_inurba_marseille","lat":43.30375,"lon":5.42493,"is_reserved":false,"is_disabled":false,"rental_uris":{"android":"levelo://app?vid=d7a05937-11dc-470c-8440-c358e1803011","ios":"levelo://app?vid=d7a05937-11dc-470c-8440-c358e1803011"},"vehicle_type_id":"4","last_reported":1774620190,"current_range_meters":8400,"station_id":"ce4bhoh2rcd13ifvqh6g","pricing_plan_id":"cebpf4jnsgd1na2vs0mg"},{"bike_id":"5c23e0f0-3718-460a-acbf-0792e1920dc6","system_id":"levelo_inurba_marseille","lat":43.28429,"lon":5.3498,"is_reserved":false,"is_disabled":false,"rental_uris":{"android":"levelo://app?vid=5c23e0f0-3718-460a-acbf-0792e1920dc6","ios":"levelo://app?vid=5c23e0f0-3718-460a-acbf-0792e1920dc6"},"vehicle_type_id":"4","last_reported":1774620190,"current_range_meters":8400,"station_id":"ce4bhbh2rcd13ifvqepg","pricing_plan_id":"cebpf4jnsgd1na2vs0mg"},{"bike_id":"673bcba7-aaab-4b6c-8845-3f358e720603","system_id":"levelo_inurba_marseille","lat":43.32123,"lon":5.36757,"is_reserved":false,"is_disabled":false,"rental_uris":{"android":"levelo://app?vid=673bcba7-aaab-4b6c-8845-3f358e720603","ios":"levelo://app?vid=673bcba7-aaab-4b6c-8845-3f358e720603"},"vehicle_type_id":"4","last_reported":1774620190,"current_range_meters":8400,"station_id":"ce4bhrh2rcd13ifvqhug","pricing_plan_id":"cebpf4jnsgd1na2vs0mg"},{"bike_id":"be500756-1c0b-4c02-b419-04946b950617","system_id":"levelo_inurba_marseille","lat":43.26357,"lon":5.41089,"is_reserved":false,"is_disabled":false,"rental_uris":{"android":"levelo://app?vid=be500756-1c0b-4c02-b419-04946b950617","ios":"levelo://app?vid=be500756-1c0b-4c02-b419-04946b950617"},"vehicle_type_id":"4","last_reported":1774620190,"current_range_meters":8400,"station_id":"st_d4e5ca6na9uc73bfl5fg","pricing_plan_id":"cebpf4jnsgd1na2vs0mg"},{"bike_id":"459048ff-0c7f-40aa-b3f3-6ef5eae5386a","system_id":"levelo_inurba_marseille","lat":43.231506,"lon":5.437235,"is_reserved":false,"is_disabled":false,"rental_uris":{"android":"levelo://app?vid=459048ff-0c7f-40aa-b3f3-6ef5eae5386a","ios":"levelo://app?vid=459048ff-0c7f-40aa-b3f3-6ef5eae5386a"},"vehicle_type_id":"4","last_reported":1774620190,"current_range_meters":8800,"station_id":"ce4bhmp2rcd13ifvqgog","pricing_plan_id":"cebpf4jnsgd1na2vs0mg"},{"bike_id":"aa6eb777-c9be-4964-beb1-ce00e8883a0c","system_id":"levelo_inurba_marseille","lat":43.30896,"lon":5.39634,"is_reserved":false,"is_disabled":true,"rental_uris":{"android":"levelo://app?vid=aa6eb777-c9be-4964-beb1-ce00e8883a0c","ios":"levelo://app?vid=aa6eb777-c9be-4964-beb1-ce00e8883a0c"},"vehicle_type_id":"4","last_reported":1774620190,"current_range_meters":8800,"station_id":"ce4bh012rcd13ifvqcv0","pricing_plan_id":"cebpf4jnsgd1na2vs0mg"},{"bike_id":"ddd34d98-b2cd-4c61-9bee-081c95c7109d","system_id":"levelo_inurba_marseille","lat":43.23144,"lon":5.43724,"is_reserved":false,"is_disabled":false,"rental_uris":{"android":"levelo://app?vid=ddd34d98-b2cd-4c61-9bee-081c95c7109d","ios":"levelo://app?vid=ddd34d98-b2cd-4c61-9bee-081c95c7109d"},"vehicle_type_id":"4","last_reported":1774620190,"current_range_meters":8800,"station_id":"ce4bhmp2rcd13ifvqgog","pricing_plan_id":"cebpf4jnsgd1na2vs0mg"},{"bike_id":"d853da6c-5cf5-41ea-807a-d36018f85d3c","system_id":"levelo_inurba_marseille","lat":43.23186,"lon":5.40002,"is_reserved":false,"is_disabled":true,"rental_uris":{"android":"levelo://app?vid=d853da6c-5cf5-41ea-807a-d36018f85d3c","ios":"levelo://app?vid=d853da6c-5cf5-41ea-807a-d36018f85d3c"},"vehicle_type_id":"4","last_reported":1774620190,"current_range_meters":8800,"station_id":"ce4bhn12rcd13ifvqgqg","pricing_plan_id":"cebpf4jnsgd1na2vs0mg"},{"bike_id":"6d1dd35d-1ce3-4297-9706-721b82716928","system_id":"levelo_inurba_marseille","lat":43.23787,"lon":5.36639,"is_reserved":false,"is_disabled":false,"rental_uris":{"android":"levelo://app?vid=6d1dd35d-1ce3-4297-9706-721b82716928","ios":"levelo://app?vid=6d1dd35d-1ce3-4297-9706-721b82716928"},"vehicle_type_id":"4","last_reported":1774620190,"current_range_meters":8800,"station_id":"st_d3nk18o9ro0c73en2l3g","pricing_plan_id":"cebpf4jnsgd1na2vs0mg"},{"bike_id":"6a955117-a6f8-4dce-83db-37ec04942146","system_id":"levelo_inurba_marseille","lat":43.30463,"lon":5.37897,"is_reserved":false,"is_disabled":false,"rental_uris":{"android":"levelo://app?vid=6a955117-a6f8-4dce-83db-37ec04942146","ios":"levelo://app?vid=6a955117-a6f8-4dce-83db-37ec04942146"},"vehicle_type_id":"4","last_reported":1774620190,"current_range_meters":8800,"station_id":"ce4bgup2rcd13ifvqcn0","pricing_plan_id":"cebpf4jnsgd1na2vs0mg"},{"bike_id":"28860f21-a5a0-4495-931c-de4d869c17ca","system_id":"levelo_inurba_marseille","lat":43.2655,"lon":5.37274,"is_reserved":false,"is_disabled":false,"rental_uris":{"android":"levelo://app?vid=28860f21-a5a0-4495-931c-de4d869c17ca","ios":"levelo://app?vid=28860f21-a5a0-4495-931c-de4d869c17ca"},"vehicle_type_id":"4","last_reported":1774620190,"current_range_meters":8800,"station_id":"ce4bhg12rcd13ifvqf70","pricing_plan_id":"cebpf4jnsgd1na2vs0mg"},{"bike_id":"0a54f52f-752c-4d63-b802-6907def48f80","system_id":"levelo_inurba_marseille","lat":43.29072,"lon":5.38129,"is_reserved":false,"is_disabled":false,"rental_uris":{"android":"levelo://app?vid=0a54f52f-752c-4d63-b802-6907def48f80","ios":"levelo://app?vid=0a54f52f-752c-4d63-b802-6907def48f80"},"vehicle_type_id":"4","last_reported":1774620190,"current_range_meters":8800,"station_id":"ce4bh512rcd13ifvqe2g","pricing_plan_id":"cebpf4jnsgd1na2vs0mg"},{"bike_id":"d8fbdaf4-65af-454a-ab28-9d763f8caa54","system_id":"levelo_inurba_marseille","lat":43.24073,"lon":5.37762,"is_reserved":false,"is_disabled":false,"rental_uris":{"android":"levelo://app?vid=d8fbdaf4-65af-454a-ab28-9d763f8caa54","ios":"levelo://app?vid=d8fbdaf4-65af-454a-ab28-9d763f8caa54"},"vehicle_type_id":"4","last_reported":1774620190,"current_range_meters":8800,"station_id":"ce4bhnp2rcd13ifvqgvg","pricing_plan_id":"cebpf4jnsgd1na2vs0mg"},{"bike_id":"cdf48671-b824-4bd3-9ba9-9bb0058467b7","system_id":"levelo_inurba_marseille","lat":43.28616,"lon":5.35108,"is_reserved":false,"is_disabled":false,"rental_uris":{"android":"levelo://app?vid=cdf48671-b824-4bd3-9ba9-9bb0058467b7","ios":"levelo://app?vid=cdf48671-b824-4bd3-9ba9-9bb0058467b7"},"vehicle_type_id":"4","last_reported":1774620190,"current_range_meters":8800,"station_id":"ce4bhch2rcd13ifvqeug","pricing_plan_id":"cebpf4jnsgd1na2vs0mg"},{"bike_id":"84af83c6-3c1f-453e-8c2d-85b4ffdc5629","system_id":"levelo_inurba_marseille","lat":43.24465,"lon":5.42539,"is_reserved":false,"is_disabled":false,"rental_uris":{"android":"levelo://app?vid=84af83c6-3c1f-453e-8c2d-85b4ffdc5629","ios":"levelo://app?vid=84af83c6-3c1f-453e-8c2d-85b4ffdc5629"},"vehicle_type_id":"4","last_reported":1774620190,"current_range_meters":8800,"station_id":"st_d4a3vfp97mjs738cd8kg","pricing_plan_id":"cebpf4jnsgd1na2vs0mg"},{"bike_id":"dd21cd2f-ab57-4cd4-a438-b1fa2bdb0a92","system_id":"levelo_inurba_marseille","lat":43.31168,"lon":5.36745,"is_reserved":false,"is_disabled":false,"rental_uris":{"android":"levelo://app?vid=dd21cd2f-ab57-4cd4-a438-b1fa2bdb0a92","ios":"levelo://app?vid=dd21cd2f-ab57-4cd4-a438-b1fa2bdb0a92"},"vehicle_type_id":"4","last_reported":1774620190,"current_range_meters":8800,"station_id":"","pricing_plan_id":"cebpf4jnsgd1na2vs0mg"},{"bike_id":"530028de-a074-48ce-8e1d-e80fdff6a54e","system_id":"levelo_inurba_marseille","lat":43.26565,"lon":5.39024,"is_reserved":false,"is_disabled":false,"rental_uris":{"android":"levelo://app?vid=530028de-a074-48ce-8e1d-e80fdff6a54e","ios":"levelo://app?vid=530028de-a074-48ce-8e1d-e80fdff6a54e"},"vehicle_type_id":"4","last_reported":1774620190,"current_range_meters":8800,"station_id":"ce4bhe12rcd13ifvqf30","pricing_plan_id":"cebpf4jnsgd1na2vs0mg"},{"bike_id":"9b452945-b9c2-4c20-9556-fa4cf54fb846","system_id":"levelo_inurba_marseille","lat":43.31223,"lon":5.36865,"is_reserved":false,"is_disabled":false,"rental_uris":{"android":"levelo://app?vid=9b452945-b9c2-4c20-9556-fa4cf54fb846","ios":"levelo://app?vid=9b452945-b9c2-4c20-9556-fa4cf54fb846"},"vehicle_type_id":"4","last_reported":1774620190,"current_range_meters":8800,"station_id":"ce4bgl92rcd13ifvqbq0","pricing_plan_id":"cebpf4jnsgd1na2vs0mg"},{"bike_id":"2d095ec1-44b8-4164-a185-0a73881873fc","system_id":"levelo_inurba_marseille","lat":43.31222,"lon":5.36846,"is_reserved":false,"is_disabled":false,"rental_uris":{"android":"levelo://app?vid=2d095ec1-44b8-4164-a185-0a73881873fc","ios":"levelo://app?vid=2d095ec1-44b8-4164-a185-0a73881873fc"},"vehicle_type_id":"4","last_reported":1774620190,"current_range_meters":8800,"station_id":"ce4bgl92rcd13ifvqbq0","pricing_plan_id":"cebpf4jnsgd1na2vs0mg"},{"bike_id":"3137e3ea-7797-4cae-a237-2a996dd9ad4a","system_id":"levelo_inurba_marseille","lat":43.28478,"lon":5.48386,"is_reserved":false,"is_disabled":false,"rental_uris":{"android":"levelo://app?vid=3137e3ea-7797-4cae-a237-2a996dd9ad4a","ios":"levelo://app?vid=3137e3ea-7797-4cae-a237-2a996dd9ad4a"},"vehicle_type_id":"4","last_reported":1774620190,"current_range_meters":9200,"station_id":"","pricing_plan_id":"cebpf4jnsgd1na2vs0mg"},{"bike_id":"38d4b5fb-6c40-49bc-8782-b1dbf5006ae3","system_id":"levelo_inurba_marseille","lat":43.24183,"lon":5.39723,"is_reserved":false,"is_disabled":false,"rental_uris":{"android":"levelo://app?vid=38d4b5fb-6c40-49bc-8782-b1dbf5006ae3","ios":"levelo://app?vid=38d4b5fb-6c40-49bc-8782-b1dbf5006ae3"},"vehicle_type_id":"4","last_reported":1774620190,"current_range_meters":9200,"station_id":"ce4bhn12rcd13ifvqgpg","pricing_plan_id":"cebpf4jnsgd1na2vs0mg"},{"bike_id":"2873a201-01ad-44f0-a3f4-1c2939d32934","system_id":"levelo_inurba_marseille","lat":43.31544,"lon":5.38011,"is_reserved":false,"is_disabled":false,"rental_uris":{"android":"levelo://app?vid=2873a201-01ad-44f0-a3f4-1c2939d32934","ios":"levelo://app?vid=2873a201-01ad-44f0-a3f4-1c2939d32934"},"vehicle_type_id":"4","last_reported":1774620190,"current_range_meters":9200,"station_id":"ce4bhsp2rcd13ifvqi50","pricing_plan_id":"cebpf4jnsgd1na2vs0mg"},{"bike_id":"d32cdaf4-dccc-4757-9100-320132e3534c","system_id":"levelo_inurba_marseille","lat":43.286643,"lon":5.386699,"is_reserved":false,"is_disabled":false,"rental_uris":{"android":"levelo://app?vid=d32cdaf4-dccc-4757-9100-320132e3534c","ios":"levelo://app?vid=d32cdaf4-dccc-4757-9100-320132e3534c"},"vehicle_type_id":"4","last_reported":1774620190,"current_range_meters":9200,"station_id":"ce4bh492rcd13ifvqdug","pricing_plan_id":"cebpf4jnsgd1na2vs0mg"},{"bike_id":"c5412bb6-bec7-4456-bdb3-6b87df0ff39f","system_id":"levelo_inurba_marseille","lat":43.31226,"lon":5.36864,"is_reserved":false,"is_disabled":false,"rental_uris":{"android":"levelo://app?vid=c5412bb6-bec7-4456-bdb3-6b87df0ff39f","ios":"levelo://app?vid=c5412bb6-bec7-4456-bdb3-6b87df0ff39f"},"vehicle_type_id":"4","last_reported":1774620190,"current_range_meters":9200,"station_id":"ce4bgl92rcd13ifvqbq0","pricing_plan_id":"cebpf4jnsgd1na2vs0mg"},{"bike_id":"017cc899-a510-41b6-b2c0-841cd8ab0838","system_id":"levelo_inurba_marseille","lat":43.31223,"lon":5.36848,"is_reserved":false,"is_disabled":false,"rental_uris":{"android":"levelo://app?vid=017cc899-a510-41b6-b2c0-841cd8ab0838","ios":"levelo://app?vid=017cc899-a510-41b6-b2c0-841cd8ab0838"},"vehicle_type_id":"4","last_reported":1774620190,"current_range_meters":9200,"station_id":"ce4bgl92rcd13ifvqbq0","pricing_plan_id":"cebpf4jnsgd1na2vs0mg"},{"bike_id":"28b27287-ec4b-436b-b067-ef179a4dde78","system_id":"levelo_inurba_marseille","lat":43.32111,"lon":5.36781,"is_reserved":false,"is_disabled":false,"rental_uris":{"android":"levelo://app?vid=28b27287-ec4b-436b-b067-ef179a4dde78","ios":"levelo://app?vid=28b27287-ec4b-436b-b067-ef179a4dde78"},"vehicle_type_id":"4","last_reported":1774620190,"current_range_meters":9200,"station_id":"ce4bhrh2rcd13ifvqhug","pricing_plan_id":"cebpf4jnsgd1na2vs0mg"},{"bike_id":"58f323f1-a54e-4ac4-b3ee-57c51915fb3e","system_id":"levelo_inurba_marseille","lat":43.31709,"lon":5.37737,"is_reserved":false,"is_disabled":false,"rental_uris":{"android":"levelo://app?vid=58f323f1-a54e-4ac4-b3ee-57c51915fb3e","ios":"levelo://app?vid=58f323f1-a54e-4ac4-b3ee-57c51915fb3e"},"vehicle_type_id":"4","last_reported":1774620190,"current_range_meters":9200,"station_id":"ce4bgth2rcd13ifvqch0","pricing_plan_id":"cebpf4jnsgd1na2vs0mg"},{"bike_id":"8fe4b1f4-9080-46b9-85a2-ce71bc022ee8","system_id":"levelo_inurba_marseille","lat":43.25112,"lon":5.40308,"is_reserved":false,"is_disabled":false,"rental_uris":{"android":"levelo://app?vid=8fe4b1f4-9080-46b9-85a2-ce71bc022ee8","ios":"levelo://app?vid=8fe4b1f4-9080-46b9-85a2-ce71bc022ee8"},"vehicle_type_id":"4","last_reported":1774620190,"current_range_meters":9200,"station_id":"ce4bhlh2rcd13ifvqgig","pricing_plan_id":"cebpf4jnsgd1na2vs0mg"},{"bike_id":"7f5f4a35-fda4-4a33-b7ae-332aa08e4387","system_id":"levelo_inurba_marseille","lat":43.29767,"lon":5.42764,"is_reserved":false,"is_disabled":false,"rental_uris":{"android":"levelo://app?vid=7f5f4a35-fda4-4a33-b7ae-332aa08e4387","ios":"levelo://app?vid=7f5f4a35-fda4-4a33-b7ae-332aa08e4387"},"vehicle_type_id":"4","last_reported":1774620190,"current_range_meters":9200,"station_id":"st_d3md5207bmas73dh9klg","pricing_plan_id":"cebpf4jnsgd1na2vs0mg"},{"bike_id":"29e4ea14-9f10-4fb6-8bd6-bd25c9a9f18d","system_id":"levelo_inurba_marseille","lat":43.26557,"lon":5.37277,"is_reserved":false,"is_disabled":false,"rental_uris":{"android":"levelo://app?vid=29e4ea14-9f10-4fb6-8bd6-bd25c9a9f18d","ios":"levelo://app?vid=29e4ea14-9f10-4fb6-8bd6-bd25c9a9f18d"},"vehicle_type_id":"4","last_reported":1774620190,"current_range_meters":9200,"station_id":"ce4bhg12rcd13ifvqf70","pricing_plan_id":"cebpf4jnsgd1na2vs0mg"},{"bike_id":"703c66e6-43cf-4833-ba2f-d06aa0c38c43","system_id":"levelo_inurba_marseille","lat":43.27058,"lon":5.42252,"is_reserved":false,"is_disabled":false,"rental_uris":{"android":"levelo://app?vid=703c66e6-43cf-4833-ba2f-d06aa0c38c43","ios":"levelo://app?vid=703c66e6-43cf-4833-ba2f-d06aa0c38c43"},"vehicle_type_id":"4","last_reported":1774620190,"current_range_meters":9200,"station_id":"ce4bhk92rcd13ifvqgb0","pricing_plan_id":"cebpf4jnsgd1na2vs0mg"},{"bike_id":"9c448445-1c60-4520-a1cb-98a7a7992b90","system_id":"levelo_inurba_marseille","lat":43.28479,"lon":5.48389,"is_reserved":false,"is_disabled":false,"rental_uris":{"android":"levelo://app?vid=9c448445-1c60-4520-a1cb-98a7a7992b90","ios":"levelo://app?vid=9c448445-1c60-4520-a1cb-98a7a7992b90"},"vehicle_type_id":"4","last_reported":1774620190,"current_range_meters":9200,"station_id":"","pricing_plan_id":"cebpf4jnsgd1na2vs0mg"},{"bike_id":"f76ca837-4885-4ca7-a8aa-0afe09dc7e5a","system_id":"levelo_inurba_marseille","lat":43.27387,"lon":5.36246,"is_reserved":false,"is_disabled":false,"rental_uris":{"android":"levelo://app?vid=f76ca837-4885-4ca7-a8aa-0afe09dc7e5a","ios":"levelo://app?vid=f76ca837-4885-4ca7-a8aa-0afe09dc7e5a"},"vehicle_type_id":"4","last_reported":1774620190,"current_range_meters":9200,"station_id":"ce4bhbh2rcd13ifvqeo0","pricing_plan_id":"cebpf4jnsgd1na2vs0mg"},{"bike_id":"350f58ad-4052-4904-815d-e18c999d69d2","system_id":"levelo_inurba_marseille","lat":43.25111,"lon":5.4031,"is_reserved":false,"is_disabled":false,"rental_uris":{"android":"levelo://app?vid=350f58ad-4052-4904-815d-e18c999d69d2","ios":"levelo://app?vid=350f58ad-4052-4904-815d-e18c999d69d2"},"vehicle_type_id":"4","last_reported":1774620190,"current_range_meters":9200,"station_id":"ce4bhlh2rcd13ifvqgig","pricing_plan_id":"cebpf4jnsgd1na2vs0mg"},{"bike_id":"fcd667b5-da67-4ef9-9af1-6f8d7ee99737","system_id":"levelo_inurba_marseille","lat":43.29629,"lon":5.40587,"is_reserved":false,"is_disabled":false,"rental_uris":{"android":"levelo://app?vid=fcd667b5-da67-4ef9-9af1-6f8d7ee99737","ios":"levelo://app?vid=fcd667b5-da67-4ef9-9af1-6f8d7ee99737"},"vehicle_type_id":"4","last_reported":1774620190,"current_range_meters":9200,"station_id":"ce4bh0h2rcd13ifvqd60","pricing_plan_id":"cebpf4jnsgd1na2vs0mg"},{"bike_id":"5676c999-4186-41bd-a8f1-2c0074470189","system_id":"levelo_inurba_marseille","lat":43.25338,"lon":5.42178,"is_reserved":false,"is_disabled":false,"rental_uris":{"android":"levelo://app?vid=5676c999-4186-41bd-a8f1-2c0074470189","ios":"levelo://app?vid=5676c999-4186-41bd-a8f1-2c0074470189"},"vehicle_type_id":"4","last_reported":1774620190,"current_range_meters":9600,"station_id":"st_d2m65c5bi1j21697t3ng","pricing_plan_id":"cebpf4jnsgd1na2vs0mg"},{"bike_id":"785c5a62-1a9c-4a92-9305-1c2031869d1c","system_id":"levelo_inurba_marseille","lat":43.26685,"lon":5.38254,"is_reserved":false,"is_disabled":false,"rental_uris":{"android":"levelo://app?vid=785c5a62-1a9c-4a92-9305-1c2031869d1c","ios":"levelo://app?vid=785c5a62-1a9c-4a92-9305-1c2031869d1c"},"vehicle_type_id":"4","last_reported":1774620190,"current_range_meters":9600,"station_id":"ce4bhg92rcd13ifvqf90","pricing_plan_id":"cebpf4jnsgd1na2vs0mg"},{"bike_id":"13758e40-3343-4461-81bb-b6a3001d9426","system_id":"levelo_inurba_marseille","lat":43.32487,"lon":5.36523,"is_reserved":false,"is_disabled":false,"rental_uris":{"android":"levelo://app?vid=13758e40-3343-4461-81bb-b6a3001d9426","ios":"levelo://app?vid=13758e40-3343-4461-81bb-b6a3001d9426"},"vehicle_type_id":"4","last_reported":1774620190,"current_range_meters":9600,"station_id":"ce4bhs12rcd13ifvqhvg","pricing_plan_id":"cebpf4jnsgd1na2vs0mg"},{"bike_id":"3629b600-0973-43f7-911e-b3eb2f49b025","system_id":"levelo_inurba_marseille","lat":43.33548,"lon":5.37482,"is_reserved":false,"is_disabled":false,"rental_uris":{"android":"levelo://app?vid=3629b600-0973-43f7-911e-b3eb2f49b025","ios":"levelo://app?vid=3629b600-0973-43f7-911e-b3eb2f49b025"},"vehicle_type_id":"4","last_reported":1774620190,"current_range_meters":9600,"station_id":"st_d46tts09ee8s73dlu43g","pricing_plan_id":"cebpf4jnsgd1na2vs0mg"},{"bike_id":"edac6523-df16-47dc-adeb-975cdf805ce1","system_id":"levelo_inurba_marseille","lat":43.26571,"lon":5.39015,"is_reserved":false,"is_disabled":false,"rental_uris":{"android":"levelo://app?vid=edac6523-df16-47dc-adeb-975cdf805ce1","ios":"levelo://app?vid=edac6523-df16-47dc-adeb-975cdf805ce1"},"vehicle_type_id":"4","last_reported":1774620190,"current_range_meters":9600,"station_id":"ce4bhe12rcd13ifvqf30","pricing_plan_id":"cebpf4jnsgd1na2vs0mg"},{"bike_id":"b4f7f0b9-7d56-42ad-a631-1e0eab6073dc","system_id":"levelo_inurba_marseille","lat":43.30531,"lon":5.36524,"is_reserved":false,"is_disabled":false,"rental_uris":{"android":"levelo://app?vid=b4f7f0b9-7d56-42ad-a631-1e0eab6073dc","ios":"levelo://app?vid=b4f7f0b9-7d56-42ad-a631-1e0eab6073dc"},"vehicle_type_id":"4","last_reported":1774620190,"current_range_meters":9600,"station_id":"ce4bgs12rcd13ifvqcag","pricing_plan_id":"cebpf4jnsgd1na2vs0mg"},{"bike_id":"216abfec-bd05-4a03-ba01-aa4e9e46c989","system_id":"levelo_inurba_marseille","lat":43.29795,"lon":5.38102,"is_reserved":false,"is_disabled":false,"rental_uris":{"android":"levelo://app?vid=216abfec-bd05-4a03-ba01-aa4e9e46c989","ios":"levelo://app?vid=216abfec-bd05-4a03-ba01-aa4e9e46c989"},"vehicle_type_id":"4","last_reported":1774620190,"current_range_meters":9600,"station_id":"ce4bgip2rcd13ifvqbb0","pricing_plan_id":"cebpf4jnsgd1na2vs0mg"},{"bike_id":"7d38c45a-0011-4d05-9bbf-54b7323ff394","system_id":"levelo_inurba_marseille","lat":43.26372,"lon":5.4107,"is_reserved":false,"is_disabled":false,"rental_uris":{"android":"levelo://app?vid=7d38c45a-0011-4d05-9bbf-54b7323ff394","ios":"levelo://app?vid=7d38c45a-0011-4d05-9bbf-54b7323ff394"},"vehicle_type_id":"4","last_reported":1774620190,"current_range_meters":9600,"station_id":"st_d4e5ca6na9uc73bfl5fg","pricing_plan_id":"cebpf4jnsgd1na2vs0mg"},{"bike_id":"a36b32fe-3c3c-4e8e-bdc5-ac9d34714bd2","system_id":"levelo_inurba_marseille","lat":43.29898,"lon":5.42075,"is_reserved":false,"is_disabled":false,"rental_uris":{"android":"levelo://app?vid=a36b32fe-3c3c-4e8e-bdc5-ac9d34714bd2","ios":"levelo://app?vid=a36b32fe-3c3c-4e8e-bdc5-ac9d34714bd2"},"vehicle_type_id":"4","last_reported":1774620190,"current_range_meters":9600,"station_id":"st_d6tc004otcvc738tfe70","pricing_plan_id":"cebpf4jnsgd1na2vs0mg"},{"bike_id":"ccae95a5-965a-472f-8138-32ecadf6ef35","system_id":"levelo_inurba_marseille","lat":43.25336,"lon":5.42181,"is_reserved":false,"is_disabled":false,"rental_uris":{"android":"levelo://app?vid=ccae95a5-965a-472f-8138-32ecadf6ef35","ios":"levelo://app?vid=ccae95a5-965a-472f-8138-32ecadf6ef35"},"vehicle_type_id":"4","last_reported":1774620190,"current_range_meters":9600,"station_id":"st_d2m65c5bi1j21697t3ng","pricing_plan_id":"cebpf4jnsgd1na2vs0mg"},{"bike_id":"b74978cb-5b51-4041-8c1c-97c8f4ca71d2","system_id":"levelo_inurba_marseille","lat":43.3118,"lon":5.4063,"is_reserved":false,"is_disabled":false,"rental_uris":{"android":"levelo://app?vid=b74978cb-5b51-4041-8c1c-97c8f4ca71d2","ios":"levelo://app?vid=b74978cb-5b51-4041-8c1c-97c8f4ca71d2"},"vehicle_type_id":"4","last_reported":1774620190,"current_range_meters":9600,"station_id":"","pricing_plan_id":"cebpf4jnsgd1na2vs0mg"},{"bike_id":"2e61761c-3e5d-44bc-9982-731803222cb8","system_id":"levelo_inurba_marseille","lat":43.28723,"lon":5.39974,"is_reserved":false,"is_disabled":false,"rental_uris":{"android":"levelo://app?vid=2e61761c-3e5d-44bc-9982-731803222cb8","ios":"levelo://app?vid=2e61761c-3e5d-44bc-9982-731803222cb8"},"vehicle_type_id":"4","last_reported":1774620190,"current_range_meters":9600,"station_id":"ce4bho92rcd13ifvqh3g","pricing_plan_id":"cebpf4jnsgd1na2vs0mg"},{"bike_id":"f7cb61ea-1df7-4388-b663-7919adc79911","system_id":"levelo_inurba_marseille","lat":43.31207,"lon":5.36856,"is_reserved":false,"is_disabled":false,"rental_uris":{"android":"levelo://app?vid=f7cb61ea-1df7-4388-b663-7919adc79911","ios":"levelo://app?vid=f7cb61ea-1df7-4388-b663-7919adc79911"},"vehicle_type_id":"4","last_reported":1774620190,"current_range_meters":9600,"station_id":"ce4bgl92rcd13ifvqbq0","pricing_plan_id":"cebpf4jnsgd1na2vs0mg"},{"bike_id":"e4b8931c-03ca-41c7-bb73-d8e8fdaf8d69","system_id":"levelo_inurba_marseille","lat":43.25578,"lon":5.38227,"is_reserved":false,"is_disabled":false,"rental_uris":{"android":"levelo://app?vid=e4b8931c-03ca-41c7-bb73-d8e8fdaf8d69","ios":"levelo://app?vid=e4b8931c-03ca-41c7-bb73-d8e8fdaf8d69"},"vehicle_type_id":"4","last_reported":1774620190,"current_range_meters":9600,"station_id":"ce4bhih2rcd13ifvqfs0","pricing_plan_id":"cebpf4jnsgd1na2vs0mg"},{"bike_id":"28483bf5-dea0-476c-af06-fd95f4e48f8f","system_id":"levelo_inurba_marseille","lat":43.33492,"lon":5.36349,"is_reserved":false,"is_disabled":false,"rental_uris":{"android":"levelo://app?vid=28483bf5-dea0-476c-af06-fd95f4e48f8f","ios":"levelo://app?vid=28483bf5-dea0-476c-af06-fd95f4e48f8f"},"vehicle_type_id":"4","last_reported":1774620190,"current_range_meters":9600,"station_id":"","pricing_plan_id":"cebpf4jnsgd1na2vs0mg"},{"bike_id":"d0d0c650-ac38-4fe2-aa98-a8885c7a4f14","system_id":"levelo_inurba_marseille","lat":43.30634,"lon":5.40093,"is_reserved":false,"is_disabled":false,"rental_uris":{"android":"levelo://app?vid=d0d0c650-ac38-4fe2-aa98-a8885c7a4f14","ios":"levelo://app?vid=d0d0c650-ac38-4fe2-aa98-a8885c7a4f14"},"vehicle_type_id":"4","last_reported":1774620190,"current_range_meters":9600,"station_id":"ce4bh112rcd13ifvqda0","pricing_plan_id":"cebpf4jnsgd1na2vs0mg"},{"bike_id":"6d106594-19d4-410a-8438-74af7bf89a11","system_id":"levelo_inurba_marseille","lat":43.2841,"lon":5.34974,"is_reserved":false,"is_disabled":false,"rental_uris":{"android":"levelo://app?vid=6d106594-19d4-410a-8438-74af7bf89a11","ios":"levelo://app?vid=6d106594-19d4-410a-8438-74af7bf89a11"},"vehicle_type_id":"4","last_reported":1774620190,"current_range_meters":9600,"station_id":"ce4bhbh2rcd13ifvqepg","pricing_plan_id":"cebpf4jnsgd1na2vs0mg"},{"bike_id":"2d5262be-582c-4d87-a7a2-b4c3f4ed4d38","system_id":"levelo_inurba_marseille","lat":43.22562,"lon":5.41619,"is_reserved":false,"is_disabled":false,"rental_uris":{"android":"levelo://app?vid=2d5262be-582c-4d87-a7a2-b4c3f4ed4d38","ios":"levelo://app?vid=2d5262be-582c-4d87-a7a2-b4c3f4ed4d38"},"vehicle_type_id":"4","last_reported":1774620190,"current_range_meters":9600,"station_id":"st_d2o4gvlbi1j2169b742g","pricing_plan_id":"cebpf4jnsgd1na2vs0mg"},{"bike_id":"a61258d6-5e73-49b5-aa0d-4f795c884ed3","system_id":"levelo_inurba_marseille","lat":43.26778,"lon":5.39412,"is_reserved":false,"is_disabled":false,"rental_uris":{"android":"levelo://app?vid=a61258d6-5e73-49b5-aa0d-4f795c884ed3","ios":"levelo://app?vid=a61258d6-5e73-49b5-aa0d-4f795c884ed3"},"vehicle_type_id":"4","last_reported":1774620190,"current_range_meters":9600,"station_id":"ce4bhh12rcd13ifvqfg0","pricing_plan_id":"cebpf4jnsgd1na2vs0mg"},{"bike_id":"fa1cf32b-219e-482f-8f48-62ab358ef348","system_id":"levelo_inurba_marseille","lat":43.28413,"lon":5.34999,"is_reserved":false,"is_disabled":false,"rental_uris":{"android":"levelo://app?vid=fa1cf32b-219e-482f-8f48-62ab358ef348","ios":"levelo://app?vid=fa1cf32b-219e-482f-8f48-62ab358ef348"},"vehicle_type_id":"4","last_reported":1774620190,"current_range_meters":9600,"station_id":"ce4bhbh2rcd13ifvqepg","pricing_plan_id":"cebpf4jnsgd1na2vs0mg"},{"bike_id":"f6505fa2-515e-46e9-a73f-c14ff55b1558","system_id":"levelo_inurba_marseille","lat":43.27075,"lon":5.42278,"is_reserved":false,"is_disabled":true,"rental_uris":{"android":"levelo://app?vid=f6505fa2-515e-46e9-a73f-c14ff55b1558","ios":"levelo://app?vid=f6505fa2-515e-46e9-a73f-c14ff55b1558"},"vehicle_type_id":"4","last_reported":1774620190,"current_range_meters":9600,"station_id":"","pricing_plan_id":"cebpf4jnsgd1na2vs0mg"},{"bike_id":"fd9b3ec1-b2fa-4d8a-8e15-d40038de36d6","system_id":"levelo_inurba_marseille","lat":43.22571,"lon":5.41609,"is_reserved":false,"is_disabled":false,"rental_uris":{"android":"levelo://app?vid=fd9b3ec1-b2fa-4d8a-8e15-d40038de36d6","ios":"levelo://app?vid=fd9b3ec1-b2fa-4d8a-8e15-d40038de36d6"},"vehicle_type_id":"4","last_reported":1774620190,"current_range_meters":9600,"station_id":"st_d2o4gvlbi1j2169b742g","pricing_plan_id":"cebpf4jnsgd1na2vs0mg"},{"bike_id":"a0e1fe6f-1b0c-4b69-b699-3f3295a2fce0","system_id":"levelo_inurba_marseille","lat":43.2845,"lon":5.35018,"is_reserved":false,"is_disabled":false,"rental_uris":{"android":"levelo://app?vid=a0e1fe6f-1b0c-4b69-b699-3f3295a2fce0","ios":"levelo://app?vid=a0e1fe6f-1b0c-4b69-b699-3f3295a2fce0"},"vehicle_type_id":"4","last_reported":1774620190,"current_range_meters":10000,"station_id":"ce4bhbh2rcd13ifvqepg","pricing_plan_id":"cebpf4jnsgd1na2vs0mg"},{"bike_id":"ac1a9d6c-17a0-4e01-9607-d886e691e83d","system_id":"levelo_inurba_marseille","lat":43.24396,"lon":5.37077,"is_reserved":false,"is_disabled":false,"rental_uris":{"android":"levelo://app?vid=ac1a9d6c-17a0-4e01-9607-d886e691e83d","ios":"levelo://app?vid=ac1a9d6c-17a0-4e01-9607-d886e691e83d"},"vehicle_type_id":"4","last_reported":1774620190,"current_range_meters":10000,"station_id":"ce4bhhh2rcd13ifvqfk0","pricing_plan_id":"cebpf4jnsgd1na2vs0mg"},{"bike_id":"899c9f36-9b83-4ce9-bd7d-0f95dd541b6a","system_id":"levelo_inurba_marseille","lat":43.32349,"lon":5.36753,"is_reserved":false,"is_disabled":false,"rental_uris":{"android":"levelo://app?vid=899c9f36-9b83-4ce9-bd7d-0f95dd541b6a","ios":"levelo://app?vid=899c9f36-9b83-4ce9-bd7d-0f95dd541b6a"},"vehicle_type_id":"4","last_reported":1774620190,"current_range_meters":10000,"station_id":"ce4bhsh2rcd13ifvqi2g","pricing_plan_id":"cebpf4jnsgd1na2vs0mg"},{"bike_id":"c5ab6d8a-7ec8-43ac-85d6-c1ec088c9632","system_id":"levelo_inurba_marseille","lat":43.28693,"lon":5.4668,"is_reserved":false,"is_disabled":false,"rental_uris":{"android":"levelo://app?vid=c5ab6d8a-7ec8-43ac-85d6-c1ec088c9632","ios":"levelo://app?vid=c5ab6d8a-7ec8-43ac-85d6-c1ec088c9632"},"vehicle_type_id":"4","last_reported":1774620190,"current_range_meters":10000,"station_id":"st_d6tc3vkotcvc738tfjhg","pricing_plan_id":"cebpf4jnsgd1na2vs0mg"},{"bike_id":"22c07acf-ad1c-43d9-b110-e13df881f10e","system_id":"levelo_inurba_marseille","lat":43.23894,"lon":5.37458,"is_reserved":false,"is_disabled":false,"rental_uris":{"android":"levelo://app?vid=22c07acf-ad1c-43d9-b110-e13df881f10e","ios":"levelo://app?vid=22c07acf-ad1c-43d9-b110-e13df881f10e"},"vehicle_type_id":"4","last_reported":1774620190,"current_range_meters":10000,"station_id":"st_d6sm7csbq4hs73f8fpjg","pricing_plan_id":"cebpf4jnsgd1na2vs0mg"},{"bike_id":"a85546b1-cac7-4600-a478-a58c51945af2","system_id":"levelo_inurba_marseille","lat":43.24651,"lon":5.38899,"is_reserved":false,"is_disabled":false,"rental_uris":{"android":"levelo://app?vid=a85546b1-cac7-4600-a478-a58c51945af2","ios":"levelo://app?vid=a85546b1-cac7-4600-a478-a58c51945af2"},"vehicle_type_id":"4","last_reported":1774620190,"current_range_meters":10000,"station_id":"ce4bhg12rcd13ifvqf60","pricing_plan_id":"cebpf4jnsgd1na2vs0mg"},{"bike_id":"c7af05b3-4ddb-499c-ae8b-c6fd8683ba94","system_id":"levelo_inurba_marseille","lat":43.29561,"lon":5.38353,"is_reserved":false,"is_disabled":false,"rental_uris":{"android":"levelo://app?vid=c7af05b3-4ddb-499c-ae8b-c6fd8683ba94","ios":"levelo://app?vid=c7af05b3-4ddb-499c-ae8b-c6fd8683ba94"},"vehicle_type_id":"4","last_reported":1774620190,"current_range_meters":10000,"station_id":"","pricing_plan_id":"cebpf4jnsgd1na2vs0mg"},{"bike_id":"e8df83cf-6381-4e7e-9379-074a8e881801","system_id":"levelo_inurba_marseille","lat":43.31888,"lon":5.36816,"is_reserved":false,"is_disabled":false,"rental_uris":{"android":"levelo://app?vid=e8df83cf-6381-4e7e-9379-074a8e881801","ios":"levelo://app?vid=e8df83cf-6381-4e7e-9379-074a8e881801"},"vehicle_type_id":"4","last_reported":1774620190,"current_range_meters":10000,"station_id":"","pricing_plan_id":"cebpf4jnsgd1na2vs0mg"},{"bike_id":"7ae67a1d-67d1-4b23-b0b5-10d2bec37055","system_id":"levelo_inurba_marseille","lat":43.28695,"lon":5.37387,"is_reserved":false,"is_disabled":false,"rental_uris":{"android":"levelo://app?vid=7ae67a1d-67d1-4b23-b0b5-10d2bec37055","ios":"levelo://app?vid=7ae67a1d-67d1-4b23-b0b5-10d2bec37055"},"vehicle_type_id":"4","last_reported":1774620190,"current_range_meters":10000,"station_id":"ce4bh3p2rcd13ifvqdq0","pricing_plan_id":"cebpf4jnsgd1na2vs0mg"},{"bike_id":"67c1c6e6-4211-4250-be02-a52880e1c23a","system_id":"levelo_inurba_marseille","lat":43.26508,"lon":5.40716,"is_reserved":false,"is_disabled":false,"rental_uris":{"android":"levelo://app?vid=67c1c6e6-4211-4250-be02-a52880e1c23a","ios":"levelo://app?vid=67c1c6e6-4211-4250-be02-a52880e1c23a"},"vehicle_type_id":"4","last_reported":1774620190,"current_range_meters":10000,"station_id":"","pricing_plan_id":"cebpf4jnsgd1na2vs0mg"},{"bike_id":"8221bf63-795d-4188-8725-0d3b358bd53f","system_id":"levelo_inurba_marseille","lat":43.24384,"lon":5.37048,"is_reserved":false,"is_disabled":false,"rental_uris":{"android":"levelo://app?vid=8221bf63-795d-4188-8725-0d3b358bd53f","ios":"levelo://app?vid=8221bf63-795d-4188-8725-0d3b358bd53f"},"vehicle_type_id":"4","last_reported":1774620190,"current_range_meters":10000,"station_id":"ce4bhhh2rcd13ifvqfk0","pricing_plan_id":"cebpf4jnsgd1na2vs0mg"},{"bike_id":"4f5cf7ef-ddb5-4d25-9c0b-bec33f5f4447","system_id":"levelo_inurba_marseille","lat":43.30953,"lon":5.3685,"is_reserved":false,"is_disabled":false,"rental_uris":{"android":"levelo://app?vid=4f5cf7ef-ddb5-4d25-9c0b-bec33f5f4447","ios":"levelo://app?vid=4f5cf7ef-ddb5-4d25-9c0b-bec33f5f4447"},"vehicle_type_id":"4","last_reported":1774620190,"current_range_meters":10000,"station_id":"","pricing_plan_id":"cebpf4jnsgd1na2vs0mg"},{"bike_id":"2502871f-5644-4d75-bd1b-7373d7c74c18","system_id":"levelo_inurba_marseille","lat":43.30538,"lon":5.36717,"is_reserved":false,"is_disabled":false,"rental_uris":{"android":"levelo://app?vid=2502871f-5644-4d75-bd1b-7373d7c74c18","ios":"levelo://app?vid=2502871f-5644-4d75-bd1b-7373d7c74c18"},"vehicle_type_id":"4","last_reported":1774620190,"current_range_meters":10000,"station_id":"ce4bgrp2rcd13ifvqc9g","pricing_plan_id":"cebpf4jnsgd1na2vs0mg"},{"bike_id":"d88e651e-69cf-42bd-9501-d7a4ef1413a7","system_id":"levelo_inurba_marseille","lat":43.24054,"lon":5.37739,"is_reserved":false,"is_disabled":false,"rental_uris":{"android":"levelo://app?vid=d88e651e-69cf-42bd-9501-d7a4ef1413a7","ios":"levelo://app?vid=d88e651e-69cf-42bd-9501-d7a4ef1413a7"},"vehicle_type_id":"4","last_reported":1774620190,"current_range_meters":10000,"station_id":"ce4bhnp2rcd13ifvqgvg","pricing_plan_id":"cebpf4jnsgd1na2vs0mg"},{"bike_id":"8b78347a-a90f-4c11-bcd4-ff241074236e","system_id":"levelo_inurba_marseille","lat":43.27208,"lon":5.3919,"is_reserved":false,"is_disabled":false,"rental_uris":{"android":"levelo://app?vid=8b78347a-a90f-4c11-bcd4-ff241074236e","ios":"levelo://app?vid=8b78347a-a90f-4c11-bcd4-ff241074236e"},"vehicle_type_id":"4","last_reported":1774620190,"current_range_meters":10800,"station_id":"ce4bhhp2rcd13ifvqfm0","pricing_plan_id":"cebpf4jnsgd1na2vs0mg"},{"bike_id":"6b208cf5-e5c5-4351-8c3d-657e2c470e10","system_id":"levelo_inurba_marseille","lat":43.28984,"lon":5.37833,"is_reserved":false,"is_disabled":false,"rental_uris":{"android":"levelo://app?vid=6b208cf5-e5c5-4351-8c3d-657e2c470e10","ios":"levelo://app?vid=6b208cf5-e5c5-4351-8c3d-657e2c470e10"},"vehicle_type_id":"4","last_reported":1774620190,"current_range_meters":10800,"station_id":"ce4bh9p2rcd13ifvqed0","pricing_plan_id":"cebpf4jnsgd1na2vs0mg"},{"bike_id":"2f019591-3087-43f0-affb-e2eede13213e","system_id":"levelo_inurba_marseille","lat":43.24211,"lon":5.36636,"is_reserved":false,"is_disabled":false,"rental_uris":{"android":"levelo://app?vid=2f019591-3087-43f0-affb-e2eede13213e","ios":"levelo://app?vid=2f019591-3087-43f0-affb-e2eede13213e"},"vehicle_type_id":"4","last_reported":1774620190,"current_range_meters":10800,"station_id":"","pricing_plan_id":"cebpf4jnsgd1na2vs0mg"},{"bike_id":"7c1d1177-c9a4-4dd5-ac76-0a8f7ec6dffd","system_id":"levelo_inurba_marseille","lat":43.30927,"lon":5.40138,"is_reserved":false,"is_disabled":false,"rental_uris":{"android":"levelo://app?vid=7c1d1177-c9a4-4dd5-ac76-0a8f7ec6dffd","ios":"levelo://app?vid=7c1d1177-c9a4-4dd5-ac76-0a8f7ec6dffd"},"vehicle_type_id":"4","last_reported":1774620190,"current_range_meters":10800,"station_id":"ce4bgvp2rcd13ifvqct0","pricing_plan_id":"cebpf4jnsgd1na2vs0mg"},{"bike_id":"e6a00719-8fa7-4ff5-afde-dc7c6d069859","system_id":"levelo_inurba_marseille","lat":43.259,"lon":5.40869,"is_reserved":false,"is_disabled":false,"rental_uris":{"android":"levelo://app?vid=e6a00719-8fa7-4ff5-afde-dc7c6d069859","ios":"levelo://app?vid=e6a00719-8fa7-4ff5-afde-dc7c6d069859"},"vehicle_type_id":"4","last_reported":1774620190,"current_range_meters":10800,"station_id":"ce4bhm92rcd13ifvqglg","pricing_plan_id":"cebpf4jnsgd1na2vs0mg"},{"bike_id":"5f0e2e63-6578-427e-8bb8-467662733644","system_id":"levelo_inurba_marseille","lat":43.28927,"lon":5.383887,"is_reserved":false,"is_disabled":false,"rental_uris":{"android":"levelo://app?vid=5f0e2e63-6578-427e-8bb8-467662733644","ios":"levelo://app?vid=5f0e2e63-6578-427e-8bb8-467662733644"},"vehicle_type_id":"4","last_reported":1774620190,"current_range_meters":10800,"station_id":"ce4bh612rcd13ifvqe6g","pricing_plan_id":"cebpf4jnsgd1na2vs0mg"},{"bike_id":"729a6da4-6f27-4d44-8d7d-deea038f283e","system_id":"levelo_inurba_marseille","lat":43.33539,"lon":5.3747,"is_reserved":false,"is_disabled":false,"rental_uris":{"android":"levelo://app?vid=729a6da4-6f27-4d44-8d7d-deea038f283e","ios":"levelo://app?vid=729a6da4-6f27-4d44-8d7d-deea038f283e"},"vehicle_type_id":"4","last_reported":1774620190,"current_range_meters":10800,"station_id":"st_d46tts09ee8s73dlu43g","pricing_plan_id":"cebpf4jnsgd1na2vs0mg"},{"bike_id":"95bdcd75-27a7-404d-8d21-af6a409415cb","system_id":"levelo_inurba_marseille","lat":43.30581,"lon":5.37352,"is_reserved":false,"is_disabled":false,"rental_uris":{"android":"levelo://app?vid=95bdcd75-27a7-404d-8d21-af6a409415cb","ios":"levelo://app?vid=95bdcd75-27a7-404d-8d21-af6a409415cb"},"vehicle_type_id":"4","last_reported":1774620190,"current_range_meters":10800,"station_id":"","pricing_plan_id":"cebpf4jnsgd1na2vs0mg"},