{"last_updated":1715526456,"ttl":30,"version":"2.2","data":{"bikes":[{"bike_id":"951f3ea4-dc31-4a5e-b939-96f131e99a6b","system_id":"levelo_inurba_marseille","lat":43.3123,"lon":5.36855,"is_reserved":false,"is_disabled":false,"rental_uris":{"android":"levelo://app?vid=951f3ea4-dc31-4a5e-b939-96f131e99a6b","ios":"levelo://app?vid=951f3ea4-dc31-4a5e-b939-96f131e99a6b"},"vehicle_type_id":"4","last_reported":1715526456,"current_range_meters":23200,"station_id":"ce4bgl92rcd13ifvqbq0","pricing_plan_id":"cebpf4jnsgd1na2vs0mg"},{"bike_id":"b2d641ab-ddce-4a96-a9c6-a0aa65ab48ed","system_id":"levelo_inurba_marseille","lat":43.309076,"lon":5.368465,"is_reserved":false,"is_disabled":false,"rental_uris":{"android":"levelo://app?vid=b2d641ab-ddce-4a96-a9c6-a0aa65ab48ed","ios":"levelo://app?vid=b2d641ab-ddce-4a96-a9c6-a0aa65ab48ed"},"vehicle_type_id":"4","last_reported":1715526456,"current_range_meters":18000,"station_id":"ce4bgn92rcd13ifvqbvg","pricing_plan_id":"cebpf4jnsgd1na2vs0mg"},{"bike_id":"a8cbd74f-a37a-4285-83e8-8fe58abc6bcc","system_id":"levelo_inurba_marseille","lat":43.309076,"lon":5.368465,"is_reserved":false,"is_disabled":false,"rental_uris":{"android":"levelo://app?vid=a8cbd74f-a37a-4285-83e8-8fe58abc6bcc","ios":"levelo://app?vid=a8cbd74f-a37a-4285-83e8-8fe58abc6bcc"},"vehicle_type_id":"4","last_reported":1715526456,"current_range_meters":3200,"station_id":"ce4bgn92rcd13ifvqbvg","pricing_plan_id":"cebpf4jnsgd1na2vs0mg"},{"bike_id":"aa036b13-1755-42b2-90a6-e49fae6cfb6c","system_id":"levelo_inurba_marseille","lat":43.30902,"lon":5.36824,"is_reserved":false,"is_disabled":false,"rental_uris":{"android":"levelo://app?vid=aa036b13-1755-42b2-90a6-e49fae6cfb6c","ios":"levelo://app?vid=aa036b13-1755-42b2-90a6-e49fae6cfb6c"},"vehicle_type_id":"4","last_reported":1715526456,"current_range_meters":7200,"station_id":"ce4bgn92rcd13ifvqbvg","pricing_plan_id":"cebpf4jnsgd1na2vs0mg"},{"bike_id":"178d2ba6-4952-45f2-8a35-a23f8bab8e22","system_id":"levelo_inurba_marseille","lat":43.314811,"lon":5.373104,"is_reserved":false,"is_disabled":false,"rental_uris":{"android":"levelo://app?vid=178d2ba6-4952-45f2-8a35-a23f8bab8e22","ios":"levelo://app?vid=178d2ba6-4952-45f2-8a35-a23f8bab8e22"},"vehicle_type_id":"4","last_reported":1715526456,"current_range_meters":0,"station_id":"ce4bgt12rcd13ifvqcd0","pricing_plan_id":"cebpf4jnsgd1na2vs0mg"},{"bike_id":"19ae6126-2ed9-4c5f-9fcf-0c68de916594","system_id":"levelo_inurba_marseille","lat":43.309039,"lon":5.371797,"is_reserved":false,"is_disabled":false,"rental_uris":{"android":"levelo://app?vid=19ae6126-2ed9-4c5f-9fcf-0c68de916594","ios":"levelo://app?vid=19ae6126-2ed9-4c5f-9fcf-0c68de916594"},"vehicle_type_id":"4","last_reported":1715526456,"current_range_meters":14000,"station_id":"ce4bguh2rcd13ifvqckg","pricing_plan_id":"cebpf4jnsgd1na2vs0mg"},{"bike_id":"f83af7d5-6e6b-43c4-985d-c8a2bff38047","system_id":"levelo_inurba_marseille","lat":43.30588,"lon":5.3676,"is_reserved":false,"is_disabled":false,"rental_uris":{"android":"levelo://app?vid=f83af7d5-6e6b-43c4-985d-c8a2bff38047","ios":"levelo://app?vid=f83af7d5-6e6b-43c4-985d-c8a2bff38047"},"vehicle_type_id":"4","last_reported":1715526456,"current_range_meters":14400,"station_id":"","pricing_plan_id":"cebpf4jnsgd1na2vs0mg"},{"bike_id":"3c286da8-d696-4cfd-929a-dd259b6d1ae4","system_id":"levelo_inurba_marseille","lat":43.30545,"lon":5.3671,"is_reserved":false,"is_disabled":false,"rental_uris":{"android":"levelo://app?vid=3c286da8-d696-4cfd-929a-dd259b6d1ae4","ios":"levelo://app?vid=3c286da8-d696-4cfd-929a-dd259b6d1ae4"},"vehicle_type_id":"4","last_reported":1715526456,"current_range_meters":15200,"station_id":"ce4bgrp2rcd13ifvqc9g","pricing_plan_id":"cebpf4jnsgd1na2vs0mg"},{"bike_id":"029db4bb-e798-428e-bedb-a9ff4a1fcf4d","system_id":"levelo_inurba_marseille","lat":43.305714,"lon":5.365633,"is_reserved":false,"is_disabled":false,"rental_uris":{"android":"levelo://app?vid=029db4bb-e798-428e-bedb-a9ff4a1fcf4d","ios":"levelo://app?vid=029db4bb-e798-428e-bedb-a9ff4a1fcf4d"},"vehicle_type_id":"4","last_reported":1715526456,"current_range_meters":0,"station_id":"ce4bgs12rcd13ifvqcag","pricing_plan_id":"cebpf4jnsgd1na2vs0mg"},{"bike_id":"85afa59d-feaa-47f5-b7cd-759e2b27920a","system_id":"levelo_inurba_marseille","lat":43.30535,"lon":5.367,"is_reserved":false,"is_disabled":false,"rental_uris":{"android":"levelo://app?vid=85afa59d-feaa-47f5-b7cd-759e2b27920a","ios":"levelo://app?vid=85afa59d-feaa-47f5-b7cd-759e2b27920a"},"vehicle_type_id":"4","last_reported":1715526456,"current_range_meters":0,"station_id":"ce4bgrp2rcd13ifvqc9g","pricing_plan_id":"cebpf4jnsgd1na2vs0mg"},{"bike_id":"1d6a1b09-9758-4ee0-bec3-b79fe8b76cde","system_id":"levelo_inurba_marseille","lat":43.305714,"lon":5.365633,"is_reserved":false,"is_disabled":false,"rental_uris":{"android":"levelo://app?vid=1d6a1b09-9758-4ee0-bec3-b79fe8b76cde","ios":"levelo://app?vid=1d6a1b09-9758-4ee0-bec3-b79fe8b76cde"},"vehicle_type_id":"4","last_reported":1715526456,"current_range_meters":400,"station_id":"ce4bgs12rcd13ifvqcag","pricing_plan_id":"cebpf4jnsgd1na2vs0mg"},{"bike_id":"418658e0-aaf0-494a-9444-b05d7aacbf05","system_id":"levelo_inurba_marseille","lat":43.30533,"lon":5.36533,"is_reserved":false,"is_disabled":false,"rental_uris":{"android":"levelo://app?vid=418658e0-aaf0-494a-9444-b05d7aacbf05","ios":"levelo://app?vid=418658e0-aaf0-494a-9444-b05d7aacbf05"},"vehicle_type_id":"4","last_reported":1715526456,"current_range_meters":0,"station_id":"ce4bgs12rcd13ifvqcag","pricing_plan_id":"cebpf4jnsgd1na2vs0mg"},{"bike_id":"69104f1f-d2ea-4e1f-bbee-bd942b5c6c55","system_id":"levelo_inurba_marseille","lat":43.305989,"lon":5.37225,"is_reserved":false,"is_disabled":false,"rental_uris":{"android":"levelo://app?vid=69104f1f-d2ea-4e1f-bbee-bd942b5c6c55","ios":"levelo://app?vid=69104f1f-d2ea-4e1f-bbee-bd942b5c6c55"},"vehicle_type_id":"4","last_reported":1715526456,"current_range_meters":6400,"station_id":"ce4bgqh2rcd13ifvqc4g","pricing_plan_id":"cebpf4jnsgd1na2vs0mg"},{"bike_id":"7ae9df98-e55c-4324-92c2-4b08c405745c","system_id":"levelo_inurba_marseille","lat":43.305989,"lon":5.37225,"is_reserved":false,"is_disabled":false,"rental_uris":{"android":"levelo://app?vid=7ae9df98-e55c-4324-92c2-4b08c405745c","ios":"levelo://app?vid=7ae9df98-e55c-4324-92c2-4b08c405745c"},"vehicle_type_id":"4","last_reported":1715526456,"current_range_meters":10400,"station_id":"ce4bgqh2rcd13ifvqc4g","pricing_plan_id":"cebpf4jnsgd1na2vs0mg"},{"bike_id":"4a4e980a-b6c9-4dba-ad2d-319d51028bdb","system_id":"levelo_inurba_marseille","lat":43.305989,"lon":5.37225,"is_reserved":false,"is_disabled":false,"rental_uris":{"android":"levelo://app?vid=4a4e980a-b6c9-4dba-ad2d-319d51028bdb","ios":"levelo://app?vid=4a4e980a-b6c9-4dba-ad2d-319d51028bdb"},"vehicle_type_id":"4","last_reported":1715526456,"current_range_meters":7600,"station_id":"ce4bgqh2rcd13ifvqc4g","pricing_plan_id":"cebpf4jnsgd1na2vs0mg"},{"bike_id":"2428d98b-8f3e-48e1-9f74-3847a8ef08e5","system_id":"levelo_inurba_marseille","lat":43.305989,"lon":5.37225,"is_reserved":false,"is_disabled":false,"rental_uris":{"android":"levelo://app?vid=2428d98b-8f3e-48e1-9f74-3847a8ef08e5","ios":"levelo://app?vid=2428d98b-8f3e-48e1-9f74-3847a8ef08e5"},"vehicle_type_id":"4","last_reported":1715526456,"current_range_meters":14400,"station_id":"ce4bgqh2rcd13ifvqc4g","pricing_plan_id":"cebpf4jnsgd1na2vs0mg"},{"bike_id":"0aaed741-4901-4da4-ad24-6f3eab1d2d39","system_id":"levelo_inurba_marseille","lat":43.311125,"lon":5.377624,"is_reserved":false,"is_disabled":false,"rental_uris":{"android":"levelo://app?vid=0aaed741-4901-4da4-ad24-6f3eab1d2d39","ios":"levelo://app?vid=0aaed741-4901-4da4-ad24-6f3eab1d2d39"},"vehicle_type_id":"4","last_reported":1715526456,"current_range_meters":31200,"station_id":"ce4bgt92rcd13ifvqcg0","pricing_plan_id":"cebpf4jnsgd1na2vs0mg"},{"bike_id":"7f04f73f-373e-4809-8821-6fce7302850c","system_id":"levelo_inurba_marseille","lat":43.311131,"lon":5.377651,"is_reserved":false,"is_disabled":false,"rental_uris":{"android":"levelo://app?vid=7f04f73f-373e-4809-8821-6fce7302850c","ios":"levelo://app?vid=7f04f73f-373e-4809-8821-6fce7302850c"},"vehicle_type_id":"4","last_reported":1715526456,"current_range_meters":0,"station_id":"ce4bgt92rcd13ifvqcg0","pricing_plan_id":"cebpf4jnsgd1na2vs0mg"},{"bike_id":"935ac62d-b3fc-47b3-80fb-bfe54c3462b1","system_id":"levelo_inurba_marseille","lat":43.30792,"lon":5.37653,"is_reserved":false,"is_disabled":false,"rental_uris":{"android":"levelo://app?vid=935ac62d-b3fc-47b3-80fb-bfe54c3462b1","ios":"levelo://app?vid=935ac62d-b3fc-47b3-80fb-bfe54c3462b1"},"vehicle_type_id":"4","last_reported":1715526456,"current_range_meters":1200,"station_id":"ce4bgv92rcd13ifvqcq0","pricing_plan_id":"cebpf4jnsgd1na2vs0mg"},{"bike_id":"a8420d12-5ea1-4553-ba77-74153419b9a1","system_id":"levelo_inurba_marseille","lat":43.307945,"lon":5.376487,"is_reserved":false,"is_disabled":false,"rental_uris":{"android":"levelo://app?vid=a8420d12-5ea1-4553-ba77-74153419b9a1","ios":"levelo://app?vid=a8420d12-5ea1-4553-ba77-74153419b9a1"},"vehicle_type_id":"4","last_reported":1715526456,"current_range_meters":30800,"station_id":"ce4bgv92rcd13ifvqcq0","pricing_plan_id":"cebpf4jnsgd1na2vs0mg"},{"bike_id":"57e96d4e-aa35-4a7e-8ac8-a7cd46ff08fa","system_id":"levelo_inurba_marseille","lat":43.307945,"lon":5.376487,"is_reserved":false,"is_disabled":false,"rental_uris":{"android":"levelo://app?vid=57e96d4e-aa35-4a7e-8ac8-a7cd46ff08fa","ios":"levelo://app?vid=57e96d4e-aa35-4a7e-8ac8-a7cd46ff08fa"},"vehicle_type_id":"4","last_reported":1715526456,"current_range_meters":0,"station_id":"ce4bgv92rcd13ifvqcq0","pricing_plan_id":"cebpf4jnsgd1na2vs0mg"},{"bike_id":"4259765d-fc10-4220-8204-b9c0c5c51218","system_id":"levelo_inurba_marseille","lat":43.30271,"lon":5.37243,"is_reserved":false,"is_disabled":false,"rental_uris":{"android":"levelo://app?vid=4259765d-fc10-4220-8204-b9c0c5c51218","ios":"levelo://app?vid=4259765d-fc10-4220-8204-b9c0c5c51218"},"vehicle_type_id":"4","last_reported":1715526456,"current_range_meters":2800,"station_id":"","pricing_plan_id":"cebpf4jnsgd1na2vs0mg"},{"bike_id":"ad9eb328-7399-44b4-a39f-a00ef4afc3ad","system_id":"levelo_inurba_marseille","lat":43.308012,"lon":5.381511,"is_reserved":false,"is_disabled":false,"rental_uris":{"android":"levelo://app?vid=ad9eb328-7399-44b4-a39f-a00ef4afc3ad","ios":"levelo://app?vid=ad9eb328-7399-44b4-a39f-a00ef4afc3ad"},"vehicle_type_id":"4","last_reported":1715526456,"current_range_meters":18000,"station_id":"ce4bgt12rcd13ifvqce0","pricing_plan_id":"cebpf4jnsgd1na2vs0mg"},{"bike_id":"3c6f429f-a8af-4bfe-9fd8-9e9952d593f8","system_id":"levelo_inurba_marseille","lat":43.308012,"lon":5.381511,"is_reserved":false,"is_disabled":false,"rental_uris":{"android":"levelo://app?vid=3c6f429f-a8af-4bfe-9fd8-9e9952d593f8","ios":"levelo://app?vid=3c6f429f-a8af-4bfe-9fd8-9e9952d593f8"},"vehicle_type_id":"4","last_reported":1715526456,"current_range_meters":0,"station_id":"ce4bgt12rcd13ifvqce0","pricing_plan_id":"cebpf4jnsgd1na2vs0mg"},{"bike_id":"7ccc4a55-feda-4e10-b699-c8b9d1c277cf","system_id":"levelo_inurba_marseille","lat":43.308012,"lon":5.381511,"is_reserved":false,"is_disabled":false,"rental_uris":{"android":"levelo://app?vid=7ccc4a55-feda-4e10-b699-c8b9d1c277cf","ios":"levelo://app?vid=7ccc4a55-feda-4e10-b699-c8b9d1c277cf"},"vehicle_type_id":"4","last_reported":1715526456,"current_range_meters":2000,"station_id":"ce4bgt12rcd13ifvqce0","pricing_plan_id":"cebpf4jnsgd1na2vs0mg"},{"bike_id":"796c9281-4dd5-4a11-90a9-88c90104c146","system_id":"levelo_inurba_marseille","lat":43.308012,"lon":5.381511,"is_reserved":false,"is_disabled":false,"rental_uris":{"android":"levelo://app?vid=796c9281-4dd5-4a11-90a9-88c90104c146","ios":"levelo://app?vid=796c9281-4dd5-4a11-90a9-88c90104c146"},"vehicle_type_id":"4","last_reported":1715526456,"current_range_meters":0,"station_id":"ce4bgt12rcd13ifvqce0","pricing_plan_id":"cebpf4jnsgd1na2vs0mg"},{"bike_id":"72512764-a4ff-42c1-9251-55b4e7539130","system_id":"levelo_inurba_marseille","lat":43.304606,"lon":5.379026,"is_reserved":false,"is_disabled":false,"rental_uris":{"android":"levelo://app?vid=72512764-a4ff-42c1-9251-55b4e7539130","ios":"levelo://app?vid=72512764-a4ff-42c1-9251-55b4e7539130"},"vehicle_type_id":"4","last_reported":1715526456,"current_range_meters":400,"station_id":"ce4bgup2rcd13ifvqcn0","pricing_plan_id":"cebpf4jnsgd1na2vs0mg"},{"bike_id":"33bb99cd-9d4c-4321-a4bd-ce3531fa341d","system_id":"levelo_inurba_marseille","lat":43.304606,"lon":5.379026,"is_reserved":false,"is_disabled":false,"rental_uris":{"android":"levelo://app?vid=33bb99cd-9d4c-4321-a4bd-ce3531fa341d","ios":"levelo://app?vid=33bb99cd-9d4c-4321-a4bd-ce3531fa341d"},"vehicle_type_id":"4","last_reported":1715526456,"current_range_meters":5200,"station_id":"ce4bgup2rcd13ifvqcn0","pricing_plan_id":"cebpf4jnsgd1na2vs0mg"},{"bike_id":"03542f1e-b7be-485a-b348-c5e809db59ef","system_id":"levelo_inurba_marseille","lat":43.304606,"lon":5.379026,"is_reserved":false,"is_disabled":false,"rental_uris":{"android":"levelo://app?vid=03542f1e-b7be-485a-b348-c5e809db59ef","ios":"levelo://app?vid=03542f1e-b7be-485a-b348-c5e809db59ef"},"vehicle_type_id":"4","last_reported":1715526456,"current_range_meters":9200,"station_id":"ce4bgup2rcd13ifvqcn0","pricing_plan_id":"cebpf4jnsgd1na2vs0mg"},{"bike_id":"18d6ecb0-2219-4641-87c9-1a87b4637823","system_id":"levelo_inurba_marseille","lat":43.304606,"lon":5.379026,"is_reserved":false,"is_disabled":false,"rental_uris":{"android":"levelo://app?vid=18d6ecb0-2219-4641-87c9-1a87b4637823","ios":"levelo://app?vid=18d6ecb0-2219-4641-87c9-1a87b4637823"},"vehicle_type_id":"4","last_reported":1715526456,"current_range_meters":4000,"station_id":"ce4bgup2rcd13ifvqcn0","pricing_plan_id":"cebpf4jnsgd1na2vs0mg"},{"bike_id":"2eb8efae-998d-4db9-9cec-28b6feb747d2","system_id":"levelo_inurba_marseille","lat":43.295279,"lon":5.375048,"is_reserved":false,"is_disabled":false,"rental_uris":{"android":"levelo://app?vid=2eb8efae-998d-4db9-9cec-28b6feb747d2","ios":"levelo://app?vid=2eb8efae-998d-4db9-9cec-28b6feb747d2"},"vehicle_type_id":"4","last_reported":1715526456,"current_range_meters":17200,"station_id":"ce4bgkp2rcd13ifvqbmg","pricing_plan_id":"cebpf4jnsgd1na2vs0mg"},{"bike_id":"1e6367b5-91a8-4bd3-b801-c02be4f8c4fa","system_id":"levelo_inurba_marseille","lat":43.304606,"lon":5.379026,"is_reserved":false,"is_disabled":false,"rental_uris":{"android":"levelo://app?vid=1e6367b5-91a8-4bd3-b801-c02be4f8c4fa","ios":"levelo://app?vid=1e6367b5-91a8-4bd3-b801-c02be4f8c4fa"},"vehicle_type_id":"4","last_reported":1715526456,"current_range_meters":22000,"station_id":"ce4bgup2rcd13ifvqcn0","pricing_plan_id":"cebpf4jnsgd1na2vs0mg"},{"bike_id":"07a2b2e0-9c19-4d68-88a3-b8a3df84db4d","system_id":"levelo_inurba_marseille","lat":43.304606,"lon":5.379026,"is_reserved":false,"is_disabled":false,"rental_uris":{"android":"levelo://app?vid=07a2b2e0-9c19-4d68-88a3-b8a3df84db4d","ios":"levelo://app?vid=07a2b2e0-9c19-4d68-88a3-b8a3df84db4d"},"vehicle_type_id":"4","last_reported":1715526456,"current_range_meters":17600,"station_id":"ce4bgup2rcd13ifvqcn0","pricing_plan_id":"cebpf4jnsgd1na2vs0mg"},{"bike_id":"b477d686-c217-4fd8-853d-78a541c0c23e","system_id":"levelo_inurba_marseille","lat":43.324743,"lon":5.36553,"is_reserved":false,"is_disabled":false,"rental_uris":{"android":"levelo://app?vid=b477d686-c217-4fd8-853d-78a541c0c23e","ios":"levelo://app?vid=b477d686-c217-4fd8-853d-78a541c0c23e"},"vehicle_type_id":"4","last_reported":1715526456,"current_range_meters":15600,"station_id":"ce4bhs12rcd13ifvqhvg","pricing_plan_id":"cebpf4jnsgd1na2vs0mg"},{"bike_id":"4eb37566-cfb5-4c86-a3ea-ad0e279d9efa","system_id":"levelo_inurba_marseille","lat":43.324771,"lon":5.36557,"is_reserved":false,"is_disabled":false,"rental_uris":{"android":"levelo://app?vid=4eb37566-cfb5-4c86-a3ea-ad0e279d9efa","ios":"levelo://app?vid=4eb37566-cfb5-4c86-a3ea-ad0e279d9efa"},"vehicle_type_id":"4","last_reported":1715526456,"current_range_meters":22800,"station_id":"ce4bhs12rcd13ifvqhvg","pricing_plan_id":"cebpf4jnsgd1na2vs0mg"},{"bike_id":"43671154-6e2a-41f7-a74e-cc016c296fcd","system_id":"levelo_inurba_marseille","lat":43.324771,"lon":5.36557,"is_reserved":false,"is_disabled":false,"rental_uris":{"android":"levelo://app?vid=43671154-6e2a-41f7-a74e-cc016c296fcd","ios":"levelo://app?vid=43671154-6e2a-41f7-a74e-cc016c296fcd"},"vehicle_type_id":"4","last_reported":1715526456,"current_range_meters":26000,"station_id":"ce4bhs12rcd13ifvqhvg","pricing_plan_id":"cebpf4jnsgd1na2vs0mg"},{"bike_id":"e462428f-8777-46bf-be71-6ec0eeb2736e","system_id":"levelo_inurba_marseille","lat":43.324771,"lon":5.36557,"is_reserved":false,"is_disabled":false,"rental_uris":{"android":"levelo://app?vid=e462428f-8777-46bf-be71-6ec0eeb2736e","ios":"levelo://app?vid=e462428f-8777-46bf-be71-6ec0eeb2736e"},"vehicle_type_id":"4","last_reported":1715526456,"current_range_meters":12000,"station_id":"ce4bhs12rcd13ifvqhvg","pricing_plan_id":"cebpf4jnsgd1na2vs0mg"},{"bike_id":"e4e831c8-6d49-4519-885d-bf4011f15c52","system_id":"levelo_inurba_marseille","lat":43.324771,"lon":5.36557,"is_reserved":false,"is_disabled":false,"rental_uris":{"android":"levelo://app?vid=e4e831c8-6d49-4519-885d-bf4011f15c52","ios":"levelo://app?vid=e4e831c8-6d49-4519-885d-bf4011f15c52"},"vehicle_type_id":"4","last_reported":1715526456,"current_range_meters":16800,"station_id":"ce4bhs12rcd13ifvqhvg","pricing_plan_id":"cebpf4jnsgd1na2vs0mg"},{"bike_id":"1d3de0b0-7934-4fcc-b39a-497c4cf68f7b","system_id":"levelo_inurba_marseille","lat":43.324771,"lon":5.36557,"is_reserved":false,"is_disabled":false,"rental_uris":{"android":"levelo://app?vid=1d3de0b0-7934-4fcc-b39a-497c4cf68f7b","ios":"levelo://app?vid=1d3de0b0-7934-4fcc-b39a-497c4cf68f7b"},"vehicle_type_id":"4","last_reported":1715526456,"current_range_meters":21600,"station_id":"ce4bhs12rcd13ifvqhvg","pricing_plan_id":"cebpf4jnsgd1na2vs0mg"},{"bike_id":"27864151-07c6-46e0-bb7f-76413df57206","system_id":"levelo_inurba_marseille","lat":43.324815,"lon":5.365674,"is_reserved":false,"is_disabled":false,"rental_uris":{"android":"levelo://app?vid=27864151-07c6-46e0-bb7f-76413df57206","ios":"levelo://app?vid=27864151-07c6-46e0-bb7f-76413df57206"},"vehicle_type_id":"4","last_reported":1715526456,"current_range_meters":16000,"station_id":"ce4bhs12rcd13ifvqhvg","pricing_plan_id":"cebpf4jnsgd1na2vs0mg"},{"bike_id":"b0ae57a5-47d8-43f1-a382-5843f5a2c0bd","system_id":"levelo_inurba_marseille","lat":43.324771,"lon":5.36557,"is_reserved":false,"is_disabled":false,"rental_uris":{"android":"levelo://app?vid=b0ae57a5-47d8-43f1-a382-5843f5a2c0bd","ios":"levelo://app?vid=b0ae57a5-47d8-43f1-a382-5843f5a2c0bd"},"vehicle_type_id":"4","last_reported":1715526456,"current_range_meters":1600,"station_id":"ce4bhs12rcd13ifvqhvg","pricing_plan_id":"cebpf4jnsgd1na2vs0mg"},{"bike_id":"4a9a9665-1cd2-49ce-8806-5d25ff857789","system_id":"levelo_inurba_marseille","lat":43.324771,"lon":5.36557,"is_reserved":false,"is_disabled":false,"rental_uris":{"android":"levelo://app?vid=4a9a9665-1cd2-49ce-8806-5d25ff857789","ios":"levelo://app?vid=4a9a9665-1cd2-49ce-8806-5d25ff857789"},"vehicle_type_id":"4","last_reported":1715526456,"current_range_meters":17200,"station_id":"ce4bhs12rcd13ifvqhvg","pricing_plan_id":"cebpf4jnsgd1na2vs0mg"},{"bike_id":"c2967a07-fead-49a6-b92b-cc14a2db3f25","system_id":"levelo_inurba_marseille","lat":43.32484,"lon":5.36562,"is_reserved":false,"is_disabled":false,"rental_uris":{"android":"levelo://app?vid=c2967a07-fead-49a6-b92b-cc14a2db3f25","ios":"levelo://app?vid=c2967a07-fead-49a6-b92b-cc14a2db3f25"},"vehicle_type_id":"4","last_reported":1715526456,"current_range_meters":21200,"station_id":"ce4bhs12rcd13ifvqhvg","pricing_plan_id":"cebpf4jnsgd1na2vs0mg"},{"bike_id":"ab294a79-14d3-426e-b97b-f105f6a1e37c","system_id":"levelo_inurba_marseille","lat":43.32484,"lon":5.36556,"is_reserved":false,"is_disabled":false,"rental_uris":{"android":"levelo://app?vid=ab294a79-14d3-426e-b97b-f105f6a1e37c","ios":"levelo://app?vid=ab294a79-14d3-426e-b97b-f105f6a1e37c"},"vehicle_type_id":"4","last_reported":1715526456,"current_range_meters":28400,"station_id":"ce4bhs12rcd13ifvqhvg","pricing_plan_id":"cebpf4jnsgd1na2vs0mg"},{"bike_id":"7279300e-a5c4-4f3b-858a-e2bd296be7c9","system_id":"levelo_inurba_marseille","lat":43.324771,"lon":5.36557,"is_reserved":false,"is_disabled":false,"rental_uris":{"android":"levelo://app?vid=7279300e-a5c4-4f3b-858a-e2bd296be7c9","ios":"levelo://app?vid=7279300e-a5c4-4f3b-858a-e2bd296be7c9"},"vehicle_type_id":"4","last_reported":1715526456,"current_range_meters":14400,"station_id":"ce4bhs12rcd13ifvqhvg","pricing_plan_id":"cebpf4jnsgd1na2vs0mg"},{"bike_id":"e2f8da93-8607-4a06-8f2f-4791fd350ebf","system_id":"levelo_inurba_marseille","lat":43.32485,"lon":5.365618,"is_reserved":false,"is_disabled":false,"rental_uris":{"android":"levelo://app?vid=e2f8da93-8607-4a06-8f2f-4791fd350ebf","ios":"levelo://app?vid=e2f8da93-8607-4a06-8f2f-4791fd350ebf"},"vehicle_type_id":"4","last_reported":1715526456,"current_range_meters":28800,"station_id":"ce4bhs12rcd13ifvqhvg","pricing_plan_id":"cebpf4jnsgd1na2vs0mg"},{"bike_id":"2f81e671-1739-436d-91c6-ad36d0da1df3","system_id":"levelo_inurba_marseille","lat":43.32486,"lon":5.36565,"is_reserved":false,"is_disabled":false,"rental_uris":{"android":"levelo://app?vid=2f81e671-1739-436d-91c6-ad36d0da1df3","ios":"levelo://app?vid=2f81e671-1739-436d-91c6-ad36d0da1df3"},"vehicle_type_id":"4","last_reported":1715526456,"current_range_meters":16800,"station_id":"ce4bhs12rcd13ifvqhvg","pricing_plan_id":"cebpf4jnsgd1na2vs0mg"},{"bike_id":"237b19c4-af93-4f0b-8df7-a29b40704832","system_id":"levelo_inurba_marseille","lat":43.324771,"lon":5.36557,"is_reserved":false,"is_disabled":false,"rental_uris":{"android":"levelo://app?vid=237b19c4-af93-4f0b-8df7-a29b40704832","ios":"levelo://app?vid=237b19c4-af93-4f0b-8df7-a29b40704832"},"vehicle_type_id":"4","last_reported":1715526456,"current_range_meters":28400,"station_id":"ce4bhs12rcd13ifvqhvg","pricing_plan_id":"cebpf4jnsgd1na2vs0mg"},{"bike_id":"de363a9b-b8dd-4f25-97c4-05ca23eea0b0","system_id":"levelo_inurba_marseille","lat":43.32488,"lon":5.3656,"is_reserved":false,"is_disabled":false,"rental_uris":{"android":"levelo://app?vid=de363a9b-b8dd-4f25-97c4-05ca23eea0b0","ios":"levelo://app?vid=de363a9b-b8dd-4f25-97c4-05ca23eea0b0"},"vehicle_type_id":"4","last_reported":1715526456,"current_range_meters":26800,"station_id":"ce4bhs12rcd13ifvqhvg","pricing_plan_id":"cebpf4jnsgd1na2vs0mg"},{"bike_id":"95be7eec-6d0a-4aad-9f65-fae7e6aa2670","system_id":"levelo_inurba_marseille","lat":43.302784,"lon":5.377158,"is_reserved":false,"is_disabled":false,"rental_uris":{"android":"levelo://app?vid=95be7eec-6d0a-4aad-9f65-fae7e6aa2670","ios":"levelo://app?vid=95be7eec-6d0a-4aad-9f65-fae7e6aa2670"},"vehicle_type_id":"4","last_reported":1715526456,"current_range_meters":26000,"station_id":"ce4bguh2rcd13ifvqcj0","pricing_plan_id":"cebpf4jnsgd1na2vs0mg"},{"bike_id":"196ceaae-0409-47b1-9857-cce97032ff3c","system_id":"levelo_inurba_marseille","lat":43.30148,"lon":5.37413,"is_reserved":false,"is_disabled":false,"rental_uris":{"android":"levelo://app?vid=196ceaae-0409-47b1-9857-cce97032ff3c","ios":"levelo://app?vid=196ceaae-0409-47b1-9857-cce97032ff3c"},"vehicle_type_id":"4","last_reported":1715526456,"current_range_meters":0,"station_id":"ce4bgs92rcd13ifvqcc0","pricing_plan_id":"cebpf4jnsgd1na2vs0mg"},{"bike_id":"e895bad7-f22c-400e-a4b1-917d9002e35e","system_id":"levelo_inurba_marseille","lat":43.301429,"lon":5.37413,"is_reserved":false,"is_disabled":false,"rental_uris":{"android":"levelo://app?vid=e895bad7-f22c-400e-a4b1-917d9002e35e","ios":"levelo://app?vid=e895bad7-f22c-400e-a4b1-917d9002e35e"},"vehicle_type_id":"4","last_reported":1715526456,"current_range_meters":6000,"station_id":"ce4bgs92rcd13ifvqcc0","pricing_plan_id":"cebpf4jnsgd1na2vs0mg"},{"bike_id":"7ab1036d-b6e3-46a2-9797-b968a0eec0b7","system_id":"levelo_inurba_marseille","lat":43.302784,"lon":5.377158,"is_reserved":false,"is_disabled":false,"rental_uris":{"android":"levelo://app?vid=7ab1036d-b6e3-46a2-9797-b968a0eec0b7","ios":"levelo://app?vid=7ab1036d-b6e3-46a2-9797-b968a0eec0b7"},"vehicle_type_id":"4","last_reported":1715526456,"current_range_meters":21600,"station_id":"ce4bguh2rcd13ifvqcj0","pricing_plan_id":"cebpf4jnsgd1na2vs0mg"},{"bike_id":"9f65b786-092d-448d-9c8b-f93a7f73c71f","system_id":"levelo_inurba_marseille","lat":43.319937,"lon":5.381413,"is_reserved":false,"is_disabled":false,"rental_uris":{"android":"levelo://app?vid=9f65b786-092d-448d-9c8b-f93a7f73c71f","ios":"levelo://app?vid=9f65b786-092d-448d-9c8b-f93a7f73c71f"},"vehicle_type_id":"4","last_reported":1715526456,"current_range_meters":17200,"station_id":"ce4bhr12rcd13ifvqhpg","pricing_plan_id":"cebpf4jnsgd1na2vs0mg"},{"bike_id":"4c69e07c-40e7-4d5a-a3b3-7098b34e1126","system_id":"levelo_inurba_marseille","lat":43.319935,"lon":5.381699,"is_reserved":false,"is_disabled":false,"rental_uris":{"android":"levelo://app?vid=4c69e07c-40e7-4d5a-a3b3-7098b34e1126","ios":"levelo://app?vid=4c69e07c-40e7-4d5a-a3b3-7098b34e1126"},"vehicle_type_id":"4","last_reported":1715526456,"current_range_meters":28800,"station_id":"ce4bhr12rcd13ifvqhpg","pricing_plan_id":"cebpf4jnsgd1na2vs0mg"},{"bike_id":"f5616b74-cb19-4982-b863-d48328fd8472","system_id":"levelo_inurba_marseille","lat":43.31994,"lon":5.38152,"is_reserved":false,"is_disabled":false,"rental_uris":{"android":"levelo://app?vid=f5616b74-cb19-4982-b863-d48328fd8472","ios":"levelo://app?vid=f5616b74-cb19-4982-b863-d48328fd8472"},"vehicle_type_id":"4","last_reported":1715526456,"current_range_meters":22400,"station_id":"ce4bhr12rcd13ifvqhpg","pricing_plan_id":"cebpf4jnsgd1na2vs0mg"},{"bike_id":"45dacf4a-dfa7-425a-ac1a-0987940b389c","system_id":"levelo_inurba_marseille","lat":43.313571,"lon":5.384829,"is_reserved":false,"is_disabled":false,"rental_uris":{"android":"levelo://app?vid=45dacf4a-dfa7-425a-ac1a-0987940b389c","ios":"levelo://app?vid=45dacf4a-dfa7-425a-ac1a-0987940b389c"},"vehicle_type_id":"4","last_reported":1715526456,"current_range_meters":13600,"station_id":"ce4bgt92rcd13ifvqcf0","pricing_plan_id":"cebpf4jnsgd1na2vs0mg"},{"bike_id":"719832c4-7c74-4036-b20e-bfd0c00021d9","system_id":"levelo_inurba_marseille","lat":43.313571,"lon":5.384829,"is_reserved":false,"is_disabled":false,"rental_uris":{"android":"levelo://app?vid=719832c4-7c74-4036-b20e-bfd0c00021d9","ios":"levelo://app?vid=719832c4-7c74-4036-b20e-bfd0c00021d9"},"vehicle_type_id":"4","last_reported":1715526456,"current_range_meters":8800,"station_id":"ce4bgt92rcd13ifvqcf0","pricing_plan_id":"cebpf4jnsgd1na2vs0mg"},{"bike_id":"a7e23747-de56-41a8-91a6-5654419e78cb","system_id":"levelo_inurba_marseille","lat":43.313571,"lon":5.384829,"is_reserved":false,"is_disabled":false,"rental_uris":{"android":"levelo://app?vid=a7e23747-de56-41a8-91a6-5654419e78cb","ios":"levelo://app?vid=a7e23747-de56-41a8-91a6-5654419e78cb"},"vehicle_type_id":"4","last_reported":1715526456,"current_range_meters":11200,"station_id":"ce4bgt92rcd13ifvqcf0","pricing_plan_id":"cebpf4jnsgd1na2vs0mg"},{"bike_id":"1ac2e789-39ac-4144-8680-5c6022f16f8e","system_id":"levelo_inurba_marseille","lat":43.313571,"lon":5.384829,"is_reserved":false,"is_disabled":false,"rental_uris":{"android":"levelo://app?vid=1ac2e789-39ac-4144-8680-5c6022f16f8e","ios":"levelo://app?vid=1ac2e789-39ac-4144-8680-5c6022f16f8e"},"vehicle_type_id":"4","last_reported":1715526456,"current_range_meters":24800,"station_id":"ce4bgt92rcd13ifvqcf0","pricing_plan_id":"cebpf4jnsgd1na2vs0mg"},{"bike_id":"3d6ce829-ac02-4d06-9243-13ba2eecc767","system_id":"levelo_inurba_marseille","lat":43.313571,"lon":5.384829,"is_reserved":false,"is_disabled":false,"rental_uris":{"android":"levelo://app?vid=3d6ce829-ac02-4d06-9243-13ba2eecc767","ios":"levelo://app?vid=3d6ce829-ac02-4d06-9243-13ba2eecc767"},"vehicle_type_id":"4","last_reported":1715526456,"current_range_meters":10800,"station_id":"ce4bgt92rcd13ifvqcf0","pricing_plan_id":"cebpf4jnsgd1na2vs0mg"},{"bike_id":"11babac5-d1fb-4a77-840b-8af5ecfa4e6c","system_id":"levelo_inurba_marseille","lat":43.313571,"lon":5.384829,"is_reserved":false,"is_disabled":false,"rental_uris":{"android":"levelo://app?vid=11babac5-d1fb-4a77-840b-8af5ecfa4e6c","ios":"levelo://app?vid=11babac5-d1fb-4a77-840b-8af5ecfa4e6c"},"vehicle_type_id":"4","last_reported":1715526456,"current_range_meters":18800,"station_id":"ce4bgt92rcd13ifvqcf0","pricing_plan_id":"cebpf4jnsgd1na2vs0mg"},{"bike_id":"1b5e4448-7467-4dc3-b367-5fc78b174370","system_id":"levelo_inurba_marseille","lat":43.29985,"lon":5.37173,"is_reserved":false,"is_disabled":false,"rental_uris":{"android":"levelo://app?vid=1b5e4448-7467-4dc3-b367-5fc78b174370","ios":"levelo://app?vid=1b5e4448-7467-4dc3-b367-5fc78b174370"},"vehicle_type_id":"4","last_reported":1715526456,"current_range_meters":0,"station_id":"ce4bgr92rcd13ifvqc7g","pricing_plan_id":"cebpf4jnsgd1na2vs0mg"},{"bike_id":"f3c2fb8f-c62d-42ec-9eb9-b588c3c240da","system_id":"levelo_inurba_marseille","lat":43.29975,"lon":5.3717,"is_reserved":false,"is_disabled":false,"rental_uris":{"android":"levelo://app?vid=f3c2fb8f-c62d-42ec-9eb9-b588c3c240da","ios":"levelo://app?vid=f3c2fb8f-c62d-42ec-9eb9-b588c3c240da"},"vehicle_type_id":"4","last_reported":1715526456,"current_range_meters":0,"station_id":"ce4bgr92rcd13ifvqc7g","pricing_plan_id":"cebpf4jnsgd1na2vs0mg"},{"bike_id":"df2c9294-fae7-4b7d-a322-c2028fb28c2a","system_id":"levelo_inurba_marseille","lat":43.29963,"lon":5.37171,"is_reserved":false,"is_disabled":false,"rental_uris":{"android":"levelo://app?vid=df2c9294-fae7-4b7d-a322-c2028fb28c2a","ios":"levelo://app?vid=df2c9294-fae7-4b7d-a322-c2028fb28c2a"},"vehicle_type_id":"4","last_reported":1715526456,"current_range_meters":2800,"station_id":"ce4bgr92rcd13ifvqc7g","pricing_plan_id":"cebpf4jnsgd1na2vs0mg"},{"bike_id":"d7a995e3-c4eb-4fe1-b625-34eca753a63e","system_id":"levelo_inurba_marseille","lat":43.313571,"lon":5.384829,"is_reserved":false,"is_disabled":false,"rental_uris":{"android":"levelo://app?vid=d7a995e3-c4eb-4fe1-b625-34eca753a63e","ios":"levelo://app?vid=d7a995e3-c4eb-4fe1-b625-34eca753a63e"},"vehicle_type_id":"4","last_reported":1715526456,"current_range_meters":4000,"station_id":"ce4bgt92rcd13ifvqcf0","pricing_plan_id":"cebpf4jnsgd1na2vs0mg"},{"bike_id":"1cda9444-8753-483a-897c-176ac1098a5a","system_id":"levelo_inurba_marseille","lat":43.30556,"lon":5.38405,"is_reserved":false,"is_disabled":false,"rental_uris":{"android":"levelo://app?vid=1cda9444-8753-483a-897c-176ac1098a5a","ios":"levelo://app?vid=1cda9444-8753-483a-897c-176ac1098a5a"},"vehicle_type_id":"4","last_reported":1715526456,"current_range_meters":16400,"station_id":"","pricing_plan_id":"cebpf4jnsgd1na2vs0mg"},{"bike_id":"f3045bd5-4bbc-442f-b9dc-a50aa0781544","system_id":"levelo_inurba_marseille","lat":43.298433,"lon":5.362774,"is_reserved":false,"is_disabled":false,"rental_uris":{"android":"levelo://app?vid=f3045bd5-4bbc-442f-b9dc-a50aa0781544","ios":"levelo://app?vid=f3045bd5-4bbc-442f-b9dc-a50aa0781544"},"vehicle_type_id":"4","last_reported":1715526456,"current_range_meters":29600,"station_id":"ce4bgpp2rcd13ifvqc3g","pricing_plan_id":"cebpf4jnsgd1na2vs0mg"},{"bike_id":"3eceaa48-52f0-4b0b-901a-a07d334d7aaf","system_id":"levelo_inurba_marseille","lat":43.298433,"lon":5.362774,"is_reserved":false,"is_disabled":false,"rental_uris":{"android":"levelo://app?vid=3eceaa48-52f0-4b0b-901a-a07d334d7aaf","ios":"levelo://app?vid=3eceaa48-52f0-4b0b-901a-a07d334d7aaf"},"vehicle_type_id":"4","last_reported":1715526456,"current_range_meters":4800,"station_id":"ce4bgpp2rcd13ifvqc3g","pricing_plan_id":"cebpf4jnsgd1na2vs0mg"},{"bike_id":"9b390050-c35b-4187-80ef-26ad1ebdd8ba","system_id":"levelo_inurba_marseille","lat":43.298433,"lon":5.362774,"is_reserved":false,"is_disabled":false,"rental_uris":{"android":"levelo://app?vid=9b390050-c35b-4187-80ef-26ad1ebdd8ba","ios":"levelo://app?vid=9b390050-c35b-4187-80ef-26ad1ebdd8ba"},"vehicle_type_id":"4","last_reported":1715526456,"current_range_meters":8800,"station_id":"ce4bgpp2rcd13ifvqc3g","pricing_plan_id":"cebpf4jnsgd1na2vs0mg"},{"bike_id":"3f2161d7-40eb-4445-b0d6-8a74975f87a6","system_id":"levelo_inurba_marseille","lat":43.311722,"lon":5.387247,"is_reserved":false,"is_disabled":false,"rental_uris":{"android":"levelo://app?vid=3f2161d7-40eb-4445-b0d6-8a74975f87a6","ios":"levelo://app?vid=3f2161d7-40eb-4445-b0d6-8a74975f87a6"},"vehicle_type_id":"4","last_reported":1715526456,"current_range_meters":22000,"station_id":"ce4bgv12rcd13ifvqcp0","pricing_plan_id":"cebpf4jnsgd1na2vs0mg"},{"bike_id":"699c83ec-e98a-4262-a750-a3c28e896d3a","system_id":"levelo_inurba_marseille","lat":43.311722,"lon":5.387247,"is_reserved":false,"is_disabled":false,"rental_uris":{"android":"levelo://app?vid=699c83ec-e98a-4262-a750-a3c28e896d3a","ios":"levelo://app?vid=699c83ec-e98a-4262-a750-a3c28e896d3a"},"vehicle_type_id":"4","last_reported":1715526456,"current_range_meters":0,"station_id":"ce4bgv12rcd13ifvqcp0","pricing_plan_id":"cebpf4jnsgd1na2vs0mg"},{"bike_id":"bef45d41-4fd8-4270-828e-faa2e6c62347","system_id":"levelo_inurba_marseille","lat":43.311722,"lon":5.387247,"is_reserved":false,"is_disabled":false,"rental_uris":{"android":"levelo://app?vid=bef45d41-4fd8-4270-828e-faa2e6c62347","ios":"levelo://app?vid=bef45d41-4fd8-4270-828e-faa2e6c62347"},"vehicle_type_id":"4","last_reported":1715526456,"current_range_meters":18000,"station_id":"ce4bgv12rcd13ifvqcp0","pricing_plan_id":"cebpf4jnsgd1na2vs0mg"},{"bike_id":"d609bc40-b31b-454b-bf27-f392585ddca5","system_id":"levelo_inurba_marseille","lat":43.322872,"lon":5.382756,"is_reserved":false,"is_disabled":false,"rental_uris":{"android":"levelo://app?vid=d609bc40-b31b-454b-bf27-f392585ddca5","ios":"levelo://app?vid=d609bc40-b31b-454b-bf27-f392585ddca5"},"vehicle_type_id":"4","last_reported":1715526456,"current_range_meters":27200,"station_id":"ce4bhr12rcd13ifvqhqg","pricing_plan_id":"cebpf4jnsgd1na2vs0mg"},{"bike_id":"451344ee-ad8d-42c5-b280-d01f3717c574","system_id":"levelo_inurba_marseille","lat":43.322872,"lon":5.382756,"is_reserved":false,"is_disabled":false,"rental_uris":{"android":"levelo://app?vid=451344ee-ad8d-42c5-b280-d01f3717c574","ios":"levelo://app?vid=451344ee-ad8d-42c5-b280-d01f3717c574"},"vehicle_type_id":"4","last_reported":1715526456,"current_range_meters":30000,"station_id":"ce4bhr12rcd13ifvqhqg","pricing_plan_id":"cebpf4jnsgd1na2vs0mg"},{"bike_id":"38b1639f-0b7b-4041-8f45-51cfa44eaefb","system_id":"levelo_inurba_marseille","lat":43.297163,"lon":5.365866,"is_reserved":false,"is_disabled":false,"rental_uris":{"android":"levelo://app?vid=38b1639f-0b7b-4041-8f45-51cfa44eaefb","ios":"levelo://app?vid=38b1639f-0b7b-4041-8f45-51cfa44eaefb"},"vehicle_type_id":"4","last_reported":1715526456,"current_range_meters":0,"station_id":"ce4bgn12rcd13ifvqbt0","pricing_plan_id":"cebpf4jnsgd1na2vs0mg"},{"bike_id":"89cb6cf2-9082-4d7c-b6a9-18ed1b403fe0","system_id":"levelo_inurba_marseille","lat":43.297163,"lon":5.365866,"is_reserved":false,"is_disabled":false,"rental_uris":{"android":"levelo://app?vid=89cb6cf2-9082-4d7c-b6a9-18ed1b403fe0","ios":"levelo://app?vid=89cb6cf2-9082-4d7c-b6a9-18ed1b403fe0"},"vehicle_type_id":"4","last_reported":1715526456,"current_range_meters":0,"station_id":"ce4bgn12rcd13ifvqbt0","pricing_plan_id":"cebpf4jnsgd1na2vs0mg"},{"bike_id":"ab368792-9e2c-480e-bae0-d85f5dc30447","system_id":"levelo_inurba_marseille","lat":43.2968,"lon":5.37291,"is_reserved":false,"is_disabled":false,"rental_uris":{"android":"levelo://app?vid=ab368792-9e2c-480e-bae0-d85f5dc30447","ios":"levelo://app?vid=ab368792-9e2c-480e-bae0-d85f5dc30447"},"vehicle_type_id":"4","last_reported":1715526456,"current_range_meters":2000,"station_id":"ce4bgk12rcd13ifvqbj0","pricing_plan_id":"cebpf4jnsgd1na2vs0mg"},{"bike_id":"2af778cd-d3d3-41f8-9a99-5f6ba3e0b144","system_id":"levelo_inurba_marseille","lat":43.296129,"lon":5.370777,"is_reserved":false,"is_disabled":false,"rental_uris":{"android":"levelo://app?vid=2af778cd-d3d3-41f8-9a99-5f6ba3e0b144","ios":"levelo://app?vid=2af778cd-d3d3-41f8-9a99-5f6ba3e0b144"},"vehicle_type_id":"4","last_reported":1715526456,"current_range_meters":24000,"station_id":"ce4bgnh2rcd13ifvqc0g","pricing_plan_id":"cebpf4jnsgd1na2vs0mg"},{"bike_id":"b597341d-f9b9-4bb8-b4db-8887dcbc42db","system_id":"levelo_inurba_marseille","lat":43.296129,"lon":5.370777,"is_reserved":false,"is_disabled":false,"rental_uris":{"android":"levelo://app?vid=b597341d-f9b9-4bb8-b4db-8887dcbc42db","ios":"levelo://app?vid=b597341d-f9b9-4bb8-b4db-8887dcbc42db"},"vehicle_type_id":"4","last_reported":1715526456,"current_range_meters":19200,"station_id":"ce4bgnh2rcd13ifvqc0g","pricing_plan_id":"cebpf4jnsgd1na2vs0mg"},{"bike_id":"09f71c91-bb69-4f53-a633-0d94d764997c","system_id":"levelo_inurba_marseille","lat":43.296131,"lon":5.370773,"is_reserved":false,"is_disabled":false,"rental_uris":{"android":"levelo://app?vid=09f71c91-bb69-4f53-a633-0d94d764997c","ios":"levelo://app?vid=09f71c91-bb69-4f53-a633-0d94d764997c"},"vehicle_type_id":"4","last_reported":1715526456,"current_range_meters":4400,"station_id":"ce4bgnh2rcd13ifvqc0g","pricing_plan_id":"cebpf4jnsgd1na2vs0mg"},{"bike_id":"a55053ef-3a97-4291-ad36-79740f328853","system_id":"levelo_inurba_marseille","lat":43.296129,"lon":5.370777,"is_reserved":false,"is_disabled":false,"rental_uris":{"android":"levelo://app?vid=a55053ef-3a97-4291-ad36-79740f328853","ios":"levelo://app?vid=a55053ef-3a97-4291-ad36-79740f328853"},"vehicle_type_id":"4","last_reported":1715526456,"current_range_meters":400,"station_id":"ce4bgnh2rcd13ifvqc0g","pricing_plan_id":"cebpf4jnsgd1na2vs0mg"},{"bike_id":"8ff27a70-8b30-493c-a12c-7fef75db9682","system_id":"levelo_inurba_marseille","lat":43.29734,"lon":5.37684,"is_reserved":false,"is_disabled":false,"rental_uris":{"android":"levelo://app?vid=8ff27a70-8b30-493c-a12c-7fef75db9682","ios":"levelo://app?vid=8ff27a70-8b30-493c-a12c-7fef75db9682"},"vehicle_type_id":"4","last_reported":1715526456,"current_range_meters":0,"station_id":"ce4bgkh2rcd13ifvqbl0","pricing_plan_id":"cebpf4jnsgd1na2vs0mg"},{"bike_id":"b04bec95-6c6a-4600-976f-f23ecfbbab48","system_id":"levelo_inurba_marseille","lat":43.32887,"lon":5.3591,"is_reserved":false,"is_disabled":false,"rental_uris":{"android":"levelo://app?vid=b04bec95-6c6a-4600-976f-f23ecfbbab48","ios":"levelo://app?vid=b04bec95-6c6a-4600-976f-f23ecfbbab48"},"vehicle_type_id":"4","last_reported":1715526456,"current_range_meters":400,"station_id":"","pricing_plan_id":"cebpf4jnsgd1na2vs0mg"},{"bike_id":"61dce605-ea76-4331-ae8b-594f90854645","system_id":"levelo_inurba_marseille","lat":43.296921,"lon":5.376579,"is_reserved":false,"is_disabled":false,"rental_uris":{"android":"levelo://app?vid=61dce605-ea76-4331-ae8b-594f90854645","ios":"levelo://app?vid=61dce605-ea76-4331-ae8b-594f90854645"},"vehicle_type_id":"4","last_reported":1715526456,"current_range_meters":19200,"station_id":"ce4bgkh2rcd13ifvqbl0","pricing_plan_id":"cebpf4jnsgd1na2vs0mg"},{"bike_id":"f7be9610-76d8-4543-804a-633e8ec629de","system_id":"levelo_inurba_marseille","lat":43.299028,"lon":5.381509,"is_reserved":false,"is_disabled":false,"rental_uris":{"android":"levelo://app?vid=f7be9610-76d8-4543-804a-633e8ec629de","ios":"levelo://app?vid=f7be9610-76d8-4543-804a-633e8ec629de"},"vehicle_type_id":"4","last_reported":1715526456,"current_range_meters":18400,"station_id":"ce4bgj12rcd13ifvqbc0","pricing_plan_id":"cebpf4jnsgd1na2vs0mg"},{"bike_id":"63c9bfb6-4ae8-454a-8e04-82ce8504bf1c","system_id":"levelo_inurba_marseille","lat":43.309589,"lon":5.390258,"is_reserved":false,"is_disabled":false,"rental_uris":{"android":"levelo://app?vid=63c9bfb6-4ae8-454a-8e04-82ce8504bf1c","ios":"levelo://app?vid=63c9bfb6-4ae8-454a-8e04-82ce8504bf1c"},"vehicle_type_id":"4","last_reported":1715526456,"current_range_meters":7600,"station_id":"ce4bgup2rcd13ifvqco0","pricing_plan_id":"cebpf4jnsgd1na2vs0mg"},{"bike_id":"4bc59cd8-77f6-40c8-bba0-6b53bd45fe16","system_id":"levelo_inurba_marseille","lat":43.299028,"lon":5.381509,"is_reserved":false,"is_disabled":false,"rental_uris":{"android":"levelo://app?vid=4bc59cd8-77f6-40c8-bba0-6b53bd45fe16","ios":"levelo://app?vid=4bc59cd8-77f6-40c8-bba0-6b53bd45fe16"},"vehicle_type_id":"4","last_reported":1715526456,"current_range_meters":7600,"station_id":"ce4bgj12rcd13ifvqbc0","pricing_plan_id":"cebpf4jnsgd1na2vs0mg"},{"bike_id":"5ac93315-54c4-458e-afef-cc7b23a07317","system_id":"levelo_inurba_marseille","lat":43.317557,"lon":5.390173,"is_reserved":false,"is_disabled":false,"rental_uris":{"android":"levelo://app?vid=5ac93315-54c4-458e-afef-cc7b23a07317","ios":"levelo://app?vid=5ac93315-54c4-458e-afef-cc7b23a07317"},"vehicle_type_id":"4","last_reported":1715526456,"current_range_meters":31200,"station_id":"ce4bhqp2rcd13ifvqhng","pricing_plan_id":"cebpf4jnsgd1na2vs0mg"},{"bike_id":"168b2fb7-0bda-4e4d-a956-7beb7cb8a5ce","system_id":"levelo_inurba_marseille","lat":43.317557,"lon":5.390173,"is_reserved":false,"is_disabled":false,"rental_uris":{"android":"levelo://app?vid=168b2fb7-0bda-4e4d-a956-7beb7cb8a5ce","ios":"levelo://app?vid=168b2fb7-0bda-4e4d-a956-7beb7cb8a5ce"},"vehicle_type_id":"4","last_reported":1715526456,"current_range_meters":0,"station_id":"ce4bhqp2rcd13ifvqhng","pricing_plan_id":"cebpf4jnsgd1na2vs0mg"},{"bike_id":"194effca-8736-4bfa-8273-d99270dbceb9","system_id":"levelo_inurba_marseille","lat":43.317557,"lon":5.390173,"is_reserved":false,"is_disabled":false,"rental_uris":{"android":"levelo://app?vid=194effca-8736-4bfa-8273-d99270dbceb9","ios":"levelo://app?vid=194effca-8736-4bfa-8273-d99270dbceb9"},"vehicle_type_id":"4","last_reported":1715526456,"current_range_meters":11200,"station_id":"ce4bhqp2rcd13ifvqhng","pricing_plan_id":"cebpf4jnsgd1na2vs0mg"},{"bike_id":"66f07dc0-e62d-42d0-af4e-5d18350d2a53","system_id":"levelo_inurba_marseille","lat":43.317557,"lon":5.390173,"is_reserved":false,"is_disabled":false,"rental_uris":{"android":"levelo://app?vid=66f07dc0-e62d-42d0-af4e-5d18350d2a53","ios":"levelo://app?vid=66f07dc0-e62d-42d0-af4e-5d18350d2a53"},"vehicle_type_id":"4","last_reported":1715526456,"current_range_meters":14400,"station_id":"ce4bhqp2rcd13ifvqhng","pricing_plan_id":"cebpf4jnsgd1na2vs0mg"},{"bike_id":"27f05f19-4d54-41eb-89ee-36b2f9df55eb","system_id":"levelo_inurba_marseille","lat":43.317557,"lon":5.390173,"is_reserved":false,"is_disabled":false,"rental_uris":{"android":"levelo://app?vid=27f05f19-4d54-41eb-89ee-36b2f9df55eb","ios":"levelo://app?vid=27f05f19-4d54-41eb-89ee-36b2f9df55eb"},"vehicle_type_id":"4","last_reported":1715526456,"current_range_meters":11200,"station_id":"ce4bhqp2rcd13ifvqhng","pricing_plan_id":"cebpf4jnsgd1na2vs0mg"},{"bike_id":"88031d4c-0039-492a-b461-541581b52a53","system_id":"levelo_inurba_marseille","lat":43.31764,"lon":5.39014,"is_reserved":false,"is_disabled":false,"rental_uris":{"android":"levelo://app?vid=88031d4c-0039-492a-b461-541581b52a53","ios":"levelo://app?vid=88031d4c-0039-492a-b461-541581b52a53"},"vehicle_type_id":"4","last_reported":1715526456,"current_range_meters":31200,"station_id":"ce4bhqp2rcd13ifvqhng","pricing_plan_id":"cebpf4jnsgd1na2vs0mg"},{"bike_id":"d9141921-2876-4d20-8363-84a5dd69a41e","system_id":"levelo_inurba_marseille","lat":43.298037,"lon":5.381066,"is_reserved":false,"is_disabled":false,"rental_uris":{"android":"levelo://app?vid=d9141921-2876-4d20-8363-84a5dd69a41e","ios":"levelo://app?vid=d9141921-2876-4d20-8363-84a5dd69a41e"},"vehicle_type_id":"4","last_reported":1715526456,"current_range_meters":21200,"station_id":"ce4bgip2rcd13ifvqbb0","pricing_plan_id":"cebpf4jnsgd1na2vs0mg"},{"bike_id":"06052fce-8c72-4742-b505-eb2cb58cf9bd","system_id":"levelo_inurba_marseille","lat":43.304274,"lon":5.388873,"is_reserved":false,"is_disabled":false,"rental_uris":{"android":"levelo://app?vid=06052fce-8c72-4742-b505-eb2cb58cf9bd","ios":"levelo://app?vid=06052fce-8c72-4742-b505-eb2cb58cf9bd"},"vehicle_type_id":"4","last_reported":1715526456,"current_range_meters":25200,"station_id":"ce4bgk12rcd13ifvqbi0","pricing_plan_id":"cebpf4jnsgd1na2vs0mg"},{"bike_id":"4c7be160-4e1c-4bae-b45e-a3787c1901bc","system_id":"levelo_inurba_marseille","lat":43.298037,"lon":5.381066,"is_reserved":false,"is_disabled":false,"rental_uris":{"android":"levelo://app?vid=4c7be160-4e1c-4bae-b45e-a3787c1901bc","ios":"levelo://app?vid=4c7be160-4e1c-4bae-b45e-a3787c1901bc"},"vehicle_type_id":"4","last_reported":1715526456,"current_range_meters":18000,"station_id":"ce4bgip2rcd13ifvqbb0","pricing_plan_id":"cebpf4jnsgd1na2vs0mg"},{"bike_id":"8061489c-38d2-4744-8cc5-2572602ca505","system_id":"levelo_inurba_marseille","lat":43.298037,"lon":5.381066,"is_reserved":false,"is_disabled":false,"rental_uris":{"android":"levelo://app?vid=8061489c-38d2-4744-8cc5-2572602ca505","ios":"levelo://app?vid=8061489c-38d2-4744-8cc5-2572602ca505"},"vehicle_type_id":"4","last_reported":1715526456,"current_range_meters":11200,"station_id":"ce4bgip2rcd13ifvqbb0","pricing_plan_id":"cebpf4jnsgd1na2vs0mg"},{"bike_id":"c3af8748-0db6-4e4d-9faa-18e1c0f361b6","system_id":"levelo_inurba_marseille","lat":43.29794,"lon":5.38111,"is_reserved":false,"is_disabled":false,"rental_uris":{"android":"levelo://app?vid=c3af8748-0db6-4e4d-9faa-18e1c0f361b6","ios":"levelo://app?vid=c3af8748-0db6-4e4d-9faa-18e1c0f361b6"},"vehicle_type_id":"4","last_reported":1715526456,"current_range_meters":0,"station_id":"ce4bgip2rcd13ifvqbb0","pricing_plan_id":"cebpf4jnsgd1na2vs0mg"},{"bike_id":"5488586c-85cc-4dcf-a826-10c920cf5486","system_id":"levelo_inurba_marseille","lat":43.296263,"lon":5.377094,"is_reserved":false,"is_disabled":false,"rental_uris":{"android":"levelo://app?vid=5488586c-85cc-4dcf-a826-10c920cf5486","ios":"levelo://app?vid=5488586c-85cc-4dcf-a826-10c920cf5486"},"vehicle_type_id":"4","last_reported":1715526456,"current_range_meters":22800,"station_id":"ce4bgi92rcd13ifvqb90","pricing_plan_id":"cebpf4jnsgd1na2vs0mg"},{"bike_id":"65d8117c-0f35-49b4-ba60-f5edc4ecf946","system_id":"levelo_inurba_marseille","lat":43.29625,"lon":5.37722,"is_reserved":false,"is_disabled":false,"rental_uris":{"android":"levelo://app?vid=65d8117c-0f35-49b4-ba60-f5edc4ecf946","ios":"levelo://app?vid=65d8117c-0f35-49b4-ba60-f5edc4ecf946"},"vehicle_type_id":"4","last_reported":1715526456,"current_range_meters":0,"station_id":"ce4bgi92rcd13ifvqb90","pricing_plan_id":"cebpf4jnsgd1na2vs0mg"},{"bike_id":"0f0700ca-d3f4-49d6-8f2c-c1a77ae4663d","system_id":"levelo_inurba_marseille","lat":43.296263,"lon":5.377094,"is_reserved":false,"is_disabled":false,"rental_uris":{"android":"levelo://app?vid=0f0700ca-d3f4-49d6-8f2c-c1a77ae4663d","ios":"levelo://app?vid=0f0700ca-d3f4-49d6-8f2c-c1a77ae4663d"},"vehicle_type_id":"4","last_reported":1715526456,"current_range_meters":4000,"station_id":"ce4bgi92rcd13ifvqb90","pricing_plan_id":"cebpf4jnsgd1na2vs0mg"},{"bike_id":"83e15de2-a3ec-4266-912d-d8c6ffaed4ee","system_id":"levelo_inurba_marseille","lat":43.29979,"lon":5.3848,"is_reserved":false,"is_disabled":false,"rental_uris":{"android":"levelo://app?vid=83e15de2-a3ec-4266-912d-d8c6ffaed4ee","ios":"levelo://app?vid=83e15de2-a3ec-4266-912d-d8c6ffaed4ee"},"vehicle_type_id":"4","last_reported":1715526456,"current_range_meters":1600,"station_id":"ce4bgj92rcd13ifvqbd0","pricing_plan_id":"cebpf4jnsgd1na2vs0mg"},{"bike_id":"f69a5d02-69a6-4df9-a3f7-5f32793f35ff","system_id":"levelo_inurba_marseille","lat":43.299707,"lon":5.384859,"is_reserved":false,"is_disabled":false,"rental_uris":{"android":"levelo://app?vid=f69a5d02-69a6-4df9-a3f7-5f32793f35ff","ios":"levelo://app?vid=f69a5d02-69a6-4df9-a3f7-5f32793f35ff"},"vehicle_type_id":"4","last_reported":1715526456,"current_range_meters":4000,"station_id":"ce4bgj92rcd13ifvqbd0","pricing_plan_id":"cebpf4jnsgd1na2vs0mg"},{"bike_id":"6685ee51-76bf-4bff-b622-006cac6ac38f","system_id":"levelo_inurba_marseille","lat":43.299707,"lon":5.384859,"is_reserved":false,"is_disabled":false,"rental_uris":{"android":"levelo://app?vid=6685ee51-76bf-4bff-b622-006cac6ac38f","ios":"levelo://app?vid=6685ee51-76bf-4bff-b622-006cac6ac38f"},"vehicle_type_id":"4","last_reported":1715526456,"current_range_meters":14000,"station_id":"ce4bgj92rcd13ifvqbd0","pricing_plan_id":"cebpf4jnsgd1na2vs0mg"},{"bike_id":"0e97658c-6511-400b-a266-c4ef5b970c5e","system_id":"levelo_inurba_marseille","lat":43.299717,"lon":5.384845,"is_reserved":false,"is_disabled":false,"rental_uris":{"android":"levelo://app?vid=0e97658c-6511-400b-a266-c4ef5b970c5e","ios":"levelo://app?vid=0e97658c-6511-400b-a266-c4ef5b970c5e"},"vehicle_type_id":"4","last_reported":1715526456,"current_range_meters":12400,"station_id":"ce4bgj92rcd13ifvqbd0","pricing_plan_id":"cebpf4jnsgd1na2vs0mg"},{"bike_id":"c8dc6d0b-65b5-41c4-ade5-badddbd30452","system_id":"levelo_inurba_marseille","lat":43.29975,"lon":5.38486,"is_reserved":false,"is_disabled":false,"rental_uris":{"android":"levelo://app?vid=c8dc6d0b-65b5-41c4-ade5-badddbd30452","ios":"levelo://app?vid=c8dc6d0b-65b5-41c4-ade5-badddbd30452"},"vehicle_type_id":"4","last_reported":1715526456,"current_range_meters":22400,"station_id":"ce4bgj92rcd13ifvqbd0","pricing_plan_id":"cebpf4jnsgd1na2vs0mg"},{"bike_id":"49a21496-4189-4c73-bd4a-06e1cfd008e8","system_id":"levelo_inurba_marseille","lat":43.299707,"lon":5.384859,"is_reserved":false,"is_disabled":false,"rental_uris":{"android":"levelo://app?vid=49a21496-4189-4c73-bd4a-06e1cfd008e8","ios":"levelo://app?vid=49a21496-4189-4c73-bd4a-06e1cfd008e8"},"vehicle_type_id":"4","last_reported":1715526456,"current_range_meters":17600,"station_id":"ce4bgj92rcd13ifvqbd0","pricing_plan_id":"cebpf4jnsgd1na2vs0mg"},{"bike_id":"7c34e05c-4604-45b7-a6ea-617ee69d26f9","system_id":"levelo_inurba_marseille","lat":43.299717,"lon":5.384845,"is_reserved":false,"is_disabled":false,"rental_uris":{"android":"levelo://app?vid=7c34e05c-4604-45b7-a6ea-617ee69d26f9","ios":"levelo://app?vid=7c34e05c-4604-45b7-a6ea-617ee69d26f9"},"vehicle_type_id":"4","last_reported":1715526456,"current_range_meters":2400,"station_id":"ce4bgj92rcd13ifvqbd0","pricing_plan_id":"cebpf4jnsgd1na2vs0mg"},{"bike_id":"480ef624-dd26-42e5-82ab-9c2da28be417","system_id":"levelo_inurba_marseille","lat":43.29973,"lon":5.38491,"is_reserved":false,"is_disabled":false,"rental_uris":{"android":"levelo://app?vid=480ef624-dd26-42e5-82ab-9c2da28be417","ios":"levelo://app?vid=480ef624-dd26-42e5-82ab-9c2da28be417"},"vehicle_type_id":"4","last_reported":1715526456,"current_range_meters":5600,"station_id":"ce4bgj92rcd13ifvqbd0","pricing_plan_id":"cebpf4jnsgd1na2vs0mg"},{"bike_id":"0548f2a7-733e-46c7-bb8a-c70307f3f4de","system_id":"levelo_inurba_marseille","lat":43.299717,"lon":5.384845,"is_reserved":false,"is_disabled":false,"rental_uris":{"android":"levelo://app?vid=0548f2a7-733e-46c7-bb8a-c70307f3f4de","ios":"levelo://app?vid=0548f2a7-733e-46c7-bb8a-c70307f3f4de"},"vehicle_type_id":"4","last_reported":1715526456,"current_range_meters":4000,"station_id":"ce4bgj92rcd13ifvqbd0","pricing_plan_id":"cebpf4jnsgd1na2vs0mg"},{"bike_id":"660276a1-b99b-4a2d-8832-c3bed1e3cd59","system_id":"levelo_inurba_marseille","lat":43.299717,"lon":5.384845,"is_reserved":false,"is_disabled":false,"rental_uris":{"android":"levelo://app?vid=660276a1-b99b-4a2d-8832-c3bed1e3cd59","ios":"levelo://app?vid=660276a1-b99b-4a2d-8832-c3bed1e3cd59"},"vehicle_type_id":"4","last_reported":1715526456,"current_range_meters":9600,"station_id":"ce4bgj92rcd13ifvqbd0","pricing_plan_id":"cebpf4jnsgd1na2vs0mg"},{"bike_id":"d5808a88-5569-4264-87fd-47b982de0190","system_id":"levelo_inurba_marseille","lat":43.299717,"lon":5.384845,"is_reserved":false,"is_disabled":false,"rental_uris":{"android":"levelo://app?vid=d5808a88-5569-4264-87fd-47b982de0190","ios":"levelo://app?vid=d5808a88-5569-4264-87fd-47b982de0190"},"vehicle_type_id":"4","last_reported":1715526456,"current_range_meters":9600,"station_id":"ce4bgj92rcd13ifvqbd0","pricing_plan_id":"cebpf4jnsgd1na2vs0mg"},{"bike_id":"63b588cf-d74a-48f0-a2a9-57be7ec44f4e","system_id":"levelo_inurba_marseille","lat":43.299724,"lon":5.384848,"is_reserved":false,"is_disabled":false,"rental_uris":{"android":"levelo://app?vid=63b588cf-d74a-48f0-a2a9-57be7ec44f4e","ios":"levelo://app?vid=63b588cf-d74a-48f0-a2a9-57be7ec44f4e"},"vehicle_type_id":"4","last_reported":1715526456,"current_range_meters":0,"station_id":"ce4bgj92rcd13ifvqbd0","pricing_plan_id":"cebpf4jnsgd1na2vs0mg"},{"bike_id":"93f3af63-8dbd-4512-8ba3-570f12f166c6","system_id":"levelo_inurba_marseille","lat":43.299724,"lon":5.384848,"is_reserved":false,"is_disabled":false,"rental_uris":{"android":"levelo://app?vid=93f3af63-8dbd-4512-8ba3-570f12f166c6","ios":"levelo://app?vid=93f3af63-8dbd-4512-8ba3-570f12f166c6"},"vehicle_type_id":"4","last_reported":1715526456,"current_range_meters":1600,"station_id":"ce4bgj92rcd13ifvqbd0","pricing_plan_id":"cebpf4jnsgd1na2vs0mg"},{"bike_id":"d419711d-de58-4e9a-987f-2142736a1fef","system_id":"levelo_inurba_marseille","lat":43.299717,"lon":5.384845,"is_reserved":false,"is_disabled":false,"rental_uris":{"android":"levelo://app?vid=d419711d-de58-4e9a-987f-2142736a1fef","ios":"levelo://app?vid=d419711d-de58-4e9a-987f-2142736a1fef"},"vehicle_type_id":"4","last_reported":1715526456,"current_range_meters":3600,"station_id":"ce4bgj92rcd13ifvqbd0","pricing_plan_id":"cebpf4jnsgd1na2vs0mg"},{"bike_id":"8c59c4bf-62ed-4a50-87ac-a68e560a0cfb","system_id":"levelo_inurba_marseille","lat":43.29965,"lon":5.38493,"is_reserved":false,"is_disabled":false,"rental_uris":{"android":"levelo://app?vid=8c59c4bf-62ed-4a50-87ac-a68e560a0cfb","ios":"levelo://app?vid=8c59c4bf-62ed-4a50-87ac-a68e560a0cfb"},"vehicle_type_id":"4","last_reported":1715526456,"current_range_meters":4800,"station_id":"ce4bgj92rcd13ifvqbd0","pricing_plan_id":"cebpf4jnsgd1na2vs0mg"},{"bike_id":"20df54c1-5210-4e8a-9c79-93da7e372f72","system_id":"levelo_inurba_marseille","lat":43.29965,"lon":5.38493,"is_reserved":false,"is_disabled":false,"rental_uris":{"android":"levelo://app?vid=20df54c1-5210-4e8a-9c79-93da7e372f72","ios":"levelo://app?vid=20df54c1-5210-4e8a-9c79-93da7e372f72"},"vehicle_type_id":"4","last_reported":1715526456,"current_range_meters":24800,"station_id":"ce4bgj92rcd13ifvqbd0","pricing_plan_id":"cebpf4jnsgd1na2vs0mg"},{"bike_id":"43607c3a-1ccb-451a-9160-2b1788aad523","system_id":"levelo_inurba_marseille","lat":43.299717,"lon":5.384845,"is_reserved":false,"is_disabled":false,"rental_uris":{"android":"levelo://app?vid=43607c3a-1ccb-451a-9160-2b1788aad523","ios":"levelo://app?vid=43607c3a-1ccb-451a-9160-2b1788aad523"},"vehicle_type_id":"4","last_reported":1715526456,"current_range_meters":0,"station_id":"ce4bgj92rcd13ifvqbd0","pricing_plan_id":"cebpf4jnsgd1na2vs0mg"},{"bike_id":"f4494050-9bda-44d0-b4ab-5b23a9e7fffc","system_id":"levelo_inurba_marseille","lat":43.29961,"lon":5.38497,"is_reserved":false,"is_disabled":false,"rental_uris":{"android":"levelo://app?vid=f4494050-9bda-44d0-b4ab-5b23a9e7fffc","ios":"levelo://app?vid=f4494050-9bda-44d0-b4ab-5b23a9e7fffc"},"vehicle_type_id":"4","last_reported":1715526456,"current_range_meters":4400,"station_id":"ce4bgj92rcd13ifvqbd0","pricing_plan_id":"cebpf4jnsgd1na2vs0mg"},{"bike_id":"ae8e17f0-d644-4555-a6d0-a3651a8241df","system_id":"levelo_inurba_marseille","lat":43.295218,"lon":5.376617,"is_reserved":false,"is_disabled":false,"rental_uris":{"android":"levelo://app?vid=ae8e17f0-d644-4555-a6d0-a3651a8241df","ios":"levelo://app?vid=ae8e17f0-d644-4555-a6d0-a3651a8241df"},"vehicle_type_id":"4","last_reported":1715526456,"current_range_meters":20800,"station_id":"","pricing_plan_id":"cebpf4jnsgd1na2vs0mg"},{"bike_id":"d790b928-581e-49e0-96db-496a6e388595","system_id":"levelo_inurba_marseille","lat":43.296017,"lon":5.380978,"is_reserved":false,"is_disabled":false,"rental_uris":{"android":"levelo://app?vid=d790b928-581e-49e0-96db-496a6e388595","ios":"levelo://app?vid=d790b928-581e-49e0-96db-496a6e388595"},"vehicle_type_id":"4","last_reported":1715526456,"current_range_meters":21600,"station_id":"ce4bgl12rcd13ifvqbo0","pricing_plan_id":"cebpf4jnsgd1na2vs0mg"},{"bike_id":"dfc0a471-8368-4bf7-bcd1-7375b07f8012","system_id":"levelo_inurba_marseille","lat":43.292749,"lon":5.368398,"is_reserved":false,"is_disabled":false,"rental_uris":{"android":"levelo://app?vid=dfc0a471-8368-4bf7-bcd1-7375b07f8012","ios":"levelo://app?vid=dfc0a471-8368-4bf7-bcd1-7375b07f8012"},"vehicle_type_id":"4","last_reported":1715526456,"current_range_meters":5600,"station_id":"ce4bhbp2rcd13ifvqesg","pricing_plan_id":"cebpf4jnsgd1na2vs0mg"},{"bike_id":"caa752c0-b90c-494f-966e-f25dc191abee","system_id":"levelo_inurba_marseille","lat":43.292749,"lon":5.368402,"is_reserved":false,"is_disabled":false,"rental_uris":{"android":"levelo://app?vid=caa752c0-b90c-494f-966e-f25dc191abee","ios":"levelo://app?vid=caa752c0-b90c-494f-966e-f25dc191abee"},"vehicle_type_id":"4","last_reported":1715526456,"current_range_meters":0,"station_id":"ce4bhbp2rcd13ifvqesg","pricing_plan_id":"cebpf4jnsgd1na2vs0mg"},{"bike_id":"9485c600-819f-417d-ab4f-748d819c2ffb","system_id":"levelo_inurba_marseille","lat":43.293009,"lon":5.374584,"is_reserved":false,"is_disabled":false,"rental_uris":{"android":"levelo://app?vid=9485c600-819f-417d-ab4f-748d819c2ffb","ios":"levelo://app?vid=9485c600-819f-417d-ab4f-748d819c2ffb"},"vehicle_type_id":"4","last_reported":1715526456,"current_range_meters":28800,"station_id":"ce4bgi12rcd13ifvqb70","pricing_plan_id":"cebpf4jnsgd1na2vs0mg"},{"bike_id":"5798b0c9-6d21-4870-abea-b38081a89cad","system_id":"levelo_inurba_marseille","lat":43.293009,"lon":5.374584,"is_reserved":false,"is_disabled":false,"rental_uris":{"android":"levelo://app?vid=5798b0c9-6d21-4870-abea-b38081a89cad","ios":"levelo://app?vid=5798b0c9-6d21-4870-abea-b38081a89cad"},"vehicle_type_id":"4","last_reported":1715526456,"current_range_meters":0,"station_id":"ce4bgi12rcd13ifvqb70","pricing_plan_id":"cebpf4jnsgd1na2vs0mg"},{"bike_id":"99533460-982a-4cd4-8165-56662ff026aa","system_id":"levelo_inurba_marseille","lat":43.305994,"lon":5.393687,"is_reserved":false,"is_disabled":false,"rental_uris":{"android":"levelo://app?vid=99533460-982a-4cd4-8165-56662ff026aa","ios":"levelo://app?vid=99533460-982a-4cd4-8165-56662ff026aa"},"vehicle_type_id":"4","last_reported":1715526456,"current_range_meters":21200,"station_id":"ce4bh0p2rcd13ifvqd80","pricing_plan_id":"cebpf4jnsgd1na2vs0mg"},{"bike_id":"43be3ebb-dc5f-4f1e-836f-af6b567ac968","system_id":"levelo_inurba_marseille","lat":43.305994,"lon":5.393687,"is_reserved":false,"is_disabled":false,"rental_uris":{"android":"levelo://app?vid=43be3ebb-dc5f-4f1e-836f-af6b567ac968","ios":"levelo://app?vid=43be3ebb-dc5f-4f1e-836f-af6b567ac968"},"vehicle_type_id":"4","last_reported":1715526456,"current_range_meters":3600,"station_id":"ce4bh0p2rcd13ifvqd80","pricing_plan_id":"cebpf4jnsgd1na2vs0mg"},{"bike_id":"6c276d1e-78ea-4a55-9a87-b1c0cb8f69e0","system_id":"levelo_inurba_marseille","lat":43.305994,"lon":5.393687,"is_reserved":false,"is_disabled":false,"rental_uris":{"android":"levelo://app?vid=6c276d1e-78ea-4a55-9a87-b1c0cb8f69e0","ios":"levelo://app?vid=6c276d1e-78ea-4a55-9a87-b1c0cb8f69e0"},"vehicle_type_id":"4","last_reported":1715526456,"current_range_meters":0,"station_id":"ce4bh0p2rcd13ifvqd80","pricing_plan_id":"cebpf4jnsgd1na2vs0mg"},{"bike_id":"89c98768-cf09-44bd-a0ce-52c0e1fc733c","system_id":"levelo_inurba_marseille","lat":43.293009,"lon":5.374584,"is_reserved":false,"is_disabled":false,"rental_uris":{"android":"levelo://app?vid=89c98768-cf09-44bd-a0ce-52c0e1fc733c","ios":"levelo://app?vid=89c98768-cf09-44bd-a0ce-52c0e1fc733c"},"vehicle_type_id":"4","last_reported":1715526456,"current_range_meters":0,"station_id":"ce4bgi12rcd13ifvqb70","pricing_plan_id":"cebpf4jnsgd1na2vs0mg"},{"bike_id":"d8b31ccc-7523-4f67-ac9a-41145631daf8","system_id":"levelo_inurba_marseille","lat":43.303002,"lon":5.392142,"is_reserved":false,"is_disabled":false,"rental_uris":{"android":"levelo://app?vid=d8b31ccc-7523-4f67-ac9a-41145631daf8","ios":"levelo://app?vid=d8b31ccc-7523-4f67-ac9a-41145631daf8"},"vehicle_type_id":"4","last_reported":1715526456,"current_range_meters":4400,"station_id":"ce4bgkh2rcd13ifvqbk0","pricing_plan_id":"cebpf4jnsgd1na2vs0mg"},{"bike_id":"4f8d19d7-f9f4-4308-9631-f5767344dcd9","system_id":"levelo_inurba_marseille","lat":43.303,"lon":5.39209,"is_reserved":false,"is_disabled":false,"rental_uris":{"android":"levelo://app?vid=4f8d19d7-f9f4-4308-9631-f5767344dcd9","ios":"levelo://app?vid=4f8d19d7-f9f4-4308-9631-f5767344dcd9"},"vehicle_type_id":"4","last_reported":1715526456,"current_range_meters":1600,"station_id":"ce4bgkh2rcd13ifvqbk0","pricing_plan_id":"cebpf4jnsgd1na2vs0mg"},{"bike_id":"306dc457-49a8-460c-b83e-a0197da98ef6","system_id":"levelo_inurba_marseille","lat":43.292311,"lon":5.360731,"is_reserved":false,"is_disabled":false,"rental_uris":{"android":"levelo://app?vid=306dc457-49a8-460c-b83e-a0197da98ef6","ios":"levelo://app?vid=306dc457-49a8-460c-b83e-a0197da98ef6"},"vehicle_type_id":"4","last_reported":1715526456,"current_range_meters":29200,"station_id":"ce4bhbh2rcd13ifvqeqg","pricing_plan_id":"cebpf4jnsgd1na2vs0mg"},{"bike_id":"dc2521d3-b69e-402f-b1e5-a06729fa79bb","system_id":"levelo_inurba_marseille","lat":43.298764,"lon":5.388973,"is_reserved":false,"is_disabled":false,"rental_uris":{"android":"levelo://app?vid=dc2521d3-b69e-402f-b1e5-a06729fa79bb","ios":"levelo://app?vid=dc2521d3-b69e-402f-b1e5-a06729fa79bb"},"vehicle_type_id":"4","last_reported":1715526456,"current_range_meters":0,"station_id":"ce4bh392rcd13ifvqdl0","pricing_plan_id":"cebpf4jnsgd1na2vs0mg"},{"bike_id":"877f927b-bf84-4907-b858-75a3ef05a57a","system_id":"levelo_inurba_marseille","lat":43.291671,"lon":5.371575,"is_reserved":false,"is_disabled":false,"rental_uris":{"android":"levelo://app?vid=877f927b-bf84-4907-b858-75a3ef05a57a","ios":"levelo://app?vid=877f927b-bf84-4907-b858-75a3ef05a57a"},"vehicle_type_id":"4","last_reported":1715526456,"current_range_meters":24400,"station_id":"ce4bha92rcd13ifvqeh0","pricing_plan_id":"cebpf4jnsgd1na2vs0mg"},{"bike_id":"d51cde16-b99e-4b27-810f-6657f1afd564","system_id":"levelo_inurba_marseille","lat":43.291671,"lon":5.371575,"is_reserved":false,"is_disabled":false,"rental_uris":{"android":"levelo://app?vid=d51cde16-b99e-4b27-810f-6657f1afd564","ios":"levelo://app?vid=d51cde16-b99e-4b27-810f-6657f1afd564"},"vehicle_type_id":"4","last_reported":1715526456,"current_range_meters":0,"station_id":"ce4bha92rcd13ifvqeh0","pricing_plan_id":"cebpf4jnsgd1na2vs0mg"},{"bike_id":"90694e18-c19e-4f08-8444-96f61dd6a780","system_id":"levelo_inurba_marseille","lat":43.29202,"lon":5.35803,"is_reserved":false,"is_disabled":false,"rental_uris":{"android":"levelo://app?vid=90694e18-c19e-4f08-8444-96f61dd6a780","ios":"levelo://app?vid=90694e18-c19e-4f08-8444-96f61dd6a780"},"vehicle_type_id":"4","last_reported":1715526456,"current_range_meters":0,"station_id":"ce4bhb12rcd13ifvqel0","pricing_plan_id":"cebpf4jnsgd1na2vs0mg"},{"bike_id":"eb487913-b2cb-45b1-8688-cc6124449916","system_id":"levelo_inurba_marseille","lat":43.30888,"lon":5.3963,"is_reserved":false,"is_disabled":false,"rental_uris":{"android":"levelo://app?vid=eb487913-b2cb-45b1-8688-cc6124449916","ios":"levelo://app?vid=eb487913-b2cb-45b1-8688-cc6124449916"},"vehicle_type_id":"4","last_reported":1715526456,"current_range_meters":0,"station_id":"ce4bh012rcd13ifvqcv0","pricing_plan_id":"cebpf4jnsgd1na2vs0mg"},{"bike_id":"8c085b40-2f51-4925-8372-e36041c275d6","system_id":"levelo_inurba_marseille","lat":43.29196,"lon":5.35789,"is_reserved":false,"is_disabled":false,"rental_uris":{"android":"levelo://app?vid=8c085b40-2f51-4925-8372-e36041c275d6","ios":"levelo://app?vid=8c085b40-2f51-4925-8372-e36041c275d6"},"vehicle_type_id":"4","last_reported":1715526456,"current_range_meters":27600,"station_id":"ce4bhb12rcd13ifvqel0","pricing_plan_id":"cebpf4jnsgd1na2vs0mg"},{"bike_id":"0a42cbf1-f441-43c6-9d01-9dd2cbaf7611","system_id":"levelo_inurba_marseille","lat":43.29193,"lon":5.35802,"is_reserved":false,"is_disabled":false,"rental_uris":{"android":"levelo://app?vid=0a42cbf1-f441-43c6-9d01-9dd2cbaf7611","ios":"levelo://app?vid=0a42cbf1-f441-43c6-9d01-9dd2cbaf7611"},"vehicle_type_id":"4","last_reported":1715526456,"current_range_meters":10000,"station_id":"ce4bhb12rcd13ifvqel0","pricing_plan_id":"cebpf4jnsgd1na2vs0mg"},{"bike_id":"f2e1adf6-ad4e-47ba-a09b-548e0a990fc4","system_id":"levelo_inurba_marseille","lat":43.309038,"lon":5.396546,"is_reserved":false,"is_disabled":false,"rental_uris":{"android":"levelo://app?vid=f2e1adf6-ad4e-47ba-a09b-548e0a990fc4","ios":"levelo://app?vid=f2e1adf6-ad4e-47ba-a09b-548e0a990fc4"},"vehicle_type_id":"4","last_reported":1715526456,"current_range_meters":21200,"station_id":"ce4bh012rcd13ifvqcv0","pricing_plan_id":"cebpf4jnsgd1na2vs0mg"},{"bike_id":"2afa7b22-ae1a-4654-b2d5-3a03b73e7faa","system_id":"levelo_inurba_marseille","lat":43.309038,"lon":5.396546,"is_reserved":false,"is_disabled":false,"rental_uris":{"android":"levelo://app?vid=2afa7b22-ae1a-4654-b2d5-3a03b73e7faa","ios":"levelo://app?vid=2afa7b22-ae1a-4654-b2d5-3a03b73e7faa"},"vehicle_type_id":"4","last_reported":1715526456,"current_range_meters":2400,"station_id":"ce4bh012rcd13ifvqcv0","pricing_plan_id":"cebpf4jnsgd1na2vs0mg"},{"bike_id":"6ab27c7c-c63f-4704-b46f-8696ddcd6ccb","system_id":"levelo_inurba_marseille","lat":43.309038,"lon":5.396546,"is_reserved":false,"is_disabled":false,"rental_uris":{"android":"levelo://app?vid=6ab27c7c-c63f-4704-b46f-8696ddcd6ccb","ios":"levelo://app?vid=6ab27c7c-c63f-4704-b46f-8696ddcd6ccb"},"vehicle_type_id":"4","last_reported":1715526456,"current_range_meters":800,"station_id":"ce4bh012rcd13ifvqcv0","pricing_plan_id":"cebpf4jnsgd1na2vs0mg"},{"bike_id":"65f73794-d563-4a42-88e5-5bc8b9385eaf","system_id":"levelo_inurba_marseille","lat":43.29538,"lon":5.38551,"is_reserved":false,"is_disabled":false,"rental_uris":{"android":"levelo://app?vid=65f73794-d563-4a42-88e5-5bc8b9385eaf","ios":"levelo://app?vid=65f73794-d563-4a42-88e5-5bc8b9385eaf"},"vehicle_type_id":"4","last_reported":1715526456,"current_range_meters":0,"station_id":"ce4bgih2rcd13ifvqba0","pricing_plan_id":"cebpf4jnsgd1na2vs0mg"},{"bike_id":"04156400-aa62-4692-9282-baddba181b00","system_id":"levelo_inurba_marseille","lat":43.29532,"lon":5.38542,"is_reserved":false,"is_disabled":false,"rental_uris":{"android":"levelo://app?vid=04156400-aa62-4692-9282-baddba181b00","ios":"levelo://app?vid=04156400-aa62-4692-9282-baddba181b00"},"vehicle_type_id":"4","last_reported":1715526456,"current_range_meters":0,"station_id":"ce4bgih2rcd13ifvqba0","pricing_plan_id":"cebpf4jnsgd1na2vs0mg"},{"bike_id":"08bb1875-4230-4c62-aa4d-0fcf4f568df4","system_id":"levelo_inurba_marseille","lat":43.290779,"lon":5.371482,"is_reserved":false,"is_disabled":false,"rental_uris":{"android":"levelo://app?vid=08bb1875-4230-4c62-aa4d-0fcf4f568df4","ios":"levelo://app?vid=08bb1875-4230-4c62-aa4d-0fcf4f568df4"},"vehicle_type_id":"4","last_reported":1715526456,"current_range_meters":400,"station_id":"ce4bh5p2rcd13ifvqe4g","pricing_plan_id":"cebpf4jnsgd1na2vs0mg"},{"bike_id":"83a9bddc-08fc-45f7-9080-b3edf496bd4b","system_id":"levelo_inurba_marseille","lat":43.290779,"lon":5.371482,"is_reserved":false,"is_disabled":false,"rental_uris":{"android":"levelo://app?vid=83a9bddc-08fc-45f7-9080-b3edf496bd4b","ios":"levelo://app?vid=83a9bddc-08fc-45f7-9080-b3edf496bd4b"},"vehicle_type_id":"4","last_reported":1715526456,"current_range_meters":17600,"station_id":"ce4bh5p2rcd13ifvqe4g","pricing_plan_id":"cebpf4jnsgd1na2vs0mg"},{"bike_id":"bf26f750-d1eb-486c-a8f5-b77e827a1c65","system_id":"levelo_inurba_marseille","lat":43.290779,"lon":5.371482,"is_reserved":false,"is_disabled":false,"rental_uris":{"android":"levelo://app?vid=bf26f750-d1eb-486c-a8f5-b77e827a1c65","ios":"levelo://app?vid=bf26f750-d1eb-486c-a8f5-b77e827a1c65"},"vehicle_type_id":"4","last_reported":1715526456,"current_range_meters":7600,"station_id":"ce4bh5p2rcd13ifvqe4g","pricing_plan_id":"cebpf4jnsgd1na2vs0mg"},{"bike_id":"b1b3c629-d56c-44ef-b265-66a718201fc3","system_id":"levelo_inurba_marseille","lat":43.290779,"lon":5.371482,"is_reserved":false,"is_disabled":false,"rental_uris":{"android":"levelo://app?vid=b1b3c629-d56c-44ef-b265-66a718201fc3","ios":"levelo://app?vid=b1b3c629-d56c-44ef-b265-66a718201fc3"},"vehicle_type_id":"4","last_reported":1715526456,"current_range_meters":6000,"station_id":"ce4bh5p2rcd13ifvqe4g","pricing_plan_id":"cebpf4jnsgd1na2vs0mg"},{"bike_id":"5b098e93-5702-4c33-ab80-abddf50bb7be","system_id":"levelo_inurba_marseille","lat":43.291055,"lon":5.37398,"is_reserved":false,"is_disabled":false,"rental_uris":{"android":"levelo://app?vid=5b098e93-5702-4c33-ab80-abddf50bb7be","ios":"levelo://app?vid=5b098e93-5702-4c33-ab80-abddf50bb7be"},"vehicle_type_id":"4","last_reported":1715526456,"current_range_meters":0,"station_id":"ce4bh692rcd13ifvqea0","pricing_plan_id":"cebpf4jnsgd1na2vs0mg"},{"bike_id":"99763c80-d464-4a3d-854e-3c3433b9717c","system_id":"levelo_inurba_marseille","lat":43.29073,"lon":5.37173,"is_reserved":false,"is_disabled":false,"rental_uris":{"android":"levelo://app?vid=99763c80-d464-4a3d-854e-3c3433b9717c","ios":"levelo://app?vid=99763c80-d464-4a3d-854e-3c3433b9717c"},"vehicle_type_id":"4","last_reported":1715526456,"current_range_meters":12800,"station_id":"","pricing_plan_id":"cebpf4jnsgd1na2vs0mg"},{"bike_id":"4ec37984-9aea-43b1-a5e7-d6ab7c36cd24","system_id":"levelo_inurba_marseille","lat":43.290779,"lon":5.371482,"is_reserved":false,"is_disabled":false,"rental_uris":{"android":"levelo://app?vid=4ec37984-9aea-43b1-a5e7-d6ab7c36cd24","ios":"levelo://app?vid=4ec37984-9aea-43b1-a5e7-d6ab7c36cd24"},"vehicle_type_id":"4","last_reported":1715526456,"current_range_meters":1600,"station_id":"ce4bh5p2rcd13ifvqe4g","pricing_plan_id":"cebpf4jnsgd1na2vs0mg"},{"bike_id":"a36a9d01-2d24-443a-b9e8-bfdb9a2ca4aa","system_id":"levelo_inurba_marseille","lat":43.290779,"lon":5.371482,"is_reserved":false,"is_disabled":false,"rental_uris":{"android":"levelo://app?vid=a36a9d01-2d24-443a-b9e8-bfdb9a2ca4aa","ios":"levelo://app?vid=a36a9d01-2d24-443a-b9e8-bfdb9a2ca4aa"},"vehicle_type_id":"4","last_reported":1715526456,"current_range_meters":19200,"station_id":"ce4bh5p2rcd13ifvqe4g","pricing_plan_id":"cebpf4jnsgd1na2vs0mg"},{"bike_id":"a0361d71-cb90-43c5-a2e9-2a5f491da33d","system_id":"levelo_inurba_marseille","lat":43.290779,"lon":5.371482,"is_reserved":false,"is_disabled":false,"rental_uris":{"android":"levelo://app?vid=a0361d71-cb90-43c5-a2e9-2a5f491da33d","ios":"levelo://app?vid=a0361d71-cb90-43c5-a2e9-2a5f491da33d"},"vehicle_type_id":"4","last_reported":1715526456,"current_range_meters":12800,"station_id":"ce4bh5p2rcd13ifvqe4g","pricing_plan_id":"cebpf4jnsgd1na2vs0mg"},{"bike_id":"6b30c83b-e4f7-4fac-af7a-470cd4a5c039","system_id":"levelo_inurba_marseille","lat":43.290779,"lon":5.371482,"is_reserved":false,"is_disabled":false,"rental_uris":{"android":"levelo://app?vid=6b30c83b-e4f7-4fac-af7a-470cd4a5c039","ios":"levelo://app?vid=6b30c83b-e4f7-4fac-af7a-470cd4a5c039"},"vehicle_type_id":"4","last_reported":1715526456,"current_range_meters":25600,"station_id":"ce4bh5p2rcd13ifvqe4g","pricing_plan_id":"cebpf4jnsgd1na2vs0mg"},{"bike_id":"505e2a57-9b89-400d-b677-085ac38cd085","system_id":"levelo_inurba_marseille","lat":43.302008,"lon":5.394694,"is_reserved":false,"is_disabled":false,"rental_uris":{"android":"levelo://app?vid=505e2a57-9b89-400d-b677-085ac38cd085","ios":"levelo://app?vid=505e2a57-9b89-400d-b677-085ac38cd085"},"vehicle_type_id":"4","last_reported":1715526456,"current_range_meters":12000,"station_id":"ce4bh0p2rcd13ifvqd70","pricing_plan_id":"cebpf4jnsgd1na2vs0mg"},{"bike_id":"507ae9e2-3265-4d9f-9d19-ec8b08fbe1ed","system_id":"levelo_inurba_marseille","lat":43.302008,"lon":5.394694,"is_reserved":false,"is_disabled":false,"rental_uris":{"android":"levelo://app?vid=507ae9e2-3265-4d9f-9d19-ec8b08fbe1ed","ios":"levelo://app?vid=507ae9e2-3265-4d9f-9d19-ec8b08fbe1ed"},"vehicle_type_id":"4","last_reported":1715526456,"current_range_meters":15200,"station_id":"ce4bh0p2rcd13ifvqd70","pricing_plan_id":"cebpf4jnsgd1na2vs0mg"},{"bike_id":"76f53f05-3865-4cb0-921b-7fd9b3dbb624","system_id":"levelo_inurba_marseille","lat":43.302008,"lon":5.394694,"is_reserved":false,"is_disabled":false,"rental_uris":{"android":"levelo://app?vid=76f53f05-3865-4cb0-921b-7fd9b3dbb624","ios":"levelo://app?vid=76f53f05-3865-4cb0-921b-7fd9b3dbb624"},"vehicle_type_id":"4","last_reported":1715526456,"current_range_meters":26400,"station_id":"ce4bh0p2rcd13ifvqd70","pricing_plan_id":"cebpf4jnsgd1na2vs0mg"},{"bike_id":"cfeffe76-64d9-42c9-81e8-1d89e3f3962a","system_id":"levelo_inurba_marseille","lat":43.294153,"lon":5.386305,"is_reserved":false,"is_disabled":false,"rental_uris":{"android":"levelo://app?vid=cfeffe76-64d9-42c9-81e8-1d89e3f3962a","ios":"levelo://app?vid=cfeffe76-64d9-42c9-81e8-1d89e3f3962a"},"vehicle_type_id":"4","last_reported":1715526456,"current_range_meters":19200,"station_id":"ce4bh2h2rcd13ifvqdh0","pricing_plan_id":"cebpf4jnsgd1na2vs0mg"},{"bike_id":"fdce5510-dae4-4da2-8fb1-2b1cb1424144","system_id":"levelo_inurba_marseille","lat":43.290327,"lon":5.375711,"is_reserved":false,"is_disabled":false,"rental_uris":{"android":"levelo://app?vid=fdce5510-dae4-4da2-8fb1-2b1cb1424144","ios":"levelo://app?vid=fdce5510-dae4-4da2-8fb1-2b1cb1424144"},"vehicle_type_id":"4","last_reported":1715526456,"current_range_meters":25200,"station_id":"ce4bh692rcd13ifvqe90","pricing_plan_id":"cebpf4jnsgd1na2vs0mg"},{"bike_id":"7e43aebc-6c39-403c-bd72-628d369a832d","system_id":"levelo_inurba_marseille","lat":43.29034,"lon":5.37559,"is_reserved":false,"is_disabled":false,"rental_uris":{"android":"levelo://app?vid=7e43aebc-6c39-403c-bd72-628d369a832d","ios":"levelo://app?vid=7e43aebc-6c39-403c-bd72-628d369a832d"},"vehicle_type_id":"4","last_reported":1715526456,"current_range_meters":29200,"station_id":"ce4bh692rcd13ifvqe90","pricing_plan_id":"cebpf4jnsgd1na2vs0mg"},{"bike_id":"1af89d52-31b3-47ca-bcff-61bbec2e7f65","system_id":"levelo_inurba_marseille","lat":43.289184,"lon":5.366408,"is_reserved":false,"is_disabled":false,"rental_uris":{"android":"levelo://app?vid=1af89d52-31b3-47ca-bcff-61bbec2e7f65","ios":"levelo://app?vid=1af89d52-31b3-47ca-bcff-61bbec2e7f65"},"vehicle_type_id":"4","last_reported":1715526456,"current_range_meters":11200,"station_id":"ce4bhap2rcd13ifvqek0","pricing_plan_id":"cebpf4jnsgd1na2vs0mg"},{"bike_id":"f414848c-7126-4216-918f-953251750f7e","system_id":"levelo_inurba_marseille","lat":43.294162,"lon":5.386292,"is_reserved":false,"is_disabled":false,"rental_uris":{"android":"levelo://app?vid=f414848c-7126-4216-918f-953251750f7e","ios":"levelo://app?vid=f414848c-7126-4216-918f-953251750f7e"},"vehicle_type_id":"4","last_reported":1715526456,"current_range_meters":9200,"station_id":"ce4bh2h2rcd13ifvqdh0","pricing_plan_id":"cebpf4jnsgd1na2vs0mg"},{"bike_id":"453e9e16-504b-47f7-b9d0-a06e3181c54c","system_id":"levelo_inurba_marseille","lat":43.289184,"lon":5.366408,"is_reserved":false,"is_disabled":false,"rental_uris":{"android":"levelo://app?vid=453e9e16-504b-47f7-b9d0-a06e3181c54c","ios":"levelo://app?vid=453e9e16-504b-47f7-b9d0-a06e3181c54c"},"vehicle_type_id":"4","last_reported":1715526456,"current_range_meters":18000,"station_id":"ce4bhap2rcd13ifvqek0","pricing_plan_id":"cebpf4jnsgd1na2vs0mg"},{"bike_id":"50bafda0-e7eb-40a7-bd3f-efbaf77c65c1","system_id":"levelo_inurba_marseille","lat":43.28939,"lon":5.36625,"is_reserved":false,"is_disabled":false,"rental_uris":{"android":"levelo://app?vid=50bafda0-e7eb-40a7-bd3f-efbaf77c65c1","ios":"levelo://app?vid=50bafda0-e7eb-40a7-bd3f-efbaf77c65c1"},"vehicle_type_id":"4","last_reported":1715526456,"current_range_meters":0,"station_id":"ce4bhap2rcd13ifvqek0","pricing_plan_id":"cebpf4jnsgd1na2vs0mg"},{"bike_id":"978c7a0b-1e7f-41a7-b473-12b55a3ea6b8","system_id":"levelo_inurba_marseille","lat":43.289184,"lon":5.366408,"is_reserved":false,"is_disabled":false,"rental_uris":{"android":"levelo://app?vid=978c7a0b-1e7f-41a7-b473-12b55a3ea6b8","ios":"levelo://app?vid=978c7a0b-1e7f-41a7-b473-12b55a3ea6b8"},"vehicle_type_id":"4","last_reported":1715526456,"current_range_meters":4800,"station_id":"ce4bhap2rcd13ifvqek0","pricing_plan_id":"cebpf4jnsgd1na2vs0mg"},{"bike_id":"6236337f-ed49-40d5-9668-f31e8a7f0824","system_id":"levelo_inurba_marseille","lat":43.28937,"lon":5.36629,"is_reserved":false,"is_disabled":false,"rental_uris":{"android":"levelo://app?vid=6236337f-ed49-40d5-9668-f31e8a7f0824","ios":"levelo://app?vid=6236337f-ed49-40d5-9668-f31e8a7f0824"},"vehicle_type_id":"4","last_reported":1715526456,"current_range_meters":400,"station_id":"ce4bhap2rcd13ifvqek0","pricing_plan_id":"cebpf4jnsgd1na2vs0mg"},{"bike_id":"9fb569fa-d3b8-4a84-b593-4f72067219d0","system_id":"levelo_inurba_marseille","lat":43.28943,"lon":5.364035,"is_reserved":false,"is_disabled":false,"rental_uris":{"android":"levelo://app?vid=9fb569fa-d3b8-4a84-b593-4f72067219d0","ios":"levelo://app?vid=9fb569fa-d3b8-4a84-b593-4f72067219d0"},"vehicle_type_id":"4","last_reported":1715526456,"current_range_meters":26400,"station_id":"ce4bhc92rcd13ifvqetg","pricing_plan_id":"cebpf4jnsgd1na2vs0mg"},{"bike_id":"d0eb3af9-b8d9-4918-9a20-25bc26e35f6b","system_id":"levelo_inurba_marseille","lat":43.289468,"lon":5.363719,"is_reserved":false,"is_disabled":false,"rental_uris":{"android":"levelo://app?vid=d0eb3af9-b8d9-4918-9a20-25bc26e35f6b","ios":"levelo://app?vid=d0eb3af9-b8d9-4918-9a20-25bc26e35f6b"},"vehicle_type_id":"4","last_reported":1715526456,"current_range_meters":30000,"station_id":"ce4bhc92rcd13ifvqetg","pricing_plan_id":"cebpf4jnsgd1na2vs0mg"},{"bike_id":"9b7f69d9-5384-402e-b681-e04ede1bb648","system_id":"levelo_inurba_marseille","lat":43.28937,"lon":5.36371,"is_reserved":false,"is_disabled":false,"rental_uris":{"android":"levelo://app?vid=9b7f69d9-5384-402e-b681-e04ede1bb648","ios":"levelo://app?vid=9b7f69d9-5384-402e-b681-e04ede1bb648"},"vehicle_type_id":"4","last_reported":1715526456,"current_range_meters":11600,"station_id":"ce4bhc92rcd13ifvqetg","pricing_plan_id":"cebpf4jnsgd1na2vs0mg"},{"bike_id":"a4e0e18b-a583-40c5-858c-8c074e730b54","system_id":"levelo_inurba_marseille","lat":43.290327,"lon":5.375711,"is_reserved":false,"is_disabled":false,"rental_uris":{"android":"levelo://app?vid=a4e0e18b-a583-40c5-858c-8c074e730b54","ios":"levelo://app?vid=a4e0e18b-a583-40c5-858c-8c074e730b54"},"vehicle_type_id":"4","last_reported":1715526456,"current_range_meters":3200,"station_id":"ce4bh692rcd13ifvqe90","pricing_plan_id":"cebpf4jnsgd1na2vs0mg"},{"bike_id":"f528f36e-0965-4f5d-b0cc-7647369d62d5","system_id":"levelo_inurba_marseille","lat":43.304296,"lon":5.397513,"is_reserved":false,"is_disabled":false,"rental_uris":{"android":"levelo://app?vid=f528f36e-0965-4f5d-b0cc-7647369d62d5","ios":"levelo://app?vid=f528f36e-0965-4f5d-b0cc-7647369d62d5"},"vehicle_type_id":"4","last_reported":1715526456,"current_range_meters":18800,"station_id":"ce4bh092rcd13ifvqd20","pricing_plan_id":"cebpf4jnsgd1na2vs0mg"},{"bike_id":"f2939920-0560-4614-9a6d-c55cc0e94b59","system_id":"levelo_inurba_marseille","lat":43.29259,"lon":5.38439,"is_reserved":false,"is_disabled":false,"rental_uris":{"android":"levelo://app?vid=f2939920-0560-4614-9a6d-c55cc0e94b59","ios":"levelo://app?vid=f2939920-0560-4614-9a6d-c55cc0e94b59"},"vehicle_type_id":"4","last_reported":1715526456,"current_range_meters":0,"station_id":"ce4bh692rcd13ifvqea0","pricing_plan_id":"cebpf4jnsgd1na2vs0mg"},{"bike_id":"2a68e5a1-3fb5-420d-8e50-09162f39d2d1","system_id":"levelo_inurba_marseille","lat":43.292644,"lon":5.384257,"is_reserved":false,"is_disabled":false,"rental_uris":{"android":"levelo://app?vid=2a68e5a1-3fb5-420d-8e50-09162f39d2d1","ios":"levelo://app?vid=2a68e5a1-3fb5-420d-8e50-09162f39d2d1"},"vehicle_type_id":"4","last_reported":1715526456,"current_range_meters":28800,"station_id":"ce4bh692rcd13ifvqea0","pricing_plan_id":"cebpf4jnsgd1na2vs0mg"},{"bike_id":"5474903e-931d-40ec-9a60-f31e4596308a","system_id":"levelo_inurba_marseille","lat":43.290104,"lon":5.356111,"is_reserved":false,"is_disabled":false,"rental_uris":{"android":"levelo://app?vid=5474903e-931d-40ec-9a60-f31e4596308a","ios":"levelo://app?vid=5474903e-931d-40ec-9a60-f31e4596308a"},"vehicle_type_id":"4","last_reported":1715526456,"current_range_meters":16800,"station_id":"ce4bhb92rcd13ifvqen0","pricing_plan_id":"cebpf4jnsgd1na2vs0mg"},{"bike_id":"3894cb81-a429-4f63-b579-26559448ed1d","system_id":"levelo_inurba_marseille","lat":43.290103,"lon":5.356114,"is_reserved":false,"is_disabled":false,"rental_uris":{"android":"levelo://app?vid=3894cb81-a429-4f63-b579-26559448ed1d","ios":"levelo://app?vid=3894cb81-a429-4f63-b579-26559448ed1d"},"vehicle_type_id":"4","last_reported":1715526456,"current_range_meters":0,"station_id":"ce4bhb92rcd13ifvqen0","pricing_plan_id":"cebpf4jnsgd1na2vs0mg"},{"bike_id":"172e5574-baf2-4483-b605-10e944bdbddd","system_id":"levelo_inurba_marseille","lat":43.29784,"lon":5.3933,"is_reserved":false,"is_disabled":false,"rental_uris":{"android":"levelo://app?vid=172e5574-baf2-4483-b605-10e944bdbddd","ios":"levelo://app?vid=172e5574-baf2-4483-b605-10e944bdbddd"},"vehicle_type_id":"4","last_reported":1715526456,"current_range_meters":15600,"station_id":"chh1huq6cuj3fo74tm60","pricing_plan_id":"cebpf4jnsgd1na2vs0mg"},{"bike_id":"55615c5f-d9fa-4b51-aa4e-d36bb24fafdb","system_id":"levelo_inurba_marseille","lat":43.297815,"lon":5.393548,"is_reserved":false,"is_disabled":false,"rental_uris":{"android":"levelo://app?vid=55615c5f-d9fa-4b51-aa4e-d36bb24fafdb","ios":"levelo://app?vid=55615c5f-d9fa-4b51-aa4e-d36bb24fafdb"},"vehicle_type_id":"4","last_reported":1715526456,"current_range_meters":28800,"station_id":"chh1huq6cuj3fo74tm60","pricing_plan_id":"cebpf4jnsgd1na2vs0mg"},{"bike_id":"1f3ced54-48fd-4c68-92d4-46a87d90c074","system_id":"levelo_inurba_marseille","lat":43.297815,"lon":5.393548,"is_reserved":false,"is_disabled":false,"rental_uris":{"android":"levelo://app?vid=1f3ced54-48fd-4c68-92d4-46a87d90c074","ios":"levelo://app?vid=1f3ced54-48fd-4c68-92d4-46a87d90c074"},"vehicle_type_id":"4","last_reported":1715526456,"current_range_meters":16000,"station_id":"chh1huq6cuj3fo74tm60","pricing_plan_id":"cebpf4jnsgd1na2vs0mg"},{"bike_id":"9a1ab390-8607-4aa8-8b8d-c82de2e42e49","system_id":"levelo_inurba_marseille","lat":43.297815,"lon":5.393548,"is_reserved":false,"is_disabled":false,"rental_uris":{"android":"levelo://app?vid=9a1ab390-8607-4aa8-8b8d-c82de2e42e49","ios":"levelo://app?vid=9a1ab390-8607-4aa8-8b8d-c82de2e42e49"},"vehicle_type_id":"4","last_reported":1715526456,"current_range_meters":6000,"station_id":"chh1huq6cuj3fo74tm60","pricing_plan_id":"cebpf4jnsgd1na2vs0mg"},{"bike_id":"9d28acc3-c255-4fc2-bf1a-2ca13c75ab86","system_id":"levelo_inurba_marseille","lat":43.330442,"lon":5.389148,"is_reserved":false,"is_disabled":false,"rental_uris":{"android":"levelo://app?vid=9d28acc3-c255-4fc2-bf1a-2ca13c75ab86","ios":"levelo://app?vid=9d28acc3-c255-4fc2-bf1a-2ca13c75ab86"},"vehicle_type_id":"4","last_reported":1715526456,"current_range_meters":11200,"station_id":"ce4bhr92rcd13ifvqhrg","pricing_plan_id":"cebpf4jnsgd1na2vs0mg"},{"bike_id":"ff2acc83-041b-4562-a2be-d29a8d75aaaa","system_id":"levelo_inurba_marseille","lat":43.2901,"lon":5.381269,"is_reserved":false,"is_disabled":false,"rental_uris":{"android":"levelo://app?vid=ff2acc83-041b-4562-a2be-d29a8d75aaaa","ios":"levelo://app?vid=ff2acc83-041b-4562-a2be-d29a8d75aaaa"},"vehicle_type_id":"4","last_reported":1715526456,"current_range_meters":3600,"station_id":"ce4bh4p2rcd13ifvqe1g","pricing_plan_id":"cebpf4jnsgd1na2vs0mg"},{"bike_id":"6b3a8dd7-77b8-4f6d-a81d-e0804c863d47","system_id":"levelo_inurba_marseille","lat":43.309371,"lon":5.401449,"is_reserved":false,"is_disabled":false,"rental_uris":{"android":"levelo://app?vid=6b3a8dd7-77b8-4f6d-a81d-e0804c863d47","ios":"levelo://app?vid=6b3a8dd7-77b8-4f6d-a81d-e0804c863d47"},"vehicle_type_id":"4","last_reported":1715526456,"current_range_meters":0,"station_id":"ce4bgvp2rcd13ifvqct0","pricing_plan_id":"cebpf4jnsgd1na2vs0mg"},{"bike_id":"b296ecb4-6906-4a6a-9f40-0179cb7ed40e","system_id":"levelo_inurba_marseille","lat":43.28854,"lon":5.35833,"is_reserved":false,"is_disabled":false,"rental_uris":{"android":"levelo://app?vid=b296ecb4-6906-4a6a-9f40-0179cb7ed40e","ios":"levelo://app?vid=b296ecb4-6906-4a6a-9f40-0179cb7ed40e"},"vehicle_type_id":"4","last_reported":1715526456,"current_range_meters":0,"station_id":"ce4bhb12rcd13ifvqem0","pricing_plan_id":"cebpf4jnsgd1na2vs0mg"},{"bike_id":"a6fe3be9-2ae1-42ce-9d62-911bb3dea5fa","system_id":"levelo_inurba_marseille","lat":43.28856,"lon":5.358371,"is_reserved":false,"is_disabled":false,"rental_uris":{"android":"levelo://app?vid=a6fe3be9-2ae1-42ce-9d62-911bb3dea5fa","ios":"levelo://app?vid=a6fe3be9-2ae1-42ce-9d62-911bb3dea5fa"},"vehicle_type_id":"4","last_reported":1715526456,"current_range_meters":26000,"station_id":"ce4bhb12rcd13ifvqem0","pricing_plan_id":"cebpf4jnsgd1na2vs0mg"},{"bike_id":"4e944ab9-1f69-459a-9873-38a6951c8d35","system_id":"levelo_inurba_marseille","lat":43.309371,"lon":5.401449,"is_reserved":false,"is_disabled":false,"rental_uris":{"android":"levelo://app?vid=4e944ab9-1f69-459a-9873-38a6951c8d35","ios":"levelo://app?vid=4e944ab9-1f69-459a-9873-38a6951c8d35"},"vehicle_type_id":"4","last_reported":1715526456,"current_range_meters":0,"station_id":"ce4bgvp2rcd13ifvqct0","pricing_plan_id":"cebpf4jnsgd1na2vs0mg"},{"bike_id":"08c95eaf-11f4-4e91-af15-52a909417c7b","system_id":"levelo_inurba_marseille","lat":43.312609,"lon":5.401662,"is_reserved":false,"is_disabled":false,"rental_uris":{"android":"levelo://app?vid=08c95eaf-11f4-4e91-af15-52a909417c7b","ios":"levelo://app?vid=08c95eaf-11f4-4e91-af15-52a909417c7b"},"vehicle_type_id":"4","last_reported":1715526456,"current_range_meters":4400,"station_id":"ce4bh092rcd13ifvqd30","pricing_plan_id":"cebpf4jnsgd1na2vs0mg"},{"bike_id":"eea4e90e-a865-419d-84fe-d9427623654e","system_id":"levelo_inurba_marseille","lat":43.312609,"lon":5.401662,"is_reserved":false,"is_disabled":false,"rental_uris":{"android":"levelo://app?vid=eea4e90e-a865-419d-84fe-d9427623654e","ios":"levelo://app?vid=eea4e90e-a865-419d-84fe-d9427623654e"},"vehicle_type_id":"4","last_reported":1715526456,"current_range_meters":0,"station_id":"ce4bh092rcd13ifvqd30","pricing_plan_id":"cebpf4jnsgd1na2vs0mg"},{"bike_id":"a0bdbf1c-2c32-44aa-8ed1-b2a54fbde2a4","system_id":"levelo_inurba_marseille","lat":43.309371,"lon":5.401449,"is_reserved":false,"is_disabled":false,"rental_uris":{"android":"levelo://app?vid=a0bdbf1c-2c32-44aa-8ed1-b2a54fbde2a4","ios":"levelo://app?vid=a0bdbf1c-2c32-44aa-8ed1-b2a54fbde2a4"},"vehicle_type_id":"4","last_reported":1715526456,"current_range_meters":0,"station_id":"ce4bgvp2rcd13ifvqct0","pricing_plan_id":"cebpf4jnsgd1na2vs0mg"},{"bike_id":"38e77a54-43d1-4a6a-af3a-d5bfea156abf","system_id":"levelo_inurba_marseille","lat":43.31294,"lon":5.40178,"is_reserved":false,"is_disabled":false,"rental_uris":{"android":"levelo://app?vid=38e77a54-43d1-4a6a-af3a-d5bfea156abf","ios":"levelo://app?vid=38e77a54-43d1-4a6a-af3a-d5bfea156abf"},"vehicle_type_id":"4","last_reported":1715526456,"current_range_meters":16400,"station_id":"ce4bh092rcd13ifvqd30","pricing_plan_id":"cebpf4jnsgd1na2vs0mg"},{"bike_id":"91d9714b-b35f-47ce-8f34-022bf351236f","system_id":"levelo_inurba_marseille","lat":43.33762,"lon":5.37436,"is_reserved":false,"is_disabled":false,"rental_uris":{"android":"levelo://app?vid=91d9714b-b35f-47ce-8f34-022bf351236f","ios":"levelo://app?vid=91d9714b-b35f-47ce-8f34-022bf351236f"},"vehicle_type_id":"4","last_reported":1715526456,"current_range_meters":20800,"station_id":"","pricing_plan_id":"cebpf4jnsgd1na2vs0mg"},{"bike_id":"f7932a42-aa5c-439b-b535-65dd8ccd41cf","system_id":"levelo_inurba_marseille","lat":43.33754,"lon":5.37489,"is_reserved":false,"is_disabled":false,"rental_uris":{"android":"levelo://app?vid=f7932a42-aa5c-439b-b535-65dd8ccd41cf","ios":"levelo://app?vid=f7932a42-aa5c-439b-b535-65dd8ccd41cf"},"vehicle_type_id":"4","last_reported":1715526456,"current_range_meters":29200,"station_id":"","pricing_plan_id":"cebpf4jnsgd1na2vs0mg"},{"bike_id":"e47d305d-66bf-4475-bfa4-0fdd093639ed","system_id":"levelo_inurba_marseille","lat":43.30642,"lon":5.401031,"is_reserved":false,"is_disabled":false,"rental_uris":{"android":"levelo://app?vid=e47d305d-66bf-4475-bfa4-0fdd093639ed","ios":"levelo://app?vid=e47d305d-66bf-4475-bfa4-0fdd093639ed"},"vehicle_type_id":"4","last_reported":1715526456,"current_range_meters":22800,"station_id":"ce4bh112rcd13ifvqda0","pricing_plan_id":"cebpf4jnsgd1na2vs0mg"},{"bike_id":"d831da2b-35de-4a0c-b783-102f54cfe268","system_id":"levelo_inurba_marseille","lat":43.301117,"lon":5.398795,"is_reserved":false,"is_disabled":false,"rental_uris":{"android":"levelo://app?vid=d831da2b-35de-4a0c-b783-102f54cfe268","ios":"levelo://app?vid=d831da2b-35de-4a0c-b783-102f54cfe268"},"vehicle_type_id":"4","last_reported":1715526456,"current_range_meters":19200,"station_id":"ce4bh0h2rcd13ifvqd40","pricing_plan_id":"cebpf4jnsgd1na2vs0mg"},{"bike_id":"80a59828-5120-4d69-9948-6bc14c946548","system_id":"levelo_inurba_marseille","lat":43.306412,"lon":5.401035,"is_reserved":false,"is_disabled":false,"rental_uris":{"android":"levelo://app?vid=80a59828-5120-4d69-9948-6bc14c946548","ios":"levelo://app?vid=80a59828-5120-4d69-9948-6bc14c946548"},"vehicle_type_id":"4","last_reported":1715526456,"current_range_meters":20000,"station_id":"ce4bh112rcd13ifvqda0","pricing_plan_id":"cebpf4jnsgd1na2vs0mg"},{"bike_id":"d92d8ac5-5a0a-42d9-b8ab-90030aceccb1","system_id":"levelo_inurba_marseille","lat":43.301117,"lon":5.398795,"is_reserved":false,"is_disabled":false,"rental_uris":{"android":"levelo://app?vid=d92d8ac5-5a0a-42d9-b8ab-90030aceccb1","ios":"levelo://app?vid=d92d8ac5-5a0a-42d9-b8ab-90030aceccb1"},"vehicle_type_id":"4","last_reported":1715526456,"current_range_meters":2400,"station_id":"ce4bh0h2rcd13ifvqd40","pricing_plan_id":"cebpf4jnsgd1na2vs0mg"},{"bike_id":"14149032-650f-46ef-a1fc-93652d738ece","system_id":"levelo_inurba_marseille","lat":43.289184,"lon":5.366408,"is_reserved":false,"is_disabled":false,"rental_uris":{"android":"levelo://app?vid=14149032-650f-46ef-a1fc-93652d738ece","ios":"levelo://app?vid=14149032-650f-46ef-a1fc-93652d738ece"},"vehicle_type_id":"4","last_reported":1715526456,"current_range_meters":24400,"station_id":"ce4bhap2rcd13ifvqek0","pricing_plan_id":"cebpf4jnsgd1na2vs0mg"},{"bike_id":"c4d0e05e-f823-41a0-b4f6-e4027d937ec6","system_id":"levelo_inurba_marseille","lat":43.306412,"lon":5.401035,"is_reserved":false,"is_disabled":false,"rental_uris":{"android":"levelo://app?vid=c4d0e05e-f823-41a0-b4f6-e4027d937ec6","ios":"levelo://app?vid=c4d0e05e-f823-41a0-b4f6-e4027d937ec6"},"vehicle_type_id":"4","last_reported":1715526456,"current_range_meters":3600,"station_id":"ce4bh112rcd13ifvqda0","pricing_plan_id":"cebpf4jnsgd1na2vs0mg"},{"bike_id":"0c52e800-b923-40d4-9cb1-9102664ea071","system_id":"levelo_inurba_marseille","lat":43.28727,"lon":5.36078,"is_reserved":false,"is_disabled":false,"rental_uris":{"android":"levelo://app?vid=0c52e800-b923-40d4-9cb1-9102664ea071","ios":"levelo://app?vid=0c52e800-b923-40d4-9cb1-9102664ea071"},"vehicle_type_id":"4","last_reported":1715526456,"current_range_meters":30000,"station_id":"cki0cbj6b192h4jlfktg","pricing_plan_id":"cebpf4jnsgd1na2vs0mg"},{"bike_id":"91266183-f089-41f9-b680-9b6f42362c41","system_id":"levelo_inurba_marseille","lat":43.28714,"lon":5.360948,"is_reserved":false,"is_disabled":false,"rental_uris":{"android":"levelo://app?vid=91266183-f089-41f9-b680-9b6f42362c41","ios":"levelo://app?vid=91266183-f089-41f9-b680-9b6f42362c41"},"vehicle_type_id":"4","last_reported":1715526456,"current_range_meters":20400,"station_id":"","pricing_plan_id":"cebpf4jnsgd1na2vs0mg"},{"bike_id":"690643c6-ee6b-4747-b7c9-0bbab9ba1e4f","system_id":"levelo_inurba_marseille","lat":43.286961,"lon":5.373785,"is_reserved":false,"is_disabled":false,"rental_uris":{"android":"levelo://app?vid=690643c6-ee6b-4747-b7c9-0bbab9ba1e4f","ios":"levelo://app?vid=690643c6-ee6b-4747-b7c9-0bbab9ba1e4f"},"vehicle_type_id":"4","last_reported":1715526456,"current_range_meters":19200,"station_id":"ce4bh3p2rcd13ifvqdq0","pricing_plan_id":"cebpf4jnsgd1na2vs0mg"},{"bike_id":"ea9b3b68-4f7c-4efe-9ac7-70f637130e04","system_id":"levelo_inurba_marseille","lat":43.28667,"lon":5.36344,"is_reserved":false,"is_disabled":false,"rental_uris":{"android":"levelo://app?vid=ea9b3b68-4f7c-4efe-9ac7-70f637130e04","ios":"levelo://app?vid=ea9b3b68-4f7c-4efe-9ac7-70f637130e04"},"vehicle_type_id":"4","last_reported":1715526456,"current_range_meters":0,"station_id":"ce4bhah2rcd13ifvqej0","pricing_plan_id":"cebpf4jnsgd1na2vs0mg"},{"bike_id":"081b438e-9e4d-4164-a026-d0b9010d173d","system_id":"levelo_inurba_marseille","lat":43.286961,"lon":5.373785,"is_reserved":false,"is_disabled":false,"rental_uris":{"android":"levelo://app?vid=081b438e-9e4d-4164-a026-d0b9010d173d","ios":"levelo://app?vid=081b438e-9e4d-4164-a026-d0b9010d173d"},"vehicle_type_id":"4","last_reported":1715526456,"current_range_meters":20400,"station_id":"ce4bh3p2rcd13ifvqdq0","pricing_plan_id":"cebpf4jnsgd1na2vs0mg"},{"bike_id":"5d5484be-5dde-46a9-82d2-368f6d66ff60","system_id":"levelo_inurba_marseille","lat":43.29535,"lon":5.39389,"is_reserved":false,"is_disabled":false,"rental_uris":{"android":"levelo://app?vid=5d5484be-5dde-46a9-82d2-368f6d66ff60","ios":"levelo://app?vid=5d5484be-5dde-46a9-82d2-368f6d66ff60"},"vehicle_type_id":"4","last_reported":1715526456,"current_range_meters":17600,"station_id":"ce4bh292rcd13ifvqdf0","pricing_plan_id":"cebpf4jnsgd1na2vs0mg"},{"bike_id":"c2667c60-fdac-42b9-8b79-725293a5cc59","system_id":"levelo_inurba_marseille","lat":43.286591,"lon":5.363346,"is_reserved":false,"is_disabled":false,"rental_uris":{"android":"levelo://app?vid=c2667c60-fdac-42b9-8b79-725293a5cc59","ios":"levelo://app?vid=c2667c60-fdac-42b9-8b79-725293a5cc59"},"vehicle_type_id":"4","last_reported":1715526456,"current_range_meters":12400,"station_id":"ce4bhah2rcd13ifvqej0","pricing_plan_id":"cebpf4jnsgd1na2vs0mg"},{"bike_id":"c7fe22b5-8c63-4f03-aed9-65a8bca2375a","system_id":"levelo_inurba_marseille","lat":43.295194,"lon":5.39397,"is_reserved":false,"is_disabled":false,"rental_uris":{"android":"levelo://app?vid=c7fe22b5-8c63-4f03-aed9-65a8bca2375a","ios":"levelo://app?vid=c7fe22b5-8c63-4f03-aed9-65a8bca2375a"},"vehicle_type_id":"4","last_reported":1715526456,"current_range_meters":16800,"station_id":"ce4bh292rcd13ifvqdf0","pricing_plan_id":"cebpf4jnsgd1na2vs0mg"},{"bike_id":"62032b26-ff69-4dc0-a9df-f96be269510b","system_id":"levelo_inurba_marseille","lat":43.295194,"lon":5.39397,"is_reserved":false,"is_disabled":false,"rental_uris":{"android":"levelo://app?vid=62032b26-ff69-4dc0-a9df-f96be269510b","ios":"levelo://app?vid=62032b26-ff69-4dc0-a9df-f96be269510b"},"vehicle_type_id":"4","last_reported":1715526456,"current_range_meters":7200,"station_id":"ce4bh292rcd13ifvqdf0","pricing_plan_id":"cebpf4jnsgd1na2vs0mg"},{"bike_id":"9d0143cc-54ab-4e68-8b5b-cb395ccf3f4d","system_id":"levelo_inurba_marseille","lat":43.302759,"lon":5.400793,"is_reserved":false,"is_disabled":false,"rental_uris":{"android":"levelo://app?vid=9d0143cc-54ab-4e68-8b5b-cb395ccf3f4d","ios":"levelo://app?vid=9d0143cc-54ab-4e68-8b5b-cb395ccf3f4d"},"vehicle_type_id":"4","last_reported":1715526456,"current_range_meters":12000,"station_id":"ce4bgvh2rcd13ifvqcs0","pricing_plan_id":"cebpf4jnsgd1na2vs0mg"},{"bike_id":"579cb995-0139-4239-8c9c-ed8942c4bdef","system_id":"levelo_inurba_marseille","lat":43.302759,"lon":5.400793,"is_reserved":false,"is_disabled":false,"rental_uris":{"android":"levelo://app?vid=579cb995-0139-4239-8c9c-ed8942c4bdef","ios":"levelo://app?vid=579cb995-0139-4239-8c9c-ed8942c4bdef"},"vehicle_type_id":"4","last_reported":1715526456,"current_range_meters":15200,"station_id":"ce4bgvh2rcd13ifvqcs0","pricing_plan_id":"cebpf4jnsgd1na2vs0mg"},{"bike_id":"f3b5e492-b908-4c51-bd40-bf8f8e293fb7","system_id":"levelo_inurba_marseille","lat":43.302759,"lon":5.400793,"is_reserved":false,"is_disabled":false,"rental_uris":{"android":"levelo://app?vid=f3b5e492-b908-4c51-bd40-bf8f8e293fb7","ios":"levelo://app?vid=f3b5e492-b908-4c51-bd40-bf8f8e293fb7"},"vehicle_type_id":"4","last_reported":1715526456,"current_range_meters":800,"station_id":"ce4bgvh2rcd13ifvqcs0","pricing_plan_id":"cebpf4jnsgd1na2vs0mg"},{"bike_id":"e2bc0e16-1239-4861-a6a6-e1c3d41a6204","system_id":"levelo_inurba_marseille","lat":43.28617,"lon":5.37065,"is_reserved":false,"is_disabled":false,"rental_uris":{"android":"levelo://app?vid=e2bc0e16-1239-4861-a6a6-e1c3d41a6204","ios":"levelo://app?vid=e2bc0e16-1239-4861-a6a6-e1c3d41a6204"},"vehicle_type_id":"4","last_reported":1715526456,"current_range_meters":2400,"station_id":"ce4bht12rcd13ifvqi60","pricing_plan_id":"cebpf4jnsgd1na2vs0mg"},{"bike_id":"0754ba60-d794-4b4b-ab8a-4b7a62ba795f","system_id":"levelo_inurba_marseille","lat":43.316892,"lon":5.404632,"is_reserved":false,"is_disabled":false,"rental_uris":{"android":"levelo://app?vid=0754ba60-d794-4b4b-ab8a-4b7a62ba795f","ios":"levelo://app?vid=0754ba60-d794-4b4b-ab8a-4b7a62ba795f"},"vehicle_type_id":"4","last_reported":1715526456,"current_range_meters":4000,"station_id":"ce4bh012rcd13ifvqd00","pricing_plan_id":"cebpf4jnsgd1na2vs0mg"},{"bike_id":"96eb2fd9-9b5a-49e0-9d22-22ef091538f9","system_id":"levelo_inurba_marseille","lat":43.316896,"lon":5.404662,"is_reserved":false,"is_disabled":false,"rental_uris":{"android":"levelo://app?vid=96eb2fd9-9b5a-49e0-9d22-22ef091538f9","ios":"levelo://app?vid=96eb2fd9-9b5a-49e0-9d22-22ef091538f9"},"vehicle_type_id":"4","last_reported":1715526456,"current_range_meters":16800,"station_id":"ce4bh012rcd13ifvqd00","pricing_plan_id":"cebpf4jnsgd1na2vs0mg"},{"bike_id":"163be150-0197-425a-898a-acd14016745f","system_id":"levelo_inurba_marseille","lat":43.316953,"lon":5.404681,"is_reserved":false,"is_disabled":false,"rental_uris":{"android":"levelo://app?vid=163be150-0197-425a-898a-acd14016745f","ios":"levelo://app?vid=163be150-0197-425a-898a-acd14016745f"},"vehicle_type_id":"4","last_reported":1715526456,"current_range_meters":10400,"station_id":"ce4bh012rcd13ifvqd00","pricing_plan_id":"cebpf4jnsgd1na2vs0mg"},{"bike_id":"117f3ffe-3633-4f02-8315-be130002348c","system_id":"levelo_inurba_marseille","lat":43.3169,"lon":5.40471,"is_reserved":false,"is_disabled":false,"rental_uris":{"android":"levelo://app?vid=117f3ffe-3633-4f02-8315-be130002348c","ios":"levelo://app?vid=117f3ffe-3633-4f02-8315-be130002348c"},"vehicle_type_id":"4","last_reported":1715526456,"current_range_meters":6800,"station_id":"ce4bh012rcd13ifvqd00","pricing_plan_id":"cebpf4jnsgd1na2vs0mg"},{"bike_id":"bab7c7da-aa8f-43a0-b95d-75e49e3d2d8c","system_id":"levelo_inurba_marseille","lat":43.31692,"lon":5.40471,"is_reserved":false,"is_disabled":false,"rental_uris":{"android":"levelo://app?vid=bab7c7da-aa8f-43a0-b95d-75e49e3d2d8c","ios":"levelo://app?vid=bab7c7da-aa8f-43a0-b95d-75e49e3d2d8c"},"vehicle_type_id":"4","last_reported":1715526456,"current_range_meters":6800,"station_id":"ce4bh012rcd13ifvqd00","pricing_plan_id":"cebpf4jnsgd1na2vs0mg"},{"bike_id":"2d4cf890-ac86-44eb-8c7d-61526e1ba141","system_id":"levelo_inurba_marseille","lat":43.316821,"lon":5.404737,"is_reserved":false,"is_disabled":false,"rental_uris":{"android":"levelo://app?vid=2d4cf890-ac86-44eb-8c7d-61526e1ba141","ios":"levelo://app?vid=2d4cf890-ac86-44eb-8c7d-61526e1ba141"},"vehicle_type_id":"4","last_reported":1715526456,"current_range_meters":2800,"station_id":"ce4bh012rcd13ifvqd00","pricing_plan_id":"cebpf4jnsgd1na2vs0mg"},{"bike_id":"abed52fa-abdf-49c4-994b-b6849b08f081","system_id":"levelo_inurba_marseille","lat":43.31697,"lon":5.40478,"is_reserved":false,"is_disabled":false,"rental_uris":{"android":"levelo://app?vid=abed52fa-abdf-49c4-994b-b6849b08f081","ios":"levelo://app?vid=abed52fa-abdf-49c4-994b-b6849b08f081"},"vehicle_type_id":"4","last_reported":1715526456,"current_range_meters":28800,"station_id":"ce4bh012rcd13ifvqd00","pricing_plan_id":"cebpf4jnsgd1na2vs0mg"},{"bike_id":"b522de65-6bd9-4d74-842f-44044b556dd9","system_id":"levelo_inurba_marseille","lat":43.284538,"lon":5.358657,"is_reserved":false,"is_disabled":false,"rental_uris":{"android":"levelo://app?vid=b522de65-6bd9-4d74-842f-44044b556dd9","ios":"levelo://app?vid=b522de65-6bd9-4d74-842f-44044b556dd9"},