{"last_updated":1758651331,"ttl":60,"version":"2.2","data":{"bikes":[{"bike_id":"05977a29-4492-4e42-b026-696e72e1cc93","system_id":"levelo_inurba_marseille","lat":43.282635,"lon":5.372563,"is_reserved":false,"is_disabled":false,"rental_uris":{"android":"levelo://app?vid=05977a29-4492-4e42-b026-696e72e1cc93","ios":"levelo://app?vid=05977a29-4492-4e42-b026-696e72e1cc93"},"vehicle_type_id":"4","last_reported":1758651331,"current_range_meters":2800,"station_id":"","pricing_plan_id":"cebpf4jnsgd1na2vs0mg"},{"bike_id":"19063618-a2fe-4745-b4e0-97ac8e923a29","system_id":"levelo_inurba_marseille","lat":43.29161,"lon":5.37152,"is_reserved":false,"is_disabled":false,"rental_uris":{"android":"levelo://app?vid=19063618-a2fe-4745-b4e0-97ac8e923a29","ios":"levelo://app?vid=19063618-a2fe-4745-b4e0-97ac8e923a29"},"vehicle_type_id":"4","last_reported":1758651331,"current_range_meters":2800,"station_id":"ce4bha92rcd13ifvqeh0","pricing_plan_id":"cebpf4jnsgd1na2vs0mg"},{"bike_id":"7ffb2ece-7fbf-479f-b60b-ebba8310dedb","system_id":"levelo_inurba_marseille","lat":43.24173,"lon":5.36388,"is_reserved":false,"is_disabled":false,"rental_uris":{"android":"levelo://app?vid=7ffb2ece-7fbf-479f-b60b-ebba8310dedb","ios":"levelo://app?vid=7ffb2ece-7fbf-479f-b60b-ebba8310dedb"},"vehicle_type_id":"4","last_reported":1758651331,"current_range_meters":2800,"station_id":"cpo36qri1sfpv3e86is0","pricing_plan_id":"cebpf4jnsgd1na2vs0mg"},{"bike_id":"72df89cb-7746-46e6-b269-fbddd2d473fe","system_id":"levelo_inurba_marseille","lat":43.32109,"lon":5.36786,"is_reserved":false,"is_disabled":false,"rental_uris":{"android":"levelo://app?vid=72df89cb-7746-46e6-b269-fbddd2d473fe","ios":"levelo://app?vid=72df89cb-7746-46e6-b269-fbddd2d473fe"},"vehicle_type_id":"4","last_reported":1758651331,"current_range_meters":2800,"station_id":"ce4bhrh2rcd13ifvqhug","pricing_plan_id":"cebpf4jnsgd1na2vs0mg"},{"bike_id":"497d4d90-a4f7-4dca-a63d-c2f48f9f98ff","system_id":"levelo_inurba_marseille","lat":43.27734,"lon":5.38846,"is_reserved":false,"is_disabled":false,"rental_uris":{"android":"levelo://app?vid=497d4d90-a4f7-4dca-a63d-c2f48f9f98ff","ios":"levelo://app?vid=497d4d90-a4f7-4dca-a63d-c2f48f9f98ff"},"vehicle_type_id":"4","last_reported":1758651331,"current_range_meters":2000,"station_id":"ce4bhi12rcd13ifvqfo0","pricing_plan_id":"cebpf4jnsgd1na2vs0mg"},{"bike_id":"eef78f3e-6d8e-4786-af5e-23fd03ec5a98","system_id":"levelo_inurba_marseille","lat":43.30645,"lon":5.40099,"is_reserved":false,"is_disabled":false,"rental_uris":{"android":"levelo://app?vid=eef78f3e-6d8e-4786-af5e-23fd03ec5a98","ios":"levelo://app?vid=eef78f3e-6d8e-4786-af5e-23fd03ec5a98"},"vehicle_type_id":"4","last_reported":1758651331,"current_range_meters":3200,"station_id":"ce4bh112rcd13ifvqda0","pricing_plan_id":"cebpf4jnsgd1na2vs0mg"},{"bike_id":"52262a76-bb72-4c4f-b6de-35d1a41e798c","system_id":"levelo_inurba_marseille","lat":43.337444,"lon":5.374475,"is_reserved":false,"is_disabled":false,"rental_uris":{"android":"levelo://app?vid=52262a76-bb72-4c4f-b6de-35d1a41e798c","ios":"levelo://app?vid=52262a76-bb72-4c4f-b6de-35d1a41e798c"},"vehicle_type_id":"4","last_reported":1758651331,"current_range_meters":3200,"station_id":"","pricing_plan_id":"cebpf4jnsgd1na2vs0mg"},{"bike_id":"54502de0-09ba-43cd-a1f2-9f84e6e6c1cb","system_id":"levelo_inurba_marseille","lat":43.290149,"lon":5.381283,"is_reserved":false,"is_disabled":false,"rental_uris":{"android":"levelo://app?vid=54502de0-09ba-43cd-a1f2-9f84e6e6c1cb","ios":"levelo://app?vid=54502de0-09ba-43cd-a1f2-9f84e6e6c1cb"},"vehicle_type_id":"4","last_reported":1758651331,"current_range_meters":3200,"station_id":"","pricing_plan_id":"cebpf4jnsgd1na2vs0mg"},{"bike_id":"62201a90-80df-4950-a399-a2bab82ef791","system_id":"levelo_inurba_marseille","lat":43.29799,"lon":5.38102,"is_reserved":false,"is_disabled":false,"rental_uris":{"android":"levelo://app?vid=62201a90-80df-4950-a399-a2bab82ef791","ios":"levelo://app?vid=62201a90-80df-4950-a399-a2bab82ef791"},"vehicle_type_id":"4","last_reported":1758651331,"current_range_meters":4000,"station_id":"ce4bgip2rcd13ifvqbb0","pricing_plan_id":"cebpf4jnsgd1na2vs0mg"},{"bike_id":"baa2505f-1fcd-43a8-b19b-2e31482f612c","system_id":"levelo_inurba_marseille","lat":43.24956,"lon":5.40498,"is_reserved":false,"is_disabled":false,"rental_uris":{"android":"levelo://app?vid=baa2505f-1fcd-43a8-b19b-2e31482f612c","ios":"levelo://app?vid=baa2505f-1fcd-43a8-b19b-2e31482f612c"},"vehicle_type_id":"4","last_reported":1758651331,"current_range_meters":3200,"station_id":"st_d2ngiaodas8pm72gd1h0","pricing_plan_id":"cebpf4jnsgd1na2vs0mg"},{"bike_id":"1b790372-5d34-489f-a29a-5f2319ad70e0","system_id":"levelo_inurba_marseille","lat":43.28261,"lon":5.35048,"is_reserved":false,"is_disabled":true,"rental_uris":{"android":"levelo://app?vid=1b790372-5d34-489f-a29a-5f2319ad70e0","ios":"levelo://app?vid=1b790372-5d34-489f-a29a-5f2319ad70e0"},"vehicle_type_id":"4","last_reported":1758651331,"current_range_meters":3200,"station_id":"ce4bhbp2rcd13ifvqerg","pricing_plan_id":"cebpf4jnsgd1na2vs0mg"},{"bike_id":"e0affcc8-25df-4db1-9bd3-414a4989d5d4","system_id":"levelo_inurba_marseille","lat":43.25108,"lon":5.40326,"is_reserved":false,"is_disabled":false,"rental_uris":{"android":"levelo://app?vid=e0affcc8-25df-4db1-9bd3-414a4989d5d4","ios":"levelo://app?vid=e0affcc8-25df-4db1-9bd3-414a4989d5d4"},"vehicle_type_id":"4","last_reported":1758651331,"current_range_meters":3200,"station_id":"ce4bhlh2rcd13ifvqgig","pricing_plan_id":"cebpf4jnsgd1na2vs0mg"},{"bike_id":"ca72e0ee-abd6-4249-b757-0cb9b1a18836","system_id":"levelo_inurba_marseille","lat":43.2707,"lon":5.4228,"is_reserved":false,"is_disabled":false,"rental_uris":{"android":"levelo://app?vid=ca72e0ee-abd6-4249-b757-0cb9b1a18836","ios":"levelo://app?vid=ca72e0ee-abd6-4249-b757-0cb9b1a18836"},"vehicle_type_id":"4","last_reported":1758651331,"current_range_meters":3200,"station_id":"ce4bhk92rcd13ifvqgb0","pricing_plan_id":"cebpf4jnsgd1na2vs0mg"},{"bike_id":"fac0bf5d-f58c-4c75-96b8-1ba7ad964b10","system_id":"levelo_inurba_marseille","lat":43.29527,"lon":5.38548,"is_reserved":false,"is_disabled":false,"rental_uris":{"android":"levelo://app?vid=fac0bf5d-f58c-4c75-96b8-1ba7ad964b10","ios":"levelo://app?vid=fac0bf5d-f58c-4c75-96b8-1ba7ad964b10"},"vehicle_type_id":"4","last_reported":1758651331,"current_range_meters":3200,"station_id":"ce4bgih2rcd13ifvqba0","pricing_plan_id":"cebpf4jnsgd1na2vs0mg"},{"bike_id":"d6a62b3c-f468-4e3c-993f-9f5010808096","system_id":"levelo_inurba_marseille","lat":43.2846,"lon":5.35894,"is_reserved":false,"is_disabled":false,"rental_uris":{"android":"levelo://app?vid=d6a62b3c-f468-4e3c-993f-9f5010808096","ios":"levelo://app?vid=d6a62b3c-f468-4e3c-993f-9f5010808096"},"vehicle_type_id":"4","last_reported":1758651331,"current_range_meters":2000,"station_id":"ce4bhah2rcd13ifvqei0","pricing_plan_id":"cebpf4jnsgd1na2vs0mg"},{"bike_id":"da843d4c-f4da-4e99-8373-d73613666b4b","system_id":"levelo_inurba_marseille","lat":43.28349,"lon":5.3811,"is_reserved":false,"is_disabled":false,"rental_uris":{"android":"levelo://app?vid=da843d4c-f4da-4e99-8373-d73613666b4b","ios":"levelo://app?vid=da843d4c-f4da-4e99-8373-d73613666b4b"},"vehicle_type_id":"4","last_reported":1758651331,"current_range_meters":1600,"station_id":"ce4bh412rcd13ifvqdr0","pricing_plan_id":"cebpf4jnsgd1na2vs0mg"},{"bike_id":"ad07771f-a1ee-4657-b6bf-69dcef9378ad","system_id":"levelo_inurba_marseille","lat":43.26204,"lon":5.37926,"is_reserved":false,"is_disabled":false,"rental_uris":{"android":"levelo://app?vid=ad07771f-a1ee-4657-b6bf-69dcef9378ad","ios":"levelo://app?vid=ad07771f-a1ee-4657-b6bf-69dcef9378ad"},"vehicle_type_id":"4","last_reported":1758651331,"current_range_meters":3600,"station_id":"ce4bhjp2rcd13ifvqg90","pricing_plan_id":"cebpf4jnsgd1na2vs0mg"},{"bike_id":"0d56cf06-1411-4ef0-805b-ccfa60d18552","system_id":"levelo_inurba_marseille","lat":43.28412,"lon":5.37524,"is_reserved":false,"is_disabled":false,"rental_uris":{"android":"levelo://app?vid=0d56cf06-1411-4ef0-805b-ccfa60d18552","ios":"levelo://app?vid=0d56cf06-1411-4ef0-805b-ccfa60d18552"},"vehicle_type_id":"4","last_reported":1758651331,"current_range_meters":3600,"station_id":"ce4bh412rcd13ifvqds0","pricing_plan_id":"cebpf4jnsgd1na2vs0mg"},{"bike_id":"02790242-c988-4e59-b2f4-690dfaacba9a","system_id":"levelo_inurba_marseille","lat":43.290073,"lon":5.378534,"is_reserved":false,"is_disabled":false,"rental_uris":{"android":"levelo://app?vid=02790242-c988-4e59-b2f4-690dfaacba9a","ios":"levelo://app?vid=02790242-c988-4e59-b2f4-690dfaacba9a"},"vehicle_type_id":"4","last_reported":1758651331,"current_range_meters":3600,"station_id":"ce4bh9p2rcd13ifvqed0","pricing_plan_id":"cebpf4jnsgd1na2vs0mg"},{"bike_id":"f85dce54-a86e-48bb-9979-5386ee3e5506","system_id":"levelo_inurba_marseille","lat":43.28919,"lon":5.38397,"is_reserved":false,"is_disabled":false,"rental_uris":{"android":"levelo://app?vid=f85dce54-a86e-48bb-9979-5386ee3e5506","ios":"levelo://app?vid=f85dce54-a86e-48bb-9979-5386ee3e5506"},"vehicle_type_id":"4","last_reported":1758651331,"current_range_meters":3600,"station_id":"ce4bh612rcd13ifvqe6g","pricing_plan_id":"cebpf4jnsgd1na2vs0mg"},{"bike_id":"e5805e0d-c1d9-47a4-ac4d-e3309d939fa5","system_id":"levelo_inurba_marseille","lat":43.2792,"lon":5.41047,"is_reserved":false,"is_disabled":false,"rental_uris":{"android":"levelo://app?vid=e5805e0d-c1d9-47a4-ac4d-e3309d939fa5","ios":"levelo://app?vid=e5805e0d-c1d9-47a4-ac4d-e3309d939fa5"},"vehicle_type_id":"4","last_reported":1758651331,"current_range_meters":4000,"station_id":"ce4bhnp2rcd13ifvqh0g","pricing_plan_id":"cebpf4jnsgd1na2vs0mg"},{"bike_id":"887efa04-ef78-45db-879b-b408995e111f","system_id":"levelo_inurba_marseille","lat":43.28971,"lon":5.383649,"is_reserved":false,"is_disabled":false,"rental_uris":{"android":"levelo://app?vid=887efa04-ef78-45db-879b-b408995e111f","ios":"levelo://app?vid=887efa04-ef78-45db-879b-b408995e111f"},"vehicle_type_id":"4","last_reported":1758651331,"current_range_meters":4000,"station_id":"ce4bh612rcd13ifvqe6g","pricing_plan_id":"cebpf4jnsgd1na2vs0mg"},{"bike_id":"0c2f27be-9f81-49fd-a07e-82614d88c942","system_id":"levelo_inurba_marseille","lat":43.291677,"lon":5.371577,"is_reserved":false,"is_disabled":false,"rental_uris":{"android":"levelo://app?vid=0c2f27be-9f81-49fd-a07e-82614d88c942","ios":"levelo://app?vid=0c2f27be-9f81-49fd-a07e-82614d88c942"},"vehicle_type_id":"4","last_reported":1758651331,"current_range_meters":4000,"station_id":"ce4bha92rcd13ifvqeh0","pricing_plan_id":"cebpf4jnsgd1na2vs0mg"},{"bike_id":"ac8fd63c-4cfa-4b10-aa1a-d02b31678d7c","system_id":"levelo_inurba_marseille","lat":43.27944,"lon":5.41053,"is_reserved":false,"is_disabled":false,"rental_uris":{"android":"levelo://app?vid=ac8fd63c-4cfa-4b10-aa1a-d02b31678d7c","ios":"levelo://app?vid=ac8fd63c-4cfa-4b10-aa1a-d02b31678d7c"},"vehicle_type_id":"4","last_reported":1758651331,"current_range_meters":4000,"station_id":"ce4bhnp2rcd13ifvqh0g","pricing_plan_id":"cebpf4jnsgd1na2vs0mg"},{"bike_id":"5ca528be-0ec1-4093-b762-a74a04976c74","system_id":"levelo_inurba_marseille","lat":43.29259,"lon":5.38432,"is_reserved":false,"is_disabled":false,"rental_uris":{"android":"levelo://app?vid=5ca528be-0ec1-4093-b762-a74a04976c74","ios":"levelo://app?vid=5ca528be-0ec1-4093-b762-a74a04976c74"},"vehicle_type_id":"4","last_reported":1758651331,"current_range_meters":4000,"station_id":"ce4bh692rcd13ifvqea0","pricing_plan_id":"cebpf4jnsgd1na2vs0mg"},{"bike_id":"9176512c-2cc1-4df2-a8e0-6be514fbcdbf","system_id":"levelo_inurba_marseille","lat":43.33748,"lon":5.37465,"is_reserved":false,"is_disabled":false,"rental_uris":{"android":"levelo://app?vid=9176512c-2cc1-4df2-a8e0-6be514fbcdbf","ios":"levelo://app?vid=9176512c-2cc1-4df2-a8e0-6be514fbcdbf"},"vehicle_type_id":"4","last_reported":1758651331,"current_range_meters":4400,"station_id":"","pricing_plan_id":"cebpf4jnsgd1na2vs0mg"},{"bike_id":"b2411cbc-0a9c-4fa4-97a9-8eb901bb20b4","system_id":"levelo_inurba_marseille","lat":43.295159,"lon":5.394024,"is_reserved":false,"is_disabled":false,"rental_uris":{"android":"levelo://app?vid=b2411cbc-0a9c-4fa4-97a9-8eb901bb20b4","ios":"levelo://app?vid=b2411cbc-0a9c-4fa4-97a9-8eb901bb20b4"},"vehicle_type_id":"4","last_reported":1758651331,"current_range_meters":4400,"station_id":"ce4bh292rcd13ifvqdf0","pricing_plan_id":"cebpf4jnsgd1na2vs0mg"},{"bike_id":"438ead59-de14-4fa0-a61d-03a70a4122ae","system_id":"levelo_inurba_marseille","lat":43.97285,"lon":4.89134,"is_reserved":false,"is_disabled":true,"rental_uris":{"android":"levelo://app?vid=438ead59-de14-4fa0-a61d-03a70a4122ae","ios":"levelo://app?vid=438ead59-de14-4fa0-a61d-03a70a4122ae"},"vehicle_type_id":"4","last_reported":1758651331,"current_range_meters":4400,"station_id":"","pricing_plan_id":"cebpf4jnsgd1na2vs0mg"},{"bike_id":"6ab4a66e-7a65-4f29-b789-936dd211b77a","system_id":"levelo_inurba_marseille","lat":43.30934,"lon":5.3787,"is_reserved":false,"is_disabled":false,"rental_uris":{"android":"levelo://app?vid=6ab4a66e-7a65-4f29-b789-936dd211b77a","ios":"levelo://app?vid=6ab4a66e-7a65-4f29-b789-936dd211b77a"},"vehicle_type_id":"4","last_reported":1758651331,"current_range_meters":4800,"station_id":"","pricing_plan_id":"cebpf4jnsgd1na2vs0mg"},{"bike_id":"8accd668-6f99-4187-91bd-5526b6621395","system_id":"levelo_inurba_marseille","lat":43.285727,"lon":5.394903,"is_reserved":false,"is_disabled":false,"rental_uris":{"android":"levelo://app?vid=8accd668-6f99-4187-91bd-5526b6621395","ios":"levelo://app?vid=8accd668-6f99-4187-91bd-5526b6621395"},"vehicle_type_id":"4","last_reported":1758651331,"current_range_meters":3600,"station_id":"ce4bh292rcd13ifvqdg0","pricing_plan_id":"cebpf4jnsgd1na2vs0mg"},{"bike_id":"6e096c1f-ab29-40db-8160-ca57d01233ba","system_id":"levelo_inurba_marseille","lat":43.31534,"lon":5.38039,"is_reserved":false,"is_disabled":false,"rental_uris":{"android":"levelo://app?vid=6e096c1f-ab29-40db-8160-ca57d01233ba","ios":"levelo://app?vid=6e096c1f-ab29-40db-8160-ca57d01233ba"},"vehicle_type_id":"4","last_reported":1758651331,"current_range_meters":4800,"station_id":"ce4bhsp2rcd13ifvqi50","pricing_plan_id":"cebpf4jnsgd1na2vs0mg"},{"bike_id":"20f75a6a-3b52-484c-b975-ca6efd4be349","system_id":"levelo_inurba_marseille","lat":43.27806,"lon":5.4072,"is_reserved":false,"is_disabled":false,"rental_uris":{"android":"levelo://app?vid=20f75a6a-3b52-484c-b975-ca6efd4be349","ios":"levelo://app?vid=20f75a6a-3b52-484c-b975-ca6efd4be349"},"vehicle_type_id":"4","last_reported":1758651331,"current_range_meters":5600,"station_id":"ce4bhnh2rcd13ifvqgtg","pricing_plan_id":"cebpf4jnsgd1na2vs0mg"},{"bike_id":"255dd161-e117-45c1-950e-ec98fa13b7f2","system_id":"levelo_inurba_marseille","lat":43.26058,"lon":5.393923,"is_reserved":false,"is_disabled":false,"rental_uris":{"android":"levelo://app?vid=255dd161-e117-45c1-950e-ec98fa13b7f2","ios":"levelo://app?vid=255dd161-e117-45c1-950e-ec98fa13b7f2"},"vehicle_type_id":"4","last_reported":1758651331,"current_range_meters":5600,"station_id":"ce4bhh92rcd13ifvqfj0","pricing_plan_id":"cebpf4jnsgd1na2vs0mg"},{"bike_id":"b6d8bfd4-c278-47ca-8e70-02babbd98e6b","system_id":"levelo_inurba_marseille","lat":43.23181,"lon":5.39996,"is_reserved":false,"is_disabled":false,"rental_uris":{"android":"levelo://app?vid=b6d8bfd4-c278-47ca-8e70-02babbd98e6b","ios":"levelo://app?vid=b6d8bfd4-c278-47ca-8e70-02babbd98e6b"},"vehicle_type_id":"4","last_reported":1758651331,"current_range_meters":5600,"station_id":"ce4bhn12rcd13ifvqgqg","pricing_plan_id":"cebpf4jnsgd1na2vs0mg"},{"bike_id":"0023c8ba-956b-4646-82fd-c8751074c246","system_id":"levelo_inurba_marseille","lat":43.24387,"lon":5.37056,"is_reserved":false,"is_disabled":false,"rental_uris":{"android":"levelo://app?vid=0023c8ba-956b-4646-82fd-c8751074c246","ios":"levelo://app?vid=0023c8ba-956b-4646-82fd-c8751074c246"},"vehicle_type_id":"4","last_reported":1758651331,"current_range_meters":5600,"station_id":"ce4bhhh2rcd13ifvqfk0","pricing_plan_id":"cebpf4jnsgd1na2vs0mg"},{"bike_id":"de2775a9-1ffb-4665-8b70-4cf95f14cfe7","system_id":"levelo_inurba_marseille","lat":43.28407,"lon":5.37527,"is_reserved":false,"is_disabled":false,"rental_uris":{"android":"levelo://app?vid=de2775a9-1ffb-4665-8b70-4cf95f14cfe7","ios":"levelo://app?vid=de2775a9-1ffb-4665-8b70-4cf95f14cfe7"},"vehicle_type_id":"4","last_reported":1758651331,"current_range_meters":5600,"station_id":"ce4bh412rcd13ifvqds0","pricing_plan_id":"cebpf4jnsgd1na2vs0mg"},{"bike_id":"5ddca04a-c070-432c-b33b-b04adf717b6d","system_id":"levelo_inurba_marseille","lat":43.299747,"lon":5.384802,"is_reserved":false,"is_disabled":false,"rental_uris":{"android":"levelo://app?vid=5ddca04a-c070-432c-b33b-b04adf717b6d","ios":"levelo://app?vid=5ddca04a-c070-432c-b33b-b04adf717b6d"},"vehicle_type_id":"4","last_reported":1758651331,"current_range_meters":6000,"station_id":"","pricing_plan_id":"cebpf4jnsgd1na2vs0mg"},{"bike_id":"36675262-730f-41d5-88e0-b83e343efc97","system_id":"levelo_inurba_marseille","lat":43.29526,"lon":5.38543,"is_reserved":false,"is_disabled":false,"rental_uris":{"android":"levelo://app?vid=36675262-730f-41d5-88e0-b83e343efc97","ios":"levelo://app?vid=36675262-730f-41d5-88e0-b83e343efc97"},"vehicle_type_id":"4","last_reported":1758651331,"current_range_meters":5600,"station_id":"ce4bgih2rcd13ifvqba0","pricing_plan_id":"cebpf4jnsgd1na2vs0mg"},{"bike_id":"0021204f-ff4e-45ec-b2b0-30fb425fcb48","system_id":"levelo_inurba_marseille","lat":43.29714,"lon":5.377,"is_reserved":false,"is_disabled":false,"rental_uris":{"android":"levelo://app?vid=0021204f-ff4e-45ec-b2b0-30fb425fcb48","ios":"levelo://app?vid=0021204f-ff4e-45ec-b2b0-30fb425fcb48"},"vehicle_type_id":"4","last_reported":1758651331,"current_range_meters":5600,"station_id":"ce4bgkh2rcd13ifvqbl0","pricing_plan_id":"cebpf4jnsgd1na2vs0mg"},{"bike_id":"b00a9f63-e16c-4120-9e6d-2f9457e03b03","system_id":"levelo_inurba_marseille","lat":43.30894,"lon":5.3719,"is_reserved":false,"is_disabled":false,"rental_uris":{"android":"levelo://app?vid=b00a9f63-e16c-4120-9e6d-2f9457e03b03","ios":"levelo://app?vid=b00a9f63-e16c-4120-9e6d-2f9457e03b03"},"vehicle_type_id":"4","last_reported":1758651331,"current_range_meters":6000,"station_id":"ce4bguh2rcd13ifvqckg","pricing_plan_id":"cebpf4jnsgd1na2vs0mg"},{"bike_id":"5d7d146a-0ce6-4474-829a-b842131d6654","system_id":"levelo_inurba_marseille","lat":43.28467,"lon":5.38438,"is_reserved":false,"is_disabled":false,"rental_uris":{"android":"levelo://app?vid=5d7d146a-0ce6-4474-829a-b842131d6654","ios":"levelo://app?vid=5d7d146a-0ce6-4474-829a-b842131d6654"},"vehicle_type_id":"4","last_reported":1758651331,"current_range_meters":6000,"station_id":"ce4bh512rcd13ifvqe3g","pricing_plan_id":"cebpf4jnsgd1na2vs0mg"},{"bike_id":"ba1055d1-93a1-44b0-bd53-b697a237963b","system_id":"levelo_inurba_marseille","lat":43.30246,"lon":5.4007,"is_reserved":false,"is_disabled":false,"rental_uris":{"android":"levelo://app?vid=ba1055d1-93a1-44b0-bd53-b697a237963b","ios":"levelo://app?vid=ba1055d1-93a1-44b0-bd53-b697a237963b"},"vehicle_type_id":"4","last_reported":1758651331,"current_range_meters":6000,"station_id":"ce4bgvh2rcd13ifvqcs0","pricing_plan_id":"cebpf4jnsgd1na2vs0mg"},{"bike_id":"a11bb502-a7c7-48bf-9897-797d5b57785c","system_id":"levelo_inurba_marseille","lat":43.2532,"lon":5.42134,"is_reserved":false,"is_disabled":false,"rental_uris":{"android":"levelo://app?vid=a11bb502-a7c7-48bf-9897-797d5b57785c","ios":"levelo://app?vid=a11bb502-a7c7-48bf-9897-797d5b57785c"},"vehicle_type_id":"4","last_reported":1758651331,"current_range_meters":6000,"station_id":"st_d2m65c5bi1j21697t3ng","pricing_plan_id":"cebpf4jnsgd1na2vs0mg"},{"bike_id":"a84dd1dc-9687-4db9-8494-9caa11700421","system_id":"levelo_inurba_marseille","lat":43.316837,"lon":5.40477,"is_reserved":false,"is_disabled":false,"rental_uris":{"android":"levelo://app?vid=a84dd1dc-9687-4db9-8494-9caa11700421","ios":"levelo://app?vid=a84dd1dc-9687-4db9-8494-9caa11700421"},"vehicle_type_id":"4","last_reported":1758651331,"current_range_meters":6000,"station_id":"ce4bh012rcd13ifvqd00","pricing_plan_id":"cebpf4jnsgd1na2vs0mg"},{"bike_id":"31104e23-5714-41a2-85e3-32d15ddd0df7","system_id":"levelo_inurba_marseille","lat":43.296502,"lon":5.405528,"is_reserved":false,"is_disabled":false,"rental_uris":{"android":"levelo://app?vid=31104e23-5714-41a2-85e3-32d15ddd0df7","ios":"levelo://app?vid=31104e23-5714-41a2-85e3-32d15ddd0df7"},"vehicle_type_id":"4","last_reported":1758651331,"current_range_meters":6000,"station_id":"ce4bh112rcd13ifvqd90","pricing_plan_id":"cebpf4jnsgd1na2vs0mg"},{"bike_id":"e64b26bc-3d8c-404f-88d0-c25d5f5cfc31","system_id":"levelo_inurba_marseille","lat":43.28155,"lon":5.4264,"is_reserved":false,"is_disabled":false,"rental_uris":{"android":"levelo://app?vid=e64b26bc-3d8c-404f-88d0-c25d5f5cfc31","ios":"levelo://app?vid=e64b26bc-3d8c-404f-88d0-c25d5f5cfc31"},"vehicle_type_id":"4","last_reported":1758651331,"current_range_meters":6000,"station_id":"ce4bhnh2rcd13ifvqgug","pricing_plan_id":"cebpf4jnsgd1na2vs0mg"},{"bike_id":"698a1659-1be4-4464-8e40-0054e6845364","system_id":"levelo_inurba_marseille","lat":43.29416,"lon":5.40359,"is_reserved":false,"is_disabled":false,"rental_uris":{"android":"levelo://app?vid=698a1659-1be4-4464-8e40-0054e6845364","ios":"levelo://app?vid=698a1659-1be4-4464-8e40-0054e6845364"},"vehicle_type_id":"4","last_reported":1758651331,"current_range_meters":6400,"station_id":"","pricing_plan_id":"cebpf4jnsgd1na2vs0mg"},{"bike_id":"27800ea6-e100-428a-817b-f0562064555c","system_id":"levelo_inurba_marseille","lat":43.28,"lon":5.40015,"is_reserved":false,"is_disabled":false,"rental_uris":{"android":"levelo://app?vid=27800ea6-e100-428a-817b-f0562064555c","ios":"levelo://app?vid=27800ea6-e100-428a-817b-f0562064555c"},"vehicle_type_id":"4","last_reported":1758651331,"current_range_meters":6400,"station_id":"ce4bho92rcd13ifvqh4g","pricing_plan_id":"cebpf4jnsgd1na2vs0mg"},{"bike_id":"3d3616ae-55ab-4319-9346-2104e95c171f","system_id":"levelo_inurba_marseille","lat":43.30978,"lon":5.37958,"is_reserved":false,"is_disabled":false,"rental_uris":{"android":"levelo://app?vid=3d3616ae-55ab-4319-9346-2104e95c171f","ios":"levelo://app?vid=3d3616ae-55ab-4319-9346-2104e95c171f"},"vehicle_type_id":"4","last_reported":1758651331,"current_range_meters":6400,"station_id":"","pricing_plan_id":"cebpf4jnsgd1na2vs0mg"},{"bike_id":"0552a6d3-ae28-4316-ae8b-8045caaef368","system_id":"levelo_inurba_marseille","lat":43.30138,"lon":5.39856,"is_reserved":false,"is_disabled":false,"rental_uris":{"android":"levelo://app?vid=0552a6d3-ae28-4316-ae8b-8045caaef368","ios":"levelo://app?vid=0552a6d3-ae28-4316-ae8b-8045caaef368"},"vehicle_type_id":"4","last_reported":1758651331,"current_range_meters":6000,"station_id":"ce4bh0h2rcd13ifvqd40","pricing_plan_id":"cebpf4jnsgd1na2vs0mg"},{"bike_id":"b0665c88-46d3-405c-b9c6-bb771d5df7a9","system_id":"levelo_inurba_marseille","lat":43.2512,"lon":5.4032,"is_reserved":false,"is_disabled":false,"rental_uris":{"android":"levelo://app?vid=b0665c88-46d3-405c-b9c6-bb771d5df7a9","ios":"levelo://app?vid=b0665c88-46d3-405c-b9c6-bb771d5df7a9"},"vehicle_type_id":"4","last_reported":1758651331,"current_range_meters":6400,"station_id":"ce4bhlh2rcd13ifvqgig","pricing_plan_id":"cebpf4jnsgd1na2vs0mg"},{"bike_id":"8c3d0157-53a2-4830-82b0-38da8541d138","system_id":"levelo_inurba_marseille","lat":43.28847,"lon":5.35869,"is_reserved":false,"is_disabled":false,"rental_uris":{"android":"levelo://app?vid=8c3d0157-53a2-4830-82b0-38da8541d138","ios":"levelo://app?vid=8c3d0157-53a2-4830-82b0-38da8541d138"},"vehicle_type_id":"4","last_reported":1758651331,"current_range_meters":6400,"station_id":"ce4bhb12rcd13ifvqem0","pricing_plan_id":"cebpf4jnsgd1na2vs0mg"},{"bike_id":"7a590be0-3a44-48cb-98c3-f9711acd484d","system_id":"levelo_inurba_marseille","lat":43.27996,"lon":5.40013,"is_reserved":false,"is_disabled":false,"rental_uris":{"android":"levelo://app?vid=7a590be0-3a44-48cb-98c3-f9711acd484d","ios":"levelo://app?vid=7a590be0-3a44-48cb-98c3-f9711acd484d"},"vehicle_type_id":"4","last_reported":1758651331,"current_range_meters":6400,"station_id":"ce4bho92rcd13ifvqh4g","pricing_plan_id":"cebpf4jnsgd1na2vs0mg"},{"bike_id":"5e4db1e9-40ef-4a8c-95a6-7dab7aba4e8f","system_id":"levelo_inurba_marseille","lat":43.28479,"lon":5.38412,"is_reserved":false,"is_disabled":false,"rental_uris":{"android":"levelo://app?vid=5e4db1e9-40ef-4a8c-95a6-7dab7aba4e8f","ios":"levelo://app?vid=5e4db1e9-40ef-4a8c-95a6-7dab7aba4e8f"},"vehicle_type_id":"4","last_reported":1758651331,"current_range_meters":6400,"station_id":"ce4bh512rcd13ifvqe3g","pricing_plan_id":"cebpf4jnsgd1na2vs0mg"},{"bike_id":"aa3fac0f-8eed-4ecd-95e8-2e7b679374e9","system_id":"levelo_inurba_marseille","lat":43.30219,"lon":5.39476,"is_reserved":false,"is_disabled":false,"rental_uris":{"android":"levelo://app?vid=aa3fac0f-8eed-4ecd-95e8-2e7b679374e9","ios":"levelo://app?vid=aa3fac0f-8eed-4ecd-95e8-2e7b679374e9"},"vehicle_type_id":"4","last_reported":1758651331,"current_range_meters":6400,"station_id":"ce4bh0p2rcd13ifvqd70","pricing_plan_id":"cebpf4jnsgd1na2vs0mg"},{"bike_id":"855793a9-04e9-49c3-865f-3a86f73c8e56","system_id":"levelo_inurba_marseille","lat":43.289276,"lon":5.384069,"is_reserved":false,"is_disabled":false,"rental_uris":{"android":"levelo://app?vid=855793a9-04e9-49c3-865f-3a86f73c8e56","ios":"levelo://app?vid=855793a9-04e9-49c3-865f-3a86f73c8e56"},"vehicle_type_id":"4","last_reported":1758651331,"current_range_meters":6800,"station_id":"ce4bh612rcd13ifvqe6g","pricing_plan_id":"cebpf4jnsgd1na2vs0mg"},{"bike_id":"af29bd4a-51c0-47f1-bce0-b9ca138339ea","system_id":"levelo_inurba_marseille","lat":43.317095,"lon":5.437084,"is_reserved":false,"is_disabled":false,"rental_uris":{"android":"levelo://app?vid=af29bd4a-51c0-47f1-bce0-b9ca138339ea","ios":"levelo://app?vid=af29bd4a-51c0-47f1-bce0-b9ca138339ea"},"vehicle_type_id":"4","last_reported":1758651331,"current_range_meters":6800,"station_id":"ce4bhp92rcd13ifvqhcg","pricing_plan_id":"cebpf4jnsgd1na2vs0mg"},{"bike_id":"ca000825-5d13-495e-af19-915ae846db43","system_id":"levelo_inurba_marseille","lat":43.33009,"lon":5.39025,"is_reserved":false,"is_disabled":false,"rental_uris":{"android":"levelo://app?vid=ca000825-5d13-495e-af19-915ae846db43","ios":"levelo://app?vid=ca000825-5d13-495e-af19-915ae846db43"},"vehicle_type_id":"4","last_reported":1758651331,"current_range_meters":6800,"station_id":"ce4bhr92rcd13ifvqhrg","pricing_plan_id":"cebpf4jnsgd1na2vs0mg"},{"bike_id":"4ea2ff40-a238-4aab-907a-2f3796525b9b","system_id":"levelo_inurba_marseille","lat":43.28666,"lon":5.38659,"is_reserved":false,"is_disabled":false,"rental_uris":{"android":"levelo://app?vid=4ea2ff40-a238-4aab-907a-2f3796525b9b","ios":"levelo://app?vid=4ea2ff40-a238-4aab-907a-2f3796525b9b"},"vehicle_type_id":"4","last_reported":1758651331,"current_range_meters":6800,"station_id":"ce4bh492rcd13ifvqdug","pricing_plan_id":"cebpf4jnsgd1na2vs0mg"},{"bike_id":"36a9bc48-e27b-4a46-bcf7-c7e44e5326f5","system_id":"levelo_inurba_marseille","lat":43.29017,"lon":5.38156,"is_reserved":false,"is_disabled":false,"rental_uris":{"android":"levelo://app?vid=36a9bc48-e27b-4a46-bcf7-c7e44e5326f5","ios":"levelo://app?vid=36a9bc48-e27b-4a46-bcf7-c7e44e5326f5"},"vehicle_type_id":"4","last_reported":1758651331,"current_range_meters":6800,"station_id":"ce4bh4p2rcd13ifvqe1g","pricing_plan_id":"cebpf4jnsgd1na2vs0mg"},{"bike_id":"2289a0ff-9c3e-4f79-ad38-4b41158d6057","system_id":"levelo_inurba_marseille","lat":43.29882,"lon":5.37911,"is_reserved":false,"is_disabled":false,"rental_uris":{"android":"levelo://app?vid=2289a0ff-9c3e-4f79-ad38-4b41158d6057","ios":"levelo://app?vid=2289a0ff-9c3e-4f79-ad38-4b41158d6057"},"vehicle_type_id":"4","last_reported":1758651331,"current_range_meters":6800,"station_id":"","pricing_plan_id":"cebpf4jnsgd1na2vs0mg"},{"bike_id":"213937f4-0cd9-48b8-9d64-0b73c37bc721","system_id":"levelo_inurba_marseille","lat":43.29558,"lon":5.38174,"is_reserved":false,"is_disabled":false,"rental_uris":{"android":"levelo://app?vid=213937f4-0cd9-48b8-9d64-0b73c37bc721","ios":"levelo://app?vid=213937f4-0cd9-48b8-9d64-0b73c37bc721"},"vehicle_type_id":"4","last_reported":1758651331,"current_range_meters":6800,"station_id":"","pricing_plan_id":"cebpf4jnsgd1na2vs0mg"},{"bike_id":"51481bfd-28d2-41c7-9fae-16cfeff386de","system_id":"levelo_inurba_marseille","lat":43.28715,"lon":5.37941,"is_reserved":false,"is_disabled":false,"rental_uris":{"android":"levelo://app?vid=51481bfd-28d2-41c7-9fae-16cfeff386de","ios":"levelo://app?vid=51481bfd-28d2-41c7-9fae-16cfeff386de"},"vehicle_type_id":"4","last_reported":1758651331,"current_range_meters":8400,"station_id":"ce4bh9p2rcd13ifvqec0","pricing_plan_id":"cebpf4jnsgd1na2vs0mg"},{"bike_id":"26a024fd-6ac6-42c1-8f74-2110b09a8596","system_id":"levelo_inurba_marseille","lat":43.28939,"lon":5.36637,"is_reserved":false,"is_disabled":false,"rental_uris":{"android":"levelo://app?vid=26a024fd-6ac6-42c1-8f74-2110b09a8596","ios":"levelo://app?vid=26a024fd-6ac6-42c1-8f74-2110b09a8596"},"vehicle_type_id":"4","last_reported":1758651331,"current_range_meters":6800,"station_id":"ce4bhap2rcd13ifvqek0","pricing_plan_id":"cebpf4jnsgd1na2vs0mg"},{"bike_id":"6a5eff14-cce9-467c-9084-3c47d177de84","system_id":"levelo_inurba_marseille","lat":43.28469,"lon":5.35888,"is_reserved":false,"is_disabled":false,"rental_uris":{"android":"levelo://app?vid=6a5eff14-cce9-467c-9084-3c47d177de84","ios":"levelo://app?vid=6a5eff14-cce9-467c-9084-3c47d177de84"},"vehicle_type_id":"4","last_reported":1758651331,"current_range_meters":6800,"station_id":"ce4bhah2rcd13ifvqei0","pricing_plan_id":"cebpf4jnsgd1na2vs0mg"},{"bike_id":"83508b4b-ddbb-4418-9985-4a53511ba8e9","system_id":"levelo_inurba_marseille","lat":43.298713,"lon":5.389109,"is_reserved":false,"is_disabled":false,"rental_uris":{"android":"levelo://app?vid=83508b4b-ddbb-4418-9985-4a53511ba8e9","ios":"levelo://app?vid=83508b4b-ddbb-4418-9985-4a53511ba8e9"},"vehicle_type_id":"4","last_reported":1758651331,"current_range_meters":7200,"station_id":"ce4bh392rcd13ifvqdl0","pricing_plan_id":"cebpf4jnsgd1na2vs0mg"},{"bike_id":"ab826234-9e24-40a8-9081-bd2ffcf3a23e","system_id":"levelo_inurba_marseille","lat":43.301268,"lon":5.398532,"is_reserved":false,"is_disabled":false,"rental_uris":{"android":"levelo://app?vid=ab826234-9e24-40a8-9081-bd2ffcf3a23e","ios":"levelo://app?vid=ab826234-9e24-40a8-9081-bd2ffcf3a23e"},"vehicle_type_id":"4","last_reported":1758651331,"current_range_meters":7200,"station_id":"ce4bh0h2rcd13ifvqd40","pricing_plan_id":"cebpf4jnsgd1na2vs0mg"},{"bike_id":"7fd14ad2-a454-423d-bbfa-04d2678cc6ac","system_id":"levelo_inurba_marseille","lat":43.2976,"lon":5.38128,"is_reserved":false,"is_disabled":false,"rental_uris":{"android":"levelo://app?vid=7fd14ad2-a454-423d-bbfa-04d2678cc6ac","ios":"levelo://app?vid=7fd14ad2-a454-423d-bbfa-04d2678cc6ac"},"vehicle_type_id":"4","last_reported":1758651331,"current_range_meters":7200,"station_id":"","pricing_plan_id":"cebpf4jnsgd1na2vs0mg"},{"bike_id":"38eca908-0cf5-4bd2-9b81-0b9a1d1719f4","system_id":"levelo_inurba_marseille","lat":43.296295,"lon":5.381289,"is_reserved":false,"is_disabled":false,"rental_uris":{"android":"levelo://app?vid=38eca908-0cf5-4bd2-9b81-0b9a1d1719f4","ios":"levelo://app?vid=38eca908-0cf5-4bd2-9b81-0b9a1d1719f4"},"vehicle_type_id":"4","last_reported":1758651331,"current_range_meters":7200,"station_id":"","pricing_plan_id":"cebpf4jnsgd1na2vs0mg"},{"bike_id":"2c94bbef-162b-4ba8-92f5-b01bdc1cb3d2","system_id":"levelo_inurba_marseille","lat":43.2977,"lon":5.37101,"is_reserved":false,"is_disabled":false,"rental_uris":{"android":"levelo://app?vid=2c94bbef-162b-4ba8-92f5-b01bdc1cb3d2","ios":"levelo://app?vid=2c94bbef-162b-4ba8-92f5-b01bdc1cb3d2"},"vehicle_type_id":"4","last_reported":1758651331,"current_range_meters":4400,"station_id":"ce4bgop2rcd13ifvqc1g","pricing_plan_id":"cebpf4jnsgd1na2vs0mg"},{"bike_id":"15407804-d5d2-482d-a75c-e8199d42738d","system_id":"levelo_inurba_marseille","lat":43.23193,"lon":5.3998,"is_reserved":false,"is_disabled":false,"rental_uris":{"android":"levelo://app?vid=15407804-d5d2-482d-a75c-e8199d42738d","ios":"levelo://app?vid=15407804-d5d2-482d-a75c-e8199d42738d"},"vehicle_type_id":"4","last_reported":1758651331,"current_range_meters":7200,"station_id":"ce4bhn12rcd13ifvqgqg","pricing_plan_id":"cebpf4jnsgd1na2vs0mg"},{"bike_id":"290b1511-e55b-4e5f-b80e-39a7f77b3f7d","system_id":"levelo_inurba_marseille","lat":43.30527,"lon":5.36717,"is_reserved":false,"is_disabled":false,"rental_uris":{"android":"levelo://app?vid=290b1511-e55b-4e5f-b80e-39a7f77b3f7d","ios":"levelo://app?vid=290b1511-e55b-4e5f-b80e-39a7f77b3f7d"},"vehicle_type_id":"4","last_reported":1758651331,"current_range_meters":8000,"station_id":"ce4bgrp2rcd13ifvqc9g","pricing_plan_id":"cebpf4jnsgd1na2vs0mg"},{"bike_id":"1cd3d68b-ed7b-475c-b27b-454515eba6b1","system_id":"levelo_inurba_marseille","lat":43.301345,"lon":5.387835,"is_reserved":false,"is_disabled":false,"rental_uris":{"android":"levelo://app?vid=1cd3d68b-ed7b-475c-b27b-454515eba6b1","ios":"levelo://app?vid=1cd3d68b-ed7b-475c-b27b-454515eba6b1"},"vehicle_type_id":"4","last_reported":1758651331,"current_range_meters":8000,"station_id":"","pricing_plan_id":"cebpf4jnsgd1na2vs0mg"},{"bike_id":"1efddf8d-578f-4e4c-8c3f-e3a8bd592ba4","system_id":"levelo_inurba_marseille","lat":43.29942,"lon":5.37457,"is_reserved":false,"is_disabled":false,"rental_uris":{"android":"levelo://app?vid=1efddf8d-578f-4e4c-8c3f-e3a8bd592ba4","ios":"levelo://app?vid=1efddf8d-578f-4e4c-8c3f-e3a8bd592ba4"},"vehicle_type_id":"4","last_reported":1758651331,"current_range_meters":8000,"station_id":"ce4bgjh2rcd13ifvqbg0","pricing_plan_id":"cebpf4jnsgd1na2vs0mg"},{"bike_id":"3b646189-9cd8-4845-9a8e-c4545f72c6de","system_id":"levelo_inurba_marseille","lat":43.32,"lon":5.38152,"is_reserved":false,"is_disabled":false,"rental_uris":{"android":"levelo://app?vid=3b646189-9cd8-4845-9a8e-c4545f72c6de","ios":"levelo://app?vid=3b646189-9cd8-4845-9a8e-c4545f72c6de"},"vehicle_type_id":"4","last_reported":1758651331,"current_range_meters":7200,"station_id":"ce4bhr12rcd13ifvqhpg","pricing_plan_id":"cebpf4jnsgd1na2vs0mg"},{"bike_id":"eb82d046-935f-44cd-bddd-137f37f3dc00","system_id":"levelo_inurba_marseille","lat":43.31118,"lon":5.3776,"is_reserved":false,"is_disabled":false,"rental_uris":{"android":"levelo://app?vid=eb82d046-935f-44cd-bddd-137f37f3dc00","ios":"levelo://app?vid=eb82d046-935f-44cd-bddd-137f37f3dc00"},"vehicle_type_id":"4","last_reported":1758651331,"current_range_meters":8000,"station_id":"ce4bgt92rcd13ifvqcg0","pricing_plan_id":"cebpf4jnsgd1na2vs0mg"},{"bike_id":"ba0f6327-d9b4-42c4-8563-8dfdb45c91d2","system_id":"levelo_inurba_marseille","lat":43.28982,"lon":5.37825,"is_reserved":false,"is_disabled":false,"rental_uris":{"android":"levelo://app?vid=ba0f6327-d9b4-42c4-8563-8dfdb45c91d2","ios":"levelo://app?vid=ba0f6327-d9b4-42c4-8563-8dfdb45c91d2"},"vehicle_type_id":"4","last_reported":1758651331,"current_range_meters":8000,"station_id":"ce4bh9p2rcd13ifvqed0","pricing_plan_id":"cebpf4jnsgd1na2vs0mg"},{"bike_id":"88274cae-d9ab-4c20-9b84-ad19c7e00587","system_id":"levelo_inurba_marseille","lat":43.27675,"lon":5.38859,"is_reserved":false,"is_disabled":false,"rental_uris":{"android":"levelo://app?vid=88274cae-d9ab-4c20-9b84-ad19c7e00587","ios":"levelo://app?vid=88274cae-d9ab-4c20-9b84-ad19c7e00587"},"vehicle_type_id":"4","last_reported":1758651331,"current_range_meters":4800,"station_id":"ce4bhi12rcd13ifvqfo0","pricing_plan_id":"cebpf4jnsgd1na2vs0mg"},{"bike_id":"ee04248e-bcdf-4d2e-911a-02e8bd70c16a","system_id":"levelo_inurba_marseille","lat":43.29602,"lon":5.38101,"is_reserved":false,"is_disabled":false,"rental_uris":{"android":"levelo://app?vid=ee04248e-bcdf-4d2e-911a-02e8bd70c16a","ios":"levelo://app?vid=ee04248e-bcdf-4d2e-911a-02e8bd70c16a"},"vehicle_type_id":"4","last_reported":1758651331,"current_range_meters":8400,"station_id":"ce4bgl12rcd13ifvqbo0","pricing_plan_id":"cebpf4jnsgd1na2vs0mg"},{"bike_id":"fcf1bf44-5a13-4d1b-84d2-72432a05b3d8","system_id":"levelo_inurba_marseille","lat":43.320556,"lon":5.415391,"is_reserved":false,"is_disabled":false,"rental_uris":{"android":"levelo://app?vid=fcf1bf44-5a13-4d1b-84d2-72432a05b3d8","ios":"levelo://app?vid=fcf1bf44-5a13-4d1b-84d2-72432a05b3d8"},"vehicle_type_id":"4","last_reported":1758651331,"current_range_meters":8400,"station_id":"ce4bhq92rcd13ifvqhkg","pricing_plan_id":"cebpf4jnsgd1na2vs0mg"},{"bike_id":"eed2cf9a-36d5-4639-8402-2398b6fbd4cf","system_id":"levelo_inurba_marseille","lat":43.217422,"lon":5.346365,"is_reserved":false,"is_disabled":false,"rental_uris":{"android":"levelo://app?vid=eed2cf9a-36d5-4639-8402-2398b6fbd4cf","ios":"levelo://app?vid=eed2cf9a-36d5-4639-8402-2398b6fbd4cf"},"vehicle_type_id":"4","last_reported":1758651331,"current_range_meters":8400,"station_id":"st_cvj6r9ubvosntc0bgbag","pricing_plan_id":"cebpf4jnsgd1na2vs0mg"},{"bike_id":"d46536c1-b7ad-4df6-a9a1-6c4b8943878b","system_id":"levelo_inurba_marseille","lat":43.323683,"lon":5.388834,"is_reserved":false,"is_disabled":false,"rental_uris":{"android":"levelo://app?vid=d46536c1-b7ad-4df6-a9a1-6c4b8943878b","ios":"levelo://app?vid=d46536c1-b7ad-4df6-a9a1-6c4b8943878b"},"vehicle_type_id":"4","last_reported":1758651331,"current_range_meters":8400,"station_id":"ce4bhqp2rcd13ifvqhog","pricing_plan_id":"cebpf4jnsgd1na2vs0mg"},{"bike_id":"0b801446-ce3c-42fc-b5b3-cb00eb414019","system_id":"levelo_inurba_marseille","lat":43.27995,"lon":5.40013,"is_reserved":false,"is_disabled":false,"rental_uris":{"android":"levelo://app?vid=0b801446-ce3c-42fc-b5b3-cb00eb414019","ios":"levelo://app?vid=0b801446-ce3c-42fc-b5b3-cb00eb414019"},"vehicle_type_id":"4","last_reported":1758651331,"current_range_meters":8400,"station_id":"ce4bho92rcd13ifvqh4g","pricing_plan_id":"cebpf4jnsgd1na2vs0mg"},{"bike_id":"5096dd44-bb08-49f1-8f58-9d9dfb1faf50","system_id":"levelo_inurba_marseille","lat":43.33432,"lon":5.40063,"is_reserved":false,"is_disabled":false,"rental_uris":{"android":"levelo://app?vid=5096dd44-bb08-49f1-8f58-9d9dfb1faf50","ios":"levelo://app?vid=5096dd44-bb08-49f1-8f58-9d9dfb1faf50"},"vehicle_type_id":"4","last_reported":1758651331,"current_range_meters":8400,"station_id":"","pricing_plan_id":"cebpf4jnsgd1na2vs0mg"},{"bike_id":"26d89c57-b18f-4529-bb7f-77e666340504","system_id":"levelo_inurba_marseille","lat":43.29958,"lon":5.413238,"is_reserved":false,"is_disabled":false,"rental_uris":{"android":"levelo://app?vid=26d89c57-b18f-4529-bb7f-77e666340504","ios":"levelo://app?vid=26d89c57-b18f-4529-bb7f-77e666340504"},"vehicle_type_id":"4","last_reported":1758651331,"current_range_meters":8400,"station_id":"ce4bhp12rcd13ifvqh9g","pricing_plan_id":"cebpf4jnsgd1na2vs0mg"},{"bike_id":"5dd02a4d-cb34-47a1-9044-64b99c41dfde","system_id":"levelo_inurba_marseille","lat":43.29309,"lon":5.37177,"is_reserved":false,"is_disabled":false,"rental_uris":{"android":"levelo://app?vid=5dd02a4d-cb34-47a1-9044-64b99c41dfde","ios":"levelo://app?vid=5dd02a4d-cb34-47a1-9044-64b99c41dfde"},"vehicle_type_id":"4","last_reported":1758651331,"current_range_meters":8800,"station_id":"ce4bgh92rcd13ifvqb40","pricing_plan_id":"cebpf4jnsgd1na2vs0mg"},{"bike_id":"9b631396-8424-4d5d-9bb0-0ed903341803","system_id":"levelo_inurba_marseille","lat":43.28847,"lon":5.39317,"is_reserved":false,"is_disabled":false,"rental_uris":{"android":"levelo://app?vid=9b631396-8424-4d5d-9bb0-0ed903341803","ios":"levelo://app?vid=9b631396-8424-4d5d-9bb0-0ed903341803"},"vehicle_type_id":"4","last_reported":1758651331,"current_range_meters":4800,"station_id":"ce4bh2p2rcd13ifvqdi0","pricing_plan_id":"cebpf4jnsgd1na2vs0mg"},{"bike_id":"756ac4bd-91cb-4dc0-9ae6-4b778067d5c0","system_id":"levelo_inurba_marseille","lat":43.29172,"lon":5.37157,"is_reserved":false,"is_disabled":false,"rental_uris":{"android":"levelo://app?vid=756ac4bd-91cb-4dc0-9ae6-4b778067d5c0","ios":"levelo://app?vid=756ac4bd-91cb-4dc0-9ae6-4b778067d5c0"},"vehicle_type_id":"4","last_reported":1758651331,"current_range_meters":8800,"station_id":"ce4bha92rcd13ifvqeh0","pricing_plan_id":"cebpf4jnsgd1na2vs0mg"},{"bike_id":"a8d4d8de-98e7-454b-9628-1865fad4a51a","system_id":"levelo_inurba_marseille","lat":43.31164,"lon":5.38732,"is_reserved":false,"is_disabled":false,"rental_uris":{"android":"levelo://app?vid=a8d4d8de-98e7-454b-9628-1865fad4a51a","ios":"levelo://app?vid=a8d4d8de-98e7-454b-9628-1865fad4a51a"},"vehicle_type_id":"4","last_reported":1758651331,"current_range_meters":8400,"station_id":"ce4bgv12rcd13ifvqcp0","pricing_plan_id":"cebpf4jnsgd1na2vs0mg"},{"bike_id":"c5c96d4e-b627-428c-ba5f-9228dc3f0147","system_id":"levelo_inurba_marseille","lat":43.2319,"lon":5.355588,"is_reserved":false,"is_disabled":false,"rental_uris":{"android":"levelo://app?vid=c5c96d4e-b627-428c-ba5f-9228dc3f0147","ios":"levelo://app?vid=c5c96d4e-b627-428c-ba5f-9228dc3f0147"},"vehicle_type_id":"4","last_reported":1758651331,"current_range_meters":8800,"station_id":"ce4bhu92rcd13ifvqi70","pricing_plan_id":"cebpf4jnsgd1na2vs0mg"},{"bike_id":"c56ed273-f816-44e8-ba62-5d6f60b481d4","system_id":"levelo_inurba_marseille","lat":43.279,"lon":5.38017,"is_reserved":false,"is_disabled":false,"rental_uris":{"android":"levelo://app?vid=c56ed273-f816-44e8-ba62-5d6f60b481d4","ios":"levelo://app?vid=c56ed273-f816-44e8-ba62-5d6f60b481d4"},"vehicle_type_id":"4","last_reported":1758651331,"current_range_meters":8400,"station_id":"ce4bhf92rcd13ifvqf50","pricing_plan_id":"cebpf4jnsgd1na2vs0mg"},{"bike_id":"936710b7-f2a7-4b39-b05a-b79661158fba","system_id":"levelo_inurba_marseille","lat":43.30534,"lon":5.3672,"is_reserved":false,"is_disabled":false,"rental_uris":{"android":"levelo://app?vid=936710b7-f2a7-4b39-b05a-b79661158fba","ios":"levelo://app?vid=936710b7-f2a7-4b39-b05a-b79661158fba"},"vehicle_type_id":"4","last_reported":1758651331,"current_range_meters":8800,"station_id":"ce4bgrp2rcd13ifvqc9g","pricing_plan_id":"cebpf4jnsgd1na2vs0mg"},{"bike_id":"3b867e3e-9eb6-4076-bbf7-82418825d2a2","system_id":"levelo_inurba_marseille","lat":43.28352,"lon":5.38116,"is_reserved":false,"is_disabled":false,"rental_uris":{"android":"levelo://app?vid=3b867e3e-9eb6-4076-bbf7-82418825d2a2","ios":"levelo://app?vid=3b867e3e-9eb6-4076-bbf7-82418825d2a2"},"vehicle_type_id":"4","last_reported":1758651331,"current_range_meters":8400,"station_id":"ce4bh412rcd13ifvqdr0","pricing_plan_id":"cebpf4jnsgd1na2vs0mg"},{"bike_id":"52c81dde-6728-4850-af33-176041bfc27e","system_id":"levelo_inurba_marseille","lat":43.29099,"lon":5.38125,"is_reserved":false,"is_disabled":false,"rental_uris":{"android":"levelo://app?vid=52c81dde-6728-4850-af33-176041bfc27e","ios":"levelo://app?vid=52c81dde-6728-4850-af33-176041bfc27e"},"vehicle_type_id":"4","last_reported":1758651331,"current_range_meters":8800,"station_id":"ce4bh512rcd13ifvqe2g","pricing_plan_id":"cebpf4jnsgd1na2vs0mg"},{"bike_id":"5b463f2f-7627-4983-ae9c-ca1fe6f78488","system_id":"levelo_inurba_marseille","lat":43.27505,"lon":5.42456,"is_reserved":false,"is_disabled":false,"rental_uris":{"android":"levelo://app?vid=5b463f2f-7627-4983-ae9c-ca1fe6f78488","ios":"levelo://app?vid=5b463f2f-7627-4983-ae9c-ca1fe6f78488"},"vehicle_type_id":"4","last_reported":1758651331,"current_range_meters":8800,"station_id":"ce4bhn92rcd13ifvqgrg","pricing_plan_id":"cebpf4jnsgd1na2vs0mg"},{"bike_id":"e13ac259-9ba9-423f-8275-ed3f2479bcda","system_id":"levelo_inurba_marseille","lat":43.29034,"lon":5.37567,"is_reserved":false,"is_disabled":false,"rental_uris":{"android":"levelo://app?vid=e13ac259-9ba9-423f-8275-ed3f2479bcda","ios":"levelo://app?vid=e13ac259-9ba9-423f-8275-ed3f2479bcda"},"vehicle_type_id":"4","last_reported":1758651331,"current_range_meters":8800,"station_id":"ce4bh692rcd13ifvqe90","pricing_plan_id":"cebpf4jnsgd1na2vs0mg"},{"bike_id":"5baaa0ef-f848-461c-9301-a32690951b26","system_id":"levelo_inurba_marseille","lat":43.29197,"lon":5.35805,"is_reserved":false,"is_disabled":false,"rental_uris":{"android":"levelo://app?vid=5baaa0ef-f848-461c-9301-a32690951b26","ios":"levelo://app?vid=5baaa0ef-f848-461c-9301-a32690951b26"},"vehicle_type_id":"4","last_reported":1758651331,"current_range_meters":8800,"station_id":"ce4bhb12rcd13ifvqel0","pricing_plan_id":"cebpf4jnsgd1na2vs0mg"},{"bike_id":"8a5daf4b-8551-4dd5-b281-36f6c4ac7fb0","system_id":"levelo_inurba_marseille","lat":43.2841,"lon":5.3499,"is_reserved":false,"is_disabled":false,"rental_uris":{"android":"levelo://app?vid=8a5daf4b-8551-4dd5-b281-36f6c4ac7fb0","ios":"levelo://app?vid=8a5daf4b-8551-4dd5-b281-36f6c4ac7fb0"},"vehicle_type_id":"4","last_reported":1758651331,"current_range_meters":9200,"station_id":"ce4bhbh2rcd13ifvqepg","pricing_plan_id":"cebpf4jnsgd1na2vs0mg"},{"bike_id":"2209c716-0b85-41c9-980e-21eacd31b896","system_id":"levelo_inurba_marseille","lat":43.28664,"lon":5.36356,"is_reserved":false,"is_disabled":false,"rental_uris":{"android":"levelo://app?vid=2209c716-0b85-41c9-980e-21eacd31b896","ios":"levelo://app?vid=2209c716-0b85-41c9-980e-21eacd31b896"},"vehicle_type_id":"4","last_reported":1758651331,"current_range_meters":9200,"station_id":"ce4bhah2rcd13ifvqej0","pricing_plan_id":"cebpf4jnsgd1na2vs0mg"},{"bike_id":"c0c46f8b-c352-43a2-85a5-27d67ef11639","system_id":"levelo_inurba_marseille","lat":43.24649,"lon":5.38891,"is_reserved":false,"is_disabled":false,"rental_uris":{"android":"levelo://app?vid=c0c46f8b-c352-43a2-85a5-27d67ef11639","ios":"levelo://app?vid=c0c46f8b-c352-43a2-85a5-27d67ef11639"},"vehicle_type_id":"4","last_reported":1758651331,"current_range_meters":9200,"station_id":"ce4bhg12rcd13ifvqf60","pricing_plan_id":"cebpf4jnsgd1na2vs0mg"},{"bike_id":"26018a75-922d-45af-9b1c-159ff2c5f869","system_id":"levelo_inurba_marseille","lat":43.32046,"lon":5.41553,"is_reserved":false,"is_disabled":false,"rental_uris":{"android":"levelo://app?vid=26018a75-922d-45af-9b1c-159ff2c5f869","ios":"levelo://app?vid=26018a75-922d-45af-9b1c-159ff2c5f869"},"vehicle_type_id":"4","last_reported":1758651331,"current_range_meters":9200,"station_id":"ce4bhq92rcd13ifvqhkg","pricing_plan_id":"cebpf4jnsgd1na2vs0mg"},{"bike_id":"513eadeb-6d5b-40e2-a199-9086420fc966","system_id":"levelo_inurba_marseille","lat":43.29276,"lon":5.40902,"is_reserved":false,"is_disabled":false,"rental_uris":{"android":"levelo://app?vid=513eadeb-6d5b-40e2-a199-9086420fc966","ios":"levelo://app?vid=513eadeb-6d5b-40e2-a199-9086420fc966"},"vehicle_type_id":"4","last_reported":1758651331,"current_range_meters":9200,"station_id":"ce4bh192rcd13ifvqdc0","pricing_plan_id":"cebpf4jnsgd1na2vs0mg"},{"bike_id":"82da3909-afe4-4ffd-b0cc-293dc1055e08","system_id":"levelo_inurba_marseille","lat":43.32474,"lon":5.36565,"is_reserved":false,"is_disabled":false,"rental_uris":{"android":"levelo://app?vid=82da3909-afe4-4ffd-b0cc-293dc1055e08","ios":"levelo://app?vid=82da3909-afe4-4ffd-b0cc-293dc1055e08"},"vehicle_type_id":"4","last_reported":1758651331,"current_range_meters":9200,"station_id":"ce4bhs12rcd13ifvqhvg","pricing_plan_id":"cebpf4jnsgd1na2vs0mg"},{"bike_id":"4f662b07-3f28-4efd-8dc5-d2254bb60efc","system_id":"levelo_inurba_marseille","lat":43.30631,"lon":5.40097,"is_reserved":false,"is_disabled":false,"rental_uris":{"android":"levelo://app?vid=4f662b07-3f28-4efd-8dc5-d2254bb60efc","ios":"levelo://app?vid=4f662b07-3f28-4efd-8dc5-d2254bb60efc"},"vehicle_type_id":"4","last_reported":1758651331,"current_range_meters":9200,"station_id":"ce4bh112rcd13ifvqda0","pricing_plan_id":"cebpf4jnsgd1na2vs0mg"},{"bike_id":"66c4e843-2f3c-43b5-bd88-471a591fe6e9","system_id":"levelo_inurba_marseille","lat":43.25726,"lon":5.41111,"is_reserved":false,"is_disabled":false,"rental_uris":{"android":"levelo://app?vid=66c4e843-2f3c-43b5-bd88-471a591fe6e9","ios":"levelo://app?vid=66c4e843-2f3c-43b5-bd88-471a591fe6e9"},"vehicle_type_id":"4","last_reported":1758651331,"current_range_meters":9200,"station_id":"ce4bhkp2rcd13ifvqgd0","pricing_plan_id":"cebpf4jnsgd1na2vs0mg"},{"bike_id":"e69b3ad1-4137-44c2-ac7c-6735ce46720a","system_id":"levelo_inurba_marseille","lat":43.298875,"lon":5.389041,"is_reserved":false,"is_disabled":false,"rental_uris":{"android":"levelo://app?vid=e69b3ad1-4137-44c2-ac7c-6735ce46720a","ios":"levelo://app?vid=e69b3ad1-4137-44c2-ac7c-6735ce46720a"},"vehicle_type_id":"4","last_reported":1758651331,"current_range_meters":9200,"station_id":"ce4bho92rcd13ifvqh4g","pricing_plan_id":"cebpf4jnsgd1na2vs0mg"},{"bike_id":"eb47d802-121e-4868-bc95-c79511052b48","system_id":"levelo_inurba_marseille","lat":43.34149,"lon":5.409,"is_reserved":false,"is_disabled":false,"rental_uris":{"android":"levelo://app?vid=eb47d802-121e-4868-bc95-c79511052b48","ios":"levelo://app?vid=eb47d802-121e-4868-bc95-c79511052b48"},"vehicle_type_id":"4","last_reported":1758651331,"current_range_meters":9600,"station_id":"ce4bhqh2rcd13ifvqhlg","pricing_plan_id":"cebpf4jnsgd1na2vs0mg"},{"bike_id":"c61af5f2-3cb5-41a5-abf8-94a786759ecf","system_id":"levelo_inurba_marseille","lat":43.28617,"lon":5.35104,"is_reserved":false,"is_disabled":false,"rental_uris":{"android":"levelo://app?vid=c61af5f2-3cb5-41a5-abf8-94a786759ecf","ios":"levelo://app?vid=c61af5f2-3cb5-41a5-abf8-94a786759ecf"},"vehicle_type_id":"4","last_reported":1758651331,"current_range_meters":9600,"station_id":"ce4bhch2rcd13ifvqeug","pricing_plan_id":"cebpf4jnsgd1na2vs0mg"},{"bike_id":"93199bd3-6301-40c3-bf9c-c39404bf53ea","system_id":"levelo_inurba_marseille","lat":43.30244,"lon":5.40083,"is_reserved":false,"is_disabled":false,"rental_uris":{"android":"levelo://app?vid=93199bd3-6301-40c3-bf9c-c39404bf53ea","ios":"levelo://app?vid=93199bd3-6301-40c3-bf9c-c39404bf53ea"},"vehicle_type_id":"4","last_reported":1758651331,"current_range_meters":9600,"station_id":"ce4bgvh2rcd13ifvqcs0","pricing_plan_id":"cebpf4jnsgd1na2vs0mg"},{"bike_id":"a74926c9-091b-4afc-9c55-e449c173f11b","system_id":"levelo_inurba_marseille","lat":43.28981,"lon":5.356,"is_reserved":false,"is_disabled":false,"rental_uris":{"android":"levelo://app?vid=a74926c9-091b-4afc-9c55-e449c173f11b","ios":"levelo://app?vid=a74926c9-091b-4afc-9c55-e449c173f11b"},"vehicle_type_id":"4","last_reported":1758651331,"current_range_meters":9600,"station_id":"ce4bhb92rcd13ifvqen0","pricing_plan_id":"cebpf4jnsgd1na2vs0mg"},{"bike_id":"94d430e6-52b3-4d21-80c9-c6dd4519a8fb","system_id":"levelo_inurba_marseille","lat":43.31768,"lon":5.3831,"is_reserved":false,"is_disabled":false,"rental_uris":{"android":"levelo://app?vid=94d430e6-52b3-4d21-80c9-c6dd4519a8fb","ios":"levelo://app?vid=94d430e6-52b3-4d21-80c9-c6dd4519a8fb"},"vehicle_type_id":"4","last_reported":1758651331,"current_range_meters":9600,"station_id":"","pricing_plan_id":"cebpf4jnsgd1na2vs0mg"},{"bike_id":"7454ee95-d30e-471b-b427-27a5a8fa649e","system_id":"levelo_inurba_marseille","lat":43.24661,"lon":5.38164,"is_reserved":false,"is_disabled":false,"rental_uris":{"android":"levelo://app?vid=7454ee95-d30e-471b-b427-27a5a8fa649e","ios":"levelo://app?vid=7454ee95-d30e-471b-b427-27a5a8fa649e"},"vehicle_type_id":"4","last_reported":1758651331,"current_range_meters":9600,"station_id":"ce4bhih2rcd13ifvqfr0","pricing_plan_id":"cebpf4jnsgd1na2vs0mg"},{"bike_id":"a404eb95-b390-466b-9f62-2d3ce71c161f","system_id":"levelo_inurba_marseille","lat":43.24075,"lon":5.37762,"is_reserved":false,"is_disabled":false,"rental_uris":{"android":"levelo://app?vid=a404eb95-b390-466b-9f62-2d3ce71c161f","ios":"levelo://app?vid=a404eb95-b390-466b-9f62-2d3ce71c161f"},"vehicle_type_id":"4","last_reported":1758651331,"current_range_meters":9600,"station_id":"ce4bhnp2rcd13ifvqgvg","pricing_plan_id":"cebpf4jnsgd1na2vs0mg"},{"bike_id":"c51152c2-10d7-4018-bb9e-e2d65bc5e9ff","system_id":"levelo_inurba_marseille","lat":43.28726,"lon":5.36082,"is_reserved":false,"is_disabled":false,"rental_uris":{"android":"levelo://app?vid=c51152c2-10d7-4018-bb9e-e2d65bc5e9ff","ios":"levelo://app?vid=c51152c2-10d7-4018-bb9e-e2d65bc5e9ff"},"vehicle_type_id":"4","last_reported":1758651331,"current_range_meters":9600,"station_id":"cki0cbj6b192h4jlfktg","pricing_plan_id":"cebpf4jnsgd1na2vs0mg"},{"bike_id":"a3dbce35-1e2a-477e-bd5b-8ad6da32baa3","system_id":"levelo_inurba_marseille","lat":43.26233,"lon":5.40417,"is_reserved":false,"is_disabled":false,"rental_uris":{"android":"levelo://app?vid=a3dbce35-1e2a-477e-bd5b-8ad6da32baa3","ios":"levelo://app?vid=a3dbce35-1e2a-477e-bd5b-8ad6da32baa3"},"vehicle_type_id":"4","last_reported":1758651331,"current_range_meters":9600,"station_id":"ce4bhmh2rcd13ifvqgmg","pricing_plan_id":"cebpf4jnsgd1na2vs0mg"},{"bike_id":"9ff495f6-0711-4ed5-b6dc-a665c3251d1d","system_id":"levelo_inurba_marseille","lat":43.28688,"lon":5.37398,"is_reserved":false,"is_disabled":false,"rental_uris":{"android":"levelo://app?vid=9ff495f6-0711-4ed5-b6dc-a665c3251d1d","ios":"levelo://app?vid=9ff495f6-0711-4ed5-b6dc-a665c3251d1d"},"vehicle_type_id":"4","last_reported":1758651331,"current_range_meters":10000,"station_id":"ce4bh3p2rcd13ifvqdq0","pricing_plan_id":"cebpf4jnsgd1na2vs0mg"},{"bike_id":"89d038d9-1047-4131-8d4d-117e24e75aff","system_id":"levelo_inurba_marseille","lat":43.29961,"lon":5.41333,"is_reserved":false,"is_disabled":false,"rental_uris":{"android":"levelo://app?vid=89d038d9-1047-4131-8d4d-117e24e75aff","ios":"levelo://app?vid=89d038d9-1047-4131-8d4d-117e24e75aff"},"vehicle_type_id":"4","last_reported":1758651331,"current_range_meters":10000,"station_id":"ce4bhp12rcd13ifvqh9g","pricing_plan_id":"cebpf4jnsgd1na2vs0mg"},{"bike_id":"56ab8a65-7fb1-4ea3-8c97-3291e96bdd56","system_id":"levelo_inurba_marseille","lat":43.31709,"lon":5.37747,"is_reserved":false,"is_disabled":false,"rental_uris":{"android":"levelo://app?vid=56ab8a65-7fb1-4ea3-8c97-3291e96bdd56","ios":"levelo://app?vid=56ab8a65-7fb1-4ea3-8c97-3291e96bdd56"},"vehicle_type_id":"4","last_reported":1758651331,"current_range_meters":10000,"station_id":"ce4bgth2rcd13ifvqch0","pricing_plan_id":"cebpf4jnsgd1na2vs0mg"},{"bike_id":"5734cb48-2cc9-4c57-9d75-0837a5fcbb5c","system_id":"levelo_inurba_marseille","lat":43.31889,"lon":5.40739,"is_reserved":false,"is_disabled":false,"rental_uris":{"android":"levelo://app?vid=5734cb48-2cc9-4c57-9d75-0837a5fcbb5c","ios":"levelo://app?vid=5734cb48-2cc9-4c57-9d75-0837a5fcbb5c"},"vehicle_type_id":"4","last_reported":1758651331,"current_range_meters":10000,"station_id":"ce4bhq12rcd13ifvqhig","pricing_plan_id":"cebpf4jnsgd1na2vs0mg"},{"bike_id":"fdef003c-cb91-43cc-a82b-beb99691c250","system_id":"levelo_inurba_marseille","lat":43.30302,"lon":5.39211,"is_reserved":false,"is_disabled":false,"rental_uris":{"android":"levelo://app?vid=fdef003c-cb91-43cc-a82b-beb99691c250","ios":"levelo://app?vid=fdef003c-cb91-43cc-a82b-beb99691c250"},"vehicle_type_id":"4","last_reported":1758651331,"current_range_meters":10000,"station_id":"ce4bgkh2rcd13ifvqbk0","pricing_plan_id":"cebpf4jnsgd1na2vs0mg"},{"bike_id":"8d243e83-cc74-44d3-bf18-f20421549672","system_id":"levelo_inurba_marseille","lat":43.289324,"lon":5.359352,"is_reserved":false,"is_disabled":false,"rental_uris":{"android":"levelo://app?vid=8d243e83-cc74-44d3-bf18-f20421549672","ios":"levelo://app?vid=8d243e83-cc74-44d3-bf18-f20421549672"},"vehicle_type_id":"4","last_reported":1758651331,"current_range_meters":10000,"station_id":"","pricing_plan_id":"cebpf4jnsgd1na2vs0mg"},{"bike_id":"7d7a0abe-83b8-4067-92d1-8adad0b45209","system_id":"levelo_inurba_marseille","lat":43.27069,"lon":5.42286,"is_reserved":false,"is_disabled":false,"rental_uris":{"android":"levelo://app?vid=7d7a0abe-83b8-4067-92d1-8adad0b45209","ios":"levelo://app?vid=7d7a0abe-83b8-4067-92d1-8adad0b45209"},"vehicle_type_id":"4","last_reported":1758651331,"current_range_meters":10800,"station_id":"ce4bhk92rcd13ifvqgb0","pricing_plan_id":"cebpf4jnsgd1na2vs0mg"},{"bike_id":"7eed4ee9-b482-4888-864e-97dcf540c239","system_id":"levelo_inurba_marseille","lat":43.28075,"lon":5.39667,"is_reserved":false,"is_disabled":false,"rental_uris":{"android":"levelo://app?vid=7eed4ee9-b482-4888-864e-97dcf540c239","ios":"levelo://app?vid=7eed4ee9-b482-4888-864e-97dcf540c239"},"vehicle_type_id":"4","last_reported":1758651331,"current_range_meters":10000,"station_id":"ce4bho12rcd13ifvqh2g","pricing_plan_id":"cebpf4jnsgd1na2vs0mg"},{"bike_id":"b9641ea9-2ce5-415f-97d5-6b562fcc70cb","system_id":"levelo_inurba_marseille","lat":43.284585,"lon":5.358796,"is_reserved":false,"is_disabled":false,"rental_uris":{"android":"levelo://app?vid=b9641ea9-2ce5-415f-97d5-6b562fcc70cb","ios":"levelo://app?vid=b9641ea9-2ce5-415f-97d5-6b562fcc70cb"},"vehicle_type_id":"4","last_reported":1758651331,"current_range_meters":10800,"station_id":"ce4bhah2rcd13ifvqei0","pricing_plan_id":"cebpf4jnsgd1na2vs0mg"},{"bike_id":"c6283389-3e8e-47d4-9155-072321a09fa4","system_id":"levelo_inurba_marseille","lat":43.28003,"lon":5.40014,"is_reserved":false,"is_disabled":false,"rental_uris":{"android":"levelo://app?vid=c6283389-3e8e-47d4-9155-072321a09fa4","ios":"levelo://app?vid=c6283389-3e8e-47d4-9155-072321a09fa4"},"vehicle_type_id":"4","last_reported":1758651331,"current_range_meters":10800,"station_id":"ce4bho92rcd13ifvqh4g","pricing_plan_id":"cebpf4jnsgd1na2vs0mg"},{"bike_id":"7e9d0d26-3757-4d8d-9842-b1c96bf90916","system_id":"levelo_inurba_marseille","lat":43.28152,"lon":5.42647,"is_reserved":false,"is_disabled":false,"rental_uris":{"android":"levelo://app?vid=7e9d0d26-3757-4d8d-9842-b1c96bf90916","ios":"levelo://app?vid=7e9d0d26-3757-4d8d-9842-b1c96bf90916"},"vehicle_type_id":"4","last_reported":1758651331,"current_range_meters":10800,"station_id":"ce4bhnh2rcd13ifvqgug","pricing_plan_id":"cebpf4jnsgd1na2vs0mg"},{"bike_id":"34668886-3c8e-4b12-a9ca-50cc13b4f47e","system_id":"levelo_inurba_marseille","lat":43.2812,"lon":5.4057,"is_reserved":false,"is_disabled":false,"rental_uris":{"android":"levelo://app?vid=34668886-3c8e-4b12-a9ca-50cc13b4f47e","ios":"levelo://app?vid=34668886-3c8e-4b12-a9ca-50cc13b4f47e"},"vehicle_type_id":"4","last_reported":1758651331,"current_range_meters":10800,"station_id":"","pricing_plan_id":"cebpf4jnsgd1na2vs0mg"},{"bike_id":"20e35668-73b7-4745-8752-4fc4f5c68bc3","system_id":"levelo_inurba_marseille","lat":43.25087,"lon":5.39521,"is_reserved":false,"is_disabled":false,"rental_uris":{"android":"levelo://app?vid=20e35668-73b7-4745-8752-4fc4f5c68bc3","ios":"levelo://app?vid=20e35668-73b7-4745-8752-4fc4f5c68bc3"},"vehicle_type_id":"4","last_reported":1758651331,"current_range_meters":10800,"station_id":"ce4bhm12rcd13ifvqgkg","pricing_plan_id":"cebpf4jnsgd1na2vs0mg"},{"bike_id":"bcef8554-3413-441c-a91c-58d734e6f982","system_id":"levelo_inurba_marseille","lat":43.30153,"lon":5.38086,"is_reserved":false,"is_disabled":false,"rental_uris":{"android":"levelo://app?vid=bcef8554-3413-441c-a91c-58d734e6f982","ios":"levelo://app?vid=bcef8554-3413-441c-a91c-58d734e6f982"},"vehicle_type_id":"4","last_reported":1758651331,"current_range_meters":11200,"station_id":"ce4bgjp2rcd13ifvqbh0","pricing_plan_id":"cebpf4jnsgd1na2vs0mg"},{"bike_id":"5b396e16-77d2-4d91-9726-e9579982442a","system_id":"levelo_inurba_marseille","lat":43.29878,"lon":5.39729,"is_reserved":false,"is_disabled":false,"rental_uris":{"android":"levelo://app?vid=5b396e16-77d2-4d91-9726-e9579982442a","ios":"levelo://app?vid=5b396e16-77d2-4d91-9726-e9579982442a"},"vehicle_type_id":"4","last_reported":1758651331,"current_range_meters":11200,"station_id":"ce4bh0h2rcd13ifvqd50","pricing_plan_id":"cebpf4jnsgd1na2vs0mg"},{"bike_id":"7ceb30fe-361b-4824-90a1-c7abaa671fbe","system_id":"levelo_inurba_marseille","lat":43.28683,"lon":5.38659,"is_reserved":false,"is_disabled":false,"rental_uris":{"android":"levelo://app?vid=7ceb30fe-361b-4824-90a1-c7abaa671fbe","ios":"levelo://app?vid=7ceb30fe-361b-4824-90a1-c7abaa671fbe"},"vehicle_type_id":"4","last_reported":1758651331,"current_range_meters":11600,"station_id":"ce4bh492rcd13ifvqdug","pricing_plan_id":"cebpf4jnsgd1na2vs0mg"},{"bike_id":"c1dc227c-7092-4c64-b374-6580ddf527cc","system_id":"levelo_inurba_marseille","lat":43.29897,"lon":5.43672,"is_reserved":false,"is_disabled":false,"rental_uris":{"android":"levelo://app?vid=c1dc227c-7092-4c64-b374-6580ddf527cc","ios":"levelo://app?vid=c1dc227c-7092-4c64-b374-6580ddf527cc"},"vehicle_type_id":"4","last_reported":1758651331,"current_range_meters":11600,"station_id":"ce4bhpp2rcd13ifvqhfg","pricing_plan_id":"cebpf4jnsgd1na2vs0mg"},{"bike_id":"36d0775a-2729-41d3-98ae-c37b13f4b525","system_id":"levelo_inurba_marseille","lat":43.29324,"lon":5.4117,"is_reserved":false,"is_disabled":false,"rental_uris":{"android":"levelo://app?vid=36d0775a-2729-41d3-98ae-c37b13f4b525","ios":"levelo://app?vid=36d0775a-2729-41d3-98ae-c37b13f4b525"},"vehicle_type_id":"4","last_reported":1758651331,"current_range_meters":11600,"station_id":"","pricing_plan_id":"cebpf4jnsgd1na2vs0mg"},{"bike_id":"2e61ff1d-b5c6-4c6b-bb99-723bcee83ada","system_id":"levelo_inurba_marseille","lat":43.28981,"lon":5.37828,"is_reserved":false,"is_disabled":false,"rental_uris":{"android":"levelo://app?vid=2e61ff1d-b5c6-4c6b-bb99-723bcee83ada","ios":"levelo://app?vid=2e61ff1d-b5c6-4c6b-bb99-723bcee83ada"},"vehicle_type_id":"4","last_reported":1758651331,"current_range_meters":11600,"station_id":"ce4bh9p2rcd13ifvqed0","pricing_plan_id":"cebpf4jnsgd1na2vs0mg"},{"bike_id":"5c0d986e-5f31-4c2d-b5da-a22f9e5d73c1","system_id":"levelo_inurba_marseille","lat":43.31063,"lon":5.38361,"is_reserved":false,"is_disabled":false,"rental_uris":{"android":"levelo://app?vid=5c0d986e-5f31-4c2d-b5da-a22f9e5d73c1","ios":"levelo://app?vid=5c0d986e-5f31-4c2d-b5da-a22f9e5d73c1"},"vehicle_type_id":"4","last_reported":1758651331,"current_range_meters":11600,"station_id":"ce4bgv92rcd13ifvqcr0","pricing_plan_id":"cebpf4jnsgd1na2vs0mg"},{"bike_id":"d953e32c-d231-4da7-aecf-8b5502ee50d4","system_id":"levelo_inurba_marseille","lat":43.28939,"lon":5.36636,"is_reserved":false,"is_disabled":false,"rental_uris":{"android":"levelo://app?vid=d953e32c-d231-4da7-aecf-8b5502ee50d4","ios":"levelo://app?vid=d953e32c-d231-4da7-aecf-8b5502ee50d4"},"vehicle_type_id":"4","last_reported":1758651331,"current_range_meters":12000,"station_id":"ce4bhap2rcd13ifvqek0","pricing_plan_id":"cebpf4jnsgd1na2vs0mg"},{"bike_id":"5c6070a0-0fa7-40a1-bae4-90214c4809f1","system_id":"levelo_inurba_marseille","lat":43.28616,"lon":5.35102,"is_reserved":false,"is_disabled":false,"rental_uris":{"android":"levelo://app?vid=5c6070a0-0fa7-40a1-bae4-90214c4809f1","ios":"levelo://app?vid=5c6070a0-0fa7-40a1-bae4-90214c4809f1"},"vehicle_type_id":"4","last_reported":1758651331,"current_range_meters":12000,"station_id":"ce4bhch2rcd13ifvqeug","pricing_plan_id":"cebpf4jnsgd1na2vs0mg"},{"bike_id":"002ed5a3-2bea-4c3b-8e93-f3d8dd1595d8","system_id":"levelo_inurba_marseille","lat":43.291997,"lon":5.358056,"is_reserved":false,"is_disabled":false,"rental_uris":{"android":"levelo://app?vid=002ed5a3-2bea-4c3b-8e93-f3d8dd1595d8","ios":"levelo://app?vid=002ed5a3-2bea-4c3b-8e93-f3d8dd1595d8"},"vehicle_type_id":"4","last_reported":1758651331,"current_range_meters":12000,"station_id":"ce4bhb12rcd13ifvqel0","pricing_plan_id":"cebpf4jnsgd1na2vs0mg"},{"bike_id":"750c85a5-6859-458f-b717-3729738ac9e2","system_id":"levelo_inurba_marseille","lat":43.29296,"lon":5.37456,"is_reserved":false,"is_disabled":false,"rental_uris":{"android":"levelo://app?vid=750c85a5-6859-458f-b717-3729738ac9e2","ios":"levelo://app?vid=750c85a5-6859-458f-b717-3729738ac9e2"},"vehicle_type_id":"4","last_reported":1758651331,"current_range_meters":12000,"station_id":"ce4bgi12rcd13ifvqb70","pricing_plan_id":"cebpf4jnsgd1na2vs0mg"},{"bike_id":"9317c88e-add4-4d35-ba2e-d390e55e8d75","system_id":"levelo_inurba_marseille","lat":43.2742,"lon":5.39414,"is_reserved":false,"is_disabled":false,"rental_uris":{"android":"levelo://app?vid=9317c88e-add4-4d35-ba2e-d390e55e8d75","ios":"levelo://app?vid=9317c88e-add4-4d35-ba2e-d390e55e8d75"},"vehicle_type_id":"4","last_reported":1758651331,"current_range_meters":12400,"station_id":"ce4bhdp2rcd13ifvqf20","pricing_plan_id":"cebpf4jnsgd1na2vs0mg"},{"bike_id":"8190065d-15e8-406e-a402-257fe6740eef","system_id":"levelo_inurba_marseille","lat":43.28346,"lon":5.38102,"is_reserved":false,"is_disabled":false,"rental_uris":{"android":"levelo://app?vid=8190065d-15e8-406e-a402-257fe6740eef","ios":"levelo://app?vid=8190065d-15e8-406e-a402-257fe6740eef"},"vehicle_type_id":"4","last_reported":1758651331,"current_range_meters":12000,"station_id":"ce4bh412rcd13ifvqdr0","pricing_plan_id":"cebpf4jnsgd1na2vs0mg"},{"bike_id":"67b97e29-7ecb-4018-a464-041bbd85ed0b","system_id":"levelo_inurba_marseille","lat":43.28403,"lon":5.35006,"is_reserved":false,"is_disabled":false,"rental_uris":{"android":"levelo://app?vid=67b97e29-7ecb-4018-a464-041bbd85ed0b","ios":"levelo://app?vid=67b97e29-7ecb-4018-a464-041bbd85ed0b"},"vehicle_type_id":"4","last_reported":1758651331,"current_range_meters":12000,"station_id":"ce4bhbh2rcd13ifvqepg","pricing_plan_id":"cebpf4jnsgd1na2vs0mg"},{"bike_id":"6d3a8c5e-557b-4223-902c-598a4a4dccf7","system_id":"levelo_inurba_marseille","lat":43.28466,"lon":5.35881,"is_reserved":false,"is_disabled":false,"rental_uris":{"android":"levelo://app?vid=6d3a8c5e-557b-4223-902c-598a4a4dccf7","ios":"levelo://app?vid=6d3a8c5e-557b-4223-902c-598a4a4dccf7"},"vehicle_type_id":"4","last_reported":1758651331,"current_range_meters":12400,"station_id":"ce4bhah2rcd13ifvqei0","pricing_plan_id":"cebpf4jnsgd1na2vs0mg"},{"bike_id":"44ebeb15-4fcf-4ed3-9f48-42400ba2a1f6","system_id":"levelo_inurba_marseille","lat":43.29019,"lon":5.35602,"is_reserved":false,"is_disabled":false,"rental_uris":{"android":"levelo://app?vid=44ebeb15-4fcf-4ed3-9f48-42400ba2a1f6","ios":"levelo://app?vid=44ebeb15-4fcf-4ed3-9f48-42400ba2a1f6"},"vehicle_type_id":"4","last_reported":1758651331,"current_range_meters":12400,"station_id":"ce4bhb92rcd13ifvqen0","pricing_plan_id":"cebpf4jnsgd1na2vs0mg"},{"bike_id":"c9956c3c-7aa3-4b06-8449-bb13b98715fa","system_id":"levelo_inurba_marseille","lat":43.29004,"lon":5.38135,"is_reserved":false,"is_disabled":false,"rental_uris":{"android":"levelo://app?vid=c9956c3c-7aa3-4b06-8449-bb13b98715fa","ios":"levelo://app?vid=c9956c3c-7aa3-4b06-8449-bb13b98715fa"},"vehicle_type_id":"4","last_reported":1758651331,"current_range_meters":12400,"station_id":"ce4bh4p2rcd13ifvqe1g","pricing_plan_id":"cebpf4jnsgd1na2vs0mg"},{"bike_id":"1b893157-25fa-4353-9b23-b7875f2441b4","system_id":"levelo_inurba_marseille","lat":43.24672,"lon":5.38163,"is_reserved":false,"is_disabled":false,"rental_uris":{"android":"levelo://app?vid=1b893157-25fa-4353-9b23-b7875f2441b4","ios":"levelo://app?vid=1b893157-25fa-4353-9b23-b7875f2441b4"},"vehicle_type_id":"4","last_reported":1758651331,"current_range_meters":12400,"station_id":"ce4bhih2rcd13ifvqfr0","pricing_plan_id":"cebpf4jnsgd1na2vs0mg"},{"bike_id":"617aa850-c50e-42bc-8e94-e01d1a727daf","system_id":"levelo_inurba_marseille","lat":43.30157,"lon":5.38099,"is_reserved":false,"is_disabled":false,"rental_uris":{"android":"levelo://app?vid=617aa850-c50e-42bc-8e94-e01d1a727daf","ios":"levelo://app?vid=617aa850-c50e-42bc-8e94-e01d1a727daf"},"vehicle_type_id":"4","last_reported":1758651331,"current_range_meters":12400,"station_id":"ce4bgjp2rcd13ifvqbh0","pricing_plan_id":"cebpf4jnsgd1na2vs0mg"},{"bike_id":"0d561f13-e370-401b-90a2-9044f837125c","system_id":"levelo_inurba_marseille","lat":43.29301,"lon":5.37448,"is_reserved":false,"is_disabled":false,"rental_uris":{"android":"levelo://app?vid=0d561f13-e370-401b-90a2-9044f837125c","ios":"levelo://app?vid=0d561f13-e370-401b-90a2-9044f837125c"},"vehicle_type_id":"4","last_reported":1758651331,"current_range_meters":12400,"station_id":"ce4bgi12rcd13ifvqb70","pricing_plan_id":"cebpf4jnsgd1na2vs0mg"},{"bike_id":"c0006fe7-b6ba-4bf1-9334-2053264941f7","system_id":"levelo_inurba_marseille","lat":43.26039,"lon":5.37542,"is_reserved":false,"is_disabled":false,"rental_uris":{"android":"levelo://app?vid=c0006fe7-b6ba-4bf1-9334-2053264941f7","ios":"levelo://app?vid=c0006fe7-b6ba-4bf1-9334-2053264941f7"},"vehicle_type_id":"4","last_reported":1758651331,"current_range_meters":12800,"station_id":"ce4bhgh2rcd13ifvqfa0","pricing_plan_id":"cebpf4jnsgd1na2vs0mg"},{"bike_id":"20817f64-741a-4e20-8b44-5db8dc514eb9","system_id":"levelo_inurba_marseille","lat":43.32366,"lon":5.38886,"is_reserved":false,"is_disabled":false,"rental_uris":{"android":"levelo://app?vid=20817f64-741a-4e20-8b44-5db8dc514eb9","ios":"levelo://app?vid=20817f64-741a-4e20-8b44-5db8dc514eb9"},"vehicle_type_id":"4","last_reported":1758651331,"current_range_meters":12800,"station_id":"ce4bhqp2rcd13ifvqhog","pricing_plan_id":"cebpf4jnsgd1na2vs0mg"},{"bike_id":"e3dc3807-da3b-4107-abcd-b128895b5784","system_id":"levelo_inurba_marseille","lat":43.28657,"lon":5.36341,"is_reserved":false,"is_disabled":false,"rental_uris":{"android":"levelo://app?vid=e3dc3807-da3b-4107-abcd-b128895b5784","ios":"levelo://app?vid=e3dc3807-da3b-4107-abcd-b128895b5784"},"vehicle_type_id":"4","last_reported":1758651331,"current_range_meters":12800,"station_id":"ce4bhah2rcd13ifvqej0","pricing_plan_id":"cebpf4jnsgd1na2vs0mg"},{"bike_id":"109b1194-fc7c-4db6-b2eb-6c93d4cd22fc","system_id":"levelo_inurba_marseille","lat":43.253338,"lon":5.421759,"is_reserved":false,"is_disabled":false,"rental_uris":{"android":"levelo://app?vid=109b1194-fc7c-4db6-b2eb-6c93d4cd22fc","ios":"levelo://app?vid=109b1194-fc7c-4db6-b2eb-6c93d4cd22fc"},"vehicle_type_id":"4","last_reported":1758651331,"current_range_meters":12800,"station_id":"st_d2m65c5bi1j21697t3ng","pricing_plan_id":"cebpf4jnsgd1na2vs0mg"},{"bike_id":"c53608fb-ba73-4ba5-8a4c-b246b01f2b97","system_id":"levelo_inurba_marseille","lat":43.28496,"lon":5.3841,"is_reserved":false,"is_disabled":false,"rental_uris":{"android":"levelo://app?vid=c53608fb-ba73-4ba5-8a4c-b246b01f2b97","ios":"levelo://app?vid=c53608fb-ba73-4ba5-8a4c-b246b01f2b97"},"vehicle_type_id":"4","last_reported":1758651331,"current_range_meters":12800,"station_id":"ce4bh512rcd13ifvqe3g","pricing_plan_id":"cebpf4jnsgd1na2vs0mg"},{"bike_id":"062882c0-6810-4134-94b1-d58221c157d0","system_id":"levelo_inurba_marseille","lat":43.25341,"lon":5.42176,"is_reserved":false,"is_disabled":false,"rental_uris":{"android":"levelo://app?vid=062882c0-6810-4134-94b1-d58221c157d0","ios":"levelo://app?vid=062882c0-6810-4134-94b1-d58221c157d0"},"vehicle_type_id":"4","last_reported":1758651331,"current_range_meters":12800,"station_id":"st_d2m65c5bi1j21697t3ng","pricing_plan_id":"cebpf4jnsgd1na2vs0mg"},{"bike_id":"cdb7b815-9f3a-4f0c-9381-ff83a7564bd3","system_id":"levelo_inurba_marseille","lat":43.29939,"lon":5.41337,"is_reserved":false,"is_disabled":false,"rental_uris":{"android":"levelo://app?vid=cdb7b815-9f3a-4f0c-9381-ff83a7564bd3","ios":"levelo://app?vid=cdb7b815-9f3a-4f0c-9381-ff83a7564bd3"},"vehicle_type_id":"4","last_reported":1758651331,"current_range_meters":12400,"station_id":"ce4bhp12rcd13ifvqh9g","pricing_plan_id":"cebpf4jnsgd1na2vs0mg"},{"bike_id":"9c7a180f-bee6-48c2-9ad2-181dea55ce36","system_id":"levelo_inurba_marseille","lat":43.31672,"lon":5.43667,"is_reserved":false,"is_disabled":false,"rental_uris":{"android":"levelo://app?vid=9c7a180f-bee6-48c2-9ad2-181dea55ce36","ios":"levelo://app?vid=9c7a180f-bee6-48c2-9ad2-181dea55ce36"},"vehicle_type_id":"4","last_reported":1758651331,"current_range_meters":13600,"station_id":"","pricing_plan_id":"cebpf4jnsgd1na2vs0mg"},{"bike_id":"7c0482c3-9253-4d1b-b4f3-be55cdb7721d","system_id":"levelo_inurba_marseille","lat":43.33757,"lon":5.37466,"is_reserved":false,"is_disabled":false,"rental_uris":{"android":"levelo://app?vid=7c0482c3-9253-4d1b-b4f3-be55cdb7721d","ios":"levelo://app?vid=7c0482c3-9253-4d1b-b4f3-be55cdb7721d"},"vehicle_type_id":"4","last_reported":1758651331,"current_range_meters":13600,"station_id":"","pricing_plan_id":"cebpf4jnsgd1na2vs0mg"},{"bike_id":"7e3e9b4c-e447-4201-b7b1-480c32a3328d","system_id":"levelo_inurba_marseille","lat":43.281044,"lon":5.395974,"is_reserved":false,"is_disabled":false,"rental_uris":{"android":"levelo://app?vid=7e3e9b4c-e447-4201-b7b1-480c32a3328d","ios":"levelo://app?vid=7e3e9b4c-e447-4201-b7b1-480c32a3328d"},"vehicle_type_id":"4","last_reported":1758651331,"current_range_meters":13600,"station_id":"ce4bho12rcd13ifvqh2g","pricing_plan_id":"cebpf4jnsgd1na2vs0mg"},{"bike_id":"491f3345-2ff4-4c5a-af7c-9a55daaa69ad","system_id":"levelo_inurba_marseille","lat":43.28619,"lon":5.3509,"is_reserved":false,"is_disabled":false,"rental_uris":{"android":"levelo://app?vid=491f3345-2ff4-4c5a-af7c-9a55daaa69ad","ios":"levelo://app?vid=491f3345-2ff4-4c5a-af7c-9a55daaa69ad"},"vehicle_type_id":"4","last_reported":1758651331,"current_range_meters":13600,"station_id":"ce4bhch2rcd13ifvqeug","pricing_plan_id":"cebpf4jnsgd1na2vs0mg"},{"bike_id":"43d57fd4-047e-4ac8-97e5-ec9b96239472","system_id":"levelo_inurba_marseille","lat":43.33231,"lon":5.39821,"is_reserved":false,"is_disabled":false,"rental_uris":{"android":"levelo://app?vid=43d57fd4-047e-4ac8-97e5-ec9b96239472","ios":"levelo://app?vid=43d57fd4-047e-4ac8-97e5-ec9b96239472"},"vehicle_type_id":"4","last_reported":1758651331,"current_range_meters":13600,"station_id":"","pricing_plan_id":"cebpf4jnsgd1na2vs0mg"},{"bike_id":"0a93b7fa-898f-46ce-bd76-143a1182be97","system_id":"levelo_inurba_marseille","lat":43.27421,"lon":5.39417,"is_reserved":false,"is_disabled":true,"rental_uris":{"android":"levelo://app?vid=0a93b7fa-898f-46ce-bd76-143a1182be97","ios":"levelo://app?vid=0a93b7fa-898f-46ce-bd76-143a1182be97"},"vehicle_type_id":"4","last_reported":1758651331,"current_range_meters":14000,"station_id":"ce4bhdp2rcd13ifvqf20","pricing_plan_id":"cebpf4jnsgd1na2vs0mg"},{"bike_id":"3a4bb8c7-912e-4fc0-8d4e-6251dc9a0b04","system_id":"levelo_inurba_marseille","lat":43.28615,"lon":5.35108,"is_reserved":false,"is_disabled":false,"rental_uris":{"android":"levelo://app?vid=3a4bb8c7-912e-4fc0-8d4e-6251dc9a0b04","ios":"levelo://app?vid=3a4bb8c7-912e-4fc0-8d4e-6251dc9a0b04"},"vehicle_type_id":"4","last_reported":1758651331,"current_range_meters":14000,"station_id":"ce4bhch2rcd13ifvqeug","pricing_plan_id":"cebpf4jnsgd1na2vs0mg"},{"bike_id":"20ac81b0-2003-4701-8a45-6c6cbbaf5e14","system_id":"levelo_inurba_marseille","lat":43.28002,"lon":5.40013,"is_reserved":false,"is_disabled":false,"rental_uris":{"android":"levelo://app?vid=20ac81b0-2003-4701-8a45-6c6cbbaf5e14","ios":"levelo://app?vid=20ac81b0-2003-4701-8a45-6c6cbbaf5e14"},"vehicle_type_id":"4","last_reported":1758651331,"current_range_meters":14000,"station_id":"ce4bho92rcd13ifvqh4g","pricing_plan_id":"cebpf4jnsgd1na2vs0mg"},{"bike_id":"06a24bce-028d-4b4a-b4a3-d45296145db5","system_id":"levelo_inurba_marseille","lat":43.28425,"lon":5.34991,"is_reserved":false,"is_disabled":true,"rental_uris":{"android":"levelo://app?vid=06a24bce-028d-4b4a-b4a3-d45296145db5","ios":"levelo://app?vid=06a24bce-028d-4b4a-b4a3-d45296145db5"},"vehicle_type_id":"4","last_reported":1758651331,"current_range_meters":14000,"station_id":"ce4bhch2rcd13ifvqeug","pricing_plan_id":"cebpf4jnsgd1na2vs0mg"},{"bike_id":"c60f085d-93a0-46e8-b6c8-85a832235758","system_id":"levelo_inurba_marseille","lat":43.24075,"lon":5.37761,"is_reserved":false,"is_disabled":false,"rental_uris":{"android":"levelo://app?vid=c60f085d-93a0-46e8-b6c8-85a832235758","ios":"levelo://app?vid=c60f085d-93a0-46e8-b6c8-85a832235758"},"vehicle_type_id":"4","last_reported":1758651331,"current_range_meters":14000,"station_id":"ce4bhnp2rcd13ifvqgvg","pricing_plan_id":"cebpf4jnsgd1na2vs0mg"},{"bike_id":"646b0538-c2f7-45e7-9a7f-ef80f74bad85","system_id":"levelo_inurba_marseille","lat":43.29067,"lon":5.3714,"is_reserved":false,"is_disabled":false,"rental_uris":{"android":"levelo://app?vid=646b0538-c2f7-45e7-9a7f-ef80f74bad85","ios":"levelo://app?vid=646b0538-c2f7-45e7-9a7f-ef80f74bad85"},"vehicle_type_id":"4","last_reported":1758651331,"current_range_meters":14000,"station_id":"ce4bh5p2rcd13ifvqe4g","pricing_plan_id":"cebpf4jnsgd1na2vs0mg"},{"bike_id":"f58b6005-0761-44c6-a760-b427335ed77d","system_id":"levelo_inurba_marseille","lat":43.29164,"lon":5.37159,"is_reserved":false,"is_disabled":false,"rental_uris":{"android":"levelo://app?vid=f58b6005-0761-44c6-a760-b427335ed77d","ios":"levelo://app?vid=f58b6005-0761-44c6-a760-b427335ed77d"},"vehicle_type_id":"4","last_reported":1758651331,"current_range_meters":11200,"station_id":"ce4bha92rcd13ifvqeh0","pricing_plan_id":"cebpf4jnsgd1na2vs0mg"},{"bike_id":"77da0b1e-e488-40b2-9ac2-44498dec2bf5","system_id":"levelo_inurba_marseille","lat":43.30144,"lon":5.37416,"is_reserved":false,"is_disabled":false,"rental_uris":{"android":"levelo://app?vid=77da0b1e-e488-40b2-9ac2-44498dec2bf5","ios":"levelo://app?vid=77da0b1e-e488-40b2-9ac2-44498dec2bf5"},"vehicle_type_id":"4","last_reported":1758651331,"current_range_meters":13600,"station_id":"ce4bgs92rcd13ifvqcc0","pricing_plan_id":"cebpf4jnsgd1na2vs0mg"},{"bike_id":"e97bd6ca-3700-4286-b774-2c10f8ef9c91","system_id":"levelo_inurba_marseille","lat":43.232,"lon":5.3555,"is_reserved":false,"is_disabled":false,"rental_uris":{"android":"levelo://app?vid=e97bd6ca-3700-4286-b774-2c10f8ef9c91","ios":"levelo://app?vid=e97bd6ca-3700-4286-b774-2c10f8ef9c91"},"vehicle_type_id":"4","last_reported":1758651331,"current_range_meters":13600,"station_id":"ce4bhu92rcd13ifvqi70","pricing_plan_id":"cebpf4jnsgd1na2vs0mg"},{"bike_id":"2e586592-f08d-43dc-b657-a1ca511d1d1a","system_id":"levelo_inurba_marseille","lat":43.27935,"lon":5.41047,"is_reserved":false,"is_disabled":false,"rental_uris":{"android":"levelo://app?vid=2e586592-f08d-43dc-b657-a1ca511d1d1a","ios":"levelo://app?vid=2e586592-f08d-43dc-b657-a1ca511d1d1a"},"vehicle_type_id":"4","last_reported":1758651331,"current_range_meters":14400,"station_id":"ce4bhnp2rcd13ifvqh0g","pricing_plan_id":"cebpf4jnsgd1na2vs0mg"},{"bike_id":"adc9b767-fa5a-487c-b17d-fb3c376c3f08","system_id":"levelo_inurba_marseille","lat":43.29752,"lon":5.37735,"is_reserved":false,"is_disabled":false,"rental_uris":{"android":"levelo://app?vid=adc9b767-fa5a-487c-b17d-fb3c376c3f08","ios":"levelo://app?vid=adc9b767-fa5a-487c-b17d-fb3c376c3f08"},"vehicle_type_id":"4","last_reported":1758651331,"current_range_meters":14400,"station_id":"","pricing_plan_id":"cebpf4jnsgd1na2vs0mg"},{"bike_id":"51cd1cc3-1d13-4161-a325-9726bddeed9c","system_id":"levelo_inurba_marseille","lat":43.25718,"lon":5.41112,"is_reserved":false,"is_disabled":false,"rental_uris":{"android":"levelo://app?vid=51cd1cc3-1d13-4161-a325-9726bddeed9c","ios":"levelo://app?vid=51cd1cc3-1d13-4161-a325-9726bddeed9c"},"vehicle_type_id":"4","last_reported":1758651331,"current_range_meters":14800,"station_id":"ce4bhkp2rcd13ifvqgd0","pricing_plan_id":"cebpf4jnsgd1na2vs0mg"},{"bike_id":"2884e01e-e8e5-4f64-839a-a54c238e1ae3","system_id":"levelo_inurba_marseille","lat":43.22534,"lon":5.34832,"is_reserved":false,"is_disabled":false,"rental_uris":{"android":"levelo://app?vid=2884e01e-e8e5-4f64-839a-a54c238e1ae3","ios":"levelo://app?vid=2884e01e-e8e5-4f64-839a-a54c238e1ae3"},"vehicle_type_id":"4","last_reported":1758651331,"current_range_meters":14800,"station_id":"","pricing_plan_id":"cebpf4jnsgd1na2vs0mg"},{"bike_id":"bc0ddd97-c212-466b-b36d-40d5d5d40a29","system_id":"levelo_inurba_marseille","lat":43.316442,"lon":5.404207,"is_reserved":false,"is_disabled":false,"rental_uris":{"android":"levelo://app?vid=bc0ddd97-c212-466b-b36d-40d5d5d40a29","ios":"levelo://app?vid=bc0ddd97-c212-466b-b36d-40d5d5d40a29"},"vehicle_type_id":"4","last_reported":1758651331,"current_range_meters":14800,"station_id":"","pricing_plan_id":"cebpf4jnsgd1na2vs0mg"},{"bike_id":"de106340-08ac-4db9-86ca-fe80a2396738","system_id":"levelo_inurba_marseille","lat":43.31107,"lon":5.37779,"is_reserved":false,"is_disabled":false,"rental_uris":{"android":"levelo://app?vid=de106340-08ac-4db9-86ca-fe80a2396738","ios":"levelo://app?vid=de106340-08ac-4db9-86ca-fe80a2396738"},"vehicle_type_id":"4","last_reported":1758651331,"current_range_meters":14400,"station_id":"ce4bgt92rcd13ifvqcg0","pricing_plan_id":"cebpf4jnsgd1na2vs0mg"},{"bike_id":"ffff0f5b-2301-457d-9372-ffec39686132","system_id":"levelo_inurba_marseille","lat":43.29974,"lon":5.37188,"is_reserved":false,"is_disabled":false,"rental_uris":{"android":"levelo://app?vid=ffff0f5b-2301-457d-9372-ffec39686132","ios":"levelo://app?vid=ffff0f5b-2301-457d-9372-ffec39686132"},"vehicle_type_id":"4","last_reported":1758651331,"current_range_meters":14800,"station_id":"ce4bgr92rcd13ifvqc7g","pricing_plan_id":"cebpf4jnsgd1na2vs0mg"},{"bike_id":"e35dc3d8-0dfe-4bd4-87f7-5d3ca8bee4e5","system_id":"levelo_inurba_marseille","lat":43.250774,"lon":5.426042,"is_reserved":false,"is_disabled":false,"rental_uris":{"android":"levelo://app?vid=e35dc3d8-0dfe-4bd4-87f7-5d3ca8bee4e5","ios":"levelo://app?vid=e35dc3d8-0dfe-4bd4-87f7-5d3ca8bee4e5"},"vehicle_type_id":"4","last_reported":1758651331,"current_range_meters":14800,"station_id":"","pricing_plan_id":"cebpf4jnsgd1na2vs0mg"},{"bike_id":"7faf4b20-01b0-4249-b217-cd638fb2514c","system_id":"levelo_inurba_marseille","lat":43.25726,"lon":5.41109,"is_reserved":false,"is_disabled":false,"rental_uris":{"android":"levelo://app?vid=7faf4b20-01b0-4249-b217-cd638fb2514c","ios":"levelo://app?vid=7faf4b20-01b0-4249-b217-cd638fb2514c"},"vehicle_type_id":"4","last_reported":1758651331,"current_range_meters":15200,"station_id":"ce4bhkp2rcd13ifvqgd0","pricing_plan_id":"cebpf4jnsgd1na2vs0mg"},{"bike_id":"ed625854-ee6d-4f6a-bb7e-f224f01cbaf6","system_id":"levelo_inurba_marseille","lat":43.28855,"lon":5.35845,"is_reserved":false,"is_disabled":false,"rental_uris":{"android":"levelo://app?vid=ed625854-ee6d-4f6a-bb7e-f224f01cbaf6","ios":"levelo://app?vid=ed625854-ee6d-4f6a-bb7e-f224f01cbaf6"},"vehicle_type_id":"4","last_reported":1758651331,"current_range_meters":15200,"station_id":"ce4bhb12rcd13ifvqem0","pricing_plan_id":"cebpf4jnsgd1na2vs0mg"},{"bike_id":"e36b8523-28d4-4650-bb1a-56482550ea8b","system_id":"levelo_inurba_marseille","lat":43.29786,"lon":5.38114,"is_reserved":false,"is_disabled":true,"rental_uris":{"android":"levelo://app?vid=e36b8523-28d4-4650-bb1a-56482550ea8b","ios":"levelo://app?vid=e36b8523-28d4-4650-bb1a-56482550ea8b"},"vehicle_type_id":"4","last_reported":1758651331,"current_range_meters":15200,"station_id":"ce4bgip2rcd13ifvqbb0","pricing_plan_id":"cebpf4jnsgd1na2vs0mg"},{"bike_id":"17d8c87d-eee7-4603-bb75-9339dee032de","system_id":"levelo_inurba_marseille","lat":43.2533,"lon":5.42176,"is_reserved":false,"is_disabled":false,"rental_uris":{"android":"levelo://app?vid=17d8c87d-eee7-4603-bb75-9339dee032de","ios":"levelo://app?vid=17d8c87d-eee7-4603-bb75-9339dee032de"},"vehicle_type_id":"4","last_reported":1758651331,"current_range_meters":15200,"station_id":"st_d2m65c5bi1j21697t3ng","pricing_plan_id":"cebpf4jnsgd1na2vs0mg"},{"bike_id":"4c0b651b-953c-4759-a0f7-0074f59a45eb","system_id":"levelo_inurba_marseille","lat":43.2579,"lon":5.39282,"is_reserved":false,"is_disabled":false,"rental_uris":{"android":"levelo://app?vid=4c0b651b-953c-4759-a0f7-0074f59a45eb","ios":"levelo://app?vid=4c0b651b-953c-4759-a0f7-0074f59a45eb"},"vehicle_type_id":"4","last_reported":1758651331,"current_range_meters":15200,"station_id":"","pricing_plan_id":"cebpf4jnsgd1na2vs0mg"},{"bike_id":"a7eb8d9d-c365-4bfa-bc26-352098440edb","system_id":"levelo_inurba_marseille","lat":43.26786,"lon":5.39414,"is_reserved":false,"is_disabled":false,"rental_uris":{"android":"levelo://app?vid=a7eb8d9d-c365-4bfa-bc26-352098440edb","ios":"levelo://app?vid=a7eb8d9d-c365-4bfa-bc26-352098440edb"},"vehicle_type_id":"4","last_reported":1758651331,"current_range_meters":16800,"station_id":"ce4bhh12rcd13ifvqfg0","pricing_plan_id":"cebpf4jnsgd1na2vs0mg"},{"bike_id":"dddca5ef-4a33-499b-936a-6d8e6136a417","system_id":"levelo_inurba_marseille","lat":43.22942,"lon":5.35372,"is_reserved":false,"is_disabled":false,"rental_uris":{"android":"levelo://app?vid=dddca5ef-4a33-499b-936a-6d8e6136a417","ios":"levelo://app?vid=dddca5ef-4a33-499b-936a-6d8e6136a417"},"vehicle_type_id":"4","last_reported":1758651331,"current_range_meters":15200,"station_id":"cpo3532slgdg3j2ikp40","pricing_plan_id":"cebpf4jnsgd1na2vs0mg"},{"bike_id":"6be0e269-722d-4703-a73b-0b24dbae26f8","system_id":"levelo_inurba_marseille","lat":43.28935,"lon":5.36632,"is_reserved":false,"is_disabled":false,"rental_uris":{"android":"levelo://app?vid=6be0e269-722d-4703-a73b-0b24dbae26f8","ios":"levelo://app?vid=6be0e269-722d-4703-a73b-0b24dbae26f8"},"vehicle_type_id":"4","last_reported":1758651331,"current_range_meters":16000,"station_id":"ce4bhap2rcd13ifvqek0","pricing_plan_id":"cebpf4jnsgd1na2vs0mg"},{"bike_id":"cab9bcb8-6e15-4a5a-a6c4-e14ebc6c8d72","system_id":"levelo_inurba_marseille","lat":43.24168,"lon":5.36393,"is_reserved":false,"is_disabled":false,"rental_uris":{"android":"levelo://app?vid=cab9bcb8-6e15-4a5a-a6c4-e14ebc6c8d72","ios":"levelo://app?vid=cab9bcb8-6e15-4a5a-a6c4-e14ebc6c8d72"},"vehicle_type_id":"4","last_reported":1758651331,"current_range_meters":16000,"station_id":"cpo36qri1sfpv3e86is0","pricing_plan_id":"cebpf4jnsgd1na2vs0mg"},{"bike_id":"2dcfdd88-0451-4949-96b4-fae0e9e9acba","system_id":"levelo_inurba_marseille","lat":43.24074,"lon":5.3776,"is_reserved":false,"is_disabled":false,"rental_uris":{"android":"levelo://app?vid=2dcfdd88-0451-4949-96b4-fae0e9e9acba","ios":"levelo://app?vid=2dcfdd88-0451-4949-96b4-fae0e9e9acba"},"vehicle_type_id":"4","last_reported":1758651331,"current_range_meters":16000,"station_id":"ce4bhnp2rcd13ifvqgvg","pricing_plan_id":"cebpf4jnsgd1na2vs0mg"},{"bike_id":"8f2a5998-78ba-4bd9-a92f-b624953687f6","system_id":"levelo_inurba_marseille","lat":43.28941,"lon":5.3663,"is_reserved":false,"is_disabled":false,"rental_uris":{"android":"levelo://app?vid=8f2a5998-78ba-4bd9-a92f-b624953687f6","ios":"levelo://app?vid=8f2a5998-78ba-4bd9-a92f-b624953687f6"},"vehicle_type_id":"4","last_reported":1758651331,"current_range_meters":16000,"station_id":"ce4bhap2rcd13ifvqek0","pricing_plan_id":"cebpf4jnsgd1na2vs0mg"},{"bike_id":"0ede7616-1d90-43d4-a37a-60c9664e7016","system_id":"levelo_inurba_marseille","lat":43.23194,"lon":5.39983,"is_reserved":false,"is_disabled":false,"rental_uris":{"android":"levelo://app?vid=0ede7616-1d90-43d4-a37a-60c9664e7016","ios":"levelo://app?vid=0ede7616-1d90-43d4-a37a-60c9664e7016"},"vehicle_type_id":"4","last_reported":1758651331,"current_range_meters":16000,"station_id":"ce4bhn12rcd13ifvqgqg","pricing_plan_id":"cebpf4jnsgd1na2vs0mg"},{"bike_id":"07a3da83-35aa-49cd-9114-560a979e4044","system_id":"levelo_inurba_marseille","lat":43.29092,"lon":5.38153,"is_reserved":false,"is_disabled":false,"rental_uris":{"android":"levelo://app?vid=07a3da83-35aa-49cd-9114-560a979e4044","ios":"levelo://app?vid=07a3da83-35aa-49cd-9114-560a979e4044"},"vehicle_type_id":"4","last_reported":1758651331,"current_range_meters":16000,"station_id":"ce4bh512rcd13ifvqe2g","pricing_plan_id":"cebpf4jnsgd1na2vs0mg"},{"bike_id":"749d147d-307f-4e38-a54d-3754da233a82","system_id":"levelo_inurba_marseille","lat":43.24074,"lon":5.37764,"is_reserved":false,"is_disabled":false,"rental_uris":{"android":"levelo://app?vid=749d147d-307f-4e38-a54d-3754da233a82","ios":"levelo://app?vid=749d147d-307f-4e38-a54d-3754da233a82"},"vehicle_type_id":"4","last_reported":1758651331,"current_range_meters":16000,"station_id":"ce4bhnp2rcd13ifvqgvg","pricing_plan_id":"cebpf4jnsgd1na2vs0mg"},{"bike_id":"6fb04c64-ef8c-4421-a5e6-f3cc96fb7cff","system_id":"levelo_inurba_marseille","lat":43.24666,"lon":5.38165,"is_reserved":false,"is_disabled":false,"rental_uris":{"android":"levelo://app?vid=6fb04c64-ef8c-4421-a5e6-f3cc96fb7cff","ios":"levelo://app?vid=6fb04c64-ef8c-4421-a5e6-f3cc96fb7cff"},"vehicle_type_id":"4","last_reported":1758651331,"current_range_meters":16000,"station_id":"ce4bhih2rcd13ifvqfr0","pricing_plan_id":"cebpf4jnsgd1na2vs0mg"},{"bike_id":"cfa3b279-db34-4bb5-b70c-36c855997ad9","system_id":"levelo_inurba_marseille","lat":43.31357,"lon":5.38501,"is_reserved":false,"is_disabled":false,"rental_uris":{"android":"levelo://app?vid=cfa3b279-db34-4bb5-b70c-36c855997ad9","ios":"levelo://app?vid=cfa3b279-db34-4bb5-b70c-36c855997ad9"},"vehicle_type_id":"4","last_reported":1758651331,"current_range_meters":16400,"station_id":"ce4bgt92rcd13ifvqcf0","pricing_plan_id":"cebpf4jnsgd1na2vs0mg"},{"bike_id":"9feb0e0f-24fa-4463-b0f3-30472830c043","system_id":"levelo_inurba_marseille","lat":43.31757,"lon":5.39002,"is_reserved":false,"is_disabled":false,"rental_uris":{"android":"levelo://app?vid=9feb0e0f-24fa-4463-b0f3-30472830c043","ios":"levelo://app?vid=9feb0e0f-24fa-4463-b0f3-30472830c043"},"vehicle_type_id":"4","last_reported":1758651331,"current_range_meters":16400,"station_id":"ce4bhqp2rcd13ifvqhng","pricing_plan_id":"cebpf4jnsgd1na2vs0mg"},{"bike_id":"a60abba9-f9b8-477b-8786-175fc2b6218b","system_id":"levelo_inurba_marseille","lat":43.30846,"lon":5.37176,"is_reserved":false,"is_disabled":false,"rental_uris":{"android":"levelo://app?vid=a60abba9-f9b8-477b-8786-175fc2b6218b","ios":"levelo://app?vid=a60abba9-f9b8-477b-8786-175fc2b6218b"},"vehicle_type_id":"4","last_reported":1758651331,"current_range_meters":16400,"station_id":"","pricing_plan_id":"cebpf4jnsgd1na2vs0mg"},{"bike_id":"ea086400-14dc-4405-a9e2-7818dd4505fa","system_id":"levelo_inurba_marseille","lat":43.29038,"lon":5.37543,"is_reserved":false,"is_disabled":false,"rental_uris":{"android":"levelo://app?vid=ea086400-14dc-4405-a9e2-7818dd4505fa","ios":"levelo://app?vid=ea086400-14dc-4405-a9e2-7818dd4505fa"},"vehicle_type_id":"4","last_reported":1758651331,"current_range_meters":16400,"station_id":"ce4bh692rcd13ifvqe90","pricing_plan_id":"cebpf4jnsgd1na2vs0mg"},{"bike_id":"a901b651-9234-4578-a5f7-e27dd2584c28","system_id":"levelo_inurba_marseille","lat":43.2917,"lon":5.37159,"is_reserved":false,"is_disabled":false,"rental_uris":{"android":"levelo://app?vid=a901b651-9234-4578-a5f7-e27dd2584c28","ios":"levelo://app?vid=a901b651-9234-4578-a5f7-e27dd2584c28"},"vehicle_type_id":"4","last_reported":1758651331,"current_range_meters":16400,"station_id":"ce4bha92rcd13ifvqeh0","pricing_plan_id":"cebpf4jnsgd1na2vs0mg"},{"bike_id":"ae140a32-5f79-427f-90a7-d410e17b7823","system_id":"levelo_inurba_marseille","lat":43.26688,"lon":5.38281,"is_reserved":false,"is_disabled":true,"rental_uris":{"android":"levelo://app?vid=ae140a32-5f79-427f-90a7-d410e17b7823","ios":"levelo://app?vid=ae140a32-5f79-427f-90a7-d410e17b7823"},"vehicle_type_id":"4","last_reported":1758651331,"current_range_meters":16400,"station_id":"ce4bhg92rcd13ifvqf90","pricing_plan_id":"cebpf4jnsgd1na2vs0mg"},{"bike_id":"93f8abc5-7bf2-42ae-a85e-b4a1a5de88d5","system_id":"levelo_inurba_marseille","lat":43.337444,"lon":5.374475,"is_reserved":false,"is_disabled":false,"rental_uris":{"android":"levelo://app?vid=93f8abc5-7bf2-42ae-a85e-b4a1a5de88d5","ios":"levelo://app?vid=93f8abc5-7bf2-42ae-a85e-b4a1a5de88d5"},"vehicle_type_id":"4","last_reported":1758651331,"current_range_meters":16400,"station_id":"","pricing_plan_id":"cebpf4jnsgd1na2vs0mg"},{"bike_id":"878212e1-9f3a-4147-b86c-65eaf928a45d","system_id":"levelo_inurba_marseille","lat":43.21748,"lon":5.34606,"is_reserved":false,"is_disabled":false,"rental_uris":{"android":"levelo://app?vid=878212e1-9f3a-4147-b86c-65eaf928a45d","ios":"levelo://app?vid=878212e1-9f3a-4147-b86c-65eaf928a45d"},"vehicle_type_id":"4","last_reported":1758651331,"current_range_meters":16400,"station_id":"","pricing_plan_id":"cebpf4jnsgd1na2vs0mg"},{"bike_id":"503e9fe5-3f4f-4661-a209-e71c434a7680","system_id":"levelo_inurba_marseille","lat":43.2796,"lon":5.38721,"is_reserved":false,"is_disabled":true,"rental_uris":{"android":"levelo://app?vid=503e9fe5-3f4f-4661-a209-e71c434a7680","ios":"levelo://app?vid=503e9fe5-3f4f-4661-a209-e71c434a7680"},"vehicle_type_id":"4","last_reported":1758651331,"current_range_meters":16400,"station_id":"ce4bhg12rcd13ifvqf80","pricing_plan_id":"cebpf4jnsgd1na2vs0mg"},{"bike_id":"3df2f030-fc4d-4c67-bde1-11bdf3af76d8","system_id":"levelo_inurba_marseille","lat":43.31369,"lon":5.38498,"is_reserved":false,"is_disabled":false,"rental_uris":{"android":"levelo://app?vid=3df2f030-fc4d-4c67-bde1-11bdf3af76d8","ios":"levelo://app?vid=3df2f030-fc4d-4c67-bde1-11bdf3af76d8"},"vehicle_type_id":"4","last_reported":1758651331,"current_range_meters":16400,"station_id":"ce4bgt92rcd13ifvqcf0","pricing_plan_id":"cebpf4jnsgd1na2vs0mg"},{"bike_id":"7ee54a5a-c571-463d-baff-80a1a8ed87ce","system_id":"levelo_inurba_marseille","lat":43.25323,"lon":5.42171,"is_reserved":false,"is_disabled":false,"rental_uris":{"android":"levelo://app?vid=7ee54a5a-c571-463d-baff-80a1a8ed87ce","ios":"levelo://app?vid=7ee54a5a-c571-463d-baff-80a1a8ed87ce"},"vehicle_type_id":"4","last_reported":1758651331,"current_range_meters":16400,"station_id":"st_d2m65c5bi1j21697t3ng","pricing_plan_id":"cebpf4jnsgd1na2vs0mg"},{"bike_id":"96bce3b3-d1d9-4560-a8ca-6b0fa2656e51","system_id":"levelo_inurba_marseille","lat":43.28931,"lon":5.36638,"is_reserved":false,"is_disabled":false,"rental_uris":{"android":"levelo://app?vid=96bce3b3-d1d9-4560-a8ca-6b0fa2656e51","ios":"levelo://app?vid=96bce3b3-d1d9-4560-a8ca-6b0fa2656e51"},"vehicle_type_id":"4","last_reported":1758651331,"current_range_meters":16000,"station_id":"ce4bhap2rcd13ifvqek0","pricing_plan_id":"cebpf4jnsgd1na2vs0mg"},{"bike_id":"f22a5133-500d-4560-bbf4-76d0bf5b4899","system_id":"levelo_inurba_marseille","lat":43.29198,"lon":5.3931,"is_reserved":false,"is_disabled":false,"rental_uris":{"android":"levelo://app?vid=f22a5133-500d-4560-bbf4-76d0bf5b4899","ios":"levelo://app?vid=f22a5133-500d-4560-bbf4-76d0bf5b4899"},"vehicle_type_id":"4","last_reported":1758651331,"current_range_meters":16400,"station_id":"ce4bh192rcd13ifvqdd0","pricing_plan_id":"cebpf4jnsgd1na2vs0mg"},{"bike_id":"329a5725-cfe0-49c9-b6a7-fcad920e0962","system_id":"levelo_inurba_marseille","lat":43.24076,"lon":5.37747,"is_reserved":false,"is_disabled":false,"rental_uris":{"android":"levelo://app?vid=329a5725-cfe0-49c9-b6a7-fcad920e0962","ios":"levelo://app?vid=329a5725-cfe0-49c9-b6a7-fcad920e0962"},"vehicle_type_id":"4","last_reported":1758651331,"current_range_meters":16800,"station_id":"ce4bhnp2rcd13ifvqgvg","pricing_plan_id":"cebpf4jnsgd1na2vs0mg"},{"bike_id":"b5097eea-9912-4be2-9cf9-14c224c5fab6","system_id":"levelo_inurba_marseille","lat":43.23188,"lon":5.35561,"is_reserved":false,"is_disabled":false,"rental_uris":{"android":"levelo://app?vid=b5097eea-9912-4be2-9cf9-14c224c5fab6","ios":"levelo://app?vid=b5097eea-9912-4be2-9cf9-14c224c5fab6"},"vehicle_type_id":"4","last_reported":1758651331,"current_range_meters":16800,"station_id":"ce4bhu92rcd13ifvqi70","pricing_plan_id":"cebpf4jnsgd1na2vs0mg"},{"bike_id":"cdb34a35-654a-4805-a2f8-ca8e48aa3508","system_id":"levelo_inurba_marseille","lat":43.28003,"lon":5.4001,"is_reserved":false,"is_disabled":false,"rental_uris":{"android":"levelo://app?vid=cdb34a35-654a-4805-a2f8-ca8e48aa3508","ios":"levelo://app?vid=cdb34a35-654a-4805-a2f8-ca8e48aa3508"},"vehicle_type_id":"4","last_reported":1758651331,"current_range_meters":16800,"station_id":"ce4bho92rcd13ifvqh4g","pricing_plan_id":"cebpf4jnsgd1na2vs0mg"},{"bike_id":"c7f6a08b-c655-4213-b2ba-7d02e7f382fe","system_id":"levelo_inurba_marseille","lat":43.28011,"lon":5.39478,"is_reserved":false,"is_disabled":false,"rental_uris":{"android":"levelo://app?vid=c7f6a08b-c655-4213-b2ba-7d02e7f382fe","ios":"levelo://app?vid=c7f6a08b-c655-4213-b2ba-7d02e7f382fe"},"vehicle_type_id":"4","last_reported":1758651331,"current_range_meters":16800,"station_id":"","pricing_plan_id":"cebpf4jnsgd1na2vs0mg"},{"bike_id":"52c46f27-3d4c-459d-a187-27d0d9adfe25","system_id":"levelo_inurba_marseille","lat":43.29028,"lon":5.38136,"is_reserved":false,"is_disabled":false,"rental_uris":{"android":"levelo://app?vid=52c46f27-3d4c-459d-a187-27d0d9adfe25","ios":"levelo://app?vid=52c46f27-3d4c-459d-a187-27d0d9adfe25"},"vehicle_type_id":"4","last_reported":1758651331,"current_range_meters":14400,"station_id":"ce4bh4p2rcd13ifvqe1g","pricing_plan_id":"cebpf4jnsgd1na2vs0mg"},{"bike_id":"a2c21abc-05ae-4018-8d31-7d57c5bcb2f7","system_id":"levelo_inurba_marseille","lat":43.28928,"lon":5.38411,"is_reserved":false,"is_disabled":false,"rental_uris":{"android":"levelo://app?vid=a2c21abc-05ae-4018-8d31-7d57c5bcb2f7","ios":"levelo://app?vid=a2c21abc-05ae-4018-8d31-7d57c5bcb2f7"},"vehicle_type_id":"4","last_reported":1758651331,"current_range_meters":16400,"station_id":"ce4bh612rcd13ifvqe6g","pricing_plan_id":"cebpf4jnsgd1na2vs0mg"},{"bike_id":"986b9cd9-8427-481d-80a2-063b18f9f5cc","system_id":"levelo_inurba_marseille","lat":43.28076,"lon":5.39665,"is_reserved":false,"is_disabled":false,"rental_uris":{"android":"levelo://app?vid=986b9cd9-8427-481d-80a2-063b18f9f5cc","ios":"levelo://app?vid=986b9cd9-8427-481d-80a2-063b18f9f5cc"},"vehicle_type_id":"4","last_reported":1758651331,"current_range_meters":17200,"station_id":"ce4bho12rcd13ifvqh2g","pricing_plan_id":"cebpf4jnsgd1na2vs0mg"},{"bike_id":"b834b14f-df5f-4c1e-81b2-984d95a38847","system_id":"levelo_inurba_marseille","lat":43.29808,"lon":5.38102,"is_reserved":false,"is_disabled":false,"rental_uris":{"android":"levelo://app?vid=b834b14f-df5f-4c1e-81b2-984d95a38847","ios":"levelo://app?vid=b834b14f-df5f-4c1e-81b2-984d95a38847"},"vehicle_type_id":"4","last_reported":1758651331,"current_range_meters":17200,"station_id":"ce4bgip2rcd13ifvqbb0","pricing_plan_id":"cebpf4jnsgd1na2vs0mg"},{"bike_id":"36d9ac7e-672f-4b32-baac-3848c2e62fe7","system_id":"levelo_inurba_marseille","lat":43.25082,"lon":5.40321,"is_reserved":false,"is_disabled":false,"rental_uris":{"android":"levelo://app?vid=36d9ac7e-672f-4b32-baac-3848c2e62fe7","ios":"levelo://app?vid=36d9ac7e-672f-4b32-baac-3848c2e62fe7"},"vehicle_type_id":"4","last_reported":1758651331,"current_range_meters":17200,"station_id":"ce4bhlh2rcd13ifvqgig","pricing_plan_id":"cebpf4jnsgd1na2vs0mg"},{"bike_id":"d5e7f1db-a250-433c-8992-01d3a8d6d17c","system_id":"levelo_inurba_marseille","lat":43.318205,"lon":5.42275,"is_reserved":false,"is_disabled":false,"rental_uris":{"android":"levelo://app?vid=d5e7f1db-a250-433c-8992-01d3a8d6d17c","ios":"levelo://app?vid=d5e7f1db-a250-433c-8992-01d3a8d6d17c"},"vehicle_type_id":"4","last_reported":1758651331,"current_range_meters":17200,"station_id":"ce4bhp92rcd13ifvqhbg","pricing_plan_id":"cebpf4jnsgd1na2vs0mg"},{"bike_id":"2adff214-ef95-4fe1-aaec-33ef689677f8","system_id":"levelo_inurba_marseille","lat":43.30307,"lon":5.4045,"is_reserved":false,"is_disabled":false,"rental_uris":{"android":"levelo://app?vid=2adff214-ef95-4fe1-aaec-33ef689677f8","ios":"levelo://app?vid=2adff214-ef95-4fe1-aaec-33ef689677f8"},"vehicle_type_id":"4","last_reported":1758651331,"current_range_meters":17200,"station_id":"ce4bh012rcd13ifvqd10","pricing_plan_id":"cebpf4jnsgd1na2vs0mg"},{"bike_id":"d68b9cdd-055c-48e6-b5c7-c6c683b923e5","system_id":"levelo_inurba_marseille","lat":43.28591,"lon":5.35144,"is_reserved":false,"is_disabled":true,"rental_uris":{"android":"levelo://app?vid=d68b9cdd-055c-48e6-b5c7-c6c683b923e5","ios":"levelo://app?vid=d68b9cdd-055c-48e6-b5c7-c6c683b923e5"},"vehicle_type_id":"4","last_reported":1758651331,"current_range_meters":17200,"station_id":"ce4bhch2rcd13ifvqeug","pricing_plan_id":"cebpf4jnsgd1na2vs0mg"},{"bike_id":"e6a4559e-044b-4fa9-9fe1-3b359406244f","system_id":"levelo_inurba_marseille","lat":43.28005,"lon":5.4,"is_reserved":false,"is_disabled":false,"rental_uris":{"android":"levelo://app?vid=e6a4559e-044b-4fa9-9fe1-3b359406244f","ios":"levelo://app?vid=e6a4559e-044b-4fa9-9fe1-3b359406244f"},"vehicle_type_id":"4","last_reported":1758651331,"current_range_meters":17200,"station_id":"ce4bho92rcd13ifvqh4g","pricing_plan_id":"cebpf4jnsgd1na2vs0mg"},{"bike_id":"48239d0c-a958-4462-953b-cce3ee396d0a","system_id":"levelo_inurba_marseille","lat":43.28107,"lon":5.37839,"is_reserved":false,"is_disabled":false,"rental_uris":{"android":"levelo://app?vid=48239d0c-a958-4462-953b-cce3ee396d0a","ios":"levelo://app?vid=48239d0c-a958-4462-953b-cce3ee396d0a"},"vehicle_type_id":"4","last_reported":1758651331,"current_range_meters":16800,"station_id":"ce4bha12rcd13ifvqee0","pricing_plan_id":"cebpf4jnsgd1na2vs0mg"},{"bike_id":"0412dbb0-08ae-49a0-afef-1ad2c96f78ef","system_id":"levelo_inurba_marseille","lat":43.26569,"lon":5.40325,"is_reserved":false,"is_disabled":false,"rental_uris":{"android":"levelo://app?vid=0412dbb0-08ae-49a0-afef-1ad2c96f78ef","ios":"levelo://app?vid=0412dbb0-08ae-49a0-afef-1ad2c96f78ef"},"vehicle_type_id":"4","last_reported":1758651331,"current_range_meters":17200,"station_id":"ce4bhmp2rcd13ifvqgng","pricing_plan_id":"cebpf4jnsgd1na2vs0mg"},