{"last_updated":1691186760,"ttl":30,"version":"2.2","data":{"bikes":[{"bike_id":"5e0ad1b0-5c4c-412a-a927-5fd04f9390a5","system_id":"levelo_inurba_marseille","lat":43.309076,"lon":5.368465,"is_reserved":false,"is_disabled":false,"rental_uris":{"android":"levelo://app?vid=5e0ad1b0-5c4c-412a-a927-5fd04f9390a5","ios":"levelo://app?vid=5e0ad1b0-5c4c-412a-a927-5fd04f9390a5"},"vehicle_type_id":"4","last_reported":1691186761,"current_range_meters":11600,"station_id":"ce4bgn92rcd13ifvqbvg","pricing_plan_id":"free"},{"bike_id":"7c22e3f9-d43f-4e80-b8de-6fab1436aa0c","system_id":"levelo_inurba_marseille","lat":43.309076,"lon":5.368465,"is_reserved":false,"is_disabled":false,"rental_uris":{"android":"levelo://app?vid=7c22e3f9-d43f-4e80-b8de-6fab1436aa0c","ios":"levelo://app?vid=7c22e3f9-d43f-4e80-b8de-6fab1436aa0c"},"vehicle_type_id":"4","last_reported":1691186761,"current_range_meters":21200,"station_id":"ce4bgn92rcd13ifvqbvg","pricing_plan_id":"free"},{"bike_id":"1521de8a-e32d-4564-ab8f-4935933a745c","system_id":"levelo_inurba_marseille","lat":43.314811,"lon":5.373103,"is_reserved":false,"is_disabled":false,"rental_uris":{"android":"levelo://app?vid=1521de8a-e32d-4564-ab8f-4935933a745c","ios":"levelo://app?vid=1521de8a-e32d-4564-ab8f-4935933a745c"},"vehicle_type_id":"4","last_reported":1691186761,"current_range_meters":31200,"station_id":"ce4bgt12rcd13ifvqcd0","pricing_plan_id":"free"},{"bike_id":"45a1094c-c45d-4c9f-8273-d8705a5ebcbb","system_id":"levelo_inurba_marseille","lat":43.314811,"lon":5.373103,"is_reserved":false,"is_disabled":false,"rental_uris":{"android":"levelo://app?vid=45a1094c-c45d-4c9f-8273-d8705a5ebcbb","ios":"levelo://app?vid=45a1094c-c45d-4c9f-8273-d8705a5ebcbb"},"vehicle_type_id":"4","last_reported":1691186761,"current_range_meters":10000,"station_id":"ce4bgt12rcd13ifvqcd0","pricing_plan_id":"free"},{"bike_id":"cede92fa-c9f6-4aa3-926b-00de6cad2891","system_id":"levelo_inurba_marseille","lat":43.314811,"lon":5.373103,"is_reserved":false,"is_disabled":false,"rental_uris":{"android":"levelo://app?vid=cede92fa-c9f6-4aa3-926b-00de6cad2891","ios":"levelo://app?vid=cede92fa-c9f6-4aa3-926b-00de6cad2891"},"vehicle_type_id":"4","last_reported":1691186761,"current_range_meters":10800,"station_id":"ce4bgt12rcd13ifvqcd0","pricing_plan_id":"free"},{"bike_id":"21201321-abb9-411c-9bed-d85b7d2f5e6b","system_id":"levelo_inurba_marseille","lat":43.314811,"lon":5.373104,"is_reserved":false,"is_disabled":false,"rental_uris":{"android":"levelo://app?vid=21201321-abb9-411c-9bed-d85b7d2f5e6b","ios":"levelo://app?vid=21201321-abb9-411c-9bed-d85b7d2f5e6b"},"vehicle_type_id":"4","last_reported":1691186761,"current_range_meters":30400,"station_id":"ce4bgt12rcd13ifvqcd0","pricing_plan_id":"free"},{"bike_id":"d6380fff-22ac-4cb1-a0cb-5d823884fae2","system_id":"levelo_inurba_marseille","lat":43.314811,"lon":5.373104,"is_reserved":false,"is_disabled":false,"rental_uris":{"android":"levelo://app?vid=d6380fff-22ac-4cb1-a0cb-5d823884fae2","ios":"levelo://app?vid=d6380fff-22ac-4cb1-a0cb-5d823884fae2"},"vehicle_type_id":"4","last_reported":1691186761,"current_range_meters":20800,"station_id":"ce4bgt12rcd13ifvqcd0","pricing_plan_id":"free"},{"bike_id":"84c2a162-559a-4aef-854b-45ee046c39c1","system_id":"levelo_inurba_marseille","lat":43.314811,"lon":5.373104,"is_reserved":false,"is_disabled":false,"rental_uris":{"android":"levelo://app?vid=84c2a162-559a-4aef-854b-45ee046c39c1","ios":"levelo://app?vid=84c2a162-559a-4aef-854b-45ee046c39c1"},"vehicle_type_id":"4","last_reported":1691186761,"current_range_meters":25200,"station_id":"ce4bgt12rcd13ifvqcd0","pricing_plan_id":"free"},{"bike_id":"7cfb81a3-fd7f-41d1-987d-c1037b7c6b4a","system_id":"levelo_inurba_marseille","lat":43.3142,"lon":5.37433,"is_reserved":false,"is_disabled":false,"rental_uris":{"android":"levelo://app?vid=7cfb81a3-fd7f-41d1-987d-c1037b7c6b4a","ios":"levelo://app?vid=7cfb81a3-fd7f-41d1-987d-c1037b7c6b4a"},"vehicle_type_id":"4","last_reported":1691186761,"current_range_meters":16400,"station_id":"","pricing_plan_id":"free"},{"bike_id":"3f089fc2-9f38-469a-9aab-f6f9feabdfd4","system_id":"levelo_inurba_marseille","lat":43.305989,"lon":5.37225,"is_reserved":false,"is_disabled":false,"rental_uris":{"android":"levelo://app?vid=3f089fc2-9f38-469a-9aab-f6f9feabdfd4","ios":"levelo://app?vid=3f089fc2-9f38-469a-9aab-f6f9feabdfd4"},"vehicle_type_id":"4","last_reported":1691186761,"current_range_meters":29600,"station_id":"ce4bgqh2rcd13ifvqc4g","pricing_plan_id":"free"},{"bike_id":"f20ea888-8740-440b-bfeb-8eb2a7c1f652","system_id":"levelo_inurba_marseille","lat":43.30598,"lon":5.37249,"is_reserved":false,"is_disabled":false,"rental_uris":{"android":"levelo://app?vid=f20ea888-8740-440b-bfeb-8eb2a7c1f652","ios":"levelo://app?vid=f20ea888-8740-440b-bfeb-8eb2a7c1f652"},"vehicle_type_id":"4","last_reported":1691186761,"current_range_meters":31200,"station_id":"ce4bgqh2rcd13ifvqc4g","pricing_plan_id":"free"},{"bike_id":"96ff8303-d79f-4028-83c1-faeedc4c59c8","system_id":"levelo_inurba_marseille","lat":43.311131,"lon":5.377651,"is_reserved":false,"is_disabled":false,"rental_uris":{"android":"levelo://app?vid=96ff8303-d79f-4028-83c1-faeedc4c59c8","ios":"levelo://app?vid=96ff8303-d79f-4028-83c1-faeedc4c59c8"},"vehicle_type_id":"4","last_reported":1691186761,"current_range_meters":5600,"station_id":"ce4bgt92rcd13ifvqcg0","pricing_plan_id":"free"},{"bike_id":"58fa69bf-33ca-4e29-ae23-24a7772caa63","system_id":"levelo_inurba_marseille","lat":43.311131,"lon":5.377651,"is_reserved":false,"is_disabled":false,"rental_uris":{"android":"levelo://app?vid=58fa69bf-33ca-4e29-ae23-24a7772caa63","ios":"levelo://app?vid=58fa69bf-33ca-4e29-ae23-24a7772caa63"},"vehicle_type_id":"4","last_reported":1691186761,"current_range_meters":27200,"station_id":"ce4bgt92rcd13ifvqcg0","pricing_plan_id":"free"},{"bike_id":"53ee001c-c7b3-4d4c-93c4-ade2c777db79","system_id":"levelo_inurba_marseille","lat":43.31117,"lon":5.37779,"is_reserved":false,"is_disabled":false,"rental_uris":{"android":"levelo://app?vid=53ee001c-c7b3-4d4c-93c4-ade2c777db79","ios":"levelo://app?vid=53ee001c-c7b3-4d4c-93c4-ade2c777db79"},"vehicle_type_id":"4","last_reported":1691186761,"current_range_meters":18800,"station_id":"ce4bgt92rcd13ifvqcg0","pricing_plan_id":"free"},{"bike_id":"37a1ff06-ef27-4316-a188-90abfaf08048","system_id":"levelo_inurba_marseille","lat":43.30788,"lon":5.37646,"is_reserved":false,"is_disabled":false,"rental_uris":{"android":"levelo://app?vid=37a1ff06-ef27-4316-a188-90abfaf08048","ios":"levelo://app?vid=37a1ff06-ef27-4316-a188-90abfaf08048"},"vehicle_type_id":"4","last_reported":1691186761,"current_range_meters":27200,"station_id":"ce4bgv92rcd13ifvqcq0","pricing_plan_id":"free"},{"bike_id":"6e7d2a81-eb04-467b-8744-5fac68edc62a","system_id":"levelo_inurba_marseille","lat":43.307945,"lon":5.376487,"is_reserved":false,"is_disabled":false,"rental_uris":{"android":"levelo://app?vid=6e7d2a81-eb04-467b-8744-5fac68edc62a","ios":"levelo://app?vid=6e7d2a81-eb04-467b-8744-5fac68edc62a"},"vehicle_type_id":"4","last_reported":1691186761,"current_range_meters":4400,"station_id":"ce4bgv92rcd13ifvqcq0","pricing_plan_id":"free"},{"bike_id":"98204378-ee5f-4653-a841-5c0f80498805","system_id":"levelo_inurba_marseille","lat":43.307945,"lon":5.376487,"is_reserved":false,"is_disabled":false,"rental_uris":{"android":"levelo://app?vid=98204378-ee5f-4653-a841-5c0f80498805","ios":"levelo://app?vid=98204378-ee5f-4653-a841-5c0f80498805"},"vehicle_type_id":"4","last_reported":1691186761,"current_range_meters":12800,"station_id":"ce4bgv92rcd13ifvqcq0","pricing_plan_id":"free"},{"bike_id":"ee4043ab-c710-4033-9789-b9c939816ac8","system_id":"levelo_inurba_marseille","lat":43.30782,"lon":5.37656,"is_reserved":false,"is_disabled":false,"rental_uris":{"android":"levelo://app?vid=ee4043ab-c710-4033-9789-b9c939816ac8","ios":"levelo://app?vid=ee4043ab-c710-4033-9789-b9c939816ac8"},"vehicle_type_id":"4","last_reported":1691186761,"current_range_meters":18400,"station_id":"ce4bgv92rcd13ifvqcq0","pricing_plan_id":"free"},{"bike_id":"b8caa492-4473-497b-83a8-f40b87c90e82","system_id":"levelo_inurba_marseille","lat":43.317075,"lon":5.377367,"is_reserved":false,"is_disabled":false,"rental_uris":{"android":"levelo://app?vid=b8caa492-4473-497b-83a8-f40b87c90e82","ios":"levelo://app?vid=b8caa492-4473-497b-83a8-f40b87c90e82"},"vehicle_type_id":"4","last_reported":1691186761,"current_range_meters":30000,"station_id":"ce4bgth2rcd13ifvqch0","pricing_plan_id":"free"},{"bike_id":"6fcf0f1c-9029-46a9-b762-e774d8c1aee1","system_id":"levelo_inurba_marseille","lat":43.303046,"lon":5.368981,"is_reserved":false,"is_disabled":false,"rental_uris":{"android":"levelo://app?vid=6fcf0f1c-9029-46a9-b762-e774d8c1aee1","ios":"levelo://app?vid=6fcf0f1c-9029-46a9-b762-e774d8c1aee1"},"vehicle_type_id":"4","last_reported":1691186761,"current_range_meters":27600,"station_id":"ce4bgqh2rcd13ifvqc5g","pricing_plan_id":"free"},{"bike_id":"16ab96e8-a44b-426d-82d8-393c03bc7dd1","system_id":"levelo_inurba_marseille","lat":43.301443,"lon":5.366116,"is_reserved":false,"is_disabled":false,"rental_uris":{"android":"levelo://app?vid=16ab96e8-a44b-426d-82d8-393c03bc7dd1","ios":"levelo://app?vid=16ab96e8-a44b-426d-82d8-393c03bc7dd1"},"vehicle_type_id":"4","last_reported":1691186761,"current_range_meters":28800,"station_id":"ce4bgrh2rcd13ifvqc8g","pricing_plan_id":"free"},{"bike_id":"dda9f4c7-c33c-4978-8b0d-7cfc1ea346af","system_id":"levelo_inurba_marseille","lat":43.302784,"lon":5.377158,"is_reserved":false,"is_disabled":false,"rental_uris":{"android":"levelo://app?vid=dda9f4c7-c33c-4978-8b0d-7cfc1ea346af","ios":"levelo://app?vid=dda9f4c7-c33c-4978-8b0d-7cfc1ea346af"},"vehicle_type_id":"4","last_reported":1691186761,"current_range_meters":6800,"station_id":"ce4bguh2rcd13ifvqcj0","pricing_plan_id":"free"},{"bike_id":"629bf6c8-670c-4a46-a957-3616fd3b7264","system_id":"levelo_inurba_marseille","lat":43.302784,"lon":5.377158,"is_reserved":false,"is_disabled":false,"rental_uris":{"android":"levelo://app?vid=629bf6c8-670c-4a46-a957-3616fd3b7264","ios":"levelo://app?vid=629bf6c8-670c-4a46-a957-3616fd3b7264"},"vehicle_type_id":"4","last_reported":1691186761,"current_range_meters":31200,"station_id":"ce4bguh2rcd13ifvqcj0","pricing_plan_id":"free"},{"bike_id":"f61da8d4-41bd-4253-96eb-f1c5647caa75","system_id":"levelo_inurba_marseille","lat":43.302784,"lon":5.377158,"is_reserved":false,"is_disabled":false,"rental_uris":{"android":"levelo://app?vid=f61da8d4-41bd-4253-96eb-f1c5647caa75","ios":"levelo://app?vid=f61da8d4-41bd-4253-96eb-f1c5647caa75"},"vehicle_type_id":"4","last_reported":1691186761,"current_range_meters":0,"station_id":"ce4bguh2rcd13ifvqcj0","pricing_plan_id":"free"},{"bike_id":"bc229dc0-4d27-49f2-acdd-c26912538aee","system_id":"levelo_inurba_marseille","lat":43.302784,"lon":5.377158,"is_reserved":false,"is_disabled":false,"rental_uris":{"android":"levelo://app?vid=bc229dc0-4d27-49f2-acdd-c26912538aee","ios":"levelo://app?vid=bc229dc0-4d27-49f2-acdd-c26912538aee"},"vehicle_type_id":"4","last_reported":1691186761,"current_range_meters":31200,"station_id":"ce4bguh2rcd13ifvqcj0","pricing_plan_id":"free"},{"bike_id":"b0b0a2a5-50ab-45bf-9fb6-26e1154e1b61","system_id":"levelo_inurba_marseille","lat":43.302784,"lon":5.377158,"is_reserved":false,"is_disabled":false,"rental_uris":{"android":"levelo://app?vid=b0b0a2a5-50ab-45bf-9fb6-26e1154e1b61","ios":"levelo://app?vid=b0b0a2a5-50ab-45bf-9fb6-26e1154e1b61"},"vehicle_type_id":"4","last_reported":1691186761,"current_range_meters":18000,"station_id":"ce4bguh2rcd13ifvqcj0","pricing_plan_id":"free"},{"bike_id":"97357c50-4d45-498f-ab27-420f325ba3b0","system_id":"levelo_inurba_marseille","lat":43.301451,"lon":5.374131,"is_reserved":false,"is_disabled":false,"rental_uris":{"android":"levelo://app?vid=97357c50-4d45-498f-ab27-420f325ba3b0","ios":"levelo://app?vid=97357c50-4d45-498f-ab27-420f325ba3b0"},"vehicle_type_id":"4","last_reported":1691186761,"current_range_meters":2400,"station_id":"ce4bgs92rcd13ifvqcc0","pricing_plan_id":"free"},{"bike_id":"82aa1767-720b-4218-9e20-24cc0948bfa6","system_id":"levelo_inurba_marseille","lat":43.30141,"lon":5.37414,"is_reserved":false,"is_disabled":false,"rental_uris":{"android":"levelo://app?vid=82aa1767-720b-4218-9e20-24cc0948bfa6","ios":"levelo://app?vid=82aa1767-720b-4218-9e20-24cc0948bfa6"},"vehicle_type_id":"4","last_reported":1691186761,"current_range_meters":4000,"station_id":"ce4bgs92rcd13ifvqcc0","pricing_plan_id":"free"},{"bike_id":"319b26ad-36d6-46aa-8a4e-d5da0fdc891a","system_id":"levelo_inurba_marseille","lat":43.30133,"lon":5.37419,"is_reserved":false,"is_disabled":false,"rental_uris":{"android":"levelo://app?vid=319b26ad-36d6-46aa-8a4e-d5da0fdc891a","ios":"levelo://app?vid=319b26ad-36d6-46aa-8a4e-d5da0fdc891a"},"vehicle_type_id":"4","last_reported":1691186761,"current_range_meters":28800,"station_id":"ce4bgs92rcd13ifvqcc0","pricing_plan_id":"free"},{"bike_id":"d5f7f396-3296-41b5-bc26-a6ef0187ad90","system_id":"levelo_inurba_marseille","lat":43.31998,"lon":5.3816,"is_reserved":false,"is_disabled":false,"rental_uris":{"android":"levelo://app?vid=d5f7f396-3296-41b5-bc26-a6ef0187ad90","ios":"levelo://app?vid=d5f7f396-3296-41b5-bc26-a6ef0187ad90"},"vehicle_type_id":"4","last_reported":1691186761,"current_range_meters":0,"station_id":"ce4bhr12rcd13ifvqhpg","pricing_plan_id":"free"},{"bike_id":"2ad57de6-82fc-448d-bdf0-5ead379e5a53","system_id":"levelo_inurba_marseille","lat":43.32006,"lon":5.38156,"is_reserved":false,"is_disabled":false,"rental_uris":{"android":"levelo://app?vid=2ad57de6-82fc-448d-bdf0-5ead379e5a53","ios":"levelo://app?vid=2ad57de6-82fc-448d-bdf0-5ead379e5a53"},"vehicle_type_id":"4","last_reported":1691186761,"current_range_meters":19600,"station_id":"ce4bhr12rcd13ifvqhpg","pricing_plan_id":"free"},{"bike_id":"ec6ed6b9-203a-4de4-b873-0449f8d8115f","system_id":"levelo_inurba_marseille","lat":43.3201,"lon":5.38153,"is_reserved":false,"is_disabled":false,"rental_uris":{"android":"levelo://app?vid=ec6ed6b9-203a-4de4-b873-0449f8d8115f","ios":"levelo://app?vid=ec6ed6b9-203a-4de4-b873-0449f8d8115f"},"vehicle_type_id":"4","last_reported":1691186761,"current_range_meters":23200,"station_id":"ce4bhr12rcd13ifvqhpg","pricing_plan_id":"free"},{"bike_id":"c7835526-41d7-4a51-8ca3-06bc11ee101e","system_id":"levelo_inurba_marseille","lat":43.313571,"lon":5.384829,"is_reserved":false,"is_disabled":false,"rental_uris":{"android":"levelo://app?vid=c7835526-41d7-4a51-8ca3-06bc11ee101e","ios":"levelo://app?vid=c7835526-41d7-4a51-8ca3-06bc11ee101e"},"vehicle_type_id":"4","last_reported":1691186761,"current_range_meters":19200,"station_id":"ce4bgt92rcd13ifvqcf0","pricing_plan_id":"free"},{"bike_id":"5d9ea4ed-24d2-48e7-b4f2-76f47d280a81","system_id":"levelo_inurba_marseille","lat":43.313571,"lon":5.384829,"is_reserved":false,"is_disabled":false,"rental_uris":{"android":"levelo://app?vid=5d9ea4ed-24d2-48e7-b4f2-76f47d280a81","ios":"levelo://app?vid=5d9ea4ed-24d2-48e7-b4f2-76f47d280a81"},"vehicle_type_id":"4","last_reported":1691186761,"current_range_meters":30000,"station_id":"ce4bgt92rcd13ifvqcf0","pricing_plan_id":"free"},{"bike_id":"92ce602c-d78a-4fc1-839e-9d437f217566","system_id":"levelo_inurba_marseille","lat":43.313571,"lon":5.384829,"is_reserved":false,"is_disabled":false,"rental_uris":{"android":"levelo://app?vid=92ce602c-d78a-4fc1-839e-9d437f217566","ios":"levelo://app?vid=92ce602c-d78a-4fc1-839e-9d437f217566"},"vehicle_type_id":"4","last_reported":1691186761,"current_range_meters":12000,"station_id":"ce4bgt92rcd13ifvqcf0","pricing_plan_id":"free"},{"bike_id":"2a35d9bd-f876-4e5f-9186-88daa588931a","system_id":"levelo_inurba_marseille","lat":43.313571,"lon":5.384829,"is_reserved":false,"is_disabled":false,"rental_uris":{"android":"levelo://app?vid=2a35d9bd-f876-4e5f-9186-88daa588931a","ios":"levelo://app?vid=2a35d9bd-f876-4e5f-9186-88daa588931a"},"vehicle_type_id":"4","last_reported":1691186761,"current_range_meters":31200,"station_id":"ce4bgt92rcd13ifvqcf0","pricing_plan_id":"free"},{"bike_id":"35656145-5dff-49f2-b6ba-f78509c75276","system_id":"levelo_inurba_marseille","lat":43.313571,"lon":5.384829,"is_reserved":false,"is_disabled":false,"rental_uris":{"android":"levelo://app?vid=35656145-5dff-49f2-b6ba-f78509c75276","ios":"levelo://app?vid=35656145-5dff-49f2-b6ba-f78509c75276"},"vehicle_type_id":"4","last_reported":1691186761,"current_range_meters":21600,"station_id":"ce4bgt92rcd13ifvqcf0","pricing_plan_id":"free"},{"bike_id":"3cb7fd70-121e-4eb5-9a01-ecc8718aa1bb","system_id":"levelo_inurba_marseille","lat":43.29953,"lon":5.36545,"is_reserved":false,"is_disabled":false,"rental_uris":{"android":"levelo://app?vid=3cb7fd70-121e-4eb5-9a01-ecc8718aa1bb","ios":"levelo://app?vid=3cb7fd70-121e-4eb5-9a01-ecc8718aa1bb"},"vehicle_type_id":"4","last_reported":1691186761,"current_range_meters":26800,"station_id":"ce4bgm92rcd13ifvqbr0","pricing_plan_id":"free"},{"bike_id":"afd7aeaa-dc8a-4831-bd93-2293f6f3b04a","system_id":"levelo_inurba_marseille","lat":43.29973,"lon":5.37174,"is_reserved":false,"is_disabled":false,"rental_uris":{"android":"levelo://app?vid=afd7aeaa-dc8a-4831-bd93-2293f6f3b04a","ios":"levelo://app?vid=afd7aeaa-dc8a-4831-bd93-2293f6f3b04a"},"vehicle_type_id":"4","last_reported":1691186761,"current_range_meters":17600,"station_id":"ce4bgr92rcd13ifvqc7g","pricing_plan_id":"free"},{"bike_id":"10f7137b-8cad-43d9-8b91-e63be3e66df2","system_id":"levelo_inurba_marseille","lat":43.29928,"lon":5.36557,"is_reserved":false,"is_disabled":false,"rental_uris":{"android":"levelo://app?vid=10f7137b-8cad-43d9-8b91-e63be3e66df2","ios":"levelo://app?vid=10f7137b-8cad-43d9-8b91-e63be3e66df2"},"vehicle_type_id":"4","last_reported":1691186761,"current_range_meters":24400,"station_id":"ce4bgm92rcd13ifvqbr0","pricing_plan_id":"free"},{"bike_id":"324823a4-6eda-470c-ac62-93597ac6af4c","system_id":"levelo_inurba_marseille","lat":43.314811,"lon":5.373104,"is_reserved":false,"is_disabled":false,"rental_uris":{"android":"levelo://app?vid=324823a4-6eda-470c-ac62-93597ac6af4c","ios":"levelo://app?vid=324823a4-6eda-470c-ac62-93597ac6af4c"},"vehicle_type_id":"4","last_reported":1691186761,"current_range_meters":19200,"station_id":"ce4bgt12rcd13ifvqcd0","pricing_plan_id":"free"},{"bike_id":"30537d43-af02-4a10-b928-7b9b8cf633d2","system_id":"levelo_inurba_marseille","lat":43.3054,"lon":5.38427,"is_reserved":false,"is_disabled":false,"rental_uris":{"android":"levelo://app?vid=30537d43-af02-4a10-b928-7b9b8cf633d2","ios":"levelo://app?vid=30537d43-af02-4a10-b928-7b9b8cf633d2"},"vehicle_type_id":"4","last_reported":1691186761,"current_range_meters":31200,"station_id":"ce4bgg92rcd13ifvqb30","pricing_plan_id":"free"},{"bike_id":"6bf52708-3433-4e6a-8d4b-2b98c6b222a2","system_id":"levelo_inurba_marseille","lat":43.31168,"lon":5.38704,"is_reserved":false,"is_disabled":false,"rental_uris":{"android":"levelo://app?vid=6bf52708-3433-4e6a-8d4b-2b98c6b222a2","ios":"levelo://app?vid=6bf52708-3433-4e6a-8d4b-2b98c6b222a2"},"vehicle_type_id":"4","last_reported":1691186761,"current_range_meters":800,"station_id":"ce4bgv12rcd13ifvqcp0","pricing_plan_id":"free"},{"bike_id":"05371ed5-5845-44ac-961e-40723c84cebd","system_id":"levelo_inurba_marseille","lat":43.311722,"lon":5.387247,"is_reserved":false,"is_disabled":false,"rental_uris":{"android":"levelo://app?vid=05371ed5-5845-44ac-961e-40723c84cebd","ios":"levelo://app?vid=05371ed5-5845-44ac-961e-40723c84cebd"},"vehicle_type_id":"4","last_reported":1691186761,"current_range_meters":21600,"station_id":"ce4bgv12rcd13ifvqcp0","pricing_plan_id":"free"},{"bike_id":"d573b142-8979-4dcc-9991-73ea27b94f45","system_id":"levelo_inurba_marseille","lat":43.31173,"lon":5.38711,"is_reserved":false,"is_disabled":false,"rental_uris":{"android":"levelo://app?vid=d573b142-8979-4dcc-9991-73ea27b94f45","ios":"levelo://app?vid=d573b142-8979-4dcc-9991-73ea27b94f45"},"vehicle_type_id":"4","last_reported":1691186761,"current_range_meters":29600,"station_id":"ce4bgv12rcd13ifvqcp0","pricing_plan_id":"free"},{"bike_id":"524d8772-aa1b-409e-ac89-8fe2cf931d65","system_id":"levelo_inurba_marseille","lat":43.31171,"lon":5.38712,"is_reserved":false,"is_disabled":false,"rental_uris":{"android":"levelo://app?vid=524d8772-aa1b-409e-ac89-8fe2cf931d65","ios":"levelo://app?vid=524d8772-aa1b-409e-ac89-8fe2cf931d65"},"vehicle_type_id":"4","last_reported":1691186761,"current_range_meters":18000,"station_id":"ce4bgv12rcd13ifvqcp0","pricing_plan_id":"free"},{"bike_id":"6700b083-e2d0-4042-af4a-fdc72747905f","system_id":"levelo_inurba_marseille","lat":43.31174,"lon":5.38714,"is_reserved":false,"is_disabled":false,"rental_uris":{"android":"levelo://app?vid=6700b083-e2d0-4042-af4a-fdc72747905f","ios":"levelo://app?vid=6700b083-e2d0-4042-af4a-fdc72747905f"},"vehicle_type_id":"4","last_reported":1691186761,"current_range_meters":400,"station_id":"ce4bgv12rcd13ifvqcp0","pricing_plan_id":"free"},{"bike_id":"15a7e5e0-fddc-412a-a6b6-acbbf557e90d","system_id":"levelo_inurba_marseille","lat":43.311722,"lon":5.387247,"is_reserved":false,"is_disabled":false,"rental_uris":{"android":"levelo://app?vid=15a7e5e0-fddc-412a-a6b6-acbbf557e90d","ios":"levelo://app?vid=15a7e5e0-fddc-412a-a6b6-acbbf557e90d"},"vehicle_type_id":"4","last_reported":1691186761,"current_range_meters":30400,"station_id":"ce4bgv12rcd13ifvqcp0","pricing_plan_id":"free"},{"bike_id":"9d73faa7-f473-469b-80d4-91ae66ce926b","system_id":"levelo_inurba_marseille","lat":43.299243,"lon":5.37481,"is_reserved":false,"is_disabled":false,"rental_uris":{"android":"levelo://app?vid=9d73faa7-f473-469b-80d4-91ae66ce926b","ios":"levelo://app?vid=9d73faa7-f473-469b-80d4-91ae66ce926b"},"vehicle_type_id":"4","last_reported":1691186761,"current_range_meters":25200,"station_id":"ce4bgjh2rcd13ifvqbg0","pricing_plan_id":"free"},{"bike_id":"cdbbf100-2446-4def-b5ae-5911b0c73a20","system_id":"levelo_inurba_marseille","lat":43.29911,"lon":5.37474,"is_reserved":false,"is_disabled":false,"rental_uris":{"android":"levelo://app?vid=cdbbf100-2446-4def-b5ae-5911b0c73a20","ios":"levelo://app?vid=cdbbf100-2446-4def-b5ae-5911b0c73a20"},"vehicle_type_id":"4","last_reported":1691186761,"current_range_meters":31200,"station_id":"ce4bgjh2rcd13ifvqbg0","pricing_plan_id":"free"},{"bike_id":"ecb22f1f-ccb1-4911-af78-aedc06b9e2f0","system_id":"levelo_inurba_marseille","lat":43.32822,"lon":5.36692,"is_reserved":false,"is_disabled":false,"rental_uris":{"android":"levelo://app?vid=ecb22f1f-ccb1-4911-af78-aedc06b9e2f0","ios":"levelo://app?vid=ecb22f1f-ccb1-4911-af78-aedc06b9e2f0"},"vehicle_type_id":"4","last_reported":1691186761,"current_range_meters":5200,"station_id":"ce4bhs92rcd13ifvqi0g","pricing_plan_id":"free"},{"bike_id":"925d80fe-dd88-4a52-a938-71d3f7293e55","system_id":"levelo_inurba_marseille","lat":43.32827,"lon":5.36673,"is_reserved":false,"is_disabled":false,"rental_uris":{"android":"levelo://app?vid=925d80fe-dd88-4a52-a938-71d3f7293e55","ios":"levelo://app?vid=925d80fe-dd88-4a52-a938-71d3f7293e55"},"vehicle_type_id":"4","last_reported":1691186761,"current_range_meters":18000,"station_id":"ce4bhs92rcd13ifvqi0g","pricing_plan_id":"free"},{"bike_id":"79d478e1-3ee7-4283-a640-85273b88a58e","system_id":"levelo_inurba_marseille","lat":43.32828,"lon":5.36694,"is_reserved":false,"is_disabled":false,"rental_uris":{"android":"levelo://app?vid=79d478e1-3ee7-4283-a640-85273b88a58e","ios":"levelo://app?vid=79d478e1-3ee7-4283-a640-85273b88a58e"},"vehicle_type_id":"4","last_reported":1691186761,"current_range_meters":30800,"station_id":"ce4bhs92rcd13ifvqi0g","pricing_plan_id":"free"},{"bike_id":"02f61164-60ba-4d57-a124-4c92c7c4d1a5","system_id":"levelo_inurba_marseille","lat":43.31476,"lon":5.38818,"is_reserved":false,"is_disabled":false,"rental_uris":{"android":"levelo://app?vid=02f61164-60ba-4d57-a124-4c92c7c4d1a5","ios":"levelo://app?vid=02f61164-60ba-4d57-a124-4c92c7c4d1a5"},"vehicle_type_id":"4","last_reported":1691186761,"current_range_meters":5200,"station_id":"","pricing_plan_id":"free"},{"bike_id":"dd789220-e7b5-42c1-b9dc-dc4243148021","system_id":"levelo_inurba_marseille","lat":43.297163,"lon":5.365866,"is_reserved":false,"is_disabled":false,"rental_uris":{"android":"levelo://app?vid=dd789220-e7b5-42c1-b9dc-dc4243148021","ios":"levelo://app?vid=dd789220-e7b5-42c1-b9dc-dc4243148021"},"vehicle_type_id":"4","last_reported":1691186761,"current_range_meters":31200,"station_id":"ce4bgn12rcd13ifvqbt0","pricing_plan_id":"free"},{"bike_id":"f0b1921d-8fc5-42f6-8214-26455e772ce5","system_id":"levelo_inurba_marseille","lat":43.3095,"lon":5.39048,"is_reserved":false,"is_disabled":false,"rental_uris":{"android":"levelo://app?vid=f0b1921d-8fc5-42f6-8214-26455e772ce5","ios":"levelo://app?vid=f0b1921d-8fc5-42f6-8214-26455e772ce5"},"vehicle_type_id":"4","last_reported":1691186761,"current_range_meters":26400,"station_id":"ce4bgup2rcd13ifvqco0","pricing_plan_id":"free"},{"bike_id":"2cad0187-cb9b-4d97-b093-0814e8d8e565","system_id":"levelo_inurba_marseille","lat":43.317557,"lon":5.390173,"is_reserved":false,"is_disabled":false,"rental_uris":{"android":"levelo://app?vid=2cad0187-cb9b-4d97-b093-0814e8d8e565","ios":"levelo://app?vid=2cad0187-cb9b-4d97-b093-0814e8d8e565"},"vehicle_type_id":"4","last_reported":1691186761,"current_range_meters":29200,"station_id":"ce4bhqp2rcd13ifvqhng","pricing_plan_id":"free"},{"bike_id":"18a85f18-d874-4a60-8aed-560fb98e5c68","system_id":"levelo_inurba_marseille","lat":43.317557,"lon":5.390173,"is_reserved":false,"is_disabled":false,"rental_uris":{"android":"levelo://app?vid=18a85f18-d874-4a60-8aed-560fb98e5c68","ios":"levelo://app?vid=18a85f18-d874-4a60-8aed-560fb98e5c68"},"vehicle_type_id":"4","last_reported":1691186761,"current_range_meters":16000,"station_id":"ce4bhqp2rcd13ifvqhng","pricing_plan_id":"free"},{"bike_id":"2f85dfd1-5d9a-4517-8def-c5ab4b399598","system_id":"levelo_inurba_marseille","lat":43.317557,"lon":5.390173,"is_reserved":false,"is_disabled":false,"rental_uris":{"android":"levelo://app?vid=2f85dfd1-5d9a-4517-8def-c5ab4b399598","ios":"levelo://app?vid=2f85dfd1-5d9a-4517-8def-c5ab4b399598"},"vehicle_type_id":"4","last_reported":1691186761,"current_range_meters":20400,"station_id":"ce4bhqp2rcd13ifvqhng","pricing_plan_id":"free"},{"bike_id":"4879b09e-5533-49cc-808c-be115b214b19","system_id":"levelo_inurba_marseille","lat":43.317557,"lon":5.390173,"is_reserved":false,"is_disabled":false,"rental_uris":{"android":"levelo://app?vid=4879b09e-5533-49cc-808c-be115b214b19","ios":"levelo://app?vid=4879b09e-5533-49cc-808c-be115b214b19"},"vehicle_type_id":"4","last_reported":1691186761,"current_range_meters":31200,"station_id":"ce4bhqp2rcd13ifvqhng","pricing_plan_id":"free"},{"bike_id":"fb5d1b63-b2f2-4d34-b700-b062bf6b4e69","system_id":"levelo_inurba_marseille","lat":43.317557,"lon":5.390173,"is_reserved":false,"is_disabled":false,"rental_uris":{"android":"levelo://app?vid=fb5d1b63-b2f2-4d34-b700-b062bf6b4e69","ios":"levelo://app?vid=fb5d1b63-b2f2-4d34-b700-b062bf6b4e69"},"vehicle_type_id":"4","last_reported":1691186761,"current_range_meters":31200,"station_id":"ce4bhqp2rcd13ifvqhng","pricing_plan_id":"free"},{"bike_id":"ffe83563-fe7b-4abd-90a1-b737e09347c0","system_id":"levelo_inurba_marseille","lat":43.317557,"lon":5.390173,"is_reserved":false,"is_disabled":false,"rental_uris":{"android":"levelo://app?vid=ffe83563-fe7b-4abd-90a1-b737e09347c0","ios":"levelo://app?vid=ffe83563-fe7b-4abd-90a1-b737e09347c0"},"vehicle_type_id":"4","last_reported":1691186761,"current_range_meters":6000,"station_id":"ce4bhqp2rcd13ifvqhng","pricing_plan_id":"free"},{"bike_id":"558c3d7c-c944-48b5-881a-d2919893976f","system_id":"levelo_inurba_marseille","lat":43.317557,"lon":5.390173,"is_reserved":false,"is_disabled":false,"rental_uris":{"android":"levelo://app?vid=558c3d7c-c944-48b5-881a-d2919893976f","ios":"levelo://app?vid=558c3d7c-c944-48b5-881a-d2919893976f"},"vehicle_type_id":"4","last_reported":1691186761,"current_range_meters":0,"station_id":"ce4bhqp2rcd13ifvqhng","pricing_plan_id":"free"},{"bike_id":"a0163b85-18e5-4828-8d9c-5d727e145ddc","system_id":"levelo_inurba_marseille","lat":43.317557,"lon":5.390173,"is_reserved":false,"is_disabled":false,"rental_uris":{"android":"levelo://app?vid=a0163b85-18e5-4828-8d9c-5d727e145ddc","ios":"levelo://app?vid=a0163b85-18e5-4828-8d9c-5d727e145ddc"},"vehicle_type_id":"4","last_reported":1691186761,"current_range_meters":29200,"station_id":"ce4bhqp2rcd13ifvqhng","pricing_plan_id":"free"},{"bike_id":"50f2c09c-534d-43c1-a558-fb4cbe988a1f","system_id":"levelo_inurba_marseille","lat":43.317557,"lon":5.390173,"is_reserved":false,"is_disabled":false,"rental_uris":{"android":"levelo://app?vid=50f2c09c-534d-43c1-a558-fb4cbe988a1f","ios":"levelo://app?vid=50f2c09c-534d-43c1-a558-fb4cbe988a1f"},"vehicle_type_id":"4","last_reported":1691186761,"current_range_meters":14400,"station_id":"ce4bhqp2rcd13ifvqhng","pricing_plan_id":"free"},{"bike_id":"cbbeb1e6-4da1-4d9f-8a8f-a6327d8941cf","system_id":"levelo_inurba_marseille","lat":43.317557,"lon":5.390173,"is_reserved":false,"is_disabled":false,"rental_uris":{"android":"levelo://app?vid=cbbeb1e6-4da1-4d9f-8a8f-a6327d8941cf","ios":"levelo://app?vid=cbbeb1e6-4da1-4d9f-8a8f-a6327d8941cf"},"vehicle_type_id":"4","last_reported":1691186761,"current_range_meters":0,"station_id":"ce4bhqp2rcd13ifvqhng","pricing_plan_id":"free"},{"bike_id":"c070a522-6c17-4333-a9ee-bbef4dc643ed","system_id":"levelo_inurba_marseille","lat":43.317557,"lon":5.390173,"is_reserved":false,"is_disabled":false,"rental_uris":{"android":"levelo://app?vid=c070a522-6c17-4333-a9ee-bbef4dc643ed","ios":"levelo://app?vid=c070a522-6c17-4333-a9ee-bbef4dc643ed"},"vehicle_type_id":"4","last_reported":1691186761,"current_range_meters":31200,"station_id":"ce4bhqp2rcd13ifvqhng","pricing_plan_id":"free"},{"bike_id":"90569ba5-8bb9-4d2d-b876-dc35e42f9a0c","system_id":"levelo_inurba_marseille","lat":43.317557,"lon":5.390173,"is_reserved":false,"is_disabled":false,"rental_uris":{"android":"levelo://app?vid=90569ba5-8bb9-4d2d-b876-dc35e42f9a0c","ios":"levelo://app?vid=90569ba5-8bb9-4d2d-b876-dc35e42f9a0c"},"vehicle_type_id":"4","last_reported":1691186761,"current_range_meters":31600,"station_id":"ce4bhqp2rcd13ifvqhng","pricing_plan_id":"free"},{"bike_id":"b2f3081d-803f-4500-a8ce-732227ecc1a7","system_id":"levelo_inurba_marseille","lat":43.317557,"lon":5.390173,"is_reserved":false,"is_disabled":false,"rental_uris":{"android":"levelo://app?vid=b2f3081d-803f-4500-a8ce-732227ecc1a7","ios":"levelo://app?vid=b2f3081d-803f-4500-a8ce-732227ecc1a7"},"vehicle_type_id":"4","last_reported":1691186761,"current_range_meters":26000,"station_id":"ce4bhqp2rcd13ifvqhng","pricing_plan_id":"free"},{"bike_id":"f609a1d8-b9e3-4c55-822f-ee547833c81f","system_id":"levelo_inurba_marseille","lat":43.298037,"lon":5.381066,"is_reserved":false,"is_disabled":false,"rental_uris":{"android":"levelo://app?vid=f609a1d8-b9e3-4c55-822f-ee547833c81f","ios":"levelo://app?vid=f609a1d8-b9e3-4c55-822f-ee547833c81f"},"vehicle_type_id":"4","last_reported":1691186761,"current_range_meters":29600,"station_id":"ce4bgip2rcd13ifvqbb0","pricing_plan_id":"free"},{"bike_id":"84dccec5-c9fe-4ac9-ab03-4b3864809faf","system_id":"levelo_inurba_marseille","lat":43.295748,"lon":5.37522,"is_reserved":false,"is_disabled":false,"rental_uris":{"android":"levelo://app?vid=84dccec5-c9fe-4ac9-ab03-4b3864809faf","ios":"levelo://app?vid=84dccec5-c9fe-4ac9-ab03-4b3864809faf"},"vehicle_type_id":"4","last_reported":1691186761,"current_range_meters":400,"station_id":"ce4bgh92rcd13ifvqb50","pricing_plan_id":"free"},{"bike_id":"b341154f-2772-4536-b212-ea4f63f590d1","system_id":"levelo_inurba_marseille","lat":43.29622,"lon":5.37714,"is_reserved":false,"is_disabled":false,"rental_uris":{"android":"levelo://app?vid=b341154f-2772-4536-b212-ea4f63f590d1","ios":"levelo://app?vid=b341154f-2772-4536-b212-ea4f63f590d1"},"vehicle_type_id":"4","last_reported":1691186761,"current_range_meters":17600,"station_id":"ce4bgi92rcd13ifvqb90","pricing_plan_id":"free"},{"bike_id":"40d2e705-f7c5-40fb-bfbb-066ba805e47c","system_id":"levelo_inurba_marseille","lat":43.299707,"lon":5.384859,"is_reserved":false,"is_disabled":false,"rental_uris":{"android":"levelo://app?vid=40d2e705-f7c5-40fb-bfbb-066ba805e47c","ios":"levelo://app?vid=40d2e705-f7c5-40fb-bfbb-066ba805e47c"},"vehicle_type_id":"4","last_reported":1691186761,"current_range_meters":0,"station_id":"ce4bgj92rcd13ifvqbd0","pricing_plan_id":"free"},{"bike_id":"43e03639-4029-4e8d-ad26-7f8f17f1e9de","system_id":"levelo_inurba_marseille","lat":43.32366,"lon":5.38875,"is_reserved":false,"is_disabled":false,"rental_uris":{"android":"levelo://app?vid=43e03639-4029-4e8d-ad26-7f8f17f1e9de","ios":"levelo://app?vid=43e03639-4029-4e8d-ad26-7f8f17f1e9de"},"vehicle_type_id":"4","last_reported":1691186761,"current_range_meters":19600,"station_id":"ce4bhqp2rcd13ifvqhog","pricing_plan_id":"free"},{"bike_id":"3d2edb57-516f-41bc-985e-42a721904578","system_id":"levelo_inurba_marseille","lat":43.32359,"lon":5.38882,"is_reserved":false,"is_disabled":false,"rental_uris":{"android":"levelo://app?vid=3d2edb57-516f-41bc-985e-42a721904578","ios":"levelo://app?vid=3d2edb57-516f-41bc-985e-42a721904578"},"vehicle_type_id":"4","last_reported":1691186761,"current_range_meters":24000,"station_id":"ce4bhqp2rcd13ifvqhog","pricing_plan_id":"free"},{"bike_id":"ee373f4b-d04e-43ef-92b8-3105e264ba5d","system_id":"levelo_inurba_marseille","lat":43.32367,"lon":5.388836,"is_reserved":false,"is_disabled":false,"rental_uris":{"android":"levelo://app?vid=ee373f4b-d04e-43ef-92b8-3105e264ba5d","ios":"levelo://app?vid=ee373f4b-d04e-43ef-92b8-3105e264ba5d"},"vehicle_type_id":"4","last_reported":1691186761,"current_range_meters":25200,"station_id":"ce4bhqp2rcd13ifvqhog","pricing_plan_id":"free"},{"bike_id":"5f1c231d-5549-420b-a974-1b1406435a60","system_id":"levelo_inurba_marseille","lat":43.32368,"lon":5.38879,"is_reserved":false,"is_disabled":false,"rental_uris":{"android":"levelo://app?vid=5f1c231d-5549-420b-a974-1b1406435a60","ios":"levelo://app?vid=5f1c231d-5549-420b-a974-1b1406435a60"},"vehicle_type_id":"4","last_reported":1691186761,"current_range_meters":24400,"station_id":"ce4bhqp2rcd13ifvqhog","pricing_plan_id":"free"},{"bike_id":"153806a9-c106-4acb-8efe-f81ba29b58d3","system_id":"levelo_inurba_marseille","lat":43.32367,"lon":5.388836,"is_reserved":false,"is_disabled":false,"rental_uris":{"android":"levelo://app?vid=153806a9-c106-4acb-8efe-f81ba29b58d3","ios":"levelo://app?vid=153806a9-c106-4acb-8efe-f81ba29b58d3"},"vehicle_type_id":"4","last_reported":1691186761,"current_range_meters":26800,"station_id":"ce4bhqp2rcd13ifvqhog","pricing_plan_id":"free"},{"bike_id":"34ef5601-8765-4b80-bdc1-e9818152ffab","system_id":"levelo_inurba_marseille","lat":43.32363,"lon":5.38885,"is_reserved":false,"is_disabled":false,"rental_uris":{"android":"levelo://app?vid=34ef5601-8765-4b80-bdc1-e9818152ffab","ios":"levelo://app?vid=34ef5601-8765-4b80-bdc1-e9818152ffab"},"vehicle_type_id":"4","last_reported":1691186761,"current_range_meters":28000,"station_id":"ce4bhqp2rcd13ifvqhog","pricing_plan_id":"free"},{"bike_id":"6be534a9-96c6-4989-b3bb-e9dea76376c4","system_id":"levelo_inurba_marseille","lat":43.32367,"lon":5.388836,"is_reserved":false,"is_disabled":false,"rental_uris":{"android":"levelo://app?vid=6be534a9-96c6-4989-b3bb-e9dea76376c4","ios":"levelo://app?vid=6be534a9-96c6-4989-b3bb-e9dea76376c4"},"vehicle_type_id":"4","last_reported":1691186761,"current_range_meters":9200,"station_id":"ce4bhqp2rcd13ifvqhog","pricing_plan_id":"free"},{"bike_id":"31c4ebe8-2a4f-41b7-966a-7ad502ff3d8a","system_id":"levelo_inurba_marseille","lat":43.323664,"lon":5.388872,"is_reserved":false,"is_disabled":false,"rental_uris":{"android":"levelo://app?vid=31c4ebe8-2a4f-41b7-966a-7ad502ff3d8a","ios":"levelo://app?vid=31c4ebe8-2a4f-41b7-966a-7ad502ff3d8a"},"vehicle_type_id":"4","last_reported":1691186761,"current_range_meters":22800,"station_id":"ce4bhqp2rcd13ifvqhog","pricing_plan_id":"free"},{"bike_id":"33fb8226-190a-46f1-b505-f12664cf17bf","system_id":"levelo_inurba_marseille","lat":43.323712,"lon":5.388837,"is_reserved":false,"is_disabled":false,"rental_uris":{"android":"levelo://app?vid=33fb8226-190a-46f1-b505-f12664cf17bf","ios":"levelo://app?vid=33fb8226-190a-46f1-b505-f12664cf17bf"},"vehicle_type_id":"4","last_reported":1691186761,"current_range_meters":27200,"station_id":"","pricing_plan_id":"free"},{"bike_id":"fbc3a92c-f948-48e9-a3fc-f0e8af1a9259","system_id":"levelo_inurba_marseille","lat":43.32367,"lon":5.38892,"is_reserved":false,"is_disabled":false,"rental_uris":{"android":"levelo://app?vid=fbc3a92c-f948-48e9-a3fc-f0e8af1a9259","ios":"levelo://app?vid=fbc3a92c-f948-48e9-a3fc-f0e8af1a9259"},"vehicle_type_id":"4","last_reported":1691186761,"current_range_meters":31200,"station_id":"ce4bhqp2rcd13ifvqhog","pricing_plan_id":"free"},{"bike_id":"696ed9b6-9beb-423c-9d06-defcf66f30b9","system_id":"levelo_inurba_marseille","lat":43.32369,"lon":5.38897,"is_reserved":false,"is_disabled":false,"rental_uris":{"android":"levelo://app?vid=696ed9b6-9beb-423c-9d06-defcf66f30b9","ios":"levelo://app?vid=696ed9b6-9beb-423c-9d06-defcf66f30b9"},"vehicle_type_id":"4","last_reported":1691186761,"current_range_meters":14000,"station_id":"ce4bhqp2rcd13ifvqhog","pricing_plan_id":"free"},{"bike_id":"d9a6417c-04db-4c7e-b6fc-312f59862a01","system_id":"levelo_inurba_marseille","lat":43.29602,"lon":5.381084,"is_reserved":false,"is_disabled":false,"rental_uris":{"android":"levelo://app?vid=d9a6417c-04db-4c7e-b6fc-312f59862a01","ios":"levelo://app?vid=d9a6417c-04db-4c7e-b6fc-312f59862a01"},"vehicle_type_id":"4","last_reported":1691186761,"current_range_meters":4000,"station_id":"ce4bgl12rcd13ifvqbo0","pricing_plan_id":"free"},{"bike_id":"e2a7e17e-657b-4bfd-a9f5-442c2133d7c7","system_id":"levelo_inurba_marseille","lat":43.29308,"lon":5.37465,"is_reserved":false,"is_disabled":false,"rental_uris":{"android":"levelo://app?vid=e2a7e17e-657b-4bfd-a9f5-442c2133d7c7","ios":"levelo://app?vid=e2a7e17e-657b-4bfd-a9f5-442c2133d7c7"},"vehicle_type_id":"4","last_reported":1691186761,"current_range_meters":23200,"station_id":"ce4bgi12rcd13ifvqb70","pricing_plan_id":"free"},{"bike_id":"e0dc09d2-86ce-412c-ba96-3843c98a005f","system_id":"levelo_inurba_marseille","lat":43.30302,"lon":5.39204,"is_reserved":false,"is_disabled":false,"rental_uris":{"android":"levelo://app?vid=e0dc09d2-86ce-412c-ba96-3843c98a005f","ios":"levelo://app?vid=e0dc09d2-86ce-412c-ba96-3843c98a005f"},"vehicle_type_id":"4","last_reported":1691186761,"current_range_meters":12800,"station_id":"ce4bgkh2rcd13ifvqbk0","pricing_plan_id":"free"},{"bike_id":"95762652-a734-49d1-974c-bb07af362ca6","system_id":"levelo_inurba_marseille","lat":43.292311,"lon":5.360731,"is_reserved":false,"is_disabled":false,"rental_uris":{"android":"levelo://app?vid=95762652-a734-49d1-974c-bb07af362ca6","ios":"levelo://app?vid=95762652-a734-49d1-974c-bb07af362ca6"},"vehicle_type_id":"4","last_reported":1691186761,"current_range_meters":0,"station_id":"ce4bhbh2rcd13ifvqeqg","pricing_plan_id":"free"},{"bike_id":"7ea6efad-bb39-4dc2-87c9-c806e5f0f2b4","system_id":"levelo_inurba_marseille","lat":43.29235,"lon":5.3748,"is_reserved":false,"is_disabled":false,"rental_uris":{"android":"levelo://app?vid=7ea6efad-bb39-4dc2-87c9-c806e5f0f2b4","ios":"levelo://app?vid=7ea6efad-bb39-4dc2-87c9-c806e5f0f2b4"},"vehicle_type_id":"4","last_reported":1691186761,"current_range_meters":3200,"station_id":"","pricing_plan_id":"free"},{"bike_id":"655d168c-12f5-4d82-acdd-f1c070462a33","system_id":"levelo_inurba_marseille","lat":43.298764,"lon":5.388973,"is_reserved":false,"is_disabled":false,"rental_uris":{"android":"levelo://app?vid=655d168c-12f5-4d82-acdd-f1c070462a33","ios":"levelo://app?vid=655d168c-12f5-4d82-acdd-f1c070462a33"},"vehicle_type_id":"4","last_reported":1691186761,"current_range_meters":30400,"station_id":"ce4bh392rcd13ifvqdl0","pricing_plan_id":"free"},{"bike_id":"3b28ed7e-9020-4da4-89e1-fab5d46c83ae","system_id":"levelo_inurba_marseille","lat":43.2988,"lon":5.38908,"is_reserved":false,"is_disabled":false,"rental_uris":{"android":"levelo://app?vid=3b28ed7e-9020-4da4-89e1-fab5d46c83ae","ios":"levelo://app?vid=3b28ed7e-9020-4da4-89e1-fab5d46c83ae"},"vehicle_type_id":"4","last_reported":1691186761,"current_range_meters":14000,"station_id":"ce4bh392rcd13ifvqdl0","pricing_plan_id":"free"},{"bike_id":"e268b4b3-67d9-4078-b1ff-d336b225101a","system_id":"levelo_inurba_marseille","lat":43.29883,"lon":5.38913,"is_reserved":false,"is_disabled":false,"rental_uris":{"android":"levelo://app?vid=e268b4b3-67d9-4078-b1ff-d336b225101a","ios":"levelo://app?vid=e268b4b3-67d9-4078-b1ff-d336b225101a"},"vehicle_type_id":"4","last_reported":1691186761,"current_range_meters":12000,"station_id":"ce4bh392rcd13ifvqdl0","pricing_plan_id":"free"},{"bike_id":"7b25c3ae-e552-4986-8d27-4026b5269f2d","system_id":"levelo_inurba_marseille","lat":43.29876,"lon":5.38907,"is_reserved":false,"is_disabled":false,"rental_uris":{"android":"levelo://app?vid=7b25c3ae-e552-4986-8d27-4026b5269f2d","ios":"levelo://app?vid=7b25c3ae-e552-4986-8d27-4026b5269f2d"},"vehicle_type_id":"4","last_reported":1691186761,"current_range_meters":8800,"station_id":"ce4bh392rcd13ifvqdl0","pricing_plan_id":"free"},{"bike_id":"425d7294-2fac-4374-a406-1b65562785a2","system_id":"levelo_inurba_marseille","lat":43.30886,"lon":5.39634,"is_reserved":false,"is_disabled":false,"rental_uris":{"android":"levelo://app?vid=425d7294-2fac-4374-a406-1b65562785a2","ios":"levelo://app?vid=425d7294-2fac-4374-a406-1b65562785a2"},"vehicle_type_id":"4","last_reported":1691186761,"current_range_meters":18800,"station_id":"ce4bh012rcd13ifvqcv0","pricing_plan_id":"free"},{"bike_id":"ce9af7e8-c390-4052-bc70-643c83bd28f0","system_id":"levelo_inurba_marseille","lat":43.31322,"lon":5.39687,"is_reserved":false,"is_disabled":false,"rental_uris":{"android":"levelo://app?vid=ce9af7e8-c390-4052-bc70-643c83bd28f0","ios":"levelo://app?vid=ce9af7e8-c390-4052-bc70-643c83bd28f0"},"vehicle_type_id":"4","last_reported":1691186761,"current_range_meters":28800,"station_id":"ce4bgvp2rcd13ifvqcu0","pricing_plan_id":"free"},{"bike_id":"48a4675c-3592-4e86-b588-5cd026951643","system_id":"levelo_inurba_marseille","lat":43.31323,"lon":5.39687,"is_reserved":false,"is_disabled":false,"rental_uris":{"android":"levelo://app?vid=48a4675c-3592-4e86-b588-5cd026951643","ios":"levelo://app?vid=48a4675c-3592-4e86-b588-5cd026951643"},"vehicle_type_id":"4","last_reported":1691186761,"current_range_meters":1600,"station_id":"ce4bgvp2rcd13ifvqcu0","pricing_plan_id":"free"},{"bike_id":"4282928a-65ca-455f-9646-806d7e6ca5a3","system_id":"levelo_inurba_marseille","lat":43.31327,"lon":5.39687,"is_reserved":false,"is_disabled":false,"rental_uris":{"android":"levelo://app?vid=4282928a-65ca-455f-9646-806d7e6ca5a3","ios":"levelo://app?vid=4282928a-65ca-455f-9646-806d7e6ca5a3"},"vehicle_type_id":"4","last_reported":1691186761,"current_range_meters":25600,"station_id":"ce4bgvp2rcd13ifvqcu0","pricing_plan_id":"free"},{"bike_id":"0288d276-f1da-474e-8992-fc865d32c018","system_id":"levelo_inurba_marseille","lat":43.31324,"lon":5.39688,"is_reserved":false,"is_disabled":false,"rental_uris":{"android":"levelo://app?vid=0288d276-f1da-474e-8992-fc865d32c018","ios":"levelo://app?vid=0288d276-f1da-474e-8992-fc865d32c018"},"vehicle_type_id":"4","last_reported":1691186761,"current_range_meters":29200,"station_id":"ce4bgvp2rcd13ifvqcu0","pricing_plan_id":"free"},{"bike_id":"732d6916-7d23-4824-bd9d-f12772e1f638","system_id":"levelo_inurba_marseille","lat":43.31321,"lon":5.39689,"is_reserved":false,"is_disabled":false,"rental_uris":{"android":"levelo://app?vid=732d6916-7d23-4824-bd9d-f12772e1f638","ios":"levelo://app?vid=732d6916-7d23-4824-bd9d-f12772e1f638"},"vehicle_type_id":"4","last_reported":1691186761,"current_range_meters":28800,"station_id":"ce4bgvp2rcd13ifvqcu0","pricing_plan_id":"free"},{"bike_id":"8ce13b56-1737-47c1-99cb-f47c5df85884","system_id":"levelo_inurba_marseille","lat":43.31326,"lon":5.39689,"is_reserved":false,"is_disabled":false,"rental_uris":{"android":"levelo://app?vid=8ce13b56-1737-47c1-99cb-f47c5df85884","ios":"levelo://app?vid=8ce13b56-1737-47c1-99cb-f47c5df85884"},"vehicle_type_id":"4","last_reported":1691186761,"current_range_meters":22000,"station_id":"ce4bgvp2rcd13ifvqcu0","pricing_plan_id":"free"},{"bike_id":"40b0dbf0-87f6-4363-b8e9-d1cac15b6861","system_id":"levelo_inurba_marseille","lat":43.31328,"lon":5.39689,"is_reserved":false,"is_disabled":false,"rental_uris":{"android":"levelo://app?vid=40b0dbf0-87f6-4363-b8e9-d1cac15b6861","ios":"levelo://app?vid=40b0dbf0-87f6-4363-b8e9-d1cac15b6861"},"vehicle_type_id":"4","last_reported":1691186761,"current_range_meters":28400,"station_id":"ce4bgvp2rcd13ifvqcu0","pricing_plan_id":"free"},{"bike_id":"6a78cfee-a0d7-4f90-b817-7d7948c89d9c","system_id":"levelo_inurba_marseille","lat":43.31321,"lon":5.3969,"is_reserved":false,"is_disabled":false,"rental_uris":{"android":"levelo://app?vid=6a78cfee-a0d7-4f90-b817-7d7948c89d9c","ios":"levelo://app?vid=6a78cfee-a0d7-4f90-b817-7d7948c89d9c"},"vehicle_type_id":"4","last_reported":1691186761,"current_range_meters":29200,"station_id":"ce4bgvp2rcd13ifvqcu0","pricing_plan_id":"free"},{"bike_id":"73ef68a3-c405-4709-8c09-348081e638bc","system_id":"levelo_inurba_marseille","lat":43.29192,"lon":5.35794,"is_reserved":false,"is_disabled":false,"rental_uris":{"android":"levelo://app?vid=73ef68a3-c405-4709-8c09-348081e638bc","ios":"levelo://app?vid=73ef68a3-c405-4709-8c09-348081e638bc"},"vehicle_type_id":"4","last_reported":1691186761,"current_range_meters":28800,"station_id":"ce4bhb12rcd13ifvqel0","pricing_plan_id":"free"},{"bike_id":"75940d41-b8a2-41da-a9e6-9ebe0b8325a7","system_id":"levelo_inurba_marseille","lat":43.31323,"lon":5.39692,"is_reserved":false,"is_disabled":false,"rental_uris":{"android":"levelo://app?vid=75940d41-b8a2-41da-a9e6-9ebe0b8325a7","ios":"levelo://app?vid=75940d41-b8a2-41da-a9e6-9ebe0b8325a7"},"vehicle_type_id":"4","last_reported":1691186761,"current_range_meters":17600,"station_id":"ce4bgvp2rcd13ifvqcu0","pricing_plan_id":"free"},{"bike_id":"0c872fac-4908-4c2b-8165-2f366f0421b8","system_id":"levelo_inurba_marseille","lat":43.31324,"lon":5.39692,"is_reserved":false,"is_disabled":false,"rental_uris":{"android":"levelo://app?vid=0c872fac-4908-4c2b-8165-2f366f0421b8","ios":"levelo://app?vid=0c872fac-4908-4c2b-8165-2f366f0421b8"},"vehicle_type_id":"4","last_reported":1691186761,"current_range_meters":29600,"station_id":"ce4bgvp2rcd13ifvqcu0","pricing_plan_id":"free"},{"bike_id":"152b437f-135a-41a9-8809-789f80214774","system_id":"levelo_inurba_marseille","lat":43.31332,"lon":5.39692,"is_reserved":false,"is_disabled":false,"rental_uris":{"android":"levelo://app?vid=152b437f-135a-41a9-8809-789f80214774","ios":"levelo://app?vid=152b437f-135a-41a9-8809-789f80214774"},"vehicle_type_id":"4","last_reported":1691186761,"current_range_meters":26800,"station_id":"ce4bgvp2rcd13ifvqcu0","pricing_plan_id":"free"},{"bike_id":"12fa8514-0a68-41f7-bb46-e07e792351de","system_id":"levelo_inurba_marseille","lat":43.313291,"lon":5.396838,"is_reserved":false,"is_disabled":false,"rental_uris":{"android":"levelo://app?vid=12fa8514-0a68-41f7-bb46-e07e792351de","ios":"levelo://app?vid=12fa8514-0a68-41f7-bb46-e07e792351de"},"vehicle_type_id":"4","last_reported":1691186761,"current_range_meters":1600,"station_id":"ce4bgvp2rcd13ifvqcu0","pricing_plan_id":"free"},{"bike_id":"d1ffca73-7d13-4241-8f74-14210fca76f7","system_id":"levelo_inurba_marseille","lat":43.313291,"lon":5.396838,"is_reserved":false,"is_disabled":false,"rental_uris":{"android":"levelo://app?vid=d1ffca73-7d13-4241-8f74-14210fca76f7","ios":"levelo://app?vid=d1ffca73-7d13-4241-8f74-14210fca76f7"},"vehicle_type_id":"4","last_reported":1691186761,"current_range_meters":1600,"station_id":"ce4bgvp2rcd13ifvqcu0","pricing_plan_id":"free"},{"bike_id":"ebbf0889-294e-4a97-b816-80e14ee272d5","system_id":"levelo_inurba_marseille","lat":43.31329,"lon":5.39695,"is_reserved":false,"is_disabled":false,"rental_uris":{"android":"levelo://app?vid=ebbf0889-294e-4a97-b816-80e14ee272d5","ios":"levelo://app?vid=ebbf0889-294e-4a97-b816-80e14ee272d5"},"vehicle_type_id":"4","last_reported":1691186761,"current_range_meters":26000,"station_id":"ce4bgvp2rcd13ifvqcu0","pricing_plan_id":"free"},{"bike_id":"4e6846ae-36f1-4235-93d3-4da7c9b10477","system_id":"levelo_inurba_marseille","lat":43.313291,"lon":5.396838,"is_reserved":false,"is_disabled":false,"rental_uris":{"android":"levelo://app?vid=4e6846ae-36f1-4235-93d3-4da7c9b10477","ios":"levelo://app?vid=4e6846ae-36f1-4235-93d3-4da7c9b10477"},"vehicle_type_id":"4","last_reported":1691186761,"current_range_meters":25200,"station_id":"ce4bgvp2rcd13ifvqcu0","pricing_plan_id":"free"},{"bike_id":"6761a8b1-91fb-4cd4-8397-cdcd34da0a44","system_id":"levelo_inurba_marseille","lat":43.313291,"lon":5.396838,"is_reserved":false,"is_disabled":false,"rental_uris":{"android":"levelo://app?vid=6761a8b1-91fb-4cd4-8397-cdcd34da0a44","ios":"levelo://app?vid=6761a8b1-91fb-4cd4-8397-cdcd34da0a44"},"vehicle_type_id":"4","last_reported":1691186761,"current_range_meters":18000,"station_id":"ce4bgvp2rcd13ifvqcu0","pricing_plan_id":"free"},{"bike_id":"40a7725f-bc55-4693-9c45-86bc7b0e8476","system_id":"levelo_inurba_marseille","lat":43.31333,"lon":5.39702,"is_reserved":false,"is_disabled":false,"rental_uris":{"android":"levelo://app?vid=40a7725f-bc55-4693-9c45-86bc7b0e8476","ios":"levelo://app?vid=40a7725f-bc55-4693-9c45-86bc7b0e8476"},"vehicle_type_id":"4","last_reported":1691186761,"current_range_meters":27600,"station_id":"ce4bgvp2rcd13ifvqcu0","pricing_plan_id":"free"},{"bike_id":"0b9e9f78-eb76-491c-9188-e2aef1e2e70f","system_id":"levelo_inurba_marseille","lat":43.30882,"lon":5.39658,"is_reserved":false,"is_disabled":false,"rental_uris":{"android":"levelo://app?vid=0b9e9f78-eb76-491c-9188-e2aef1e2e70f","ios":"levelo://app?vid=0b9e9f78-eb76-491c-9188-e2aef1e2e70f"},"vehicle_type_id":"4","last_reported":1691186761,"current_range_meters":21200,"station_id":"ce4bh012rcd13ifvqcv0","pricing_plan_id":"free"},{"bike_id":"79368ccd-13ca-43b8-92a0-e87076d88112","system_id":"levelo_inurba_marseille","lat":43.29541,"lon":5.3855,"is_reserved":false,"is_disabled":false,"rental_uris":{"android":"levelo://app?vid=79368ccd-13ca-43b8-92a0-e87076d88112","ios":"levelo://app?vid=79368ccd-13ca-43b8-92a0-e87076d88112"},"vehicle_type_id":"4","last_reported":1691186761,"current_range_meters":2000,"station_id":"ce4bgih2rcd13ifvqba0","pricing_plan_id":"free"},{"bike_id":"a90ab433-c789-4df2-abce-0066b4ce4fff","system_id":"levelo_inurba_marseille","lat":43.302008,"lon":5.394694,"is_reserved":false,"is_disabled":false,"rental_uris":{"android":"levelo://app?vid=a90ab433-c789-4df2-abce-0066b4ce4fff","ios":"levelo://app?vid=a90ab433-c789-4df2-abce-0066b4ce4fff"},"vehicle_type_id":"4","last_reported":1691186761,"current_range_meters":12400,"station_id":"ce4bh0p2rcd13ifvqd70","pricing_plan_id":"free"},{"bike_id":"a0ccfa2b-d167-42ae-8e74-a42eb12f353b","system_id":"levelo_inurba_marseille","lat":43.29041,"lon":5.35914,"is_reserved":false,"is_disabled":false,"rental_uris":{"android":"levelo://app?vid=a0ccfa2b-d167-42ae-8e74-a42eb12f353b","ios":"levelo://app?vid=a0ccfa2b-d167-42ae-8e74-a42eb12f353b"},"vehicle_type_id":"4","last_reported":1691186761,"current_range_meters":21200,"station_id":"","pricing_plan_id":"free"},{"bike_id":"1ce1c302-4335-4fcb-83b7-0e1358c4ceeb","system_id":"levelo_inurba_marseille","lat":43.29432,"lon":5.38613,"is_reserved":false,"is_disabled":false,"rental_uris":{"android":"levelo://app?vid=1ce1c302-4335-4fcb-83b7-0e1358c4ceeb","ios":"levelo://app?vid=1ce1c302-4335-4fcb-83b7-0e1358c4ceeb"},"vehicle_type_id":"4","last_reported":1691186761,"current_range_meters":26800,"station_id":"ce4bh2h2rcd13ifvqdh0","pricing_plan_id":"free"},{"bike_id":"8ddbfcf9-3397-4882-bd44-b669547ba078","system_id":"levelo_inurba_marseille","lat":43.294153,"lon":5.386305,"is_reserved":false,"is_disabled":false,"rental_uris":{"android":"levelo://app?vid=8ddbfcf9-3397-4882-bd44-b669547ba078","ios":"levelo://app?vid=8ddbfcf9-3397-4882-bd44-b669547ba078"},"vehicle_type_id":"4","last_reported":1691186761,"current_range_meters":30000,"station_id":"ce4bh2h2rcd13ifvqdh0","pricing_plan_id":"free"},{"bike_id":"eab7714c-cfd9-4c65-aa9f-87c002d4bab6","system_id":"levelo_inurba_marseille","lat":43.294153,"lon":5.386305,"is_reserved":false,"is_disabled":false,"rental_uris":{"android":"levelo://app?vid=eab7714c-cfd9-4c65-aa9f-87c002d4bab6","ios":"levelo://app?vid=eab7714c-cfd9-4c65-aa9f-87c002d4bab6"},"vehicle_type_id":"4","last_reported":1691186761,"current_range_meters":26800,"station_id":"ce4bh2h2rcd13ifvqdh0","pricing_plan_id":"free"},{"bike_id":"e08e0287-eb27-4bec-babd-80d88c674a48","system_id":"levelo_inurba_marseille","lat":43.294162,"lon":5.386292,"is_reserved":false,"is_disabled":false,"rental_uris":{"android":"levelo://app?vid=e08e0287-eb27-4bec-babd-80d88c674a48","ios":"levelo://app?vid=e08e0287-eb27-4bec-babd-80d88c674a48"},"vehicle_type_id":"4","last_reported":1691186761,"current_range_meters":22000,"station_id":"ce4bh2h2rcd13ifvqdh0","pricing_plan_id":"free"},{"bike_id":"74d46152-b641-48ef-a20c-f8f86b2460b6","system_id":"levelo_inurba_marseille","lat":43.294162,"lon":5.386292,"is_reserved":false,"is_disabled":false,"rental_uris":{"android":"levelo://app?vid=74d46152-b641-48ef-a20c-f8f86b2460b6","ios":"levelo://app?vid=74d46152-b641-48ef-a20c-f8f86b2460b6"},"vehicle_type_id":"4","last_reported":1691186761,"current_range_meters":6000,"station_id":"ce4bh2h2rcd13ifvqdh0","pricing_plan_id":"free"},{"bike_id":"9e6652ba-11d4-4e5a-aa94-ced9abd3ada7","system_id":"levelo_inurba_marseille","lat":43.289184,"lon":5.366408,"is_reserved":false,"is_disabled":false,"rental_uris":{"android":"levelo://app?vid=9e6652ba-11d4-4e5a-aa94-ced9abd3ada7","ios":"levelo://app?vid=9e6652ba-11d4-4e5a-aa94-ced9abd3ada7"},"vehicle_type_id":"4","last_reported":1691186761,"current_range_meters":30000,"station_id":"ce4bhap2rcd13ifvqek0","pricing_plan_id":"free"},{"bike_id":"f8a6fe1e-f72b-4c03-8966-5e864bfc2693","system_id":"levelo_inurba_marseille","lat":43.304274,"lon":5.397513,"is_reserved":false,"is_disabled":false,"rental_uris":{"android":"levelo://app?vid=f8a6fe1e-f72b-4c03-8966-5e864bfc2693","ios":"levelo://app?vid=f8a6fe1e-f72b-4c03-8966-5e864bfc2693"},"vehicle_type_id":"4","last_reported":1691186761,"current_range_meters":22000,"station_id":"ce4bh092rcd13ifvqd20","pricing_plan_id":"free"},{"bike_id":"58d9daa4-9c4c-4dbc-a91c-3eee752552f5","system_id":"levelo_inurba_marseille","lat":43.30473,"lon":5.39789,"is_reserved":false,"is_disabled":false,"rental_uris":{"android":"levelo://app?vid=58d9daa4-9c4c-4dbc-a91c-3eee752552f5","ios":"levelo://app?vid=58d9daa4-9c4c-4dbc-a91c-3eee752552f5"},"vehicle_type_id":"4","last_reported":1691186761,"current_range_meters":20800,"station_id":"","pricing_plan_id":"free"},{"bike_id":"87a91d50-b0ca-4c64-94ae-7cf78dbb050f","system_id":"levelo_inurba_marseille","lat":43.33038,"lon":5.38916,"is_reserved":false,"is_disabled":false,"rental_uris":{"android":"levelo://app?vid=87a91d50-b0ca-4c64-94ae-7cf78dbb050f","ios":"levelo://app?vid=87a91d50-b0ca-4c64-94ae-7cf78dbb050f"},"vehicle_type_id":"4","last_reported":1691186761,"current_range_meters":16000,"station_id":"ce4bhr92rcd13ifvqhrg","pricing_plan_id":"free"},{"bike_id":"20cf3f6d-acf4-4653-bf24-baa04253f77a","system_id":"levelo_inurba_marseille","lat":43.33034,"lon":5.38923,"is_reserved":false,"is_disabled":false,"rental_uris":{"android":"levelo://app?vid=20cf3f6d-acf4-4653-bf24-baa04253f77a","ios":"levelo://app?vid=20cf3f6d-acf4-4653-bf24-baa04253f77a"},"vehicle_type_id":"4","last_reported":1691186761,"current_range_meters":17600,"station_id":"ce4bhr92rcd13ifvqhrg","pricing_plan_id":"free"},{"bike_id":"9692718f-5e29-4ec7-a5d8-53f40d94ef49","system_id":"levelo_inurba_marseille","lat":43.33037,"lon":5.38919,"is_reserved":false,"is_disabled":false,"rental_uris":{"android":"levelo://app?vid=9692718f-5e29-4ec7-a5d8-53f40d94ef49","ios":"levelo://app?vid=9692718f-5e29-4ec7-a5d8-53f40d94ef49"},"vehicle_type_id":"4","last_reported":1691186761,"current_range_meters":23200,"station_id":"ce4bhr92rcd13ifvqhrg","pricing_plan_id":"free"},{"bike_id":"f67edc25-bcc7-41fb-8431-1add679b0933","system_id":"levelo_inurba_marseille","lat":43.33042,"lon":5.38916,"is_reserved":false,"is_disabled":false,"rental_uris":{"android":"levelo://app?vid=f67edc25-bcc7-41fb-8431-1add679b0933","ios":"levelo://app?vid=f67edc25-bcc7-41fb-8431-1add679b0933"},"vehicle_type_id":"4","last_reported":1691186761,"current_range_meters":19200,"station_id":"ce4bhr92rcd13ifvqhrg","pricing_plan_id":"free"},{"bike_id":"8ace282d-a246-40c2-9516-a60b5d85bb41","system_id":"levelo_inurba_marseille","lat":43.33043,"lon":5.38917,"is_reserved":false,"is_disabled":false,"rental_uris":{"android":"levelo://app?vid=8ace282d-a246-40c2-9516-a60b5d85bb41","ios":"levelo://app?vid=8ace282d-a246-40c2-9516-a60b5d85bb41"},"vehicle_type_id":"4","last_reported":1691186761,"current_range_meters":22400,"station_id":"ce4bhr92rcd13ifvqhrg","pricing_plan_id":"free"},{"bike_id":"34fc0bae-b089-42d1-99d0-10d5b39f2b41","system_id":"levelo_inurba_marseille","lat":43.33042,"lon":5.38919,"is_reserved":false,"is_disabled":false,"rental_uris":{"android":"levelo://app?vid=34fc0bae-b089-42d1-99d0-10d5b39f2b41","ios":"levelo://app?vid=34fc0bae-b089-42d1-99d0-10d5b39f2b41"},"vehicle_type_id":"4","last_reported":1691186761,"current_range_meters":24800,"station_id":"ce4bhr92rcd13ifvqhrg","pricing_plan_id":"free"},{"bike_id":"e6c6e4e8-edee-449e-8936-76c8ef3752c4","system_id":"levelo_inurba_marseille","lat":43.33042,"lon":5.38919,"is_reserved":false,"is_disabled":false,"rental_uris":{"android":"levelo://app?vid=e6c6e4e8-edee-449e-8936-76c8ef3752c4","ios":"levelo://app?vid=e6c6e4e8-edee-449e-8936-76c8ef3752c4"},"vehicle_type_id":"4","last_reported":1691186761,"current_range_meters":22000,"station_id":"ce4bhr92rcd13ifvqhrg","pricing_plan_id":"free"},{"bike_id":"98f910d2-52f4-4465-977e-10142d8cca43","system_id":"levelo_inurba_marseille","lat":43.33042,"lon":5.38919,"is_reserved":false,"is_disabled":false,"rental_uris":{"android":"levelo://app?vid=98f910d2-52f4-4465-977e-10142d8cca43","ios":"levelo://app?vid=98f910d2-52f4-4465-977e-10142d8cca43"},"vehicle_type_id":"4","last_reported":1691186761,"current_range_meters":19600,"station_id":"ce4bhr92rcd13ifvqhrg","pricing_plan_id":"free"},{"bike_id":"2f2d42a2-8de0-405f-9429-d3eae654394c","system_id":"levelo_inurba_marseille","lat":43.33044,"lon":5.38916,"is_reserved":false,"is_disabled":false,"rental_uris":{"android":"levelo://app?vid=2f2d42a2-8de0-405f-9429-d3eae654394c","ios":"levelo://app?vid=2f2d42a2-8de0-405f-9429-d3eae654394c"},"vehicle_type_id":"4","last_reported":1691186761,"current_range_meters":20000,"station_id":"ce4bhr92rcd13ifvqhrg","pricing_plan_id":"free"},{"bike_id":"976f718a-bfdb-4480-a757-e5b9a5d1a5d6","system_id":"levelo_inurba_marseille","lat":43.33046,"lon":5.38913,"is_reserved":false,"is_disabled":false,"rental_uris":{"android":"levelo://app?vid=976f718a-bfdb-4480-a757-e5b9a5d1a5d6","ios":"levelo://app?vid=976f718a-bfdb-4480-a757-e5b9a5d1a5d6"},"vehicle_type_id":"4","last_reported":1691186761,"current_range_meters":28400,"station_id":"ce4bhr92rcd13ifvqhrg","pricing_plan_id":"free"},{"bike_id":"9ce62819-7d94-47c9-aff2-f56e39f0ba59","system_id":"levelo_inurba_marseille","lat":43.33043,"lon":5.38918,"is_reserved":false,"is_disabled":false,"rental_uris":{"android":"levelo://app?vid=9ce62819-7d94-47c9-aff2-f56e39f0ba59","ios":"levelo://app?vid=9ce62819-7d94-47c9-aff2-f56e39f0ba59"},"vehicle_type_id":"4","last_reported":1691186761,"current_range_meters":30000,"station_id":"ce4bhr92rcd13ifvqhrg","pricing_plan_id":"free"},{"bike_id":"20baf9c0-8e85-4ffb-a39a-3eca99fbd699","system_id":"levelo_inurba_marseille","lat":43.33042,"lon":5.3892,"is_reserved":false,"is_disabled":false,"rental_uris":{"android":"levelo://app?vid=20baf9c0-8e85-4ffb-a39a-3eca99fbd699","ios":"levelo://app?vid=20baf9c0-8e85-4ffb-a39a-3eca99fbd699"},"vehicle_type_id":"4","last_reported":1691186761,"current_range_meters":1600,"station_id":"ce4bhr92rcd13ifvqhrg","pricing_plan_id":"free"},{"bike_id":"cedbc9c4-3cd8-4974-be60-104359550a71","system_id":"levelo_inurba_marseille","lat":43.33048,"lon":5.38911,"is_reserved":false,"is_disabled":false,"rental_uris":{"android":"levelo://app?vid=cedbc9c4-3cd8-4974-be60-104359550a71","ios":"levelo://app?vid=cedbc9c4-3cd8-4974-be60-104359550a71"},"vehicle_type_id":"4","last_reported":1691186761,"current_range_meters":11200,"station_id":"ce4bhr92rcd13ifvqhrg","pricing_plan_id":"free"},{"bike_id":"37fde894-3336-4087-bf88-b0989bbc514a","system_id":"levelo_inurba_marseille","lat":43.33044,"lon":5.38918,"is_reserved":false,"is_disabled":false,"rental_uris":{"android":"levelo://app?vid=37fde894-3336-4087-bf88-b0989bbc514a","ios":"levelo://app?vid=37fde894-3336-4087-bf88-b0989bbc514a"},"vehicle_type_id":"4","last_reported":1691186761,"current_range_meters":6800,"station_id":"ce4bhr92rcd13ifvqhrg","pricing_plan_id":"free"},{"bike_id":"db7952dd-c6d8-42c2-918b-068ba9bccee2","system_id":"levelo_inurba_marseille","lat":43.33047,"lon":5.38914,"is_reserved":false,"is_disabled":false,"rental_uris":{"android":"levelo://app?vid=db7952dd-c6d8-42c2-918b-068ba9bccee2","ios":"levelo://app?vid=db7952dd-c6d8-42c2-918b-068ba9bccee2"},"vehicle_type_id":"4","last_reported":1691186761,"current_range_meters":7600,"station_id":"ce4bhr92rcd13ifvqhrg","pricing_plan_id":"free"},{"bike_id":"00b2dcdc-2882-40a1-9132-89c3ec15cf18","system_id":"levelo_inurba_marseille","lat":43.33045,"lon":5.38918,"is_reserved":false,"is_disabled":false,"rental_uris":{"android":"levelo://app?vid=00b2dcdc-2882-40a1-9132-89c3ec15cf18","ios":"levelo://app?vid=00b2dcdc-2882-40a1-9132-89c3ec15cf18"},"vehicle_type_id":"4","last_reported":1691186761,"current_range_meters":17600,"station_id":"ce4bhr92rcd13ifvqhrg","pricing_plan_id":"free"},{"bike_id":"38c1adea-6867-4940-9699-a628b1958570","system_id":"levelo_inurba_marseille","lat":43.33042,"lon":5.38932,"is_reserved":false,"is_disabled":false,"rental_uris":{"android":"levelo://app?vid=38c1adea-6867-4940-9699-a628b1958570","ios":"levelo://app?vid=38c1adea-6867-4940-9699-a628b1958570"},"vehicle_type_id":"4","last_reported":1691186761,"current_range_meters":30400,"station_id":"ce4bhr92rcd13ifvqhrg","pricing_plan_id":"free"},{"bike_id":"05bf2cc0-c80b-4d3b-9303-5cea93148e89","system_id":"levelo_inurba_marseille","lat":43.290995,"lon":5.381361,"is_reserved":false,"is_disabled":false,"rental_uris":{"android":"levelo://app?vid=05bf2cc0-c80b-4d3b-9303-5cea93148e89","ios":"levelo://app?vid=05bf2cc0-c80b-4d3b-9303-5cea93148e89"},"vehicle_type_id":"4","last_reported":1691186761,"current_range_meters":31200,"station_id":"ce4bh512rcd13ifvqe2g","pricing_plan_id":"free"},{"bike_id":"c79895e2-3379-4763-bbba-e56faa4e56c4","system_id":"levelo_inurba_marseille","lat":43.295169,"lon":5.390426,"is_reserved":false,"is_disabled":false,"rental_uris":{"android":"levelo://app?vid=c79895e2-3379-4763-bbba-e56faa4e56c4","ios":"levelo://app?vid=c79895e2-3379-4763-bbba-e56faa4e56c4"},"vehicle_type_id":"4","last_reported":1691186761,"current_range_meters":6800,"station_id":"ce4bh3p2rcd13ifvqdp0","pricing_plan_id":"free"},{"bike_id":"d3f12c7e-752f-452f-9c38-04733288fcd7","system_id":"levelo_inurba_marseille","lat":43.297815,"lon":5.393548,"is_reserved":false,"is_disabled":false,"rental_uris":{"android":"levelo://app?vid=d3f12c7e-752f-452f-9c38-04733288fcd7","ios":"levelo://app?vid=d3f12c7e-752f-452f-9c38-04733288fcd7"},"vehicle_type_id":"4","last_reported":1691186761,"current_range_meters":19200,"station_id":"chh1huq6cuj3fo74tm60","pricing_plan_id":"free"},{"bike_id":"8522cdc4-dfc5-40dc-8c2e-f9381a8d42cf","system_id":"levelo_inurba_marseille","lat":43.289741,"lon":5.378306,"is_reserved":false,"is_disabled":false,"rental_uris":{"android":"levelo://app?vid=8522cdc4-dfc5-40dc-8c2e-f9381a8d42cf","ios":"levelo://app?vid=8522cdc4-dfc5-40dc-8c2e-f9381a8d42cf"},"vehicle_type_id":"4","last_reported":1691186761,"current_range_meters":0,"station_id":"ce4bh9p2rcd13ifvqed0","pricing_plan_id":"free"},{"bike_id":"a726a99f-f654-4ca3-a14d-29b0cb2c7782","system_id":"levelo_inurba_marseille","lat":43.28856,"lon":5.358371,"is_reserved":false,"is_disabled":false,"rental_uris":{"android":"levelo://app?vid=a726a99f-f654-4ca3-a14d-29b0cb2c7782","ios":"levelo://app?vid=a726a99f-f654-4ca3-a14d-29b0cb2c7782"},"vehicle_type_id":"4","last_reported":1691186761,"current_range_meters":30400,"station_id":"ce4bhb12rcd13ifvqem0","pricing_plan_id":"free"},{"bike_id":"837bc7b0-c1ba-4e76-a7f8-61e96b69dd62","system_id":"levelo_inurba_marseille","lat":43.312609,"lon":5.401662,"is_reserved":false,"is_disabled":false,"rental_uris":{"android":"levelo://app?vid=837bc7b0-c1ba-4e76-a7f8-61e96b69dd62","ios":"levelo://app?vid=837bc7b0-c1ba-4e76-a7f8-61e96b69dd62"},"vehicle_type_id":"4","last_reported":1691186761,"current_range_meters":6400,"station_id":"ce4bh092rcd13ifvqd30","pricing_plan_id":"free"},{"bike_id":"0228781c-7e98-4936-9ba8-04a16d87665c","system_id":"levelo_inurba_marseille","lat":43.30926,"lon":5.40145,"is_reserved":false,"is_disabled":false,"rental_uris":{"android":"levelo://app?vid=0228781c-7e98-4936-9ba8-04a16d87665c","ios":"levelo://app?vid=0228781c-7e98-4936-9ba8-04a16d87665c"},"vehicle_type_id":"4","last_reported":1691186761,"current_range_meters":29200,"station_id":"ce4bgvp2rcd13ifvqct0","pricing_plan_id":"free"},{"bike_id":"a856a9bf-2914-4d99-b110-0ae70d1373ec","system_id":"levelo_inurba_marseille","lat":43.3376,"lon":5.37484,"is_reserved":false,"is_disabled":false,"rental_uris":{"android":"levelo://app?vid=a856a9bf-2914-4d99-b110-0ae70d1373ec","ios":"levelo://app?vid=a856a9bf-2914-4d99-b110-0ae70d1373ec"},"vehicle_type_id":"4","last_reported":1691186761,"current_range_meters":22800,"station_id":"","pricing_plan_id":"free"},{"bike_id":"48578556-b071-4d21-86bb-bac4227bac88","system_id":"levelo_inurba_marseille","lat":43.30641,"lon":5.40092,"is_reserved":false,"is_disabled":false,"rental_uris":{"android":"levelo://app?vid=48578556-b071-4d21-86bb-bac4227bac88","ios":"levelo://app?vid=48578556-b071-4d21-86bb-bac4227bac88"},"vehicle_type_id":"4","last_reported":1691186761,"current_range_meters":5200,"station_id":"ce4bh112rcd13ifvqda0","pricing_plan_id":"free"},{"bike_id":"79b8938e-bb39-4b06-86be-fedead68aef5","system_id":"levelo_inurba_marseille","lat":43.29124,"lon":5.3874,"is_reserved":false,"is_disabled":false,"rental_uris":{"android":"levelo://app?vid=79b8938e-bb39-4b06-86be-fedead68aef5","ios":"levelo://app?vid=79b8938e-bb39-4b06-86be-fedead68aef5"},"vehicle_type_id":"4","last_reported":1691186761,"current_range_meters":20400,"station_id":"","pricing_plan_id":"free"},{"bike_id":"2e1a4850-62c8-4de1-afb8-a871a4aef3dc","system_id":"levelo_inurba_marseille","lat":43.28668,"lon":5.3635,"is_reserved":false,"is_disabled":false,"rental_uris":{"android":"levelo://app?vid=2e1a4850-62c8-4de1-afb8-a871a4aef3dc","ios":"levelo://app?vid=2e1a4850-62c8-4de1-afb8-a871a4aef3dc"},"vehicle_type_id":"4","last_reported":1691186761,"current_range_meters":17600,"station_id":"ce4bhah2rcd13ifvqej0","pricing_plan_id":"free"},{"bike_id":"9d996b18-ec5a-4565-a82a-797c6900c09b","system_id":"levelo_inurba_marseille","lat":43.28703,"lon":5.37371,"is_reserved":false,"is_disabled":false,"rental_uris":{"android":"levelo://app?vid=9d996b18-ec5a-4565-a82a-797c6900c09b","ios":"levelo://app?vid=9d996b18-ec5a-4565-a82a-797c6900c09b"},"vehicle_type_id":"4","last_reported":1691186761,"current_range_meters":20000,"station_id":"ce4bh3p2rcd13ifvqdq0","pricing_plan_id":"free"},{"bike_id":"a00f23d6-87da-4807-91a4-0e2bebaabde4","system_id":"levelo_inurba_marseille","lat":43.28667,"lon":5.3636,"is_reserved":false,"is_disabled":false,"rental_uris":{"android":"levelo://app?vid=a00f23d6-87da-4807-91a4-0e2bebaabde4","ios":"levelo://app?vid=a00f23d6-87da-4807-91a4-0e2bebaabde4"},"vehicle_type_id":"4","last_reported":1691186761,"current_range_meters":26800,"station_id":"ce4bhah2rcd13ifvqej0","pricing_plan_id":"free"},{"bike_id":"229576ff-f1ab-414d-972a-8628d12a1668","system_id":"levelo_inurba_marseille","lat":43.28667,"lon":5.36356,"is_reserved":false,"is_disabled":false,"rental_uris":{"android":"levelo://app?vid=229576ff-f1ab-414d-972a-8628d12a1668","ios":"levelo://app?vid=229576ff-f1ab-414d-972a-8628d12a1668"},"vehicle_type_id":"4","last_reported":1691186761,"current_range_meters":29600,"station_id":"ce4bhah2rcd13ifvqej0","pricing_plan_id":"free"},{"bike_id":"75199276-b705-4ad7-b6a9-49aeaa84628a","system_id":"levelo_inurba_marseille","lat":43.286591,"lon":5.363346,"is_reserved":false,"is_disabled":false,"rental_uris":{"android":"levelo://app?vid=75199276-b705-4ad7-b6a9-49aeaa84628a","ios":"levelo://app?vid=75199276-b705-4ad7-b6a9-49aeaa84628a"},"vehicle_type_id":"4","last_reported":1691186761,"current_range_meters":31200,"station_id":"ce4bhah2rcd13ifvqej0","pricing_plan_id":"free"},{"bike_id":"3184c2e8-a58f-4c91-b740-5c54bbaaff2c","system_id":"levelo_inurba_marseille","lat":43.286961,"lon":5.373785,"is_reserved":false,"is_disabled":false,"rental_uris":{"android":"levelo://app?vid=3184c2e8-a58f-4c91-b740-5c54bbaaff2c","ios":"levelo://app?vid=3184c2e8-a58f-4c91-b740-5c54bbaaff2c"},"vehicle_type_id":"4","last_reported":1691186761,"current_range_meters":22800,"station_id":"ce4bh3p2rcd13ifvqdq0","pricing_plan_id":"free"},{"bike_id":"f81b5a42-3261-49eb-982a-81c43fcdf8fb","system_id":"levelo_inurba_marseille","lat":43.2866,"lon":5.36352,"is_reserved":false,"is_disabled":false,"rental_uris":{"android":"levelo://app?vid=f81b5a42-3261-49eb-982a-81c43fcdf8fb","ios":"levelo://app?vid=f81b5a42-3261-49eb-982a-81c43fcdf8fb"},"vehicle_type_id":"4","last_reported":1691186761,"current_range_meters":9200,"station_id":"ce4bhah2rcd13ifvqej0","pricing_plan_id":"free"},{"bike_id":"64b7290f-5365-4703-9148-a60bd5bdceb3","system_id":"levelo_inurba_marseille","lat":43.28696,"lon":5.37385,"is_reserved":false,"is_disabled":false,"rental_uris":{"android":"levelo://app?vid=64b7290f-5365-4703-9148-a60bd5bdceb3","ios":"levelo://app?vid=64b7290f-5365-4703-9148-a60bd5bdceb3"},"vehicle_type_id":"4","last_reported":1691186761,"current_range_meters":31200,"station_id":"ce4bh3p2rcd13ifvqdq0","pricing_plan_id":"free"},{"bike_id":"87af49aa-0785-4dce-8d5f-07f53d6e3076","system_id":"levelo_inurba_marseille","lat":43.294162,"lon":5.386292,"is_reserved":false,"is_disabled":false,"rental_uris":{"android":"levelo://app?vid=87af49aa-0785-4dce-8d5f-07f53d6e3076","ios":"levelo://app?vid=87af49aa-0785-4dce-8d5f-07f53d6e3076"},"vehicle_type_id":"4","last_reported":1691186761,"current_range_meters":30400,"station_id":"ce4bh2h2rcd13ifvqdh0","pricing_plan_id":"free"},{"bike_id":"7b9e2d57-7c2f-4652-8ec0-ee4d147afe24","system_id":"levelo_inurba_marseille","lat":43.302548,"lon":5.400568,"is_reserved":false,"is_disabled":false,"rental_uris":{"android":"levelo://app?vid=7b9e2d57-7c2f-4652-8ec0-ee4d147afe24","ios":"levelo://app?vid=7b9e2d57-7c2f-4652-8ec0-ee4d147afe24"},"vehicle_type_id":"4","last_reported":1691186761,"current_range_meters":13200,"station_id":"","pricing_plan_id":"free"},{"bike_id":"a4b4045c-45e9-4120-9944-16b029c8bc9d","system_id":"levelo_inurba_marseille","lat":43.302759,"lon":5.400793,"is_reserved":false,"is_disabled":false,"rental_uris":{"android":"levelo://app?vid=a4b4045c-45e9-4120-9944-16b029c8bc9d","ios":"levelo://app?vid=a4b4045c-45e9-4120-9944-16b029c8bc9d"},"vehicle_type_id":"4","last_reported":1691186761,"current_range_meters":0,"station_id":"ce4bgvh2rcd13ifvqcs0","pricing_plan_id":"free"},{"bike_id":"59d9766e-5d36-4bcd-a4f4-a9a457375cc4","system_id":"levelo_inurba_marseille","lat":43.302759,"lon":5.400793,"is_reserved":false,"is_disabled":false,"rental_uris":{"android":"levelo://app?vid=59d9766e-5d36-4bcd-a4f4-a9a457375cc4","ios":"levelo://app?vid=59d9766e-5d36-4bcd-a4f4-a9a457375cc4"},"vehicle_type_id":"4","last_reported":1691186761,"current_range_meters":30400,"station_id":"ce4bgvh2rcd13ifvqcs0","pricing_plan_id":"free"},{"bike_id":"efd1ec74-2ae0-40a6-8657-4a317573016c","system_id":"levelo_inurba_marseille","lat":43.302759,"lon":5.400793,"is_reserved":false,"is_disabled":false,"rental_uris":{"android":"levelo://app?vid=efd1ec74-2ae0-40a6-8657-4a317573016c","ios":"levelo://app?vid=efd1ec74-2ae0-40a6-8657-4a317573016c"},"vehicle_type_id":"4","last_reported":1691186761,"current_range_meters":12000,"station_id":"ce4bgvh2rcd13ifvqcs0","pricing_plan_id":"free"},{"bike_id":"9bb53c52-97ce-4041-90d2-629c9d2825cc","system_id":"levelo_inurba_marseille","lat":43.302759,"lon":5.400793,"is_reserved":false,"is_disabled":false,"rental_uris":{"android":"levelo://app?vid=9bb53c52-97ce-4041-90d2-629c9d2825cc","ios":"levelo://app?vid=9bb53c52-97ce-4041-90d2-629c9d2825cc"},"vehicle_type_id":"4","last_reported":1691186761,"current_range_meters":31200,"station_id":"ce4bgvh2rcd13ifvqcs0","pricing_plan_id":"free"},{"bike_id":"7d68efc2-9a29-417d-8ff0-2a2378eba68e","system_id":"levelo_inurba_marseille","lat":43.302759,"lon":5.400793,"is_reserved":false,"is_disabled":false,"rental_uris":{"android":"levelo://app?vid=7d68efc2-9a29-417d-8ff0-2a2378eba68e","ios":"levelo://app?vid=7d68efc2-9a29-417d-8ff0-2a2378eba68e"},"vehicle_type_id":"4","last_reported":1691186761,"current_range_meters":22800,"station_id":"ce4bgvh2rcd13ifvqcs0","pricing_plan_id":"free"},{"bike_id":"61504d3f-ffd5-4788-bd20-edd45ac73cd7","system_id":"levelo_inurba_marseille","lat":43.302759,"lon":5.400793,"is_reserved":false,"is_disabled":false,"rental_uris":{"android":"levelo://app?vid=61504d3f-ffd5-4788-bd20-edd45ac73cd7","ios":"levelo://app?vid=61504d3f-ffd5-4788-bd20-edd45ac73cd7"},"vehicle_type_id":"4","last_reported":1691186761,"current_range_meters":0,"station_id":"ce4bgvh2rcd13ifvqcs0","pricing_plan_id":"free"},{"bike_id":"90dc1d37-e32f-495e-8b09-d6aeb17d224d","system_id":"levelo_inurba_marseille","lat":43.302759,"lon":5.400793,"is_reserved":false,"is_disabled":false,"rental_uris":{"android":"levelo://app?vid=90dc1d37-e32f-495e-8b09-d6aeb17d224d","ios":"levelo://app?vid=90dc1d37-e32f-495e-8b09-d6aeb17d224d"},"vehicle_type_id":"4","last_reported":1691186761,"current_range_meters":28400,"station_id":"ce4bgvh2rcd13ifvqcs0","pricing_plan_id":"free"},{"bike_id":"4ae0059c-5a2d-426a-afef-aa8fe1206bc1","system_id":"levelo_inurba_marseille","lat":43.286039,"lon":5.370681,"is_reserved":false,"is_disabled":false,"rental_uris":{"android":"levelo://app?vid=4ae0059c-5a2d-426a-afef-aa8fe1206bc1","ios":"levelo://app?vid=4ae0059c-5a2d-426a-afef-aa8fe1206bc1"},"vehicle_type_id":"4","last_reported":1691186761,"current_range_meters":22800,"station_id":"ce4bht12rcd13ifvqi60","pricing_plan_id":"free"},{"bike_id":"1ff56fe0-1501-4c41-9474-66cb2f3126bd","system_id":"levelo_inurba_marseille","lat":43.2861,"lon":5.3706,"is_reserved":false,"is_disabled":false,"rental_uris":{"android":"levelo://app?vid=1ff56fe0-1501-4c41-9474-66cb2f3126bd","ios":"levelo://app?vid=1ff56fe0-1501-4c41-9474-66cb2f3126bd"},"vehicle_type_id":"4","last_reported":1691186761,"current_range_meters":31200,"station_id":"","pricing_plan_id":"free"},{"bike_id":"6b7c5fe9-b3fb-4058-9b1c-ee4059ab0f77","system_id":"levelo_inurba_marseille","lat":43.28609,"lon":5.37064,"is_reserved":false,"is_disabled":false,"rental_uris":{"android":"levelo://app?vid=6b7c5fe9-b3fb-4058-9b1c-ee4059ab0f77","ios":"levelo://app?vid=6b7c5fe9-b3fb-4058-9b1c-ee4059ab0f77"},"vehicle_type_id":"4","last_reported":1691186761,"current_range_meters":24800,"station_id":"ce4bht12rcd13ifvqi60","pricing_plan_id":"free"},{"bike_id":"2505ec1e-c8d9-40d9-9a56-b5650062f6ff","system_id":"levelo_inurba_marseille","lat":43.286039,"lon":5.370679,"is_reserved":false,"is_disabled":false,"rental_uris":{"android":"levelo://app?vid=2505ec1e-c8d9-40d9-9a56-b5650062f6ff","ios":"levelo://app?vid=2505ec1e-c8d9-40d9-9a56-b5650062f6ff"},"vehicle_type_id":"4","last_reported":1691186761,"current_range_meters":10800,"station_id":"ce4bht12rcd13ifvqi60","pricing_plan_id":"free"},{"bike_id":"4e8b7604-21c5-4b03-b1d8-adbb54796284","system_id":"levelo_inurba_marseille","lat":43.286039,"lon":5.370681,"is_reserved":false,"is_disabled":false,"rental_uris":{"android":"levelo://app?vid=4e8b7604-21c5-4b03-b1d8-adbb54796284","ios":"levelo://app?vid=4e8b7604-21c5-4b03-b1d8-adbb54796284"},"vehicle_type_id":"4","last_reported":1691186761,"current_range_meters":19600,"station_id":"ce4bht12rcd13ifvqi60","pricing_plan_id":"free"},{"bike_id":"0eec8b1c-8c3d-43c2-ade4-dab3902c07e9","system_id":"levelo_inurba_marseille","lat":43.286039,"lon":5.370679,"is_reserved":false,"is_disabled":false,"rental_uris":{"android":"levelo://app?vid=0eec8b1c-8c3d-43c2-ade4-dab3902c07e9","ios":"levelo://app?vid=0eec8b1c-8c3d-43c2-ade4-dab3902c07e9"},"vehicle_type_id":"4","last_reported":1691186761,"current_range_meters":24400,"station_id":"ce4bht12rcd13ifvqi60","pricing_plan_id":"free"},{"bike_id":"cd7a2267-7185-49e4-ba8a-881779b82d43","system_id":"levelo_inurba_marseille","lat":43.287184,"lon":5.37937,"is_reserved":false,"is_disabled":false,"rental_uris":{"android":"levelo://app?vid=cd7a2267-7185-49e4-ba8a-881779b82d43","ios":"levelo://app?vid=cd7a2267-7185-49e4-ba8a-881779b82d43"},"vehicle_type_id":"4","last_reported":1691186761,"current_range_meters":30000,"station_id":"ce4bh9p2rcd13ifvqec0","pricing_plan_id":"free"},{"bike_id":"7e9b54df-1ab6-47db-a05a-b5751e872ad5","system_id":"levelo_inurba_marseille","lat":43.31646,"lon":5.40422,"is_reserved":false,"is_disabled":false,"rental_uris":{"android":"levelo://app?vid=7e9b54df-1ab6-47db-a05a-b5751e872ad5","ios":"levelo://app?vid=7e9b54df-1ab6-47db-a05a-b5751e872ad5"},"vehicle_type_id":"4","last_reported":1691186761,"current_range_meters":0,"station_id":"","pricing_plan_id":"free"},{"bike_id":"f4e5f28d-483b-44cd-bd4c-c0b5581ecbcc","system_id":"levelo_inurba_marseille","lat":43.31647,"lon":5.40444,"is_reserved":false,"is_disabled":false,"rental_uris":{"android":"levelo://app?vid=f4e5f28d-483b-44cd-bd4c-c0b5581ecbcc","ios":"levelo://app?vid=f4e5f28d-483b-44cd-bd4c-c0b5581ecbcc"},"vehicle_type_id":"4","last_reported":1691186761,"current_range_meters":22400,"station_id":"ce4bh012rcd13ifvqd00","pricing_plan_id":"free"},{"bike_id":"a18805c9-4611-4104-b6da-89f81415d370","system_id":"levelo_inurba_marseille","lat":43.291994,"lon":5.392907,"is_reserved":false,"is_disabled":false,"rental_uris":{"android":"levelo://app?vid=a18805c9-4611-4104-b6da-89f81415d370","ios":"levelo://app?vid=a18805c9-4611-4104-b6da-89f81415d370"},"vehicle_type_id":"4","last_reported":1691186761,"current_range_meters":9600,"station_id":"ce4bh192rcd13ifvqdd0","pricing_plan_id":"free"},{"bike_id":"fcbd725e-5f79-4c54-bbde-ce9604836629","system_id":"levelo_inurba_marseille","lat":43.291994,"lon":5.392907,"is_reserved":false,"is_disabled":false,"rental_uris":{"android":"levelo://app?vid=fcbd725e-5f79-4c54-bbde-ce9604836629","ios":"levelo://app?vid=fcbd725e-5f79-4c54-bbde-ce9604836629"},"vehicle_type_id":"4","last_reported":1691186761,"current_range_meters":14400,"station_id":"ce4bh192rcd13ifvqdd0","pricing_plan_id":"free"},{"bike_id":"49aa7150-f1b6-4b1b-8324-0830455155b2","system_id":"levelo_inurba_marseille","lat":43.291994,"lon":5.392907,"is_reserved":false,"is_disabled":false,"rental_uris":{"android":"levelo://app?vid=49aa7150-f1b6-4b1b-8324-0830455155b2","ios":"levelo://app?vid=49aa7150-f1b6-4b1b-8324-0830455155b2"},"vehicle_type_id":"4","last_reported":1691186761,"current_range_meters":28400,"station_id":"ce4bh192rcd13ifvqdd0","pricing_plan_id":"free"},{"bike_id":"f16295a6-5770-4052-9f0f-b2278c7e7c5b","system_id":"levelo_inurba_marseille","lat":43.291994,"lon":5.392907,"is_reserved":false,"is_disabled":false,"rental_uris":{"android":"levelo://app?vid=f16295a6-5770-4052-9f0f-b2278c7e7c5b","ios":"levelo://app?vid=f16295a6-5770-4052-9f0f-b2278c7e7c5b"},"vehicle_type_id":"4","last_reported":1691186761,"current_range_meters":6400,"station_id":"ce4bh192rcd13ifvqdd0","pricing_plan_id":"free"},{"bike_id":"7ee3fcb2-0697-4eba-a27c-c3268de8c124","system_id":"levelo_inurba_marseille","lat":43.291994,"lon":5.392907,"is_reserved":false,"is_disabled":false,"rental_uris":{"android":"levelo://app?vid=7ee3fcb2-0697-4eba-a27c-c3268de8c124","ios":"levelo://app?vid=7ee3fcb2-0697-4eba-a27c-c3268de8c124"},"vehicle_type_id":"4","last_reported":1691186761,"current_range_meters":9600,"station_id":"ce4bh192rcd13ifvqdd0","pricing_plan_id":"free"},{"bike_id":"128d90e4-d959-43f1-99a9-f78b7c721472","system_id":"levelo_inurba_marseille","lat":43.28464,"lon":5.35896,"is_reserved":false,"is_disabled":false,"rental_uris":{"android":"levelo://app?vid=128d90e4-d959-43f1-99a9-f78b7c721472","ios":"levelo://app?vid=128d90e4-d959-43f1-99a9-f78b7c721472"},"vehicle_type_id":"4","last_reported":1691186761,"current_range_meters":0,"station_id":"ce4bhah2rcd13ifvqei0","pricing_plan_id":"free"},{"bike_id":"7b78d55e-e99c-4fa7-968a-c672d6912f00","system_id":"levelo_inurba_marseille","lat":43.284534,"lon":5.358662,"is_reserved":false,"is_disabled":false,"rental_uris":{"android":"levelo://app?vid=7b78d55e-e99c-4fa7-968a-c672d6912f00","ios":"levelo://app?vid=7b78d55e-e99c-4fa7-968a-c672d6912f00"},"vehicle_type_id":"4","last_reported":1691186761,"current_range_meters":31200,"station_id":"ce4bhah2rcd13ifvqei0","pricing_plan_id":"free"},{"bike_id":"c61e7cb0-9f1a-41c5-833a-618d1b958100","system_id":"levelo_inurba_marseille","lat":43.294314,"lon":5.397498,"is_reserved":false,"is_disabled":false,"rental_uris":{"android":"levelo://app?vid=c61e7cb0-9f1a-41c5-833a-618d1b958100","ios":"levelo://app?vid=c61e7cb0-9f1a-41c5-833a-618d1b958100"},"vehicle_type_id":"4","last_reported":1691186761,"current_range_meters":22800,"station_id":"ce4bh3h2rcd13ifvqdo0","pricing_plan_id":"free"},{"bike_id":"dbe743a2-c332-4e6f-a34c-65180d8277d4","system_id":"levelo_inurba_marseille","lat":43.285856,"lon":5.350771,"is_reserved":false,"is_disabled":false,"rental_uris":{"android":"levelo://app?vid=dbe743a2-c332-4e6f-a34c-65180d8277d4","ios":"levelo://app?vid=dbe743a2-c332-4e6f-a34c-65180d8277d4"},"vehicle_type_id":"4","last_reported":1691186761,"current_range_meters":31200,"station_id":"ce4bhch2rcd13ifvqeug","pricing_plan_id":"free"},{"bike_id":"bbd13f55-12c2-40b4-90d3-ce7dc7beb321","system_id":"levelo_inurba_marseille","lat":43.28617,"lon":5.35099,"is_reserved":false,"is_disabled":false,"rental_uris":{"android":"levelo://app?vid=bbd13f55-12c2-40b4-90d3-ce7dc7beb321","ios":"levelo://app?vid=bbd13f55-12c2-40b4-90d3-ce7dc7beb321"},"vehicle_type_id":"4","last_reported":1691186761,"current_range_meters":31200,"station_id":"ce4bhch2rcd13ifvqeug","pricing_plan_id":"free"},{"bike_id":"0e7d2016-fe2b-43a2-9645-5489c8f1407f","system_id":"levelo_inurba_marseille","lat":43.285856,"lon":5.350771,"is_reserved":false,"is_disabled":false,"rental_uris":{"android":"levelo://app?vid=0e7d2016-fe2b-43a2-9645-5489c8f1407f","ios":"levelo://app?vid=0e7d2016-fe2b-43a2-9645-5489c8f1407f"},"vehicle_type_id":"4","last_reported":1691186761,"current_range_meters":3600,"station_id":"ce4bhch2rcd13ifvqeug","pricing_plan_id":"free"},{"bike_id":"5a07aa9b-c055-46cf-8555-b108d94f315d","system_id":"levelo_inurba_marseille","lat":43.28612,"lon":5.351,"is_reserved":false,"is_disabled":false,"rental_uris":{"android":"levelo://app?vid=5a07aa9b-c055-46cf-8555-b108d94f315d","ios":"levelo://app?vid=5a07aa9b-c055-46cf-8555-b108d94f315d"},"vehicle_type_id":"4","last_reported":1691186761,"current_range_meters":31200,"station_id":"ce4bhch2rcd13ifvqeug","pricing_plan_id":"free"},{"bike_id":"e08ed269-96f4-4540-ab3b-b32fbaabafd7","system_id":"levelo_inurba_marseille","lat":43.2842,"lon":5.37522,"is_reserved":false,"is_disabled":false,"rental_uris":{"android":"levelo://app?vid=e08ed269-96f4-4540-ab3b-b32fbaabafd7","ios":"levelo://app?vid=e08ed269-96f4-4540-ab3b-b32fbaabafd7"},"vehicle_type_id":"4","last_reported":1691186761,"current_range_meters":4000,"station_id":"ce4bh412rcd13ifvqds0","pricing_plan_id":"free"},{"bike_id":"29518e83-fc56-4796-bdcb-88da9852e725","system_id":"levelo_inurba_marseille","lat":43.295713,"lon":5.399639,"is_reserved":false,"is_disabled":false,"rental_uris":{"android":"levelo://app?vid=29518e83-fc56-4796-bdcb-88da9852e725","ios":"levelo://app?vid=29518e83-fc56-4796-bdcb-88da9852e725"},"vehicle_type_id":"4","last_reported":1691186761,"current_range_meters":26000,"station_id":"ce4bh312rcd13ifvqdj0","pricing_plan_id":"free"},{"bike_id":"3d773967-fcc6-45b7-b3d0-abe1c4288490","system_id":"levelo_inurba_marseille","lat":43.295713,"lon":5.399639,"is_reserved":false,"is_disabled":false,"rental_uris":{"android":"levelo://app?vid=3d773967-fcc6-45b7-b3d0-abe1c4288490","ios":"levelo://app?vid=3d773967-fcc6-45b7-b3d0-abe1c4288490"},"vehicle_type_id":"4","last_reported":1691186761,"current_range_meters":13200,"station_id":"ce4bh312rcd13ifvqdj0","pricing_plan_id":"free"},{"bike_id":"2ed1c534-9963-402c-8c9e-3a341b581923","system_id":"levelo_inurba_marseille","lat":43.295713,"lon":5.399639,"is_reserved":false,"is_disabled":false,"rental_uris":{"android":"levelo://app?vid=2ed1c534-9963-402c-8c9e-3a341b581923","ios":"levelo://app?vid=2ed1c534-9963-402c-8c9e-3a341b581923"},"vehicle_type_id":"4","last_reported":1691186761,"current_range_meters":0,"station_id":"ce4bh312rcd13ifvqdj0","pricing_plan_id":"free"},{"bike_id":"1470db20-6528-44b5-bfd3-e8ca1226ff70","system_id":"levelo_inurba_marseille","lat":43.283998,"lon":5.375062,"is_reserved":false,"is_disabled":false,"rental_uris":{"android":"levelo://app?vid=1470db20-6528-44b5-bfd3-e8ca1226ff70","ios":"levelo://app?vid=1470db20-6528-44b5-bfd3-e8ca1226ff70"},"vehicle_type_id":"4","last_reported":1691186761,"current_range_meters":3200,"station_id":"ce4bh412rcd13ifvqds0","pricing_plan_id":"free"},{"bike_id":"2e1b1466-c8ae-449a-95f3-3dedae0239d1","system_id":"levelo_inurba_marseille","lat":43.286595,"lon":5.386795,"is_reserved":false,"is_disabled":false,"rental_uris":{"android":"levelo://app?vid=2e1b1466-c8ae-449a-95f3-3dedae0239d1","ios":"levelo://app?vid=2e1b1466-c8ae-449a-95f3-3dedae0239d1"},"vehicle_type_id":"4","last_reported":1691186761,"current_range_meters":18400,"station_id":"ce4bh492rcd13ifvqdug","pricing_plan_id":"free"},{"bike_id":"fd8d2354-0817-4a67-af7d-23e5ee9f2c95","system_id":"levelo_inurba_marseille","lat":43.319179,"lon":5.407725,"is_reserved":false,"is_disabled":false,"rental_uris":{"android":"levelo://app?vid=fd8d2354-0817-4a67-af7d-23e5ee9f2c95","ios":"levelo://app?vid=fd8d2354-0817-4a67-af7d-23e5ee9f2c95"},"vehicle_type_id":"4","last_reported":1691186761,"current_range_meters":30000,"station_id":"ce4bhq12rcd13ifvqhig","pricing_plan_id":"free"},{"bike_id":"430c2063-ded1-4339-9309-d962bc415bc7","system_id":"levelo_inurba_marseille","lat":43.31893,"lon":5.40736,"is_reserved":false,"is_disabled":false,"rental_uris":{"android":"levelo://app?vid=430c2063-ded1-4339-9309-d962bc415bc7","ios":"levelo://app?vid=430c2063-ded1-4339-9309-d962bc415bc7"},"vehicle_type_id":"4","last_reported":1691186761,"current_range_meters":30800,"station_id":"ce4bhq12rcd13ifvqhig","pricing_plan_id":"free"},{"bike_id":"1f5722b0-5667-43f6-9dad-3a3b818c5a69","system_id":"levelo_inurba_marseille","lat":43.33718,"lon":5.39176,"is_reserved":false,"is_disabled":false,"rental_uris":{"android":"levelo://app?vid=1f5722b0-5667-43f6-9dad-3a3b818c5a69","ios":"levelo://app?vid=1f5722b0-5667-43f6-9dad-3a3b818c5a69"},"vehicle_type_id":"4","last_reported":1691186761,"current_range_meters":30000,"station_id":"ce4bhr92rcd13ifvqhsg","pricing_plan_id":"free"},{"bike_id":"f18b4051-8145-4f33-aee1-6f539e29d721","system_id":"levelo_inurba_marseille","lat":43.33719,"lon":5.39176,"is_reserved":false,"is_disabled":false,"rental_uris":{"android":"levelo://app?vid=f18b4051-8145-4f33-aee1-6f539e29d721","ios":"levelo://app?vid=f18b4051-8145-4f33-aee1-6f539e29d721"},"vehicle_type_id":"4","last_reported":1691186761,"current_range_meters":17600,"station_id":"ce4bhr92rcd13ifvqhsg","pricing_plan_id":"free"},{"bike_id":"c59f30af-b7c9-4762-b544-56156d6a8a97","system_id":"levelo_inurba_marseille","lat":43.33718,"lon":5.39178,"is_reserved":false,"is_disabled":false,"rental_uris":{"android":"levelo://app?vid=c59f30af-b7c9-4762-b544-56156d6a8a97","ios":"levelo://app?vid=c59f30af-b7c9-4762-b544-56156d6a8a97"},"vehicle_type_id":"4","last_reported":1691186761,"current_range_meters":21200,"station_id":"ce4bhr92rcd13ifvqhsg","pricing_plan_id":"free"},{"bike_id":"8e4ab4c7-b2dc-4e74-b07d-1ff49a416721","system_id":"levelo_inurba_marseille","lat":43.33718,"lon":5.39179,"is_reserved":false,"is_disabled":false,"rental_uris":{"android":"levelo://app?vid=8e4ab4c7-b2dc-4e74-b07d-1ff49a416721","ios":"levelo://app?vid=8e4ab4c7-b2dc-4e74-b07d-1ff49a416721"},"vehicle_type_id":"4","last_reported":1691186761,"current_range_meters":17600,"station_id":"ce4bhr92rcd13ifvqhsg","pricing_plan_id":"free"},{"bike_id":"a9671d69-2a62-4abb-9d98-78ee12b6b2d8","system_id":"levelo_inurba_marseille","lat":43.33712,"lon":5.39195,"is_reserved":false,"is_disabled":false,"rental_uris":{"android":"levelo://app?vid=a9671d69-2a62-4abb-9d98-78ee12b6b2d8","ios":"levelo://app?vid=a9671d69-2a62-4abb-9d98-78ee12b6b2d8"},"vehicle_type_id":"4","last_reported":1691186761,"current_range_meters":10400,"station_id":"ce4bhr92rcd13ifvqhsg","pricing_plan_id":"free"},{"bike_id":"fd53760a-588f-4760-9d7f-55ef57100aaa","system_id":"levelo_inurba_marseille","lat":43.33721,"lon":5.3918,"is_reserved":false,"is_disabled":false,"rental_uris":{"android":"levelo://app?vid=fd53760a-588f-4760-9d7f-55ef57100aaa","ios":"levelo://app?vid=fd53760a-588f-4760-9d7f-55ef57100aaa"},"vehicle_type_id":"4","last_reported":1691186761,"current_range_meters":12400,"station_id":"ce4bhr92rcd13ifvqhsg","pricing_plan_id":"free"},{"bike_id":"65e7209e-43de-4472-85bf-edccad84c81f","system_id":"levelo_inurba_marseille","lat":43.33721,"lon":5.39184,"is_reserved":false,"is_disabled":false,"rental_uris":{"android":"levelo://app?vid=65e7209e-43de-4472-85bf-edccad84c81f","ios":"levelo://app?vid=65e7209e-43de-4472-85bf-edccad84c81f"},"vehicle_type_id":"4","last_reported":1691186761,"current_range_meters":25600,"station_id":"ce4bhr92rcd13ifvqhsg","pricing_plan_id":"free"},{"bike_id":"9be39f6c-974f-4a4e-90c3-357a4d8fdcc8","system_id":"levelo_inurba_marseille","lat":43.323464,"lon":5.406297,"is_reserved":false,"is_disabled":false,"rental_uris":{"android":"levelo://app?vid=9be39f6c-974f-4a4e-90c3-357a4d8fdcc8","ios":"levelo://app?vid=9be39f6c-974f-4a4e-90c3-357a4d8fdcc8"},"vehicle_type_id":"4","last_reported":1691186761,"current_range_meters":30000,"station_id":"ce4bhq92rcd13ifvqhjg","pricing_plan_id":"free"},{"bike_id":"9d8dc018-8295-487e-aae9-79ce0f469cdf","system_id":"levelo_inurba_marseille","lat":43.33726,"lon":5.39176,"is_reserved":false,"is_disabled":false,"rental_uris":{"android":"levelo://app?vid=9d8dc018-8295-487e-aae9-79ce0f469cdf","ios":"levelo://app?vid=9d8dc018-8295-487e-aae9-79ce0f469cdf"},"vehicle_type_id":"4","last_reported":1691186761,"current_range_meters":24000,"station_id":"ce4bhr92rcd13ifvqhsg","pricing_plan_id":"free"},{"bike_id":"939edbe6-adcc-4f97-ad69-99748df4073d","system_id":"levelo_inurba_marseille","lat":43.33726,"lon":5.39179,"is_reserved":false,"is_disabled":false,"rental_uris":{"android":"levelo://app?vid=939edbe6-adcc-4f97-ad69-99748df4073d","ios":"levelo://app?vid=939edbe6-adcc-4f97-ad69-99748df4073d"},"vehicle_type_id":"4","last_reported":1691186761,"current_range_meters":24000,"station_id":"ce4bhr92rcd13ifvqhsg","pricing_plan_id":"free"},{"bike_id":"3e563380-a985-451c-801d-2783d7714294","system_id":"levelo_inurba_marseille","lat":43.337168,"lon":5.391825,"is_reserved":false,"is_disabled":false,"rental_uris":{"android":"levelo://app?vid=3e563380-a985-451c-801d-2783d7714294","ios":"levelo://app?vid=3e563380-a985-451c-801d-2783d7714294"},"vehicle_type_id":"4","last_reported":1691186761,"current_range_meters":12800,"station_id":"ce4bhr92rcd13ifvqhsg","pricing_plan_id":"free"},{"bike_id":"df82d2f9-f688-4670-ac84-3e543122cedb","system_id":"levelo_inurba_marseille","lat":43.33729,"lon":5.39177,"is_reserved":false,"is_disabled":false,"rental_uris":{"android":"levelo://app?vid=df82d2f9-f688-4670-ac84-3e543122cedb","ios":"levelo://app?vid=df82d2f9-f688-4670-ac84-3e543122cedb"},"vehicle_type_id":"4","last_reported":1691186761,"current_range_meters":12400,"station_id":"ce4bhr92rcd13ifvqhsg","pricing_plan_id":"free"},{"bike_id":"ed9797b8-d925-4a28-9a9e-5f5639c20314","system_id":"levelo_inurba_marseille","lat":43.33724,"lon":5.39187,"is_reserved":false,"is_disabled":false,"rental_uris":{"android":"levelo://app?vid=ed9797b8-d925-4a28-9a9e-5f5639c20314","ios":"levelo://app?vid=ed9797b8-d925-4a28-9a9e-5f5639c20314"},"vehicle_type_id":"4","last_reported":1691186761,"current_range_meters":12400,"station_id":"ce4bhr92rcd13ifvqhsg","pricing_plan_id":"free"},{"bike_id":"ebb3b957-8b94-460d-ae70-99c358f71d74","system_id":"levelo_inurba_marseille","lat":43.33723,"lon":5.39191,"is_reserved":false,"is_disabled":false,"rental_uris":{"android":"levelo://app?vid=ebb3b957-8b94-460d-ae70-99c358f71d74","ios":"levelo://app?vid=ebb3b957-8b94-460d-ae70-99c358f71d74"},"vehicle_type_id":"4","last_reported":1691186761,"current_range_meters":0,"station_id":"ce4bhr92rcd13ifvqhsg","pricing_plan_id":"free"},{"bike_id":"5fd6a347-0a02-4efa-ab4a-06802493ed56","system_id":"levelo_inurba_marseille","lat":43.33729,"lon":5.39182,"is_reserved":false,"is_disabled":false,"rental_uris":{"android":"levelo://app?vid=5fd6a347-0a02-4efa-ab4a-06802493ed56","ios":"levelo://app?vid=5fd6a347-0a02-4efa-ab4a-06802493ed56"},"vehicle_type_id":"4","last_reported":1691186761,"current_range_meters":14000,"station_id":"ce4bhr92rcd13ifvqhsg","pricing_plan_id":"free"},{"bike_id":"9ed5c8cd-5716-467d-9a0b-e5002dcb5a2c","system_id":"levelo_inurba_marseille","lat":43.3373,"lon":5.39181,"is_reserved":false,"is_disabled":false,"rental_uris":{"android":"levelo://app?vid=9ed5c8cd-5716-467d-9a0b-e5002dcb5a2c","ios":"levelo://app?vid=9ed5c8cd-5716-467d-9a0b-e5002dcb5a2c"},"vehicle_type_id":"4","last_reported":1691186761,"current_range_meters":28800,"station_id":"ce4bhr92rcd13ifvqhsg","pricing_plan_id":"free"},{"bike_id":"c6ee3a31-720e-41f5-9880-1404aab60157","system_id":"levelo_inurba_marseille","lat":43.33725,"lon":5.39196,"is_reserved":false,"is_disabled":false,"rental_uris":{"android":"levelo://app?vid=c6ee3a31-720e-41f5-9880-1404aab60157","ios":"levelo://app?vid=c6ee3a31-720e-41f5-9880-1404aab60157"},"vehicle_type_id":"4","last_reported":1691186761,"current_range_meters":4800,"station_id":"ce4bhr92rcd13ifvqhsg","pricing_plan_id":"free"},{"bike_id":"dbada9f9-e33c-4a7d-ab43-1cac4e571e70","system_id":"levelo_inurba_marseille","lat":43.284787,"lon":5.384116,"is_reserved":false,"is_disabled":false,"rental_uris":{"android":"levelo://app?vid=dbada9f9-e33c-4a7d-ab43-1cac4e571e70","ios":"levelo://app?vid=dbada9f9-e33c-4a7d-ab43-1cac4e571e70"},"vehicle_type_id":"4","last_reported":1691186761,"current_range_meters":29600,"station_id":"ce4bh512rcd13ifvqe3g","pricing_plan_id":"free"},{"bike_id":"0184f729-abb7-4cbf-aea1-d9f479ca9ff3","system_id":"levelo_inurba_marseille","lat":43.288497,"lon":5.393089,"is_reserved":false,"is_disabled":false,"rental_uris":{"android":"levelo://app?vid=0184f729-abb7-4cbf-aea1-d9f479ca9ff3","ios":"levelo://app?vid=0184f729-abb7-4cbf-aea1-d9f479ca9ff3"},"vehicle_type_id":"4","last_reported":1691186761,"current_range_meters":31200,"station_id":"ce4bh2p2rcd13ifvqdi0","pricing_plan_id":"free"},{"bike_id":"d276dd26-9c9c-42d5-af69-9ae3d26eea28","system_id":"levelo_inurba_marseille","lat":43.297993,"lon":5.403976,"is_reserved":false,"is_disabled":false,"rental_uris":{"android":"levelo://app?vid=d276dd26-9c9c-42d5-af69-9ae3d26eea28","ios":"levelo://app?vid=d276dd26-9c9c-42d5-af69-9ae3d26eea28"},"vehicle_type_id":"4","last_reported":1691186761,"current_range_meters":14000,"station_id":"","pricing_plan_id":"free"},{"bike_id":"9a13ca95-921f-47b8-b7c9-782bf1771f53","system_id":"levelo_inurba_marseille","lat":43.284787,"lon":5.384116,"is_reserved":false,"is_disabled":false,"rental_uris":{"android":"levelo://app?vid=9a13ca95-921f-47b8-b7c9-782bf1771f53","ios":"levelo://app?vid=9a13ca95-921f-47b8-b7c9-782bf1771f53"},"vehicle_type_id":"4","last_reported":1691186761,"current_range_meters":31200,"station_id":"ce4bh512rcd13ifvqe3g","pricing_plan_id":"free"},{"bike_id":"fc852557-c523-41ac-a440-87b5b2259427","system_id":"levelo_inurba_marseille","lat":43.288497,"lon":5.393089,"is_reserved":false,"is_disabled":false,"rental_uris":{"android":"levelo://app?vid=fc852557-c523-41ac-a440-87b5b2259427","ios":"levelo://app?vid=fc852557-c523-41ac-a440-87b5b2259427"},"vehicle_type_id":"4","last_reported":1691186761,"current_range_meters":0,"station_id":"ce4bh2p2rcd13ifvqdi0","pricing_plan_id":"free"},{"bike_id":"c83b9af6-5398-4080-95aa-cda97b0f23f0","system_id":"levelo_inurba_marseille","lat":43.288497,"lon":5.393089,"is_reserved":false,"is_disabled":false,"rental_uris":{"android":"levelo://app?vid=c83b9af6-5398-4080-95aa-cda97b0f23f0","ios":"levelo://app?vid=c83b9af6-5398-4080-95aa-cda97b0f23f0"},"vehicle_type_id":"4","last_reported":1691186761,"current_range_meters":31600,"station_id":"ce4bh2p2rcd13ifvqdi0","pricing_plan_id":"free"},{"bike_id":"43661f89-590e-44e7-95a7-2b65feaa0b3e","system_id":"levelo_inurba_marseille","lat":43.289363,"lon":5.396322,"is_reserved":false,"is_disabled":false,"rental_uris":{"android":"levelo://app?vid=43661f89-590e-44e7-95a7-2b65feaa0b3e","ios":"levelo://app?vid=43661f89-590e-44e7-95a7-2b65feaa0b3e"},"vehicle_type_id":"4","last_reported":1691186761,"current_range_meters":13600,"station_id":"ce4bh3h2rcd13ifvqdn0","pricing_plan_id":"free"},{"bike_id":"f7f5768e-b80f-4da0-8864-86696a8877fb","system_id":"levelo_inurba_marseille","lat":43.32456,"lon":5.40727,"is_reserved":false,"is_disabled":false,"rental_uris":{"android":"levelo://app?vid=f7f5768e-b80f-4da0-8864-86696a8877fb","ios":"levelo://app?vid=f7f5768e-b80f-4da0-8864-86696a8877fb"},"vehicle_type_id":"4","last_reported":1691186761,"current_range_meters":0,"station_id":"","pricing_plan_id":"free"},{"bike_id":"d749b771-abfa-4dd3-907b-8a17acf9e500","system_id":"levelo_inurba_marseille","lat":43.292724,"lon":5.401131,"is_reserved":false,"is_disabled":false,"rental_uris":{"android":"levelo://app?vid=d749b771-abfa-4dd3-907b-8a17acf9e500","ios":"levelo://app?vid=d749b771-abfa-4dd3-907b-8a17acf9e500"},"vehicle_type_id":"4","last_reported":1691186761,"current_range_meters":4000,"station_id":"ce4bh312rcd13ifvqdk0","pricing_plan_id":"free"},{"bike_id":"5e78e905-75e0-4911-b39d-6ee377fbdfb5","system_id":"levelo_inurba_marseille","lat":43.292724,"lon":5.401131,"is_reserved":false,"is_disabled":false,"rental_uris":{"android":"levelo://app?vid=5e78e905-75e0-4911-b39d-6ee377fbdfb5","ios":"levelo://app?vid=5e78e905-75e0-4911-b39d-6ee377fbdfb5"},"vehicle_type_id":"4","last_reported":1691186761,"current_range_meters":1600,"station_id":"ce4bh312rcd13ifvqdk0","pricing_plan_id":"free"},{"bike_id":"f53e05e9-4bc7-4f44-9aaa-8b773f81fe1e","system_id":"levelo_inurba_marseille","lat":43.292724,"lon":5.401131,"is_reserved":false,"is_disabled":false,"rental_uris":{"android":"levelo://app?vid=f53e05e9-4bc7-4f44-9aaa-8b773f81fe1e","ios":"levelo://app?vid=f53e05e9-4bc7-4f44-9aaa-8b773f81fe1e"},"vehicle_type_id":"4","last_reported":1691186761,"current_range_meters":28800,"station_id":"ce4bh312rcd13ifvqdk0","pricing_plan_id":"free"},{"bike_id":"a49cb8aa-ed25-4a14-8fbf-4c2bde7da1b1","system_id":"levelo_inurba_marseille","lat":43.292724,"lon":5.401131,"is_reserved":false,"is_disabled":false,"rental_uris":{"android":"levelo://app?vid=a49cb8aa-ed25-4a14-8fbf-4c2bde7da1b1","ios":"levelo://app?vid=a49cb8aa-ed25-4a14-8fbf-4c2bde7da1b1"},"vehicle_type_id":"4","last_reported":1691186761,"current_range_meters":24400,"station_id":"ce4bh312rcd13ifvqdk0","pricing_plan_id":"free"},{"bike_id":"60e75fe4-94cb-43f8-b890-1a3569c342b9","system_id":"levelo_inurba_marseille","lat":43.292724,"lon":5.401131,"is_reserved":false,"is_disabled":false,"rental_uris":{"android":"levelo://app?vid=60e75fe4-94cb-43f8-b890-1a3569c342b9","ios":"levelo://app?vid=60e75fe4-94cb-43f8-b890-1a3569c342b9"},