{"last_updated":1733828905,"ttl":60,"version":"2.2","data":{"bikes":[{"bike_id":"cc832c36-3383-49a4-b52c-5913dffcd510","system_id":"levelo_inurba_marseille","lat":43.30542,"lon":5.36715,"is_reserved":false,"is_disabled":false,"rental_uris":{"android":"levelo://app?vid=cc832c36-3383-49a4-b52c-5913dffcd510","ios":"levelo://app?vid=cc832c36-3383-49a4-b52c-5913dffcd510"},"vehicle_type_id":"4","last_reported":1733828905,"current_range_meters":10000,"station_id":"ce4bgrp2rcd13ifvqc9g","pricing_plan_id":"cebpf4jnsgd1na2vs0mg"},{"bike_id":"3bae985c-4ec3-4449-8ab5-671c37ae0791","system_id":"levelo_inurba_marseille","lat":43.23152,"lon":5.43711,"is_reserved":false,"is_disabled":false,"rental_uris":{"android":"levelo://app?vid=3bae985c-4ec3-4449-8ab5-671c37ae0791","ios":"levelo://app?vid=3bae985c-4ec3-4449-8ab5-671c37ae0791"},"vehicle_type_id":"4","last_reported":1733828905,"current_range_meters":38800,"station_id":"ce4bhmp2rcd13ifvqgog","pricing_plan_id":"cebpf4jnsgd1na2vs0mg"},{"bike_id":"9e840671-2878-4845-b8fb-114afd1f4bc9","system_id":"levelo_inurba_marseille","lat":43.26686,"lon":5.38274,"is_reserved":false,"is_disabled":true,"rental_uris":{"android":"levelo://app?vid=9e840671-2878-4845-b8fb-114afd1f4bc9","ios":"levelo://app?vid=9e840671-2878-4845-b8fb-114afd1f4bc9"},"vehicle_type_id":"4","last_reported":1733828905,"current_range_meters":3200,"station_id":"ce4bhg92rcd13ifvqf90","pricing_plan_id":"cebpf4jnsgd1na2vs0mg"},{"bike_id":"3d8690d1-85e0-41da-826a-990a4f82f29e","system_id":"levelo_inurba_marseille","lat":43.26945,"lon":5.38627,"is_reserved":false,"is_disabled":true,"rental_uris":{"android":"levelo://app?vid=3d8690d1-85e0-41da-826a-990a4f82f29e","ios":"levelo://app?vid=3d8690d1-85e0-41da-826a-990a4f82f29e"},"vehicle_type_id":"4","last_reported":1733828905,"current_range_meters":30800,"station_id":"ce4bhh92rcd13ifvqfh0","pricing_plan_id":"cebpf4jnsgd1na2vs0mg"},{"bike_id":"8e029eaf-e104-4c5d-858d-6cd39de73d09","system_id":"levelo_inurba_marseille","lat":43.24167,"lon":5.3639,"is_reserved":false,"is_disabled":false,"rental_uris":{"android":"levelo://app?vid=8e029eaf-e104-4c5d-858d-6cd39de73d09","ios":"levelo://app?vid=8e029eaf-e104-4c5d-858d-6cd39de73d09"},"vehicle_type_id":"4","last_reported":1733828905,"current_range_meters":16800,"station_id":"cpo36qri1sfpv3e86is0","pricing_plan_id":"cebpf4jnsgd1na2vs0mg"},{"bike_id":"5ee88fa2-ea43-4fcc-81b6-7c648141d8f2","system_id":"levelo_inurba_marseille","lat":43.27566,"lon":5.38417,"is_reserved":false,"is_disabled":false,"rental_uris":{"android":"levelo://app?vid=5ee88fa2-ea43-4fcc-81b6-7c648141d8f2","ios":"levelo://app?vid=5ee88fa2-ea43-4fcc-81b6-7c648141d8f2"},"vehicle_type_id":"4","last_reported":1733828905,"current_range_meters":38800,"station_id":"ce4bhh92rcd13ifvqfi0","pricing_plan_id":"cebpf4jnsgd1na2vs0mg"},{"bike_id":"82daf91a-f22f-4c91-b4d7-872b365c74c5","system_id":"levelo_inurba_marseille","lat":43.2958,"lon":5.3673,"is_reserved":false,"is_disabled":false,"rental_uris":{"android":"levelo://app?vid=82daf91a-f22f-4c91-b4d7-872b365c74c5","ios":"levelo://app?vid=82daf91a-f22f-4c91-b4d7-872b365c74c5"},"vehicle_type_id":"4","last_reported":1733828905,"current_range_meters":36400,"station_id":"ce4bgph2rcd13ifvqc2g","pricing_plan_id":"cebpf4jnsgd1na2vs0mg"},{"bike_id":"014914cf-eb98-4b5d-8cd3-12a67a219c23","system_id":"levelo_inurba_marseille","lat":43.33611,"lon":5.41026,"is_reserved":false,"is_disabled":true,"rental_uris":{"android":"levelo://app?vid=014914cf-eb98-4b5d-8cd3-12a67a219c23","ios":"levelo://app?vid=014914cf-eb98-4b5d-8cd3-12a67a219c23"},"vehicle_type_id":"4","last_reported":1733828905,"current_range_meters":38400,"station_id":"ce4bhqh2rcd13ifvqhmg","pricing_plan_id":"cebpf4jnsgd1na2vs0mg"},{"bike_id":"db19f6be-50cf-4b39-83bc-6524777f43dd","system_id":"levelo_inurba_marseille","lat":43.31354,"lon":5.38497,"is_reserved":false,"is_disabled":false,"rental_uris":{"android":"levelo://app?vid=db19f6be-50cf-4b39-83bc-6524777f43dd","ios":"levelo://app?vid=db19f6be-50cf-4b39-83bc-6524777f43dd"},"vehicle_type_id":"4","last_reported":1733828905,"current_range_meters":14800,"station_id":"ce4bgt92rcd13ifvqcf0","pricing_plan_id":"cebpf4jnsgd1na2vs0mg"},{"bike_id":"2bbfd75b-3da0-4483-b669-f7ac974cee37","system_id":"levelo_inurba_marseille","lat":43.25005,"lon":5.38943,"is_reserved":false,"is_disabled":false,"rental_uris":{"android":"levelo://app?vid=2bbfd75b-3da0-4483-b669-f7ac974cee37","ios":"levelo://app?vid=2bbfd75b-3da0-4483-b669-f7ac974cee37"},"vehicle_type_id":"4","last_reported":1733828905,"current_range_meters":28000,"station_id":"ce4bhgp2rcd13ifvqfd0","pricing_plan_id":"cebpf4jnsgd1na2vs0mg"},{"bike_id":"8bd642b2-0279-44c7-9ee2-fc3b57332c83","system_id":"levelo_inurba_marseille","lat":43.27455,"lon":5.40073,"is_reserved":false,"is_disabled":true,"rental_uris":{"android":"levelo://app?vid=8bd642b2-0279-44c7-9ee2-fc3b57332c83","ios":"levelo://app?vid=8bd642b2-0279-44c7-9ee2-fc3b57332c83"},"vehicle_type_id":"4","last_reported":1733828905,"current_range_meters":0,"station_id":"","pricing_plan_id":"cebpf4jnsgd1na2vs0mg"},{"bike_id":"59b0b34c-6f92-4349-9ebf-bf641fd76061","system_id":"levelo_inurba_marseille","lat":43.27069,"lon":5.42278,"is_reserved":false,"is_disabled":true,"rental_uris":{"android":"levelo://app?vid=59b0b34c-6f92-4349-9ebf-bf641fd76061","ios":"levelo://app?vid=59b0b34c-6f92-4349-9ebf-bf641fd76061"},"vehicle_type_id":"4","last_reported":1733828905,"current_range_meters":32400,"station_id":"ce4bhk92rcd13ifvqgb0","pricing_plan_id":"cebpf4jnsgd1na2vs0mg"},{"bike_id":"1e1e42f7-d64b-4c90-838d-624280674011","system_id":"levelo_inurba_marseille","lat":43.337444,"lon":5.374475,"is_reserved":false,"is_disabled":false,"rental_uris":{"android":"levelo://app?vid=1e1e42f7-d64b-4c90-838d-624280674011","ios":"levelo://app?vid=1e1e42f7-d64b-4c90-838d-624280674011"},"vehicle_type_id":"4","last_reported":1733828905,"current_range_meters":35600,"station_id":"","pricing_plan_id":"cebpf4jnsgd1na2vs0mg"},{"bike_id":"f09914a1-032a-4233-965f-c73f49a269ba","system_id":"levelo_inurba_marseille","lat":43.337444,"lon":5.374475,"is_reserved":false,"is_disabled":true,"rental_uris":{"android":"levelo://app?vid=f09914a1-032a-4233-965f-c73f49a269ba","ios":"levelo://app?vid=f09914a1-032a-4233-965f-c73f49a269ba"},"vehicle_type_id":"4","last_reported":1733828905,"current_range_meters":0,"station_id":"","pricing_plan_id":"cebpf4jnsgd1na2vs0mg"},{"bike_id":"76525433-6ea2-4692-9f86-be767bddfa70","system_id":"levelo_inurba_marseille","lat":43.29368,"lon":5.37849,"is_reserved":false,"is_disabled":false,"rental_uris":{"android":"levelo://app?vid=76525433-6ea2-4692-9f86-be767bddfa70","ios":"levelo://app?vid=76525433-6ea2-4692-9f86-be767bddfa70"},"vehicle_type_id":"4","last_reported":1733828905,"current_range_meters":33200,"station_id":"ce4bgjh2rcd13ifvqbf0","pricing_plan_id":"cebpf4jnsgd1na2vs0mg"},{"bike_id":"1c7f3745-3640-4246-8c6e-6909d31b63ca","system_id":"levelo_inurba_marseille","lat":43.29711,"lon":5.36624,"is_reserved":false,"is_disabled":true,"rental_uris":{"android":"levelo://app?vid=1c7f3745-3640-4246-8c6e-6909d31b63ca","ios":"levelo://app?vid=1c7f3745-3640-4246-8c6e-6909d31b63ca"},"vehicle_type_id":"4","last_reported":1733828905,"current_range_meters":27600,"station_id":"ce4bgn12rcd13ifvqbt0","pricing_plan_id":"cebpf4jnsgd1na2vs0mg"},{"bike_id":"f6ceca24-19af-4ed8-b20b-dad7699688ae","system_id":"levelo_inurba_marseille","lat":43.32479,"lon":5.36574,"is_reserved":false,"is_disabled":true,"rental_uris":{"android":"levelo://app?vid=f6ceca24-19af-4ed8-b20b-dad7699688ae","ios":"levelo://app?vid=f6ceca24-19af-4ed8-b20b-dad7699688ae"},"vehicle_type_id":"4","last_reported":1733828905,"current_range_meters":24000,"station_id":"ce4bhs12rcd13ifvqhvg","pricing_plan_id":"cebpf4jnsgd1na2vs0mg"},{"bike_id":"bab1fa96-23d8-4f98-a0bc-d7c095a449e4","system_id":"levelo_inurba_marseille","lat":43.31079,"lon":5.38359,"is_reserved":false,"is_disabled":false,"rental_uris":{"android":"levelo://app?vid=bab1fa96-23d8-4f98-a0bc-d7c095a449e4","ios":"levelo://app?vid=bab1fa96-23d8-4f98-a0bc-d7c095a449e4"},"vehicle_type_id":"4","last_reported":1733828905,"current_range_meters":20800,"station_id":"ce4bgv92rcd13ifvqcr0","pricing_plan_id":"cebpf4jnsgd1na2vs0mg"},{"bike_id":"db94f93e-1a6d-4830-8de3-e394317acd3b","system_id":"levelo_inurba_marseille","lat":43.32472,"lon":5.365616,"is_reserved":false,"is_disabled":false,"rental_uris":{"android":"levelo://app?vid=db94f93e-1a6d-4830-8de3-e394317acd3b","ios":"levelo://app?vid=db94f93e-1a6d-4830-8de3-e394317acd3b"},"vehicle_type_id":"4","last_reported":1733828905,"current_range_meters":8800,"station_id":"ce4bhs12rcd13ifvqhvg","pricing_plan_id":"cebpf4jnsgd1na2vs0mg"},{"bike_id":"d78e6ef6-09ab-4dc8-ae17-0dbded5104b0","system_id":"levelo_inurba_marseille","lat":43.3061,"lon":5.3722,"is_reserved":false,"is_disabled":false,"rental_uris":{"android":"levelo://app?vid=d78e6ef6-09ab-4dc8-ae17-0dbded5104b0","ios":"levelo://app?vid=d78e6ef6-09ab-4dc8-ae17-0dbded5104b0"},"vehicle_type_id":"4","last_reported":1733828905,"current_range_meters":26800,"station_id":"ce4bgqh2rcd13ifvqc4g","pricing_plan_id":"cebpf4jnsgd1na2vs0mg"},{"bike_id":"5ccbff1c-0270-4693-82e0-c9e934e1827b","system_id":"levelo_inurba_marseille","lat":43.2828,"lon":5.35076,"is_reserved":false,"is_disabled":false,"rental_uris":{"android":"levelo://app?vid=5ccbff1c-0270-4693-82e0-c9e934e1827b","ios":"levelo://app?vid=5ccbff1c-0270-4693-82e0-c9e934e1827b"},"vehicle_type_id":"4","last_reported":1733828905,"current_range_meters":10000,"station_id":"ce4bhbp2rcd13ifvqerg","pricing_plan_id":"cebpf4jnsgd1na2vs0mg"},{"bike_id":"75701b26-361c-41a5-86cc-cb78b6f05388","system_id":"levelo_inurba_marseille","lat":43.25929,"lon":5.40912,"is_reserved":false,"is_disabled":true,"rental_uris":{"android":"levelo://app?vid=75701b26-361c-41a5-86cc-cb78b6f05388","ios":"levelo://app?vid=75701b26-361c-41a5-86cc-cb78b6f05388"},"vehicle_type_id":"4","last_reported":1733828905,"current_range_meters":32800,"station_id":"ce4bhm92rcd13ifvqglg","pricing_plan_id":"cebpf4jnsgd1na2vs0mg"},{"bike_id":"724c48f1-2175-4730-9579-aceff44261ff","system_id":"levelo_inurba_marseille","lat":43.2417,"lon":5.397462,"is_reserved":false,"is_disabled":false,"rental_uris":{"android":"levelo://app?vid=724c48f1-2175-4730-9579-aceff44261ff","ios":"levelo://app?vid=724c48f1-2175-4730-9579-aceff44261ff"},"vehicle_type_id":"4","last_reported":1733828905,"current_range_meters":38800,"station_id":"ce4bhn12rcd13ifvqgpg","pricing_plan_id":"cebpf4jnsgd1na2vs0mg"},{"bike_id":"63c284d8-2099-47c7-94b0-bba0a8b1a3c0","system_id":"levelo_inurba_marseille","lat":43.29527,"lon":5.3854,"is_reserved":false,"is_disabled":false,"rental_uris":{"android":"levelo://app?vid=63c284d8-2099-47c7-94b0-bba0a8b1a3c0","ios":"levelo://app?vid=63c284d8-2099-47c7-94b0-bba0a8b1a3c0"},"vehicle_type_id":"4","last_reported":1733828905,"current_range_meters":18000,"station_id":"ce4bgih2rcd13ifvqba0","pricing_plan_id":"cebpf4jnsgd1na2vs0mg"},{"bike_id":"98307136-80a4-466f-817c-d269e3457acc","system_id":"levelo_inurba_marseille","lat":43.32244,"lon":5.37637,"is_reserved":false,"is_disabled":false,"rental_uris":{"android":"levelo://app?vid=98307136-80a4-466f-817c-d269e3457acc","ios":"levelo://app?vid=98307136-80a4-466f-817c-d269e3457acc"},"vehicle_type_id":"4","last_reported":1733828905,"current_range_meters":34000,"station_id":"","pricing_plan_id":"cebpf4jnsgd1na2vs0mg"},{"bike_id":"4988be4a-3d9e-4802-b79b-fc9ef468c795","system_id":"levelo_inurba_marseille","lat":43.27211,"lon":5.39176,"is_reserved":false,"is_disabled":false,"rental_uris":{"android":"levelo://app?vid=4988be4a-3d9e-4802-b79b-fc9ef468c795","ios":"levelo://app?vid=4988be4a-3d9e-4802-b79b-fc9ef468c795"},"vehicle_type_id":"4","last_reported":1733828905,"current_range_meters":38800,"station_id":"ce4bhhp2rcd13ifvqfm0","pricing_plan_id":"cebpf4jnsgd1na2vs0mg"},{"bike_id":"c4b8667b-fc0c-4cf3-962a-e5213450d68b","system_id":"levelo_inurba_marseille","lat":43.26778,"lon":5.39419,"is_reserved":false,"is_disabled":false,"rental_uris":{"android":"levelo://app?vid=c4b8667b-fc0c-4cf3-962a-e5213450d68b","ios":"levelo://app?vid=c4b8667b-fc0c-4cf3-962a-e5213450d68b"},"vehicle_type_id":"4","last_reported":1733828905,"current_range_meters":30000,"station_id":"ce4bhh12rcd13ifvqfg0","pricing_plan_id":"cebpf4jnsgd1na2vs0mg"},{"bike_id":"938640b4-f78c-4def-9b16-e6205edb88bc","system_id":"levelo_inurba_marseille","lat":43.28154,"lon":5.42637,"is_reserved":false,"is_disabled":true,"rental_uris":{"android":"levelo://app?vid=938640b4-f78c-4def-9b16-e6205edb88bc","ios":"levelo://app?vid=938640b4-f78c-4def-9b16-e6205edb88bc"},"vehicle_type_id":"4","last_reported":1733828905,"current_range_meters":30400,"station_id":"ce4bhnh2rcd13ifvqgug","pricing_plan_id":"cebpf4jnsgd1na2vs0mg"},{"bike_id":"8ada0125-1496-4215-8fbe-03fe918889bf","system_id":"levelo_inurba_marseille","lat":43.23149,"lon":5.43718,"is_reserved":false,"is_disabled":false,"rental_uris":{"android":"levelo://app?vid=8ada0125-1496-4215-8fbe-03fe918889bf","ios":"levelo://app?vid=8ada0125-1496-4215-8fbe-03fe918889bf"},"vehicle_type_id":"4","last_reported":1733828905,"current_range_meters":9600,"station_id":"ce4bhmp2rcd13ifvqgog","pricing_plan_id":"cebpf4jnsgd1na2vs0mg"},{"bike_id":"48a59ca1-7bd9-4a2e-8452-da8893672a4e","system_id":"levelo_inurba_marseille","lat":43.29442,"lon":5.39749,"is_reserved":false,"is_disabled":false,"rental_uris":{"android":"levelo://app?vid=48a59ca1-7bd9-4a2e-8452-da8893672a4e","ios":"levelo://app?vid=48a59ca1-7bd9-4a2e-8452-da8893672a4e"},"vehicle_type_id":"4","last_reported":1733828905,"current_range_meters":38400,"station_id":"ce4bh3h2rcd13ifvqdo0","pricing_plan_id":"cebpf4jnsgd1na2vs0mg"},{"bike_id":"62307f1f-293b-489b-b062-bb705f21ae77","system_id":"levelo_inurba_marseille","lat":43.27353,"lon":5.3624,"is_reserved":false,"is_disabled":false,"rental_uris":{"android":"levelo://app?vid=62307f1f-293b-489b-b062-bb705f21ae77","ios":"levelo://app?vid=62307f1f-293b-489b-b062-bb705f21ae77"},"vehicle_type_id":"4","last_reported":1733828905,"current_range_meters":37600,"station_id":"ce4bhbh2rcd13ifvqeo0","pricing_plan_id":"cebpf4jnsgd1na2vs0mg"},{"bike_id":"2f3968e7-9336-4ee4-ba78-8e92c0a818cc","system_id":"levelo_inurba_marseille","lat":43.31322,"lon":5.36647,"is_reserved":false,"is_disabled":true,"rental_uris":{"android":"levelo://app?vid=2f3968e7-9336-4ee4-ba78-8e92c0a818cc","ios":"levelo://app?vid=2f3968e7-9336-4ee4-ba78-8e92c0a818cc"},"vehicle_type_id":"4","last_reported":1733828905,"current_range_meters":0,"station_id":"","pricing_plan_id":"cebpf4jnsgd1na2vs0mg"},{"bike_id":"646f860e-399b-4717-a06a-02edbed7a298","system_id":"levelo_inurba_marseille","lat":43.293,"lon":5.37464,"is_reserved":false,"is_disabled":false,"rental_uris":{"android":"levelo://app?vid=646f860e-399b-4717-a06a-02edbed7a298","ios":"levelo://app?vid=646f860e-399b-4717-a06a-02edbed7a298"},"vehicle_type_id":"4","last_reported":1733828905,"current_range_meters":24000,"station_id":"ce4bgi12rcd13ifvqb70","pricing_plan_id":"cebpf4jnsgd1na2vs0mg"},{"bike_id":"e5aac24b-8acb-4dfb-985c-85170e7397ed","system_id":"levelo_inurba_marseille","lat":43.33603,"lon":5.41022,"is_reserved":false,"is_disabled":true,"rental_uris":{"android":"levelo://app?vid=e5aac24b-8acb-4dfb-985c-85170e7397ed","ios":"levelo://app?vid=e5aac24b-8acb-4dfb-985c-85170e7397ed"},"vehicle_type_id":"4","last_reported":1733828905,"current_range_meters":38800,"station_id":"ce4bhqh2rcd13ifvqhmg","pricing_plan_id":"cebpf4jnsgd1na2vs0mg"},{"bike_id":"43102b0d-95c3-4fd3-a1c5-3dba3613f6fe","system_id":"levelo_inurba_marseille","lat":43.31486,"lon":5.37298,"is_reserved":false,"is_disabled":false,"rental_uris":{"android":"levelo://app?vid=43102b0d-95c3-4fd3-a1c5-3dba3613f6fe","ios":"levelo://app?vid=43102b0d-95c3-4fd3-a1c5-3dba3613f6fe"},"vehicle_type_id":"4","last_reported":1733828905,"current_range_meters":4800,"station_id":"ce4bgt12rcd13ifvqcd0","pricing_plan_id":"cebpf4jnsgd1na2vs0mg"},{"bike_id":"5e500cd8-272c-4cad-9de6-6d8befa6295b","system_id":"levelo_inurba_marseille","lat":43.33606,"lon":5.41031,"is_reserved":false,"is_disabled":false,"rental_uris":{"android":"levelo://app?vid=5e500cd8-272c-4cad-9de6-6d8befa6295b","ios":"levelo://app?vid=5e500cd8-272c-4cad-9de6-6d8befa6295b"},"vehicle_type_id":"4","last_reported":1733828905,"current_range_meters":25200,"station_id":"ce4bhqh2rcd13ifvqhmg","pricing_plan_id":"cebpf4jnsgd1na2vs0mg"},{"bike_id":"53db1711-80e7-480d-9df9-7c3fdac992c0","system_id":"levelo_inurba_marseille","lat":43.29021,"lon":5.3813,"is_reserved":false,"is_disabled":false,"rental_uris":{"android":"levelo://app?vid=53db1711-80e7-480d-9df9-7c3fdac992c0","ios":"levelo://app?vid=53db1711-80e7-480d-9df9-7c3fdac992c0"},"vehicle_type_id":"4","last_reported":1733828905,"current_range_meters":23200,"station_id":"ce4bh4p2rcd13ifvqe1g","pricing_plan_id":"cebpf4jnsgd1na2vs0mg"},{"bike_id":"7f0b121b-7748-43bd-b861-318cbdf6fb69","system_id":"levelo_inurba_marseille","lat":43.28458,"lon":5.35883,"is_reserved":false,"is_disabled":true,"rental_uris":{"android":"levelo://app?vid=7f0b121b-7748-43bd-b861-318cbdf6fb69","ios":"levelo://app?vid=7f0b121b-7748-43bd-b861-318cbdf6fb69"},"vehicle_type_id":"4","last_reported":1733828905,"current_range_meters":38800,"station_id":"ce4bhah2rcd13ifvqei0","pricing_plan_id":"cebpf4jnsgd1na2vs0mg"},{"bike_id":"6583aefc-6815-4bd5-8f5c-a9c5d794f47e","system_id":"levelo_inurba_marseille","lat":43.36385,"lon":5.34187,"is_reserved":false,"is_disabled":false,"rental_uris":{"android":"levelo://app?vid=6583aefc-6815-4bd5-8f5c-a9c5d794f47e","ios":"levelo://app?vid=6583aefc-6815-4bd5-8f5c-a9c5d794f47e"},"vehicle_type_id":"4","last_reported":1733828905,"current_range_meters":8800,"station_id":"","pricing_plan_id":"cebpf4jnsgd1na2vs0mg"},{"bike_id":"78711c2a-505e-42d7-917e-cbcebded6deb","system_id":"levelo_inurba_marseille","lat":43.24169,"lon":5.39736,"is_reserved":false,"is_disabled":false,"rental_uris":{"android":"levelo://app?vid=78711c2a-505e-42d7-917e-cbcebded6deb","ios":"levelo://app?vid=78711c2a-505e-42d7-917e-cbcebded6deb"},"vehicle_type_id":"4","last_reported":1733828905,"current_range_meters":27200,"station_id":"ce4bhn12rcd13ifvqgpg","pricing_plan_id":"cebpf4jnsgd1na2vs0mg"},{"bike_id":"a822604e-5a8f-4665-b875-586d39d61022","system_id":"levelo_inurba_marseille","lat":43.3248,"lon":5.36559,"is_reserved":false,"is_disabled":false,"rental_uris":{"android":"levelo://app?vid=a822604e-5a8f-4665-b875-586d39d61022","ios":"levelo://app?vid=a822604e-5a8f-4665-b875-586d39d61022"},"vehicle_type_id":"4","last_reported":1733828905,"current_range_meters":33200,"station_id":"ce4bhs12rcd13ifvqhvg","pricing_plan_id":"cebpf4jnsgd1na2vs0mg"},{"bike_id":"e064d527-882e-4a32-a3cc-607468c6510c","system_id":"levelo_inurba_marseille","lat":43.33604,"lon":5.41023,"is_reserved":false,"is_disabled":false,"rental_uris":{"android":"levelo://app?vid=e064d527-882e-4a32-a3cc-607468c6510c","ios":"levelo://app?vid=e064d527-882e-4a32-a3cc-607468c6510c"},"vehicle_type_id":"4","last_reported":1733828905,"current_range_meters":38800,"station_id":"ce4bhqh2rcd13ifvqhmg","pricing_plan_id":"cebpf4jnsgd1na2vs0mg"},{"bike_id":"9a9f239c-2d73-4e51-871f-07536d036d34","system_id":"levelo_inurba_marseille","lat":43.26948,"lon":5.38633,"is_reserved":false,"is_disabled":false,"rental_uris":{"android":"levelo://app?vid=9a9f239c-2d73-4e51-871f-07536d036d34","ios":"levelo://app?vid=9a9f239c-2d73-4e51-871f-07536d036d34"},"vehicle_type_id":"4","last_reported":1733828905,"current_range_meters":12000,"station_id":"ce4bhh92rcd13ifvqfh0","pricing_plan_id":"cebpf4jnsgd1na2vs0mg"},{"bike_id":"9fe561d4-aed0-4af9-acd6-6de149a2afa8","system_id":"levelo_inurba_marseille","lat":43.30525,"lon":5.36533,"is_reserved":false,"is_disabled":false,"rental_uris":{"android":"levelo://app?vid=9fe561d4-aed0-4af9-acd6-6de149a2afa8","ios":"levelo://app?vid=9fe561d4-aed0-4af9-acd6-6de149a2afa8"},"vehicle_type_id":"4","last_reported":1733828905,"current_range_meters":38800,"station_id":"ce4bgs12rcd13ifvqcag","pricing_plan_id":"cebpf4jnsgd1na2vs0mg"},{"bike_id":"ab1765a6-6c00-420c-b72e-88228cba39da","system_id":"levelo_inurba_marseille","lat":43.2715,"lon":5.40966,"is_reserved":false,"is_disabled":false,"rental_uris":{"android":"levelo://app?vid=ab1765a6-6c00-420c-b72e-88228cba39da","ios":"levelo://app?vid=ab1765a6-6c00-420c-b72e-88228cba39da"},"vehicle_type_id":"4","last_reported":1733828905,"current_range_meters":37600,"station_id":"ce4bhl12rcd13ifvqgf0","pricing_plan_id":"cebpf4jnsgd1na2vs0mg"},{"bike_id":"c901a794-496e-44e0-9d84-45e9988be1b0","system_id":"levelo_inurba_marseille","lat":43.27182,"lon":5.40997,"is_reserved":false,"is_disabled":false,"rental_uris":{"android":"levelo://app?vid=c901a794-496e-44e0-9d84-45e9988be1b0","ios":"levelo://app?vid=c901a794-496e-44e0-9d84-45e9988be1b0"},"vehicle_type_id":"4","last_reported":1733828905,"current_range_meters":6400,"station_id":"ce4bhl12rcd13ifvqgf0","pricing_plan_id":"cebpf4jnsgd1na2vs0mg"},{"bike_id":"f10c5e90-601b-4bd4-87e7-4cbb6a13a4fb","system_id":"levelo_inurba_marseille","lat":43.26123,"lon":5.39268,"is_reserved":false,"is_disabled":true,"rental_uris":{"android":"levelo://app?vid=f10c5e90-601b-4bd4-87e7-4cbb6a13a4fb","ios":"levelo://app?vid=f10c5e90-601b-4bd4-87e7-4cbb6a13a4fb"},"vehicle_type_id":"4","last_reported":1733828905,"current_range_meters":0,"station_id":"","pricing_plan_id":"cebpf4jnsgd1na2vs0mg"},{"bike_id":"35a9e972-3d70-4c02-b4d2-95bd849e6ce8","system_id":"levelo_inurba_marseille","lat":43.27054,"lon":5.40258,"is_reserved":false,"is_disabled":false,"rental_uris":{"android":"levelo://app?vid=35a9e972-3d70-4c02-b4d2-95bd849e6ce8","ios":"levelo://app?vid=35a9e972-3d70-4c02-b4d2-95bd849e6ce8"},"vehicle_type_id":"4","last_reported":1733828905,"current_range_meters":24800,"station_id":"ce4bhk92rcd13ifvqgc0","pricing_plan_id":"cebpf4jnsgd1na2vs0mg"},{"bike_id":"ce93eba4-a260-4242-bfd1-eb4a1083d4a6","system_id":"levelo_inurba_marseille","lat":43.27338,"lon":5.36269,"is_reserved":false,"is_disabled":false,"rental_uris":{"android":"levelo://app?vid=ce93eba4-a260-4242-bfd1-eb4a1083d4a6","ios":"levelo://app?vid=ce93eba4-a260-4242-bfd1-eb4a1083d4a6"},"vehicle_type_id":"4","last_reported":1733828905,"current_range_meters":39200,"station_id":"ce4bhbh2rcd13ifvqeo0","pricing_plan_id":"cebpf4jnsgd1na2vs0mg"},{"bike_id":"d311fe08-5112-4967-a7a8-f7258dbbda95","system_id":"levelo_inurba_marseille","lat":43.28877,"lon":5.35859,"is_reserved":false,"is_disabled":false,"rental_uris":{"android":"levelo://app?vid=d311fe08-5112-4967-a7a8-f7258dbbda95","ios":"levelo://app?vid=d311fe08-5112-4967-a7a8-f7258dbbda95"},"vehicle_type_id":"4","last_reported":1733828905,"current_range_meters":26000,"station_id":"ce4bhb12rcd13ifvqem0","pricing_plan_id":"cebpf4jnsgd1na2vs0mg"},{"bike_id":"dd93c396-3e53-4e62-b4e2-c81714e6c408","system_id":"levelo_inurba_marseille","lat":43.29375,"lon":5.37851,"is_reserved":false,"is_disabled":false,"rental_uris":{"android":"levelo://app?vid=dd93c396-3e53-4e62-b4e2-c81714e6c408","ios":"levelo://app?vid=dd93c396-3e53-4e62-b4e2-c81714e6c408"},"vehicle_type_id":"4","last_reported":1733828905,"current_range_meters":34800,"station_id":"ce4bgjh2rcd13ifvqbf0","pricing_plan_id":"cebpf4jnsgd1na2vs0mg"},{"bike_id":"c1af07c0-ed11-49c8-aa2e-1104638a28b7","system_id":"levelo_inurba_marseille","lat":43.23067,"lon":5.3549,"is_reserved":false,"is_disabled":false,"rental_uris":{"android":"levelo://app?vid=c1af07c0-ed11-49c8-aa2e-1104638a28b7","ios":"levelo://app?vid=c1af07c0-ed11-49c8-aa2e-1104638a28b7"},"vehicle_type_id":"4","last_reported":1733828905,"current_range_meters":20000,"station_id":"cpo3342slgdg3j2ifvpg","pricing_plan_id":"cebpf4jnsgd1na2vs0mg"},{"bike_id":"7f58e933-8adb-4160-aa53-b104525e303c","system_id":"levelo_inurba_marseille","lat":43.29877,"lon":5.39728,"is_reserved":false,"is_disabled":false,"rental_uris":{"android":"levelo://app?vid=7f58e933-8adb-4160-aa53-b104525e303c","ios":"levelo://app?vid=7f58e933-8adb-4160-aa53-b104525e303c"},"vehicle_type_id":"4","last_reported":1733828905,"current_range_meters":27200,"station_id":"ce4bh0h2rcd13ifvqd50","pricing_plan_id":"cebpf4jnsgd1na2vs0mg"},{"bike_id":"1770e0f3-9ae9-4bf9-a84d-08bd0866f736","system_id":"levelo_inurba_marseille","lat":43.31343,"lon":5.36738,"is_reserved":false,"is_disabled":false,"rental_uris":{"android":"levelo://app?vid=1770e0f3-9ae9-4bf9-a84d-08bd0866f736","ios":"levelo://app?vid=1770e0f3-9ae9-4bf9-a84d-08bd0866f736"},"vehicle_type_id":"4","last_reported":1733828905,"current_range_meters":35600,"station_id":"ce4bgr92rcd13ifvqc6g","pricing_plan_id":"cebpf4jnsgd1na2vs0mg"},{"bike_id":"6f5aafc4-06b9-4dba-b612-5d926167490b","system_id":"levelo_inurba_marseille","lat":43.32477,"lon":5.36582,"is_reserved":false,"is_disabled":true,"rental_uris":{"android":"levelo://app?vid=6f5aafc4-06b9-4dba-b612-5d926167490b","ios":"levelo://app?vid=6f5aafc4-06b9-4dba-b612-5d926167490b"},"vehicle_type_id":"4","last_reported":1733828905,"current_range_meters":0,"station_id":"ce4bhs12rcd13ifvqhvg","pricing_plan_id":"cebpf4jnsgd1na2vs0mg"},{"bike_id":"5fefcf9d-7cc1-41a7-8c5a-70f7639f379f","system_id":"levelo_inurba_marseille","lat":43.30799,"lon":5.4354,"is_reserved":false,"is_disabled":false,"rental_uris":{"android":"levelo://app?vid=5fefcf9d-7cc1-41a7-8c5a-70f7639f379f","ios":"levelo://app?vid=5fefcf9d-7cc1-41a7-8c5a-70f7639f379f"},"vehicle_type_id":"4","last_reported":1733828905,"current_range_meters":12000,"station_id":"ce4bhph2rcd13ifvqheg","pricing_plan_id":"cebpf4jnsgd1na2vs0mg"},{"bike_id":"807ad6f1-1423-407c-afb9-b43623f8e756","system_id":"levelo_inurba_marseille","lat":43.27806,"lon":5.40708,"is_reserved":false,"is_disabled":false,"rental_uris":{"android":"levelo://app?vid=807ad6f1-1423-407c-afb9-b43623f8e756","ios":"levelo://app?vid=807ad6f1-1423-407c-afb9-b43623f8e756"},"vehicle_type_id":"4","last_reported":1733828905,"current_range_meters":36000,"station_id":"ce4bhnh2rcd13ifvqgtg","pricing_plan_id":"cebpf4jnsgd1na2vs0mg"},{"bike_id":"a219fafe-7330-4217-b6f5-a3960af98422","system_id":"levelo_inurba_marseille","lat":43.29192,"lon":5.35802,"is_reserved":false,"is_disabled":false,"rental_uris":{"android":"levelo://app?vid=a219fafe-7330-4217-b6f5-a3960af98422","ios":"levelo://app?vid=a219fafe-7330-4217-b6f5-a3960af98422"},"vehicle_type_id":"4","last_reported":1733828905,"current_range_meters":38800,"station_id":"ce4bhb12rcd13ifvqel0","pricing_plan_id":"cebpf4jnsgd1na2vs0mg"},{"bike_id":"74ddbdc3-b082-4f44-a075-38dfc2e6b2cd","system_id":"levelo_inurba_marseille","lat":43.24167,"lon":5.36387,"is_reserved":false,"is_disabled":false,"rental_uris":{"android":"levelo://app?vid=74ddbdc3-b082-4f44-a075-38dfc2e6b2cd","ios":"levelo://app?vid=74ddbdc3-b082-4f44-a075-38dfc2e6b2cd"},"vehicle_type_id":"4","last_reported":1733828905,"current_range_meters":22800,"station_id":"cpo36qri1sfpv3e86is0","pricing_plan_id":"cebpf4jnsgd1na2vs0mg"},{"bike_id":"bd5cf351-0ac5-4251-8c87-d57b89ea3995","system_id":"levelo_inurba_marseille","lat":43.2558,"lon":5.38228,"is_reserved":false,"is_disabled":false,"rental_uris":{"android":"levelo://app?vid=bd5cf351-0ac5-4251-8c87-d57b89ea3995","ios":"levelo://app?vid=bd5cf351-0ac5-4251-8c87-d57b89ea3995"},"vehicle_type_id":"4","last_reported":1733828905,"current_range_meters":16800,"station_id":"ce4bhih2rcd13ifvqfs0","pricing_plan_id":"cebpf4jnsgd1na2vs0mg"},{"bike_id":"27e6f065-f705-448c-a93f-955186320b4a","system_id":"levelo_inurba_marseille","lat":43.30354,"lon":5.41878,"is_reserved":false,"is_disabled":true,"rental_uris":{"android":"levelo://app?vid=27e6f065-f705-448c-a93f-955186320b4a","ios":"levelo://app?vid=27e6f065-f705-448c-a93f-955186320b4a"},"vehicle_type_id":"4","last_reported":1733828905,"current_range_meters":37600,"station_id":"ce4bhop2rcd13ifvqh7g","pricing_plan_id":"cebpf4jnsgd1na2vs0mg"},{"bike_id":"9cd79aab-6f4c-4919-b570-803a9e8b35c5","system_id":"levelo_inurba_marseille","lat":43.30461,"lon":5.36712,"is_reserved":false,"is_disabled":true,"rental_uris":{"android":"levelo://app?vid=9cd79aab-6f4c-4919-b570-803a9e8b35c5","ios":"levelo://app?vid=9cd79aab-6f4c-4919-b570-803a9e8b35c5"},"vehicle_type_id":"4","last_reported":1733828905,"current_range_meters":24400,"station_id":"","pricing_plan_id":"cebpf4jnsgd1na2vs0mg"},{"bike_id":"af4b543e-2220-493b-90f2-eed217728c31","system_id":"levelo_inurba_marseille","lat":43.31323,"lon":5.36745,"is_reserved":false,"is_disabled":true,"rental_uris":{"android":"levelo://app?vid=af4b543e-2220-493b-90f2-eed217728c31","ios":"levelo://app?vid=af4b543e-2220-493b-90f2-eed217728c31"},"vehicle_type_id":"4","last_reported":1733828905,"current_range_meters":36800,"station_id":"ce4bgr92rcd13ifvqc6g","pricing_plan_id":"cebpf4jnsgd1na2vs0mg"},{"bike_id":"5977f51a-ae2a-4ace-885d-cbf05b80a796","system_id":"levelo_inurba_marseille","lat":43.29376,"lon":5.37852,"is_reserved":false,"is_disabled":false,"rental_uris":{"android":"levelo://app?vid=5977f51a-ae2a-4ace-885d-cbf05b80a796","ios":"levelo://app?vid=5977f51a-ae2a-4ace-885d-cbf05b80a796"},"vehicle_type_id":"4","last_reported":1733828905,"current_range_meters":18800,"station_id":"ce4bgjh2rcd13ifvqbf0","pricing_plan_id":"cebpf4jnsgd1na2vs0mg"},{"bike_id":"95381e5f-d6b7-4d89-ada8-652b4e8fa3ed","system_id":"levelo_inurba_marseille","lat":43.250865,"lon":5.395319,"is_reserved":false,"is_disabled":true,"rental_uris":{"android":"levelo://app?vid=95381e5f-d6b7-4d89-ada8-652b4e8fa3ed","ios":"levelo://app?vid=95381e5f-d6b7-4d89-ada8-652b4e8fa3ed"},"vehicle_type_id":"4","last_reported":1733828905,"current_range_meters":14400,"station_id":"ce4bhm12rcd13ifvqgkg","pricing_plan_id":"cebpf4jnsgd1na2vs0mg"},{"bike_id":"0f48c9e3-0394-4b88-ab3f-24182f169e47","system_id":"levelo_inurba_marseille","lat":43.29305,"lon":5.37463,"is_reserved":false,"is_disabled":false,"rental_uris":{"android":"levelo://app?vid=0f48c9e3-0394-4b88-ab3f-24182f169e47","ios":"levelo://app?vid=0f48c9e3-0394-4b88-ab3f-24182f169e47"},"vehicle_type_id":"4","last_reported":1733828905,"current_range_meters":38800,"station_id":"ce4bgi12rcd13ifvqb70","pricing_plan_id":"cebpf4jnsgd1na2vs0mg"},{"bike_id":"2efed607-8d64-4c08-b775-d52002165d3b","system_id":"levelo_inurba_marseille","lat":43.27206,"lon":5.39189,"is_reserved":false,"is_disabled":false,"rental_uris":{"android":"levelo://app?vid=2efed607-8d64-4c08-b775-d52002165d3b","ios":"levelo://app?vid=2efed607-8d64-4c08-b775-d52002165d3b"},"vehicle_type_id":"4","last_reported":1733828905,"current_range_meters":38400,"station_id":"ce4bhhp2rcd13ifvqfm0","pricing_plan_id":"cebpf4jnsgd1na2vs0mg"},{"bike_id":"f97ddc52-5758-4192-8ca1-71254ad1a77e","system_id":"levelo_inurba_marseille","lat":43.26196,"lon":5.37452,"is_reserved":false,"is_disabled":false,"rental_uris":{"android":"levelo://app?vid=f97ddc52-5758-4192-8ca1-71254ad1a77e","ios":"levelo://app?vid=f97ddc52-5758-4192-8ca1-71254ad1a77e"},"vehicle_type_id":"4","last_reported":1733828905,"current_range_meters":38800,"station_id":"ce4bhgp2rcd13ifvqfc0","pricing_plan_id":"cebpf4jnsgd1na2vs0mg"},{"bike_id":"11e86528-eb6b-4391-86a5-9b1822d069a4","system_id":"levelo_inurba_marseille","lat":43.278805,"lon":5.388003,"is_reserved":false,"is_disabled":true,"rental_uris":{"android":"levelo://app?vid=11e86528-eb6b-4391-86a5-9b1822d069a4","ios":"levelo://app?vid=11e86528-eb6b-4391-86a5-9b1822d069a4"},"vehicle_type_id":"4","last_reported":1733828905,"current_range_meters":0,"station_id":"","pricing_plan_id":"cebpf4jnsgd1na2vs0mg"},{"bike_id":"6cc6805f-c0ca-4585-bdf1-b5a0339762b0","system_id":"levelo_inurba_marseille","lat":43.29027,"lon":5.42744,"is_reserved":false,"is_disabled":true,"rental_uris":{"android":"levelo://app?vid=6cc6805f-c0ca-4585-bdf1-b5a0339762b0","ios":"levelo://app?vid=6cc6805f-c0ca-4585-bdf1-b5a0339762b0"},"vehicle_type_id":"4","last_reported":1733828905,"current_range_meters":0,"station_id":"","pricing_plan_id":"cebpf4jnsgd1na2vs0mg"},{"bike_id":"a478bcff-2af8-4db5-8351-cdbe6b849a6d","system_id":"levelo_inurba_marseille","lat":43.33411,"lon":5.3621,"is_reserved":false,"is_disabled":true,"rental_uris":{"android":"levelo://app?vid=a478bcff-2af8-4db5-8351-cdbe6b849a6d","ios":"levelo://app?vid=a478bcff-2af8-4db5-8351-cdbe6b849a6d"},"vehicle_type_id":"4","last_reported":1733828905,"current_range_meters":0,"station_id":"","pricing_plan_id":"cebpf4jnsgd1na2vs0mg"},{"bike_id":"ba49e68c-6062-4c0f-9a57-98cf34dedcad","system_id":"levelo_inurba_marseille","lat":43.30546,"lon":5.36695,"is_reserved":false,"is_disabled":false,"rental_uris":{"android":"levelo://app?vid=ba49e68c-6062-4c0f-9a57-98cf34dedcad","ios":"levelo://app?vid=ba49e68c-6062-4c0f-9a57-98cf34dedcad"},"vehicle_type_id":"4","last_reported":1733828905,"current_range_meters":10000,"station_id":"ce4bgrp2rcd13ifvqc9g","pricing_plan_id":"cebpf4jnsgd1na2vs0mg"},{"bike_id":"e069ac01-6fd1-4791-b354-d75427625257","system_id":"levelo_inurba_marseille","lat":43.25002,"lon":5.38941,"is_reserved":false,"is_disabled":false,"rental_uris":{"android":"levelo://app?vid=e069ac01-6fd1-4791-b354-d75427625257","ios":"levelo://app?vid=e069ac01-6fd1-4791-b354-d75427625257"},"vehicle_type_id":"4","last_reported":1733828905,"current_range_meters":18800,"station_id":"ce4bhgp2rcd13ifvqfd0","pricing_plan_id":"cebpf4jnsgd1na2vs0mg"},{"bike_id":"9f03dca4-237a-49dc-8f4b-3b6a07909c99","system_id":"levelo_inurba_marseille","lat":43.23194,"lon":5.35555,"is_reserved":false,"is_disabled":false,"rental_uris":{"android":"levelo://app?vid=9f03dca4-237a-49dc-8f4b-3b6a07909c99","ios":"levelo://app?vid=9f03dca4-237a-49dc-8f4b-3b6a07909c99"},"vehicle_type_id":"4","last_reported":1733828905,"current_range_meters":38000,"station_id":"ce4bhu92rcd13ifvqi70","pricing_plan_id":"cebpf4jnsgd1na2vs0mg"},{"bike_id":"94828288-c600-4589-88f6-ce9a0c84cc16","system_id":"levelo_inurba_marseille","lat":43.3132,"lon":5.3969,"is_reserved":false,"is_disabled":false,"rental_uris":{"android":"levelo://app?vid=94828288-c600-4589-88f6-ce9a0c84cc16","ios":"levelo://app?vid=94828288-c600-4589-88f6-ce9a0c84cc16"},"vehicle_type_id":"4","last_reported":1733828905,"current_range_meters":21600,"station_id":"ce4bgvp2rcd13ifvqcu0","pricing_plan_id":"cebpf4jnsgd1na2vs0mg"},{"bike_id":"52e7b863-5c80-4d7e-94da-49b1d77a8ea5","system_id":"levelo_inurba_marseille","lat":43.29597,"lon":5.37695,"is_reserved":false,"is_disabled":false,"rental_uris":{"android":"levelo://app?vid=52e7b863-5c80-4d7e-94da-49b1d77a8ea5","ios":"levelo://app?vid=52e7b863-5c80-4d7e-94da-49b1d77a8ea5"},"vehicle_type_id":"4","last_reported":1733828905,"current_range_meters":24400,"station_id":"ce4bgi92rcd13ifvqb90","pricing_plan_id":"cebpf4jnsgd1na2vs0mg"},{"bike_id":"e04ac60e-d0b6-4518-b264-fc2f84db2e8c","system_id":"levelo_inurba_marseille","lat":43.27494,"lon":5.42451,"is_reserved":false,"is_disabled":false,"rental_uris":{"android":"levelo://app?vid=e04ac60e-d0b6-4518-b264-fc2f84db2e8c","ios":"levelo://app?vid=e04ac60e-d0b6-4518-b264-fc2f84db2e8c"},"vehicle_type_id":"4","last_reported":1733828905,"current_range_meters":27200,"station_id":"ce4bhn92rcd13ifvqgrg","pricing_plan_id":"cebpf4jnsgd1na2vs0mg"},{"bike_id":"b190d74e-7a8a-4272-b185-2768123358c4","system_id":"levelo_inurba_marseille","lat":43.290738,"lon":5.37172,"is_reserved":false,"is_disabled":false,"rental_uris":{"android":"levelo://app?vid=b190d74e-7a8a-4272-b185-2768123358c4","ios":"levelo://app?vid=b190d74e-7a8a-4272-b185-2768123358c4"},"vehicle_type_id":"4","last_reported":1733828905,"current_range_meters":34800,"station_id":"ce4bh5p2rcd13ifvqe4g","pricing_plan_id":"cebpf4jnsgd1na2vs0mg"},{"bike_id":"451e826c-7f87-402a-a367-9336464ab951","system_id":"levelo_inurba_marseille","lat":43.32546,"lon":5.41437,"is_reserved":false,"is_disabled":false,"rental_uris":{"android":"levelo://app?vid=451e826c-7f87-402a-a367-9336464ab951","ios":"levelo://app?vid=451e826c-7f87-402a-a367-9336464ab951"},"vehicle_type_id":"4","last_reported":1733828905,"current_range_meters":38800,"station_id":"ce4bhq12rcd13ifvqhhg","pricing_plan_id":"cebpf4jnsgd1na2vs0mg"},{"bike_id":"1f79d3c5-4a16-4992-bfa2-d0413e34b4f6","system_id":"levelo_inurba_marseille","lat":43.26031,"lon":5.37552,"is_reserved":false,"is_disabled":false,"rental_uris":{"android":"levelo://app?vid=1f79d3c5-4a16-4992-bfa2-d0413e34b4f6","ios":"levelo://app?vid=1f79d3c5-4a16-4992-bfa2-d0413e34b4f6"},"vehicle_type_id":"4","last_reported":1733828905,"current_range_meters":39200,"station_id":"ce4bhgh2rcd13ifvqfa0","pricing_plan_id":"cebpf4jnsgd1na2vs0mg"},{"bike_id":"c14bb31e-e38d-4b57-ba39-038e777ad5bf","system_id":"levelo_inurba_marseille","lat":43.3248,"lon":5.3657,"is_reserved":false,"is_disabled":false,"rental_uris":{"android":"levelo://app?vid=c14bb31e-e38d-4b57-ba39-038e777ad5bf","ios":"levelo://app?vid=c14bb31e-e38d-4b57-ba39-038e777ad5bf"},"vehicle_type_id":"4","last_reported":1733828905,"current_range_meters":22000,"station_id":"ce4bhs12rcd13ifvqhvg","pricing_plan_id":"cebpf4jnsgd1na2vs0mg"},{"bike_id":"3853b148-3f14-48b4-b89b-4279e5f582b6","system_id":"levelo_inurba_marseille","lat":43.26204,"lon":5.37442,"is_reserved":false,"is_disabled":false,"rental_uris":{"android":"levelo://app?vid=3853b148-3f14-48b4-b89b-4279e5f582b6","ios":"levelo://app?vid=3853b148-3f14-48b4-b89b-4279e5f582b6"},"vehicle_type_id":"4","last_reported":1733828905,"current_range_meters":22000,"station_id":"ce4bhgp2rcd13ifvqfc0","pricing_plan_id":"cebpf4jnsgd1na2vs0mg"},{"bike_id":"eb58eff4-a602-4f83-ba71-d540b59df636","system_id":"levelo_inurba_marseille","lat":43.30807,"lon":5.3816,"is_reserved":false,"is_disabled":false,"rental_uris":{"android":"levelo://app?vid=eb58eff4-a602-4f83-ba71-d540b59df636","ios":"levelo://app?vid=eb58eff4-a602-4f83-ba71-d540b59df636"},"vehicle_type_id":"4","last_reported":1733828905,"current_range_meters":25200,"station_id":"ce4bgt12rcd13ifvqce0","pricing_plan_id":"cebpf4jnsgd1na2vs0mg"},{"bike_id":"a7ea9ae5-4db2-4fd6-a405-d887f48ee93a","system_id":"levelo_inurba_marseille","lat":43.3124,"lon":5.36845,"is_reserved":false,"is_disabled":false,"rental_uris":{"android":"levelo://app?vid=a7ea9ae5-4db2-4fd6-a405-d887f48ee93a","ios":"levelo://app?vid=a7ea9ae5-4db2-4fd6-a405-d887f48ee93a"},"vehicle_type_id":"4","last_reported":1733828905,"current_range_meters":20400,"station_id":"ce4bgl92rcd13ifvqbq0","pricing_plan_id":"cebpf4jnsgd1na2vs0mg"},{"bike_id":"6a697f1a-fdd7-41b0-901f-cff9b8875cb6","system_id":"levelo_inurba_marseille","lat":43.26949,"lon":5.38637,"is_reserved":false,"is_disabled":false,"rental_uris":{"android":"levelo://app?vid=6a697f1a-fdd7-41b0-901f-cff9b8875cb6","ios":"levelo://app?vid=6a697f1a-fdd7-41b0-901f-cff9b8875cb6"},"vehicle_type_id":"4","last_reported":1733828905,"current_range_meters":35600,"station_id":"ce4bhh92rcd13ifvqfh0","pricing_plan_id":"cebpf4jnsgd1na2vs0mg"},{"bike_id":"27facacd-5132-41a1-99e0-89fe9e3be37f","system_id":"levelo_inurba_marseille","lat":43.29285,"lon":5.36844,"is_reserved":false,"is_disabled":false,"rental_uris":{"android":"levelo://app?vid=27facacd-5132-41a1-99e0-89fe9e3be37f","ios":"levelo://app?vid=27facacd-5132-41a1-99e0-89fe9e3be37f"},"vehicle_type_id":"4","last_reported":1733828905,"current_range_meters":22800,"station_id":"ce4bhbp2rcd13ifvqesg","pricing_plan_id":"cebpf4jnsgd1na2vs0mg"},{"bike_id":"747ad0fc-33cc-47a8-8038-f2c315f98bd9","system_id":"levelo_inurba_marseille","lat":43.30541,"lon":5.36517,"is_reserved":false,"is_disabled":false,"rental_uris":{"android":"levelo://app?vid=747ad0fc-33cc-47a8-8038-f2c315f98bd9","ios":"levelo://app?vid=747ad0fc-33cc-47a8-8038-f2c315f98bd9"},"vehicle_type_id":"4","last_reported":1733828905,"current_range_meters":18000,"station_id":"ce4bgs12rcd13ifvqcag","pricing_plan_id":"cebpf4jnsgd1na2vs0mg"},{"bike_id":"25bc65ef-82a2-4c1b-8947-6adb9c03158c","system_id":"levelo_inurba_marseille","lat":43.30188,"lon":5.36604,"is_reserved":false,"is_disabled":false,"rental_uris":{"android":"levelo://app?vid=25bc65ef-82a2-4c1b-8947-6adb9c03158c","ios":"levelo://app?vid=25bc65ef-82a2-4c1b-8947-6adb9c03158c"},"vehicle_type_id":"4","last_reported":1733828905,"current_range_meters":38800,"station_id":"ce4bgrh2rcd13ifvqc8g","pricing_plan_id":"cebpf4jnsgd1na2vs0mg"},{"bike_id":"72369e3c-7a31-4199-a732-76fa73093ac4","system_id":"levelo_inurba_marseille","lat":43.31366,"lon":5.36731,"is_reserved":false,"is_disabled":true,"rental_uris":{"android":"levelo://app?vid=72369e3c-7a31-4199-a732-76fa73093ac4","ios":"levelo://app?vid=72369e3c-7a31-4199-a732-76fa73093ac4"},"vehicle_type_id":"4","last_reported":1733828905,"current_range_meters":24400,"station_id":"ce4bgr92rcd13ifvqc6g","pricing_plan_id":"cebpf4jnsgd1na2vs0mg"},{"bike_id":"1937bc61-6559-49ec-80b2-7e729f68c41a","system_id":"levelo_inurba_marseille","lat":43.29088,"lon":5.38135,"is_reserved":false,"is_disabled":false,"rental_uris":{"android":"levelo://app?vid=1937bc61-6559-49ec-80b2-7e729f68c41a","ios":"levelo://app?vid=1937bc61-6559-49ec-80b2-7e729f68c41a"},"vehicle_type_id":"4","last_reported":1733828905,"current_range_meters":16800,"station_id":"ce4bh512rcd13ifvqe2g","pricing_plan_id":"cebpf4jnsgd1na2vs0mg"},{"bike_id":"067d4f8e-eded-4040-9b89-eb14aebc4852","system_id":"levelo_inurba_marseille","lat":43.29899,"lon":5.43669,"is_reserved":false,"is_disabled":false,"rental_uris":{"android":"levelo://app?vid=067d4f8e-eded-4040-9b89-eb14aebc4852","ios":"levelo://app?vid=067d4f8e-eded-4040-9b89-eb14aebc4852"},"vehicle_type_id":"4","last_reported":1733828905,"current_range_meters":33600,"station_id":"ce4bhpp2rcd13ifvqhfg","pricing_plan_id":"cebpf4jnsgd1na2vs0mg"},{"bike_id":"c53d3e3f-2e86-474d-a49c-eef617eca619","system_id":"levelo_inurba_marseille","lat":43.2861,"lon":5.35107,"is_reserved":false,"is_disabled":false,"rental_uris":{"android":"levelo://app?vid=c53d3e3f-2e86-474d-a49c-eef617eca619","ios":"levelo://app?vid=c53d3e3f-2e86-474d-a49c-eef617eca619"},"vehicle_type_id":"4","last_reported":1733828905,"current_range_meters":22800,"station_id":"ce4bhch2rcd13ifvqeug","pricing_plan_id":"cebpf4jnsgd1na2vs0mg"},{"bike_id":"da1aefdb-caf1-4155-81fa-858ff49c920b","system_id":"levelo_inurba_marseille","lat":43.26217,"lon":5.37439,"is_reserved":false,"is_disabled":false,"rental_uris":{"android":"levelo://app?vid=da1aefdb-caf1-4155-81fa-858ff49c920b","ios":"levelo://app?vid=da1aefdb-caf1-4155-81fa-858ff49c920b"},"vehicle_type_id":"4","last_reported":1733828905,"current_range_meters":38800,"station_id":"ce4bhgp2rcd13ifvqfc0","pricing_plan_id":"cebpf4jnsgd1na2vs0mg"},{"bike_id":"a28ce13e-52a6-491b-82bb-b9a6373aad68","system_id":"levelo_inurba_marseille","lat":43.26679,"lon":5.38266,"is_reserved":false,"is_disabled":false,"rental_uris":{"android":"levelo://app?vid=a28ce13e-52a6-491b-82bb-b9a6373aad68","ios":"levelo://app?vid=a28ce13e-52a6-491b-82bb-b9a6373aad68"},"vehicle_type_id":"4","last_reported":1733828905,"current_range_meters":38000,"station_id":"ce4bhg92rcd13ifvqf90","pricing_plan_id":"cebpf4jnsgd1na2vs0mg"},{"bike_id":"9f3769a7-f392-475e-913a-8ad10d3e2daf","system_id":"levelo_inurba_marseille","lat":43.24158,"lon":5.36401,"is_reserved":false,"is_disabled":false,"rental_uris":{"android":"levelo://app?vid=9f3769a7-f392-475e-913a-8ad10d3e2daf","ios":"levelo://app?vid=9f3769a7-f392-475e-913a-8ad10d3e2daf"},"vehicle_type_id":"4","last_reported":1733828905,"current_range_meters":16400,"station_id":"cpo36qri1sfpv3e86is0","pricing_plan_id":"cebpf4jnsgd1na2vs0mg"},{"bike_id":"896d4ccf-3d83-4122-b2f2-1a77a517b0e7","system_id":"levelo_inurba_marseille","lat":43.23975,"lon":5.3663,"is_reserved":false,"is_disabled":false,"rental_uris":{"android":"levelo://app?vid=896d4ccf-3d83-4122-b2f2-1a77a517b0e7","ios":"levelo://app?vid=896d4ccf-3d83-4122-b2f2-1a77a517b0e7"},"vehicle_type_id":"4","last_reported":1733828905,"current_range_meters":38800,"station_id":"ce4bhi12rcd13ifvqfp0","pricing_plan_id":"cebpf4jnsgd1na2vs0mg"},{"bike_id":"1ab6d81e-d6dd-4f92-b90e-aa70dadcfad7","system_id":"levelo_inurba_marseille","lat":43.305275,"lon":5.384287,"is_reserved":false,"is_disabled":false,"rental_uris":{"android":"levelo://app?vid=1ab6d81e-d6dd-4f92-b90e-aa70dadcfad7","ios":"levelo://app?vid=1ab6d81e-d6dd-4f92-b90e-aa70dadcfad7"},"vehicle_type_id":"4","last_reported":1733828905,"current_range_meters":37600,"station_id":"ce4bgg92rcd13ifvqb30","pricing_plan_id":"cebpf4jnsgd1na2vs0mg"},{"bike_id":"068f3a77-c24d-4974-bfcb-4cf4b9b99ea9","system_id":"levelo_inurba_marseille","lat":43.30156,"lon":5.38099,"is_reserved":false,"is_disabled":false,"rental_uris":{"android":"levelo://app?vid=068f3a77-c24d-4974-bfcb-4cf4b9b99ea9","ios":"levelo://app?vid=068f3a77-c24d-4974-bfcb-4cf4b9b99ea9"},"vehicle_type_id":"4","last_reported":1733828905,"current_range_meters":36800,"station_id":"ce4bgjp2rcd13ifvqbh0","pricing_plan_id":"cebpf4jnsgd1na2vs0mg"},{"bike_id":"fd72cccf-a3bc-42f2-bdc3-6f149665ca78","system_id":"levelo_inurba_marseille","lat":43.2695,"lon":5.38626,"is_reserved":false,"is_disabled":false,"rental_uris":{"android":"levelo://app?vid=fd72cccf-a3bc-42f2-bdc3-6f149665ca78","ios":"levelo://app?vid=fd72cccf-a3bc-42f2-bdc3-6f149665ca78"},"vehicle_type_id":"4","last_reported":1733828905,"current_range_meters":26800,"station_id":"ce4bhh92rcd13ifvqfh0","pricing_plan_id":"cebpf4jnsgd1na2vs0mg"},{"bike_id":"667d051e-e6c5-4876-8ffe-911a7574be59","system_id":"levelo_inurba_marseille","lat":43.29097,"lon":5.38156,"is_reserved":false,"is_disabled":false,"rental_uris":{"android":"levelo://app?vid=667d051e-e6c5-4876-8ffe-911a7574be59","ios":"levelo://app?vid=667d051e-e6c5-4876-8ffe-911a7574be59"},"vehicle_type_id":"4","last_reported":1733828905,"current_range_meters":14800,"station_id":"ce4bh512rcd13ifvqe2g","pricing_plan_id":"cebpf4jnsgd1na2vs0mg"},{"bike_id":"0bc1a7fb-7f9c-4e77-8b6e-dded50a369c5","system_id":"levelo_inurba_marseille","lat":43.24387,"lon":5.37051,"is_reserved":false,"is_disabled":false,"rental_uris":{"android":"levelo://app?vid=0bc1a7fb-7f9c-4e77-8b6e-dded50a369c5","ios":"levelo://app?vid=0bc1a7fb-7f9c-4e77-8b6e-dded50a369c5"},"vehicle_type_id":"4","last_reported":1733828905,"current_range_meters":37600,"station_id":"ce4bhhh2rcd13ifvqfk0","pricing_plan_id":"cebpf4jnsgd1na2vs0mg"},{"bike_id":"71ede6cb-3773-4924-948e-77ec53727c8f","system_id":"levelo_inurba_marseille","lat":43.3175,"lon":5.37555,"is_reserved":false,"is_disabled":false,"rental_uris":{"android":"levelo://app?vid=71ede6cb-3773-4924-948e-77ec53727c8f","ios":"levelo://app?vid=71ede6cb-3773-4924-948e-77ec53727c8f"},"vehicle_type_id":"4","last_reported":1733828905,"current_range_meters":38000,"station_id":"","pricing_plan_id":"cebpf4jnsgd1na2vs0mg"},{"bike_id":"f64f06fb-773b-4f91-bec1-333e69d5cfc6","system_id":"levelo_inurba_marseille","lat":43.25817,"lon":5.39445,"is_reserved":false,"is_disabled":false,"rental_uris":{"android":"levelo://app?vid=f64f06fb-773b-4f91-bec1-333e69d5cfc6","ios":"levelo://app?vid=f64f06fb-773b-4f91-bec1-333e69d5cfc6"},"vehicle_type_id":"4","last_reported":1733828905,"current_range_meters":38800,"station_id":"ce4bhip2rcd13ifvqft0","pricing_plan_id":"cebpf4jnsgd1na2vs0mg"},{"bike_id":"25a20b03-9830-4773-bc6b-d425633d2c5c","system_id":"levelo_inurba_marseille","lat":43.247651,"lon":5.400206,"is_reserved":false,"is_disabled":true,"rental_uris":{"android":"levelo://app?vid=25a20b03-9830-4773-bc6b-d425633d2c5c","ios":"levelo://app?vid=25a20b03-9830-4773-bc6b-d425633d2c5c"},"vehicle_type_id":"4","last_reported":1733828905,"current_range_meters":0,"station_id":"","pricing_plan_id":"cebpf4jnsgd1na2vs0mg"},{"bike_id":"1a3c0bbd-7736-49b6-a0d0-cf32e3bf1fbe","system_id":"levelo_inurba_marseille","lat":43.27374,"lon":5.36259,"is_reserved":false,"is_disabled":false,"rental_uris":{"android":"levelo://app?vid=1a3c0bbd-7736-49b6-a0d0-cf32e3bf1fbe","ios":"levelo://app?vid=1a3c0bbd-7736-49b6-a0d0-cf32e3bf1fbe"},"vehicle_type_id":"4","last_reported":1733828905,"current_range_meters":38800,"station_id":"ce4bhbh2rcd13ifvqeo0","pricing_plan_id":"cebpf4jnsgd1na2vs0mg"},{"bike_id":"845a1e5f-8df3-4e13-a702-8b68ebdb22c7","system_id":"levelo_inurba_marseille","lat":43.31358,"lon":5.36709,"is_reserved":false,"is_disabled":false,"rental_uris":{"android":"levelo://app?vid=845a1e5f-8df3-4e13-a702-8b68ebdb22c7","ios":"levelo://app?vid=845a1e5f-8df3-4e13-a702-8b68ebdb22c7"},"vehicle_type_id":"4","last_reported":1733828905,"current_range_meters":34000,"station_id":"ce4bgr92rcd13ifvqc6g","pricing_plan_id":"cebpf4jnsgd1na2vs0mg"},{"bike_id":"1a37e268-21c3-4e1d-9078-98fc2beff8f3","system_id":"levelo_inurba_marseille","lat":43.26193,"lon":5.37449,"is_reserved":false,"is_disabled":false,"rental_uris":{"android":"levelo://app?vid=1a37e268-21c3-4e1d-9078-98fc2beff8f3","ios":"levelo://app?vid=1a37e268-21c3-4e1d-9078-98fc2beff8f3"},"vehicle_type_id":"4","last_reported":1733828905,"current_range_meters":16800,"station_id":"ce4bhgp2rcd13ifvqfc0","pricing_plan_id":"cebpf4jnsgd1na2vs0mg"},{"bike_id":"8b90ed47-6e40-43a2-9844-c6f3229da296","system_id":"levelo_inurba_marseille","lat":43.26197,"lon":5.37932,"is_reserved":false,"is_disabled":false,"rental_uris":{"android":"levelo://app?vid=8b90ed47-6e40-43a2-9844-c6f3229da296","ios":"levelo://app?vid=8b90ed47-6e40-43a2-9844-c6f3229da296"},"vehicle_type_id":"4","last_reported":1733828905,"current_range_meters":38800,"station_id":"ce4bhjp2rcd13ifvqg90","pricing_plan_id":"cebpf4jnsgd1na2vs0mg"},{"bike_id":"f1e1b83c-6b4c-4d52-9b3f-becfd8274a79","system_id":"levelo_inurba_marseille","lat":43.24998,"lon":5.38938,"is_reserved":false,"is_disabled":false,"rental_uris":{"android":"levelo://app?vid=f1e1b83c-6b4c-4d52-9b3f-becfd8274a79","ios":"levelo://app?vid=f1e1b83c-6b4c-4d52-9b3f-becfd8274a79"},"vehicle_type_id":"4","last_reported":1733828905,"current_range_meters":38800,"station_id":"ce4bhgp2rcd13ifvqfd0","pricing_plan_id":"cebpf4jnsgd1na2vs0mg"},{"bike_id":"b08e668c-1bb4-4290-a86c-9d38028e0941","system_id":"levelo_inurba_marseille","lat":43.249545,"lon":5.389587,"is_reserved":false,"is_disabled":false,"rental_uris":{"android":"levelo://app?vid=b08e668c-1bb4-4290-a86c-9d38028e0941","ios":"levelo://app?vid=b08e668c-1bb4-4290-a86c-9d38028e0941"},"vehicle_type_id":"4","last_reported":1733828905,"current_range_meters":15200,"station_id":"ce4bhi12rcd13ifvqfp0","pricing_plan_id":"cebpf4jnsgd1na2vs0mg"},{"bike_id":"79eec760-3148-415c-9486-9ff642f00208","system_id":"levelo_inurba_marseille","lat":43.34673,"lon":5.34564,"is_reserved":false,"is_disabled":true,"rental_uris":{"android":"levelo://app?vid=79eec760-3148-415c-9486-9ff642f00208","ios":"levelo://app?vid=79eec760-3148-415c-9486-9ff642f00208"},"vehicle_type_id":"4","last_reported":1733828905,"current_range_meters":0,"station_id":"","pricing_plan_id":"cebpf4jnsgd1na2vs0mg"},{"bike_id":"1557c875-5266-4855-9c3c-573b1ec229ea","system_id":"levelo_inurba_marseille","lat":43.28852,"lon":5.39315,"is_reserved":false,"is_disabled":false,"rental_uris":{"android":"levelo://app?vid=1557c875-5266-4855-9c3c-573b1ec229ea","ios":"levelo://app?vid=1557c875-5266-4855-9c3c-573b1ec229ea"},"vehicle_type_id":"4","last_reported":1733828905,"current_range_meters":9200,"station_id":"ce4bh2p2rcd13ifvqdi0","pricing_plan_id":"cebpf4jnsgd1na2vs0mg"},{"bike_id":"097d539c-2fb0-4695-9c7a-c109fd16c513","system_id":"levelo_inurba_marseille","lat":43.27063,"lon":5.42272,"is_reserved":false,"is_disabled":false,"rental_uris":{"android":"levelo://app?vid=097d539c-2fb0-4695-9c7a-c109fd16c513","ios":"levelo://app?vid=097d539c-2fb0-4695-9c7a-c109fd16c513"},"vehicle_type_id":"4","last_reported":1733828905,"current_range_meters":38800,"station_id":"ce4bhk92rcd13ifvqgb0","pricing_plan_id":"cebpf4jnsgd1na2vs0mg"},{"bike_id":"e5b872b2-8690-4957-a309-130481a97cb3","system_id":"levelo_inurba_marseille","lat":43.25122,"lon":5.40314,"is_reserved":false,"is_disabled":false,"rental_uris":{"android":"levelo://app?vid=e5b872b2-8690-4957-a309-130481a97cb3","ios":"levelo://app?vid=e5b872b2-8690-4957-a309-130481a97cb3"},"vehicle_type_id":"4","last_reported":1733828905,"current_range_meters":24400,"station_id":"ce4bhlh2rcd13ifvqgig","pricing_plan_id":"cebpf4jnsgd1na2vs0mg"},{"bike_id":"b135bff0-8e87-4e47-af7a-2fa72d222280","system_id":"levelo_inurba_marseille","lat":43.25725,"lon":5.41112,"is_reserved":false,"is_disabled":true,"rental_uris":{"android":"levelo://app?vid=b135bff0-8e87-4e47-af7a-2fa72d222280","ios":"levelo://app?vid=b135bff0-8e87-4e47-af7a-2fa72d222280"},"vehicle_type_id":"4","last_reported":1733828905,"current_range_meters":34000,"station_id":"ce4bhkp2rcd13ifvqgd0","pricing_plan_id":"cebpf4jnsgd1na2vs0mg"},{"bike_id":"09e8f3a7-5e09-4c1d-acc9-e200de530ef1","system_id":"levelo_inurba_marseille","lat":43.23151,"lon":5.43711,"is_reserved":false,"is_disabled":false,"rental_uris":{"android":"levelo://app?vid=09e8f3a7-5e09-4c1d-acc9-e200de530ef1","ios":"levelo://app?vid=09e8f3a7-5e09-4c1d-acc9-e200de530ef1"},"vehicle_type_id":"4","last_reported":1733828905,"current_range_meters":38800,"station_id":"ce4bhmp2rcd13ifvqgog","pricing_plan_id":"cebpf4jnsgd1na2vs0mg"},{"bike_id":"0c53f6b6-79db-44f6-861b-7b67e669176c","system_id":"levelo_inurba_marseille","lat":43.288512,"lon":5.35835,"is_reserved":false,"is_disabled":true,"rental_uris":{"android":"levelo://app?vid=0c53f6b6-79db-44f6-861b-7b67e669176c","ios":"levelo://app?vid=0c53f6b6-79db-44f6-861b-7b67e669176c"},"vehicle_type_id":"4","last_reported":1733828905,"current_range_meters":28000,"station_id":"ce4bhb12rcd13ifvqem0","pricing_plan_id":"cebpf4jnsgd1na2vs0mg"},{"bike_id":"5b424b8f-7e49-4f04-ba00-2964ce8208d8","system_id":"levelo_inurba_marseille","lat":43.30302,"lon":5.36899,"is_reserved":false,"is_disabled":false,"rental_uris":{"android":"levelo://app?vid=5b424b8f-7e49-4f04-ba00-2964ce8208d8","ios":"levelo://app?vid=5b424b8f-7e49-4f04-ba00-2964ce8208d8"},"vehicle_type_id":"4","last_reported":1733828905,"current_range_meters":26000,"station_id":"ce4bgqh2rcd13ifvqc5g","pricing_plan_id":"cebpf4jnsgd1na2vs0mg"},{"bike_id":"5d9cf087-b5e9-45dc-8386-7ffba633ef47","system_id":"levelo_inurba_marseille","lat":43.24084,"lon":5.37753,"is_reserved":false,"is_disabled":false,"rental_uris":{"android":"levelo://app?vid=5d9cf087-b5e9-45dc-8386-7ffba633ef47","ios":"levelo://app?vid=5d9cf087-b5e9-45dc-8386-7ffba633ef47"},"vehicle_type_id":"4","last_reported":1733828905,"current_range_meters":38800,"station_id":"ce4bhnp2rcd13ifvqgvg","pricing_plan_id":"cebpf4jnsgd1na2vs0mg"},{"bike_id":"16a95073-a510-4250-a0cb-0a1df2fad077","system_id":"levelo_inurba_marseille","lat":43.26499,"lon":5.39542,"is_reserved":false,"is_disabled":false,"rental_uris":{"android":"levelo://app?vid=16a95073-a510-4250-a0cb-0a1df2fad077","ios":"levelo://app?vid=16a95073-a510-4250-a0cb-0a1df2fad077"},"vehicle_type_id":"4","last_reported":1733828905,"current_range_meters":28000,"station_id":"ce4bhi12rcd13ifvqfq0","pricing_plan_id":"cebpf4jnsgd1na2vs0mg"},{"bike_id":"50f52497-54ca-47ea-a19e-1fc86f8c6045","system_id":"levelo_inurba_marseille","lat":43.28231,"lon":5.42407,"is_reserved":false,"is_disabled":true,"rental_uris":{"android":"levelo://app?vid=50f52497-54ca-47ea-a19e-1fc86f8c6045","ios":"levelo://app?vid=50f52497-54ca-47ea-a19e-1fc86f8c6045"},"vehicle_type_id":"4","last_reported":1733828905,"current_range_meters":5600,"station_id":"","pricing_plan_id":"cebpf4jnsgd1na2vs0mg"},{"bike_id":"1b2d4db1-cec0-4376-9abf-f3b964e5dcb7","system_id":"levelo_inurba_marseille","lat":43.23195,"lon":5.35551,"is_reserved":false,"is_disabled":false,"rental_uris":{"android":"levelo://app?vid=1b2d4db1-cec0-4376-9abf-f3b964e5dcb7","ios":"levelo://app?vid=1b2d4db1-cec0-4376-9abf-f3b964e5dcb7"},"vehicle_type_id":"4","last_reported":1733828905,"current_range_meters":38000,"station_id":"ce4bhu92rcd13ifvqi70","pricing_plan_id":"cebpf4jnsgd1na2vs0mg"},{"bike_id":"33f1a526-a5a3-4261-b1e0-d90c46ff918d","system_id":"levelo_inurba_marseille","lat":43.28151,"lon":5.42643,"is_reserved":false,"is_disabled":true,"rental_uris":{"android":"levelo://app?vid=33f1a526-a5a3-4261-b1e0-d90c46ff918d","ios":"levelo://app?vid=33f1a526-a5a3-4261-b1e0-d90c46ff918d"},"vehicle_type_id":"4","last_reported":1733828905,"current_range_meters":16000,"station_id":"ce4bhnh2rcd13ifvqgug","pricing_plan_id":"cebpf4jnsgd1na2vs0mg"},{"bike_id":"d03004db-82b3-4b74-a71a-f2b2ad875ee0","system_id":"levelo_inurba_marseille","lat":43.30309,"lon":5.36895,"is_reserved":false,"is_disabled":false,"rental_uris":{"android":"levelo://app?vid=d03004db-82b3-4b74-a71a-f2b2ad875ee0","ios":"levelo://app?vid=d03004db-82b3-4b74-a71a-f2b2ad875ee0"},"vehicle_type_id":"4","last_reported":1733828905,"current_range_meters":20800,"station_id":"ce4bgqh2rcd13ifvqc5g","pricing_plan_id":"cebpf4jnsgd1na2vs0mg"},{"bike_id":"2bf8a75a-5758-4b6c-b900-5b9792635b73","system_id":"levelo_inurba_marseille","lat":43.27492,"lon":5.42453,"is_reserved":false,"is_disabled":false,"rental_uris":{"android":"levelo://app?vid=2bf8a75a-5758-4b6c-b900-5b9792635b73","ios":"levelo://app?vid=2bf8a75a-5758-4b6c-b900-5b9792635b73"},"vehicle_type_id":"4","last_reported":1733828905,"current_range_meters":19200,"station_id":"ce4bhn92rcd13ifvqgrg","pricing_plan_id":"cebpf4jnsgd1na2vs0mg"},{"bike_id":"e867e4df-bdaf-4905-9f4f-695c75d7fdb0","system_id":"levelo_inurba_marseille","lat":43.26211,"lon":5.37443,"is_reserved":false,"is_disabled":false,"rental_uris":{"android":"levelo://app?vid=e867e4df-bdaf-4905-9f4f-695c75d7fdb0","ios":"levelo://app?vid=e867e4df-bdaf-4905-9f4f-695c75d7fdb0"},"vehicle_type_id":"4","last_reported":1733828905,"current_range_meters":26000,"station_id":"ce4bhgp2rcd13ifvqfc0","pricing_plan_id":"cebpf4jnsgd1na2vs0mg"},{"bike_id":"a434a58d-cb3d-461f-96a2-beff1069321a","system_id":"levelo_inurba_marseille","lat":43.29006,"lon":5.35608,"is_reserved":false,"is_disabled":false,"rental_uris":{"android":"levelo://app?vid=a434a58d-cb3d-461f-96a2-beff1069321a","ios":"levelo://app?vid=a434a58d-cb3d-461f-96a2-beff1069321a"},"vehicle_type_id":"4","last_reported":1733828905,"current_range_meters":32800,"station_id":"ce4bhb92rcd13ifvqen0","pricing_plan_id":"cebpf4jnsgd1na2vs0mg"},{"bike_id":"76a93929-4667-4f21-85b2-d2021e09cc4f","system_id":"levelo_inurba_marseille","lat":43.28617,"lon":5.35098,"is_reserved":false,"is_disabled":false,"rental_uris":{"android":"levelo://app?vid=76a93929-4667-4f21-85b2-d2021e09cc4f","ios":"levelo://app?vid=76a93929-4667-4f21-85b2-d2021e09cc4f"},"vehicle_type_id":"4","last_reported":1733828905,"current_range_meters":24800,"station_id":"ce4bhch2rcd13ifvqeug","pricing_plan_id":"cebpf4jnsgd1na2vs0mg"},{"bike_id":"5d9d33ed-3cf9-4f40-bcf4-4fd075009d99","system_id":"levelo_inurba_marseille","lat":43.26938,"lon":5.40253,"is_reserved":false,"is_disabled":false,"rental_uris":{"android":"levelo://app?vid=5d9d33ed-3cf9-4f40-bcf4-4fd075009d99","ios":"levelo://app?vid=5d9d33ed-3cf9-4f40-bcf4-4fd075009d99"},"vehicle_type_id":"4","last_reported":1733828905,"current_range_meters":38800,"station_id":"cjm6bp8fraef2m0cb0m0","pricing_plan_id":"cebpf4jnsgd1na2vs0mg"},{"bike_id":"e2e5fff8-dab3-4021-a87d-3c7c833d47d1","system_id":"levelo_inurba_marseille","lat":43.26219,"lon":5.37459,"is_reserved":false,"is_disabled":true,"rental_uris":{"android":"levelo://app?vid=e2e5fff8-dab3-4021-a87d-3c7c833d47d1","ios":"levelo://app?vid=e2e5fff8-dab3-4021-a87d-3c7c833d47d1"},"vehicle_type_id":"4","last_reported":1733828905,"current_range_meters":9200,"station_id":"ce4bhgp2rcd13ifvqfc0","pricing_plan_id":"cebpf4jnsgd1na2vs0mg"},{"bike_id":"f19953d0-b737-4681-8d54-c5b24b147fb3","system_id":"levelo_inurba_marseille","lat":43.30192,"lon":5.36632,"is_reserved":false,"is_disabled":false,"rental_uris":{"android":"levelo://app?vid=f19953d0-b737-4681-8d54-c5b24b147fb3","ios":"levelo://app?vid=f19953d0-b737-4681-8d54-c5b24b147fb3"},"vehicle_type_id":"4","last_reported":1733828905,"current_range_meters":34800,"station_id":"ce4bgrh2rcd13ifvqc8g","pricing_plan_id":"cebpf4jnsgd1na2vs0mg"},{"bike_id":"38af7c52-a2d7-4a86-b713-356ac06a533a","system_id":"levelo_inurba_marseille","lat":43.27056,"lon":5.40265,"is_reserved":false,"is_disabled":false,"rental_uris":{"android":"levelo://app?vid=38af7c52-a2d7-4a86-b713-356ac06a533a","ios":"levelo://app?vid=38af7c52-a2d7-4a86-b713-356ac06a533a"},"vehicle_type_id":"4","last_reported":1733828905,"current_range_meters":21600,"station_id":"ce4bhk92rcd13ifvqgc0","pricing_plan_id":"cebpf4jnsgd1na2vs0mg"},{"bike_id":"2cdc68bc-783f-42f1-8a2a-30a830fd99d3","system_id":"levelo_inurba_marseille","lat":43.30139,"lon":5.37405,"is_reserved":false,"is_disabled":true,"rental_uris":{"android":"levelo://app?vid=2cdc68bc-783f-42f1-8a2a-30a830fd99d3","ios":"levelo://app?vid=2cdc68bc-783f-42f1-8a2a-30a830fd99d3"},"vehicle_type_id":"4","last_reported":1733828905,"current_range_meters":400,"station_id":"ce4bgs92rcd13ifvqcc0","pricing_plan_id":"cebpf4jnsgd1na2vs0mg"},{"bike_id":"4dbc0102-fa7f-4abb-a08e-385424c87296","system_id":"levelo_inurba_marseille","lat":43.3372,"lon":5.39184,"is_reserved":false,"is_disabled":false,"rental_uris":{"android":"levelo://app?vid=4dbc0102-fa7f-4abb-a08e-385424c87296","ios":"levelo://app?vid=4dbc0102-fa7f-4abb-a08e-385424c87296"},"vehicle_type_id":"4","last_reported":1733828905,"current_range_meters":25200,"station_id":"ce4bhr92rcd13ifvqhsg","pricing_plan_id":"cebpf4jnsgd1na2vs0mg"},{"bike_id":"b55722c1-fe2d-436f-b254-16b91c1520a9","system_id":"levelo_inurba_marseille","lat":43.29091,"lon":5.38132,"is_reserved":false,"is_disabled":false,"rental_uris":{"android":"levelo://app?vid=b55722c1-fe2d-436f-b254-16b91c1520a9","ios":"levelo://app?vid=b55722c1-fe2d-436f-b254-16b91c1520a9"},"vehicle_type_id":"4","last_reported":1733828905,"current_range_meters":24800,"station_id":"ce4bh512rcd13ifvqe2g","pricing_plan_id":"cebpf4jnsgd1na2vs0mg"},{"bike_id":"d93e5c4d-b63a-4a17-a6d2-e5ee3187172a","system_id":"levelo_inurba_marseille","lat":43.30416,"lon":5.39769,"is_reserved":false,"is_disabled":false,"rental_uris":{"android":"levelo://app?vid=d93e5c4d-b63a-4a17-a6d2-e5ee3187172a","ios":"levelo://app?vid=d93e5c4d-b63a-4a17-a6d2-e5ee3187172a"},"vehicle_type_id":"4","last_reported":1733828905,"current_range_meters":34800,"station_id":"ce4bh092rcd13ifvqd20","pricing_plan_id":"cebpf4jnsgd1na2vs0mg"},{"bike_id":"d43e5ea8-13b0-4ee3-b5ea-caee40935a00","system_id":"levelo_inurba_marseille","lat":43.27174,"lon":5.40991,"is_reserved":false,"is_disabled":true,"rental_uris":{"android":"levelo://app?vid=d43e5ea8-13b0-4ee3-b5ea-caee40935a00","ios":"levelo://app?vid=d43e5ea8-13b0-4ee3-b5ea-caee40935a00"},"vehicle_type_id":"4","last_reported":1733828905,"current_range_meters":2000,"station_id":"ce4bhl12rcd13ifvqgf0","pricing_plan_id":"cebpf4jnsgd1na2vs0mg"},{"bike_id":"51827b30-1054-4023-966a-04e7ca050fbb","system_id":"levelo_inurba_marseille","lat":43.30155,"lon":5.3741,"is_reserved":false,"is_disabled":false,"rental_uris":{"android":"levelo://app?vid=51827b30-1054-4023-966a-04e7ca050fbb","ios":"levelo://app?vid=51827b30-1054-4023-966a-04e7ca050fbb"},"vehicle_type_id":"4","last_reported":1733828905,"current_range_meters":22000,"station_id":"ce4bgs92rcd13ifvqcc0","pricing_plan_id":"cebpf4jnsgd1na2vs0mg"},{"bike_id":"dd79d1e9-79ed-4c01-9301-9d51389a73fe","system_id":"levelo_inurba_marseille","lat":43.27903,"lon":5.38017,"is_reserved":false,"is_disabled":false,"rental_uris":{"android":"levelo://app?vid=dd79d1e9-79ed-4c01-9301-9d51389a73fe","ios":"levelo://app?vid=dd79d1e9-79ed-4c01-9301-9d51389a73fe"},"vehicle_type_id":"4","last_reported":1733828905,"current_range_meters":37600,"station_id":"ce4bhf92rcd13ifvqf50","pricing_plan_id":"cebpf4jnsgd1na2vs0mg"},{"bike_id":"2a8b23eb-d251-4f9a-825b-2bccc8b4aedd","system_id":"levelo_inurba_marseille","lat":43.26796,"lon":5.39415,"is_reserved":false,"is_disabled":false,"rental_uris":{"android":"levelo://app?vid=2a8b23eb-d251-4f9a-825b-2bccc8b4aedd","ios":"levelo://app?vid=2a8b23eb-d251-4f9a-825b-2bccc8b4aedd"},"vehicle_type_id":"4","last_reported":1733828905,"current_range_meters":36800,"station_id":"ce4bhh12rcd13ifvqfg0","pricing_plan_id":"cebpf4jnsgd1na2vs0mg"},{"bike_id":"eb4e32cd-a02d-4e92-a013-1fdc0dd71ccb","system_id":"levelo_inurba_marseille","lat":43.324799,"lon":5.365716,"is_reserved":false,"is_disabled":true,"rental_uris":{"android":"levelo://app?vid=eb4e32cd-a02d-4e92-a013-1fdc0dd71ccb","ios":"levelo://app?vid=eb4e32cd-a02d-4e92-a013-1fdc0dd71ccb"},"vehicle_type_id":"4","last_reported":1733828905,"current_range_meters":0,"station_id":"","pricing_plan_id":"cebpf4jnsgd1na2vs0mg"},{"bike_id":"ad24f16e-2206-4a3c-9b57-73b59ffe17ba","system_id":"levelo_inurba_marseille","lat":43.24164,"lon":5.36383,"is_reserved":false,"is_disabled":false,"rental_uris":{"android":"levelo://app?vid=ad24f16e-2206-4a3c-9b57-73b59ffe17ba","ios":"levelo://app?vid=ad24f16e-2206-4a3c-9b57-73b59ffe17ba"},"vehicle_type_id":"4","last_reported":1733828905,"current_range_meters":36000,"station_id":"cpo36qri1sfpv3e86is0","pricing_plan_id":"cebpf4jnsgd1na2vs0mg"},{"bike_id":"587d3624-0230-4792-967d-f8a4c012d5bf","system_id":"levelo_inurba_marseille","lat":43.29291,"lon":5.37444,"is_reserved":false,"is_disabled":false,"rental_uris":{"android":"levelo://app?vid=587d3624-0230-4792-967d-f8a4c012d5bf","ios":"levelo://app?vid=587d3624-0230-4792-967d-f8a4c012d5bf"},"vehicle_type_id":"4","last_reported":1733828905,"current_range_meters":14400,"station_id":"ce4bgi12rcd13ifvqb70","pricing_plan_id":"cebpf4jnsgd1na2vs0mg"},{"bike_id":"2a6d6a3c-6b36-408c-b734-a7123f22b4fc","system_id":"levelo_inurba_marseille","lat":43.30088,"lon":5.3815,"is_reserved":false,"is_disabled":false,"rental_uris":{"android":"levelo://app?vid=2a6d6a3c-6b36-408c-b734-a7123f22b4fc","ios":"levelo://app?vid=2a6d6a3c-6b36-408c-b734-a7123f22b4fc"},"vehicle_type_id":"4","last_reported":1733828905,"current_range_meters":14800,"station_id":"ce4bgj12rcd13ifvqbc0","pricing_plan_id":"cebpf4jnsgd1na2vs0mg"},{"bike_id":"2e9bb92c-ad97-4a19-898b-037006ff3892","system_id":"levelo_inurba_marseille","lat":43.25002,"lon":5.38935,"is_reserved":false,"is_disabled":false,"rental_uris":{"android":"levelo://app?vid=2e9bb92c-ad97-4a19-898b-037006ff3892","ios":"levelo://app?vid=2e9bb92c-ad97-4a19-898b-037006ff3892"},"vehicle_type_id":"4","last_reported":1733828905,"current_range_meters":38800,"station_id":"ce4bhgp2rcd13ifvqfd0","pricing_plan_id":"cebpf4jnsgd1na2vs0mg"},{"bike_id":"fdccdfdc-9e02-42d3-bb31-3127ff0c6309","system_id":"levelo_inurba_marseille","lat":43.25936,"lon":5.40904,"is_reserved":false,"is_disabled":true,"rental_uris":{"android":"levelo://app?vid=fdccdfdc-9e02-42d3-bb31-3127ff0c6309","ios":"levelo://app?vid=fdccdfdc-9e02-42d3-bb31-3127ff0c6309"},"vehicle_type_id":"4","last_reported":1733828905,"current_range_meters":32000,"station_id":"ce4bhm92rcd13ifvqglg","pricing_plan_id":"cebpf4jnsgd1na2vs0mg"},{"bike_id":"26924fb9-4179-4abe-8b03-e0d47c141d92","system_id":"levelo_inurba_marseille","lat":43.2718,"lon":5.40991,"is_reserved":false,"is_disabled":false,"rental_uris":{"android":"levelo://app?vid=26924fb9-4179-4abe-8b03-e0d47c141d92","ios":"levelo://app?vid=26924fb9-4179-4abe-8b03-e0d47c141d92"},"vehicle_type_id":"4","last_reported":1733828905,"current_range_meters":27600,"station_id":"ce4bhl12rcd13ifvqgf0","pricing_plan_id":"cebpf4jnsgd1na2vs0mg"},{"bike_id":"2baa0bd7-84ae-47ca-8605-62b52488ff89","system_id":"levelo_inurba_marseille","lat":43.24081,"lon":5.37744,"is_reserved":false,"is_disabled":false,"rental_uris":{"android":"levelo://app?vid=2baa0bd7-84ae-47ca-8605-62b52488ff89","ios":"levelo://app?vid=2baa0bd7-84ae-47ca-8605-62b52488ff89"},"vehicle_type_id":"4","last_reported":1733828905,"current_range_meters":28000,"station_id":"ce4bhnp2rcd13ifvqgvg","pricing_plan_id":"cebpf4jnsgd1na2vs0mg"},{"bike_id":"7bdec345-eeec-47c0-a1aa-d0b0f44ab6d1","system_id":"levelo_inurba_marseille","lat":43.32662,"lon":5.40985,"is_reserved":false,"is_disabled":true,"rental_uris":{"android":"levelo://app?vid=7bdec345-eeec-47c0-a1aa-d0b0f44ab6d1","ios":"levelo://app?vid=7bdec345-eeec-47c0-a1aa-d0b0f44ab6d1"},"vehicle_type_id":"4","last_reported":1733828905,"current_range_meters":38800,"station_id":"ce4bhpp2rcd13ifvqhgg","pricing_plan_id":"cebpf4jnsgd1na2vs0mg"},{"bike_id":"a802ac54-c436-4285-9977-b3bd374ee43d","system_id":"levelo_inurba_marseille","lat":43.30516,"lon":5.36709,"is_reserved":false,"is_disabled":false,"rental_uris":{"android":"levelo://app?vid=a802ac54-c436-4285-9977-b3bd374ee43d","ios":"levelo://app?vid=a802ac54-c436-4285-9977-b3bd374ee43d"},"vehicle_type_id":"4","last_reported":1733828905,"current_range_meters":38400,"station_id":"ce4bgrp2rcd13ifvqc9g","pricing_plan_id":"cebpf4jnsgd1na2vs0mg"},{"bike_id":"d2ce5a5e-cb0d-4c80-8e57-fe68ebdd86e6","system_id":"levelo_inurba_marseille","lat":43.29928,"lon":5.37481,"is_reserved":false,"is_disabled":false,"rental_uris":{"android":"levelo://app?vid=d2ce5a5e-cb0d-4c80-8e57-fe68ebdd86e6","ios":"levelo://app?vid=d2ce5a5e-cb0d-4c80-8e57-fe68ebdd86e6"},"vehicle_type_id":"4","last_reported":1733828905,"current_range_meters":25200,"station_id":"ce4bgjh2rcd13ifvqbg0","pricing_plan_id":"cebpf4jnsgd1na2vs0mg"},{"bike_id":"597d0862-53df-4de0-875a-d52fcbcfa6b8","system_id":"levelo_inurba_marseille","lat":43.27053,"lon":5.40256,"is_reserved":false,"is_disabled":false,"rental_uris":{"android":"levelo://app?vid=597d0862-53df-4de0-875a-d52fcbcfa6b8","ios":"levelo://app?vid=597d0862-53df-4de0-875a-d52fcbcfa6b8"},"vehicle_type_id":"4","last_reported":1733828905,"current_range_meters":33200,"station_id":"ce4bhk92rcd13ifvqgc0","pricing_plan_id":"cebpf4jnsgd1na2vs0mg"},{"bike_id":"c758d2e6-4cef-4394-80e2-cb12ac93859a","system_id":"levelo_inurba_marseille","lat":43.25,"lon":5.38923,"is_reserved":false,"is_disabled":false,"rental_uris":{"android":"levelo://app?vid=c758d2e6-4cef-4394-80e2-cb12ac93859a","ios":"levelo://app?vid=c758d2e6-4cef-4394-80e2-cb12ac93859a"},"vehicle_type_id":"4","last_reported":1733828905,"current_range_meters":36800,"station_id":"ce4bhgp2rcd13ifvqfd0","pricing_plan_id":"cebpf4jnsgd1na2vs0mg"},{"bike_id":"0ccd581d-9c76-4795-b702-2d923b116e9d","system_id":"levelo_inurba_marseille","lat":43.27176,"lon":5.40987,"is_reserved":false,"is_disabled":false,"rental_uris":{"android":"levelo://app?vid=0ccd581d-9c76-4795-b702-2d923b116e9d","ios":"levelo://app?vid=0ccd581d-9c76-4795-b702-2d923b116e9d"},"vehicle_type_id":"4","last_reported":1733828905,"current_range_meters":32000,"station_id":"ce4bhl12rcd13ifvqgf0","pricing_plan_id":"cebpf4jnsgd1na2vs0mg"},{"bike_id":"95d8628d-10b1-47e7-9a42-9b126ec315c6","system_id":"levelo_inurba_marseille","lat":43.23187,"lon":5.35569,"is_reserved":false,"is_disabled":false,"rental_uris":{"android":"levelo://app?vid=95d8628d-10b1-47e7-9a42-9b126ec315c6","ios":"levelo://app?vid=95d8628d-10b1-47e7-9a42-9b126ec315c6"},"vehicle_type_id":"4","last_reported":1733828905,"current_range_meters":24800,"station_id":"ce4bhu92rcd13ifvqi70","pricing_plan_id":"cebpf4jnsgd1na2vs0mg"},{"bike_id":"7241496b-c0e0-4e83-925f-f515cbbcb333","system_id":"levelo_inurba_marseille","lat":43.27054,"lon":5.40262,"is_reserved":false,"is_disabled":false,"rental_uris":{"android":"levelo://app?vid=7241496b-c0e0-4e83-925f-f515cbbcb333","ios":"levelo://app?vid=7241496b-c0e0-4e83-925f-f515cbbcb333"},"vehicle_type_id":"4","last_reported":1733828905,"current_range_meters":8400,"station_id":"ce4bhk92rcd13ifvqgc0","pricing_plan_id":"cebpf4jnsgd1na2vs0mg"},{"bike_id":"e924cdac-c00b-415f-837d-c34cc77b86a1","system_id":"levelo_inurba_marseille","lat":43.24805,"lon":5.3745,"is_reserved":false,"is_disabled":false,"rental_uris":{"android":"levelo://app?vid=e924cdac-c00b-415f-837d-c34cc77b86a1","ios":"levelo://app?vid=e924cdac-c00b-415f-837d-c34cc77b86a1"},"vehicle_type_id":"4","last_reported":1733828905,"current_range_meters":12000,"station_id":"ce4bhgh2rcd13ifvqfb0","pricing_plan_id":"cebpf4jnsgd1na2vs0mg"},{"bike_id":"6b6aa8a1-1c65-4125-9c8b-d28d13870c26","system_id":"levelo_inurba_marseille","lat":43.26946,"lon":5.3864,"is_reserved":false,"is_disabled":false,"rental_uris":{"android":"levelo://app?vid=6b6aa8a1-1c65-4125-9c8b-d28d13870c26","ios":"levelo://app?vid=6b6aa8a1-1c65-4125-9c8b-d28d13870c26"},"vehicle_type_id":"4","last_reported":1733828905,"current_range_meters":38800,"station_id":"ce4bhh92rcd13ifvqfh0","pricing_plan_id":"cebpf4jnsgd1na2vs0mg"},{"bike_id":"55fb5cce-a387-4942-8b44-0194802fccc0","system_id":"levelo_inurba_marseille","lat":43.32057,"lon":5.41552,"is_reserved":false,"is_disabled":false,"rental_uris":{"android":"levelo://app?vid=55fb5cce-a387-4942-8b44-0194802fccc0","ios":"levelo://app?vid=55fb5cce-a387-4942-8b44-0194802fccc0"},"vehicle_type_id":"4","last_reported":1733828905,"current_range_meters":10000,"station_id":"ce4bhq92rcd13ifvqhkg","pricing_plan_id":"cebpf4jnsgd1na2vs0mg"},{"bike_id":"35d2c471-8551-4a3a-ad60-d68b49a23ff1","system_id":"levelo_inurba_marseille","lat":43.28461,"lon":5.35882,"is_reserved":false,"is_disabled":false,"rental_uris":{"android":"levelo://app?vid=35d2c471-8551-4a3a-ad60-d68b49a23ff1","ios":"levelo://app?vid=35d2c471-8551-4a3a-ad60-d68b49a23ff1"},"vehicle_type_id":"4","last_reported":1733828905,"current_range_meters":26800,"station_id":"ce4bhah2rcd13ifvqei0","pricing_plan_id":"cebpf4jnsgd1na2vs0mg"},{"bike_id":"570bad79-da0a-4f0e-bd71-fcfb4fde31b3","system_id":"levelo_inurba_marseille","lat":43.23955,"lon":5.36635,"is_reserved":false,"is_disabled":true,"rental_uris":{"android":"levelo://app?vid=570bad79-da0a-4f0e-bd71-fcfb4fde31b3","ios":"levelo://app?vid=570bad79-da0a-4f0e-bd71-fcfb4fde31b3"},"vehicle_type_id":"4","last_reported":1733828905,"current_range_meters":33600,"station_id":"ce4bhi12rcd13ifvqfp0","pricing_plan_id":"cebpf4jnsgd1na2vs0mg"},{"bike_id":"0f20b602-7b45-4989-92b6-4d1c64ab5468","system_id":"levelo_inurba_marseille","lat":43.26553,"lon":5.37292,"is_reserved":false,"is_disabled":false,"rental_uris":{"android":"levelo://app?vid=0f20b602-7b45-4989-92b6-4d1c64ab5468","ios":"levelo://app?vid=0f20b602-7b45-4989-92b6-4d1c64ab5468"},"vehicle_type_id":"4","last_reported":1733828905,"current_range_meters":34000,"station_id":"ce4bhg12rcd13ifvqf70","pricing_plan_id":"cebpf4jnsgd1na2vs0mg"},{"bike_id":"a137d7c7-faef-4058-8263-868184c3ace6","system_id":"levelo_inurba_marseille","lat":43.30573,"lon":5.36737,"is_reserved":false,"is_disabled":false,"rental_uris":{"android":"levelo://app?vid=a137d7c7-faef-4058-8263-868184c3ace6","ios":"levelo://app?vid=a137d7c7-faef-4058-8263-868184c3ace6"},"vehicle_type_id":"4","last_reported":1733828905,"current_range_meters":18000,"station_id":"ce4bgrp2rcd13ifvqc9g","pricing_plan_id":"cebpf4jnsgd1na2vs0mg"},{"bike_id":"8f223178-6a38-4832-a975-4b3ff773e01b","system_id":"levelo_inurba_marseille","lat":43.2737,"lon":5.3626,"is_reserved":false,"is_disabled":false,"rental_uris":{"android":"levelo://app?vid=8f223178-6a38-4832-a975-4b3ff773e01b","ios":"levelo://app?vid=8f223178-6a38-4832-a975-4b3ff773e01b"},"vehicle_type_id":"4","last_reported":1733828905,"current_range_meters":37600,"station_id":"ce4bhbh2rcd13ifvqeo0","pricing_plan_id":"cebpf4jnsgd1na2vs0mg"},{"bike_id":"e19bbcd4-547c-4c48-9d1e-941b58bfe99b","system_id":"levelo_inurba_marseille","lat":43.3136,"lon":5.36701,"is_reserved":false,"is_disabled":false,"rental_uris":{"android":"levelo://app?vid=e19bbcd4-547c-4c48-9d1e-941b58bfe99b","ios":"levelo://app?vid=e19bbcd4-547c-4c48-9d1e-941b58bfe99b"},"vehicle_type_id":"4","last_reported":1733828905,"current_range_meters":37600,"station_id":"ce4bgr92rcd13ifvqc6g","pricing_plan_id":"cebpf4jnsgd1na2vs0mg"},{"bike_id":"b8e7f883-5b9b-422d-81e9-d00c2442da3b","system_id":"levelo_inurba_marseille","lat":43.23055,"lon":5.35491,"is_reserved":false,"is_disabled":false,"rental_uris":{"android":"levelo://app?vid=b8e7f883-5b9b-422d-81e9-d00c2442da3b","ios":"levelo://app?vid=b8e7f883-5b9b-422d-81e9-d00c2442da3b"},"vehicle_type_id":"4","last_reported":1733828905,"current_range_meters":36800,"station_id":"cpo3342slgdg3j2ifvpg","pricing_plan_id":"cebpf4jnsgd1na2vs0mg"},{"bike_id":"bd8fb896-4629-4fdb-a7c3-d5e4c76b6b63","system_id":"levelo_inurba_marseille","lat":43.33601,"lon":5.41023,"is_reserved":false,"is_disabled":false,"rental_uris":{"android":"levelo://app?vid=bd8fb896-4629-4fdb-a7c3-d5e4c76b6b63","ios":"levelo://app?vid=bd8fb896-4629-4fdb-a7c3-d5e4c76b6b63"},"vehicle_type_id":"4","last_reported":1733828905,"current_range_meters":36800,"station_id":"ce4bhqh2rcd13ifvqhmg","pricing_plan_id":"cebpf4jnsgd1na2vs0mg"},{"bike_id":"c1598c12-4bef-4141-a99f-8dd71c41b81d","system_id":"levelo_inurba_marseille","lat":43.24176,"lon":5.39721,"is_reserved":false,"is_disabled":false,"rental_uris":{"android":"levelo://app?vid=c1598c12-4bef-4141-a99f-8dd71c41b81d","ios":"levelo://app?vid=c1598c12-4bef-4141-a99f-8dd71c41b81d"},"vehicle_type_id":"4","last_reported":1733828905,"current_range_meters":38800,"station_id":"ce4bhn12rcd13ifvqgpg","pricing_plan_id":"cebpf4jnsgd1na2vs0mg"},{"bike_id":"fadc8261-4904-41bb-91df-440ac781a57f","system_id":"levelo_inurba_marseille","lat":43.26676,"lon":5.38274,"is_reserved":false,"is_disabled":false,"rental_uris":{"android":"levelo://app?vid=fadc8261-4904-41bb-91df-440ac781a57f","ios":"levelo://app?vid=fadc8261-4904-41bb-91df-440ac781a57f"},"vehicle_type_id":"4","last_reported":1733828905,"current_range_meters":26800,"station_id":"ce4bhg92rcd13ifvqf90","pricing_plan_id":"cebpf4jnsgd1na2vs0mg"},{"bike_id":"e16c224a-e51e-4885-b82d-7931df0de257","system_id":"levelo_inurba_marseille","lat":43.29938,"lon":5.36545,"is_reserved":false,"is_disabled":false,"rental_uris":{"android":"levelo://app?vid=e16c224a-e51e-4885-b82d-7931df0de257","ios":"levelo://app?vid=e16c224a-e51e-4885-b82d-7931df0de257"},"vehicle_type_id":"4","last_reported":1733828905,"current_range_meters":26800,"station_id":"ce4bgm92rcd13ifvqbr0","pricing_plan_id":"cebpf4jnsgd1na2vs0mg"},{"bike_id":"e6218eaa-37bf-4998-acca-c2ec589e34de","system_id":"levelo_inurba_marseille","lat":43.29567,"lon":5.37499,"is_reserved":false,"is_disabled":false,"rental_uris":{"android":"levelo://app?vid=e6218eaa-37bf-4998-acca-c2ec589e34de","ios":"levelo://app?vid=e6218eaa-37bf-4998-acca-c2ec589e34de"},"vehicle_type_id":"4","last_reported":1733828905,"current_range_meters":35600,"station_id":"ce4bgh92rcd13ifvqb50","pricing_plan_id":"cebpf4jnsgd1na2vs0mg"},{"bike_id":"298f7651-e2c6-4246-8816-55428e400efe","system_id":"levelo_inurba_marseille","lat":43.274964,"lon":5.424434,"is_reserved":false,"is_disabled":false,"rental_uris":{"android":"levelo://app?vid=298f7651-e2c6-4246-8816-55428e400efe","ios":"levelo://app?vid=298f7651-e2c6-4246-8816-55428e400efe"},"vehicle_type_id":"4","last_reported":1733828905,"current_range_meters":32000,"station_id":"ce4bhn92rcd13ifvqgrg","pricing_plan_id":"cebpf4jnsgd1na2vs0mg"},{"bike_id":"a0b44e86-9121-4df3-b62a-0fc9a0d1110c","system_id":"levelo_inurba_marseille","lat":43.23068,"lon":5.35499,"is_reserved":false,"is_disabled":false,"rental_uris":{"android":"levelo://app?vid=a0b44e86-9121-4df3-b62a-0fc9a0d1110c","ios":"levelo://app?vid=a0b44e86-9121-4df3-b62a-0fc9a0d1110c"},"vehicle_type_id":"4","last_reported":1733828905,"current_range_meters":36800,"station_id":"cpo3342slgdg3j2ifvpg","pricing_plan_id":"cebpf4jnsgd1na2vs0mg"},{"bike_id":"2e01685f-56b8-43fb-8326-4885035c7450","system_id":"levelo_inurba_marseille","lat":43.30125,"lon":5.38789,"is_reserved":false,"is_disabled":true,"rental_uris":{"android":"levelo://app?vid=2e01685f-56b8-43fb-8326-4885035c7450","ios":"levelo://app?vid=2e01685f-56b8-43fb-8326-4885035c7450"},"vehicle_type_id":"4","last_reported":1733828905,"current_range_meters":0,"station_id":"ce4bghh2rcd13ifvqb60","pricing_plan_id":"cebpf4jnsgd1na2vs0mg"},{"bike_id":"f87cf9e6-dfc9-4626-bb94-2221a897c82e","system_id":"levelo_inurba_marseille","lat":43.25503,"lon":5.37652,"is_reserved":false,"is_disabled":false,"rental_uris":{"android":"levelo://app?vid=f87cf9e6-dfc9-4626-bb94-2221a897c82e","ios":"levelo://app?vid=f87cf9e6-dfc9-4626-bb94-2221a897c82e"},"vehicle_type_id":"4","last_reported":1733828905,"current_range_meters":38800,"station_id":"ce4bhh12rcd13ifvqff0","pricing_plan_id":"cebpf4jnsgd1na2vs0mg"},{"bike_id":"7bf913d9-a3c4-4599-8d55-d226644c68a3","system_id":"levelo_inurba_marseille","lat":43.26943,"lon":5.40241,"is_reserved":false,"is_disabled":false,"rental_uris":{"android":"levelo://app?vid=7bf913d9-a3c4-4599-8d55-d226644c68a3","ios":"levelo://app?vid=7bf913d9-a3c4-4599-8d55-d226644c68a3"},"vehicle_type_id":"4","last_reported":1733828905,"current_range_meters":17200,"station_id":"cjm6bp8fraef2m0cb0m0","pricing_plan_id":"cebpf4jnsgd1na2vs0mg"},{"bike_id":"127262d1-6a7c-4722-a817-f0ae38c2b2d7","system_id":"levelo_inurba_marseille","lat":43.25492,"lon":5.37648,"is_reserved":false,"is_disabled":false,"rental_uris":{"android":"levelo://app?vid=127262d1-6a7c-4722-a817-f0ae38c2b2d7","ios":"levelo://app?vid=127262d1-6a7c-4722-a817-f0ae38c2b2d7"},"vehicle_type_id":"4","last_reported":1733828905,"current_range_meters":38800,"station_id":"ce4bhh12rcd13ifvqff0","pricing_plan_id":"cebpf4jnsgd1na2vs0mg"},{"bike_id":"e88617e0-4510-4e1c-859a-50f6624ccf2d","system_id":"levelo_inurba_marseille","lat":43.26572,"lon":5.39016,"is_reserved":false,"is_disabled":false,"rental_uris":{"android":"levelo://app?vid=e88617e0-4510-4e1c-859a-50f6624ccf2d","ios":"levelo://app?vid=e88617e0-4510-4e1c-859a-50f6624ccf2d"},"vehicle_type_id":"4","last_reported":1733828905,"current_range_meters":37600,"station_id":"ce4bhe12rcd13ifvqf30","pricing_plan_id":"cebpf4jnsgd1na2vs0mg"},{"bike_id":"4ae5fe7f-a755-40fe-9b35-59fbb2437146","system_id":"levelo_inurba_marseille","lat":43.2417,"lon":5.36393,"is_reserved":false,"is_disabled":false,"rental_uris":{"android":"levelo://app?vid=4ae5fe7f-a755-40fe-9b35-59fbb2437146","ios":"levelo://app?vid=4ae5fe7f-a755-40fe-9b35-59fbb2437146"},"vehicle_type_id":"4","last_reported":1733828905,"current_range_meters":17200,"station_id":"cpo36qri1sfpv3e86is0","pricing_plan_id":"cebpf4jnsgd1na2vs0mg"},{"bike_id":"eab7c24e-3533-4637-b397-5e46bc48ccfd","system_id":"levelo_inurba_marseille","lat":43.23134,"lon":5.43711,"is_reserved":false,"is_disabled":true,"rental_uris":{"android":"levelo://app?vid=eab7c24e-3533-4637-b397-5e46bc48ccfd","ios":"levelo://app?vid=eab7c24e-3533-4637-b397-5e46bc48ccfd"},"vehicle_type_id":"4","last_reported":1733828905,"current_range_meters":6000,"station_id":"ce4bhmp2rcd13ifvqgog","pricing_plan_id":"cebpf4jnsgd1na2vs0mg"},{"bike_id":"45f6a38b-5c80-4482-8c67-5b749b11bb13","system_id":"levelo_inurba_marseille","lat":43.29839,"lon":5.3972,"is_reserved":false,"is_disabled":false,"rental_uris":{"android":"levelo://app?vid=45f6a38b-5c80-4482-8c67-5b749b11bb13","ios":"levelo://app?vid=45f6a38b-5c80-4482-8c67-5b749b11bb13"},"vehicle_type_id":"4","last_reported":1733828905,"current_range_meters":24400,"station_id":"ce4bh0h2rcd13ifvqd50","pricing_plan_id":"cebpf4jnsgd1na2vs0mg"},{"bike_id":"52faddf1-0ff3-4206-8aa8-aff9638128da","system_id":"levelo_inurba_marseille","lat":43.29296,"lon":5.37451,"is_reserved":false,"is_disabled":true,"rental_uris":{"android":"levelo://app?vid=52faddf1-0ff3-4206-8aa8-aff9638128da","ios":"levelo://app?vid=52faddf1-0ff3-4206-8aa8-aff9638128da"},"vehicle_type_id":"4","last_reported":1733828905,"current_range_meters":39200,"station_id":"ce4bgi12rcd13ifvqb70","pricing_plan_id":"cebpf4jnsgd1na2vs0mg"},{"bike_id":"1c82cdc6-5661-47ac-a054-ed3728d3e4c8","system_id":"levelo_inurba_marseille","lat":43.29264,"lon":5.40907,"is_reserved":false,"is_disabled":false,"rental_uris":{"android":"levelo://app?vid=1c82cdc6-5661-47ac-a054-ed3728d3e4c8","ios":"levelo://app?vid=1c82cdc6-5661-47ac-a054-ed3728d3e4c8"},"vehicle_type_id":"4","last_reported":1733828905,"current_range_meters":20000,"station_id":"ce4bh192rcd13ifvqdc0","pricing_plan_id":"cebpf4jnsgd1na2vs0mg"},{"bike_id":"41b109e1-7867-4eed-b84d-27444e7d34b9","system_id":"levelo_inurba_marseille","lat":43.29372,"lon":5.37858,"is_reserved":false,"is_disabled":false,"rental_uris":{"android":"levelo://app?vid=41b109e1-7867-4eed-b84d-27444e7d34b9","ios":"levelo://app?vid=41b109e1-7867-4eed-b84d-27444e7d34b9"},"vehicle_type_id":"4","last_reported":1733828905,"current_range_meters":38000,"station_id":"ce4bgjh2rcd13ifvqbf0","pricing_plan_id":"cebpf4jnsgd1na2vs0mg"},{"bike_id":"962a96b4-3298-40d0-92e0-1b449f02c0fe","system_id":"levelo_inurba_marseille","lat":43.25494,"lon":5.37647,"is_reserved":false,"is_disabled":true,"rental_uris":{"android":"levelo://app?vid=962a96b4-3298-40d0-92e0-1b449f02c0fe","ios":"levelo://app?vid=962a96b4-3298-40d0-92e0-1b449f02c0fe"},"vehicle_type_id":"4","last_reported":1733828905,"current_range_meters":36800,"station_id":"ce4bhh12rcd13ifvqff0","pricing_plan_id":"cebpf4jnsgd1na2vs0mg"},{"bike_id":"44904e88-5d6a-45ad-b485-a2de985818c6","system_id":"levelo_inurba_marseille","lat":43.30419,"lon":5.39732,"is_reserved":false,"is_disabled":false,"rental_uris":{"android":"levelo://app?vid=44904e88-5d6a-45ad-b485-a2de985818c6","ios":"levelo://app?vid=44904e88-5d6a-45ad-b485-a2de985818c6"},"vehicle_type_id":"4","last_reported":1733828905,"current_range_meters":22000,"station_id":"ce4bh092rcd13ifvqd20","pricing_plan_id":"cebpf4jnsgd1na2vs0mg"},{"bike_id":"d73fdcb9-23ea-4494-b7d9-77b27c38bfbd","system_id":"levelo_inurba_marseille","lat":43.31228,"lon":5.36847,"is_reserved":false,"is_disabled":false,"rental_uris":{"android":"levelo://app?vid=d73fdcb9-23ea-4494-b7d9-77b27c38bfbd","ios":"levelo://app?vid=d73fdcb9-23ea-4494-b7d9-77b27c38bfbd"},"vehicle_type_id":"4","last_reported":1733828905,"current_range_meters":38800,"station_id":"ce4bgl92rcd13ifvqbq0","pricing_plan_id":"cebpf4jnsgd1na2vs0mg"},{"bike_id":"ba5e4c54-9e0f-419d-acd3-894b4507a88b","system_id":"levelo_inurba_marseille","lat":43.23055,"lon":5.35487,"is_reserved":false,"is_disabled":false,"rental_uris":{"android":"levelo://app?vid=ba5e4c54-9e0f-419d-acd3-894b4507a88b","ios":"levelo://app?vid=ba5e4c54-9e0f-419d-acd3-894b4507a88b"},"vehicle_type_id":"4","last_reported":1733828905,"current_range_meters":26800,"station_id":"cpo3342slgdg3j2ifvpg","pricing_plan_id":"cebpf4jnsgd1na2vs0mg"},{"bike_id":"e11e5398-2b26-4eb7-9ef7-831791928bde","system_id":"levelo_inurba_marseille","lat":43.31355,"lon":5.36708,"is_reserved":false,"is_disabled":false,"rental_uris":{"android":"levelo://app?vid=e11e5398-2b26-4eb7-9ef7-831791928bde","ios":"levelo://app?vid=e11e5398-2b26-4eb7-9ef7-831791928bde"},"vehicle_type_id":"4","last_reported":1733828905,"current_range_meters":38800,"station_id":"ce4bgr92rcd13ifvqc6g","pricing_plan_id":"cebpf4jnsgd1na2vs0mg"},{"bike_id":"fffa14be-58a4-4d6c-9582-c535b5f77ae9","system_id":"levelo_inurba_marseille","lat":43.2737,"lon":5.36269,"is_reserved":false,"is_disabled":false,"rental_uris":{"android":"levelo://app?vid=fffa14be-58a4-4d6c-9582-c535b5f77ae9","ios":"levelo://app?vid=fffa14be-58a4-4d6c-9582-c535b5f77ae9"},"vehicle_type_id":"4","last_reported":1733828905,"current_range_meters":38800,"station_id":"ce4bhbh2rcd13ifvqeo0","pricing_plan_id":"cebpf4jnsgd1na2vs0mg"},{"bike_id":"155e4552-adf3-45a5-aa6c-6e25fcaf05e5","system_id":"levelo_inurba_marseille","lat":43.27177,"lon":5.40992,"is_reserved":false,"is_disabled":false,"rental_uris":{"android":"levelo://app?vid=155e4552-adf3-45a5-aa6c-6e25fcaf05e5","ios":"levelo://app?vid=155e4552-adf3-45a5-aa6c-6e25fcaf05e5"},"vehicle_type_id":"4","last_reported":1733828905,"current_range_meters":38800,"station_id":"ce4bhl12rcd13ifvqgf0","pricing_plan_id":"cebpf4jnsgd1na2vs0mg"},{"bike_id":"3933b701-ca82-4b18-a882-72a61c67a1e4","system_id":"levelo_inurba_marseille","lat":43.24392,"lon":5.3706,"is_reserved":false,"is_disabled":true,"rental_uris":{"android":"levelo://app?vid=3933b701-ca82-4b18-a882-72a61c67a1e4","ios":"levelo://app?vid=3933b701-ca82-4b18-a882-72a61c67a1e4"},"vehicle_type_id":"4","last_reported":1733828905,"current_range_meters":37600,"station_id":"ce4bhhh2rcd13ifvqfk0","pricing_plan_id":"cebpf4jnsgd1na2vs0mg"},{"bike_id":"5dab6592-a3ef-4f74-8e91-5b9a66c9ae99","system_id":"levelo_inurba_marseille","lat":43.30542,"lon":5.36686,"is_reserved":false,"is_disabled":false,"rental_uris":{"android":"levelo://app?vid=5dab6592-a3ef-4f74-8e91-5b9a66c9ae99","ios":"levelo://app?vid=5dab6592-a3ef-4f74-8e91-5b9a66c9ae99"},"vehicle_type_id":"4","last_reported":1733828905,"current_range_meters":38800,"station_id":"ce4bgrp2rcd13ifvqc9g","pricing_plan_id":"cebpf4jnsgd1na2vs0mg"},{"bike_id":"bd45d4b8-a794-47d3-b71a-c238d420c3d9","system_id":"levelo_inurba_marseille","lat":43.29006,"lon":5.35609,"is_reserved":false,"is_disabled":false,"rental_uris":{"android":"levelo://app?vid=bd45d4b8-a794-47d3-b71a-c238d420c3d9","ios":"levelo://app?vid=bd45d4b8-a794-47d3-b71a-c238d420c3d9"},"vehicle_type_id":"4","last_reported":1733828905,"current_range_meters":38400,"station_id":"ce4bhb92rcd13ifvqen0","pricing_plan_id":"cebpf4jnsgd1na2vs0mg"},{"bike_id":"6768dbdc-33cd-4dbf-a925-66518f29b3e6","system_id":"levelo_inurba_marseille","lat":43.32483,"lon":5.36574,"is_reserved":false,"is_disabled":false,"rental_uris":{"android":"levelo://app?vid=6768dbdc-33cd-4dbf-a925-66518f29b3e6","ios":"levelo://app?vid=6768dbdc-33cd-4dbf-a925-66518f29b3e6"},"vehicle_type_id":"4","last_reported":1733828905,"current_range_meters":26800,"station_id":"ce4bhs12rcd13ifvqhvg","pricing_plan_id":"cebpf4jnsgd1na2vs0mg"},{"bike_id":"5391ef8e-f8fd-409e-a752-4eea0091a1f8","system_id":"levelo_inurba_marseille","lat":43.30458,"lon":5.37581,"is_reserved":false,"is_disabled":false,"rental_uris":{"android":"levelo://app?vid=5391ef8e-f8fd-409e-a752-4eea0091a1f8","ios":"levelo://app?vid=5391ef8e-f8fd-409e-a752-4eea0091a1f8"},"vehicle_type_id":"4","last_reported":1733828905,"current_range_meters":8000,"station_id":"","pricing_plan_id":"cebpf4jnsgd1na2vs0mg"},{"bike_id":"65b5428b-5a86-497f-ae13-4e9fa3204246","system_id":"levelo_inurba_marseille","lat":43.27681,"lon":5.38883,"is_reserved":false,"is_disabled":false,"rental_uris":{"android":"levelo://app?vid=65b5428b-5a86-497f-ae13-4e9fa3204246","ios":"levelo://app?vid=65b5428b-5a86-497f-ae13-4e9fa3204246"},"vehicle_type_id":"4","last_reported":1733828905,"current_range_meters":30800,"station_id":"ce4bhi12rcd13ifvqfo0","pricing_plan_id":"cebpf4jnsgd1na2vs0mg"},{"bike_id":"e2f53572-0b48-4281-832d-10b6aad4a00e","system_id":"levelo_inurba_marseille","lat":43.309509,"lon":5.390281,"is_reserved":false,"is_disabled":false,"rental_uris":{"android":"levelo://app?vid=e2f53572-0b48-4281-832d-10b6aad4a00e","ios":"levelo://app?vid=e2f53572-0b48-4281-832d-10b6aad4a00e"},"vehicle_type_id":"4","last_reported":1733828905,"current_range_meters":4400,"station_id":"ce4bgup2rcd13ifvqco0","pricing_plan_id":"cebpf4jnsgd1na2vs0mg"},{"bike_id":"e1fda08d-d206-439e-bb5b-f0e13b88697c","system_id":"levelo_inurba_marseille","lat":43.305308,"lon":5.365373,"is_reserved":false,"is_disabled":false,"rental_uris":{"android":"levelo://app?vid=e1fda08d-d206-439e-bb5b-f0e13b88697c","ios":"levelo://app?vid=e1fda08d-d206-439e-bb5b-f0e13b88697c"},"vehicle_type_id":"4","last_reported":1733828905,"current_range_meters":27600,"station_id":"ce4bgs12rcd13ifvqcag","pricing_plan_id":"cebpf4jnsgd1na2vs0mg"},{"bike_id":"8ea2c49d-76f2-4d30-b97d-000c28822813","system_id":"levelo_inurba_marseille","lat":43.26193,"lon":5.37448,"is_reserved":false,"is_disabled":false,"rental_uris":{"android":"levelo://app?vid=8ea2c49d-76f2-4d30-b97d-000c28822813","ios":"levelo://app?vid=8ea2c49d-76f2-4d30-b97d-000c28822813"},"vehicle_type_id":"4","last_reported":1733828905,"current_range_meters":34000,"station_id":"ce4bhgp2rcd13ifvqfc0","pricing_plan_id":"cebpf4jnsgd1na2vs0mg"},{"bike_id":"4f58338b-a85b-4c1c-b7ea-249b0420c32f","system_id":"levelo_inurba_marseille","lat":43.29256,"lon":5.40122,"is_reserved":false,"is_disabled":true,"rental_uris":{"android":"levelo://app?vid=4f58338b-a85b-4c1c-b7ea-249b0420c32f","ios":"levelo://app?vid=4f58338b-a85b-4c1c-b7ea-249b0420c32f"},"vehicle_type_id":"4","last_reported":1733828905,"current_range_meters":17600,"station_id":"ce4bh312rcd13ifvqdk0","pricing_plan_id":"cebpf4jnsgd1na2vs0mg"},{"bike_id":"6149d10a-ee53-4413-9592-38357ced78cb","system_id":"levelo_inurba_marseille","lat":43.26195,"lon":5.37455,"is_reserved":false,"is_disabled":true,"rental_uris":{"android":"levelo://app?vid=6149d10a-ee53-4413-9592-38357ced78cb","ios":"levelo://app?vid=6149d10a-ee53-4413-9592-38357ced78cb"},"vehicle_type_id":"4","last_reported":1733828905,"current_range_meters":36400,"station_id":"ce4bhgp2rcd13ifvqfc0","pricing_plan_id":"cebpf4jnsgd1na2vs0mg"},{"bike_id":"6e5f19a4-228d-46f2-adfa-65d14fb76789","system_id":"levelo_inurba_marseille","lat":43.23154,"lon":5.43722,"is_reserved":false,"is_disabled":false,"rental_uris":{"android":"levelo://app?vid=6e5f19a4-228d-46f2-adfa-65d14fb76789","ios":"levelo://app?vid=6e5f19a4-228d-46f2-adfa-65d14fb76789"},"vehicle_type_id":"4","last_reported":1733828905,"current_range_meters":37600,"station_id":"ce4bhmp2rcd13ifvqgog","pricing_plan_id":"cebpf4jnsgd1na2vs0mg"},{"bike_id":"f03a0fd2-8b78-4caf-823d-2d72f29eb1fc","system_id":"levelo_inurba_marseille","lat":43.27175,"lon":5.40991,"is_reserved":false,"is_disabled":false,"rental_uris":{"android":"levelo://app?vid=f03a0fd2-8b78-4caf-823d-2d72f29eb1fc","ios":"levelo://app?vid=f03a0fd2-8b78-4caf-823d-2d72f29eb1fc"},"vehicle_type_id":"4","last_reported":1733828905,"current_range_meters":39200,"station_id":"ce4bhl12rcd13ifvqgf0","pricing_plan_id":"cebpf4jnsgd1na2vs0mg"},{"bike_id":"20e9db8d-d68b-4418-94af-d9d63f8c2b96","system_id":"levelo_inurba_marseille","lat":43.337444,"lon":5.374475,"is_reserved":false,"is_disabled":true,"rental_uris":{"android":"levelo://app?vid=20e9db8d-d68b-4418-94af-d9d63f8c2b96","ios":"levelo://app?vid=20e9db8d-d68b-4418-94af-d9d63f8c2b96"},"vehicle_type_id":"4","last_reported":1733828905,"current_range_meters":0,"station_id":"","pricing_plan_id":"cebpf4jnsgd1na2vs0mg"},{"bike_id":"19f949c6-fe66-42a6-a186-5c3b8b6a7eb2","system_id":"levelo_inurba_marseille","lat":43.31349,"lon":5.36731,"is_reserved":false,"is_disabled":false,"rental_uris":{"android":"levelo://app?vid=19f949c6-fe66-42a6-a186-5c3b8b6a7eb2","ios":"levelo://app?vid=19f949c6-fe66-42a6-a186-5c3b8b6a7eb2"},"vehicle_type_id":"4","last_reported":1733828905,"current_range_meters":32000,"station_id":"ce4bgr92rcd13ifvqc6g","pricing_plan_id":"cebpf4jnsgd1na2vs0mg"},{"bike_id":"d1759abf-a816-44e9-9410-5d5b34634ccb","system_id":"levelo_inurba_marseille","lat":43.28277,"lon":5.35077,"is_reserved":false,"is_disabled":false,"rental_uris":{"android":"levelo://app?vid=d1759abf-a816-44e9-9410-5d5b34634ccb","ios":"levelo://app?vid=d1759abf-a816-44e9-9410-5d5b34634ccb"},"vehicle_type_id":"4","last_reported":1733828905,"current_range_meters":24800,"station_id":"ce4bhbp2rcd13ifvqerg","pricing_plan_id":"cebpf4jnsgd1na2vs0mg"},{"bike_id":"dfc16750-7677-4a93-af31-d5461b9e7667","system_id":"levelo_inurba_marseille","lat":43.272054,"lon":5.391833,"is_reserved":false,"is_disabled":false,"rental_uris":{"android":"levelo://app?vid=dfc16750-7677-4a93-af31-d5461b9e7667","ios":"levelo://app?vid=dfc16750-7677-4a93-af31-d5461b9e7667"},"vehicle_type_id":"4","last_reported":1733828905,"current_range_meters":31200,"station_id":"ce4bhhp2rcd13ifvqfm0","pricing_plan_id":"cebpf4jnsgd1na2vs0mg"},{"bike_id":"f6f6210d-5e07-46dd-93e4-3e102dd7cb0e","system_id":"levelo_inurba_marseille","lat":43.29395,"lon":5.38885,"is_reserved":false,"is_disabled":true,"rental_uris":{"android":"levelo://app?vid=f6f6210d-5e07-46dd-93e4-3e102dd7cb0e","ios":"levelo://app?vid=f6f6210d-5e07-46dd-93e4-3e102dd7cb0e"},"vehicle_type_id":"4","last_reported":1733828905,"current_range_meters":0,"station_id":"","pricing_plan_id":"cebpf4jnsgd1na2vs0mg"},{"bike_id":"39506c78-084c-43c9-9699-0e03b196a17a","system_id":"levelo_inurba_marseille","lat":43.33777,"lon":5.3743,"is_reserved":false,"is_disabled":false,"rental_uris":{"android":"levelo://app?vid=39506c78-084c-43c9-9699-0e03b196a17a","ios":"levelo://app?vid=39506c78-084c-43c9-9699-0e03b196a17a"},"vehicle_type_id":"4","last_reported":1733828905,"current_range_meters":34800,"station_id":"","pricing_plan_id":"cebpf4jnsgd1na2vs0mg"},{"bike_id":"486c171b-ad62-4b31-ac3d-c8c27cefbbb7","system_id":"levelo_inurba_marseille","lat":43.29197,"lon":5.39327,"is_reserved":false,"is_disabled":false,"rental_uris":{"android":"levelo://app?vid=486c171b-ad62-4b31-ac3d-c8c27cefbbb7","ios":"levelo://app?vid=486c171b-ad62-4b31-ac3d-c8c27cefbbb7"},"vehicle_type_id":"4","last_reported":1733828905,"current_range_meters":19200,"station_id":"ce4bh192rcd13ifvqdd0","pricing_plan_id":"cebpf4jnsgd1na2vs0mg"},{"bike_id":"05f1dc09-b88f-46f5-84b4-fd0c55b5707b","system_id":"levelo_inurba_marseille","lat":43.29378,"lon":5.37852,"is_reserved":false,"is_disabled":false,"rental_uris":{"android":"levelo://app?vid=05f1dc09-b88f-46f5-84b4-fd0c55b5707b","ios":"levelo://app?vid=05f1dc09-b88f-46f5-84b4-fd0c55b5707b"},"vehicle_type_id":"4","last_reported":1733828905,"current_range_meters":17600,"station_id":"ce4bgjh2rcd13ifvqbf0","pricing_plan_id":"cebpf4jnsgd1na2vs0mg"},{"bike_id":"7483977c-ac12-4f21-a217-e1959ce88d3e","system_id":"levelo_inurba_marseille","lat":43.26701,"lon":5.38238,"is_reserved":false,"is_disabled":false,"rental_uris":{"android":"levelo://app?vid=7483977c-ac12-4f21-a217-e1959ce88d3e","ios":"levelo://app?vid=7483977c-ac12-4f21-a217-e1959ce88d3e"},"vehicle_type_id":"4","last_reported":1733828905,"current_range_meters":39200,"station_id":"ce4bhg92rcd13ifvqf90","pricing_plan_id":"cebpf4jnsgd1na2vs0mg"},{"bike_id":"57a1ba77-963d-4a37-8fd9-68d758833b56","system_id":"levelo_inurba_marseille","lat":43.23962,"lon":5.36638,"is_reserved":false,"is_disabled":false,"rental_uris":{"android":"levelo://app?vid=57a1ba77-963d-4a37-8fd9-68d758833b56","ios":"levelo://app?vid=57a1ba77-963d-4a37-8fd9-68d758833b56"},"vehicle_type_id":"4","last_reported":1733828905,"current_range_meters":37600,"station_id":"ce4bhi12rcd13ifvqfp0","pricing_plan_id":"cebpf4jnsgd1na2vs0mg"},{"bike_id":"6c532ec2-971d-49fd-9e34-94f4ab4f0ca6","system_id":"levelo_inurba_marseille","lat":43.3053,"lon":5.36533,"is_reserved":false,"is_disabled":false,"rental_uris":{"android":"levelo://app?vid=6c532ec2-971d-49fd-9e34-94f4ab4f0ca6","ios":"levelo://app?vid=6c532ec2-971d-49fd-9e34-94f4ab4f0ca6"},"vehicle_type_id":"4","last_reported":1733828905,"current_range_meters":26800,"station_id":"ce4bgs12rcd13ifvqcag","pricing_plan_id":"cebpf4jnsgd1na2vs0mg"},{"bike_id":"8261eb1b-f418-4723-bc63-6061d6cfa635","system_id":"levelo_inurba_marseille","lat":43.27204,"lon":5.39168,"is_reserved":false,"is_disabled":false,"rental_uris":{"android":"levelo://app?vid=8261eb1b-f418-4723-bc63-6061d6cfa635","ios":"levelo://app?vid=8261eb1b-f418-4723-bc63-6061d6cfa635"},"vehicle_type_id":"4","last_reported":1733828905,"current_range_meters":32000,"station_id":"ce4bhhp2rcd13ifvqfm0","pricing_plan_id":"cebpf4jnsgd1na2vs0mg"},{"bike_id":"60e67bb3-f32e-435c-9b83-426f9eedc30c","system_id":"levelo_inurba_marseille","lat":43.27493,"lon":5.42451,"is_reserved":false,"is_disabled":true,"rental_uris":{"android":"levelo://app?vid=60e67bb3-f32e-435c-9b83-426f9eedc30c","ios":"levelo://app?vid=60e67bb3-f32e-435c-9b83-426f9eedc30c"},"vehicle_type_id":"4","last_reported":1733828905,"current_range_meters":9600,"station_id":"ce4bhn92rcd13ifvqgrg","pricing_plan_id":"cebpf4jnsgd1na2vs0mg"},{"bike_id":"39107fa6-507e-4729-8ccb-0f36c72d8345","system_id":"levelo_inurba_marseille","lat":43.23149,"lon":5.43712,"is_reserved":false,"is_disabled":false,"rental_uris":{"android":"levelo://app?vid=39107fa6-507e-4729-8ccb-0f36c72d8345","ios":"levelo://app?vid=39107fa6-507e-4729-8ccb-0f36c72d8345"},"vehicle_type_id":"4","last_reported":1733828905,"current_range_meters":5600,"station_id":"ce4bhmp2rcd13ifvqgog","pricing_plan_id":"cebpf4jnsgd1na2vs0mg"},{"bike_id":"fd0805f5-a398-4cff-8d50-0b96555f8650","system_id":"levelo_inurba_marseille","lat":43.2947,"lon":5.37699,"is_reserved":false,"is_disabled":true,"rental_uris":{"android":"levelo://app?vid=fd0805f5-a398-4cff-8d50-0b96555f8650","ios":"levelo://app?vid=fd0805f5-a398-4cff-8d50-0b96555f8650"},"vehicle_type_id":"4","last_reported":1733828905,"current_range_meters":0,"station_id":"","pricing_plan_id":"cebpf4jnsgd1na2vs0mg"},{"bike_id":"88d700a1-f9a9-4c1f-9198-584b0729210d","system_id":"levelo_inurba_marseille","lat":43.23193,"lon":5.35553,"is_reserved":false,"is_disabled":false,"rental_uris":{"android":"levelo://app?vid=88d700a1-f9a9-4c1f-9198-584b0729210d","ios":"levelo://app?vid=88d700a1-f9a9-4c1f-9198-584b0729210d"},