{"last_updated":1784636265,"ttl":60,"version":"2.2","data":{"bikes":[{"bike_id":"7ef36254-6bb3-448c-8d77-979d957d54b6","system_id":"levelo_inurba_marseille","lat":43.337444,"lon":5.374475,"is_reserved":false,"is_disabled":false,"rental_uris":{"android":"levelo://app?vid=7ef36254-6bb3-448c-8d77-979d957d54b6","ios":"levelo://app?vid=7ef36254-6bb3-448c-8d77-979d957d54b6"},"vehicle_type_id":"4","last_reported":1784636266,"current_range_meters":0,"station_id":"","pricing_plan_id":"cebpf4jnsgd1na2vs0mg"},{"bike_id":"21fe2e98-0432-4b40-a81f-10dd00b0f57d","system_id":"levelo_inurba_marseille","lat":43.337444,"lon":5.374475,"is_reserved":false,"is_disabled":false,"rental_uris":{"android":"levelo://app?vid=21fe2e98-0432-4b40-a81f-10dd00b0f57d","ios":"levelo://app?vid=21fe2e98-0432-4b40-a81f-10dd00b0f57d"},"vehicle_type_id":"4","last_reported":1784636266,"current_range_meters":0,"station_id":"","pricing_plan_id":"cebpf4jnsgd1na2vs0mg"},{"bike_id":"e35a7b3d-d6be-4e45-8bf8-f140e099eb23","system_id":"levelo_inurba_marseille","lat":43.27458,"lon":5.3614,"is_reserved":false,"is_disabled":false,"rental_uris":{"android":"levelo://app?vid=e35a7b3d-d6be-4e45-8bf8-f140e099eb23","ios":"levelo://app?vid=e35a7b3d-d6be-4e45-8bf8-f140e099eb23"},"vehicle_type_id":"4","last_reported":1784636266,"current_range_meters":2800,"station_id":"","pricing_plan_id":"cebpf4jnsgd1na2vs0mg"},{"bike_id":"c7d9d26b-f0e8-43cd-b623-37967112d291","system_id":"levelo_inurba_marseille","lat":43.27905,"lon":5.38015,"is_reserved":false,"is_disabled":false,"rental_uris":{"android":"levelo://app?vid=c7d9d26b-f0e8-43cd-b623-37967112d291","ios":"levelo://app?vid=c7d9d26b-f0e8-43cd-b623-37967112d291"},"vehicle_type_id":"4","last_reported":1784636266,"current_range_meters":2800,"station_id":"ce4bhf92rcd13ifvqf50","pricing_plan_id":"cebpf4jnsgd1na2vs0mg"},{"bike_id":"b23f787b-b488-45bb-8dc9-9e79fd621d82","system_id":"levelo_inurba_marseille","lat":43.24935,"lon":5.38177,"is_reserved":false,"is_disabled":false,"rental_uris":{"android":"levelo://app?vid=b23f787b-b488-45bb-8dc9-9e79fd621d82","ios":"levelo://app?vid=b23f787b-b488-45bb-8dc9-9e79fd621d82"},"vehicle_type_id":"4","last_reported":1784636266,"current_range_meters":2800,"station_id":"","pricing_plan_id":"cebpf4jnsgd1na2vs0mg"},{"bike_id":"b7f92a2e-dfae-4d02-a0d1-f8c1b81d4167","system_id":"levelo_inurba_marseille","lat":43.28413,"lon":5.34976,"is_reserved":false,"is_disabled":false,"rental_uris":{"android":"levelo://app?vid=b7f92a2e-dfae-4d02-a0d1-f8c1b81d4167","ios":"levelo://app?vid=b7f92a2e-dfae-4d02-a0d1-f8c1b81d4167"},"vehicle_type_id":"4","last_reported":1784636266,"current_range_meters":2800,"station_id":"ce4bhbh2rcd13ifvqepg","pricing_plan_id":"cebpf4jnsgd1na2vs0mg"},{"bike_id":"74162b45-2f0c-4389-a673-119afc3b84cd","system_id":"levelo_inurba_marseille","lat":43.2856,"lon":5.44077,"is_reserved":false,"is_disabled":false,"rental_uris":{"android":"levelo://app?vid=74162b45-2f0c-4389-a673-119afc3b84cd","ios":"levelo://app?vid=74162b45-2f0c-4389-a673-119afc3b84cd"},"vehicle_type_id":"4","last_reported":1784636266,"current_range_meters":2800,"station_id":"st_d3j3df2ikq2c7380ej80","pricing_plan_id":"cebpf4jnsgd1na2vs0mg"},{"bike_id":"e74ca0bc-3be2-4999-957f-23ea2fc8ede9","system_id":"levelo_inurba_marseille","lat":43.29219,"lon":5.36047,"is_reserved":false,"is_disabled":true,"rental_uris":{"android":"levelo://app?vid=e74ca0bc-3be2-4999-957f-23ea2fc8ede9","ios":"levelo://app?vid=e74ca0bc-3be2-4999-957f-23ea2fc8ede9"},"vehicle_type_id":"4","last_reported":1784636266,"current_range_meters":2800,"station_id":"","pricing_plan_id":"cebpf4jnsgd1na2vs0mg"},{"bike_id":"8182c258-20e5-4fbc-bb03-cdbd7539a85f","system_id":"levelo_inurba_marseille","lat":43.29559,"lon":5.42291,"is_reserved":false,"is_disabled":false,"rental_uris":{"android":"levelo://app?vid=8182c258-20e5-4fbc-bb03-cdbd7539a85f","ios":"levelo://app?vid=8182c258-20e5-4fbc-bb03-cdbd7539a85f"},"vehicle_type_id":"4","last_reported":1784636266,"current_range_meters":2800,"station_id":"ce4bhph2rcd13ifvqhdg","pricing_plan_id":"cebpf4jnsgd1na2vs0mg"},{"bike_id":"fb3aedd2-7760-43db-93ce-ea49d5a86faf","system_id":"levelo_inurba_marseille","lat":43.29619,"lon":5.3773,"is_reserved":false,"is_disabled":false,"rental_uris":{"android":"levelo://app?vid=fb3aedd2-7760-43db-93ce-ea49d5a86faf","ios":"levelo://app?vid=fb3aedd2-7760-43db-93ce-ea49d5a86faf"},"vehicle_type_id":"4","last_reported":1784636266,"current_range_meters":2800,"station_id":"ce4bgi92rcd13ifvqb90","pricing_plan_id":"cebpf4jnsgd1na2vs0mg"},{"bike_id":"61eb4002-5a46-4e29-99e3-bf6f764c4225","system_id":"levelo_inurba_marseille","lat":43.232,"lon":5.35551,"is_reserved":false,"is_disabled":false,"rental_uris":{"android":"levelo://app?vid=61eb4002-5a46-4e29-99e3-bf6f764c4225","ios":"levelo://app?vid=61eb4002-5a46-4e29-99e3-bf6f764c4225"},"vehicle_type_id":"4","last_reported":1784636266,"current_range_meters":2800,"station_id":"ce4bhu92rcd13ifvqi70","pricing_plan_id":"cebpf4jnsgd1na2vs0mg"},{"bike_id":"03e3a090-2f1f-417d-b987-66d9eb8669d8","system_id":"levelo_inurba_marseille","lat":43.25184,"lon":5.38693,"is_reserved":false,"is_disabled":false,"rental_uris":{"android":"levelo://app?vid=03e3a090-2f1f-417d-b987-66d9eb8669d8","ios":"levelo://app?vid=03e3a090-2f1f-417d-b987-66d9eb8669d8"},"vehicle_type_id":"4","last_reported":1784636266,"current_range_meters":2800,"station_id":"","pricing_plan_id":"cebpf4jnsgd1na2vs0mg"},{"bike_id":"46cf8ae5-7127-4b21-8a09-851f2928b5d5","system_id":"levelo_inurba_marseille","lat":43.27949,"lon":5.36336,"is_reserved":false,"is_disabled":false,"rental_uris":{"android":"levelo://app?vid=46cf8ae5-7127-4b21-8a09-851f2928b5d5","ios":"levelo://app?vid=46cf8ae5-7127-4b21-8a09-851f2928b5d5"},"vehicle_type_id":"4","last_reported":1784636266,"current_range_meters":2800,"station_id":"","pricing_plan_id":"cebpf4jnsgd1na2vs0mg"},{"bike_id":"f0b4d1ff-25f2-4b7b-9046-826c40b4e4bc","system_id":"levelo_inurba_marseille","lat":43.25936,"lon":5.40908,"is_reserved":false,"is_disabled":false,"rental_uris":{"android":"levelo://app?vid=f0b4d1ff-25f2-4b7b-9046-826c40b4e4bc","ios":"levelo://app?vid=f0b4d1ff-25f2-4b7b-9046-826c40b4e4bc"},"vehicle_type_id":"4","last_reported":1784636266,"current_range_meters":2800,"station_id":"ce4bhm92rcd13ifvqglg","pricing_plan_id":"cebpf4jnsgd1na2vs0mg"},{"bike_id":"7aa13911-cc9f-4ca0-9a05-7ec0942be0eb","system_id":"levelo_inurba_marseille","lat":43.290296,"lon":5.386551,"is_reserved":false,"is_disabled":false,"rental_uris":{"android":"levelo://app?vid=7aa13911-cc9f-4ca0-9a05-7ec0942be0eb","ios":"levelo://app?vid=7aa13911-cc9f-4ca0-9a05-7ec0942be0eb"},"vehicle_type_id":"4","last_reported":1784636266,"current_range_meters":2800,"station_id":"ce4bh4p2rcd13ifvqe0g","pricing_plan_id":"cebpf4jnsgd1na2vs0mg"},{"bike_id":"a3ce2225-7172-47d1-9f17-de6df66e653b","system_id":"levelo_inurba_marseille","lat":43.28565,"lon":5.39497,"is_reserved":false,"is_disabled":false,"rental_uris":{"android":"levelo://app?vid=a3ce2225-7172-47d1-9f17-de6df66e653b","ios":"levelo://app?vid=a3ce2225-7172-47d1-9f17-de6df66e653b"},"vehicle_type_id":"4","last_reported":1784636266,"current_range_meters":2800,"station_id":"ce4bh292rcd13ifvqdg0","pricing_plan_id":"cebpf4jnsgd1na2vs0mg"},{"bike_id":"ea3c9c7e-74a4-4582-a6c7-6c6d5b536807","system_id":"levelo_inurba_marseille","lat":43.29242,"lon":5.35709,"is_reserved":false,"is_disabled":false,"rental_uris":{"android":"levelo://app?vid=ea3c9c7e-74a4-4582-a6c7-6c6d5b536807","ios":"levelo://app?vid=ea3c9c7e-74a4-4582-a6c7-6c6d5b536807"},"vehicle_type_id":"4","last_reported":1784636266,"current_range_meters":2800,"station_id":"","pricing_plan_id":"cebpf4jnsgd1na2vs0mg"},{"bike_id":"090514af-b217-4a93-8050-c36cad4be7a7","system_id":"levelo_inurba_marseille","lat":43.30947,"lon":5.39049,"is_reserved":false,"is_disabled":false,"rental_uris":{"android":"levelo://app?vid=090514af-b217-4a93-8050-c36cad4be7a7","ios":"levelo://app?vid=090514af-b217-4a93-8050-c36cad4be7a7"},"vehicle_type_id":"4","last_reported":1784636266,"current_range_meters":2800,"station_id":"ce4bgup2rcd13ifvqco0","pricing_plan_id":"cebpf4jnsgd1na2vs0mg"},{"bike_id":"deab0385-0efa-4bfa-9d6c-fc9e57b19cd0","system_id":"levelo_inurba_marseille","lat":43.30042,"lon":5.36985,"is_reserved":false,"is_disabled":false,"rental_uris":{"android":"levelo://app?vid=deab0385-0efa-4bfa-9d6c-fc9e57b19cd0","ios":"levelo://app?vid=deab0385-0efa-4bfa-9d6c-fc9e57b19cd0"},"vehicle_type_id":"4","last_reported":1784636266,"current_range_meters":3200,"station_id":"","pricing_plan_id":"cebpf4jnsgd1na2vs0mg"},{"bike_id":"81a12c23-3950-48a5-a9a6-59f701617dff","system_id":"levelo_inurba_marseille","lat":43.25027,"lon":5.40375,"is_reserved":false,"is_disabled":false,"rental_uris":{"android":"levelo://app?vid=81a12c23-3950-48a5-a9a6-59f701617dff","ios":"levelo://app?vid=81a12c23-3950-48a5-a9a6-59f701617dff"},"vehicle_type_id":"4","last_reported":1784636266,"current_range_meters":3200,"station_id":"","pricing_plan_id":"cebpf4jnsgd1na2vs0mg"},{"bike_id":"aac34d38-aa3e-4446-ab30-258bc8ca4528","system_id":"levelo_inurba_marseille","lat":43.28082,"lon":5.37852,"is_reserved":false,"is_disabled":true,"rental_uris":{"android":"levelo://app?vid=aac34d38-aa3e-4446-ab30-258bc8ca4528","ios":"levelo://app?vid=aac34d38-aa3e-4446-ab30-258bc8ca4528"},"vehicle_type_id":"4","last_reported":1784636266,"current_range_meters":3200,"station_id":"ce4bha12rcd13ifvqee0","pricing_plan_id":"cebpf4jnsgd1na2vs0mg"},{"bike_id":"96a72c3a-43dc-4dbc-bffa-5d3f8e5faf0d","system_id":"levelo_inurba_marseille","lat":43.28958,"lon":5.39921,"is_reserved":false,"is_disabled":false,"rental_uris":{"android":"levelo://app?vid=96a72c3a-43dc-4dbc-bffa-5d3f8e5faf0d","ios":"levelo://app?vid=96a72c3a-43dc-4dbc-bffa-5d3f8e5faf0d"},"vehicle_type_id":"4","last_reported":1784636266,"current_range_meters":3200,"station_id":"","pricing_plan_id":"cebpf4jnsgd1na2vs0mg"},{"bike_id":"f6d05925-1a59-4fe8-ac42-04dce874991d","system_id":"levelo_inurba_marseille","lat":43.3027,"lon":5.37711,"is_reserved":false,"is_disabled":true,"rental_uris":{"android":"levelo://app?vid=f6d05925-1a59-4fe8-ac42-04dce874991d","ios":"levelo://app?vid=f6d05925-1a59-4fe8-ac42-04dce874991d"},"vehicle_type_id":"4","last_reported":1784636266,"current_range_meters":3200,"station_id":"ce4bguh2rcd13ifvqcj0","pricing_plan_id":"cebpf4jnsgd1na2vs0mg"},{"bike_id":"8c435f9d-8376-4111-9b72-bb9089274187","system_id":"levelo_inurba_marseille","lat":43.24579,"lon":5.39346,"is_reserved":false,"is_disabled":false,"rental_uris":{"android":"levelo://app?vid=8c435f9d-8376-4111-9b72-bb9089274187","ios":"levelo://app?vid=8c435f9d-8376-4111-9b72-bb9089274187"},"vehicle_type_id":"4","last_reported":1784636266,"current_range_meters":3200,"station_id":"","pricing_plan_id":"cebpf4jnsgd1na2vs0mg"},{"bike_id":"212ecab3-2962-44de-9492-2fcdb7aadb6d","system_id":"levelo_inurba_marseille","lat":43.28282,"lon":5.35079,"is_reserved":false,"is_disabled":false,"rental_uris":{"android":"levelo://app?vid=212ecab3-2962-44de-9492-2fcdb7aadb6d","ios":"levelo://app?vid=212ecab3-2962-44de-9492-2fcdb7aadb6d"},"vehicle_type_id":"4","last_reported":1784636266,"current_range_meters":3200,"station_id":"ce4bhbp2rcd13ifvqerg","pricing_plan_id":"cebpf4jnsgd1na2vs0mg"},{"bike_id":"309fa199-5511-4c75-8ddb-c4c58376e91c","system_id":"levelo_inurba_marseille","lat":43.28608,"lon":5.37065,"is_reserved":false,"is_disabled":false,"rental_uris":{"android":"levelo://app?vid=309fa199-5511-4c75-8ddb-c4c58376e91c","ios":"levelo://app?vid=309fa199-5511-4c75-8ddb-c4c58376e91c"},"vehicle_type_id":"4","last_reported":1784636266,"current_range_meters":3200,"station_id":"ce4bht12rcd13ifvqi60","pricing_plan_id":"cebpf4jnsgd1na2vs0mg"},{"bike_id":"e1d995c6-4aad-4a54-9330-69f9de0726c3","system_id":"levelo_inurba_marseille","lat":43.29029,"lon":5.38641,"is_reserved":false,"is_disabled":false,"rental_uris":{"android":"levelo://app?vid=e1d995c6-4aad-4a54-9330-69f9de0726c3","ios":"levelo://app?vid=e1d995c6-4aad-4a54-9330-69f9de0726c3"},"vehicle_type_id":"4","last_reported":1784636266,"current_range_meters":3200,"station_id":"ce4bh4p2rcd13ifvqe0g","pricing_plan_id":"cebpf4jnsgd1na2vs0mg"},{"bike_id":"1d70dd79-878a-4c25-ba15-12c7d23c8b7f","system_id":"levelo_inurba_marseille","lat":43.30665,"lon":5.3813,"is_reserved":false,"is_disabled":false,"rental_uris":{"android":"levelo://app?vid=1d70dd79-878a-4c25-ba15-12c7d23c8b7f","ios":"levelo://app?vid=1d70dd79-878a-4c25-ba15-12c7d23c8b7f"},"vehicle_type_id":"4","last_reported":1784636266,"current_range_meters":3200,"station_id":"","pricing_plan_id":"cebpf4jnsgd1na2vs0mg"},{"bike_id":"bbb6d84d-52b2-4523-b78b-60cb354411ef","system_id":"levelo_inurba_marseille","lat":43.32093,"lon":5.36776,"is_reserved":false,"is_disabled":false,"rental_uris":{"android":"levelo://app?vid=bbb6d84d-52b2-4523-b78b-60cb354411ef","ios":"levelo://app?vid=bbb6d84d-52b2-4523-b78b-60cb354411ef"},"vehicle_type_id":"4","last_reported":1784636266,"current_range_meters":3600,"station_id":"ce4bhrh2rcd13ifvqhug","pricing_plan_id":"cebpf4jnsgd1na2vs0mg"},{"bike_id":"5feb6120-99f3-40ac-88a0-a92ec4ec9659","system_id":"levelo_inurba_marseille","lat":43.31595,"lon":5.3764,"is_reserved":false,"is_disabled":false,"rental_uris":{"android":"levelo://app?vid=5feb6120-99f3-40ac-88a0-a92ec4ec9659","ios":"levelo://app?vid=5feb6120-99f3-40ac-88a0-a92ec4ec9659"},"vehicle_type_id":"4","last_reported":1784636266,"current_range_meters":3600,"station_id":"","pricing_plan_id":"cebpf4jnsgd1na2vs0mg"},{"bike_id":"073f10d5-979e-452e-acc8-aae60a2137f1","system_id":"levelo_inurba_marseille","lat":43.30305,"lon":5.36915,"is_reserved":false,"is_disabled":true,"rental_uris":{"android":"levelo://app?vid=073f10d5-979e-452e-acc8-aae60a2137f1","ios":"levelo://app?vid=073f10d5-979e-452e-acc8-aae60a2137f1"},"vehicle_type_id":"4","last_reported":1784636266,"current_range_meters":3600,"station_id":"ce4bgqh2rcd13ifvqc5g","pricing_plan_id":"cebpf4jnsgd1na2vs0mg"},{"bike_id":"454d570d-7bc4-4fcc-bc81-43ba50f05eba","system_id":"levelo_inurba_marseille","lat":43.22929,"lon":5.35386,"is_reserved":false,"is_disabled":false,"rental_uris":{"android":"levelo://app?vid=454d570d-7bc4-4fcc-bc81-43ba50f05eba","ios":"levelo://app?vid=454d570d-7bc4-4fcc-bc81-43ba50f05eba"},"vehicle_type_id":"4","last_reported":1784636266,"current_range_meters":3600,"station_id":"cpo3532slgdg3j2ikp40","pricing_plan_id":"cebpf4jnsgd1na2vs0mg"},{"bike_id":"0d309a6b-3e2c-42ee-b89f-ed34b6006a61","system_id":"levelo_inurba_marseille","lat":43.26788,"lon":5.37536,"is_reserved":false,"is_disabled":false,"rental_uris":{"android":"levelo://app?vid=0d309a6b-3e2c-42ee-b89f-ed34b6006a61","ios":"levelo://app?vid=0d309a6b-3e2c-42ee-b89f-ed34b6006a61"},"vehicle_type_id":"4","last_reported":1784636266,"current_range_meters":3600,"station_id":"","pricing_plan_id":"cebpf4jnsgd1na2vs0mg"},{"bike_id":"bdc95179-e044-4e80-a8ce-81f5dcc41918","system_id":"levelo_inurba_marseille","lat":43.2976,"lon":5.35913,"is_reserved":false,"is_disabled":false,"rental_uris":{"android":"levelo://app?vid=bdc95179-e044-4e80-a8ce-81f5dcc41918","ios":"levelo://app?vid=bdc95179-e044-4e80-a8ce-81f5dcc41918"},"vehicle_type_id":"4","last_reported":1784636266,"current_range_meters":3600,"station_id":"","pricing_plan_id":"cebpf4jnsgd1na2vs0mg"},{"bike_id":"e52e1da1-69bd-4976-a8a8-bc4d2516d19e","system_id":"levelo_inurba_marseille","lat":43.24165,"lon":5.36394,"is_reserved":false,"is_disabled":false,"rental_uris":{"android":"levelo://app?vid=e52e1da1-69bd-4976-a8a8-bc4d2516d19e","ios":"levelo://app?vid=e52e1da1-69bd-4976-a8a8-bc4d2516d19e"},"vehicle_type_id":"4","last_reported":1784636266,"current_range_meters":3600,"station_id":"cpo36qri1sfpv3e86is0","pricing_plan_id":"cebpf4jnsgd1na2vs0mg"},{"bike_id":"a2b99c86-4e08-44ba-a09c-48104717a92b","system_id":"levelo_inurba_marseille","lat":43.30208,"lon":5.36606,"is_reserved":false,"is_disabled":false,"rental_uris":{"android":"levelo://app?vid=a2b99c86-4e08-44ba-a09c-48104717a92b","ios":"levelo://app?vid=a2b99c86-4e08-44ba-a09c-48104717a92b"},"vehicle_type_id":"4","last_reported":1784636266,"current_range_meters":3600,"station_id":"ce4bgrh2rcd13ifvqc8g","pricing_plan_id":"cebpf4jnsgd1na2vs0mg"},{"bike_id":"7ece8d1b-baca-4661-b7f2-6d765d7cc13b","system_id":"levelo_inurba_marseille","lat":43.25554,"lon":5.39176,"is_reserved":false,"is_disabled":false,"rental_uris":{"android":"levelo://app?vid=7ece8d1b-baca-4661-b7f2-6d765d7cc13b","ios":"levelo://app?vid=7ece8d1b-baca-4661-b7f2-6d765d7cc13b"},"vehicle_type_id":"4","last_reported":1784636266,"current_range_meters":3600,"station_id":"","pricing_plan_id":"cebpf4jnsgd1na2vs0mg"},{"bike_id":"5bc72dc3-83be-4a6b-89ac-b484cf13d2ff","system_id":"levelo_inurba_marseille","lat":43.26417,"lon":5.39908,"is_reserved":false,"is_disabled":false,"rental_uris":{"android":"levelo://app?vid=5bc72dc3-83be-4a6b-89ac-b484cf13d2ff","ios":"levelo://app?vid=5bc72dc3-83be-4a6b-89ac-b484cf13d2ff"},"vehicle_type_id":"4","last_reported":1784636266,"current_range_meters":3600,"station_id":"","pricing_plan_id":"cebpf4jnsgd1na2vs0mg"},{"bike_id":"9eb978ec-adc0-4160-9b36-7c4897e8256f","system_id":"levelo_inurba_marseille","lat":43.2846,"lon":5.35898,"is_reserved":false,"is_disabled":false,"rental_uris":{"android":"levelo://app?vid=9eb978ec-adc0-4160-9b36-7c4897e8256f","ios":"levelo://app?vid=9eb978ec-adc0-4160-9b36-7c4897e8256f"},"vehicle_type_id":"4","last_reported":1784636266,"current_range_meters":3600,"station_id":"ce4bhah2rcd13ifvqei0","pricing_plan_id":"cebpf4jnsgd1na2vs0mg"},{"bike_id":"541e9d49-bbc6-4945-95d1-79b760cac88a","system_id":"levelo_inurba_marseille","lat":43.28958,"lon":5.36617,"is_reserved":false,"is_disabled":false,"rental_uris":{"android":"levelo://app?vid=541e9d49-bbc6-4945-95d1-79b760cac88a","ios":"levelo://app?vid=541e9d49-bbc6-4945-95d1-79b760cac88a"},"vehicle_type_id":"4","last_reported":1784636266,"current_range_meters":4000,"station_id":"ce4bhap2rcd13ifvqek0","pricing_plan_id":"cebpf4jnsgd1na2vs0mg"},{"bike_id":"51b7a0a5-d25e-45a4-b1f1-80017dc4f2a9","system_id":"levelo_inurba_marseille","lat":43.31335,"lon":5.36742,"is_reserved":false,"is_disabled":false,"rental_uris":{"android":"levelo://app?vid=51b7a0a5-d25e-45a4-b1f1-80017dc4f2a9","ios":"levelo://app?vid=51b7a0a5-d25e-45a4-b1f1-80017dc4f2a9"},"vehicle_type_id":"4","last_reported":1784636266,"current_range_meters":4000,"station_id":"ce4bgr92rcd13ifvqc6g","pricing_plan_id":"cebpf4jnsgd1na2vs0mg"},{"bike_id":"425cee52-7ff4-408d-b63f-f1bb20a33257","system_id":"levelo_inurba_marseille","lat":43.27475,"lon":5.42564,"is_reserved":false,"is_disabled":false,"rental_uris":{"android":"levelo://app?vid=425cee52-7ff4-408d-b63f-f1bb20a33257","ios":"levelo://app?vid=425cee52-7ff4-408d-b63f-f1bb20a33257"},"vehicle_type_id":"4","last_reported":1784636266,"current_range_meters":4000,"station_id":"st_d8t4bh7nbrqs73arha60","pricing_plan_id":"cebpf4jnsgd1na2vs0mg"},{"bike_id":"ee993008-3520-4145-a892-ac51da19ce9a","system_id":"levelo_inurba_marseille","lat":43.27486,"lon":5.42543,"is_reserved":false,"is_disabled":true,"rental_uris":{"android":"levelo://app?vid=ee993008-3520-4145-a892-ac51da19ce9a","ios":"levelo://app?vid=ee993008-3520-4145-a892-ac51da19ce9a"},"vehicle_type_id":"4","last_reported":1784636266,"current_range_meters":4000,"station_id":"st_d8t4bh7nbrqs73arha60","pricing_plan_id":"cebpf4jnsgd1na2vs0mg"},{"bike_id":"6f4d32dd-3458-40de-a570-9315593565a6","system_id":"levelo_inurba_marseille","lat":43.24066,"lon":5.37764,"is_reserved":false,"is_disabled":false,"rental_uris":{"android":"levelo://app?vid=6f4d32dd-3458-40de-a570-9315593565a6","ios":"levelo://app?vid=6f4d32dd-3458-40de-a570-9315593565a6"},"vehicle_type_id":"4","last_reported":1784636266,"current_range_meters":4000,"station_id":"ce4bhnp2rcd13ifvqgvg","pricing_plan_id":"cebpf4jnsgd1na2vs0mg"},{"bike_id":"a4311ef8-ccf1-429c-928e-35a32a4144ad","system_id":"levelo_inurba_marseille","lat":43.27374,"lon":5.36259,"is_reserved":false,"is_disabled":false,"rental_uris":{"android":"levelo://app?vid=a4311ef8-ccf1-429c-928e-35a32a4144ad","ios":"levelo://app?vid=a4311ef8-ccf1-429c-928e-35a32a4144ad"},"vehicle_type_id":"4","last_reported":1784636266,"current_range_meters":4000,"station_id":"ce4bhbh2rcd13ifvqeo0","pricing_plan_id":"cebpf4jnsgd1na2vs0mg"},{"bike_id":"d991a7e8-9d23-4446-9c57-71b54134ab8f","system_id":"levelo_inurba_marseille","lat":43.29608,"lon":5.38009,"is_reserved":false,"is_disabled":false,"rental_uris":{"android":"levelo://app?vid=d991a7e8-9d23-4446-9c57-71b54134ab8f","ios":"levelo://app?vid=d991a7e8-9d23-4446-9c57-71b54134ab8f"},"vehicle_type_id":"4","last_reported":1784636266,"current_range_meters":4000,"station_id":"","pricing_plan_id":"cebpf4jnsgd1na2vs0mg"},{"bike_id":"6edf6ad6-445e-4525-9fbd-252d4cae4aca","system_id":"levelo_inurba_marseille","lat":43.29413,"lon":5.38167,"is_reserved":false,"is_disabled":false,"rental_uris":{"android":"levelo://app?vid=6edf6ad6-445e-4525-9fbd-252d4cae4aca","ios":"levelo://app?vid=6edf6ad6-445e-4525-9fbd-252d4cae4aca"},"vehicle_type_id":"4","last_reported":1784636266,"current_range_meters":4000,"station_id":"","pricing_plan_id":"cebpf4jnsgd1na2vs0mg"},{"bike_id":"d97e9252-f2ec-42b3-899a-35449d25dc7b","system_id":"levelo_inurba_marseille","lat":43.2603,"lon":5.37547,"is_reserved":false,"is_disabled":false,"rental_uris":{"android":"levelo://app?vid=d97e9252-f2ec-42b3-899a-35449d25dc7b","ios":"levelo://app?vid=d97e9252-f2ec-42b3-899a-35449d25dc7b"},"vehicle_type_id":"4","last_reported":1784636266,"current_range_meters":4000,"station_id":"ce4bhgh2rcd13ifvqfa0","pricing_plan_id":"cebpf4jnsgd1na2vs0mg"},{"bike_id":"6501867b-15c4-4a58-890c-6baad7569cb5","system_id":"levelo_inurba_marseille","lat":43.28621,"lon":5.37046,"is_reserved":false,"is_disabled":false,"rental_uris":{"android":"levelo://app?vid=6501867b-15c4-4a58-890c-6baad7569cb5","ios":"levelo://app?vid=6501867b-15c4-4a58-890c-6baad7569cb5"},"vehicle_type_id":"4","last_reported":1784636266,"current_range_meters":4000,"station_id":"ce4bht12rcd13ifvqi60","pricing_plan_id":"cebpf4jnsgd1na2vs0mg"},{"bike_id":"4cb6d7a5-af8c-435e-bb03-1f3a5bf5c169","system_id":"levelo_inurba_marseille","lat":43.29318,"lon":5.3785,"is_reserved":false,"is_disabled":false,"rental_uris":{"android":"levelo://app?vid=4cb6d7a5-af8c-435e-bb03-1f3a5bf5c169","ios":"levelo://app?vid=4cb6d7a5-af8c-435e-bb03-1f3a5bf5c169"},"vehicle_type_id":"4","last_reported":1784636266,"current_range_meters":4000,"station_id":"ce4bgjh2rcd13ifvqbf0","pricing_plan_id":"cebpf4jnsgd1na2vs0mg"},{"bike_id":"c78588e5-e842-46d1-9397-b2b42bcbb509","system_id":"levelo_inurba_marseille","lat":43.26673,"lon":5.38745,"is_reserved":false,"is_disabled":false,"rental_uris":{"android":"levelo://app?vid=c78588e5-e842-46d1-9397-b2b42bcbb509","ios":"levelo://app?vid=c78588e5-e842-46d1-9397-b2b42bcbb509"},"vehicle_type_id":"4","last_reported":1784636266,"current_range_meters":4000,"station_id":"","pricing_plan_id":"cebpf4jnsgd1na2vs0mg"},{"bike_id":"c00ab82a-7114-49a9-a944-c8325dce148a","system_id":"levelo_inurba_marseille","lat":43.29486,"lon":5.43309,"is_reserved":false,"is_disabled":false,"rental_uris":{"android":"levelo://app?vid=c00ab82a-7114-49a9-a944-c8325dce148a","ios":"levelo://app?vid=c00ab82a-7114-49a9-a944-c8325dce148a"},"vehicle_type_id":"4","last_reported":1784636266,"current_range_meters":4000,"station_id":"st_d3j5ugp08ojc73fj9d10","pricing_plan_id":"cebpf4jnsgd1na2vs0mg"},{"bike_id":"965c213d-63c4-4cf1-9017-f661f523d87b","system_id":"levelo_inurba_marseille","lat":43.32417,"lon":5.40752,"is_reserved":false,"is_disabled":false,"rental_uris":{"android":"levelo://app?vid=965c213d-63c4-4cf1-9017-f661f523d87b","ios":"levelo://app?vid=965c213d-63c4-4cf1-9017-f661f523d87b"},"vehicle_type_id":"4","last_reported":1784636266,"current_range_meters":4000,"station_id":"","pricing_plan_id":"cebpf4jnsgd1na2vs0mg"},{"bike_id":"775eb679-a2b0-41ce-9390-fabd014d8538","system_id":"levelo_inurba_marseille","lat":43.3042,"lon":5.41285,"is_reserved":false,"is_disabled":false,"rental_uris":{"android":"levelo://app?vid=775eb679-a2b0-41ce-9390-fabd014d8538","ios":"levelo://app?vid=775eb679-a2b0-41ce-9390-fabd014d8538"},"vehicle_type_id":"4","last_reported":1784636266,"current_range_meters":4000,"station_id":"ce4bhop2rcd13ifvqh8g","pricing_plan_id":"cebpf4jnsgd1na2vs0mg"},{"bike_id":"2ae74ab1-2241-45b7-b76d-4ba3522ac210","system_id":"levelo_inurba_marseille","lat":43.225544,"lon":5.348445,"is_reserved":false,"is_disabled":true,"rental_uris":{"android":"levelo://app?vid=2ae74ab1-2241-45b7-b76d-4ba3522ac210","ios":"levelo://app?vid=2ae74ab1-2241-45b7-b76d-4ba3522ac210"},"vehicle_type_id":"4","last_reported":1784636266,"current_range_meters":4000,"station_id":"st_cvj5dfep6f1abm77gieg","pricing_plan_id":"cebpf4jnsgd1na2vs0mg"},{"bike_id":"94577d80-53c9-48a4-9e56-a1ea607c0bb2","system_id":"levelo_inurba_marseille","lat":43.23147,"lon":5.4372,"is_reserved":false,"is_disabled":false,"rental_uris":{"android":"levelo://app?vid=94577d80-53c9-48a4-9e56-a1ea607c0bb2","ios":"levelo://app?vid=94577d80-53c9-48a4-9e56-a1ea607c0bb2"},"vehicle_type_id":"4","last_reported":1784636266,"current_range_meters":4000,"station_id":"ce4bhmp2rcd13ifvqgog","pricing_plan_id":"cebpf4jnsgd1na2vs0mg"},{"bike_id":"143b0326-bcc2-41fe-ac94-ce3903ac509a","system_id":"levelo_inurba_marseille","lat":43.3084,"lon":5.40426,"is_reserved":false,"is_disabled":false,"rental_uris":{"android":"levelo://app?vid=143b0326-bcc2-41fe-ac94-ce3903ac509a","ios":"levelo://app?vid=143b0326-bcc2-41fe-ac94-ce3903ac509a"},"vehicle_type_id":"4","last_reported":1784636266,"current_range_meters":4400,"station_id":"","pricing_plan_id":"cebpf4jnsgd1na2vs0mg"},{"bike_id":"52ea9115-dbf4-48f5-a8cd-024a3cdffed1","system_id":"levelo_inurba_marseille","lat":43.27688,"lon":5.39426,"is_reserved":false,"is_disabled":false,"rental_uris":{"android":"levelo://app?vid=52ea9115-dbf4-48f5-a8cd-024a3cdffed1","ios":"levelo://app?vid=52ea9115-dbf4-48f5-a8cd-024a3cdffed1"},"vehicle_type_id":"4","last_reported":1784636266,"current_range_meters":4400,"station_id":"","pricing_plan_id":"cebpf4jnsgd1na2vs0mg"},{"bike_id":"0887bece-2d4f-4e80-973b-13908d13331a","system_id":"levelo_inurba_marseille","lat":43.24871,"lon":5.37345,"is_reserved":false,"is_disabled":false,"rental_uris":{"android":"levelo://app?vid=0887bece-2d4f-4e80-973b-13908d13331a","ios":"levelo://app?vid=0887bece-2d4f-4e80-973b-13908d13331a"},"vehicle_type_id":"4","last_reported":1784636266,"current_range_meters":4400,"station_id":"","pricing_plan_id":"cebpf4jnsgd1na2vs0mg"},{"bike_id":"c674eded-3c26-427b-8f4b-11de4aa560ce","system_id":"levelo_inurba_marseille","lat":43.29031,"lon":5.38653,"is_reserved":false,"is_disabled":false,"rental_uris":{"android":"levelo://app?vid=c674eded-3c26-427b-8f4b-11de4aa560ce","ios":"levelo://app?vid=c674eded-3c26-427b-8f4b-11de4aa560ce"},"vehicle_type_id":"4","last_reported":1784636266,"current_range_meters":4400,"station_id":"ce4bh4p2rcd13ifvqe0g","pricing_plan_id":"cebpf4jnsgd1na2vs0mg"},{"bike_id":"3dc5c94a-91b9-4004-95ec-7064c9b53155","system_id":"levelo_inurba_marseille","lat":43.287,"lon":5.46691,"is_reserved":false,"is_disabled":false,"rental_uris":{"android":"levelo://app?vid=3dc5c94a-91b9-4004-95ec-7064c9b53155","ios":"levelo://app?vid=3dc5c94a-91b9-4004-95ec-7064c9b53155"},"vehicle_type_id":"4","last_reported":1784636266,"current_range_meters":4400,"station_id":"st_d6tc3vkotcvc738tfjhg","pricing_plan_id":"cebpf4jnsgd1na2vs0mg"},{"bike_id":"c959a0d8-a43b-4b91-be9a-464342ecdbcb","system_id":"levelo_inurba_marseille","lat":43.29272,"lon":5.36849,"is_reserved":false,"is_disabled":true,"rental_uris":{"android":"levelo://app?vid=c959a0d8-a43b-4b91-be9a-464342ecdbcb","ios":"levelo://app?vid=c959a0d8-a43b-4b91-be9a-464342ecdbcb"},"vehicle_type_id":"4","last_reported":1784636266,"current_range_meters":4400,"station_id":"","pricing_plan_id":"cebpf4jnsgd1na2vs0mg"},{"bike_id":"8d5e8182-23d2-4ed7-b9cc-a92fb10d8f28","system_id":"levelo_inurba_marseille","lat":43.31329,"lon":5.39692,"is_reserved":false,"is_disabled":false,"rental_uris":{"android":"levelo://app?vid=8d5e8182-23d2-4ed7-b9cc-a92fb10d8f28","ios":"levelo://app?vid=8d5e8182-23d2-4ed7-b9cc-a92fb10d8f28"},"vehicle_type_id":"4","last_reported":1784636266,"current_range_meters":4400,"station_id":"ce4bgvp2rcd13ifvqcu0","pricing_plan_id":"cebpf4jnsgd1na2vs0mg"},{"bike_id":"14c58f5c-5159-4f74-b24f-cc07dfc07cdb","system_id":"levelo_inurba_marseille","lat":43.22551,"lon":5.41639,"is_reserved":false,"is_disabled":false,"rental_uris":{"android":"levelo://app?vid=14c58f5c-5159-4f74-b24f-cc07dfc07cdb","ios":"levelo://app?vid=14c58f5c-5159-4f74-b24f-cc07dfc07cdb"},"vehicle_type_id":"4","last_reported":1784636266,"current_range_meters":4400,"station_id":"st_d2o4gvlbi1j2169b742g","pricing_plan_id":"cebpf4jnsgd1na2vs0mg"},{"bike_id":"8bf62a82-2ebe-4631-b96f-5c38569543f4","system_id":"levelo_inurba_marseille","lat":43.29198,"lon":5.36053,"is_reserved":false,"is_disabled":false,"rental_uris":{"android":"levelo://app?vid=8bf62a82-2ebe-4631-b96f-5c38569543f4","ios":"levelo://app?vid=8bf62a82-2ebe-4631-b96f-5c38569543f4"},"vehicle_type_id":"4","last_reported":1784636266,"current_range_meters":4400,"station_id":"","pricing_plan_id":"cebpf4jnsgd1na2vs0mg"},{"bike_id":"1f74f620-2877-4841-80b7-c869e340c6db","system_id":"levelo_inurba_marseille","lat":43.30934,"lon":5.40143,"is_reserved":false,"is_disabled":false,"rental_uris":{"android":"levelo://app?vid=1f74f620-2877-4841-80b7-c869e340c6db","ios":"levelo://app?vid=1f74f620-2877-4841-80b7-c869e340c6db"},"vehicle_type_id":"4","last_reported":1784636266,"current_range_meters":4800,"station_id":"ce4bgvp2rcd13ifvqct0","pricing_plan_id":"cebpf4jnsgd1na2vs0mg"},{"bike_id":"41c6ec61-d8e3-4613-9552-c88690d229f2","system_id":"levelo_inurba_marseille","lat":43.30406,"lon":5.40833,"is_reserved":false,"is_disabled":false,"rental_uris":{"android":"levelo://app?vid=41c6ec61-d8e3-4613-9552-c88690d229f2","ios":"levelo://app?vid=41c6ec61-d8e3-4613-9552-c88690d229f2"},"vehicle_type_id":"4","last_reported":1784636266,"current_range_meters":4800,"station_id":"","pricing_plan_id":"cebpf4jnsgd1na2vs0mg"},{"bike_id":"990d6af6-c1a6-4047-bf05-22b4d1f2bc3e","system_id":"levelo_inurba_marseille","lat":43.23953,"lon":5.38501,"is_reserved":false,"is_disabled":false,"rental_uris":{"android":"levelo://app?vid=990d6af6-c1a6-4047-bf05-22b4d1f2bc3e","ios":"levelo://app?vid=990d6af6-c1a6-4047-bf05-22b4d1f2bc3e"},"vehicle_type_id":"4","last_reported":1784636266,"current_range_meters":4800,"station_id":"","pricing_plan_id":"cebpf4jnsgd1na2vs0mg"},{"bike_id":"3034da8a-938a-4c21-98c7-d83124cec281","system_id":"levelo_inurba_marseille","lat":43.28787,"lon":5.37278,"is_reserved":false,"is_disabled":false,"rental_uris":{"android":"levelo://app?vid=3034da8a-938a-4c21-98c7-d83124cec281","ios":"levelo://app?vid=3034da8a-938a-4c21-98c7-d83124cec281"},"vehicle_type_id":"4","last_reported":1784636266,"current_range_meters":4800,"station_id":"","pricing_plan_id":"cebpf4jnsgd1na2vs0mg"},{"bike_id":"e4a8b9e3-c52a-4443-b1d6-b105c6d39104","system_id":"levelo_inurba_marseille","lat":43.26443,"lon":5.37092,"is_reserved":false,"is_disabled":true,"rental_uris":{"android":"levelo://app?vid=e4a8b9e3-c52a-4443-b1d6-b105c6d39104","ios":"levelo://app?vid=e4a8b9e3-c52a-4443-b1d6-b105c6d39104"},"vehicle_type_id":"4","last_reported":1784636266,"current_range_meters":4800,"station_id":"","pricing_plan_id":"cebpf4jnsgd1na2vs0mg"},{"bike_id":"7ff54aa4-2816-46cd-8c53-826c86e2926c","system_id":"levelo_inurba_marseille","lat":43.27202,"lon":5.39183,"is_reserved":false,"is_disabled":false,"rental_uris":{"android":"levelo://app?vid=7ff54aa4-2816-46cd-8c53-826c86e2926c","ios":"levelo://app?vid=7ff54aa4-2816-46cd-8c53-826c86e2926c"},"vehicle_type_id":"4","last_reported":1784636266,"current_range_meters":4800,"station_id":"ce4bhhp2rcd13ifvqfm0","pricing_plan_id":"cebpf4jnsgd1na2vs0mg"},{"bike_id":"80929600-400d-42fc-90c5-c1ecc4f022ba","system_id":"levelo_inurba_marseille","lat":43.297605,"lon":5.381137,"is_reserved":false,"is_disabled":false,"rental_uris":{"android":"levelo://app?vid=80929600-400d-42fc-90c5-c1ecc4f022ba","ios":"levelo://app?vid=80929600-400d-42fc-90c5-c1ecc4f022ba"},"vehicle_type_id":"4","last_reported":1784636266,"current_range_meters":4800,"station_id":"ce4bgip2rcd13ifvqbb0","pricing_plan_id":"cebpf4jnsgd1na2vs0mg"},{"bike_id":"472db486-7bf9-44da-865a-2d96eba81268","system_id":"levelo_inurba_marseille","lat":43.29543,"lon":5.38121,"is_reserved":false,"is_disabled":false,"rental_uris":{"android":"levelo://app?vid=472db486-7bf9-44da-865a-2d96eba81268","ios":"levelo://app?vid=472db486-7bf9-44da-865a-2d96eba81268"},"vehicle_type_id":"4","last_reported":1784636266,"current_range_meters":4800,"station_id":"","pricing_plan_id":"cebpf4jnsgd1na2vs0mg"},{"bike_id":"996aec46-887c-4c90-bfff-10977e2a64dd","system_id":"levelo_inurba_marseille","lat":43.28399,"lon":5.35004,"is_reserved":false,"is_disabled":false,"rental_uris":{"android":"levelo://app?vid=996aec46-887c-4c90-bfff-10977e2a64dd","ios":"levelo://app?vid=996aec46-887c-4c90-bfff-10977e2a64dd"},"vehicle_type_id":"4","last_reported":1784636266,"current_range_meters":4800,"station_id":"ce4bhbh2rcd13ifvqepg","pricing_plan_id":"cebpf4jnsgd1na2vs0mg"},{"bike_id":"4e59c3a1-b898-4f1d-8ea3-49cb255034bc","system_id":"levelo_inurba_marseille","lat":43.24996,"lon":5.38934,"is_reserved":false,"is_disabled":false,"rental_uris":{"android":"levelo://app?vid=4e59c3a1-b898-4f1d-8ea3-49cb255034bc","ios":"levelo://app?vid=4e59c3a1-b898-4f1d-8ea3-49cb255034bc"},"vehicle_type_id":"4","last_reported":1784636266,"current_range_meters":4800,"station_id":"ce4bhgp2rcd13ifvqfd0","pricing_plan_id":"cebpf4jnsgd1na2vs0mg"},{"bike_id":"b922b32f-c5dd-46b9-8fbd-8630dfb0ae3b","system_id":"levelo_inurba_marseille","lat":43.28653,"lon":5.35076,"is_reserved":false,"is_disabled":false,"rental_uris":{"android":"levelo://app?vid=b922b32f-c5dd-46b9-8fbd-8630dfb0ae3b","ios":"levelo://app?vid=b922b32f-c5dd-46b9-8fbd-8630dfb0ae3b"},"vehicle_type_id":"4","last_reported":1784636266,"current_range_meters":4800,"station_id":"ce4bhch2rcd13ifvqeug","pricing_plan_id":"cebpf4jnsgd1na2vs0mg"},{"bike_id":"5ef34f29-2ede-4453-8f22-121c18fc9a9d","system_id":"levelo_inurba_marseille","lat":43.24395,"lon":5.37051,"is_reserved":false,"is_disabled":false,"rental_uris":{"android":"levelo://app?vid=5ef34f29-2ede-4453-8f22-121c18fc9a9d","ios":"levelo://app?vid=5ef34f29-2ede-4453-8f22-121c18fc9a9d"},"vehicle_type_id":"4","last_reported":1784636266,"current_range_meters":4800,"station_id":"ce4bhhh2rcd13ifvqfk0","pricing_plan_id":"cebpf4jnsgd1na2vs0mg"},{"bike_id":"1d9536b0-bb9c-45fd-88cf-878234fc39a5","system_id":"levelo_inurba_marseille","lat":43.24652,"lon":5.41622,"is_reserved":false,"is_disabled":false,"rental_uris":{"android":"levelo://app?vid=1d9536b0-bb9c-45fd-88cf-878234fc39a5","ios":"levelo://app?vid=1d9536b0-bb9c-45fd-88cf-878234fc39a5"},"vehicle_type_id":"4","last_reported":1784636266,"current_range_meters":4800,"station_id":"","pricing_plan_id":"cebpf4jnsgd1na2vs0mg"},{"bike_id":"3adaa436-b43b-48cb-8b46-f9ab5d9a6fa2","system_id":"levelo_inurba_marseille","lat":43.29015,"lon":5.43282,"is_reserved":false,"is_disabled":false,"rental_uris":{"android":"levelo://app?vid=3adaa436-b43b-48cb-8b46-f9ab5d9a6fa2","ios":"levelo://app?vid=3adaa436-b43b-48cb-8b46-f9ab5d9a6fa2"},"vehicle_type_id":"4","last_reported":1784636266,"current_range_meters":4800,"station_id":"","pricing_plan_id":"cebpf4jnsgd1na2vs0mg"},{"bike_id":"6c041af7-f5df-4538-800e-54cf876993a0","system_id":"levelo_inurba_marseille","lat":43.29279,"lon":5.35777,"is_reserved":false,"is_disabled":false,"rental_uris":{"android":"levelo://app?vid=6c041af7-f5df-4538-800e-54cf876993a0","ios":"levelo://app?vid=6c041af7-f5df-4538-800e-54cf876993a0"},"vehicle_type_id":"4","last_reported":1784636266,"current_range_meters":4800,"station_id":"","pricing_plan_id":"cebpf4jnsgd1na2vs0mg"},{"bike_id":"239f7778-5e9e-4372-9645-91f65e2fc057","system_id":"levelo_inurba_marseille","lat":43.29358,"lon":5.37857,"is_reserved":false,"is_disabled":false,"rental_uris":{"android":"levelo://app?vid=239f7778-5e9e-4372-9645-91f65e2fc057","ios":"levelo://app?vid=239f7778-5e9e-4372-9645-91f65e2fc057"},"vehicle_type_id":"4","last_reported":1784636266,"current_range_meters":5600,"station_id":"ce4bgjh2rcd13ifvqbf0","pricing_plan_id":"cebpf4jnsgd1na2vs0mg"},{"bike_id":"93bf298b-8aa8-4988-913e-a38698a40505","system_id":"levelo_inurba_marseille","lat":43.29535,"lon":5.38532,"is_reserved":false,"is_disabled":false,"rental_uris":{"android":"levelo://app?vid=93bf298b-8aa8-4988-913e-a38698a40505","ios":"levelo://app?vid=93bf298b-8aa8-4988-913e-a38698a40505"},"vehicle_type_id":"4","last_reported":1784636266,"current_range_meters":5600,"station_id":"ce4bgih2rcd13ifvqba0","pricing_plan_id":"cebpf4jnsgd1na2vs0mg"},{"bike_id":"1ae20384-5ccd-4145-9a1d-f626b16c7a9e","system_id":"levelo_inurba_marseille","lat":43.3114,"lon":5.46433,"is_reserved":false,"is_disabled":false,"rental_uris":{"android":"levelo://app?vid=1ae20384-5ccd-4145-9a1d-f626b16c7a9e","ios":"levelo://app?vid=1ae20384-5ccd-4145-9a1d-f626b16c7a9e"},"vehicle_type_id":"4","last_reported":1784636266,"current_range_meters":5600,"station_id":"","pricing_plan_id":"cebpf4jnsgd1na2vs0mg"},{"bike_id":"97d170f8-b4d7-4c6f-bccf-c1df5a4c63f6","system_id":"levelo_inurba_marseille","lat":43.28266,"lon":5.3507,"is_reserved":false,"is_disabled":false,"rental_uris":{"android":"levelo://app?vid=97d170f8-b4d7-4c6f-bccf-c1df5a4c63f6","ios":"levelo://app?vid=97d170f8-b4d7-4c6f-bccf-c1df5a4c63f6"},"vehicle_type_id":"4","last_reported":1784636266,"current_range_meters":5600,"station_id":"ce4bhbp2rcd13ifvqerg","pricing_plan_id":"cebpf4jnsgd1na2vs0mg"},{"bike_id":"55a26093-f1af-47d4-b486-37f315e5e022","system_id":"levelo_inurba_marseille","lat":43.30954,"lon":5.39037,"is_reserved":false,"is_disabled":false,"rental_uris":{"android":"levelo://app?vid=55a26093-f1af-47d4-b486-37f315e5e022","ios":"levelo://app?vid=55a26093-f1af-47d4-b486-37f315e5e022"},"vehicle_type_id":"4","last_reported":1784636266,"current_range_meters":5600,"station_id":"ce4bgup2rcd13ifvqco0","pricing_plan_id":"cebpf4jnsgd1na2vs0mg"},{"bike_id":"f07902e8-bab7-4fab-8a5b-abe7dedcfe8a","system_id":"levelo_inurba_marseille","lat":43.2283,"lon":5.44105,"is_reserved":false,"is_disabled":false,"rental_uris":{"android":"levelo://app?vid=f07902e8-bab7-4fab-8a5b-abe7dedcfe8a","ios":"levelo://app?vid=f07902e8-bab7-4fab-8a5b-abe7dedcfe8a"},"vehicle_type_id":"4","last_reported":1784636266,"current_range_meters":5600,"station_id":"","pricing_plan_id":"cebpf4jnsgd1na2vs0mg"},{"bike_id":"33dd5719-3315-4008-8c8b-ab25070fb8f7","system_id":"levelo_inurba_marseille","lat":43.2971,"lon":5.37723,"is_reserved":false,"is_disabled":false,"rental_uris":{"android":"levelo://app?vid=33dd5719-3315-4008-8c8b-ab25070fb8f7","ios":"levelo://app?vid=33dd5719-3315-4008-8c8b-ab25070fb8f7"},"vehicle_type_id":"4","last_reported":1784636266,"current_range_meters":5600,"station_id":"ce4bgkh2rcd13ifvqbl0","pricing_plan_id":"cebpf4jnsgd1na2vs0mg"},{"bike_id":"82c094ba-6621-432a-9b61-3b9614be9311","system_id":"levelo_inurba_marseille","lat":43.27538,"lon":5.40956,"is_reserved":false,"is_disabled":false,"rental_uris":{"android":"levelo://app?vid=82c094ba-6621-432a-9b61-3b9614be9311","ios":"levelo://app?vid=82c094ba-6621-432a-9b61-3b9614be9311"},"vehicle_type_id":"4","last_reported":1784636266,"current_range_meters":5600,"station_id":"","pricing_plan_id":"cebpf4jnsgd1na2vs0mg"},{"bike_id":"a9962570-c2a2-41c8-a29d-154b817fefaa","system_id":"levelo_inurba_marseille","lat":43.24475,"lon":5.41091,"is_reserved":false,"is_disabled":false,"rental_uris":{"android":"levelo://app?vid=a9962570-c2a2-41c8-a29d-154b817fefaa","ios":"levelo://app?vid=a9962570-c2a2-41c8-a29d-154b817fefaa"},"vehicle_type_id":"4","last_reported":1784636266,"current_range_meters":5600,"station_id":"","pricing_plan_id":"cebpf4jnsgd1na2vs0mg"},{"bike_id":"7da8c3e4-a955-46c7-8d93-5ca4059510a4","system_id":"levelo_inurba_marseille","lat":43.3023,"lon":5.3882,"is_reserved":false,"is_disabled":false,"rental_uris":{"android":"levelo://app?vid=7da8c3e4-a955-46c7-8d93-5ca4059510a4","ios":"levelo://app?vid=7da8c3e4-a955-46c7-8d93-5ca4059510a4"},"vehicle_type_id":"4","last_reported":1784636266,"current_range_meters":5600,"station_id":"","pricing_plan_id":"cebpf4jnsgd1na2vs0mg"},{"bike_id":"c61b03c7-bdcc-4b43-9eb2-16cb8d8e68f6","system_id":"levelo_inurba_marseille","lat":43.33532,"lon":5.37477,"is_reserved":false,"is_disabled":false,"rental_uris":{"android":"levelo://app?vid=c61b03c7-bdcc-4b43-9eb2-16cb8d8e68f6","ios":"levelo://app?vid=c61b03c7-bdcc-4b43-9eb2-16cb8d8e68f6"},"vehicle_type_id":"4","last_reported":1784636266,"current_range_meters":6000,"station_id":"st_d46tts09ee8s73dlu43g","pricing_plan_id":"cebpf4jnsgd1na2vs0mg"},{"bike_id":"2579bf3d-f1f8-4484-8f57-db533dfc4340","system_id":"levelo_inurba_marseille","lat":43.29561,"lon":5.38072,"is_reserved":false,"is_disabled":false,"rental_uris":{"android":"levelo://app?vid=2579bf3d-f1f8-4484-8f57-db533dfc4340","ios":"levelo://app?vid=2579bf3d-f1f8-4484-8f57-db533dfc4340"},"vehicle_type_id":"4","last_reported":1784636266,"current_range_meters":6000,"station_id":"","pricing_plan_id":"cebpf4jnsgd1na2vs0mg"},{"bike_id":"cd38127a-7d66-40a7-aa29-fce5ff5c0e8a","system_id":"levelo_inurba_marseille","lat":43.29629,"lon":5.40603,"is_reserved":false,"is_disabled":false,"rental_uris":{"android":"levelo://app?vid=cd38127a-7d66-40a7-aa29-fce5ff5c0e8a","ios":"levelo://app?vid=cd38127a-7d66-40a7-aa29-fce5ff5c0e8a"},"vehicle_type_id":"4","last_reported":1784636266,"current_range_meters":6000,"station_id":"ce4bh0h2rcd13ifvqd60","pricing_plan_id":"cebpf4jnsgd1na2vs0mg"},{"bike_id":"f9a4978c-66bc-414a-b059-ba0305add237","system_id":"levelo_inurba_marseille","lat":43.33063,"lon":5.43147,"is_reserved":false,"is_disabled":false,"rental_uris":{"android":"levelo://app?vid=f9a4978c-66bc-414a-b059-ba0305add237","ios":"levelo://app?vid=f9a4978c-66bc-414a-b059-ba0305add237"},"vehicle_type_id":"4","last_reported":1784636266,"current_range_meters":6000,"station_id":"","pricing_plan_id":"cebpf4jnsgd1na2vs0mg"},{"bike_id":"92f85151-daa2-43c8-9d61-8afa8d01f66f","system_id":"levelo_inurba_marseille","lat":43.27815,"lon":5.4071,"is_reserved":false,"is_disabled":false,"rental_uris":{"android":"levelo://app?vid=92f85151-daa2-43c8-9d61-8afa8d01f66f","ios":"levelo://app?vid=92f85151-daa2-43c8-9d61-8afa8d01f66f"},"vehicle_type_id":"4","last_reported":1784636266,"current_range_meters":6000,"station_id":"ce4bhnh2rcd13ifvqgtg","pricing_plan_id":"cebpf4jnsgd1na2vs0mg"},{"bike_id":"1c1b7010-5213-4af5-b292-f0621089debd","system_id":"levelo_inurba_marseille","lat":43.29808,"lon":5.38097,"is_reserved":false,"is_disabled":false,"rental_uris":{"android":"levelo://app?vid=1c1b7010-5213-4af5-b292-f0621089debd","ios":"levelo://app?vid=1c1b7010-5213-4af5-b292-f0621089debd"},"vehicle_type_id":"4","last_reported":1784636266,"current_range_meters":6000,"station_id":"ce4bgip2rcd13ifvqbb0","pricing_plan_id":"cebpf4jnsgd1na2vs0mg"},{"bike_id":"c94c95d2-4148-42df-a253-1a0fbd5f65ff","system_id":"levelo_inurba_marseille","lat":43.29792,"lon":5.39328,"is_reserved":false,"is_disabled":false,"rental_uris":{"android":"levelo://app?vid=c94c95d2-4148-42df-a253-1a0fbd5f65ff","ios":"levelo://app?vid=c94c95d2-4148-42df-a253-1a0fbd5f65ff"},"vehicle_type_id":"4","last_reported":1784636266,"current_range_meters":6000,"station_id":"chh1huq6cuj3fo74tm60","pricing_plan_id":"cebpf4jnsgd1na2vs0mg"},{"bike_id":"61f46f00-12a6-469d-86ba-03b4c49102bd","system_id":"levelo_inurba_marseille","lat":43.31373,"lon":5.38645,"is_reserved":false,"is_disabled":false,"rental_uris":{"android":"levelo://app?vid=61f46f00-12a6-469d-86ba-03b4c49102bd","ios":"levelo://app?vid=61f46f00-12a6-469d-86ba-03b4c49102bd"},"vehicle_type_id":"4","last_reported":1784636266,"current_range_meters":6000,"station_id":"","pricing_plan_id":"cebpf4jnsgd1na2vs0mg"},{"bike_id":"47308e7b-4209-4a15-9853-c005fa69a940","system_id":"levelo_inurba_marseille","lat":43.30534,"lon":5.36536,"is_reserved":false,"is_disabled":false,"rental_uris":{"android":"levelo://app?vid=47308e7b-4209-4a15-9853-c005fa69a940","ios":"levelo://app?vid=47308e7b-4209-4a15-9853-c005fa69a940"},"vehicle_type_id":"4","last_reported":1784636266,"current_range_meters":6000,"station_id":"ce4bgs12rcd13ifvqcag","pricing_plan_id":"cebpf4jnsgd1na2vs0mg"},{"bike_id":"65ad9de8-7135-4e55-bf82-697b44118451","system_id":"levelo_inurba_marseille","lat":43.3189,"lon":5.36871,"is_reserved":false,"is_disabled":false,"rental_uris":{"android":"levelo://app?vid=65ad9de8-7135-4e55-bf82-697b44118451","ios":"levelo://app?vid=65ad9de8-7135-4e55-bf82-697b44118451"},"vehicle_type_id":"4","last_reported":1784636266,"current_range_meters":6400,"station_id":"","pricing_plan_id":"cebpf4jnsgd1na2vs0mg"},{"bike_id":"be7033ce-6349-45aa-896a-387ca8ede0b4","system_id":"levelo_inurba_marseille","lat":43.28483,"lon":5.4839,"is_reserved":false,"is_disabled":false,"rental_uris":{"android":"levelo://app?vid=be7033ce-6349-45aa-896a-387ca8ede0b4","ios":"levelo://app?vid=be7033ce-6349-45aa-896a-387ca8ede0b4"},"vehicle_type_id":"4","last_reported":1784636266,"current_range_meters":6400,"station_id":"st_d3svhcjqgbts73a3dn0g","pricing_plan_id":"cebpf4jnsgd1na2vs0mg"},{"bike_id":"489d4e83-3aa3-449d-a2ce-274b8bbe70f0","system_id":"levelo_inurba_marseille","lat":43.30123,"lon":5.43114,"is_reserved":false,"is_disabled":false,"rental_uris":{"android":"levelo://app?vid=489d4e83-3aa3-449d-a2ce-274b8bbe70f0","ios":"levelo://app?vid=489d4e83-3aa3-449d-a2ce-274b8bbe70f0"},"vehicle_type_id":"4","last_reported":1784636266,"current_range_meters":6400,"station_id":"st_d3js3co5814s73ftftug","pricing_plan_id":"cebpf4jnsgd1na2vs0mg"},{"bike_id":"c5f2fb66-30d9-4cc8-ba12-ddf356dbdf5b","system_id":"levelo_inurba_marseille","lat":43.33154,"lon":5.37686,"is_reserved":false,"is_disabled":false,"rental_uris":{"android":"levelo://app?vid=c5f2fb66-30d9-4cc8-ba12-ddf356dbdf5b","ios":"levelo://app?vid=c5f2fb66-30d9-4cc8-ba12-ddf356dbdf5b"},"vehicle_type_id":"4","last_reported":1784636266,"current_range_meters":6400,"station_id":"st_d46cu089ee8s73dldbu0","pricing_plan_id":"cebpf4jnsgd1na2vs0mg"},{"bike_id":"1fc8443c-ce65-4cef-9e27-7a7fe91135f0","system_id":"levelo_inurba_marseille","lat":43.33235,"lon":5.36456,"is_reserved":false,"is_disabled":false,"rental_uris":{"android":"levelo://app?vid=1fc8443c-ce65-4cef-9e27-7a7fe91135f0","ios":"levelo://app?vid=1fc8443c-ce65-4cef-9e27-7a7fe91135f0"},"vehicle_type_id":"4","last_reported":1784636266,"current_range_meters":6400,"station_id":"","pricing_plan_id":"cebpf4jnsgd1na2vs0mg"},{"bike_id":"f3da1450-b759-4c75-8515-28cb50f5af77","system_id":"levelo_inurba_marseille","lat":43.31552,"lon":5.40671,"is_reserved":false,"is_disabled":false,"rental_uris":{"android":"levelo://app?vid=f3da1450-b759-4c75-8515-28cb50f5af77","ios":"levelo://app?vid=f3da1450-b759-4c75-8515-28cb50f5af77"},"vehicle_type_id":"4","last_reported":1784636266,"current_range_meters":6400,"station_id":"","pricing_plan_id":"cebpf4jnsgd1na2vs0mg"},{"bike_id":"3996f6c9-7d50-43e8-a5c2-4cb55658a8bf","system_id":"levelo_inurba_marseille","lat":43.30452,"lon":5.37917,"is_reserved":false,"is_disabled":false,"rental_uris":{"android":"levelo://app?vid=3996f6c9-7d50-43e8-a5c2-4cb55658a8bf","ios":"levelo://app?vid=3996f6c9-7d50-43e8-a5c2-4cb55658a8bf"},"vehicle_type_id":"4","last_reported":1784636266,"current_range_meters":6400,"station_id":"ce4bgup2rcd13ifvqcn0","pricing_plan_id":"cebpf4jnsgd1na2vs0mg"},{"bike_id":"6435851b-834a-4f99-846e-d7a8fe02ac0d","system_id":"levelo_inurba_marseille","lat":43.27569,"lon":5.3842,"is_reserved":false,"is_disabled":false,"rental_uris":{"android":"levelo://app?vid=6435851b-834a-4f99-846e-d7a8fe02ac0d","ios":"levelo://app?vid=6435851b-834a-4f99-846e-d7a8fe02ac0d"},"vehicle_type_id":"4","last_reported":1784636266,"current_range_meters":6400,"station_id":"ce4bhh92rcd13ifvqfi0","pricing_plan_id":"cebpf4jnsgd1na2vs0mg"},{"bike_id":"99658ac7-ded3-4ee7-ba39-9b4876cc618a","system_id":"levelo_inurba_marseille","lat":43.30214,"lon":5.36607,"is_reserved":false,"is_disabled":true,"rental_uris":{"android":"levelo://app?vid=99658ac7-ded3-4ee7-ba39-9b4876cc618a","ios":"levelo://app?vid=99658ac7-ded3-4ee7-ba39-9b4876cc618a"},"vehicle_type_id":"4","last_reported":1784636266,"current_range_meters":6400,"station_id":"ce4bgrh2rcd13ifvqc8g","pricing_plan_id":"cebpf4jnsgd1na2vs0mg"},{"bike_id":"4c468adf-1d9e-45f4-9455-4a3d97321091","system_id":"levelo_inurba_marseille","lat":43.24349,"lon":5.38463,"is_reserved":false,"is_disabled":false,"rental_uris":{"android":"levelo://app?vid=4c468adf-1d9e-45f4-9455-4a3d97321091","ios":"levelo://app?vid=4c468adf-1d9e-45f4-9455-4a3d97321091"},"vehicle_type_id":"4","last_reported":1784636266,"current_range_meters":6400,"station_id":"","pricing_plan_id":"cebpf4jnsgd1na2vs0mg"},{"bike_id":"ac438893-7e3a-4c3c-a5e3-9838f4574042","system_id":"levelo_inurba_marseille","lat":43.30464,"lon":5.37904,"is_reserved":false,"is_disabled":false,"rental_uris":{"android":"levelo://app?vid=ac438893-7e3a-4c3c-a5e3-9838f4574042","ios":"levelo://app?vid=ac438893-7e3a-4c3c-a5e3-9838f4574042"},"vehicle_type_id":"4","last_reported":1784636266,"current_range_meters":6400,"station_id":"ce4bgup2rcd13ifvqcn0","pricing_plan_id":"cebpf4jnsgd1na2vs0mg"},{"bike_id":"c5f08406-c4e9-4abb-86ec-5f52aa8d43c6","system_id":"levelo_inurba_marseille","lat":43.28534,"lon":5.44098,"is_reserved":false,"is_disabled":false,"rental_uris":{"android":"levelo://app?vid=c5f08406-c4e9-4abb-86ec-5f52aa8d43c6","ios":"levelo://app?vid=c5f08406-c4e9-4abb-86ec-5f52aa8d43c6"},"vehicle_type_id":"4","last_reported":1784636266,"current_range_meters":6400,"station_id":"st_d3j3df2ikq2c7380ej80","pricing_plan_id":"cebpf4jnsgd1na2vs0mg"},{"bike_id":"2ba92e3d-08c3-40d3-9e00-f7f645d3560a","system_id":"levelo_inurba_marseille","lat":43.28614,"lon":5.35115,"is_reserved":false,"is_disabled":false,"rental_uris":{"android":"levelo://app?vid=2ba92e3d-08c3-40d3-9e00-f7f645d3560a","ios":"levelo://app?vid=2ba92e3d-08c3-40d3-9e00-f7f645d3560a"},"vehicle_type_id":"4","last_reported":1784636266,"current_range_meters":6400,"station_id":"ce4bhch2rcd13ifvqeug","pricing_plan_id":"cebpf4jnsgd1na2vs0mg"},{"bike_id":"2d9d0803-4771-496d-8925-5b2e232b4636","system_id":"levelo_inurba_marseille","lat":43.22558,"lon":5.41632,"is_reserved":false,"is_disabled":false,"rental_uris":{"android":"levelo://app?vid=2d9d0803-4771-496d-8925-5b2e232b4636","ios":"levelo://app?vid=2d9d0803-4771-496d-8925-5b2e232b4636"},"vehicle_type_id":"4","last_reported":1784636266,"current_range_meters":6400,"station_id":"st_d2o4gvlbi1j2169b742g","pricing_plan_id":"cebpf4jnsgd1na2vs0mg"},{"bike_id":"8be0a44d-ef9f-43bf-9f5c-dc43d4f2da67","system_id":"levelo_inurba_marseille","lat":43.27371,"lon":5.36263,"is_reserved":false,"is_disabled":false,"rental_uris":{"android":"levelo://app?vid=8be0a44d-ef9f-43bf-9f5c-dc43d4f2da67","ios":"levelo://app?vid=8be0a44d-ef9f-43bf-9f5c-dc43d4f2da67"},"vehicle_type_id":"4","last_reported":1784636266,"current_range_meters":6400,"station_id":"ce4bhbh2rcd13ifvqeo0","pricing_plan_id":"cebpf4jnsgd1na2vs0mg"},{"bike_id":"71e994fb-b47d-41fb-86b0-f1f19ab9bfb2","system_id":"levelo_inurba_marseille","lat":43.27371,"lon":5.3623,"is_reserved":false,"is_disabled":false,"rental_uris":{"android":"levelo://app?vid=71e994fb-b47d-41fb-86b0-f1f19ab9bfb2","ios":"levelo://app?vid=71e994fb-b47d-41fb-86b0-f1f19ab9bfb2"},"vehicle_type_id":"4","last_reported":1784636266,"current_range_meters":6800,"station_id":"ce4bhbh2rcd13ifvqeo0","pricing_plan_id":"cebpf4jnsgd1na2vs0mg"},{"bike_id":"18814497-5724-46e1-ac10-ad46ebd53e18","system_id":"levelo_inurba_marseille","lat":43.32045,"lon":5.3678,"is_reserved":false,"is_disabled":false,"rental_uris":{"android":"levelo://app?vid=18814497-5724-46e1-ac10-ad46ebd53e18","ios":"levelo://app?vid=18814497-5724-46e1-ac10-ad46ebd53e18"},"vehicle_type_id":"4","last_reported":1784636266,"current_range_meters":6800,"station_id":"","pricing_plan_id":"cebpf4jnsgd1na2vs0mg"},{"bike_id":"c1971d81-fb67-4ff4-ba0d-16c3cd0375d6","system_id":"levelo_inurba_marseille","lat":43.299222,"lon":5.374707,"is_reserved":false,"is_disabled":false,"rental_uris":{"android":"levelo://app?vid=c1971d81-fb67-4ff4-ba0d-16c3cd0375d6","ios":"levelo://app?vid=c1971d81-fb67-4ff4-ba0d-16c3cd0375d6"},"vehicle_type_id":"4","last_reported":1784636266,"current_range_meters":6800,"station_id":"ce4bgjh2rcd13ifvqbg0","pricing_plan_id":"cebpf4jnsgd1na2vs0mg"},{"bike_id":"dda8e6da-cdaf-4a58-a4ea-71c780a2e64c","system_id":"levelo_inurba_marseille","lat":43.29254,"lon":5.40909,"is_reserved":false,"is_disabled":false,"rental_uris":{"android":"levelo://app?vid=dda8e6da-cdaf-4a58-a4ea-71c780a2e64c","ios":"levelo://app?vid=dda8e6da-cdaf-4a58-a4ea-71c780a2e64c"},"vehicle_type_id":"4","last_reported":1784636266,"current_range_meters":6800,"station_id":"ce4bh192rcd13ifvqdc0","pricing_plan_id":"cebpf4jnsgd1na2vs0mg"},{"bike_id":"0d378cba-1ff6-48f9-8d87-694a27355a4e","system_id":"levelo_inurba_marseille","lat":43.25001,"lon":5.38939,"is_reserved":false,"is_disabled":false,"rental_uris":{"android":"levelo://app?vid=0d378cba-1ff6-48f9-8d87-694a27355a4e","ios":"levelo://app?vid=0d378cba-1ff6-48f9-8d87-694a27355a4e"},"vehicle_type_id":"4","last_reported":1784636266,"current_range_meters":6800,"station_id":"ce4bhgp2rcd13ifvqfd0","pricing_plan_id":"cebpf4jnsgd1na2vs0mg"},{"bike_id":"c6b8af4a-4cc9-4a71-91c2-df935ddb4fe2","system_id":"levelo_inurba_marseille","lat":43.27371,"lon":5.36256,"is_reserved":false,"is_disabled":false,"rental_uris":{"android":"levelo://app?vid=c6b8af4a-4cc9-4a71-91c2-df935ddb4fe2","ios":"levelo://app?vid=c6b8af4a-4cc9-4a71-91c2-df935ddb4fe2"},"vehicle_type_id":"4","last_reported":1784636266,"current_range_meters":6800,"station_id":"ce4bhbh2rcd13ifvqeo0","pricing_plan_id":"cebpf4jnsgd1na2vs0mg"},{"bike_id":"1851f267-3c7a-40a0-a5ac-e447a9a29f87","system_id":"levelo_inurba_marseille","lat":43.28471,"lon":5.48405,"is_reserved":false,"is_disabled":false,"rental_uris":{"android":"levelo://app?vid=1851f267-3c7a-40a0-a5ac-e447a9a29f87","ios":"levelo://app?vid=1851f267-3c7a-40a0-a5ac-e447a9a29f87"},"vehicle_type_id":"4","last_reported":1784636266,"current_range_meters":6800,"station_id":"st_d3svhcjqgbts73a3dn0g","pricing_plan_id":"cebpf4jnsgd1na2vs0mg"},{"bike_id":"f58d1113-1bdc-491d-b06b-4402b7035997","system_id":"levelo_inurba_marseille","lat":43.30943,"lon":5.39049,"is_reserved":false,"is_disabled":false,"rental_uris":{"android":"levelo://app?vid=f58d1113-1bdc-491d-b06b-4402b7035997","ios":"levelo://app?vid=f58d1113-1bdc-491d-b06b-4402b7035997"},"vehicle_type_id":"4","last_reported":1784636266,"current_range_meters":6800,"station_id":"ce4bgup2rcd13ifvqco0","pricing_plan_id":"cebpf4jnsgd1na2vs0mg"},{"bike_id":"4bf85544-84dc-4500-9552-7355996688c3","system_id":"levelo_inurba_marseille","lat":43.29142,"lon":5.37681,"is_reserved":false,"is_disabled":false,"rental_uris":{"android":"levelo://app?vid=4bf85544-84dc-4500-9552-7355996688c3","ios":"levelo://app?vid=4bf85544-84dc-4500-9552-7355996688c3"},"vehicle_type_id":"4","last_reported":1784636266,"current_range_meters":6800,"station_id":"","pricing_plan_id":"cebpf4jnsgd1na2vs0mg"},{"bike_id":"ae0ac98a-4c6c-493c-93dc-45ffb82ce6d7","system_id":"levelo_inurba_marseille","lat":43.30944,"lon":5.39034,"is_reserved":false,"is_disabled":false,"rental_uris":{"android":"levelo://app?vid=ae0ac98a-4c6c-493c-93dc-45ffb82ce6d7","ios":"levelo://app?vid=ae0ac98a-4c6c-493c-93dc-45ffb82ce6d7"},"vehicle_type_id":"4","last_reported":1784636266,"current_range_meters":6800,"station_id":"ce4bgup2rcd13ifvqco0","pricing_plan_id":"cebpf4jnsgd1na2vs0mg"},{"bike_id":"f38188ad-4978-4611-a61e-4010d3d656c2","system_id":"levelo_inurba_marseille","lat":43.27062,"lon":5.38305,"is_reserved":false,"is_disabled":false,"rental_uris":{"android":"levelo://app?vid=f38188ad-4978-4611-a61e-4010d3d656c2","ios":"levelo://app?vid=f38188ad-4978-4611-a61e-4010d3d656c2"},"vehicle_type_id":"4","last_reported":1784636266,"current_range_meters":6800,"station_id":"st_d3n2fo6cfp8s73cte1j0","pricing_plan_id":"cebpf4jnsgd1na2vs0mg"},{"bike_id":"7dee4b80-154d-482c-b0f6-456db0ab1379","system_id":"levelo_inurba_marseille","lat":43.29258,"lon":5.40901,"is_reserved":false,"is_disabled":false,"rental_uris":{"android":"levelo://app?vid=7dee4b80-154d-482c-b0f6-456db0ab1379","ios":"levelo://app?vid=7dee4b80-154d-482c-b0f6-456db0ab1379"},"vehicle_type_id":"4","last_reported":1784636266,"current_range_meters":6800,"station_id":"ce4bh192rcd13ifvqdc0","pricing_plan_id":"cebpf4jnsgd1na2vs0mg"},{"bike_id":"d11377e7-487b-40de-b73b-25d18fe398d0","system_id":"levelo_inurba_marseille","lat":43.29253,"lon":5.36037,"is_reserved":false,"is_disabled":false,"rental_uris":{"android":"levelo://app?vid=d11377e7-487b-40de-b73b-25d18fe398d0","ios":"levelo://app?vid=d11377e7-487b-40de-b73b-25d18fe398d0"},"vehicle_type_id":"4","last_reported":1784636266,"current_range_meters":6800,"station_id":"","pricing_plan_id":"cebpf4jnsgd1na2vs0mg"},{"bike_id":"b2d800e5-3728-49d1-8ac5-c09df2267af1","system_id":"levelo_inurba_marseille","lat":43.26135,"lon":5.38175,"is_reserved":false,"is_disabled":false,"rental_uris":{"android":"levelo://app?vid=b2d800e5-3728-49d1-8ac5-c09df2267af1","ios":"levelo://app?vid=b2d800e5-3728-49d1-8ac5-c09df2267af1"},"vehicle_type_id":"4","last_reported":1784636266,"current_range_meters":6800,"station_id":"","pricing_plan_id":"cebpf4jnsgd1na2vs0mg"},{"bike_id":"fecff0c7-27ae-402e-8587-e1d002834990","system_id":"levelo_inurba_marseille","lat":43.28359,"lon":5.45986,"is_reserved":false,"is_disabled":false,"rental_uris":{"android":"levelo://app?vid=fecff0c7-27ae-402e-8587-e1d002834990","ios":"levelo://app?vid=fecff0c7-27ae-402e-8587-e1d002834990"},"vehicle_type_id":"4","last_reported":1784636266,"current_range_meters":6800,"station_id":"","pricing_plan_id":"cebpf4jnsgd1na2vs0mg"},{"bike_id":"28510ffc-cfd4-4767-bd9c-21b68da4e0a3","system_id":"levelo_inurba_marseille","lat":43.28037,"lon":5.36941,"is_reserved":false,"is_disabled":false,"rental_uris":{"android":"levelo://app?vid=28510ffc-cfd4-4767-bd9c-21b68da4e0a3","ios":"levelo://app?vid=28510ffc-cfd4-4767-bd9c-21b68da4e0a3"},"vehicle_type_id":"4","last_reported":1784636266,"current_range_meters":7200,"station_id":"ce4bha12rcd13ifvqef0","pricing_plan_id":"cebpf4jnsgd1na2vs0mg"},{"bike_id":"0f5c8bb2-0f30-4cc8-acb7-51f132d38554","system_id":"levelo_inurba_marseille","lat":43.28422,"lon":5.34996,"is_reserved":false,"is_disabled":false,"rental_uris":{"android":"levelo://app?vid=0f5c8bb2-0f30-4cc8-acb7-51f132d38554","ios":"levelo://app?vid=0f5c8bb2-0f30-4cc8-acb7-51f132d38554"},"vehicle_type_id":"4","last_reported":1784636266,"current_range_meters":7200,"station_id":"ce4bhbh2rcd13ifvqepg","pricing_plan_id":"cebpf4jnsgd1na2vs0mg"},{"bike_id":"f4fa6168-8652-4abf-b03f-390c3eabc61b","system_id":"levelo_inurba_marseille","lat":43.29884,"lon":5.38904,"is_reserved":false,"is_disabled":false,"rental_uris":{"android":"levelo://app?vid=f4fa6168-8652-4abf-b03f-390c3eabc61b","ios":"levelo://app?vid=f4fa6168-8652-4abf-b03f-390c3eabc61b"},"vehicle_type_id":"4","last_reported":1784636266,"current_range_meters":7200,"station_id":"ce4bh392rcd13ifvqdl0","pricing_plan_id":"cebpf4jnsgd1na2vs0mg"},{"bike_id":"22014738-ff60-4b67-9651-6898f8c5b80c","system_id":"levelo_inurba_marseille","lat":43.29803,"lon":5.38124,"is_reserved":false,"is_disabled":false,"rental_uris":{"android":"levelo://app?vid=22014738-ff60-4b67-9651-6898f8c5b80c","ios":"levelo://app?vid=22014738-ff60-4b67-9651-6898f8c5b80c"},"vehicle_type_id":"4","last_reported":1784636266,"current_range_meters":7200,"station_id":"ce4bgip2rcd13ifvqbb0","pricing_plan_id":"cebpf4jnsgd1na2vs0mg"},{"bike_id":"0e109e68-c707-4562-9442-7cf29a8ce387","system_id":"levelo_inurba_marseille","lat":43.31069,"lon":5.37176,"is_reserved":false,"is_disabled":false,"rental_uris":{"android":"levelo://app?vid=0e109e68-c707-4562-9442-7cf29a8ce387","ios":"levelo://app?vid=0e109e68-c707-4562-9442-7cf29a8ce387"},"vehicle_type_id":"4","last_reported":1784636266,"current_range_meters":7200,"station_id":"st_d4kl2rp97mjs73e7tdfg","pricing_plan_id":"cebpf4jnsgd1na2vs0mg"},{"bike_id":"2a090e6d-3038-4413-ab09-9b7f11e8d1eb","system_id":"levelo_inurba_marseille","lat":43.28345,"lon":5.38107,"is_reserved":false,"is_disabled":true,"rental_uris":{"android":"levelo://app?vid=2a090e6d-3038-4413-ab09-9b7f11e8d1eb","ios":"levelo://app?vid=2a090e6d-3038-4413-ab09-9b7f11e8d1eb"},"vehicle_type_id":"4","last_reported":1784636266,"current_range_meters":7200,"station_id":"ce4bh412rcd13ifvqdr0","pricing_plan_id":"cebpf4jnsgd1na2vs0mg"},{"bike_id":"66a46e96-f3a8-4f06-9deb-f767afcc03f8","system_id":"levelo_inurba_marseille","lat":43.26224,"lon":5.37434,"is_reserved":false,"is_disabled":false,"rental_uris":{"android":"levelo://app?vid=66a46e96-f3a8-4f06-9deb-f767afcc03f8","ios":"levelo://app?vid=66a46e96-f3a8-4f06-9deb-f767afcc03f8"},"vehicle_type_id":"4","last_reported":1784636266,"current_range_meters":7200,"station_id":"","pricing_plan_id":"cebpf4jnsgd1na2vs0mg"},{"bike_id":"fcf17378-f497-4e14-ae85-a67c0582b699","system_id":"levelo_inurba_marseille","lat":43.25625,"lon":5.40471,"is_reserved":false,"is_disabled":false,"rental_uris":{"android":"levelo://app?vid=fcf17378-f497-4e14-ae85-a67c0582b699","ios":"levelo://app?vid=fcf17378-f497-4e14-ae85-a67c0582b699"},"vehicle_type_id":"4","last_reported":1784636266,"current_range_meters":7200,"station_id":"st_d9f0okuplk6c73bumsr0","pricing_plan_id":"cebpf4jnsgd1na2vs0mg"},{"bike_id":"5861c9c7-a504-4b95-836c-22175b3beebe","system_id":"levelo_inurba_marseille","lat":43.30806,"lon":5.36982,"is_reserved":false,"is_disabled":false,"rental_uris":{"android":"levelo://app?vid=5861c9c7-a504-4b95-836c-22175b3beebe","ios":"levelo://app?vid=5861c9c7-a504-4b95-836c-22175b3beebe"},"vehicle_type_id":"4","last_reported":1784636266,"current_range_meters":7200,"station_id":"","pricing_plan_id":"cebpf4jnsgd1na2vs0mg"},{"bike_id":"bf284eb7-5963-4ecc-9a17-984e27cbece2","system_id":"levelo_inurba_marseille","lat":43.26199,"lon":5.3746,"is_reserved":false,"is_disabled":false,"rental_uris":{"android":"levelo://app?vid=bf284eb7-5963-4ecc-9a17-984e27cbece2","ios":"levelo://app?vid=bf284eb7-5963-4ecc-9a17-984e27cbece2"},"vehicle_type_id":"4","last_reported":1784636266,"current_range_meters":7200,"station_id":"ce4bhgp2rcd13ifvqfc0","pricing_plan_id":"cebpf4jnsgd1na2vs0mg"},{"bike_id":"09d9ef3d-9c6f-430a-91c3-bb4831e96fd6","system_id":"levelo_inurba_marseille","lat":43.22783,"lon":5.34939,"is_reserved":false,"is_disabled":false,"rental_uris":{"android":"levelo://app?vid=09d9ef3d-9c6f-430a-91c3-bb4831e96fd6","ios":"levelo://app?vid=09d9ef3d-9c6f-430a-91c3-bb4831e96fd6"},"vehicle_type_id":"4","last_reported":1784636266,"current_range_meters":7200,"station_id":"","pricing_plan_id":"cebpf4jnsgd1na2vs0mg"},{"bike_id":"825de0d1-7be6-41f2-a58a-1dcf1a8629b3","system_id":"levelo_inurba_marseille","lat":43.28592,"lon":5.38784,"is_reserved":false,"is_disabled":false,"rental_uris":{"android":"levelo://app?vid=825de0d1-7be6-41f2-a58a-1dcf1a8629b3","ios":"levelo://app?vid=825de0d1-7be6-41f2-a58a-1dcf1a8629b3"},"vehicle_type_id":"4","last_reported":1784636266,"current_range_meters":7200,"station_id":"","pricing_plan_id":"cebpf4jnsgd1na2vs0mg"},{"bike_id":"4307c2e3-c668-4edd-a415-18aa4409d823","system_id":"levelo_inurba_marseille","lat":43.21744,"lon":5.34609,"is_reserved":false,"is_disabled":false,"rental_uris":{"android":"levelo://app?vid=4307c2e3-c668-4edd-a415-18aa4409d823","ios":"levelo://app?vid=4307c2e3-c668-4edd-a415-18aa4409d823"},"vehicle_type_id":"4","last_reported":1784636266,"current_range_meters":7200,"station_id":"st_cvj6r9ubvosntc0bgbag","pricing_plan_id":"cebpf4jnsgd1na2vs0mg"},{"bike_id":"efe1a1c6-1569-4879-accc-14f17bba8c6d","system_id":"levelo_inurba_marseille","lat":43.29709,"lon":5.35971,"is_reserved":false,"is_disabled":false,"rental_uris":{"android":"levelo://app?vid=efe1a1c6-1569-4879-accc-14f17bba8c6d","ios":"levelo://app?vid=efe1a1c6-1569-4879-accc-14f17bba8c6d"},"vehicle_type_id":"4","last_reported":1784636266,"current_range_meters":7200,"station_id":"","pricing_plan_id":"cebpf4jnsgd1na2vs0mg"},{"bike_id":"d8a29a1f-8188-45d0-979b-49a8951fb486","system_id":"levelo_inurba_marseille","lat":43.29292,"lon":5.37459,"is_reserved":false,"is_disabled":false,"rental_uris":{"android":"levelo://app?vid=d8a29a1f-8188-45d0-979b-49a8951fb486","ios":"levelo://app?vid=d8a29a1f-8188-45d0-979b-49a8951fb486"},"vehicle_type_id":"4","last_reported":1784636266,"current_range_meters":7200,"station_id":"ce4bgi12rcd13ifvqb70","pricing_plan_id":"cebpf4jnsgd1na2vs0mg"},{"bike_id":"dc208bb0-4b15-4f83-a368-9331e39d3f37","system_id":"levelo_inurba_marseille","lat":43.23153,"lon":5.437102,"is_reserved":false,"is_disabled":false,"rental_uris":{"android":"levelo://app?vid=dc208bb0-4b15-4f83-a368-9331e39d3f37","ios":"levelo://app?vid=dc208bb0-4b15-4f83-a368-9331e39d3f37"},"vehicle_type_id":"4","last_reported":1784636266,"current_range_meters":8000,"station_id":"ce4bhmp2rcd13ifvqgog","pricing_plan_id":"cebpf4jnsgd1na2vs0mg"},{"bike_id":"f1288106-a8c3-4624-ad2a-44299213b3e2","system_id":"levelo_inurba_marseille","lat":43.29542,"lon":5.36732,"is_reserved":false,"is_disabled":true,"rental_uris":{"android":"levelo://app?vid=f1288106-a8c3-4624-ad2a-44299213b3e2","ios":"levelo://app?vid=f1288106-a8c3-4624-ad2a-44299213b3e2"},"vehicle_type_id":"4","last_reported":1784636266,"current_range_meters":8000,"station_id":"","pricing_plan_id":"cebpf4jnsgd1na2vs0mg"},{"bike_id":"1a8f7e32-5d47-4694-89a5-a9089b244299","system_id":"levelo_inurba_marseille","lat":43.28062,"lon":5.38496,"is_reserved":false,"is_disabled":false,"rental_uris":{"android":"levelo://app?vid=1a8f7e32-5d47-4694-89a5-a9089b244299","ios":"levelo://app?vid=1a8f7e32-5d47-4694-89a5-a9089b244299"},"vehicle_type_id":"4","last_reported":1784636266,"current_range_meters":8000,"station_id":"","pricing_plan_id":"cebpf4jnsgd1na2vs0mg"},{"bike_id":"5f3aab80-1eb7-445c-8ee0-1acfe4e76309","system_id":"levelo_inurba_marseille","lat":43.25229,"lon":5.37283,"is_reserved":false,"is_disabled":false,"rental_uris":{"android":"levelo://app?vid=5f3aab80-1eb7-445c-8ee0-1acfe4e76309","ios":"levelo://app?vid=5f3aab80-1eb7-445c-8ee0-1acfe4e76309"},"vehicle_type_id":"4","last_reported":1784636266,"current_range_meters":8000,"station_id":"","pricing_plan_id":"cebpf4jnsgd1na2vs0mg"},{"bike_id":"47f16915-4837-4ed5-b765-ac148cf00d48","system_id":"levelo_inurba_marseille","lat":43.29885,"lon":5.37481,"is_reserved":false,"is_disabled":false,"rental_uris":{"android":"levelo://app?vid=47f16915-4837-4ed5-b765-ac148cf00d48","ios":"levelo://app?vid=47f16915-4837-4ed5-b765-ac148cf00d48"},"vehicle_type_id":"4","last_reported":1784636266,"current_range_meters":8000,"station_id":"ce4bgjh2rcd13ifvqbg0","pricing_plan_id":"cebpf4jnsgd1na2vs0mg"},{"bike_id":"210709e9-394d-45b6-a2a6-d625c288378a","system_id":"levelo_inurba_marseille","lat":43.31059,"lon":5.44584,"is_reserved":false,"is_disabled":false,"rental_uris":{"android":"levelo://app?vid=210709e9-394d-45b6-a2a6-d625c288378a","ios":"levelo://app?vid=210709e9-394d-45b6-a2a6-d625c288378a"},"vehicle_type_id":"4","last_reported":1784636266,"current_range_meters":8000,"station_id":"","pricing_plan_id":"cebpf4jnsgd1na2vs0mg"},{"bike_id":"da3647a4-f948-4117-b207-89106b812c06","system_id":"levelo_inurba_marseille","lat":43.29524,"lon":5.37498,"is_reserved":false,"is_disabled":false,"rental_uris":{"android":"levelo://app?vid=da3647a4-f948-4117-b207-89106b812c06","ios":"levelo://app?vid=da3647a4-f948-4117-b207-89106b812c06"},"vehicle_type_id":"4","last_reported":1784636266,"current_range_meters":8000,"station_id":"ce4bgkp2rcd13ifvqbmg","pricing_plan_id":"cebpf4jnsgd1na2vs0mg"},{"bike_id":"8a867620-8625-40da-aae5-d95d7bca02e8","system_id":"levelo_inurba_marseille","lat":43.31904,"lon":5.36784,"is_reserved":false,"is_disabled":false,"rental_uris":{"android":"levelo://app?vid=8a867620-8625-40da-aae5-d95d7bca02e8","ios":"levelo://app?vid=8a867620-8625-40da-aae5-d95d7bca02e8"},"vehicle_type_id":"4","last_reported":1784636266,"current_range_meters":8000,"station_id":"st_d6o2h0d0559c73evc1b0","pricing_plan_id":"cebpf4jnsgd1na2vs0mg"},{"bike_id":"1e195690-2a98-4e03-b8aa-dde5df0c04f6","system_id":"levelo_inurba_marseille","lat":43.30941,"lon":5.39063,"is_reserved":false,"is_disabled":false,"rental_uris":{"android":"levelo://app?vid=1e195690-2a98-4e03-b8aa-dde5df0c04f6","ios":"levelo://app?vid=1e195690-2a98-4e03-b8aa-dde5df0c04f6"},"vehicle_type_id":"4","last_reported":1784636266,"current_range_meters":8000,"station_id":"ce4bgup2rcd13ifvqco0","pricing_plan_id":"cebpf4jnsgd1na2vs0mg"},{"bike_id":"7adee0e6-b4c0-4072-9aa1-c2f9d6fb3d74","system_id":"levelo_inurba_marseille","lat":43.24386,"lon":5.37056,"is_reserved":false,"is_disabled":false,"rental_uris":{"android":"levelo://app?vid=7adee0e6-b4c0-4072-9aa1-c2f9d6fb3d74","ios":"levelo://app?vid=7adee0e6-b4c0-4072-9aa1-c2f9d6fb3d74"},"vehicle_type_id":"4","last_reported":1784636266,"current_range_meters":8000,"station_id":"ce4bhhh2rcd13ifvqfk0","pricing_plan_id":"cebpf4jnsgd1na2vs0mg"},{"bike_id":"b3d629b1-168c-4183-90f3-3fdf07d3bac2","system_id":"levelo_inurba_marseille","lat":43.2556,"lon":5.38247,"is_reserved":false,"is_disabled":false,"rental_uris":{"android":"levelo://app?vid=b3d629b1-168c-4183-90f3-3fdf07d3bac2","ios":"levelo://app?vid=b3d629b1-168c-4183-90f3-3fdf07d3bac2"},"vehicle_type_id":"4","last_reported":1784636266,"current_range_meters":8000,"station_id":"ce4bhih2rcd13ifvqfs0","pricing_plan_id":"cebpf4jnsgd1na2vs0mg"},{"bike_id":"2755697c-722b-41e4-9547-16587c13d659","system_id":"levelo_inurba_marseille","lat":43.32485,"lon":5.38283,"is_reserved":false,"is_disabled":false,"rental_uris":{"android":"levelo://app?vid=2755697c-722b-41e4-9547-16587c13d659","ios":"levelo://app?vid=2755697c-722b-41e4-9547-16587c13d659"},"vehicle_type_id":"4","last_reported":1784636266,"current_range_meters":8000,"station_id":"st_d4asgbiv49dc73anf9m0","pricing_plan_id":"cebpf4jnsgd1na2vs0mg"},{"bike_id":"2df5cc25-2f6b-494c-a68c-9bd8fe4c5fd7","system_id":"levelo_inurba_marseille","lat":43.30566,"lon":5.37212,"is_reserved":false,"is_disabled":false,"rental_uris":{"android":"levelo://app?vid=2df5cc25-2f6b-494c-a68c-9bd8fe4c5fd7","ios":"levelo://app?vid=2df5cc25-2f6b-494c-a68c-9bd8fe4c5fd7"},"vehicle_type_id":"4","last_reported":1784636266,"current_range_meters":8000,"station_id":"ce4bgqh2rcd13ifvqc4g","pricing_plan_id":"cebpf4jnsgd1na2vs0mg"},{"bike_id":"0cd4ddd5-4db4-4014-957f-36b2c5ee6e70","system_id":"levelo_inurba_marseille","lat":43.225293,"lon":5.348365,"is_reserved":false,"is_disabled":false,"rental_uris":{"android":"levelo://app?vid=0cd4ddd5-4db4-4014-957f-36b2c5ee6e70","ios":"levelo://app?vid=0cd4ddd5-4db4-4014-957f-36b2c5ee6e70"},"vehicle_type_id":"4","last_reported":1784636266,"current_range_meters":8000,"station_id":"st_cvj5dfep6f1abm77gieg","pricing_plan_id":"cebpf4jnsgd1na2vs0mg"},{"bike_id":"fd360852-185e-4bbb-aa1c-a552feb28cd8","system_id":"levelo_inurba_marseille","lat":43.3089,"lon":5.36841,"is_reserved":false,"is_disabled":false,"rental_uris":{"android":"levelo://app?vid=fd360852-185e-4bbb-aa1c-a552feb28cd8","ios":"levelo://app?vid=fd360852-185e-4bbb-aa1c-a552feb28cd8"},"vehicle_type_id":"4","last_reported":1784636266,"current_range_meters":8000,"station_id":"ce4bgn92rcd13ifvqbvg","pricing_plan_id":"cebpf4jnsgd1na2vs0mg"},{"bike_id":"21a74ec7-fb68-4fc3-9e20-c811bd1eff6b","system_id":"levelo_inurba_marseille","lat":43.28615,"lon":5.35104,"is_reserved":false,"is_disabled":false,"rental_uris":{"android":"levelo://app?vid=21a74ec7-fb68-4fc3-9e20-c811bd1eff6b","ios":"levelo://app?vid=21a74ec7-fb68-4fc3-9e20-c811bd1eff6b"},"vehicle_type_id":"4","last_reported":1784636266,"current_range_meters":8000,"station_id":"ce4bhch2rcd13ifvqeug","pricing_plan_id":"cebpf4jnsgd1na2vs0mg"},{"bike_id":"18bf1bd7-2bd8-45d1-8ec7-b8c251464ad7","system_id":"levelo_inurba_marseille","lat":43.29302,"lon":5.37475,"is_reserved":false,"is_disabled":false,"rental_uris":{"android":"levelo://app?vid=18bf1bd7-2bd8-45d1-8ec7-b8c251464ad7","ios":"levelo://app?vid=18bf1bd7-2bd8-45d1-8ec7-b8c251464ad7"},"vehicle_type_id":"4","last_reported":1784636266,"current_range_meters":8000,"station_id":"ce4bgi12rcd13ifvqb70","pricing_plan_id":"cebpf4jnsgd1na2vs0mg"},{"bike_id":"ad68d6d2-c873-4a4f-a5ab-ff3020794ce5","system_id":"levelo_inurba_marseille","lat":43.29304,"lon":5.37177,"is_reserved":false,"is_disabled":false,"rental_uris":{"android":"levelo://app?vid=ad68d6d2-c873-4a4f-a5ab-ff3020794ce5","ios":"levelo://app?vid=ad68d6d2-c873-4a4f-a5ab-ff3020794ce5"},"vehicle_type_id":"4","last_reported":1784636266,"current_range_meters":8000,"station_id":"ce4bgh92rcd13ifvqb40","pricing_plan_id":"cebpf4jnsgd1na2vs0mg"},{"bike_id":"1e016af7-6d29-4b58-9d8e-1300d3eaa230","system_id":"levelo_inurba_marseille","lat":43.28094,"lon":5.3785,"is_reserved":false,"is_disabled":false,"rental_uris":{"android":"levelo://app?vid=1e016af7-6d29-4b58-9d8e-1300d3eaa230","ios":"levelo://app?vid=1e016af7-6d29-4b58-9d8e-1300d3eaa230"},"vehicle_type_id":"4","last_reported":1784636266,"current_range_meters":8000,"station_id":"ce4bha12rcd13ifvqee0","pricing_plan_id":"cebpf4jnsgd1na2vs0mg"},{"bike_id":"2168f538-05fd-4e90-966d-1959fa3be099","system_id":"levelo_inurba_marseille","lat":43.28464,"lon":5.35892,"is_reserved":false,"is_disabled":false,"rental_uris":{"android":"levelo://app?vid=2168f538-05fd-4e90-966d-1959fa3be099","ios":"levelo://app?vid=2168f538-05fd-4e90-966d-1959fa3be099"},"vehicle_type_id":"4","last_reported":1784636266,"current_range_meters":8000,"station_id":"ce4bhah2rcd13ifvqei0","pricing_plan_id":"cebpf4jnsgd1na2vs0mg"},{"bike_id":"e2701541-cf25-4239-b843-aa7eb7669457","system_id":"levelo_inurba_marseille","lat":43.2815,"lon":5.37503,"is_reserved":false,"is_disabled":false,"rental_uris":{"android":"levelo://app?vid=e2701541-cf25-4239-b843-aa7eb7669457","ios":"levelo://app?vid=e2701541-cf25-4239-b843-aa7eb7669457"},"vehicle_type_id":"4","last_reported":1784636266,"current_range_meters":8000,"station_id":"","pricing_plan_id":"cebpf4jnsgd1na2vs0mg"},{"bike_id":"2b8b3e22-84d3-415f-8254-0036df6c8c29","system_id":"levelo_inurba_marseille","lat":43.25582,"lon":5.38237,"is_reserved":false,"is_disabled":false,"rental_uris":{"android":"levelo://app?vid=2b8b3e22-84d3-415f-8254-0036df6c8c29","ios":"levelo://app?vid=2b8b3e22-84d3-415f-8254-0036df6c8c29"},"vehicle_type_id":"4","last_reported":1784636266,"current_range_meters":8000,"station_id":"ce4bhih2rcd13ifvqfs0","pricing_plan_id":"cebpf4jnsgd1na2vs0mg"},{"bike_id":"e7ff1713-1238-4732-a2b7-908c583e178d","system_id":"levelo_inurba_marseille","lat":43.30873,"lon":5.37198,"is_reserved":false,"is_disabled":false,"rental_uris":{"android":"levelo://app?vid=e7ff1713-1238-4732-a2b7-908c583e178d","ios":"levelo://app?vid=e7ff1713-1238-4732-a2b7-908c583e178d"},"vehicle_type_id":"4","last_reported":1784636266,"current_range_meters":8400,"station_id":"ce4bguh2rcd13ifvqckg","pricing_plan_id":"cebpf4jnsgd1na2vs0mg"},{"bike_id":"e602be87-32b9-4118-b8a1-176e1c208fe8","system_id":"levelo_inurba_marseille","lat":43.2314,"lon":5.43731,"is_reserved":false,"is_disabled":false,"rental_uris":{"android":"levelo://app?vid=e602be87-32b9-4118-b8a1-176e1c208fe8","ios":"levelo://app?vid=e602be87-32b9-4118-b8a1-176e1c208fe8"},"vehicle_type_id":"4","last_reported":1784636266,"current_range_meters":8400,"station_id":"ce4bhmp2rcd13ifvqgog","pricing_plan_id":"cebpf4jnsgd1na2vs0mg"},{"bike_id":"8f9bdf45-12dd-4021-b249-580afdf03556","system_id":"levelo_inurba_marseille","lat":43.2319,"lon":5.35546,"is_reserved":false,"is_disabled":false,"rental_uris":{"android":"levelo://app?vid=8f9bdf45-12dd-4021-b249-580afdf03556","ios":"levelo://app?vid=8f9bdf45-12dd-4021-b249-580afdf03556"},"vehicle_type_id":"4","last_reported":1784636266,"current_range_meters":8400,"station_id":"ce4bhu92rcd13ifvqi70","pricing_plan_id":"cebpf4jnsgd1na2vs0mg"},{"bike_id":"d1ddeedb-2d84-4f7b-aebd-811a6e205da3","system_id":"levelo_inurba_marseille","lat":43.30577,"lon":5.37253,"is_reserved":false,"is_disabled":false,"rental_uris":{"android":"levelo://app?vid=d1ddeedb-2d84-4f7b-aebd-811a6e205da3","ios":"levelo://app?vid=d1ddeedb-2d84-4f7b-aebd-811a6e205da3"},"vehicle_type_id":"4","last_reported":1784636266,"current_range_meters":8400,"station_id":"ce4bgqh2rcd13ifvqc4g","pricing_plan_id":"cebpf4jnsgd1na2vs0mg"},{"bike_id":"4efcdcc6-efd9-474f-a682-ae5d375beac3","system_id":"levelo_inurba_marseille","lat":43.31538,"lon":5.38038,"is_reserved":false,"is_disabled":false,"rental_uris":{"android":"levelo://app?vid=4efcdcc6-efd9-474f-a682-ae5d375beac3","ios":"levelo://app?vid=4efcdcc6-efd9-474f-a682-ae5d375beac3"},"vehicle_type_id":"4","last_reported":1784636266,"current_range_meters":8400,"station_id":"ce4bhsp2rcd13ifvqi50","pricing_plan_id":"cebpf4jnsgd1na2vs0mg"},{"bike_id":"3106d98e-80f1-49d8-b18b-c2f354f8f1d9","system_id":"levelo_inurba_marseille","lat":43.29937,"lon":5.37469,"is_reserved":false,"is_disabled":false,"rental_uris":{"android":"levelo://app?vid=3106d98e-80f1-49d8-b18b-c2f354f8f1d9","ios":"levelo://app?vid=3106d98e-80f1-49d8-b18b-c2f354f8f1d9"},"vehicle_type_id":"4","last_reported":1784636266,"current_range_meters":8400,"station_id":"ce4bgjh2rcd13ifvqbg0","pricing_plan_id":"cebpf4jnsgd1na2vs0mg"},{"bike_id":"5683783c-e89b-4077-ba59-464a69d9dd4f","system_id":"levelo_inurba_marseille","lat":43.24422,"lon":5.37029,"is_reserved":false,"is_disabled":false,"rental_uris":{"android":"levelo://app?vid=5683783c-e89b-4077-ba59-464a69d9dd4f","ios":"levelo://app?vid=5683783c-e89b-4077-ba59-464a69d9dd4f"},"vehicle_type_id":"4","last_reported":1784636266,"current_range_meters":8400,"station_id":"ce4bhhh2rcd13ifvqfk0","pricing_plan_id":"cebpf4jnsgd1na2vs0mg"},{"bike_id":"4cc1cfdd-70ae-4041-8eb5-cc6376043b11","system_id":"levelo_inurba_marseille","lat":43.22594,"lon":5.41555,"is_reserved":false,"is_disabled":false,"rental_uris":{"android":"levelo://app?vid=4cc1cfdd-70ae-4041-8eb5-cc6376043b11","ios":"levelo://app?vid=4cc1cfdd-70ae-4041-8eb5-cc6376043b11"},"vehicle_type_id":"4","last_reported":1784636266,"current_range_meters":8400,"station_id":"","pricing_plan_id":"cebpf4jnsgd1na2vs0mg"},{"bike_id":"0bdfe825-9895-4d8a-996d-bc68672261ba","system_id":"levelo_inurba_marseille","lat":43.31265,"lon":5.37074,"is_reserved":false,"is_disabled":false,"rental_uris":{"android":"levelo://app?vid=0bdfe825-9895-4d8a-996d-bc68672261ba","ios":"levelo://app?vid=0bdfe825-9895-4d8a-996d-bc68672261ba"},"vehicle_type_id":"4","last_reported":1784636266,"current_range_meters":8400,"station_id":"","pricing_plan_id":"cebpf4jnsgd1na2vs0mg"},{"bike_id":"a9012715-ec62-4810-a79b-d543ac625b3b","system_id":"levelo_inurba_marseille","lat":43.22553,"lon":5.41629,"is_reserved":false,"is_disabled":false,"rental_uris":{"android":"levelo://app?vid=a9012715-ec62-4810-a79b-d543ac625b3b","ios":"levelo://app?vid=a9012715-ec62-4810-a79b-d543ac625b3b"},"vehicle_type_id":"4","last_reported":1784636266,"current_range_meters":8400,"station_id":"st_d2o4gvlbi1j2169b742g","pricing_plan_id":"cebpf4jnsgd1na2vs0mg"},{"bike_id":"14411d93-18ee-418c-98e4-8a12d35ce0c6","system_id":"levelo_inurba_marseille","lat":43.29188,"lon":5.37251,"is_reserved":false,"is_disabled":false,"rental_uris":{"android":"levelo://app?vid=14411d93-18ee-418c-98e4-8a12d35ce0c6","ios":"levelo://app?vid=14411d93-18ee-418c-98e4-8a12d35ce0c6"},"vehicle_type_id":"4","last_reported":1784636266,"current_range_meters":8400,"station_id":"","pricing_plan_id":"cebpf4jnsgd1na2vs0mg"},{"bike_id":"694566e3-36cb-4651-bd53-5b3b321d8710","system_id":"levelo_inurba_marseille","lat":43.30463,"lon":5.37914,"is_reserved":false,"is_disabled":false,"rental_uris":{"android":"levelo://app?vid=694566e3-36cb-4651-bd53-5b3b321d8710","ios":"levelo://app?vid=694566e3-36cb-4651-bd53-5b3b321d8710"},"vehicle_type_id":"4","last_reported":1784636266,"current_range_meters":8400,"station_id":"ce4bgup2rcd13ifvqcn0","pricing_plan_id":"cebpf4jnsgd1na2vs0mg"},{"bike_id":"4bddb1ba-0004-42df-a1d4-be5d19cea974","system_id":"levelo_inurba_marseille","lat":43.29,"lon":5.35594,"is_reserved":false,"is_disabled":false,"rental_uris":{"android":"levelo://app?vid=4bddb1ba-0004-42df-a1d4-be5d19cea974","ios":"levelo://app?vid=4bddb1ba-0004-42df-a1d4-be5d19cea974"},"vehicle_type_id":"4","last_reported":1784636266,"current_range_meters":8400,"station_id":"ce4bhgp2rcd13ifvqfc0","pricing_plan_id":"cebpf4jnsgd1na2vs0mg"},{"bike_id":"123b6fc2-9b4f-49cc-83c6-d37661f8e798","system_id":"levelo_inurba_marseille","lat":43.30158,"lon":5.38069,"is_reserved":false,"is_disabled":false,"rental_uris":{"android":"levelo://app?vid=123b6fc2-9b4f-49cc-83c6-d37661f8e798","ios":"levelo://app?vid=123b6fc2-9b4f-49cc-83c6-d37661f8e798"},"vehicle_type_id":"4","last_reported":1784636266,"current_range_meters":8400,"station_id":"ce4bgjp2rcd13ifvqbh0","pricing_plan_id":"cebpf4jnsgd1na2vs0mg"},{"bike_id":"f1f4a82b-4ddd-49a8-b4d6-9c8d48b2314e","system_id":"levelo_inurba_marseille","lat":43.26676,"lon":5.38269,"is_reserved":false,"is_disabled":false,"rental_uris":{"android":"levelo://app?vid=f1f4a82b-4ddd-49a8-b4d6-9c8d48b2314e","ios":"levelo://app?vid=f1f4a82b-4ddd-49a8-b4d6-9c8d48b2314e"},"vehicle_type_id":"4","last_reported":1784636266,"current_range_meters":8400,"station_id":"ce4bhg92rcd13ifvqf90","pricing_plan_id":"cebpf4jnsgd1na2vs0mg"},{"bike_id":"c0024b18-6094-4eae-bf5b-c52a4e6ef59d","system_id":"levelo_inurba_marseille","lat":43.28474,"lon":5.48377,"is_reserved":false,"is_disabled":false,"rental_uris":{"android":"levelo://app?vid=c0024b18-6094-4eae-bf5b-c52a4e6ef59d","ios":"levelo://app?vid=c0024b18-6094-4eae-bf5b-c52a4e6ef59d"},"vehicle_type_id":"4","last_reported":1784636266,"current_range_meters":8400,"station_id":"st_d3svhcjqgbts73a3dn0g","pricing_plan_id":"cebpf4jnsgd1na2vs0mg"},{"bike_id":"42515e5e-51d3-486d-ad16-a4dbf51fbf10","system_id":"levelo_inurba_marseille","lat":43.24916,"lon":5.38869,"is_reserved":false,"is_disabled":false,"rental_uris":{"android":"levelo://app?vid=42515e5e-51d3-486d-ad16-a4dbf51fbf10","ios":"levelo://app?vid=42515e5e-51d3-486d-ad16-a4dbf51fbf10"},"vehicle_type_id":"4","last_reported":1784636266,"current_range_meters":8400,"station_id":"","pricing_plan_id":"cebpf4jnsgd1na2vs0mg"},{"bike_id":"a7c9489a-3c37-4218-bc38-92c335aa3a8a","system_id":"levelo_inurba_marseille","lat":43.28489,"lon":5.48378,"is_reserved":false,"is_disabled":false,"rental_uris":{"android":"levelo://app?vid=a7c9489a-3c37-4218-bc38-92c335aa3a8a","ios":"levelo://app?vid=a7c9489a-3c37-4218-bc38-92c335aa3a8a"},"vehicle_type_id":"4","last_reported":1784636266,"current_range_meters":8800,"station_id":"st_d3svhcjqgbts73a3dn0g","pricing_plan_id":"cebpf4jnsgd1na2vs0mg"},{"bike_id":"18c27a5a-7eb3-44d4-a851-360fc0945ad1","system_id":"levelo_inurba_marseille","lat":43.28715,"lon":5.37949,"is_reserved":false,"is_disabled":false,"rental_uris":{"android":"levelo://app?vid=18c27a5a-7eb3-44d4-a851-360fc0945ad1","ios":"levelo://app?vid=18c27a5a-7eb3-44d4-a851-360fc0945ad1"},"vehicle_type_id":"4","last_reported":1784636266,"current_range_meters":8800,"station_id":"ce4bh9p2rcd13ifvqec0","pricing_plan_id":"cebpf4jnsgd1na2vs0mg"},{"bike_id":"e0bc8e05-1aa3-43eb-89f1-64840ea325c3","system_id":"levelo_inurba_marseille","lat":43.24994,"lon":5.38936,"is_reserved":false,"is_disabled":false,"rental_uris":{"android":"levelo://app?vid=e0bc8e05-1aa3-43eb-89f1-64840ea325c3","ios":"levelo://app?vid=e0bc8e05-1aa3-43eb-89f1-64840ea325c3"},"vehicle_type_id":"4","last_reported":1784636266,"current_range_meters":8800,"station_id":"ce4bhgp2rcd13ifvqfd0","pricing_plan_id":"cebpf4jnsgd1na2vs0mg"},{"bike_id":"7d2f902a-d81c-406c-bc57-3562681fa875","system_id":"levelo_inurba_marseille","lat":43.34173,"lon":5.40902,"is_reserved":false,"is_disabled":false,"rental_uris":{"android":"levelo://app?vid=7d2f902a-d81c-406c-bc57-3562681fa875","ios":"levelo://app?vid=7d2f902a-d81c-406c-bc57-3562681fa875"},"vehicle_type_id":"4","last_reported":1784636266,"current_range_meters":8800,"station_id":"ce4bhqh2rcd13ifvqhlg","pricing_plan_id":"cebpf4jnsgd1na2vs0mg"},{"bike_id":"e9a2282c-9da5-4cb7-a96f-ba5e09f3a789","system_id":"levelo_inurba_marseille","lat":43.28424,"lon":5.34992,"is_reserved":false,"is_disabled":false,"rental_uris":{"android":"levelo://app?vid=e9a2282c-9da5-4cb7-a96f-ba5e09f3a789","ios":"levelo://app?vid=e9a2282c-9da5-4cb7-a96f-ba5e09f3a789"},"vehicle_type_id":"4","last_reported":1784636266,"current_range_meters":8800,"station_id":"ce4bhbh2rcd13ifvqepg","pricing_plan_id":"cebpf4jnsgd1na2vs0mg"},{"bike_id":"f5efb3e7-fd08-4524-a878-afdbc8490ff0","system_id":"levelo_inurba_marseille","lat":43.24072,"lon":5.37761,"is_reserved":false,"is_disabled":false,"rental_uris":{"android":"levelo://app?vid=f5efb3e7-fd08-4524-a878-afdbc8490ff0","ios":"levelo://app?vid=f5efb3e7-fd08-4524-a878-afdbc8490ff0"},"vehicle_type_id":"4","last_reported":1784636266,"current_range_meters":8800,"station_id":"ce4bhnp2rcd13ifvqgvg","pricing_plan_id":"cebpf4jnsgd1na2vs0mg"},{"bike_id":"3ab22730-cc60-4946-87e8-1d3de1e7ee47","system_id":"levelo_inurba_marseille","lat":43.297118,"lon":5.37692,"is_reserved":false,"is_disabled":false,"rental_uris":{"android":"levelo://app?vid=3ab22730-cc60-4946-87e8-1d3de1e7ee47","ios":"levelo://app?vid=3ab22730-cc60-4946-87e8-1d3de1e7ee47"},"vehicle_type_id":"4","last_reported":1784636266,"current_range_meters":8800,"station_id":"ce4bgkh2rcd13ifvqbl0","pricing_plan_id":"cebpf4jnsgd1na2vs0mg"},{"bike_id":"afa4407d-03e9-4a38-ab10-258fcd759b23","system_id":"levelo_inurba_marseille","lat":43.27215,"lon":5.3917,"is_reserved":false,"is_disabled":false,"rental_uris":{"android":"levelo://app?vid=afa4407d-03e9-4a38-ab10-258fcd759b23","ios":"levelo://app?vid=afa4407d-03e9-4a38-ab10-258fcd759b23"},"vehicle_type_id":"4","last_reported":1784636266,"current_range_meters":8800,"station_id":"ce4bhhp2rcd13ifvqfm0","pricing_plan_id":"cebpf4jnsgd1na2vs0mg"},{"bike_id":"225015b6-cdd7-4683-8053-a617aab33500","system_id":"levelo_inurba_marseille","lat":43.26789,"lon":5.39412,"is_reserved":false,"is_disabled":false,"rental_uris":{"android":"levelo://app?vid=225015b6-cdd7-4683-8053-a617aab33500","ios":"levelo://app?vid=225015b6-cdd7-4683-8053-a617aab33500"},"vehicle_type_id":"4","last_reported":1784636266,"current_range_meters":8800,"station_id":"ce4bhh12rcd13ifvqfg0","pricing_plan_id":"cebpf4jnsgd1na2vs0mg"},{"bike_id":"c5b7b317-5387-4d0b-8a6c-bdda5f11dfc4","system_id":"levelo_inurba_marseille","lat":43.31336,"lon":5.36763,"is_reserved":false,"is_disabled":false,"rental_uris":{"android":"levelo://app?vid=c5b7b317-5387-4d0b-8a6c-bdda5f11dfc4","ios":"levelo://app?vid=c5b7b317-5387-4d0b-8a6c-bdda5f11dfc4"},"vehicle_type_id":"4","last_reported":1784636266,"current_range_meters":8800,"station_id":"ce4bgr92rcd13ifvqc6g","pricing_plan_id":"cebpf4jnsgd1na2vs0mg"},{"bike_id":"f2596f15-1fdd-479d-8473-3c769fcf5e7c","system_id":"levelo_inurba_marseille","lat":43.24176,"lon":5.39704,"is_reserved":false,"is_disabled":true,"rental_uris":{"android":"levelo://app?vid=f2596f15-1fdd-479d-8473-3c769fcf5e7c","ios":"levelo://app?vid=f2596f15-1fdd-479d-8473-3c769fcf5e7c"},"vehicle_type_id":"4","last_reported":1784636266,"current_range_meters":8800,"station_id":"ce4bhn12rcd13ifvqgpg","pricing_plan_id":"cebpf4jnsgd1na2vs0mg"},{"bike_id":"234eac21-5c60-428d-abe8-295469dddc5c","system_id":"levelo_inurba_marseille","lat":43.30375,"lon":5.3978,"is_reserved":false,"is_disabled":false,"rental_uris":{"android":"levelo://app?vid=234eac21-5c60-428d-abe8-295469dddc5c","ios":"levelo://app?vid=234eac21-5c60-428d-abe8-295469dddc5c"},"vehicle_type_id":"4","last_reported":1784636266,"current_range_meters":8800,"station_id":"","pricing_plan_id":"cebpf4jnsgd1na2vs0mg"},{"bike_id":"f4a10a50-028e-45f5-952f-48cf0af83665","system_id":"levelo_inurba_marseille","lat":43.23219,"lon":5.40386,"is_reserved":false,"is_disabled":false,"rental_uris":{"android":"levelo://app?vid=f4a10a50-028e-45f5-952f-48cf0af83665","ios":"levelo://app?vid=f4a10a50-028e-45f5-952f-48cf0af83665"},"vehicle_type_id":"4","last_reported":1784636266,"current_range_meters":8800,"station_id":"","pricing_plan_id":"cebpf4jnsgd1na2vs0mg"},{"bike_id":"fa570896-6f25-48c8-abd3-6ac2343ee8bd","system_id":"levelo_inurba_marseille","lat":43.29495,"lon":5.38315,"is_reserved":false,"is_disabled":false,"rental_uris":{"android":"levelo://app?vid=fa570896-6f25-48c8-abd3-6ac2343ee8bd","ios":"levelo://app?vid=fa570896-6f25-48c8-abd3-6ac2343ee8bd"},"vehicle_type_id":"4","last_reported":1784636266,"current_range_meters":8800,"station_id":"","pricing_plan_id":"cebpf4jnsgd1na2vs0mg"},{"bike_id":"8a75ca03-b612-4f38-952b-454477ac4eb1","system_id":"levelo_inurba_marseille","lat":43.27818,"lon":5.40706,"is_reserved":false,"is_disabled":false,"rental_uris":{"android":"levelo://app?vid=8a75ca03-b612-4f38-952b-454477ac4eb1","ios":"levelo://app?vid=8a75ca03-b612-4f38-952b-454477ac4eb1"},"vehicle_type_id":"4","last_reported":1784636266,"current_range_meters":8800,"station_id":"ce4bhnh2rcd13ifvqgtg","pricing_plan_id":"cebpf4jnsgd1na2vs0mg"},{"bike_id":"07edaab3-33a2-4ef3-a5f0-2c83f40c3ba9","system_id":"levelo_inurba_marseille","lat":43.27495,"lon":5.41584,"is_reserved":false,"is_disabled":true,"rental_uris":{"android":"levelo://app?vid=07edaab3-33a2-4ef3-a5f0-2c83f40c3ba9","ios":"levelo://app?vid=07edaab3-33a2-4ef3-a5f0-2c83f40c3ba9"},"vehicle_type_id":"4","last_reported":1784636266,"current_range_meters":8800,"station_id":"st_d6im8g6chgec73a5pndg","pricing_plan_id":"cebpf4jnsgd1na2vs0mg"},{"bike_id":"bff2d32f-e0b4-4d9c-a4ca-c192990d98e4","system_id":"levelo_inurba_marseille","lat":43.30295,"lon":5.3693,"is_reserved":false,"is_disabled":false,"rental_uris":{"android":"levelo://app?vid=bff2d32f-e0b4-4d9c-a4ca-c192990d98e4","ios":"levelo://app?vid=bff2d32f-e0b4-4d9c-a4ca-c192990d98e4"},"vehicle_type_id":"4","last_reported":1784636266,"current_range_meters":8800,"station_id":"ce4bgqh2rcd13ifvqc5g","pricing_plan_id":"cebpf4jnsgd1na2vs0mg"},{"bike_id":"3c77d917-1e16-4f7d-a9fa-2030e3ffc3a3","system_id":"levelo_inurba_marseille","lat":43.27979,"lon":5.41652,"is_reserved":false,"is_disabled":true,"rental_uris":{"android":"levelo://app?vid=3c77d917-1e16-4f7d-a9fa-2030e3ffc3a3","ios":"levelo://app?vid=3c77d917-1e16-4f7d-a9fa-2030e3ffc3a3"},"vehicle_type_id":"4","last_reported":1784636266,"current_range_meters":8800,"station_id":"ce4bho12rcd13ifvqh1g","pricing_plan_id":"cebpf4jnsgd1na2vs0mg"},{"bike_id":"c2ffb063-eaa6-4af9-b4d4-da54a453082c","system_id":"levelo_inurba_marseille","lat":43.32685,"lon":5.40719,"is_reserved":false,"is_disabled":false,"rental_uris":{"android":"levelo://app?vid=c2ffb063-eaa6-4af9-b4d4-da54a453082c","ios":"levelo://app?vid=c2ffb063-eaa6-4af9-b4d4-da54a453082c"},"vehicle_type_id":"4","last_reported":1784636266,"current_range_meters":8800,"station_id":"","pricing_plan_id":"cebpf4jnsgd1na2vs0mg"},{"bike_id":"6422cf3d-2df7-4e60-ae6b-3ac54d248869","system_id":"levelo_inurba_marseille","lat":43.21251,"lon":5.34461,"is_reserved":false,"is_disabled":false,"rental_uris":{"android":"levelo://app?vid=6422cf3d-2df7-4e60-ae6b-3ac54d248869","ios":"levelo://app?vid=6422cf3d-2df7-4e60-ae6b-3ac54d248869"},"vehicle_type_id":"4","last_reported":1784636266,"current_range_meters":8800,"station_id":"","pricing_plan_id":"cebpf4jnsgd1na2vs0mg"},{"bike_id":"df466992-aa26-4d81-baa2-7e2fedcf2959","system_id":"levelo_inurba_marseille","lat":43.33541,"lon":5.3748,"is_reserved":false,"is_disabled":false,"rental_uris":{"android":"levelo://app?vid=df466992-aa26-4d81-baa2-7e2fedcf2959","ios":"levelo://app?vid=df466992-aa26-4d81-baa2-7e2fedcf2959"},"vehicle_type_id":"4","last_reported":1784636266,"current_range_meters":8800,"station_id":"st_d46tts09ee8s73dlu43g","pricing_plan_id":"cebpf4jnsgd1na2vs0mg"},{"bike_id":"8cb8f35a-7f2c-4bbb-8891-6f97e63f9d18","system_id":"levelo_inurba_marseille","lat":43.28261,"lon":5.35066,"is_reserved":false,"is_disabled":false,"rental_uris":{"android":"levelo://app?vid=8cb8f35a-7f2c-4bbb-8891-6f97e63f9d18","ios":"levelo://app?vid=8cb8f35a-7f2c-4bbb-8891-6f97e63f9d18"},"vehicle_type_id":"4","last_reported":1784636266,"current_range_meters":8800,"station_id":"ce4bhbp2rcd13ifvqerg","pricing_plan_id":"cebpf4jnsgd1na2vs0mg"},{"bike_id":"615f65d0-1e5b-4986-8470-ff47ef17fd88","system_id":"levelo_inurba_marseille","lat":43.32346,"lon":5.36743,"is_reserved":false,"is_disabled":false,"rental_uris":{"android":"levelo://app?vid=615f65d0-1e5b-4986-8470-ff47ef17fd88","ios":"levelo://app?vid=615f65d0-1e5b-4986-8470-ff47ef17fd88"},"vehicle_type_id":"4","last_reported":1784636266,"current_range_meters":8800,"station_id":"ce4bhsh2rcd13ifvqi2g","pricing_plan_id":"cebpf4jnsgd1na2vs0mg"},{"bike_id":"44f17f29-c4b1-44a0-8ef6-f6a6861404e2","system_id":"levelo_inurba_marseille","lat":43.27054,"lon":5.39482,"is_reserved":false,"is_disabled":false,"rental_uris":{"android":"levelo://app?vid=44f17f29-c4b1-44a0-8ef6-f6a6861404e2","ios":"levelo://app?vid=44f17f29-c4b1-44a0-8ef6-f6a6861404e2"},"vehicle_type_id":"4","last_reported":1784636266,"current_range_meters":8800,"station_id":"","pricing_plan_id":"cebpf4jnsgd1na2vs0mg"},{"bike_id":"ecd2189c-df1e-45a0-8225-c8755954ebfe","system_id":"levelo_inurba_marseille","lat":43.2522,"lon":5.42661,"is_reserved":false,"is_disabled":false,"rental_uris":{"android":"levelo://app?vid=ecd2189c-df1e-45a0-8225-c8755954ebfe","ios":"levelo://app?vid=ecd2189c-df1e-45a0-8225-c8755954ebfe"},"vehicle_type_id":"4","last_reported":1784636266,"current_range_meters":8800,"station_id":"","pricing_plan_id":"cebpf4jnsgd1na2vs0mg"},{"bike_id":"f3c22e21-850d-4bf0-b214-ae2f4fa304ab","system_id":"levelo_inurba_marseille","lat":43.28614,"lon":5.35098,"is_reserved":false,"is_disabled":false,"rental_uris":{"android":"levelo://app?vid=f3c22e21-850d-4bf0-b214-ae2f4fa304ab","ios":"levelo://app?vid=f3c22e21-850d-4bf0-b214-ae2f4fa304ab"},"vehicle_type_id":"4","last_reported":1784636266,"current_range_meters":9200,"station_id":"ce4bhch2rcd13ifvqeug","pricing_plan_id":"cebpf4jnsgd1na2vs0mg"},{"bike_id":"237d0b1e-a2f5-4f31-a196-4f16bca3026e","system_id":"levelo_inurba_marseille","lat":43.24162,"lon":5.36431,"is_reserved":false,"is_disabled":false,"rental_uris":{"android":"levelo://app?vid=237d0b1e-a2f5-4f31-a196-4f16bca3026e","ios":"levelo://app?vid=237d0b1e-a2f5-4f31-a196-4f16bca3026e"},"vehicle_type_id":"4","last_reported":1784636266,"current_range_meters":9200,"station_id":"cpo36qri1sfpv3e86is0","pricing_plan_id":"cebpf4jnsgd1na2vs0mg"},{"bike_id":"81d998e6-121d-4b97-b4f6-d74e5fb4f0eb","system_id":"levelo_inurba_marseille","lat":43.22932,"lon":5.3538,"is_reserved":false,"is_disabled":false,"rental_uris":{"android":"levelo://app?vid=81d998e6-121d-4b97-b4f6-d74e5fb4f0eb","ios":"levelo://app?vid=81d998e6-121d-4b97-b4f6-d74e5fb4f0eb"},"vehicle_type_id":"4","last_reported":1784636266,"current_range_meters":9200,"station_id":"cpo3532slgdg3j2ikp40","pricing_plan_id":"cebpf4jnsgd1na2vs0mg"},{"bike_id":"f0d4c2d1-a21c-4d7b-b324-7ffc56e014f7","system_id":"levelo_inurba_marseille","lat":43.30196,"lon":5.36623,"is_reserved":false,"is_disabled":false,"rental_uris":{"android":"levelo://app?vid=f0d4c2d1-a21c-4d7b-b324-7ffc56e014f7","ios":"levelo://app?vid=f0d4c2d1-a21c-4d7b-b324-7ffc56e014f7"},"vehicle_type_id":"4","last_reported":1784636266,"current_range_meters":9200,"station_id":"ce4bgrh2rcd13ifvqc8g","pricing_plan_id":"cebpf4jnsgd1na2vs0mg"},{"bike_id":"7492eed5-d907-42d9-a273-597127916c1e","system_id":"levelo_inurba_marseille","lat":43.28103,"lon":5.37843,"is_reserved":false,"is_disabled":false,"rental_uris":{"android":"levelo://app?vid=7492eed5-d907-42d9-a273-597127916c1e","ios":"levelo://app?vid=7492eed5-d907-42d9-a273-597127916c1e"},"vehicle_type_id":"4","last_reported":1784636266,"current_range_meters":9200,"station_id":"ce4bha12rcd13ifvqee0","pricing_plan_id":"cebpf4jnsgd1na2vs0mg"},{"bike_id":"c841ec32-930f-4eec-964c-0165ed3cea4c","system_id":"levelo_inurba_marseille","lat":43.28155,"lon":5.42646,"is_reserved":false,"is_disabled":false,"rental_uris":{"android":"levelo://app?vid=c841ec32-930f-4eec-964c-0165ed3cea4c","ios":"levelo://app?vid=c841ec32-930f-4eec-964c-0165ed3cea4c"},"vehicle_type_id":"4","last_reported":1784636266,"current_range_meters":9200,"station_id":"ce4bhnh2rcd13ifvqgug","pricing_plan_id":"cebpf4jnsgd1na2vs0mg"},{"bike_id":"1a463d7f-ab42-4520-8dbe-be9f5ec1be1d","system_id":"levelo_inurba_marseille","lat":43.21186,"lon":5.35079,"is_reserved":false,"is_disabled":false,"rental_uris":{"android":"levelo://app?vid=1a463d7f-ab42-4520-8dbe-be9f5ec1be1d","ios":"levelo://app?vid=1a463d7f-ab42-4520-8dbe-be9f5ec1be1d"},"vehicle_type_id":"4","last_reported":1784636266,"current_range_meters":9200,"station_id":"st_cvj6sg6p6f1abm77japg","pricing_plan_id":"cebpf4jnsgd1na2vs0mg"},{"bike_id":"87872f07-a473-45e8-b789-466f2f8cd2b1","system_id":"levelo_inurba_marseille","lat":43.27461,"lon":5.39401,"is_reserved":false,"is_disabled":false,"rental_uris":{"android":"levelo://app?vid=87872f07-a473-45e8-b789-466f2f8cd2b1","ios":"levelo://app?vid=87872f07-a473-45e8-b789-466f2f8cd2b1"},"vehicle_type_id":"4","last_reported":1784636266,"current_range_meters":9200,"station_id":"","pricing_plan_id":"cebpf4jnsgd1na2vs0mg"},{"bike_id":"67da023c-6173-42e9-a90a-c5d090c7cc92","system_id":"levelo_inurba_marseille","lat":43.27895,"lon":5.38024,"is_reserved":false,"is_disabled":false,"rental_uris":{"android":"levelo://app?vid=67da023c-6173-42e9-a90a-c5d090c7cc92","ios":"levelo://app?vid=67da023c-6173-42e9-a90a-c5d090c7cc92"},"vehicle_type_id":"4","last_reported":1784636266,"current_range_meters":9200,"station_id":"ce4bhf92rcd13ifvqf50","pricing_plan_id":"cebpf4jnsgd1na2vs0mg"},{"bike_id":"6e40e246-568a-4533-9869-40fbea28bed7","system_id":"levelo_inurba_marseille","lat":43.24384,"lon":5.37054,"is_reserved":false,"is_disabled":false,"rental_uris":{"android":"levelo://app?vid=6e40e246-568a-4533-9869-40fbea28bed7","ios":"levelo://app?vid=6e40e246-568a-4533-9869-40fbea28bed7"},"vehicle_type_id":"4","last_reported":1784636266,"current_range_meters":9200,"station_id":"ce4bhhh2rcd13ifvqfk0","pricing_plan_id":"cebpf4jnsgd1na2vs0mg"},{"bike_id":"44fdc26a-abe3-4c8b-bcda-6e6a50f09c6e","system_id":"levelo_inurba_marseille","lat":43.24999,"lon":5.38929,"is_reserved":false,"is_disabled":false,"rental_uris":{"android":"levelo://app?vid=44fdc26a-abe3-4c8b-bcda-6e6a50f09c6e","ios":"levelo://app?vid=44fdc26a-abe3-4c8b-bcda-6e6a50f09c6e"},"vehicle_type_id":"4","last_reported":1784636266,"current_range_meters":9200,"station_id":"ce4bhgp2rcd13ifvqfd0","pricing_plan_id":"cebpf4jnsgd1na2vs0mg"},{"bike_id":"6e332e86-de15-4d4d-bca0-6fd68dd8444f","system_id":"levelo_inurba_marseille","lat":43.3329,"lon":5.43692,"is_reserved":false,"is_disabled":false,"rental_uris":{"android":"levelo://app?vid=6e332e86-de15-4d4d-bca0-6fd68dd8444f","ios":"levelo://app?vid=6e332e86-de15-4d4d-bca0-6fd68dd8444f"},"vehicle_type_id":"4","last_reported":1784636266,"current_range_meters":9200,"station_id":"","pricing_plan_id":"cebpf4jnsgd1na2vs0mg"},{"bike_id":"2ea02efd-1ccf-4b1c-83a9-827619361b57","system_id":"levelo_inurba_marseille","lat":43.2314,"lon":5.43716,"is_reserved":false,"is_disabled":false,"rental_uris":{"android":"levelo://app?vid=2ea02efd-1ccf-4b1c-83a9-827619361b57","ios":"levelo://app?vid=2ea02efd-1ccf-4b1c-83a9-827619361b57"},"vehicle_type_id":"4","last_reported":1784636266,"current_range_meters":9200,"station_id":"ce4bhmp2rcd13ifvqgog","pricing_plan_id":"cebpf4jnsgd1na2vs0mg"},{"bike_id":"118ee540-bc00-474f-80f1-98509b714b9c","system_id":"levelo_inurba_marseille","lat":43.2457,"lon":5.37622,"is_reserved":false,"is_disabled":false,"rental_uris":{"android":"levelo://app?vid=118ee540-bc00-474f-80f1-98509b714b9c","ios":"levelo://app?vid=118ee540-bc00-474f-80f1-98509b714b9c"},"vehicle_type_id":"4","last_reported":1784636266,"current_range_meters":9200,"station_id":"","pricing_plan_id":"cebpf4jnsgd1na2vs0mg"},