{"last_updated":1767175888,"ttl":60,"version":"2.2","data":{"bikes":[{"bike_id":"32541f6a-1d2c-44c2-a392-06055eaf1598","system_id":"levelo_inurba_marseille","lat":43.26237,"lon":5.41613,"is_reserved":false,"is_disabled":false,"rental_uris":{"android":"levelo://app?vid=32541f6a-1d2c-44c2-a392-06055eaf1598","ios":"levelo://app?vid=32541f6a-1d2c-44c2-a392-06055eaf1598"},"vehicle_type_id":"4","last_reported":1767175889,"current_range_meters":2800,"station_id":"","pricing_plan_id":"cebpf4jnsgd1na2vs0mg"},{"bike_id":"c7f2e718-38b8-44a7-a0b2-c8eaa34f58b5","system_id":"levelo_inurba_marseille","lat":43.32361,"lon":5.38902,"is_reserved":false,"is_disabled":false,"rental_uris":{"android":"levelo://app?vid=c7f2e718-38b8-44a7-a0b2-c8eaa34f58b5","ios":"levelo://app?vid=c7f2e718-38b8-44a7-a0b2-c8eaa34f58b5"},"vehicle_type_id":"4","last_reported":1767175889,"current_range_meters":3200,"station_id":"ce4bhqp2rcd13ifvqhog","pricing_plan_id":"cebpf4jnsgd1na2vs0mg"},{"bike_id":"de209e94-eb15-4e99-b705-98b4bdbb3af9","system_id":"levelo_inurba_marseille","lat":43.276213,"lon":5.361033,"is_reserved":false,"is_disabled":false,"rental_uris":{"android":"levelo://app?vid=de209e94-eb15-4e99-b705-98b4bdbb3af9","ios":"levelo://app?vid=de209e94-eb15-4e99-b705-98b4bdbb3af9"},"vehicle_type_id":"4","last_reported":1767175889,"current_range_meters":3200,"station_id":"ce4bgj92rcd13ifvqbe0","pricing_plan_id":"cebpf4jnsgd1na2vs0mg"},{"bike_id":"514462ae-e9aa-473f-81fb-dcb3f9411212","system_id":"levelo_inurba_marseille","lat":43.27498,"lon":5.39467,"is_reserved":false,"is_disabled":false,"rental_uris":{"android":"levelo://app?vid=514462ae-e9aa-473f-81fb-dcb3f9411212","ios":"levelo://app?vid=514462ae-e9aa-473f-81fb-dcb3f9411212"},"vehicle_type_id":"4","last_reported":1767175889,"current_range_meters":3600,"station_id":"ce4bhdp2rcd13ifvqf20","pricing_plan_id":"cebpf4jnsgd1na2vs0mg"},{"bike_id":"633e093e-7aba-4e4b-a5fe-b1e5d042f33b","system_id":"levelo_inurba_marseille","lat":43.28478,"lon":5.48405,"is_reserved":false,"is_disabled":false,"rental_uris":{"android":"levelo://app?vid=633e093e-7aba-4e4b-a5fe-b1e5d042f33b","ios":"levelo://app?vid=633e093e-7aba-4e4b-a5fe-b1e5d042f33b"},"vehicle_type_id":"4","last_reported":1767175889,"current_range_meters":3600,"station_id":"st_d3svhcjqgbts73a3dn0g","pricing_plan_id":"cebpf4jnsgd1na2vs0mg"},{"bike_id":"d79a9189-65cf-4db3-8ff0-def9327161ee","system_id":"levelo_inurba_marseille","lat":43.29367,"lon":5.37842,"is_reserved":false,"is_disabled":false,"rental_uris":{"android":"levelo://app?vid=d79a9189-65cf-4db3-8ff0-def9327161ee","ios":"levelo://app?vid=d79a9189-65cf-4db3-8ff0-def9327161ee"},"vehicle_type_id":"4","last_reported":1767175889,"current_range_meters":4000,"station_id":"ce4bgjh2rcd13ifvqbf0","pricing_plan_id":"cebpf4jnsgd1na2vs0mg"},{"bike_id":"12c38b32-5974-4311-910a-572392b8079a","system_id":"levelo_inurba_marseille","lat":43.280422,"lon":5.350876,"is_reserved":false,"is_disabled":false,"rental_uris":{"android":"levelo://app?vid=12c38b32-5974-4311-910a-572392b8079a","ios":"levelo://app?vid=12c38b32-5974-4311-910a-572392b8079a"},"vehicle_type_id":"4","last_reported":1767175889,"current_range_meters":4400,"station_id":"","pricing_plan_id":"cebpf4jnsgd1na2vs0mg"},{"bike_id":"1dd2c077-d7fa-43b2-a55d-f6335f7bc478","system_id":"levelo_inurba_marseille","lat":43.29691,"lon":5.3728,"is_reserved":false,"is_disabled":false,"rental_uris":{"android":"levelo://app?vid=1dd2c077-d7fa-43b2-a55d-f6335f7bc478","ios":"levelo://app?vid=1dd2c077-d7fa-43b2-a55d-f6335f7bc478"},"vehicle_type_id":"4","last_reported":1767175889,"current_range_meters":4800,"station_id":"ce4bgk12rcd13ifvqbj0","pricing_plan_id":"cebpf4jnsgd1na2vs0mg"},{"bike_id":"440bef66-5290-46f0-a105-1ce82f7359d2","system_id":"levelo_inurba_marseille","lat":43.27197,"lon":5.39207,"is_reserved":false,"is_disabled":false,"rental_uris":{"android":"levelo://app?vid=440bef66-5290-46f0-a105-1ce82f7359d2","ios":"levelo://app?vid=440bef66-5290-46f0-a105-1ce82f7359d2"},"vehicle_type_id":"4","last_reported":1767175889,"current_range_meters":5600,"station_id":"ce4bhhp2rcd13ifvqfm0","pricing_plan_id":"cebpf4jnsgd1na2vs0mg"},{"bike_id":"03029d34-071a-41ff-bf06-93849de777bf","system_id":"levelo_inurba_marseille","lat":43.28691,"lon":5.37393,"is_reserved":false,"is_disabled":false,"rental_uris":{"android":"levelo://app?vid=03029d34-071a-41ff-bf06-93849de777bf","ios":"levelo://app?vid=03029d34-071a-41ff-bf06-93849de777bf"},"vehicle_type_id":"4","last_reported":1767175889,"current_range_meters":5600,"station_id":"ce4bh3p2rcd13ifvqdq0","pricing_plan_id":"cebpf4jnsgd1na2vs0mg"},{"bike_id":"72eb9c44-fdc1-4346-aa95-ce3f1c7e3bd4","system_id":"levelo_inurba_marseille","lat":43.305957,"lon":5.39365,"is_reserved":false,"is_disabled":false,"rental_uris":{"android":"levelo://app?vid=72eb9c44-fdc1-4346-aa95-ce3f1c7e3bd4","ios":"levelo://app?vid=72eb9c44-fdc1-4346-aa95-ce3f1c7e3bd4"},"vehicle_type_id":"4","last_reported":1767175889,"current_range_meters":5600,"station_id":"","pricing_plan_id":"cebpf4jnsgd1na2vs0mg"},{"bike_id":"1e9b80dd-d7a6-4086-aa49-22910a7ee0dc","system_id":"levelo_inurba_marseille","lat":43.296596,"lon":5.381369,"is_reserved":false,"is_disabled":false,"rental_uris":{"android":"levelo://app?vid=1e9b80dd-d7a6-4086-aa49-22910a7ee0dc","ios":"levelo://app?vid=1e9b80dd-d7a6-4086-aa49-22910a7ee0dc"},"vehicle_type_id":"4","last_reported":1767175889,"current_range_meters":5600,"station_id":"ce4bgt12rcd13ifvqce0","pricing_plan_id":"cebpf4jnsgd1na2vs0mg"},{"bike_id":"1f986bde-e823-4547-a8eb-43be952db802","system_id":"levelo_inurba_marseille","lat":43.29442,"lon":5.37288,"is_reserved":false,"is_disabled":false,"rental_uris":{"android":"levelo://app?vid=1f986bde-e823-4547-a8eb-43be952db802","ios":"levelo://app?vid=1f986bde-e823-4547-a8eb-43be952db802"},"vehicle_type_id":"4","last_reported":1767175889,"current_range_meters":6000,"station_id":"","pricing_plan_id":"cebpf4jnsgd1na2vs0mg"},{"bike_id":"b4cf7106-73c2-4109-b6f1-be10e1ccce58","system_id":"levelo_inurba_marseille","lat":43.29662,"lon":5.38513,"is_reserved":false,"is_disabled":false,"rental_uris":{"android":"levelo://app?vid=b4cf7106-73c2-4109-b6f1-be10e1ccce58","ios":"levelo://app?vid=b4cf7106-73c2-4109-b6f1-be10e1ccce58"},"vehicle_type_id":"4","last_reported":1767175889,"current_range_meters":6000,"station_id":"","pricing_plan_id":"cebpf4jnsgd1na2vs0mg"},{"bike_id":"ead416e4-7a96-4d00-8992-cdf1d0154b3d","system_id":"levelo_inurba_marseille","lat":43.317014,"lon":5.437063,"is_reserved":false,"is_disabled":false,"rental_uris":{"android":"levelo://app?vid=ead416e4-7a96-4d00-8992-cdf1d0154b3d","ios":"levelo://app?vid=ead416e4-7a96-4d00-8992-cdf1d0154b3d"},"vehicle_type_id":"4","last_reported":1767175889,"current_range_meters":6400,"station_id":"ce4bhp92rcd13ifvqhcg","pricing_plan_id":"cebpf4jnsgd1na2vs0mg"},{"bike_id":"3129393a-6661-4dee-9f01-623c94670254","system_id":"levelo_inurba_marseille","lat":43.28259,"lon":5.35075,"is_reserved":false,"is_disabled":true,"rental_uris":{"android":"levelo://app?vid=3129393a-6661-4dee-9f01-623c94670254","ios":"levelo://app?vid=3129393a-6661-4dee-9f01-623c94670254"},"vehicle_type_id":"4","last_reported":1767175889,"current_range_meters":6400,"station_id":"ce4bhbp2rcd13ifvqerg","pricing_plan_id":"cebpf4jnsgd1na2vs0mg"},{"bike_id":"11188723-5e44-4555-9272-a344b0afcb4e","system_id":"levelo_inurba_marseille","lat":43.23138,"lon":5.43724,"is_reserved":false,"is_disabled":false,"rental_uris":{"android":"levelo://app?vid=11188723-5e44-4555-9272-a344b0afcb4e","ios":"levelo://app?vid=11188723-5e44-4555-9272-a344b0afcb4e"},"vehicle_type_id":"4","last_reported":1767175889,"current_range_meters":6400,"station_id":"ce4bhmp2rcd13ifvqgog","pricing_plan_id":"cebpf4jnsgd1na2vs0mg"},{"bike_id":"970f6c1d-f464-4249-baad-9d8636c41627","system_id":"levelo_inurba_marseille","lat":43.2917,"lon":5.37531,"is_reserved":false,"is_disabled":false,"rental_uris":{"android":"levelo://app?vid=970f6c1d-f464-4249-baad-9d8636c41627","ios":"levelo://app?vid=970f6c1d-f464-4249-baad-9d8636c41627"},"vehicle_type_id":"4","last_reported":1767175889,"current_range_meters":6800,"station_id":"","pricing_plan_id":"cebpf4jnsgd1na2vs0mg"},{"bike_id":"3400d737-a32e-4dca-a00a-47ca201c9735","system_id":"levelo_inurba_marseille","lat":43.29543,"lon":5.42285,"is_reserved":false,"is_disabled":true,"rental_uris":{"android":"levelo://app?vid=3400d737-a32e-4dca-a00a-47ca201c9735","ios":"levelo://app?vid=3400d737-a32e-4dca-a00a-47ca201c9735"},"vehicle_type_id":"4","last_reported":1767175889,"current_range_meters":6800,"station_id":"ce4bhph2rcd13ifvqhdg","pricing_plan_id":"cebpf4jnsgd1na2vs0mg"},{"bike_id":"7451e2f1-97cc-4a6a-824e-1c725c74e9d6","system_id":"levelo_inurba_marseille","lat":43.293656,"lon":5.381034,"is_reserved":false,"is_disabled":false,"rental_uris":{"android":"levelo://app?vid=7451e2f1-97cc-4a6a-824e-1c725c74e9d6","ios":"levelo://app?vid=7451e2f1-97cc-4a6a-824e-1c725c74e9d6"},"vehicle_type_id":"4","last_reported":1767175889,"current_range_meters":6800,"station_id":"","pricing_plan_id":"cebpf4jnsgd1na2vs0mg"},{"bike_id":"d98e7057-6572-45f4-b459-1371b0ba2f5b","system_id":"levelo_inurba_marseille","lat":43.27988,"lon":5.4166,"is_reserved":false,"is_disabled":false,"rental_uris":{"android":"levelo://app?vid=d98e7057-6572-45f4-b459-1371b0ba2f5b","ios":"levelo://app?vid=d98e7057-6572-45f4-b459-1371b0ba2f5b"},"vehicle_type_id":"4","last_reported":1767175889,"current_range_meters":6800,"station_id":"ce4bho12rcd13ifvqh1g","pricing_plan_id":"cebpf4jnsgd1na2vs0mg"},{"bike_id":"2fd0e0d9-94cd-46c0-a68c-75e6fab259c5","system_id":"levelo_inurba_marseille","lat":43.28405,"lon":5.37535,"is_reserved":false,"is_disabled":false,"rental_uris":{"android":"levelo://app?vid=2fd0e0d9-94cd-46c0-a68c-75e6fab259c5","ios":"levelo://app?vid=2fd0e0d9-94cd-46c0-a68c-75e6fab259c5"},"vehicle_type_id":"4","last_reported":1767175889,"current_range_meters":7200,"station_id":"ce4bh412rcd13ifvqds0","pricing_plan_id":"cebpf4jnsgd1na2vs0mg"},{"bike_id":"2703b803-944c-4f90-b5fc-f9ddd565456b","system_id":"levelo_inurba_marseille","lat":43.279247,"lon":5.395807,"is_reserved":false,"is_disabled":true,"rental_uris":{"android":"levelo://app?vid=2703b803-944c-4f90-b5fc-f9ddd565456b","ios":"levelo://app?vid=2703b803-944c-4f90-b5fc-f9ddd565456b"},"vehicle_type_id":"4","last_reported":1767175889,"current_range_meters":7200,"station_id":"ce4bhf92rcd13ifvqf40","pricing_plan_id":"cebpf4jnsgd1na2vs0mg"},{"bike_id":"e281393b-3568-44bf-94ed-ccfe6741a4b2","system_id":"levelo_inurba_marseille","lat":43.25925,"lon":5.40896,"is_reserved":false,"is_disabled":false,"rental_uris":{"android":"levelo://app?vid=e281393b-3568-44bf-94ed-ccfe6741a4b2","ios":"levelo://app?vid=e281393b-3568-44bf-94ed-ccfe6741a4b2"},"vehicle_type_id":"4","last_reported":1767175889,"current_range_meters":7200,"station_id":"ce4bhm92rcd13ifvqglg","pricing_plan_id":"cebpf4jnsgd1na2vs0mg"},{"bike_id":"d1028c8d-4c1a-4ce3-bb87-06b106258967","system_id":"levelo_inurba_marseille","lat":43.30082,"lon":5.37101,"is_reserved":false,"is_disabled":false,"rental_uris":{"android":"levelo://app?vid=d1028c8d-4c1a-4ce3-bb87-06b106258967","ios":"levelo://app?vid=d1028c8d-4c1a-4ce3-bb87-06b106258967"},"vehicle_type_id":"4","last_reported":1767175889,"current_range_meters":7200,"station_id":"","pricing_plan_id":"cebpf4jnsgd1na2vs0mg"},{"bike_id":"87e55b29-3d17-4e51-89de-832847e8bae3","system_id":"levelo_inurba_marseille","lat":43.28083,"lon":5.39639,"is_reserved":false,"is_disabled":false,"rental_uris":{"android":"levelo://app?vid=87e55b29-3d17-4e51-89de-832847e8bae3","ios":"levelo://app?vid=87e55b29-3d17-4e51-89de-832847e8bae3"},"vehicle_type_id":"4","last_reported":1767175889,"current_range_meters":7200,"station_id":"ce4bho12rcd13ifvqh2g","pricing_plan_id":"cebpf4jnsgd1na2vs0mg"},{"bike_id":"742f1e99-972a-4415-9c07-2696da1383a1","system_id":"levelo_inurba_marseille","lat":43.29646,"lon":5.40587,"is_reserved":false,"is_disabled":false,"rental_uris":{"android":"levelo://app?vid=742f1e99-972a-4415-9c07-2696da1383a1","ios":"levelo://app?vid=742f1e99-972a-4415-9c07-2696da1383a1"},"vehicle_type_id":"4","last_reported":1767175889,"current_range_meters":8000,"station_id":"","pricing_plan_id":"cebpf4jnsgd1na2vs0mg"},{"bike_id":"df59638d-d2ce-46c9-8792-19c18967ee40","system_id":"levelo_inurba_marseille","lat":43.23776,"lon":5.36633,"is_reserved":false,"is_disabled":true,"rental_uris":{"android":"levelo://app?vid=df59638d-d2ce-46c9-8792-19c18967ee40","ios":"levelo://app?vid=df59638d-d2ce-46c9-8792-19c18967ee40"},"vehicle_type_id":"4","last_reported":1767175889,"current_range_meters":8000,"station_id":"st_d3nk18o9ro0c73en2l3g","pricing_plan_id":"cebpf4jnsgd1na2vs0mg"},{"bike_id":"baaf42fb-20d6-4155-a3d7-002a1eb0a205","system_id":"levelo_inurba_marseille","lat":43.30151,"lon":5.38105,"is_reserved":false,"is_disabled":false,"rental_uris":{"android":"levelo://app?vid=baaf42fb-20d6-4155-a3d7-002a1eb0a205","ios":"levelo://app?vid=baaf42fb-20d6-4155-a3d7-002a1eb0a205"},"vehicle_type_id":"4","last_reported":1767175889,"current_range_meters":8000,"station_id":"ce4bgjp2rcd13ifvqbh0","pricing_plan_id":"cebpf4jnsgd1na2vs0mg"},{"bike_id":"efd59d28-f7b7-4ac1-a87f-994988749535","system_id":"levelo_inurba_marseille","lat":43.29041,"lon":5.35919,"is_reserved":false,"is_disabled":false,"rental_uris":{"android":"levelo://app?vid=efd59d28-f7b7-4ac1-a87f-994988749535","ios":"levelo://app?vid=efd59d28-f7b7-4ac1-a87f-994988749535"},"vehicle_type_id":"4","last_reported":1767175889,"current_range_meters":8400,"station_id":"ce4bha92rcd13ifvqeg0","pricing_plan_id":"cebpf4jnsgd1na2vs0mg"},{"bike_id":"92222568-513f-4b2a-8608-420eeedb6b7b","system_id":"levelo_inurba_marseille","lat":43.337444,"lon":5.374475,"is_reserved":false,"is_disabled":false,"rental_uris":{"android":"levelo://app?vid=92222568-513f-4b2a-8608-420eeedb6b7b","ios":"levelo://app?vid=92222568-513f-4b2a-8608-420eeedb6b7b"},"vehicle_type_id":"4","last_reported":1767175889,"current_range_meters":8400,"station_id":"","pricing_plan_id":"cebpf4jnsgd1na2vs0mg"},{"bike_id":"3ae180a1-ad81-4fbd-8d8e-5122c1af76f4","system_id":"levelo_inurba_marseille","lat":43.337444,"lon":5.374475,"is_reserved":false,"is_disabled":false,"rental_uris":{"android":"levelo://app?vid=3ae180a1-ad81-4fbd-8d8e-5122c1af76f4","ios":"levelo://app?vid=3ae180a1-ad81-4fbd-8d8e-5122c1af76f4"},"vehicle_type_id":"4","last_reported":1767175889,"current_range_meters":8400,"station_id":"","pricing_plan_id":"cebpf4jnsgd1na2vs0mg"},{"bike_id":"ec5fae6d-47b5-4030-bf64-4af050af9ecb","system_id":"levelo_inurba_marseille","lat":43.30953,"lon":5.37794,"is_reserved":false,"is_disabled":false,"rental_uris":{"android":"levelo://app?vid=ec5fae6d-47b5-4030-bf64-4af050af9ecb","ios":"levelo://app?vid=ec5fae6d-47b5-4030-bf64-4af050af9ecb"},"vehicle_type_id":"4","last_reported":1767175889,"current_range_meters":8400,"station_id":"","pricing_plan_id":"cebpf4jnsgd1na2vs0mg"},{"bike_id":"64261d8c-6043-4f56-95bc-d20642b963c0","system_id":"levelo_inurba_marseille","lat":43.33353,"lon":5.41086,"is_reserved":false,"is_disabled":false,"rental_uris":{"android":"levelo://app?vid=64261d8c-6043-4f56-95bc-d20642b963c0","ios":"levelo://app?vid=64261d8c-6043-4f56-95bc-d20642b963c0"},"vehicle_type_id":"4","last_reported":1767175889,"current_range_meters":8400,"station_id":"","pricing_plan_id":"cebpf4jnsgd1na2vs0mg"},{"bike_id":"dce28840-1b59-4930-917a-12d88071d00f","system_id":"levelo_inurba_marseille","lat":43.28515,"lon":5.44118,"is_reserved":false,"is_disabled":false,"rental_uris":{"android":"levelo://app?vid=dce28840-1b59-4930-917a-12d88071d00f","ios":"levelo://app?vid=dce28840-1b59-4930-917a-12d88071d00f"},"vehicle_type_id":"4","last_reported":1767175889,"current_range_meters":8800,"station_id":"st_d3j3df2ikq2c7380ej80","pricing_plan_id":"cebpf4jnsgd1na2vs0mg"},{"bike_id":"d7338867-3877-4ddf-b2f4-c5a5318ffdba","system_id":"levelo_inurba_marseille","lat":43.278862,"lon":5.395234,"is_reserved":false,"is_disabled":false,"rental_uris":{"android":"levelo://app?vid=d7338867-3877-4ddf-b2f4-c5a5318ffdba","ios":"levelo://app?vid=d7338867-3877-4ddf-b2f4-c5a5318ffdba"},"vehicle_type_id":"4","last_reported":1767175889,"current_range_meters":8800,"station_id":"ce4bhf92rcd13ifvqf40","pricing_plan_id":"cebpf4jnsgd1na2vs0mg"},{"bike_id":"7c20e148-2a07-439c-8007-95ff3dd732b8","system_id":"levelo_inurba_marseille","lat":43.211872,"lon":5.350933,"is_reserved":false,"is_disabled":false,"rental_uris":{"android":"levelo://app?vid=7c20e148-2a07-439c-8007-95ff3dd732b8","ios":"levelo://app?vid=7c20e148-2a07-439c-8007-95ff3dd732b8"},"vehicle_type_id":"4","last_reported":1767175889,"current_range_meters":8800,"station_id":"st_cvj6sg6p6f1abm77japg","pricing_plan_id":"cebpf4jnsgd1na2vs0mg"},{"bike_id":"a274e1f3-90e8-4548-9a2a-4f53c59abc4e","system_id":"levelo_inurba_marseille","lat":43.317099,"lon":5.404739,"is_reserved":false,"is_disabled":true,"rental_uris":{"android":"levelo://app?vid=a274e1f3-90e8-4548-9a2a-4f53c59abc4e","ios":"levelo://app?vid=a274e1f3-90e8-4548-9a2a-4f53c59abc4e"},"vehicle_type_id":"4","last_reported":1767175889,"current_range_meters":8800,"station_id":"ce4bh012rcd13ifvqd00","pricing_plan_id":"cebpf4jnsgd1na2vs0mg"},{"bike_id":"0fa76090-b264-4d7f-a0bc-7de1e50f19da","system_id":"levelo_inurba_marseille","lat":43.28016,"lon":5.40412,"is_reserved":false,"is_disabled":false,"rental_uris":{"android":"levelo://app?vid=0fa76090-b264-4d7f-a0bc-7de1e50f19da","ios":"levelo://app?vid=0fa76090-b264-4d7f-a0bc-7de1e50f19da"},"vehicle_type_id":"4","last_reported":1767175889,"current_range_meters":8800,"station_id":"","pricing_plan_id":"cebpf4jnsgd1na2vs0mg"},{"bike_id":"e83f85b4-901b-4847-8c37-7f1e25deeeca","system_id":"levelo_inurba_marseille","lat":43.31219,"lon":5.36887,"is_reserved":false,"is_disabled":false,"rental_uris":{"android":"levelo://app?vid=e83f85b4-901b-4847-8c37-7f1e25deeeca","ios":"levelo://app?vid=e83f85b4-901b-4847-8c37-7f1e25deeeca"},"vehicle_type_id":"4","last_reported":1767175889,"current_range_meters":8800,"station_id":"ce4bgl92rcd13ifvqbq0","pricing_plan_id":"cebpf4jnsgd1na2vs0mg"},{"bike_id":"dacc1bc0-eec9-4219-9225-c37f13cfc222","system_id":"levelo_inurba_marseille","lat":43.285322,"lon":5.440961,"is_reserved":false,"is_disabled":false,"rental_uris":{"android":"levelo://app?vid=dacc1bc0-eec9-4219-9225-c37f13cfc222","ios":"levelo://app?vid=dacc1bc0-eec9-4219-9225-c37f13cfc222"},"vehicle_type_id":"4","last_reported":1767175889,"current_range_meters":8800,"station_id":"st_d3j3df2ikq2c7380ej80","pricing_plan_id":"cebpf4jnsgd1na2vs0mg"},{"bike_id":"1fbb4f5b-62d1-49b7-9fa0-3f5e6fd22ef0","system_id":"levelo_inurba_marseille","lat":43.281085,"lon":5.378294,"is_reserved":false,"is_disabled":false,"rental_uris":{"android":"levelo://app?vid=1fbb4f5b-62d1-49b7-9fa0-3f5e6fd22ef0","ios":"levelo://app?vid=1fbb4f5b-62d1-49b7-9fa0-3f5e6fd22ef0"},"vehicle_type_id":"4","last_reported":1767175889,"current_range_meters":9200,"station_id":"ce4bha12rcd13ifvqee0","pricing_plan_id":"cebpf4jnsgd1na2vs0mg"},{"bike_id":"07735fbf-d529-4ec7-a3e7-0323418555f7","system_id":"levelo_inurba_marseille","lat":43.31737,"lon":5.43098,"is_reserved":false,"is_disabled":false,"rental_uris":{"android":"levelo://app?vid=07735fbf-d529-4ec7-a3e7-0323418555f7","ios":"levelo://app?vid=07735fbf-d529-4ec7-a3e7-0323418555f7"},"vehicle_type_id":"4","last_reported":1767175889,"current_range_meters":9200,"station_id":"","pricing_plan_id":"cebpf4jnsgd1na2vs0mg"},{"bike_id":"85f54089-ee24-4ccc-9113-8b7cb544a9bb","system_id":"levelo_inurba_marseille","lat":43.30097,"lon":5.39087,"is_reserved":false,"is_disabled":false,"rental_uris":{"android":"levelo://app?vid=85f54089-ee24-4ccc-9113-8b7cb544a9bb","ios":"levelo://app?vid=85f54089-ee24-4ccc-9113-8b7cb544a9bb"},"vehicle_type_id":"4","last_reported":1767175889,"current_range_meters":9200,"station_id":"ce4bh192rcd13ifvqdb0","pricing_plan_id":"cebpf4jnsgd1na2vs0mg"},{"bike_id":"fd730288-95bc-4682-8dc4-a5ea5fa11f2b","system_id":"levelo_inurba_marseille","lat":43.32536,"lon":5.41426,"is_reserved":false,"is_disabled":false,"rental_uris":{"android":"levelo://app?vid=fd730288-95bc-4682-8dc4-a5ea5fa11f2b","ios":"levelo://app?vid=fd730288-95bc-4682-8dc4-a5ea5fa11f2b"},"vehicle_type_id":"4","last_reported":1767175889,"current_range_meters":9200,"station_id":"ce4bhq12rcd13ifvqhhg","pricing_plan_id":"cebpf4jnsgd1na2vs0mg"},{"bike_id":"d71f2cc9-34f1-4eed-8707-d0bf53e9f9dd","system_id":"levelo_inurba_marseille","lat":43.33532,"lon":5.37457,"is_reserved":false,"is_disabled":false,"rental_uris":{"android":"levelo://app?vid=d71f2cc9-34f1-4eed-8707-d0bf53e9f9dd","ios":"levelo://app?vid=d71f2cc9-34f1-4eed-8707-d0bf53e9f9dd"},"vehicle_type_id":"4","last_reported":1767175889,"current_range_meters":9200,"station_id":"st_d46tts09ee8s73dlu43g","pricing_plan_id":"cebpf4jnsgd1na2vs0mg"},{"bike_id":"9d8179f0-087f-4914-9a44-21807e29eddf","system_id":"levelo_inurba_marseille","lat":43.307416,"lon":5.424413,"is_reserved":false,"is_disabled":false,"rental_uris":{"android":"levelo://app?vid=9d8179f0-087f-4914-9a44-21807e29eddf","ios":"levelo://app?vid=9d8179f0-087f-4914-9a44-21807e29eddf"},"vehicle_type_id":"4","last_reported":1767175889,"current_range_meters":9200,"station_id":"st_cvj6ca6bvosntc0bfgr0","pricing_plan_id":"cebpf4jnsgd1na2vs0mg"},{"bike_id":"8d39a28b-6766-4dd2-9cb0-2a9ef3a2a93b","system_id":"levelo_inurba_marseille","lat":43.33144,"lon":5.37725,"is_reserved":false,"is_disabled":false,"rental_uris":{"android":"levelo://app?vid=8d39a28b-6766-4dd2-9cb0-2a9ef3a2a93b","ios":"levelo://app?vid=8d39a28b-6766-4dd2-9cb0-2a9ef3a2a93b"},"vehicle_type_id":"4","last_reported":1767175889,"current_range_meters":9600,"station_id":"st_d46cu089ee8s73dldbu0","pricing_plan_id":"cebpf4jnsgd1na2vs0mg"},{"bike_id":"fc01654f-2593-4295-8309-447493a7010a","system_id":"levelo_inurba_marseille","lat":43.27181,"lon":5.390489,"is_reserved":false,"is_disabled":false,"rental_uris":{"android":"levelo://app?vid=fc01654f-2593-4295-8309-447493a7010a","ios":"levelo://app?vid=fc01654f-2593-4295-8309-447493a7010a"},"vehicle_type_id":"4","last_reported":1767175889,"current_range_meters":9600,"station_id":"","pricing_plan_id":"cebpf4jnsgd1na2vs0mg"},{"bike_id":"78ed77cb-47f0-4c82-bf8a-f958576ec953","system_id":"levelo_inurba_marseille","lat":43.28154,"lon":5.42651,"is_reserved":false,"is_disabled":false,"rental_uris":{"android":"levelo://app?vid=78ed77cb-47f0-4c82-bf8a-f958576ec953","ios":"levelo://app?vid=78ed77cb-47f0-4c82-bf8a-f958576ec953"},"vehicle_type_id":"4","last_reported":1767175889,"current_range_meters":9600,"station_id":"ce4bhnh2rcd13ifvqgug","pricing_plan_id":"cebpf4jnsgd1na2vs0mg"},{"bike_id":"149a94e7-8065-4440-a1ab-1ba416a8f181","system_id":"levelo_inurba_marseille","lat":43.28466,"lon":5.48389,"is_reserved":false,"is_disabled":false,"rental_uris":{"android":"levelo://app?vid=149a94e7-8065-4440-a1ab-1ba416a8f181","ios":"levelo://app?vid=149a94e7-8065-4440-a1ab-1ba416a8f181"},"vehicle_type_id":"4","last_reported":1767175889,"current_range_meters":9600,"station_id":"","pricing_plan_id":"cebpf4jnsgd1na2vs0mg"},{"bike_id":"b30c6014-a175-4bb9-ad78-49f058f742ef","system_id":"levelo_inurba_marseille","lat":43.26481,"lon":5.39583,"is_reserved":false,"is_disabled":false,"rental_uris":{"android":"levelo://app?vid=b30c6014-a175-4bb9-ad78-49f058f742ef","ios":"levelo://app?vid=b30c6014-a175-4bb9-ad78-49f058f742ef"},"vehicle_type_id":"4","last_reported":1767175889,"current_range_meters":9600,"station_id":"ce4bhi12rcd13ifvqfq0","pricing_plan_id":"cebpf4jnsgd1na2vs0mg"},{"bike_id":"efd33062-2cef-445f-af98-648f578e9c2a","system_id":"levelo_inurba_marseille","lat":43.32001,"lon":5.41538,"is_reserved":false,"is_disabled":false,"rental_uris":{"android":"levelo://app?vid=efd33062-2cef-445f-af98-648f578e9c2a","ios":"levelo://app?vid=efd33062-2cef-445f-af98-648f578e9c2a"},"vehicle_type_id":"4","last_reported":1767175889,"current_range_meters":10000,"station_id":"ce4bhq92rcd13ifvqhkg","pricing_plan_id":"cebpf4jnsgd1na2vs0mg"},{"bike_id":"4cf8c2c1-78ee-47e7-9637-07180f58b843","system_id":"levelo_inurba_marseille","lat":43.306072,"lon":5.372149,"is_reserved":false,"is_disabled":false,"rental_uris":{"android":"levelo://app?vid=4cf8c2c1-78ee-47e7-9637-07180f58b843","ios":"levelo://app?vid=4cf8c2c1-78ee-47e7-9637-07180f58b843"},"vehicle_type_id":"4","last_reported":1767175889,"current_range_meters":10000,"station_id":"ce4bgqh2rcd13ifvqc4g","pricing_plan_id":"cebpf4jnsgd1na2vs0mg"},{"bike_id":"ef4d8662-1154-4710-8bf5-ed7e73ba85b1","system_id":"levelo_inurba_marseille","lat":43.279539,"lon":5.410436,"is_reserved":false,"is_disabled":false,"rental_uris":{"android":"levelo://app?vid=ef4d8662-1154-4710-8bf5-ed7e73ba85b1","ios":"levelo://app?vid=ef4d8662-1154-4710-8bf5-ed7e73ba85b1"},"vehicle_type_id":"4","last_reported":1767175889,"current_range_meters":10000,"station_id":"ce4bhnp2rcd13ifvqh0g","pricing_plan_id":"cebpf4jnsgd1na2vs0mg"},{"bike_id":"9cb5ae99-5884-40a4-9c3b-7a9c989d5f03","system_id":"levelo_inurba_marseille","lat":43.28475,"lon":5.38426,"is_reserved":false,"is_disabled":false,"rental_uris":{"android":"levelo://app?vid=9cb5ae99-5884-40a4-9c3b-7a9c989d5f03","ios":"levelo://app?vid=9cb5ae99-5884-40a4-9c3b-7a9c989d5f03"},"vehicle_type_id":"4","last_reported":1767175889,"current_range_meters":10000,"station_id":"ce4bh512rcd13ifvqe3g","pricing_plan_id":"cebpf4jnsgd1na2vs0mg"},{"bike_id":"ec823d5c-86d7-41fe-b99d-590eeef9b60e","system_id":"levelo_inurba_marseille","lat":43.30705,"lon":5.40811,"is_reserved":false,"is_disabled":false,"rental_uris":{"android":"levelo://app?vid=ec823d5c-86d7-41fe-b99d-590eeef9b60e","ios":"levelo://app?vid=ec823d5c-86d7-41fe-b99d-590eeef9b60e"},"vehicle_type_id":"4","last_reported":1767175889,"current_range_meters":10000,"station_id":"","pricing_plan_id":"cebpf4jnsgd1na2vs0mg"},{"bike_id":"b9f5bb9a-d9aa-4714-a9ae-ceaed3ab533e","system_id":"levelo_inurba_marseille","lat":43.29625,"lon":5.38036,"is_reserved":false,"is_disabled":false,"rental_uris":{"android":"levelo://app?vid=b9f5bb9a-d9aa-4714-a9ae-ceaed3ab533e","ios":"levelo://app?vid=b9f5bb9a-d9aa-4714-a9ae-ceaed3ab533e"},"vehicle_type_id":"4","last_reported":1767175889,"current_range_meters":10000,"station_id":"","pricing_plan_id":"cebpf4jnsgd1na2vs0mg"},{"bike_id":"9a2077a2-cebc-468c-82f9-fecda68a9ec3","system_id":"levelo_inurba_marseille","lat":43.2949,"lon":5.40896,"is_reserved":false,"is_disabled":false,"rental_uris":{"android":"levelo://app?vid=9a2077a2-cebc-468c-82f9-fecda68a9ec3","ios":"levelo://app?vid=9a2077a2-cebc-468c-82f9-fecda68a9ec3"},"vehicle_type_id":"4","last_reported":1767175889,"current_range_meters":10000,"station_id":"","pricing_plan_id":"cebpf4jnsgd1na2vs0mg"},{"bike_id":"663abef6-16c2-4620-8ed1-8c00d247e8d4","system_id":"levelo_inurba_marseille","lat":43.303258,"lon":5.404326,"is_reserved":false,"is_disabled":false,"rental_uris":{"android":"levelo://app?vid=663abef6-16c2-4620-8ed1-8c00d247e8d4","ios":"levelo://app?vid=663abef6-16c2-4620-8ed1-8c00d247e8d4"},"vehicle_type_id":"4","last_reported":1767175889,"current_range_meters":10000,"station_id":"ce4bh012rcd13ifvqd10","pricing_plan_id":"cebpf4jnsgd1na2vs0mg"},{"bike_id":"5f6b2483-fb4d-42c1-ac9e-b3b4d04b81be","system_id":"levelo_inurba_marseille","lat":43.25769,"lon":5.40979,"is_reserved":false,"is_disabled":false,"rental_uris":{"android":"levelo://app?vid=5f6b2483-fb4d-42c1-ac9e-b3b4d04b81be","ios":"levelo://app?vid=5f6b2483-fb4d-42c1-ac9e-b3b4d04b81be"},"vehicle_type_id":"4","last_reported":1767175889,"current_range_meters":10000,"station_id":"","pricing_plan_id":"cebpf4jnsgd1na2vs0mg"},{"bike_id":"90dac6f2-4e58-4623-b929-4f8d06ec1c31","system_id":"levelo_inurba_marseille","lat":43.285004,"lon":5.425436,"is_reserved":false,"is_disabled":false,"rental_uris":{"android":"levelo://app?vid=90dac6f2-4e58-4623-b929-4f8d06ec1c31","ios":"levelo://app?vid=90dac6f2-4e58-4623-b929-4f8d06ec1c31"},"vehicle_type_id":"4","last_reported":1767175889,"current_range_meters":10800,"station_id":"","pricing_plan_id":"cebpf4jnsgd1na2vs0mg"},{"bike_id":"4bc57557-a1ff-4445-8883-a2ab5098f534","system_id":"levelo_inurba_marseille","lat":43.33412,"lon":5.35756,"is_reserved":false,"is_disabled":false,"rental_uris":{"android":"levelo://app?vid=4bc57557-a1ff-4445-8883-a2ab5098f534","ios":"levelo://app?vid=4bc57557-a1ff-4445-8883-a2ab5098f534"},"vehicle_type_id":"4","last_reported":1767175889,"current_range_meters":10800,"station_id":"","pricing_plan_id":"cebpf4jnsgd1na2vs0mg"},{"bike_id":"2736b34b-98dd-4ca9-b701-f4278e5f6e64","system_id":"levelo_inurba_marseille","lat":43.3236,"lon":5.36763,"is_reserved":false,"is_disabled":false,"rental_uris":{"android":"levelo://app?vid=2736b34b-98dd-4ca9-b701-f4278e5f6e64","ios":"levelo://app?vid=2736b34b-98dd-4ca9-b701-f4278e5f6e64"},"vehicle_type_id":"4","last_reported":1767175889,"current_range_meters":10800,"station_id":"ce4bhsh2rcd13ifvqi2g","pricing_plan_id":"cebpf4jnsgd1na2vs0mg"},{"bike_id":"8c27f8dd-49de-48cb-b4c0-2c146ce86148","system_id":"levelo_inurba_marseille","lat":43.2988,"lon":5.38155,"is_reserved":false,"is_disabled":false,"rental_uris":{"android":"levelo://app?vid=8c27f8dd-49de-48cb-b4c0-2c146ce86148","ios":"levelo://app?vid=8c27f8dd-49de-48cb-b4c0-2c146ce86148"},"vehicle_type_id":"4","last_reported":1767175889,"current_range_meters":10800,"station_id":"ce4bgj12rcd13ifvqbc0","pricing_plan_id":"cebpf4jnsgd1na2vs0mg"},{"bike_id":"7cc08dd6-826c-4451-a490-86ca460ba99b","system_id":"levelo_inurba_marseille","lat":43.32119,"lon":5.36754,"is_reserved":false,"is_disabled":false,"rental_uris":{"android":"levelo://app?vid=7cc08dd6-826c-4451-a490-86ca460ba99b","ios":"levelo://app?vid=7cc08dd6-826c-4451-a490-86ca460ba99b"},"vehicle_type_id":"4","last_reported":1767175889,"current_range_meters":10800,"station_id":"ce4bhrh2rcd13ifvqhug","pricing_plan_id":"cebpf4jnsgd1na2vs0mg"},{"bike_id":"a35d5653-feaa-42cb-af3b-1f77a65748ee","system_id":"levelo_inurba_marseille","lat":43.29775,"lon":5.3711,"is_reserved":false,"is_disabled":false,"rental_uris":{"android":"levelo://app?vid=a35d5653-feaa-42cb-af3b-1f77a65748ee","ios":"levelo://app?vid=a35d5653-feaa-42cb-af3b-1f77a65748ee"},"vehicle_type_id":"4","last_reported":1767175889,"current_range_meters":10800,"station_id":"ce4bgop2rcd13ifvqc1g","pricing_plan_id":"cebpf4jnsgd1na2vs0mg"},{"bike_id":"d8196cf8-2f9e-4fc6-a13e-9853e843aed7","system_id":"levelo_inurba_marseille","lat":43.2861,"lon":5.37071,"is_reserved":false,"is_disabled":false,"rental_uris":{"android":"levelo://app?vid=d8196cf8-2f9e-4fc6-a13e-9853e843aed7","ios":"levelo://app?vid=d8196cf8-2f9e-4fc6-a13e-9853e843aed7"},"vehicle_type_id":"4","last_reported":1767175889,"current_range_meters":10800,"station_id":"ce4bht12rcd13ifvqi60","pricing_plan_id":"cebpf4jnsgd1na2vs0mg"},{"bike_id":"a7df6d51-aeb4-4f6e-a38b-46dae1f38f36","system_id":"levelo_inurba_marseille","lat":43.21747,"lon":5.34607,"is_reserved":false,"is_disabled":false,"rental_uris":{"android":"levelo://app?vid=a7df6d51-aeb4-4f6e-a38b-46dae1f38f36","ios":"levelo://app?vid=a7df6d51-aeb4-4f6e-a38b-46dae1f38f36"},"vehicle_type_id":"4","last_reported":1767175889,"current_range_meters":10800,"station_id":"st_cvj6r9ubvosntc0bgbag","pricing_plan_id":"cebpf4jnsgd1na2vs0mg"},{"bike_id":"5265762e-9468-4f8e-963d-e1d647f4d72d","system_id":"levelo_inurba_marseille","lat":43.337444,"lon":5.374475,"is_reserved":false,"is_disabled":false,"rental_uris":{"android":"levelo://app?vid=5265762e-9468-4f8e-963d-e1d647f4d72d","ios":"levelo://app?vid=5265762e-9468-4f8e-963d-e1d647f4d72d"},"vehicle_type_id":"4","last_reported":1767175889,"current_range_meters":11200,"station_id":"","pricing_plan_id":"cebpf4jnsgd1na2vs0mg"},{"bike_id":"581a6ab3-180f-44bd-a4a1-a92ae04d5d4e","system_id":"levelo_inurba_marseille","lat":43.21759,"lon":5.34606,"is_reserved":false,"is_disabled":false,"rental_uris":{"android":"levelo://app?vid=581a6ab3-180f-44bd-a4a1-a92ae04d5d4e","ios":"levelo://app?vid=581a6ab3-180f-44bd-a4a1-a92ae04d5d4e"},"vehicle_type_id":"4","last_reported":1767175889,"current_range_meters":11200,"station_id":"st_cvj6r9ubvosntc0bgbag","pricing_plan_id":"cebpf4jnsgd1na2vs0mg"},{"bike_id":"e93c83d5-bafc-41ab-b80f-422d8d8d6d2a","system_id":"levelo_inurba_marseille","lat":43.26848,"lon":5.40078,"is_reserved":false,"is_disabled":false,"rental_uris":{"android":"levelo://app?vid=e93c83d5-bafc-41ab-b80f-422d8d8d6d2a","ios":"levelo://app?vid=e93c83d5-bafc-41ab-b80f-422d8d8d6d2a"},"vehicle_type_id":"4","last_reported":1767175889,"current_range_meters":11200,"station_id":"","pricing_plan_id":"cebpf4jnsgd1na2vs0mg"},{"bike_id":"950c0338-ee03-4bb1-82b4-c4470bbb4acc","system_id":"levelo_inurba_marseille","lat":43.312361,"lon":5.368527,"is_reserved":false,"is_disabled":false,"rental_uris":{"android":"levelo://app?vid=950c0338-ee03-4bb1-82b4-c4470bbb4acc","ios":"levelo://app?vid=950c0338-ee03-4bb1-82b4-c4470bbb4acc"},"vehicle_type_id":"4","last_reported":1767175889,"current_range_meters":11200,"station_id":"ce4bgl92rcd13ifvqbq0","pricing_plan_id":"cebpf4jnsgd1na2vs0mg"},{"bike_id":"88a68b6d-8756-45fd-96f7-5781a12630ee","system_id":"levelo_inurba_marseille","lat":43.22554,"lon":5.41642,"is_reserved":false,"is_disabled":false,"rental_uris":{"android":"levelo://app?vid=88a68b6d-8756-45fd-96f7-5781a12630ee","ios":"levelo://app?vid=88a68b6d-8756-45fd-96f7-5781a12630ee"},"vehicle_type_id":"4","last_reported":1767175889,"current_range_meters":11200,"station_id":"st_d2o4gvlbi1j2169b742g","pricing_plan_id":"cebpf4jnsgd1na2vs0mg"},{"bike_id":"4dd2279e-ba48-4f3b-b6c2-c6a46b94d1bc","system_id":"levelo_inurba_marseille","lat":43.27963,"lon":5.38722,"is_reserved":false,"is_disabled":false,"rental_uris":{"android":"levelo://app?vid=4dd2279e-ba48-4f3b-b6c2-c6a46b94d1bc","ios":"levelo://app?vid=4dd2279e-ba48-4f3b-b6c2-c6a46b94d1bc"},"vehicle_type_id":"4","last_reported":1767175889,"current_range_meters":11200,"station_id":"ce4bhg12rcd13ifvqf80","pricing_plan_id":"cebpf4jnsgd1na2vs0mg"},{"bike_id":"4372a42a-b334-4e8f-9141-9b6d15dd3e03","system_id":"levelo_inurba_marseille","lat":43.28473,"lon":5.48396,"is_reserved":false,"is_disabled":false,"rental_uris":{"android":"levelo://app?vid=4372a42a-b334-4e8f-9141-9b6d15dd3e03","ios":"levelo://app?vid=4372a42a-b334-4e8f-9141-9b6d15dd3e03"},"vehicle_type_id":"4","last_reported":1767175889,"current_range_meters":11200,"station_id":"","pricing_plan_id":"cebpf4jnsgd1na2vs0mg"},{"bike_id":"13c6f779-0fa7-435d-8f91-e79ded009d19","system_id":"levelo_inurba_marseille","lat":43.29278,"lon":5.36858,"is_reserved":false,"is_disabled":false,"rental_uris":{"android":"levelo://app?vid=13c6f779-0fa7-435d-8f91-e79ded009d19","ios":"levelo://app?vid=13c6f779-0fa7-435d-8f91-e79ded009d19"},"vehicle_type_id":"4","last_reported":1767175889,"current_range_meters":11200,"station_id":"ce4bhbp2rcd13ifvqesg","pricing_plan_id":"cebpf4jnsgd1na2vs0mg"},{"bike_id":"6d34a40a-3c31-4e57-aba7-ad6f30894876","system_id":"levelo_inurba_marseille","lat":43.299153,"lon":5.374393,"is_reserved":false,"is_disabled":false,"rental_uris":{"android":"levelo://app?vid=6d34a40a-3c31-4e57-aba7-ad6f30894876","ios":"levelo://app?vid=6d34a40a-3c31-4e57-aba7-ad6f30894876"},"vehicle_type_id":"4","last_reported":1767175889,"current_range_meters":11200,"station_id":"ce4bgjh2rcd13ifvqbg0","pricing_plan_id":"cebpf4jnsgd1na2vs0mg"},{"bike_id":"96657df9-7d68-4cd8-9f06-a5e501866c49","system_id":"levelo_inurba_marseille","lat":43.29301,"lon":5.37545,"is_reserved":false,"is_disabled":false,"rental_uris":{"android":"levelo://app?vid=96657df9-7d68-4cd8-9f06-a5e501866c49","ios":"levelo://app?vid=96657df9-7d68-4cd8-9f06-a5e501866c49"},"vehicle_type_id":"4","last_reported":1767175889,"current_range_meters":11200,"station_id":"","pricing_plan_id":"cebpf4jnsgd1na2vs0mg"},{"bike_id":"cf61d156-dac6-4f0e-b382-70446db78ff3","system_id":"levelo_inurba_marseille","lat":43.32363,"lon":5.36745,"is_reserved":false,"is_disabled":false,"rental_uris":{"android":"levelo://app?vid=cf61d156-dac6-4f0e-b382-70446db78ff3","ios":"levelo://app?vid=cf61d156-dac6-4f0e-b382-70446db78ff3"},"vehicle_type_id":"4","last_reported":1767175889,"current_range_meters":11200,"station_id":"ce4bhsh2rcd13ifvqi2g","pricing_plan_id":"cebpf4jnsgd1na2vs0mg"},{"bike_id":"650cf425-f87e-4c30-9156-354d5fef94cd","system_id":"levelo_inurba_marseille","lat":43.30131,"lon":5.36752,"is_reserved":false,"is_disabled":false,"rental_uris":{"android":"levelo://app?vid=650cf425-f87e-4c30-9156-354d5fef94cd","ios":"levelo://app?vid=650cf425-f87e-4c30-9156-354d5fef94cd"},"vehicle_type_id":"4","last_reported":1767175889,"current_range_meters":11200,"station_id":"","pricing_plan_id":"cebpf4jnsgd1na2vs0mg"},{"bike_id":"d49fd2c9-dca5-4864-87e0-359520dd27b8","system_id":"levelo_inurba_marseille","lat":43.26125,"lon":5.39775,"is_reserved":false,"is_disabled":false,"rental_uris":{"android":"levelo://app?vid=d49fd2c9-dca5-4864-87e0-359520dd27b8","ios":"levelo://app?vid=d49fd2c9-dca5-4864-87e0-359520dd27b8"},"vehicle_type_id":"4","last_reported":1767175889,"current_range_meters":11200,"station_id":"","pricing_plan_id":"cebpf4jnsgd1na2vs0mg"},{"bike_id":"b665ea36-bb99-4c82-9dd0-86ffdf91d10c","system_id":"levelo_inurba_marseille","lat":43.28469,"lon":5.38413,"is_reserved":false,"is_disabled":false,"rental_uris":{"android":"levelo://app?vid=b665ea36-bb99-4c82-9dd0-86ffdf91d10c","ios":"levelo://app?vid=b665ea36-bb99-4c82-9dd0-86ffdf91d10c"},"vehicle_type_id":"4","last_reported":1767175889,"current_range_meters":11600,"station_id":"ce4bh512rcd13ifvqe3g","pricing_plan_id":"cebpf4jnsgd1na2vs0mg"},{"bike_id":"e6dbe591-2fd4-4b2d-aa25-179a088493ea","system_id":"levelo_inurba_marseille","lat":43.225353,"lon":5.348308,"is_reserved":false,"is_disabled":false,"rental_uris":{"android":"levelo://app?vid=e6dbe591-2fd4-4b2d-aa25-179a088493ea","ios":"levelo://app?vid=e6dbe591-2fd4-4b2d-aa25-179a088493ea"},"vehicle_type_id":"4","last_reported":1767175889,"current_range_meters":11600,"station_id":"","pricing_plan_id":"cebpf4jnsgd1na2vs0mg"},{"bike_id":"4ead0183-1449-429b-8c37-b92467e494be","system_id":"levelo_inurba_marseille","lat":43.28487,"lon":5.38408,"is_reserved":false,"is_disabled":false,"rental_uris":{"android":"levelo://app?vid=4ead0183-1449-429b-8c37-b92467e494be","ios":"levelo://app?vid=4ead0183-1449-429b-8c37-b92467e494be"},"vehicle_type_id":"4","last_reported":1767175889,"current_range_meters":11600,"station_id":"ce4bh512rcd13ifvqe3g","pricing_plan_id":"cebpf4jnsgd1na2vs0mg"},{"bike_id":"f1c6d68f-f9d3-4e50-9c33-50830b5803db","system_id":"levelo_inurba_marseille","lat":43.29683,"lon":5.37285,"is_reserved":false,"is_disabled":true,"rental_uris":{"android":"levelo://app?vid=f1c6d68f-f9d3-4e50-9c33-50830b5803db","ios":"levelo://app?vid=f1c6d68f-f9d3-4e50-9c33-50830b5803db"},"vehicle_type_id":"4","last_reported":1767175889,"current_range_meters":11600,"station_id":"ce4bgk12rcd13ifvqbj0","pricing_plan_id":"cebpf4jnsgd1na2vs0mg"},{"bike_id":"ab98afa8-4907-4b9f-b6c6-75e71a064cde","system_id":"levelo_inurba_marseille","lat":43.257222,"lon":5.411114,"is_reserved":false,"is_disabled":true,"rental_uris":{"android":"levelo://app?vid=ab98afa8-4907-4b9f-b6c6-75e71a064cde","ios":"levelo://app?vid=ab98afa8-4907-4b9f-b6c6-75e71a064cde"},"vehicle_type_id":"4","last_reported":1767175889,"current_range_meters":11600,"station_id":"ce4bhkp2rcd13ifvqgd0","pricing_plan_id":"cebpf4jnsgd1na2vs0mg"},{"bike_id":"eb33853a-99e6-4a64-b402-a98a4eae2241","system_id":"levelo_inurba_marseille","lat":43.29671,"lon":5.38056,"is_reserved":false,"is_disabled":false,"rental_uris":{"android":"levelo://app?vid=eb33853a-99e6-4a64-b402-a98a4eae2241","ios":"levelo://app?vid=eb33853a-99e6-4a64-b402-a98a4eae2241"},"vehicle_type_id":"4","last_reported":1767175889,"current_range_meters":11600,"station_id":"","pricing_plan_id":"cebpf4jnsgd1na2vs0mg"},{"bike_id":"b0293ba1-9759-452c-bd6f-a00a4fe053e4","system_id":"levelo_inurba_marseille","lat":43.25561,"lon":5.38232,"is_reserved":false,"is_disabled":false,"rental_uris":{"android":"levelo://app?vid=b0293ba1-9759-452c-bd6f-a00a4fe053e4","ios":"levelo://app?vid=b0293ba1-9759-452c-bd6f-a00a4fe053e4"},"vehicle_type_id":"4","last_reported":1767175889,"current_range_meters":11600,"station_id":"ce4bhih2rcd13ifvqfs0","pricing_plan_id":"cebpf4jnsgd1na2vs0mg"},{"bike_id":"34a0b96e-9418-4a8b-a5f1-b6059f519e59","system_id":"levelo_inurba_marseille","lat":43.29909,"lon":5.37489,"is_reserved":false,"is_disabled":false,"rental_uris":{"android":"levelo://app?vid=34a0b96e-9418-4a8b-a5f1-b6059f519e59","ios":"levelo://app?vid=34a0b96e-9418-4a8b-a5f1-b6059f519e59"},"vehicle_type_id":"4","last_reported":1767175889,"current_range_meters":11600,"station_id":"ce4bgjh2rcd13ifvqbg0","pricing_plan_id":"cebpf4jnsgd1na2vs0mg"},{"bike_id":"090deb3c-b463-4496-9a6a-019b5e498763","system_id":"levelo_inurba_marseille","lat":43.32348,"lon":5.36736,"is_reserved":false,"is_disabled":false,"rental_uris":{"android":"levelo://app?vid=090deb3c-b463-4496-9a6a-019b5e498763","ios":"levelo://app?vid=090deb3c-b463-4496-9a6a-019b5e498763"},"vehicle_type_id":"4","last_reported":1767175889,"current_range_meters":12000,"station_id":"ce4bhsh2rcd13ifvqi2g","pricing_plan_id":"cebpf4jnsgd1na2vs0mg"},{"bike_id":"eb87c023-366e-46cf-9b32-bbf4676ca280","system_id":"levelo_inurba_marseille","lat":43.284703,"lon":5.38426,"is_reserved":false,"is_disabled":false,"rental_uris":{"android":"levelo://app?vid=eb87c023-366e-46cf-9b32-bbf4676ca280","ios":"levelo://app?vid=eb87c023-366e-46cf-9b32-bbf4676ca280"},"vehicle_type_id":"4","last_reported":1767175889,"current_range_meters":12000,"station_id":"ce4bh512rcd13ifvqe3g","pricing_plan_id":"cebpf4jnsgd1na2vs0mg"},{"bike_id":"a827215d-ae9a-42fa-b1c6-77e2c3b6fa6a","system_id":"levelo_inurba_marseille","lat":43.28428,"lon":5.39225,"is_reserved":false,"is_disabled":false,"rental_uris":{"android":"levelo://app?vid=a827215d-ae9a-42fa-b1c6-77e2c3b6fa6a","ios":"levelo://app?vid=a827215d-ae9a-42fa-b1c6-77e2c3b6fa6a"},"vehicle_type_id":"4","last_reported":1767175889,"current_range_meters":12000,"station_id":"ce4bhoh2rcd13ifvqh5g","pricing_plan_id":"cebpf4jnsgd1na2vs0mg"},{"bike_id":"8fa53ddb-80a9-4b81-a17d-6b07554edef4","system_id":"levelo_inurba_marseille","lat":43.28474,"lon":5.48396,"is_reserved":false,"is_disabled":false,"rental_uris":{"android":"levelo://app?vid=8fa53ddb-80a9-4b81-a17d-6b07554edef4","ios":"levelo://app?vid=8fa53ddb-80a9-4b81-a17d-6b07554edef4"},"vehicle_type_id":"4","last_reported":1767175889,"current_range_meters":12000,"station_id":"st_d3svhcjqgbts73a3dn0g","pricing_plan_id":"cebpf4jnsgd1na2vs0mg"},{"bike_id":"c78b7752-9cb7-4b06-a8ef-1f65d9ce20cf","system_id":"levelo_inurba_marseille","lat":43.31648,"lon":5.38808,"is_reserved":false,"is_disabled":false,"rental_uris":{"android":"levelo://app?vid=c78b7752-9cb7-4b06-a8ef-1f65d9ce20cf","ios":"levelo://app?vid=c78b7752-9cb7-4b06-a8ef-1f65d9ce20cf"},"vehicle_type_id":"4","last_reported":1767175889,"current_range_meters":12000,"station_id":"","pricing_plan_id":"cebpf4jnsgd1na2vs0mg"},{"bike_id":"6bc1b359-3312-46fe-b4be-74e585c45cbe","system_id":"levelo_inurba_marseille","lat":43.28591,"lon":5.35133,"is_reserved":false,"is_disabled":false,"rental_uris":{"android":"levelo://app?vid=6bc1b359-3312-46fe-b4be-74e585c45cbe","ios":"levelo://app?vid=6bc1b359-3312-46fe-b4be-74e585c45cbe"},"vehicle_type_id":"4","last_reported":1767175889,"current_range_meters":12000,"station_id":"ce4bhch2rcd13ifvqeug","pricing_plan_id":"cebpf4jnsgd1na2vs0mg"},{"bike_id":"17ed143c-c6a8-4d0a-bc59-6cc80ba2c7cb","system_id":"levelo_inurba_marseille","lat":43.321078,"lon":5.367767,"is_reserved":false,"is_disabled":false,"rental_uris":{"android":"levelo://app?vid=17ed143c-c6a8-4d0a-bc59-6cc80ba2c7cb","ios":"levelo://app?vid=17ed143c-c6a8-4d0a-bc59-6cc80ba2c7cb"},"vehicle_type_id":"4","last_reported":1767175889,"current_range_meters":12000,"station_id":"ce4bhrh2rcd13ifvqhug","pricing_plan_id":"cebpf4jnsgd1na2vs0mg"},{"bike_id":"1e979309-d823-4aaf-b851-f1be8461cefe","system_id":"levelo_inurba_marseille","lat":43.28494,"lon":5.48413,"is_reserved":false,"is_disabled":false,"rental_uris":{"android":"levelo://app?vid=1e979309-d823-4aaf-b851-f1be8461cefe","ios":"levelo://app?vid=1e979309-d823-4aaf-b851-f1be8461cefe"},"vehicle_type_id":"4","last_reported":1767175889,"current_range_meters":12000,"station_id":"st_d3svhcjqgbts73a3dn0g","pricing_plan_id":"cebpf4jnsgd1na2vs0mg"},{"bike_id":"f297e1d0-d6d1-470d-832a-7cfd1d704b5f","system_id":"levelo_inurba_marseille","lat":43.26942,"lon":5.393205,"is_reserved":false,"is_disabled":false,"rental_uris":{"android":"levelo://app?vid=f297e1d0-d6d1-470d-832a-7cfd1d704b5f","ios":"levelo://app?vid=f297e1d0-d6d1-470d-832a-7cfd1d704b5f"},"vehicle_type_id":"4","last_reported":1767175889,"current_range_meters":12000,"station_id":"","pricing_plan_id":"cebpf4jnsgd1na2vs0mg"},{"bike_id":"cb433141-825a-49cd-bbee-623c4e5c0fcd","system_id":"levelo_inurba_marseille","lat":43.2976,"lon":5.42773,"is_reserved":false,"is_disabled":false,"rental_uris":{"android":"levelo://app?vid=cb433141-825a-49cd-bbee-623c4e5c0fcd","ios":"levelo://app?vid=cb433141-825a-49cd-bbee-623c4e5c0fcd"},"vehicle_type_id":"4","last_reported":1767175889,"current_range_meters":12000,"station_id":"st_d3md5207bmas73dh9klg","pricing_plan_id":"cebpf4jnsgd1na2vs0mg"},{"bike_id":"3c554b37-3b38-4c8a-be17-815a87aa6e42","system_id":"levelo_inurba_marseille","lat":43.29793,"lon":5.38111,"is_reserved":false,"is_disabled":false,"rental_uris":{"android":"levelo://app?vid=3c554b37-3b38-4c8a-be17-815a87aa6e42","ios":"levelo://app?vid=3c554b37-3b38-4c8a-be17-815a87aa6e42"},"vehicle_type_id":"4","last_reported":1767175889,"current_range_meters":12400,"station_id":"ce4bgip2rcd13ifvqbb0","pricing_plan_id":"cebpf4jnsgd1na2vs0mg"},{"bike_id":"13685f43-1754-483c-bb4a-6ca7a26a0572","system_id":"levelo_inurba_marseille","lat":43.27047,"lon":5.38303,"is_reserved":false,"is_disabled":false,"rental_uris":{"android":"levelo://app?vid=13685f43-1754-483c-bb4a-6ca7a26a0572","ios":"levelo://app?vid=13685f43-1754-483c-bb4a-6ca7a26a0572"},"vehicle_type_id":"4","last_reported":1767175889,"current_range_meters":12400,"station_id":"st_d3n2fo6cfp8s73cte1j0","pricing_plan_id":"cebpf4jnsgd1na2vs0mg"},{"bike_id":"52a92f01-3af9-41e2-a986-7754e7a799bc","system_id":"levelo_inurba_marseille","lat":43.27939,"lon":5.41056,"is_reserved":false,"is_disabled":false,"rental_uris":{"android":"levelo://app?vid=52a92f01-3af9-41e2-a986-7754e7a799bc","ios":"levelo://app?vid=52a92f01-3af9-41e2-a986-7754e7a799bc"},"vehicle_type_id":"4","last_reported":1767175889,"current_range_meters":12400,"station_id":"ce4bhnp2rcd13ifvqh0g","pricing_plan_id":"cebpf4jnsgd1na2vs0mg"},{"bike_id":"4eb984c0-cff5-47bc-8a26-322fcbc1459a","system_id":"levelo_inurba_marseille","lat":43.28431,"lon":5.35007,"is_reserved":false,"is_disabled":false,"rental_uris":{"android":"levelo://app?vid=4eb984c0-cff5-47bc-8a26-322fcbc1459a","ios":"levelo://app?vid=4eb984c0-cff5-47bc-8a26-322fcbc1459a"},"vehicle_type_id":"4","last_reported":1767175889,"current_range_meters":12400,"station_id":"ce4bhbh2rcd13ifvqepg","pricing_plan_id":"cebpf4jnsgd1na2vs0mg"},{"bike_id":"af2a7b74-bf32-4aad-9dcb-4218a2af624c","system_id":"levelo_inurba_marseille","lat":43.2723,"lon":5.39168,"is_reserved":false,"is_disabled":false,"rental_uris":{"android":"levelo://app?vid=af2a7b74-bf32-4aad-9dcb-4218a2af624c","ios":"levelo://app?vid=af2a7b74-bf32-4aad-9dcb-4218a2af624c"},"vehicle_type_id":"4","last_reported":1767175889,"current_range_meters":12800,"station_id":"ce4bhhp2rcd13ifvqfm0","pricing_plan_id":"cebpf4jnsgd1na2vs0mg"},{"bike_id":"29c0e820-a6f7-4fcd-ba20-c0308f003eb5","system_id":"levelo_inurba_marseille","lat":43.287,"lon":5.36114,"is_reserved":false,"is_disabled":false,"rental_uris":{"android":"levelo://app?vid=29c0e820-a6f7-4fcd-ba20-c0308f003eb5","ios":"levelo://app?vid=29c0e820-a6f7-4fcd-ba20-c0308f003eb5"},"vehicle_type_id":"4","last_reported":1767175889,"current_range_meters":12800,"station_id":"cki0cbj6b192h4jlfktg","pricing_plan_id":"cebpf4jnsgd1na2vs0mg"},{"bike_id":"1ebd2a0c-42a1-4a60-8730-e1ef90962935","system_id":"levelo_inurba_marseille","lat":43.323475,"lon":5.367441,"is_reserved":false,"is_disabled":false,"rental_uris":{"android":"levelo://app?vid=1ebd2a0c-42a1-4a60-8730-e1ef90962935","ios":"levelo://app?vid=1ebd2a0c-42a1-4a60-8730-e1ef90962935"},"vehicle_type_id":"4","last_reported":1767175889,"current_range_meters":12800,"station_id":"ce4bhsh2rcd13ifvqi2g","pricing_plan_id":"cebpf4jnsgd1na2vs0mg"},{"bike_id":"39c3fce9-4693-477b-9fe8-8ad320e518a8","system_id":"levelo_inurba_marseille","lat":43.29581,"lon":5.36767,"is_reserved":false,"is_disabled":false,"rental_uris":{"android":"levelo://app?vid=39c3fce9-4693-477b-9fe8-8ad320e518a8","ios":"levelo://app?vid=39c3fce9-4693-477b-9fe8-8ad320e518a8"},"vehicle_type_id":"4","last_reported":1767175889,"current_range_meters":12800,"station_id":"ce4bgph2rcd13ifvqc2g","pricing_plan_id":"cebpf4jnsgd1na2vs0mg"},{"bike_id":"4e4be9e7-7142-4461-ad04-34a9693b261f","system_id":"levelo_inurba_marseille","lat":43.27037,"lon":5.42281,"is_reserved":false,"is_disabled":true,"rental_uris":{"android":"levelo://app?vid=4e4be9e7-7142-4461-ad04-34a9693b261f","ios":"levelo://app?vid=4e4be9e7-7142-4461-ad04-34a9693b261f"},"vehicle_type_id":"4","last_reported":1767175889,"current_range_meters":12800,"station_id":"ce4bhk92rcd13ifvqgb0","pricing_plan_id":"cebpf4jnsgd1na2vs0mg"},{"bike_id":"79b5f154-7cc7-44e6-a387-d261a3ea65b3","system_id":"levelo_inurba_marseille","lat":43.29877,"lon":5.36299,"is_reserved":false,"is_disabled":false,"rental_uris":{"android":"levelo://app?vid=79b5f154-7cc7-44e6-a387-d261a3ea65b3","ios":"levelo://app?vid=79b5f154-7cc7-44e6-a387-d261a3ea65b3"},"vehicle_type_id":"4","last_reported":1767175889,"current_range_meters":12800,"station_id":"ce4bgpp2rcd13ifvqc3g","pricing_plan_id":"cebpf4jnsgd1na2vs0mg"},{"bike_id":"e422d1e6-989b-48c2-be56-4107da9ba332","system_id":"levelo_inurba_marseille","lat":43.321021,"lon":5.367887,"is_reserved":false,"is_disabled":false,"rental_uris":{"android":"levelo://app?vid=e422d1e6-989b-48c2-be56-4107da9ba332","ios":"levelo://app?vid=e422d1e6-989b-48c2-be56-4107da9ba332"},"vehicle_type_id":"4","last_reported":1767175889,"current_range_meters":12800,"station_id":"ce4bhrh2rcd13ifvqhug","pricing_plan_id":"cebpf4jnsgd1na2vs0mg"},{"bike_id":"a8bf7206-098c-478f-955b-acfde0129a73","system_id":"levelo_inurba_marseille","lat":43.29968,"lon":5.37144,"is_reserved":false,"is_disabled":false,"rental_uris":{"android":"levelo://app?vid=a8bf7206-098c-478f-955b-acfde0129a73","ios":"levelo://app?vid=a8bf7206-098c-478f-955b-acfde0129a73"},"vehicle_type_id":"4","last_reported":1767175889,"current_range_meters":12800,"station_id":"ce4bgr92rcd13ifvqc7g","pricing_plan_id":"cebpf4jnsgd1na2vs0mg"},{"bike_id":"b5f80a1c-7345-44ae-9c2d-843287ace1f8","system_id":"levelo_inurba_marseille","lat":43.27433,"lon":5.42432,"is_reserved":false,"is_disabled":false,"rental_uris":{"android":"levelo://app?vid=b5f80a1c-7345-44ae-9c2d-843287ace1f8","ios":"levelo://app?vid=b5f80a1c-7345-44ae-9c2d-843287ace1f8"},"vehicle_type_id":"4","last_reported":1767175889,"current_range_meters":12800,"station_id":"","pricing_plan_id":"cebpf4jnsgd1na2vs0mg"},{"bike_id":"9e5dafc7-f2da-4d0b-b668-e32cc043ceb4","system_id":"levelo_inurba_marseille","lat":43.28047,"lon":5.40073,"is_reserved":false,"is_disabled":false,"rental_uris":{"android":"levelo://app?vid=9e5dafc7-f2da-4d0b-b668-e32cc043ceb4","ios":"levelo://app?vid=9e5dafc7-f2da-4d0b-b668-e32cc043ceb4"},"vehicle_type_id":"4","last_reported":1767175889,"current_range_meters":12800,"station_id":"","pricing_plan_id":"cebpf4jnsgd1na2vs0mg"},{"bike_id":"a02fb672-5bdf-46c8-9fc1-e8fcbc8dc4d2","system_id":"levelo_inurba_marseille","lat":43.303199,"lon":5.386564,"is_reserved":false,"is_disabled":false,"rental_uris":{"android":"levelo://app?vid=a02fb672-5bdf-46c8-9fc1-e8fcbc8dc4d2","ios":"levelo://app?vid=a02fb672-5bdf-46c8-9fc1-e8fcbc8dc4d2"},"vehicle_type_id":"4","last_reported":1767175889,"current_range_meters":12800,"station_id":"","pricing_plan_id":"cebpf4jnsgd1na2vs0mg"},{"bike_id":"d59e7b95-06d1-490f-ae32-f5d5c93174f7","system_id":"levelo_inurba_marseille","lat":43.217539,"lon":5.34605,"is_reserved":false,"is_disabled":false,"rental_uris":{"android":"levelo://app?vid=d59e7b95-06d1-490f-ae32-f5d5c93174f7","ios":"levelo://app?vid=d59e7b95-06d1-490f-ae32-f5d5c93174f7"},"vehicle_type_id":"4","last_reported":1767175889,"current_range_meters":12800,"station_id":"st_cvj6r9ubvosntc0bgbag","pricing_plan_id":"cebpf4jnsgd1na2vs0mg"},{"bike_id":"69c9fd5e-1c6d-4add-89e3-108c4539fbda","system_id":"levelo_inurba_marseille","lat":43.31056,"lon":5.37193,"is_reserved":false,"is_disabled":false,"rental_uris":{"android":"levelo://app?vid=69c9fd5e-1c6d-4add-89e3-108c4539fbda","ios":"levelo://app?vid=69c9fd5e-1c6d-4add-89e3-108c4539fbda"},"vehicle_type_id":"4","last_reported":1767175889,"current_range_meters":12800,"station_id":"st_d4kl2rp97mjs73e7tdfg","pricing_plan_id":"cebpf4jnsgd1na2vs0mg"},{"bike_id":"94e16f28-7dcf-4273-940d-294336091110","system_id":"levelo_inurba_marseille","lat":43.295538,"lon":5.381432,"is_reserved":false,"is_disabled":false,"rental_uris":{"android":"levelo://app?vid=94e16f28-7dcf-4273-940d-294336091110","ios":"levelo://app?vid=94e16f28-7dcf-4273-940d-294336091110"},"vehicle_type_id":"4","last_reported":1767175889,"current_range_meters":12800,"station_id":"","pricing_plan_id":"cebpf4jnsgd1na2vs0mg"},{"bike_id":"6c1151f0-0b27-4fc9-9cbd-910a520a44cf","system_id":"levelo_inurba_marseille","lat":43.24048,"lon":5.37808,"is_reserved":false,"is_disabled":false,"rental_uris":{"android":"levelo://app?vid=6c1151f0-0b27-4fc9-9cbd-910a520a44cf","ios":"levelo://app?vid=6c1151f0-0b27-4fc9-9cbd-910a520a44cf"},"vehicle_type_id":"4","last_reported":1767175889,"current_range_meters":12800,"station_id":"ce4bhnp2rcd13ifvqgvg","pricing_plan_id":"cebpf4jnsgd1na2vs0mg"},{"bike_id":"8e15f835-96b9-4ed8-b870-1159b1cdf3c7","system_id":"levelo_inurba_marseille","lat":43.25566,"lon":5.38237,"is_reserved":false,"is_disabled":false,"rental_uris":{"android":"levelo://app?vid=8e15f835-96b9-4ed8-b870-1159b1cdf3c7","ios":"levelo://app?vid=8e15f835-96b9-4ed8-b870-1159b1cdf3c7"},"vehicle_type_id":"4","last_reported":1767175889,"current_range_meters":12800,"station_id":"ce4bhih2rcd13ifvqfs0","pricing_plan_id":"cebpf4jnsgd1na2vs0mg"},{"bike_id":"f489c472-ee6d-42dd-8be8-3a531cfd3f02","system_id":"levelo_inurba_marseille","lat":43.28663,"lon":5.45524,"is_reserved":false,"is_disabled":false,"rental_uris":{"android":"levelo://app?vid=f489c472-ee6d-42dd-8be8-3a531cfd3f02","ios":"levelo://app?vid=f489c472-ee6d-42dd-8be8-3a531cfd3f02"},"vehicle_type_id":"4","last_reported":1767175889,"current_range_meters":12800,"station_id":"","pricing_plan_id":"cebpf4jnsgd1na2vs0mg"},{"bike_id":"2bb4d2d9-73cd-43c6-8fe2-a13856c29ad8","system_id":"levelo_inurba_marseille","lat":43.29623,"lon":5.37751,"is_reserved":false,"is_disabled":false,"rental_uris":{"android":"levelo://app?vid=2bb4d2d9-73cd-43c6-8fe2-a13856c29ad8","ios":"levelo://app?vid=2bb4d2d9-73cd-43c6-8fe2-a13856c29ad8"},"vehicle_type_id":"4","last_reported":1767175889,"current_range_meters":12800,"station_id":"ce4bgi92rcd13ifvqb90","pricing_plan_id":"cebpf4jnsgd1na2vs0mg"},{"bike_id":"db6d28d9-a96d-4c87-9186-bc8fab9306f5","system_id":"levelo_inurba_marseille","lat":43.28094,"lon":5.40652,"is_reserved":false,"is_disabled":false,"rental_uris":{"android":"levelo://app?vid=db6d28d9-a96d-4c87-9186-bc8fab9306f5","ios":"levelo://app?vid=db6d28d9-a96d-4c87-9186-bc8fab9306f5"},"vehicle_type_id":"4","last_reported":1767175889,"current_range_meters":12800,"station_id":"","pricing_plan_id":"cebpf4jnsgd1na2vs0mg"},{"bike_id":"d884c4a6-0be1-44d1-a381-33637463734c","system_id":"levelo_inurba_marseille","lat":43.29606,"lon":5.37735,"is_reserved":false,"is_disabled":false,"rental_uris":{"android":"levelo://app?vid=d884c4a6-0be1-44d1-a381-33637463734c","ios":"levelo://app?vid=d884c4a6-0be1-44d1-a381-33637463734c"},"vehicle_type_id":"4","last_reported":1767175889,"current_range_meters":13600,"station_id":"ce4bgi92rcd13ifvqb90","pricing_plan_id":"cebpf4jnsgd1na2vs0mg"},{"bike_id":"6895ecdd-1253-423c-93ba-1d2572fa6898","system_id":"levelo_inurba_marseille","lat":43.270565,"lon":5.38306,"is_reserved":false,"is_disabled":false,"rental_uris":{"android":"levelo://app?vid=6895ecdd-1253-423c-93ba-1d2572fa6898","ios":"levelo://app?vid=6895ecdd-1253-423c-93ba-1d2572fa6898"},"vehicle_type_id":"4","last_reported":1767175889,"current_range_meters":13600,"station_id":"st_d3n2fo6cfp8s73cte1j0","pricing_plan_id":"cebpf4jnsgd1na2vs0mg"},{"bike_id":"ae16ff2f-039d-4cdf-a936-aa3dd9f21d44","system_id":"levelo_inurba_marseille","lat":43.27054,"lon":5.38304,"is_reserved":false,"is_disabled":false,"rental_uris":{"android":"levelo://app?vid=ae16ff2f-039d-4cdf-a936-aa3dd9f21d44","ios":"levelo://app?vid=ae16ff2f-039d-4cdf-a936-aa3dd9f21d44"},"vehicle_type_id":"4","last_reported":1767175889,"current_range_meters":13600,"station_id":"st_d3n2fo6cfp8s73cte1j0","pricing_plan_id":"cebpf4jnsgd1na2vs0mg"},{"bike_id":"ff8864c8-a009-4638-8215-25cbc945ccbf","system_id":"levelo_inurba_marseille","lat":43.31199,"lon":5.36766,"is_reserved":false,"is_disabled":false,"rental_uris":{"android":"levelo://app?vid=ff8864c8-a009-4638-8215-25cbc945ccbf","ios":"levelo://app?vid=ff8864c8-a009-4638-8215-25cbc945ccbf"},"vehicle_type_id":"4","last_reported":1767175889,"current_range_meters":13600,"station_id":"","pricing_plan_id":"cebpf4jnsgd1na2vs0mg"},{"bike_id":"960e2369-8cd0-4c59-b364-6788b7335a4c","system_id":"levelo_inurba_marseille","lat":43.24954,"lon":5.40506,"is_reserved":false,"is_disabled":false,"rental_uris":{"android":"levelo://app?vid=960e2369-8cd0-4c59-b364-6788b7335a4c","ios":"levelo://app?vid=960e2369-8cd0-4c59-b364-6788b7335a4c"},"vehicle_type_id":"4","last_reported":1767175889,"current_range_meters":13600,"station_id":"st_d2ngiaodas8pm72gd1h0","pricing_plan_id":"cebpf4jnsgd1na2vs0mg"},{"bike_id":"b42867a7-20ab-45bb-b25b-6428a15ddf1c","system_id":"levelo_inurba_marseille","lat":43.26517,"lon":5.37956,"is_reserved":false,"is_disabled":false,"rental_uris":{"android":"levelo://app?vid=b42867a7-20ab-45bb-b25b-6428a15ddf1c","ios":"levelo://app?vid=b42867a7-20ab-45bb-b25b-6428a15ddf1c"},"vehicle_type_id":"4","last_reported":1767175889,"current_range_meters":13600,"station_id":"","pricing_plan_id":"cebpf4jnsgd1na2vs0mg"},{"bike_id":"4b33b5cb-7bec-4712-9fcc-36239248ffed","system_id":"levelo_inurba_marseille","lat":43.271324,"lon":5.392498,"is_reserved":false,"is_disabled":false,"rental_uris":{"android":"levelo://app?vid=4b33b5cb-7bec-4712-9fcc-36239248ffed","ios":"levelo://app?vid=4b33b5cb-7bec-4712-9fcc-36239248ffed"},"vehicle_type_id":"4","last_reported":1767175889,"current_range_meters":13600,"station_id":"","pricing_plan_id":"cebpf4jnsgd1na2vs0mg"},{"bike_id":"a770eb5f-2a92-46a3-b6fe-450aef9acb4a","system_id":"levelo_inurba_marseille","lat":43.30132,"lon":5.43136,"is_reserved":false,"is_disabled":false,"rental_uris":{"android":"levelo://app?vid=a770eb5f-2a92-46a3-b6fe-450aef9acb4a","ios":"levelo://app?vid=a770eb5f-2a92-46a3-b6fe-450aef9acb4a"},"vehicle_type_id":"4","last_reported":1767175889,"current_range_meters":13600,"station_id":"st_d3js3co5814s73ftftug","pricing_plan_id":"cebpf4jnsgd1na2vs0mg"},{"bike_id":"0788e991-1623-4154-b614-e1261a941949","system_id":"levelo_inurba_marseille","lat":43.31272,"lon":5.37413,"is_reserved":false,"is_disabled":false,"rental_uris":{"android":"levelo://app?vid=0788e991-1623-4154-b614-e1261a941949","ios":"levelo://app?vid=0788e991-1623-4154-b614-e1261a941949"},"vehicle_type_id":"4","last_reported":1767175889,"current_range_meters":13600,"station_id":"","pricing_plan_id":"cebpf4jnsgd1na2vs0mg"},{"bike_id":"188c4151-53dd-4bab-95bc-e5bcb3b9b1d7","system_id":"levelo_inurba_marseille","lat":43.31071,"lon":5.37168,"is_reserved":false,"is_disabled":false,"rental_uris":{"android":"levelo://app?vid=188c4151-53dd-4bab-95bc-e5bcb3b9b1d7","ios":"levelo://app?vid=188c4151-53dd-4bab-95bc-e5bcb3b9b1d7"},"vehicle_type_id":"4","last_reported":1767175889,"current_range_meters":13600,"station_id":"st_d4kl2rp97mjs73e7tdfg","pricing_plan_id":"cebpf4jnsgd1na2vs0mg"},{"bike_id":"1a670a54-1840-4940-b62b-05b0e394ae95","system_id":"levelo_inurba_marseille","lat":43.28423,"lon":5.349894,"is_reserved":false,"is_disabled":false,"rental_uris":{"android":"levelo://app?vid=1a670a54-1840-4940-b62b-05b0e394ae95","ios":"levelo://app?vid=1a670a54-1840-4940-b62b-05b0e394ae95"},"vehicle_type_id":"4","last_reported":1767175889,"current_range_meters":13600,"station_id":"ce4bhbh2rcd13ifvqepg","pricing_plan_id":"cebpf4jnsgd1na2vs0mg"},{"bike_id":"f6b382f1-2f54-4f2a-8abd-265696951f1f","system_id":"levelo_inurba_marseille","lat":43.2961,"lon":5.37743,"is_reserved":false,"is_disabled":false,"rental_uris":{"android":"levelo://app?vid=f6b382f1-2f54-4f2a-8abd-265696951f1f","ios":"levelo://app?vid=f6b382f1-2f54-4f2a-8abd-265696951f1f"},"vehicle_type_id":"4","last_reported":1767175889,"current_range_meters":13600,"station_id":"ce4bgi92rcd13ifvqb90","pricing_plan_id":"cebpf4jnsgd1na2vs0mg"},{"bike_id":"a84afd0a-908a-4157-8314-d7fd13e08fd8","system_id":"levelo_inurba_marseille","lat":43.288595,"lon":5.425039,"is_reserved":false,"is_disabled":false,"rental_uris":{"android":"levelo://app?vid=a84afd0a-908a-4157-8314-d7fd13e08fd8","ios":"levelo://app?vid=a84afd0a-908a-4157-8314-d7fd13e08fd8"},"vehicle_type_id":"4","last_reported":1767175889,"current_range_meters":13600,"station_id":"st_d3b462108ojc7389ooeg","pricing_plan_id":"cebpf4jnsgd1na2vs0mg"},{"bike_id":"36fc440a-33a3-4913-a0d8-b4b76e46bd70","system_id":"levelo_inurba_marseille","lat":43.32218,"lon":5.39434,"is_reserved":false,"is_disabled":false,"rental_uris":{"android":"levelo://app?vid=36fc440a-33a3-4913-a0d8-b4b76e46bd70","ios":"levelo://app?vid=36fc440a-33a3-4913-a0d8-b4b76e46bd70"},"vehicle_type_id":"4","last_reported":1767175889,"current_range_meters":13600,"station_id":"","pricing_plan_id":"cebpf4jnsgd1na2vs0mg"},{"bike_id":"c298ec44-a557-4986-832f-c9048976c4e7","system_id":"levelo_inurba_marseille","lat":43.27325,"lon":5.39133,"is_reserved":false,"is_disabled":false,"rental_uris":{"android":"levelo://app?vid=c298ec44-a557-4986-832f-c9048976c4e7","ios":"levelo://app?vid=c298ec44-a557-4986-832f-c9048976c4e7"},"vehicle_type_id":"4","last_reported":1767175889,"current_range_meters":13600,"station_id":"ce4bhgp2rcd13ifvqfe0","pricing_plan_id":"cebpf4jnsgd1na2vs0mg"},{"bike_id":"f7907c1c-af28-49fc-9bf1-6ea5c9b9576d","system_id":"levelo_inurba_marseille","lat":43.281533,"lon":5.426376,"is_reserved":false,"is_disabled":true,"rental_uris":{"android":"levelo://app?vid=f7907c1c-af28-49fc-9bf1-6ea5c9b9576d","ios":"levelo://app?vid=f7907c1c-af28-49fc-9bf1-6ea5c9b9576d"},"vehicle_type_id":"4","last_reported":1767175889,"current_range_meters":14000,"station_id":"ce4bhnh2rcd13ifvqgug","pricing_plan_id":"cebpf4jnsgd1na2vs0mg"},{"bike_id":"14d851ab-a12d-4956-a0aa-19036330573c","system_id":"levelo_inurba_marseille","lat":43.31257,"lon":5.3683,"is_reserved":false,"is_disabled":false,"rental_uris":{"android":"levelo://app?vid=14d851ab-a12d-4956-a0aa-19036330573c","ios":"levelo://app?vid=14d851ab-a12d-4956-a0aa-19036330573c"},"vehicle_type_id":"4","last_reported":1767175889,"current_range_meters":14000,"station_id":"ce4bgl92rcd13ifvqbq0","pricing_plan_id":"cebpf4jnsgd1na2vs0mg"},{"bike_id":"542b2ba6-9fa8-48fd-b661-4556081d0be1","system_id":"levelo_inurba_marseille","lat":43.30915,"lon":5.36852,"is_reserved":false,"is_disabled":false,"rental_uris":{"android":"levelo://app?vid=542b2ba6-9fa8-48fd-b661-4556081d0be1","ios":"levelo://app?vid=542b2ba6-9fa8-48fd-b661-4556081d0be1"},"vehicle_type_id":"4","last_reported":1767175889,"current_range_meters":14000,"station_id":"ce4bgn92rcd13ifvqbvg","pricing_plan_id":"cebpf4jnsgd1na2vs0mg"},{"bike_id":"5a24ebdf-e074-4fad-9347-7af5dcf172a0","system_id":"levelo_inurba_marseille","lat":43.29314,"lon":5.37163,"is_reserved":false,"is_disabled":false,"rental_uris":{"android":"levelo://app?vid=5a24ebdf-e074-4fad-9347-7af5dcf172a0","ios":"levelo://app?vid=5a24ebdf-e074-4fad-9347-7af5dcf172a0"},"vehicle_type_id":"4","last_reported":1767175889,"current_range_meters":14000,"station_id":"ce4bgh92rcd13ifvqb40","pricing_plan_id":"cebpf4jnsgd1na2vs0mg"},{"bike_id":"6c79615e-7c83-42c4-a9b0-fc804106b119","system_id":"levelo_inurba_marseille","lat":43.30539,"lon":5.36526,"is_reserved":false,"is_disabled":false,"rental_uris":{"android":"levelo://app?vid=6c79615e-7c83-42c4-a9b0-fc804106b119","ios":"levelo://app?vid=6c79615e-7c83-42c4-a9b0-fc804106b119"},"vehicle_type_id":"4","last_reported":1767175889,"current_range_meters":14000,"station_id":"ce4bgs12rcd13ifvqcag","pricing_plan_id":"cebpf4jnsgd1na2vs0mg"},{"bike_id":"9b31c737-9919-4753-902d-88d0177986b8","system_id":"levelo_inurba_marseille","lat":43.288589,"lon":5.425222,"is_reserved":false,"is_disabled":false,"rental_uris":{"android":"levelo://app?vid=9b31c737-9919-4753-902d-88d0177986b8","ios":"levelo://app?vid=9b31c737-9919-4753-902d-88d0177986b8"},"vehicle_type_id":"4","last_reported":1767175889,"current_range_meters":14000,"station_id":"st_d3b462108ojc7389ooeg","pricing_plan_id":"cebpf4jnsgd1na2vs0mg"},{"bike_id":"e98ec8e2-fce4-4b38-942e-3bf912997c04","system_id":"levelo_inurba_marseille","lat":43.307404,"lon":5.424419,"is_reserved":false,"is_disabled":false,"rental_uris":{"android":"levelo://app?vid=e98ec8e2-fce4-4b38-942e-3bf912997c04","ios":"levelo://app?vid=e98ec8e2-fce4-4b38-942e-3bf912997c04"},"vehicle_type_id":"4","last_reported":1767175889,"current_range_meters":14000,"station_id":"st_cvj6ca6bvosntc0bfgr0","pricing_plan_id":"cebpf4jnsgd1na2vs0mg"},{"bike_id":"923576b8-5c9b-40cd-a783-f2d0fa12d891","system_id":"levelo_inurba_marseille","lat":43.23193,"lon":5.35571,"is_reserved":false,"is_disabled":false,"rental_uris":{"android":"levelo://app?vid=923576b8-5c9b-40cd-a783-f2d0fa12d891","ios":"levelo://app?vid=923576b8-5c9b-40cd-a783-f2d0fa12d891"},"vehicle_type_id":"4","last_reported":1767175889,"current_range_meters":14000,"station_id":"ce4bhu92rcd13ifvqi70","pricing_plan_id":"cebpf4jnsgd1na2vs0mg"},{"bike_id":"e776d74e-29e5-4fe1-9900-61945fd518ba","system_id":"levelo_inurba_marseille","lat":43.273177,"lon":5.390748,"is_reserved":false,"is_disabled":false,"rental_uris":{"android":"levelo://app?vid=e776d74e-29e5-4fe1-9900-61945fd518ba","ios":"levelo://app?vid=e776d74e-29e5-4fe1-9900-61945fd518ba"},"vehicle_type_id":"4","last_reported":1767175889,"current_range_meters":14000,"station_id":"ce4bhgp2rcd13ifvqfe0","pricing_plan_id":"cebpf4jnsgd1na2vs0mg"},{"bike_id":"5ec5f671-59c3-4ecd-9999-1ced96b35817","system_id":"levelo_inurba_marseille","lat":43.24169,"lon":5.36398,"is_reserved":false,"is_disabled":false,"rental_uris":{"android":"levelo://app?vid=5ec5f671-59c3-4ecd-9999-1ced96b35817","ios":"levelo://app?vid=5ec5f671-59c3-4ecd-9999-1ced96b35817"},"vehicle_type_id":"4","last_reported":1767175889,"current_range_meters":14400,"station_id":"cpo36qri1sfpv3e86is0","pricing_plan_id":"cebpf4jnsgd1na2vs0mg"},{"bike_id":"2f6c6f7b-f9f8-4f76-b9a7-b08a8eff2692","system_id":"levelo_inurba_marseille","lat":43.21759,"lon":5.34591,"is_reserved":false,"is_disabled":false,"rental_uris":{"android":"levelo://app?vid=2f6c6f7b-f9f8-4f76-b9a7-b08a8eff2692","ios":"levelo://app?vid=2f6c6f7b-f9f8-4f76-b9a7-b08a8eff2692"},"vehicle_type_id":"4","last_reported":1767175889,"current_range_meters":14400,"station_id":"st_cvj6r9ubvosntc0bgbag","pricing_plan_id":"cebpf4jnsgd1na2vs0mg"},{"bike_id":"e5b147aa-1a53-4826-bfd4-95d7bbcd3943","system_id":"levelo_inurba_marseille","lat":43.21744,"lon":5.34622,"is_reserved":false,"is_disabled":false,"rental_uris":{"android":"levelo://app?vid=e5b147aa-1a53-4826-bfd4-95d7bbcd3943","ios":"levelo://app?vid=e5b147aa-1a53-4826-bfd4-95d7bbcd3943"},"vehicle_type_id":"4","last_reported":1767175889,"current_range_meters":14400,"station_id":"st_cvj6r9ubvosntc0bgbag","pricing_plan_id":"cebpf4jnsgd1na2vs0mg"},{"bike_id":"5d76c1ba-1a84-4b97-813c-5fad3301fab9","system_id":"levelo_inurba_marseille","lat":43.29865,"lon":5.36286,"is_reserved":false,"is_disabled":false,"rental_uris":{"android":"levelo://app?vid=5d76c1ba-1a84-4b97-813c-5fad3301fab9","ios":"levelo://app?vid=5d76c1ba-1a84-4b97-813c-5fad3301fab9"},"vehicle_type_id":"4","last_reported":1767175889,"current_range_meters":14400,"station_id":"ce4bgpp2rcd13ifvqc3g","pricing_plan_id":"cebpf4jnsgd1na2vs0mg"},{"bike_id":"cda1f6ab-e0ee-4786-9e08-c7bcb481ee5b","system_id":"levelo_inurba_marseille","lat":43.296024,"lon":5.381048,"is_reserved":false,"is_disabled":false,"rental_uris":{"android":"levelo://app?vid=cda1f6ab-e0ee-4786-9e08-c7bcb481ee5b","ios":"levelo://app?vid=cda1f6ab-e0ee-4786-9e08-c7bcb481ee5b"},"vehicle_type_id":"4","last_reported":1767175889,"current_range_meters":14400,"station_id":"ce4bgl12rcd13ifvqbo0","pricing_plan_id":"cebpf4jnsgd1na2vs0mg"},{"bike_id":"1e84f046-0baa-4335-a396-95c370bb5153","system_id":"levelo_inurba_marseille","lat":43.23781,"lon":5.36644,"is_reserved":false,"is_disabled":false,"rental_uris":{"android":"levelo://app?vid=1e84f046-0baa-4335-a396-95c370bb5153","ios":"levelo://app?vid=1e84f046-0baa-4335-a396-95c370bb5153"},"vehicle_type_id":"4","last_reported":1767175889,"current_range_meters":14400,"station_id":"st_d3nk18o9ro0c73en2l3g","pricing_plan_id":"cebpf4jnsgd1na2vs0mg"},{"bike_id":"71feabac-18bb-4c38-9f1c-553d18ed10d6","system_id":"levelo_inurba_marseille","lat":43.29603,"lon":5.37178,"is_reserved":false,"is_disabled":false,"rental_uris":{"android":"levelo://app?vid=71feabac-18bb-4c38-9f1c-553d18ed10d6","ios":"levelo://app?vid=71feabac-18bb-4c38-9f1c-553d18ed10d6"},"vehicle_type_id":"4","last_reported":1767175889,"current_range_meters":14400,"station_id":"ce4bgnh2rcd13ifvqc0g","pricing_plan_id":"cebpf4jnsgd1na2vs0mg"},{"bike_id":"bb7db191-654c-498e-a9cc-30eab93c24b9","system_id":"levelo_inurba_marseille","lat":43.23768,"lon":5.36656,"is_reserved":false,"is_disabled":false,"rental_uris":{"android":"levelo://app?vid=bb7db191-654c-498e-a9cc-30eab93c24b9","ios":"levelo://app?vid=bb7db191-654c-498e-a9cc-30eab93c24b9"},"vehicle_type_id":"4","last_reported":1767175889,"current_range_meters":14400,"station_id":"st_d3nk18o9ro0c73en2l3g","pricing_plan_id":"cebpf4jnsgd1na2vs0mg"},{"bike_id":"008c85f9-fdad-438f-a8d4-9de0cb61fd8e","system_id":"levelo_inurba_marseille","lat":43.29267,"lon":5.3764,"is_reserved":false,"is_disabled":false,"rental_uris":{"android":"levelo://app?vid=008c85f9-fdad-438f-a8d4-9de0cb61fd8e","ios":"levelo://app?vid=008c85f9-fdad-438f-a8d4-9de0cb61fd8e"},"vehicle_type_id":"4","last_reported":1767175889,"current_range_meters":14400,"station_id":"ce4bgi12rcd13ifvqb80","pricing_plan_id":"cebpf4jnsgd1na2vs0mg"},{"bike_id":"2d267c2b-2b73-4a12-877b-6fb93b400e96","system_id":"levelo_inurba_marseille","lat":43.3117,"lon":5.38734,"is_reserved":false,"is_disabled":false,"rental_uris":{"android":"levelo://app?vid=2d267c2b-2b73-4a12-877b-6fb93b400e96","ios":"levelo://app?vid=2d267c2b-2b73-4a12-877b-6fb93b400e96"},"vehicle_type_id":"4","last_reported":1767175889,"current_range_meters":14800,"station_id":"ce4bgv12rcd13ifvqcp0","pricing_plan_id":"cebpf4jnsgd1na2vs0mg"},{"bike_id":"011d9100-db6d-4a09-b150-f3ef29cea75b","system_id":"levelo_inurba_marseille","lat":43.23837,"lon":5.36622,"is_reserved":false,"is_disabled":false,"rental_uris":{"android":"levelo://app?vid=011d9100-db6d-4a09-b150-f3ef29cea75b","ios":"levelo://app?vid=011d9100-db6d-4a09-b150-f3ef29cea75b"},"vehicle_type_id":"4","last_reported":1767175889,"current_range_meters":14800,"station_id":"","pricing_plan_id":"cebpf4jnsgd1na2vs0mg"},{"bike_id":"ba4d9c7a-7aca-4b85-9206-966a264e9e7b","system_id":"levelo_inurba_marseille","lat":43.31569,"lon":5.38517,"is_reserved":false,"is_disabled":false,"rental_uris":{"android":"levelo://app?vid=ba4d9c7a-7aca-4b85-9206-966a264e9e7b","ios":"levelo://app?vid=ba4d9c7a-7aca-4b85-9206-966a264e9e7b"},"vehicle_type_id":"4","last_reported":1767175889,"current_range_meters":14800,"station_id":"","pricing_plan_id":"cebpf4jnsgd1na2vs0mg"},{"bike_id":"2e432000-19e4-474b-acb8-4742408d8ecf","system_id":"levelo_inurba_marseille","lat":43.29646,"lon":5.37955,"is_reserved":false,"is_disabled":false,"rental_uris":{"android":"levelo://app?vid=2e432000-19e4-474b-acb8-4742408d8ecf","ios":"levelo://app?vid=2e432000-19e4-474b-acb8-4742408d8ecf"},"vehicle_type_id":"4","last_reported":1767175889,"current_range_meters":14800,"station_id":"","pricing_plan_id":"cebpf4jnsgd1na2vs0mg"},{"bike_id":"0d8b64dc-d3a4-4c37-80be-c48d945a81e3","system_id":"levelo_inurba_marseille","lat":43.2848,"lon":5.38425,"is_reserved":false,"is_disabled":false,"rental_uris":{"android":"levelo://app?vid=0d8b64dc-d3a4-4c37-80be-c48d945a81e3","ios":"levelo://app?vid=0d8b64dc-d3a4-4c37-80be-c48d945a81e3"},"vehicle_type_id":"4","last_reported":1767175889,"current_range_meters":14800,"station_id":"ce4bh512rcd13ifvqe3g","pricing_plan_id":"cebpf4jnsgd1na2vs0mg"},{"bike_id":"3a5aab6e-cd17-41c2-835e-9aa91ad79f59","system_id":"levelo_inurba_marseille","lat":43.28418,"lon":5.37544,"is_reserved":false,"is_disabled":false,"rental_uris":{"android":"levelo://app?vid=3a5aab6e-cd17-41c2-835e-9aa91ad79f59","ios":"levelo://app?vid=3a5aab6e-cd17-41c2-835e-9aa91ad79f59"},"vehicle_type_id":"4","last_reported":1767175889,"current_range_meters":14800,"station_id":"ce4bh412rcd13ifvqds0","pricing_plan_id":"cebpf4jnsgd1na2vs0mg"},{"bike_id":"774efde2-f014-4b70-8c83-3fe066896386","system_id":"levelo_inurba_marseille","lat":43.21743,"lon":5.34623,"is_reserved":false,"is_disabled":false,"rental_uris":{"android":"levelo://app?vid=774efde2-f014-4b70-8c83-3fe066896386","ios":"levelo://app?vid=774efde2-f014-4b70-8c83-3fe066896386"},"vehicle_type_id":"4","last_reported":1767175889,"current_range_meters":15200,"station_id":"st_cvj6r9ubvosntc0bgbag","pricing_plan_id":"cebpf4jnsgd1na2vs0mg"},{"bike_id":"a6b35a9b-2cf6-4669-b17f-ed9bea8188e1","system_id":"levelo_inurba_marseille","lat":43.297454,"lon":5.427847,"is_reserved":false,"is_disabled":true,"rental_uris":{"android":"levelo://app?vid=a6b35a9b-2cf6-4669-b17f-ed9bea8188e1","ios":"levelo://app?vid=a6b35a9b-2cf6-4669-b17f-ed9bea8188e1"},"vehicle_type_id":"4","last_reported":1767175889,"current_range_meters":15200,"station_id":"st_d3md5207bmas73dh9klg","pricing_plan_id":"cebpf4jnsgd1na2vs0mg"},{"bike_id":"ddfa40a0-cada-4f50-8b25-d17290013e65","system_id":"levelo_inurba_marseille","lat":43.241688,"lon":5.36393,"is_reserved":false,"is_disabled":false,"rental_uris":{"android":"levelo://app?vid=ddfa40a0-cada-4f50-8b25-d17290013e65","ios":"levelo://app?vid=ddfa40a0-cada-4f50-8b25-d17290013e65"},"vehicle_type_id":"4","last_reported":1767175889,"current_range_meters":15200,"station_id":"cpo36qri1sfpv3e86is0","pricing_plan_id":"cebpf4jnsgd1na2vs0mg"},{"bike_id":"c1c1bbd9-7f85-4a35-831d-72795b1b0948","system_id":"levelo_inurba_marseille","lat":43.323671,"lon":5.367365,"is_reserved":false,"is_disabled":false,"rental_uris":{"android":"levelo://app?vid=c1c1bbd9-7f85-4a35-831d-72795b1b0948","ios":"levelo://app?vid=c1c1bbd9-7f85-4a35-831d-72795b1b0948"},"vehicle_type_id":"4","last_reported":1767175889,"current_range_meters":15200,"station_id":"ce4bhsh2rcd13ifvqi2g","pricing_plan_id":"cebpf4jnsgd1na2vs0mg"},{"bike_id":"a4128de6-99e3-4c89-b03e-7b411d0b9353","system_id":"levelo_inurba_marseille","lat":43.25501,"lon":5.37657,"is_reserved":false,"is_disabled":false,"rental_uris":{"android":"levelo://app?vid=a4128de6-99e3-4c89-b03e-7b411d0b9353","ios":"levelo://app?vid=a4128de6-99e3-4c89-b03e-7b411d0b9353"},"vehicle_type_id":"4","last_reported":1767175889,"current_range_meters":15200,"station_id":"ce4bhh12rcd13ifvqff0","pricing_plan_id":"cebpf4jnsgd1na2vs0mg"},{"bike_id":"0d5b4d19-5ff7-4ab4-b1f1-164a6d5a8877","system_id":"levelo_inurba_marseille","lat":43.288464,"lon":5.358416,"is_reserved":false,"is_disabled":false,"rental_uris":{"android":"levelo://app?vid=0d5b4d19-5ff7-4ab4-b1f1-164a6d5a8877","ios":"levelo://app?vid=0d5b4d19-5ff7-4ab4-b1f1-164a6d5a8877"},"vehicle_type_id":"4","last_reported":1767175889,"current_range_meters":15200,"station_id":"ce4bhb12rcd13ifvqem0","pricing_plan_id":"cebpf4jnsgd1na2vs0mg"},{"bike_id":"4e43c7ab-766e-4b59-85a5-7ae3fda10e73","system_id":"levelo_inurba_marseille","lat":43.30582,"lon":5.39358,"is_reserved":false,"is_disabled":false,"rental_uris":{"android":"levelo://app?vid=4e43c7ab-766e-4b59-85a5-7ae3fda10e73","ios":"levelo://app?vid=4e43c7ab-766e-4b59-85a5-7ae3fda10e73"},"vehicle_type_id":"4","last_reported":1767175889,"current_range_meters":15200,"station_id":"ce4bh0p2rcd13ifvqd80","pricing_plan_id":"cebpf4jnsgd1na2vs0mg"},{"bike_id":"8ed4747c-ffc4-4952-a58f-ccece03fc778","system_id":"levelo_inurba_marseille","lat":43.27174,"lon":5.41001,"is_reserved":false,"is_disabled":false,"rental_uris":{"android":"levelo://app?vid=8ed4747c-ffc4-4952-a58f-ccece03fc778","ios":"levelo://app?vid=8ed4747c-ffc4-4952-a58f-ccece03fc778"},"vehicle_type_id":"4","last_reported":1767175889,"current_range_meters":15200,"station_id":"ce4bhl12rcd13ifvqgf0","pricing_plan_id":"cebpf4jnsgd1na2vs0mg"},{"bike_id":"9c527cba-495c-43c7-be17-557f9ba77aa4","system_id":"levelo_inurba_marseille","lat":43.27063,"lon":5.40271,"is_reserved":false,"is_disabled":false,"rental_uris":{"android":"levelo://app?vid=9c527cba-495c-43c7-be17-557f9ba77aa4","ios":"levelo://app?vid=9c527cba-495c-43c7-be17-557f9ba77aa4"},"vehicle_type_id":"4","last_reported":1767175889,"current_range_meters":15200,"station_id":"ce4bhk92rcd13ifvqgc0","pricing_plan_id":"cebpf4jnsgd1na2vs0mg"},{"bike_id":"8e533a3d-e630-44fb-bda8-99d9f21479dc","system_id":"levelo_inurba_marseille","lat":43.28475,"lon":5.38418,"is_reserved":false,"is_disabled":false,"rental_uris":{"android":"levelo://app?vid=8e533a3d-e630-44fb-bda8-99d9f21479dc","ios":"levelo://app?vid=8e533a3d-e630-44fb-bda8-99d9f21479dc"},"vehicle_type_id":"4","last_reported":1767175889,"current_range_meters":15200,"station_id":"ce4bh512rcd13ifvqe3g","pricing_plan_id":"cebpf4jnsgd1na2vs0mg"},{"bike_id":"652999ae-9f9a-402a-99d5-f3ed10a5e186","system_id":"levelo_inurba_marseille","lat":43.32091,"lon":5.36777,"is_reserved":false,"is_disabled":false,"rental_uris":{"android":"levelo://app?vid=652999ae-9f9a-402a-99d5-f3ed10a5e186","ios":"levelo://app?vid=652999ae-9f9a-402a-99d5-f3ed10a5e186"},"vehicle_type_id":"4","last_reported":1767175889,"current_range_meters":15200,"station_id":"ce4bhrh2rcd13ifvqhug","pricing_plan_id":"cebpf4jnsgd1na2vs0mg"},{"bike_id":"69db185d-54b4-41a6-a83c-1a74e272e7d8","system_id":"levelo_inurba_marseille","lat":43.243827,"lon":5.370431,"is_reserved":false,"is_disabled":false,"rental_uris":{"android":"levelo://app?vid=69db185d-54b4-41a6-a83c-1a74e272e7d8","ios":"levelo://app?vid=69db185d-54b4-41a6-a83c-1a74e272e7d8"},"vehicle_type_id":"4","last_reported":1767175889,"current_range_meters":15200,"station_id":"ce4bhhh2rcd13ifvqfk0","pricing_plan_id":"cebpf4jnsgd1na2vs0mg"},{"bike_id":"ea5031e4-b749-4d48-ba29-71e8d8d5383b","system_id":"levelo_inurba_marseille","lat":43.263738,"lon":5.374148,"is_reserved":false,"is_disabled":false,"rental_uris":{"android":"levelo://app?vid=ea5031e4-b749-4d48-ba29-71e8d8d5383b","ios":"levelo://app?vid=ea5031e4-b749-4d48-ba29-71e8d8d5383b"},"vehicle_type_id":"4","last_reported":1767175889,"current_range_meters":15200,"station_id":"","pricing_plan_id":"cebpf4jnsgd1na2vs0mg"},{"bike_id":"c35f2de6-93d7-437e-8ea3-3ea70a176139","system_id":"levelo_inurba_marseille","lat":43.31372,"lon":5.36759,"is_reserved":false,"is_disabled":false,"rental_uris":{"android":"levelo://app?vid=c35f2de6-93d7-437e-8ea3-3ea70a176139","ios":"levelo://app?vid=c35f2de6-93d7-437e-8ea3-3ea70a176139"},"vehicle_type_id":"4","last_reported":1767175889,"current_range_meters":15200,"station_id":"","pricing_plan_id":"cebpf4jnsgd1na2vs0mg"},{"bike_id":"5f1eb79b-4fcf-4dfb-9a5c-d3732afc10c8","system_id":"levelo_inurba_marseille","lat":43.30127,"lon":5.3986,"is_reserved":false,"is_disabled":false,"rental_uris":{"android":"levelo://app?vid=5f1eb79b-4fcf-4dfb-9a5c-d3732afc10c8","ios":"levelo://app?vid=5f1eb79b-4fcf-4dfb-9a5c-d3732afc10c8"},"vehicle_type_id":"4","last_reported":1767175889,"current_range_meters":16000,"station_id":"ce4bh0h2rcd13ifvqd40","pricing_plan_id":"cebpf4jnsgd1na2vs0mg"},{"bike_id":"f71ef308-3a68-4c0d-9731-adc1f9942797","system_id":"levelo_inurba_marseille","lat":43.27622,"lon":5.36143,"is_reserved":false,"is_disabled":false,"rental_uris":{"android":"levelo://app?vid=f71ef308-3a68-4c0d-9731-adc1f9942797","ios":"levelo://app?vid=f71ef308-3a68-4c0d-9731-adc1f9942797"},"vehicle_type_id":"4","last_reported":1767175889,"current_range_meters":16000,"station_id":"ce4bgj92rcd13ifvqbe0","pricing_plan_id":"cebpf4jnsgd1na2vs0mg"},{"bike_id":"c7586477-b188-4afb-9115-cd7a566c0858","system_id":"levelo_inurba_marseille","lat":43.26934,"lon":5.40253,"is_reserved":false,"is_disabled":true,"rental_uris":{"android":"levelo://app?vid=c7586477-b188-4afb-9115-cd7a566c0858","ios":"levelo://app?vid=c7586477-b188-4afb-9115-cd7a566c0858"},"vehicle_type_id":"4","last_reported":1767175889,"current_range_meters":16000,"station_id":"cjm6bp8fraef2m0cb0m0","pricing_plan_id":"cebpf4jnsgd1na2vs0mg"},{"bike_id":"0ba4f163-10f7-45b2-b23e-23862ef0a271","system_id":"levelo_inurba_marseille","lat":43.24062,"lon":5.37773,"is_reserved":false,"is_disabled":false,"rental_uris":{"android":"levelo://app?vid=0ba4f163-10f7-45b2-b23e-23862ef0a271","ios":"levelo://app?vid=0ba4f163-10f7-45b2-b23e-23862ef0a271"},"vehicle_type_id":"4","last_reported":1767175889,"current_range_meters":16000,"station_id":"ce4bhnp2rcd13ifvqgvg","pricing_plan_id":"cebpf4jnsgd1na2vs0mg"},{"bike_id":"0b3eef85-24cd-4dac-bc23-05eb029c677e","system_id":"levelo_inurba_marseille","lat":43.2697,"lon":5.39352,"is_reserved":false,"is_disabled":false,"rental_uris":{"android":"levelo://app?vid=0b3eef85-24cd-4dac-bc23-05eb029c677e","ios":"levelo://app?vid=0b3eef85-24cd-4dac-bc23-05eb029c677e"},"vehicle_type_id":"4","last_reported":1767175889,"current_range_meters":16000,"station_id":"","pricing_plan_id":"cebpf4jnsgd1na2vs0mg"},{"bike_id":"d8431e58-d3e8-4456-9570-729e3ebbcc73","system_id":"levelo_inurba_marseille","lat":43.30172,"lon":5.37268,"is_reserved":false,"is_disabled":false,"rental_uris":{"android":"levelo://app?vid=d8431e58-d3e8-4456-9570-729e3ebbcc73","ios":"levelo://app?vid=d8431e58-d3e8-4456-9570-729e3ebbcc73"},"vehicle_type_id":"4","last_reported":1767175889,"current_range_meters":16000,"station_id":"","pricing_plan_id":"cebpf4jnsgd1na2vs0mg"},{"bike_id":"d4c6dc95-f402-4619-8161-a90cb01a834e","system_id":"levelo_inurba_marseille","lat":43.2888,"lon":5.4254,"is_reserved":false,"is_disabled":false,"rental_uris":{"android":"levelo://app?vid=d4c6dc95-f402-4619-8161-a90cb01a834e","ios":"levelo://app?vid=d4c6dc95-f402-4619-8161-a90cb01a834e"},"vehicle_type_id":"4","last_reported":1767175889,"current_range_meters":16000,"station_id":"st_d3b462108ojc7389ooeg","pricing_plan_id":"cebpf4jnsgd1na2vs0mg"},{"bike_id":"e3ad3dcb-1c6f-4ed2-bcf2-a8f5330ba1b6","system_id":"levelo_inurba_marseille","lat":43.245468,"lon":5.395241,"is_reserved":false,"is_disabled":false,"rental_uris":{"android":"levelo://app?vid=e3ad3dcb-1c6f-4ed2-bcf2-a8f5330ba1b6","ios":"levelo://app?vid=e3ad3dcb-1c6f-4ed2-bcf2-a8f5330ba1b6"},"vehicle_type_id":"4","last_reported":1767175889,"current_range_meters":16000,"station_id":"ce4bhlp2rcd13ifvqgjg","pricing_plan_id":"cebpf4jnsgd1na2vs0mg"},{"bike_id":"9ffd8e4e-6671-4e68-b198-26c59cc5e3d1","system_id":"levelo_inurba_marseille","lat":43.320582,"lon":5.415296,"is_reserved":false,"is_disabled":false,"rental_uris":{"android":"levelo://app?vid=9ffd8e4e-6671-4e68-b198-26c59cc5e3d1","ios":"levelo://app?vid=9ffd8e4e-6671-4e68-b198-26c59cc5e3d1"},"vehicle_type_id":"4","last_reported":1767175889,"current_range_meters":16000,"station_id":"ce4bhq92rcd13ifvqhkg","pricing_plan_id":"cebpf4jnsgd1na2vs0mg"},{"bike_id":"82d8538f-fccb-4d77-bb7b-1f55e2f347bf","system_id":"levelo_inurba_marseille","lat":43.21192,"lon":5.35074,"is_reserved":false,"is_disabled":false,"rental_uris":{"android":"levelo://app?vid=82d8538f-fccb-4d77-bb7b-1f55e2f347bf","ios":"levelo://app?vid=82d8538f-fccb-4d77-bb7b-1f55e2f347bf"},"vehicle_type_id":"4","last_reported":1767175889,"current_range_meters":16000,"station_id":"st_cvj6sg6p6f1abm77japg","pricing_plan_id":"cebpf4jnsgd1na2vs0mg"},{"bike_id":"df9fc3e6-9d78-4e67-be8c-d6c0c705e127","system_id":"levelo_inurba_marseille","lat":43.31261,"lon":5.37742,"is_reserved":false,"is_disabled":false,"rental_uris":{"android":"levelo://app?vid=df9fc3e6-9d78-4e67-be8c-d6c0c705e127","ios":"levelo://app?vid=df9fc3e6-9d78-4e67-be8c-d6c0c705e127"},"vehicle_type_id":"4","last_reported":1767175889,"current_range_meters":16000,"station_id":"","pricing_plan_id":"cebpf4jnsgd1na2vs0mg"},{"bike_id":"f416eebd-970b-471b-b254-5625e9a6539a","system_id":"levelo_inurba_marseille","lat":43.30301,"lon":5.39218,"is_reserved":false,"is_disabled":false,"rental_uris":{"android":"levelo://app?vid=f416eebd-970b-471b-b254-5625e9a6539a","ios":"levelo://app?vid=f416eebd-970b-471b-b254-5625e9a6539a"},"vehicle_type_id":"4","last_reported":1767175889,"current_range_meters":16000,"station_id":"ce4bgkh2rcd13ifvqbk0","pricing_plan_id":"cebpf4jnsgd1na2vs0mg"},{"bike_id":"f3a4c2fd-c27a-4ca6-bbe5-3949d2a88808","system_id":"levelo_inurba_marseille","lat":43.28579,"lon":5.42976,"is_reserved":false,"is_disabled":false,"rental_uris":{"android":"levelo://app?vid=f3a4c2fd-c27a-4ca6-bbe5-3949d2a88808","ios":"levelo://app?vid=f3a4c2fd-c27a-4ca6-bbe5-3949d2a88808"},"vehicle_type_id":"4","last_reported":1767175889,"current_range_meters":16000,"station_id":"","pricing_plan_id":"cebpf4jnsgd1na2vs0mg"},{"bike_id":"9d1c3079-c76b-4e33-9fb3-3a53abdcd033","system_id":"levelo_inurba_marseille","lat":43.24158,"lon":5.3971,"is_reserved":false,"is_disabled":false,"rental_uris":{"android":"levelo://app?vid=9d1c3079-c76b-4e33-9fb3-3a53abdcd033","ios":"levelo://app?vid=9d1c3079-c76b-4e33-9fb3-3a53abdcd033"},"vehicle_type_id":"4","last_reported":1767175889,"current_range_meters":16000,"station_id":"ce4bhn12rcd13ifvqgpg","pricing_plan_id":"cebpf4jnsgd1na2vs0mg"},{"bike_id":"27f62b3e-34a5-44c0-b8d2-5a7048902926","system_id":"levelo_inurba_marseille","lat":43.295426,"lon":5.38149,"is_reserved":false,"is_disabled":false,"rental_uris":{"android":"levelo://app?vid=27f62b3e-34a5-44c0-b8d2-5a7048902926","ios":"levelo://app?vid=27f62b3e-34a5-44c0-b8d2-5a7048902926"},"vehicle_type_id":"4","last_reported":1767175889,"current_range_meters":16400,"station_id":"","pricing_plan_id":"cebpf4jnsgd1na2vs0mg"},{"bike_id":"67057471-b7f6-4964-9f3d-d28fd0a7dcdb","system_id":"levelo_inurba_marseille","lat":43.31895,"lon":5.40751,"is_reserved":false,"is_disabled":true,"rental_uris":{"android":"levelo://app?vid=67057471-b7f6-4964-9f3d-d28fd0a7dcdb","ios":"levelo://app?vid=67057471-b7f6-4964-9f3d-d28fd0a7dcdb"},"vehicle_type_id":"4","last_reported":1767175889,"current_range_meters":16400,"station_id":"ce4bhq12rcd13ifvqhig","pricing_plan_id":"cebpf4jnsgd1na2vs0mg"},{"bike_id":"6fb45a38-412e-484d-8f99-6a8e87169809","system_id":"levelo_inurba_marseille","lat":43.284753,"lon":5.384083,"is_reserved":false,"is_disabled":false,"rental_uris":{"android":"levelo://app?vid=6fb45a38-412e-484d-8f99-6a8e87169809","ios":"levelo://app?vid=6fb45a38-412e-484d-8f99-6a8e87169809"},"vehicle_type_id":"4","last_reported":1767175889,"current_range_meters":16400,"station_id":"ce4bh512rcd13ifvqe3g","pricing_plan_id":"cebpf4jnsgd1na2vs0mg"},{"bike_id":"0cb70926-6422-462c-9452-6d6871afba1f","system_id":"levelo_inurba_marseille","lat":43.30376,"lon":5.42487,"is_reserved":false,"is_disabled":false,"rental_uris":{"android":"levelo://app?vid=0cb70926-6422-462c-9452-6d6871afba1f","ios":"levelo://app?vid=0cb70926-6422-462c-9452-6d6871afba1f"},"vehicle_type_id":"4","last_reported":1767175889,"current_range_meters":16400,"station_id":"ce4bhoh2rcd13ifvqh6g","pricing_plan_id":"cebpf4jnsgd1na2vs0mg"},{"bike_id":"1b15b2d9-9796-4678-8867-3e04f99d4c05","system_id":"levelo_inurba_marseille","lat":43.2256,"lon":5.41632,"is_reserved":false,"is_disabled":false,"rental_uris":{"android":"levelo://app?vid=1b15b2d9-9796-4678-8867-3e04f99d4c05","ios":"levelo://app?vid=1b15b2d9-9796-4678-8867-3e04f99d4c05"},"vehicle_type_id":"4","last_reported":1767175889,"current_range_meters":16400,"station_id":"st_d2o4gvlbi1j2169b742g","pricing_plan_id":"cebpf4jnsgd1na2vs0mg"},{"bike_id":"3a24309b-dac8-4503-949e-e418dc9a991f","system_id":"levelo_inurba_marseille","lat":43.275661,"lon":5.384152,"is_reserved":false,"is_disabled":false,"rental_uris":{"android":"levelo://app?vid=3a24309b-dac8-4503-949e-e418dc9a991f","ios":"levelo://app?vid=3a24309b-dac8-4503-949e-e418dc9a991f"},"vehicle_type_id":"4","last_reported":1767175889,"current_range_meters":16400,"station_id":"ce4bhh92rcd13ifvqfi0","pricing_plan_id":"cebpf4jnsgd1na2vs0mg"},{"bike_id":"d1b49348-d88c-4896-951b-022e0262b5df","system_id":"levelo_inurba_marseille","lat":43.30234,"lon":5.40072,"is_reserved":false,"is_disabled":false,"rental_uris":{"android":"levelo://app?vid=d1b49348-d88c-4896-951b-022e0262b5df","ios":"levelo://app?vid=d1b49348-d88c-4896-951b-022e0262b5df"},"vehicle_type_id":"4","last_reported":1767175889,"current_range_meters":16400,"station_id":"ce4bgvh2rcd13ifvqcs0","pricing_plan_id":"cebpf4jnsgd1na2vs0mg"},{"bike_id":"484b2697-3bdb-4ff1-a4f8-24d580950d4b","system_id":"levelo_inurba_marseille","lat":43.29571,"lon":5.37517,"is_reserved":false,"is_disabled":false,"rental_uris":{"android":"levelo://app?vid=484b2697-3bdb-4ff1-a4f8-24d580950d4b","ios":"levelo://app?vid=484b2697-3bdb-4ff1-a4f8-24d580950d4b"},"vehicle_type_id":"4","last_reported":1767175889,"current_range_meters":16400,"station_id":"ce4bgh92rcd13ifvqb50","pricing_plan_id":"cebpf4jnsgd1na2vs0mg"},{"bike_id":"cb81a401-078b-44ea-b642-d4cb87902a1e","system_id":"levelo_inurba_marseille","lat":43.27908,"lon":5.38723,"is_reserved":false,"is_disabled":false,"rental_uris":{"android":"levelo://app?vid=cb81a401-078b-44ea-b642-d4cb87902a1e","ios":"levelo://app?vid=cb81a401-078b-44ea-b642-d4cb87902a1e"},"vehicle_type_id":"4","last_reported":1767175889,"current_range_meters":16400,"station_id":"","pricing_plan_id":"cebpf4jnsgd1na2vs0mg"},{"bike_id":"0db3b4e0-2f6d-4047-977e-88dec93e1adb","system_id":"levelo_inurba_marseille","lat":43.2795,"lon":5.38738,"is_reserved":false,"is_disabled":false,"rental_uris":{"android":"levelo://app?vid=0db3b4e0-2f6d-4047-977e-88dec93e1adb","ios":"levelo://app?vid=0db3b4e0-2f6d-4047-977e-88dec93e1adb"},"vehicle_type_id":"4","last_reported":1767175889,"current_range_meters":16400,"station_id":"ce4bhg12rcd13ifvqf80","pricing_plan_id":"cebpf4jnsgd1na2vs0mg"},{"bike_id":"25f1743a-a2b2-454e-84ce-5c43f5ea30d3","system_id":"levelo_inurba_marseille","lat":43.298974,"lon":5.436653,"is_reserved":false,"is_disabled":false,"rental_uris":{"android":"levelo://app?vid=25f1743a-a2b2-454e-84ce-5c43f5ea30d3","ios":"levelo://app?vid=25f1743a-a2b2-454e-84ce-5c43f5ea30d3"},"vehicle_type_id":"4","last_reported":1767175889,"current_range_meters":16400,"station_id":"ce4bhpp2rcd13ifvqhfg","pricing_plan_id":"cebpf4jnsgd1na2vs0mg"},{"bike_id":"84942c64-bd9e-4661-a48c-25db9ce131c4","system_id":"levelo_inurba_marseille","lat":43.32345,"lon":5.36731,"is_reserved":false,"is_disabled":false,"rental_uris":{"android":"levelo://app?vid=84942c64-bd9e-4661-a48c-25db9ce131c4","ios":"levelo://app?vid=84942c64-bd9e-4661-a48c-25db9ce131c4"},"vehicle_type_id":"4","last_reported":1767175889,"current_range_meters":16400,"station_id":"ce4bhsh2rcd13ifvqi2g","pricing_plan_id":"cebpf4jnsgd1na2vs0mg"},{"bike_id":"adee5904-d2f9-48c4-ad58-68d27b5bb40a","system_id":"levelo_inurba_marseille","lat":43.2927,"lon":5.37677,"is_reserved":false,"is_disabled":false,"rental_uris":{"android":"levelo://app?vid=adee5904-d2f9-48c4-ad58-68d27b5bb40a","ios":"levelo://app?vid=adee5904-d2f9-48c4-ad58-68d27b5bb40a"},"vehicle_type_id":"4","last_reported":1767175889,"current_range_meters":16400,"station_id":"ce4bgi12rcd13ifvqb80","pricing_plan_id":"cebpf4jnsgd1na2vs0mg"},{"bike_id":"50de4e0d-2290-4f77-8321-cce26c350f29","system_id":"levelo_inurba_marseille","lat":43.28735,"lon":5.360898,"is_reserved":false,"is_disabled":false,"rental_uris":{"android":"levelo://app?vid=50de4e0d-2290-4f77-8321-cce26c350f29","ios":"levelo://app?vid=50de4e0d-2290-4f77-8321-cce26c350f29"},"vehicle_type_id":"4","last_reported":1767175889,"current_range_meters":16400,"station_id":"cki0cbj6b192h4jlfktg","pricing_plan_id":"cebpf4jnsgd1na2vs0mg"},{"bike_id":"56fd8f2b-1102-4b0e-955f-78887707836b","system_id":"levelo_inurba_marseille","lat":43.29549,"lon":5.37491,"is_reserved":false,"is_disabled":false,"rental_uris":{"android":"levelo://app?vid=56fd8f2b-1102-4b0e-955f-78887707836b","ios":"levelo://app?vid=56fd8f2b-1102-4b0e-955f-78887707836b"},"vehicle_type_id":"4","last_reported":1767175889,"current_range_meters":16400,"station_id":"ce4bgkp2rcd13ifvqbmg","pricing_plan_id":"cebpf4jnsgd1na2vs0mg"},{"bike_id":"0c3b4b3e-5574-4acc-9ce6-160804ae0ebc","system_id":"levelo_inurba_marseille","lat":43.299003,"lon":5.436611,"is_reserved":false,"is_disabled":true,"rental_uris":{"android":"levelo://app?vid=0c3b4b3e-5574-4acc-9ce6-160804ae0ebc","ios":"levelo://app?vid=0c3b4b3e-5574-4acc-9ce6-160804ae0ebc"},"vehicle_type_id":"4","last_reported":1767175889,"current_range_meters":16400,"station_id":"ce4bhpp2rcd13ifvqhfg","pricing_plan_id":"cebpf4jnsgd1na2vs0mg"},{"bike_id":"7e4808d2-9a84-4fdf-962a-c92e86ef0c53","system_id":"levelo_inurba_marseille","lat":43.284089,"lon":5.34983,"is_reserved":false,"is_disabled":false,"rental_uris":{"android":"levelo://app?vid=7e4808d2-9a84-4fdf-962a-c92e86ef0c53","ios":"levelo://app?vid=7e4808d2-9a84-4fdf-962a-c92e86ef0c53"},"vehicle_type_id":"4","last_reported":1767175889,"current_range_meters":16400,"station_id":"ce4bhbh2rcd13ifvqepg","pricing_plan_id":"cebpf4jnsgd1na2vs0mg"},{"bike_id":"bb4d344e-0230-41f6-80cf-7e3480d5d98b","system_id":"levelo_inurba_marseille","lat":43.26935,"lon":5.40264,"is_reserved":false,"is_disabled":false,"rental_uris":{"android":"levelo://app?vid=bb4d344e-0230-41f6-80cf-7e3480d5d98b","ios":"levelo://app?vid=bb4d344e-0230-41f6-80cf-7e3480d5d98b"},"vehicle_type_id":"4","last_reported":1767175889,"current_range_meters":16400,"station_id":"cjm6bp8fraef2m0cb0m0","pricing_plan_id":"cebpf4jnsgd1na2vs0mg"},{"bike_id":"7e0334e9-5470-42ce-8f33-c0562781414c","system_id":"levelo_inurba_marseille","lat":43.3013,"lon":5.37452,"is_reserved":false,"is_disabled":false,"rental_uris":{"android":"levelo://app?vid=7e0334e9-5470-42ce-8f33-c0562781414c","ios":"levelo://app?vid=7e0334e9-5470-42ce-8f33-c0562781414c"},"vehicle_type_id":"4","last_reported":1767175889,"current_range_meters":16400,"station_id":"ce4bgs92rcd13ifvqcc0","pricing_plan_id":"cebpf4jnsgd1na2vs0mg"},{"bike_id":"1579b22c-0739-4446-affd-66e597b52ce6","system_id":"levelo_inurba_marseille","lat":43.24653,"lon":5.3889,"is_reserved":false,"is_disabled":false,"rental_uris":{"android":"levelo://app?vid=1579b22c-0739-4446-affd-66e597b52ce6","ios":"levelo://app?vid=1579b22c-0739-4446-affd-66e597b52ce6"},"vehicle_type_id":"4","last_reported":1767175889,"current_range_meters":16400,"station_id":"ce4bhg12rcd13ifvqf60","pricing_plan_id":"cebpf4jnsgd1na2vs0mg"},{"bike_id":"da51a696-5705-48cd-a174-f63e3c15d9de","system_id":"levelo_inurba_marseille","lat":43.28863,"lon":5.42519,"is_reserved":false,"is_disabled":false,"rental_uris":{"android":"levelo://app?vid=da51a696-5705-48cd-a174-f63e3c15d9de","ios":"levelo://app?vid=da51a696-5705-48cd-a174-f63e3c15d9de"},"vehicle_type_id":"4","last_reported":1767175889,"current_range_meters":16400,"station_id":"st_d3b462108ojc7389ooeg","pricing_plan_id":"cebpf4jnsgd1na2vs0mg"},{"bike_id":"002dc303-ef66-4b53-b5f3-28b0bdb634cd","system_id":"levelo_inurba_marseille","lat":43.29843,"lon":5.36283,"is_reserved":false,"is_disabled":false,"rental_uris":{"android":"levelo://app?vid=002dc303-ef66-4b53-b5f3-28b0bdb634cd","ios":"levelo://app?vid=002dc303-ef66-4b53-b5f3-28b0bdb634cd"},"vehicle_type_id":"4","last_reported":1767175889,"current_range_meters":16400,"station_id":"ce4bgpp2rcd13ifvqc3g","pricing_plan_id":"cebpf4jnsgd1na2vs0mg"},{"bike_id":"8e4800d3-64b0-47e1-8ea6-e0f61411a9ea","system_id":"levelo_inurba_marseille","lat":43.309106,"lon":5.368685,"is_reserved":false,"is_disabled":false,"rental_uris":{"android":"levelo://app?vid=8e4800d3-64b0-47e1-8ea6-e0f61411a9ea","ios":"levelo://app?vid=8e4800d3-64b0-47e1-8ea6-e0f61411a9ea"},"vehicle_type_id":"4","last_reported":1767175889,"current_range_meters":16400,"station_id":"","pricing_plan_id":"cebpf4jnsgd1na2vs0mg"},{"bike_id":"473a748d-c4da-4c1c-a3a0-5bbfca601a94","system_id":"levelo_inurba_marseille","lat":43.28408,"lon":5.35001,"is_reserved":false,"is_disabled":false,"rental_uris":{"android":"levelo://app?vid=473a748d-c4da-4c1c-a3a0-5bbfca601a94","ios":"levelo://app?vid=473a748d-c4da-4c1c-a3a0-5bbfca601a94"},"vehicle_type_id":"4","last_reported":1767175889,"current_range_meters":16400,"station_id":"ce4bhbh2rcd13ifvqepg","pricing_plan_id":"cebpf4jnsgd1na2vs0mg"},{"bike_id":"af8cf9c0-97b9-46f7-af01-f52cafb12dba","system_id":"levelo_inurba_marseille","lat":43.28657,"lon":5.36356,"is_reserved":false,"is_disabled":false,"rental_uris":{"android":"levelo://app?vid=af8cf9c0-97b9-46f7-af01-f52cafb12dba","ios":"levelo://app?vid=af8cf9c0-97b9-46f7-af01-f52cafb12dba"},"vehicle_type_id":"4","last_reported":1767175889,"current_range_meters":16400,"station_id":"ce4bhah2rcd13ifvqej0","pricing_plan_id":"cebpf4jnsgd1na2vs0mg"},{"bike_id":"bebec6bc-9df3-406e-90bc-396ce2b3b0b3","system_id":"levelo_inurba_marseille","lat":43.2636,"lon":5.37423,"is_reserved":false,"is_disabled":false,"rental_uris":{"android":"levelo://app?vid=bebec6bc-9df3-406e-90bc-396ce2b3b0b3","ios":"levelo://app?vid=bebec6bc-9df3-406e-90bc-396ce2b3b0b3"},"vehicle_type_id":"4","last_reported":1767175889,"current_range_meters":16400,"station_id":"","pricing_plan_id":"cebpf4jnsgd1na2vs0mg"},{"bike_id":"c05ce95e-9011-4649-8945-8468c56e7195","system_id":"levelo_inurba_marseille","lat":43.2848,"lon":5.38415,"is_reserved":false,"is_disabled":false,"rental_uris":{"android":"levelo://app?vid=c05ce95e-9011-4649-8945-8468c56e7195","ios":"levelo://app?vid=c05ce95e-9011-4649-8945-8468c56e7195"},"vehicle_type_id":"4","last_reported":1767175889,"current_range_meters":16800,"station_id":"ce4bh512rcd13ifvqe3g","pricing_plan_id":"cebpf4jnsgd1na2vs0mg"},{"bike_id":"6c469f60-a4ba-4cb0-ac4f-1edb02e3bc26","system_id":"levelo_inurba_marseille","lat":43.294894,"lon":5.433045,"is_reserved":false,"is_disabled":false,"rental_uris":{"android":"levelo://app?vid=6c469f60-a4ba-4cb0-ac4f-1edb02e3bc26","ios":"levelo://app?vid=6c469f60-a4ba-4cb0-ac4f-1edb02e3bc26"},"vehicle_type_id":"4","last_reported":1767175889,"current_range_meters":16800,"station_id":"st_d3j5ugp08ojc73fj9d10","pricing_plan_id":"cebpf4jnsgd1na2vs0mg"},{"bike_id":"99c25954-41c6-4770-9c89-5463f33c56fd","system_id":"levelo_inurba_marseille","lat":43.30846,"lon":5.40606,"is_reserved":false,"is_disabled":false,"rental_uris":{"android":"levelo://app?vid=99c25954-41c6-4770-9c89-5463f33c56fd","ios":"levelo://app?vid=99c25954-41c6-4770-9c89-5463f33c56fd"},"vehicle_type_id":"4","last_reported":1767175889,"current_range_meters":16800,"station_id":"","pricing_plan_id":"cebpf4jnsgd1na2vs0mg"},{"bike_id":"1c5b41be-7d46-4208-9270-feeef196d241","system_id":"levelo_inurba_marseille","lat":43.29485,"lon":5.43307,"is_reserved":false,"is_disabled":false,"rental_uris":{"android":"levelo://app?vid=1c5b41be-7d46-4208-9270-feeef196d241","ios":"levelo://app?vid=1c5b41be-7d46-4208-9270-feeef196d241"},"vehicle_type_id":"4","last_reported":1767175889,"current_range_meters":16800,"station_id":"st_d3j5ugp08ojc73fj9d10","pricing_plan_id":"cebpf4jnsgd1na2vs0mg"},{"bike_id":"6edcb3bb-8202-4eb4-adbd-ef2225b9363f","system_id":"levelo_inurba_marseille","lat":43.24402,"lon":5.37066,"is_reserved":false,"is_disabled":false,"rental_uris":{"android":"levelo://app?vid=6edcb3bb-8202-4eb4-adbd-ef2225b9363f","ios":"levelo://app?vid=6edcb3bb-8202-4eb4-adbd-ef2225b9363f"},