{"last_updated":1689113191,"ttl":30,"version":"2.2","data":{"bikes":[{"bike_id":"b2f26df7-b783-41c4-a2a6-a61274785247","system_id":"levelo_inurba_marseille","lat":43.312239,"lon":5.368562,"is_reserved":false,"is_disabled":false,"rental_uris":{"android":"levelo://app?vid=b2f26df7-b783-41c4-a2a6-a61274785247","ios":"levelo://app?vid=b2f26df7-b783-41c4-a2a6-a61274785247"},"vehicle_type_id":"4","last_reported":1689113192,"current_range_meters":25200,"station_id":"ce4bgl92rcd13ifvqbq0","pricing_plan_id":"free"},{"bike_id":"cc48f6fb-a34e-4052-8f98-f1cc6897cb4c","system_id":"levelo_inurba_marseille","lat":43.31225,"lon":5.36861,"is_reserved":false,"is_disabled":false,"rental_uris":{"android":"levelo://app?vid=cc48f6fb-a34e-4052-8f98-f1cc6897cb4c","ios":"levelo://app?vid=cc48f6fb-a34e-4052-8f98-f1cc6897cb4c"},"vehicle_type_id":"4","last_reported":1689113192,"current_range_meters":13200,"station_id":"ce4bgl92rcd13ifvqbq0","pricing_plan_id":"free"},{"bike_id":"113f113c-be8b-43bc-b9aa-fc6c7797c506","system_id":"levelo_inurba_marseille","lat":43.312239,"lon":5.368562,"is_reserved":false,"is_disabled":false,"rental_uris":{"android":"levelo://app?vid=113f113c-be8b-43bc-b9aa-fc6c7797c506","ios":"levelo://app?vid=113f113c-be8b-43bc-b9aa-fc6c7797c506"},"vehicle_type_id":"4","last_reported":1689113192,"current_range_meters":28400,"station_id":"ce4bgl92rcd13ifvqbq0","pricing_plan_id":"free"},{"bike_id":"a0963139-6a35-45a1-8102-cc0866a14bfc","system_id":"levelo_inurba_marseille","lat":43.309076,"lon":5.368465,"is_reserved":false,"is_disabled":false,"rental_uris":{"android":"levelo://app?vid=a0963139-6a35-45a1-8102-cc0866a14bfc","ios":"levelo://app?vid=a0963139-6a35-45a1-8102-cc0866a14bfc"},"vehicle_type_id":"4","last_reported":1689113192,"current_range_meters":28400,"station_id":"ce4bgn92rcd13ifvqbvg","pricing_plan_id":"free"},{"bike_id":"8aba9601-21e2-4fb6-8db1-6eeb24d177e7","system_id":"levelo_inurba_marseille","lat":43.314811,"lon":5.373103,"is_reserved":false,"is_disabled":false,"rental_uris":{"android":"levelo://app?vid=8aba9601-21e2-4fb6-8db1-6eeb24d177e7","ios":"levelo://app?vid=8aba9601-21e2-4fb6-8db1-6eeb24d177e7"},"vehicle_type_id":"4","last_reported":1689113192,"current_range_meters":26000,"station_id":"ce4bgt12rcd13ifvqcd0","pricing_plan_id":"free"},{"bike_id":"965978bb-0eb4-4e59-af2d-aaf9ade28c91","system_id":"levelo_inurba_marseille","lat":43.314811,"lon":5.373103,"is_reserved":false,"is_disabled":false,"rental_uris":{"android":"levelo://app?vid=965978bb-0eb4-4e59-af2d-aaf9ade28c91","ios":"levelo://app?vid=965978bb-0eb4-4e59-af2d-aaf9ade28c91"},"vehicle_type_id":"4","last_reported":1689113192,"current_range_meters":4400,"station_id":"ce4bgt12rcd13ifvqcd0","pricing_plan_id":"free"},{"bike_id":"6b37550f-6bbc-40eb-bbcf-81d8bdd0b371","system_id":"levelo_inurba_marseille","lat":43.314811,"lon":5.373103,"is_reserved":false,"is_disabled":false,"rental_uris":{"android":"levelo://app?vid=6b37550f-6bbc-40eb-bbcf-81d8bdd0b371","ios":"levelo://app?vid=6b37550f-6bbc-40eb-bbcf-81d8bdd0b371"},"vehicle_type_id":"4","last_reported":1689113192,"current_range_meters":11200,"station_id":"ce4bgt12rcd13ifvqcd0","pricing_plan_id":"free"},{"bike_id":"7521fcc7-36a8-43f6-9389-a565044c2072","system_id":"levelo_inurba_marseille","lat":43.314811,"lon":5.373103,"is_reserved":false,"is_disabled":false,"rental_uris":{"android":"levelo://app?vid=7521fcc7-36a8-43f6-9389-a565044c2072","ios":"levelo://app?vid=7521fcc7-36a8-43f6-9389-a565044c2072"},"vehicle_type_id":"4","last_reported":1689113192,"current_range_meters":6800,"station_id":"ce4bgt12rcd13ifvqcd0","pricing_plan_id":"free"},{"bike_id":"fac45d28-28fc-4bbb-9a1e-c707f38cadc3","system_id":"levelo_inurba_marseille","lat":43.314811,"lon":5.373104,"is_reserved":false,"is_disabled":false,"rental_uris":{"android":"levelo://app?vid=fac45d28-28fc-4bbb-9a1e-c707f38cadc3","ios":"levelo://app?vid=fac45d28-28fc-4bbb-9a1e-c707f38cadc3"},"vehicle_type_id":"4","last_reported":1689113192,"current_range_meters":25600,"station_id":"ce4bgt12rcd13ifvqcd0","pricing_plan_id":"free"},{"bike_id":"b0f75cb4-0e74-478f-a2de-d774f3a844b0","system_id":"levelo_inurba_marseille","lat":43.309039,"lon":5.371797,"is_reserved":false,"is_disabled":false,"rental_uris":{"android":"levelo://app?vid=b0f75cb4-0e74-478f-a2de-d774f3a844b0","ios":"levelo://app?vid=b0f75cb4-0e74-478f-a2de-d774f3a844b0"},"vehicle_type_id":"4","last_reported":1689113192,"current_range_meters":3600,"station_id":"ce4bguh2rcd13ifvqckg","pricing_plan_id":"free"},{"bike_id":"12b7a4eb-2d95-4c91-9bb7-423ddca9f4f8","system_id":"levelo_inurba_marseille","lat":43.309039,"lon":5.371797,"is_reserved":false,"is_disabled":false,"rental_uris":{"android":"levelo://app?vid=12b7a4eb-2d95-4c91-9bb7-423ddca9f4f8","ios":"levelo://app?vid=12b7a4eb-2d95-4c91-9bb7-423ddca9f4f8"},"vehicle_type_id":"4","last_reported":1689113192,"current_range_meters":29600,"station_id":"ce4bguh2rcd13ifvqckg","pricing_plan_id":"free"},{"bike_id":"fe401b3e-ce95-45b5-a42c-f2236b4131b5","system_id":"levelo_inurba_marseille","lat":43.309039,"lon":5.371797,"is_reserved":false,"is_disabled":false,"rental_uris":{"android":"levelo://app?vid=fe401b3e-ce95-45b5-a42c-f2236b4131b5","ios":"levelo://app?vid=fe401b3e-ce95-45b5-a42c-f2236b4131b5"},"vehicle_type_id":"4","last_reported":1689113192,"current_range_meters":6400,"station_id":"ce4bguh2rcd13ifvqckg","pricing_plan_id":"free"},{"bike_id":"dcaae471-f213-4bf5-ad81-b0e9e455f552","system_id":"levelo_inurba_marseille","lat":43.309039,"lon":5.371797,"is_reserved":false,"is_disabled":false,"rental_uris":{"android":"levelo://app?vid=dcaae471-f213-4bf5-ad81-b0e9e455f552","ios":"levelo://app?vid=dcaae471-f213-4bf5-ad81-b0e9e455f552"},"vehicle_type_id":"4","last_reported":1689113192,"current_range_meters":31200,"station_id":"ce4bguh2rcd13ifvqckg","pricing_plan_id":"free"},{"bike_id":"5d3dab92-34ac-4417-96ab-3abd03d0466f","system_id":"levelo_inurba_marseille","lat":43.309039,"lon":5.371797,"is_reserved":false,"is_disabled":false,"rental_uris":{"android":"levelo://app?vid=5d3dab92-34ac-4417-96ab-3abd03d0466f","ios":"levelo://app?vid=5d3dab92-34ac-4417-96ab-3abd03d0466f"},"vehicle_type_id":"4","last_reported":1689113192,"current_range_meters":29600,"station_id":"ce4bguh2rcd13ifvqckg","pricing_plan_id":"free"},{"bike_id":"85fcfc88-4811-4813-8ccb-d75365547c86","system_id":"levelo_inurba_marseille","lat":43.309039,"lon":5.371797,"is_reserved":false,"is_disabled":false,"rental_uris":{"android":"levelo://app?vid=85fcfc88-4811-4813-8ccb-d75365547c86","ios":"levelo://app?vid=85fcfc88-4811-4813-8ccb-d75365547c86"},"vehicle_type_id":"4","last_reported":1689113192,"current_range_meters":22000,"station_id":"ce4bguh2rcd13ifvqckg","pricing_plan_id":"free"},{"bike_id":"fa05da48-86d0-4ace-90e2-c8b6114abba6","system_id":"levelo_inurba_marseille","lat":43.309039,"lon":5.371797,"is_reserved":false,"is_disabled":false,"rental_uris":{"android":"levelo://app?vid=fa05da48-86d0-4ace-90e2-c8b6114abba6","ios":"levelo://app?vid=fa05da48-86d0-4ace-90e2-c8b6114abba6"},"vehicle_type_id":"4","last_reported":1689113192,"current_range_meters":6400,"station_id":"ce4bguh2rcd13ifvqckg","pricing_plan_id":"free"},{"bike_id":"c30f2664-e799-4f66-9191-811512a28fe8","system_id":"levelo_inurba_marseille","lat":43.309039,"lon":5.371797,"is_reserved":false,"is_disabled":false,"rental_uris":{"android":"levelo://app?vid=c30f2664-e799-4f66-9191-811512a28fe8","ios":"levelo://app?vid=c30f2664-e799-4f66-9191-811512a28fe8"},"vehicle_type_id":"4","last_reported":1689113192,"current_range_meters":10000,"station_id":"ce4bguh2rcd13ifvqckg","pricing_plan_id":"free"},{"bike_id":"29bbcf33-f9a1-4821-9c16-0f5801c920cc","system_id":"levelo_inurba_marseille","lat":43.309039,"lon":5.371797,"is_reserved":false,"is_disabled":false,"rental_uris":{"android":"levelo://app?vid=29bbcf33-f9a1-4821-9c16-0f5801c920cc","ios":"levelo://app?vid=29bbcf33-f9a1-4821-9c16-0f5801c920cc"},"vehicle_type_id":"4","last_reported":1689113192,"current_range_meters":28800,"station_id":"ce4bguh2rcd13ifvqckg","pricing_plan_id":"free"},{"bike_id":"042e110a-b92c-46fb-a82a-2af172dc9811","system_id":"levelo_inurba_marseille","lat":43.309039,"lon":5.371797,"is_reserved":false,"is_disabled":false,"rental_uris":{"android":"levelo://app?vid=042e110a-b92c-46fb-a82a-2af172dc9811","ios":"levelo://app?vid=042e110a-b92c-46fb-a82a-2af172dc9811"},"vehicle_type_id":"4","last_reported":1689113192,"current_range_meters":7200,"station_id":"ce4bguh2rcd13ifvqckg","pricing_plan_id":"free"},{"bike_id":"da40f30d-9f32-4e64-ba16-77c38cd3dfa3","system_id":"levelo_inurba_marseille","lat":43.314811,"lon":5.373103,"is_reserved":false,"is_disabled":false,"rental_uris":{"android":"levelo://app?vid=da40f30d-9f32-4e64-ba16-77c38cd3dfa3","ios":"levelo://app?vid=da40f30d-9f32-4e64-ba16-77c38cd3dfa3"},"vehicle_type_id":"4","last_reported":1689113192,"current_range_meters":22800,"station_id":"ce4bgt12rcd13ifvqcd0","pricing_plan_id":"free"},{"bike_id":"38df26a7-c216-447d-97d0-0a5dfba2e471","system_id":"levelo_inurba_marseille","lat":43.305368,"lon":5.367343,"is_reserved":false,"is_disabled":false,"rental_uris":{"android":"levelo://app?vid=38df26a7-c216-447d-97d0-0a5dfba2e471","ios":"levelo://app?vid=38df26a7-c216-447d-97d0-0a5dfba2e471"},"vehicle_type_id":"4","last_reported":1689113192,"current_range_meters":24800,"station_id":"ce4bgrp2rcd13ifvqc9g","pricing_plan_id":"free"},{"bike_id":"8f7e643a-6f4f-49b7-b714-1bb822b3005a","system_id":"levelo_inurba_marseille","lat":43.30541,"lon":5.36522,"is_reserved":false,"is_disabled":false,"rental_uris":{"android":"levelo://app?vid=8f7e643a-6f4f-49b7-b714-1bb822b3005a","ios":"levelo://app?vid=8f7e643a-6f4f-49b7-b714-1bb822b3005a"},"vehicle_type_id":"4","last_reported":1689113192,"current_range_meters":23600,"station_id":"","pricing_plan_id":"free"},{"bike_id":"5e927300-a108-4065-b28c-38de1e6a87d4","system_id":"levelo_inurba_marseille","lat":43.305989,"lon":5.37225,"is_reserved":false,"is_disabled":false,"rental_uris":{"android":"levelo://app?vid=5e927300-a108-4065-b28c-38de1e6a87d4","ios":"levelo://app?vid=5e927300-a108-4065-b28c-38de1e6a87d4"},"vehicle_type_id":"4","last_reported":1689113192,"current_range_meters":19600,"station_id":"ce4bgqh2rcd13ifvqc4g","pricing_plan_id":"free"},{"bike_id":"85ff5f57-99fb-4875-b783-ba0d73ae72b3","system_id":"levelo_inurba_marseille","lat":43.305989,"lon":5.37225,"is_reserved":false,"is_disabled":false,"rental_uris":{"android":"levelo://app?vid=85ff5f57-99fb-4875-b783-ba0d73ae72b3","ios":"levelo://app?vid=85ff5f57-99fb-4875-b783-ba0d73ae72b3"},"vehicle_type_id":"4","last_reported":1689113192,"current_range_meters":26400,"station_id":"ce4bgqh2rcd13ifvqc4g","pricing_plan_id":"free"},{"bike_id":"a8e9cae7-2ef5-4bbf-9d04-8850b6aaa478","system_id":"levelo_inurba_marseille","lat":43.305989,"lon":5.37225,"is_reserved":false,"is_disabled":false,"rental_uris":{"android":"levelo://app?vid=a8e9cae7-2ef5-4bbf-9d04-8850b6aaa478","ios":"levelo://app?vid=a8e9cae7-2ef5-4bbf-9d04-8850b6aaa478"},"vehicle_type_id":"4","last_reported":1689113192,"current_range_meters":18400,"station_id":"ce4bgqh2rcd13ifvqc4g","pricing_plan_id":"free"},{"bike_id":"4017a5e7-8de9-4548-9859-3658bb9b426c","system_id":"levelo_inurba_marseille","lat":43.305989,"lon":5.37225,"is_reserved":false,"is_disabled":false,"rental_uris":{"android":"levelo://app?vid=4017a5e7-8de9-4548-9859-3658bb9b426c","ios":"levelo://app?vid=4017a5e7-8de9-4548-9859-3658bb9b426c"},"vehicle_type_id":"4","last_reported":1689113192,"current_range_meters":28000,"station_id":"ce4bgqh2rcd13ifvqc4g","pricing_plan_id":"free"},{"bike_id":"69c60cf1-9531-4c71-89db-631b5a97b6eb","system_id":"levelo_inurba_marseille","lat":43.30605,"lon":5.37227,"is_reserved":false,"is_disabled":false,"rental_uris":{"android":"levelo://app?vid=69c60cf1-9531-4c71-89db-631b5a97b6eb","ios":"levelo://app?vid=69c60cf1-9531-4c71-89db-631b5a97b6eb"},"vehicle_type_id":"4","last_reported":1689113192,"current_range_meters":16800,"station_id":"ce4bgqh2rcd13ifvqc4g","pricing_plan_id":"free"},{"bike_id":"8fc5755f-2cd5-4cc9-9696-ab20aefb3246","system_id":"levelo_inurba_marseille","lat":43.305989,"lon":5.37225,"is_reserved":false,"is_disabled":false,"rental_uris":{"android":"levelo://app?vid=8fc5755f-2cd5-4cc9-9696-ab20aefb3246","ios":"levelo://app?vid=8fc5755f-2cd5-4cc9-9696-ab20aefb3246"},"vehicle_type_id":"4","last_reported":1689113192,"current_range_meters":28400,"station_id":"ce4bgqh2rcd13ifvqc4g","pricing_plan_id":"free"},{"bike_id":"87e02847-b6c7-4835-b57d-a1d4a4c85d19","system_id":"levelo_inurba_marseille","lat":43.305989,"lon":5.37225,"is_reserved":false,"is_disabled":false,"rental_uris":{"android":"levelo://app?vid=87e02847-b6c7-4835-b57d-a1d4a4c85d19","ios":"levelo://app?vid=87e02847-b6c7-4835-b57d-a1d4a4c85d19"},"vehicle_type_id":"4","last_reported":1689113192,"current_range_meters":14000,"station_id":"ce4bgqh2rcd13ifvqc4g","pricing_plan_id":"free"},{"bike_id":"35d1c846-accc-40db-b74f-57bc7c8cd4ce","system_id":"levelo_inurba_marseille","lat":43.305989,"lon":5.37225,"is_reserved":false,"is_disabled":false,"rental_uris":{"android":"levelo://app?vid=35d1c846-accc-40db-b74f-57bc7c8cd4ce","ios":"levelo://app?vid=35d1c846-accc-40db-b74f-57bc7c8cd4ce"},"vehicle_type_id":"4","last_reported":1689113192,"current_range_meters":25600,"station_id":"ce4bgqh2rcd13ifvqc4g","pricing_plan_id":"free"},{"bike_id":"67f6fab6-4ab2-4c2c-ac68-81b67bc494ca","system_id":"levelo_inurba_marseille","lat":43.305989,"lon":5.37225,"is_reserved":false,"is_disabled":false,"rental_uris":{"android":"levelo://app?vid=67f6fab6-4ab2-4c2c-ac68-81b67bc494ca","ios":"levelo://app?vid=67f6fab6-4ab2-4c2c-ac68-81b67bc494ca"},"vehicle_type_id":"4","last_reported":1689113192,"current_range_meters":11200,"station_id":"ce4bgqh2rcd13ifvqc4g","pricing_plan_id":"free"},{"bike_id":"b3c9937c-76cf-46e0-a29c-3a4a8036db09","system_id":"levelo_inurba_marseille","lat":43.305989,"lon":5.37225,"is_reserved":false,"is_disabled":false,"rental_uris":{"android":"levelo://app?vid=b3c9937c-76cf-46e0-a29c-3a4a8036db09","ios":"levelo://app?vid=b3c9937c-76cf-46e0-a29c-3a4a8036db09"},"vehicle_type_id":"4","last_reported":1689113192,"current_range_meters":20000,"station_id":"ce4bgqh2rcd13ifvqc4g","pricing_plan_id":"free"},{"bike_id":"7402acde-c767-4d79-92e9-fc39fb2966ee","system_id":"levelo_inurba_marseille","lat":43.305989,"lon":5.37225,"is_reserved":false,"is_disabled":false,"rental_uris":{"android":"levelo://app?vid=7402acde-c767-4d79-92e9-fc39fb2966ee","ios":"levelo://app?vid=7402acde-c767-4d79-92e9-fc39fb2966ee"},"vehicle_type_id":"4","last_reported":1689113192,"current_range_meters":31200,"station_id":"ce4bgqh2rcd13ifvqc4g","pricing_plan_id":"free"},{"bike_id":"336fc6ea-ef55-4d69-a662-7ab3e1b2b598","system_id":"levelo_inurba_marseille","lat":43.311125,"lon":5.377624,"is_reserved":false,"is_disabled":false,"rental_uris":{"android":"levelo://app?vid=336fc6ea-ef55-4d69-a662-7ab3e1b2b598","ios":"levelo://app?vid=336fc6ea-ef55-4d69-a662-7ab3e1b2b598"},"vehicle_type_id":"4","last_reported":1689113192,"current_range_meters":10800,"station_id":"ce4bgt92rcd13ifvqcg0","pricing_plan_id":"free"},{"bike_id":"1f4dbb59-79f8-4b00-9ffd-6be71e6134cf","system_id":"levelo_inurba_marseille","lat":43.311125,"lon":5.377624,"is_reserved":false,"is_disabled":false,"rental_uris":{"android":"levelo://app?vid=1f4dbb59-79f8-4b00-9ffd-6be71e6134cf","ios":"levelo://app?vid=1f4dbb59-79f8-4b00-9ffd-6be71e6134cf"},"vehicle_type_id":"4","last_reported":1689113192,"current_range_meters":4000,"station_id":"ce4bgt92rcd13ifvqcg0","pricing_plan_id":"free"},{"bike_id":"41629805-5cd6-4c92-9fa4-383cb5a34cd4","system_id":"levelo_inurba_marseille","lat":43.311125,"lon":5.377624,"is_reserved":false,"is_disabled":false,"rental_uris":{"android":"levelo://app?vid=41629805-5cd6-4c92-9fa4-383cb5a34cd4","ios":"levelo://app?vid=41629805-5cd6-4c92-9fa4-383cb5a34cd4"},"vehicle_type_id":"4","last_reported":1689113192,"current_range_meters":25600,"station_id":"ce4bgt92rcd13ifvqcg0","pricing_plan_id":"free"},{"bike_id":"4a60ecab-f06c-480d-830e-dfbd28ad3ee1","system_id":"levelo_inurba_marseille","lat":43.311125,"lon":5.377624,"is_reserved":false,"is_disabled":false,"rental_uris":{"android":"levelo://app?vid=4a60ecab-f06c-480d-830e-dfbd28ad3ee1","ios":"levelo://app?vid=4a60ecab-f06c-480d-830e-dfbd28ad3ee1"},"vehicle_type_id":"4","last_reported":1689113192,"current_range_meters":28400,"station_id":"ce4bgt92rcd13ifvqcg0","pricing_plan_id":"free"},{"bike_id":"ce34c903-8e91-491b-8bfe-584473801e66","system_id":"levelo_inurba_marseille","lat":43.317075,"lon":5.377367,"is_reserved":false,"is_disabled":false,"rental_uris":{"android":"levelo://app?vid=ce34c903-8e91-491b-8bfe-584473801e66","ios":"levelo://app?vid=ce34c903-8e91-491b-8bfe-584473801e66"},"vehicle_type_id":"4","last_reported":1689113192,"current_range_meters":14000,"station_id":"ce4bgth2rcd13ifvqch0","pricing_plan_id":"free"},{"bike_id":"6fa23e0d-fedd-409f-b3e1-5e666618e6cb","system_id":"levelo_inurba_marseille","lat":43.303046,"lon":5.368981,"is_reserved":false,"is_disabled":false,"rental_uris":{"android":"levelo://app?vid=6fa23e0d-fedd-409f-b3e1-5e666618e6cb","ios":"levelo://app?vid=6fa23e0d-fedd-409f-b3e1-5e666618e6cb"},"vehicle_type_id":"4","last_reported":1689113192,"current_range_meters":14800,"station_id":"ce4bgqh2rcd13ifvqc5g","pricing_plan_id":"free"},{"bike_id":"1a2e10de-7f31-4bc4-8099-5f3ff33a0633","system_id":"levelo_inurba_marseille","lat":43.31539,"lon":5.38025,"is_reserved":false,"is_disabled":false,"rental_uris":{"android":"levelo://app?vid=1a2e10de-7f31-4bc4-8099-5f3ff33a0633","ios":"levelo://app?vid=1a2e10de-7f31-4bc4-8099-5f3ff33a0633"},"vehicle_type_id":"4","last_reported":1689113192,"current_range_meters":6000,"station_id":"ce4bhsp2rcd13ifvqi50","pricing_plan_id":"free"},{"bike_id":"f3343058-b746-4899-a1e1-e409d00a259d","system_id":"levelo_inurba_marseille","lat":43.315293,"lon":5.380349,"is_reserved":false,"is_disabled":false,"rental_uris":{"android":"levelo://app?vid=f3343058-b746-4899-a1e1-e409d00a259d","ios":"levelo://app?vid=f3343058-b746-4899-a1e1-e409d00a259d"},"vehicle_type_id":"4","last_reported":1689113192,"current_range_meters":19200,"station_id":"ce4bhsp2rcd13ifvqi50","pricing_plan_id":"free"},{"bike_id":"4ea5eff1-914d-4c0a-8f97-16098655b658","system_id":"levelo_inurba_marseille","lat":43.315293,"lon":5.380349,"is_reserved":false,"is_disabled":false,"rental_uris":{"android":"levelo://app?vid=4ea5eff1-914d-4c0a-8f97-16098655b658","ios":"levelo://app?vid=4ea5eff1-914d-4c0a-8f97-16098655b658"},"vehicle_type_id":"4","last_reported":1689113192,"current_range_meters":14800,"station_id":"ce4bhsp2rcd13ifvqi50","pricing_plan_id":"free"},{"bike_id":"b34060d4-4505-48ce-b7b6-2e56eba06aa6","system_id":"levelo_inurba_marseille","lat":43.315293,"lon":5.380349,"is_reserved":false,"is_disabled":false,"rental_uris":{"android":"levelo://app?vid=b34060d4-4505-48ce-b7b6-2e56eba06aa6","ios":"levelo://app?vid=b34060d4-4505-48ce-b7b6-2e56eba06aa6"},"vehicle_type_id":"4","last_reported":1689113192,"current_range_meters":24000,"station_id":"ce4bhsp2rcd13ifvqi50","pricing_plan_id":"free"},{"bike_id":"44354a85-2bb4-4f9d-b259-1b108e151ddf","system_id":"levelo_inurba_marseille","lat":43.31535,"lon":5.38033,"is_reserved":false,"is_disabled":false,"rental_uris":{"android":"levelo://app?vid=44354a85-2bb4-4f9d-b259-1b108e151ddf","ios":"levelo://app?vid=44354a85-2bb4-4f9d-b259-1b108e151ddf"},"vehicle_type_id":"4","last_reported":1689113192,"current_range_meters":0,"station_id":"ce4bhsp2rcd13ifvqi50","pricing_plan_id":"free"},{"bike_id":"e873c620-e79e-41f2-bd5a-d71b831eacef","system_id":"levelo_inurba_marseille","lat":43.315277,"lon":5.380372,"is_reserved":false,"is_disabled":false,"rental_uris":{"android":"levelo://app?vid=e873c620-e79e-41f2-bd5a-d71b831eacef","ios":"levelo://app?vid=e873c620-e79e-41f2-bd5a-d71b831eacef"},"vehicle_type_id":"4","last_reported":1689113192,"current_range_meters":15200,"station_id":"","pricing_plan_id":"free"},{"bike_id":"a1e96ad9-efe7-45cd-8a3b-581ace1469c9","system_id":"levelo_inurba_marseille","lat":43.31553,"lon":5.38051,"is_reserved":false,"is_disabled":false,"rental_uris":{"android":"levelo://app?vid=a1e96ad9-efe7-45cd-8a3b-581ace1469c9","ios":"levelo://app?vid=a1e96ad9-efe7-45cd-8a3b-581ace1469c9"},"vehicle_type_id":"4","last_reported":1689113192,"current_range_meters":2400,"station_id":"","pricing_plan_id":"free"},{"bike_id":"dee5e94b-7c96-40f1-9397-ae41ca0a8b0d","system_id":"levelo_inurba_marseille","lat":43.301939,"lon":5.366286,"is_reserved":false,"is_disabled":false,"rental_uris":{"android":"levelo://app?vid=dee5e94b-7c96-40f1-9397-ae41ca0a8b0d","ios":"levelo://app?vid=dee5e94b-7c96-40f1-9397-ae41ca0a8b0d"},"vehicle_type_id":"4","last_reported":1689113192,"current_range_meters":22800,"station_id":"ce4bgrh2rcd13ifvqc8g","pricing_plan_id":"free"},{"bike_id":"03381a52-8b42-4f43-8799-2410a4f3ac4d","system_id":"levelo_inurba_marseille","lat":43.301939,"lon":5.366286,"is_reserved":false,"is_disabled":false,"rental_uris":{"android":"levelo://app?vid=03381a52-8b42-4f43-8799-2410a4f3ac4d","ios":"levelo://app?vid=03381a52-8b42-4f43-8799-2410a4f3ac4d"},"vehicle_type_id":"4","last_reported":1689113192,"current_range_meters":6000,"station_id":"ce4bgrh2rcd13ifvqc8g","pricing_plan_id":"free"},{"bike_id":"ea024392-eda5-41bf-a391-79dd53fe1568","system_id":"levelo_inurba_marseille","lat":43.301939,"lon":5.366286,"is_reserved":false,"is_disabled":false,"rental_uris":{"android":"levelo://app?vid=ea024392-eda5-41bf-a391-79dd53fe1568","ios":"levelo://app?vid=ea024392-eda5-41bf-a391-79dd53fe1568"},"vehicle_type_id":"4","last_reported":1689113192,"current_range_meters":23600,"station_id":"ce4bgrh2rcd13ifvqc8g","pricing_plan_id":"free"},{"bike_id":"40808a37-5e28-42fa-acda-95169036e5e0","system_id":"levelo_inurba_marseille","lat":43.301939,"lon":5.366286,"is_reserved":false,"is_disabled":false,"rental_uris":{"android":"levelo://app?vid=40808a37-5e28-42fa-acda-95169036e5e0","ios":"levelo://app?vid=40808a37-5e28-42fa-acda-95169036e5e0"},"vehicle_type_id":"4","last_reported":1689113192,"current_range_meters":0,"station_id":"ce4bgrh2rcd13ifvqc8g","pricing_plan_id":"free"},{"bike_id":"342c5011-0779-48c0-9c4e-a0f493d969c3","system_id":"levelo_inurba_marseille","lat":43.30802,"lon":5.38131,"is_reserved":false,"is_disabled":false,"rental_uris":{"android":"levelo://app?vid=342c5011-0779-48c0-9c4e-a0f493d969c3","ios":"levelo://app?vid=342c5011-0779-48c0-9c4e-a0f493d969c3"},"vehicle_type_id":"4","last_reported":1689113192,"current_range_meters":10800,"station_id":"ce4bgt12rcd13ifvqce0","pricing_plan_id":"free"},{"bike_id":"a4c6839f-1f0b-490d-82cb-1ce61b83682e","system_id":"levelo_inurba_marseille","lat":43.30803,"lon":5.38142,"is_reserved":false,"is_disabled":false,"rental_uris":{"android":"levelo://app?vid=a4c6839f-1f0b-490d-82cb-1ce61b83682e","ios":"levelo://app?vid=a4c6839f-1f0b-490d-82cb-1ce61b83682e"},"vehicle_type_id":"4","last_reported":1689113192,"current_range_meters":5600,"station_id":"ce4bgt12rcd13ifvqce0","pricing_plan_id":"free"},{"bike_id":"2757b98a-4683-4d70-9871-2cb485732898","system_id":"levelo_inurba_marseille","lat":43.308012,"lon":5.381511,"is_reserved":false,"is_disabled":false,"rental_uris":{"android":"levelo://app?vid=2757b98a-4683-4d70-9871-2cb485732898","ios":"levelo://app?vid=2757b98a-4683-4d70-9871-2cb485732898"},"vehicle_type_id":"4","last_reported":1689113192,"current_range_meters":19200,"station_id":"ce4bgt12rcd13ifvqce0","pricing_plan_id":"free"},{"bike_id":"7a2db2c1-caf1-4479-9353-bcaae072ac66","system_id":"levelo_inurba_marseille","lat":43.308012,"lon":5.381511,"is_reserved":false,"is_disabled":false,"rental_uris":{"android":"levelo://app?vid=7a2db2c1-caf1-4479-9353-bcaae072ac66","ios":"levelo://app?vid=7a2db2c1-caf1-4479-9353-bcaae072ac66"},"vehicle_type_id":"4","last_reported":1689113192,"current_range_meters":19600,"station_id":"ce4bgt12rcd13ifvqce0","pricing_plan_id":"free"},{"bike_id":"819162da-750b-40e5-a1fd-0364cd061f2a","system_id":"levelo_inurba_marseille","lat":43.308012,"lon":5.381511,"is_reserved":false,"is_disabled":false,"rental_uris":{"android":"levelo://app?vid=819162da-750b-40e5-a1fd-0364cd061f2a","ios":"levelo://app?vid=819162da-750b-40e5-a1fd-0364cd061f2a"},"vehicle_type_id":"4","last_reported":1689113192,"current_range_meters":22000,"station_id":"ce4bgt12rcd13ifvqce0","pricing_plan_id":"free"},{"bike_id":"fe5c2634-8200-461b-8c54-5a01e9281ba3","system_id":"levelo_inurba_marseille","lat":43.308012,"lon":5.381511,"is_reserved":false,"is_disabled":false,"rental_uris":{"android":"levelo://app?vid=fe5c2634-8200-461b-8c54-5a01e9281ba3","ios":"levelo://app?vid=fe5c2634-8200-461b-8c54-5a01e9281ba3"},"vehicle_type_id":"4","last_reported":1689113192,"current_range_meters":31200,"station_id":"ce4bgt12rcd13ifvqce0","pricing_plan_id":"free"},{"bike_id":"f4e4adca-b477-4713-83f0-4005cead2bb9","system_id":"levelo_inurba_marseille","lat":43.308012,"lon":5.381511,"is_reserved":false,"is_disabled":false,"rental_uris":{"android":"levelo://app?vid=f4e4adca-b477-4713-83f0-4005cead2bb9","ios":"levelo://app?vid=f4e4adca-b477-4713-83f0-4005cead2bb9"},"vehicle_type_id":"4","last_reported":1689113192,"current_range_meters":12800,"station_id":"ce4bgt12rcd13ifvqce0","pricing_plan_id":"free"},{"bike_id":"cdf0faad-557c-4542-b8bb-fcbb4561b9f3","system_id":"levelo_inurba_marseille","lat":43.30469,"lon":5.37908,"is_reserved":false,"is_disabled":false,"rental_uris":{"android":"levelo://app?vid=cdf0faad-557c-4542-b8bb-fcbb4561b9f3","ios":"levelo://app?vid=cdf0faad-557c-4542-b8bb-fcbb4561b9f3"},"vehicle_type_id":"4","last_reported":1689113192,"current_range_meters":30400,"station_id":"ce4bgup2rcd13ifvqcn0","pricing_plan_id":"free"},{"bike_id":"c1029bca-9004-4560-bed4-b14ad531be6a","system_id":"levelo_inurba_marseille","lat":43.302784,"lon":5.377158,"is_reserved":false,"is_disabled":false,"rental_uris":{"android":"levelo://app?vid=c1029bca-9004-4560-bed4-b14ad531be6a","ios":"levelo://app?vid=c1029bca-9004-4560-bed4-b14ad531be6a"},"vehicle_type_id":"4","last_reported":1689113192,"current_range_meters":29200,"station_id":"ce4bguh2rcd13ifvqcj0","pricing_plan_id":"free"},{"bike_id":"e3fc9d2f-b1fc-41cd-b9f3-ecc752d77cec","system_id":"levelo_inurba_marseille","lat":43.302784,"lon":5.377158,"is_reserved":false,"is_disabled":false,"rental_uris":{"android":"levelo://app?vid=e3fc9d2f-b1fc-41cd-b9f3-ecc752d77cec","ios":"levelo://app?vid=e3fc9d2f-b1fc-41cd-b9f3-ecc752d77cec"},"vehicle_type_id":"4","last_reported":1689113192,"current_range_meters":30000,"station_id":"ce4bguh2rcd13ifvqcj0","pricing_plan_id":"free"},{"bike_id":"80e823e6-0424-4c5f-82c5-b696057d1c90","system_id":"levelo_inurba_marseille","lat":43.30142,"lon":5.37414,"is_reserved":false,"is_disabled":false,"rental_uris":{"android":"levelo://app?vid=80e823e6-0424-4c5f-82c5-b696057d1c90","ios":"levelo://app?vid=80e823e6-0424-4c5f-82c5-b696057d1c90"},"vehicle_type_id":"4","last_reported":1689113192,"current_range_meters":13600,"station_id":"ce4bgs92rcd13ifvqcc0","pricing_plan_id":"free"},{"bike_id":"e00e3cc5-f997-485c-8b56-e530a479a988","system_id":"levelo_inurba_marseille","lat":43.319935,"lon":5.381699,"is_reserved":false,"is_disabled":false,"rental_uris":{"android":"levelo://app?vid=e00e3cc5-f997-485c-8b56-e530a479a988","ios":"levelo://app?vid=e00e3cc5-f997-485c-8b56-e530a479a988"},"vehicle_type_id":"4","last_reported":1689113192,"current_range_meters":22800,"station_id":"ce4bhr12rcd13ifvqhpg","pricing_plan_id":"free"},{"bike_id":"20da19a1-51f4-4f7f-b13e-c936c2633e29","system_id":"levelo_inurba_marseille","lat":43.31988,"lon":5.38134,"is_reserved":false,"is_disabled":false,"rental_uris":{"android":"levelo://app?vid=20da19a1-51f4-4f7f-b13e-c936c2633e29","ios":"levelo://app?vid=20da19a1-51f4-4f7f-b13e-c936c2633e29"},"vehicle_type_id":"4","last_reported":1689113192,"current_range_meters":8000,"station_id":"ce4bhr12rcd13ifvqhpg","pricing_plan_id":"free"},{"bike_id":"55998a11-4423-4004-9936-dc1ed0fc8271","system_id":"levelo_inurba_marseille","lat":43.319935,"lon":5.381699,"is_reserved":false,"is_disabled":false,"rental_uris":{"android":"levelo://app?vid=55998a11-4423-4004-9936-dc1ed0fc8271","ios":"levelo://app?vid=55998a11-4423-4004-9936-dc1ed0fc8271"},"vehicle_type_id":"4","last_reported":1689113192,"current_range_meters":24800,"station_id":"ce4bhr12rcd13ifvqhpg","pricing_plan_id":"free"},{"bike_id":"14c34846-37e4-4770-be76-9393ad06b814","system_id":"levelo_inurba_marseille","lat":43.319935,"lon":5.381699,"is_reserved":false,"is_disabled":false,"rental_uris":{"android":"levelo://app?vid=14c34846-37e4-4770-be76-9393ad06b814","ios":"levelo://app?vid=14c34846-37e4-4770-be76-9393ad06b814"},"vehicle_type_id":"4","last_reported":1689113192,"current_range_meters":24400,"station_id":"ce4bhr12rcd13ifvqhpg","pricing_plan_id":"free"},{"bike_id":"4960b54e-fec2-4738-b704-f08b50c0cd41","system_id":"levelo_inurba_marseille","lat":43.319935,"lon":5.381699,"is_reserved":false,"is_disabled":false,"rental_uris":{"android":"levelo://app?vid=4960b54e-fec2-4738-b704-f08b50c0cd41","ios":"levelo://app?vid=4960b54e-fec2-4738-b704-f08b50c0cd41"},"vehicle_type_id":"4","last_reported":1689113192,"current_range_meters":13600,"station_id":"ce4bhr12rcd13ifvqhpg","pricing_plan_id":"free"},{"bike_id":"eace4928-f2c5-48b5-a254-6946e66fd3e9","system_id":"levelo_inurba_marseille","lat":43.319935,"lon":5.381699,"is_reserved":false,"is_disabled":false,"rental_uris":{"android":"levelo://app?vid=eace4928-f2c5-48b5-a254-6946e66fd3e9","ios":"levelo://app?vid=eace4928-f2c5-48b5-a254-6946e66fd3e9"},"vehicle_type_id":"4","last_reported":1689113192,"current_range_meters":7600,"station_id":"ce4bhr12rcd13ifvqhpg","pricing_plan_id":"free"},{"bike_id":"c799b661-15e1-44d3-94b7-3b1dd858c869","system_id":"levelo_inurba_marseille","lat":43.319935,"lon":5.381699,"is_reserved":false,"is_disabled":false,"rental_uris":{"android":"levelo://app?vid=c799b661-15e1-44d3-94b7-3b1dd858c869","ios":"levelo://app?vid=c799b661-15e1-44d3-94b7-3b1dd858c869"},"vehicle_type_id":"4","last_reported":1689113192,"current_range_meters":17600,"station_id":"ce4bhr12rcd13ifvqhpg","pricing_plan_id":"free"},{"bike_id":"bb9249b0-2e94-411b-924f-7dea24d43fa1","system_id":"levelo_inurba_marseille","lat":43.319935,"lon":5.381699,"is_reserved":false,"is_disabled":false,"rental_uris":{"android":"levelo://app?vid=bb9249b0-2e94-411b-924f-7dea24d43fa1","ios":"levelo://app?vid=bb9249b0-2e94-411b-924f-7dea24d43fa1"},"vehicle_type_id":"4","last_reported":1689113192,"current_range_meters":20800,"station_id":"ce4bhr12rcd13ifvqhpg","pricing_plan_id":"free"},{"bike_id":"7bf3f968-df70-4a20-8fa3-b3af2a4e3dc3","system_id":"levelo_inurba_marseille","lat":43.319935,"lon":5.381699,"is_reserved":false,"is_disabled":false,"rental_uris":{"android":"levelo://app?vid=7bf3f968-df70-4a20-8fa3-b3af2a4e3dc3","ios":"levelo://app?vid=7bf3f968-df70-4a20-8fa3-b3af2a4e3dc3"},"vehicle_type_id":"4","last_reported":1689113192,"current_range_meters":24400,"station_id":"ce4bhr12rcd13ifvqhpg","pricing_plan_id":"free"},{"bike_id":"f61916fb-50af-4551-8893-5b9ccc500fb2","system_id":"levelo_inurba_marseille","lat":43.319935,"lon":5.381699,"is_reserved":false,"is_disabled":false,"rental_uris":{"android":"levelo://app?vid=f61916fb-50af-4551-8893-5b9ccc500fb2","ios":"levelo://app?vid=f61916fb-50af-4551-8893-5b9ccc500fb2"},"vehicle_type_id":"4","last_reported":1689113192,"current_range_meters":30400,"station_id":"ce4bhr12rcd13ifvqhpg","pricing_plan_id":"free"},{"bike_id":"2e336d56-af33-4c68-b50d-2de2fe01a10f","system_id":"levelo_inurba_marseille","lat":43.319935,"lon":5.381699,"is_reserved":false,"is_disabled":false,"rental_uris":{"android":"levelo://app?vid=2e336d56-af33-4c68-b50d-2de2fe01a10f","ios":"levelo://app?vid=2e336d56-af33-4c68-b50d-2de2fe01a10f"},"vehicle_type_id":"4","last_reported":1689113192,"current_range_meters":24400,"station_id":"ce4bhr12rcd13ifvqhpg","pricing_plan_id":"free"},{"bike_id":"593dd702-df39-4fb8-a370-781321b1b16d","system_id":"levelo_inurba_marseille","lat":43.319935,"lon":5.381699,"is_reserved":false,"is_disabled":false,"rental_uris":{"android":"levelo://app?vid=593dd702-df39-4fb8-a370-781321b1b16d","ios":"levelo://app?vid=593dd702-df39-4fb8-a370-781321b1b16d"},"vehicle_type_id":"4","last_reported":1689113192,"current_range_meters":24400,"station_id":"ce4bhr12rcd13ifvqhpg","pricing_plan_id":"free"},{"bike_id":"54a23450-26ac-4cfe-a525-ac7f4da9d86e","system_id":"levelo_inurba_marseille","lat":43.319935,"lon":5.381699,"is_reserved":false,"is_disabled":false,"rental_uris":{"android":"levelo://app?vid=54a23450-26ac-4cfe-a525-ac7f4da9d86e","ios":"levelo://app?vid=54a23450-26ac-4cfe-a525-ac7f4da9d86e"},"vehicle_type_id":"4","last_reported":1689113192,"current_range_meters":18800,"station_id":"ce4bhr12rcd13ifvqhpg","pricing_plan_id":"free"},{"bike_id":"5d39c53a-de58-4624-9454-6634867ad891","system_id":"levelo_inurba_marseille","lat":43.313571,"lon":5.384829,"is_reserved":false,"is_disabled":false,"rental_uris":{"android":"levelo://app?vid=5d39c53a-de58-4624-9454-6634867ad891","ios":"levelo://app?vid=5d39c53a-de58-4624-9454-6634867ad891"},"vehicle_type_id":"4","last_reported":1689113192,"current_range_meters":22400,"station_id":"ce4bgt92rcd13ifvqcf0","pricing_plan_id":"free"},{"bike_id":"0a3a1bfa-1210-413f-a122-262b1077f51c","system_id":"levelo_inurba_marseille","lat":43.313571,"lon":5.384829,"is_reserved":false,"is_disabled":false,"rental_uris":{"android":"levelo://app?vid=0a3a1bfa-1210-413f-a122-262b1077f51c","ios":"levelo://app?vid=0a3a1bfa-1210-413f-a122-262b1077f51c"},"vehicle_type_id":"4","last_reported":1689113192,"current_range_meters":12400,"station_id":"ce4bgt92rcd13ifvqcf0","pricing_plan_id":"free"},{"bike_id":"a19f7485-91af-428f-88f9-b30a7b58e371","system_id":"levelo_inurba_marseille","lat":43.313571,"lon":5.384829,"is_reserved":false,"is_disabled":false,"rental_uris":{"android":"levelo://app?vid=a19f7485-91af-428f-88f9-b30a7b58e371","ios":"levelo://app?vid=a19f7485-91af-428f-88f9-b30a7b58e371"},"vehicle_type_id":"4","last_reported":1689113192,"current_range_meters":16800,"station_id":"ce4bgt92rcd13ifvqcf0","pricing_plan_id":"free"},{"bike_id":"c7658932-7b18-49d1-bd2b-b6706fdf2aab","system_id":"levelo_inurba_marseille","lat":43.299222,"lon":5.365554,"is_reserved":false,"is_disabled":false,"rental_uris":{"android":"levelo://app?vid=c7658932-7b18-49d1-bd2b-b6706fdf2aab","ios":"levelo://app?vid=c7658932-7b18-49d1-bd2b-b6706fdf2aab"},"vehicle_type_id":"4","last_reported":1689113192,"current_range_meters":14800,"station_id":"ce4bgm92rcd13ifvqbr0","pricing_plan_id":"free"},{"bike_id":"28adfe04-f21c-454d-9159-c6d70db5c890","system_id":"levelo_inurba_marseille","lat":43.299222,"lon":5.365554,"is_reserved":false,"is_disabled":false,"rental_uris":{"android":"levelo://app?vid=28adfe04-f21c-454d-9159-c6d70db5c890","ios":"levelo://app?vid=28adfe04-f21c-454d-9159-c6d70db5c890"},"vehicle_type_id":"4","last_reported":1689113192,"current_range_meters":24000,"station_id":"ce4bgm92rcd13ifvqbr0","pricing_plan_id":"free"},{"bike_id":"ed9a52cb-a4b3-41b5-8e8f-f1d658c7cb8d","system_id":"levelo_inurba_marseille","lat":43.30244,"lon":5.37975,"is_reserved":false,"is_disabled":false,"rental_uris":{"android":"levelo://app?vid=ed9a52cb-a4b3-41b5-8e8f-f1d658c7cb8d","ios":"levelo://app?vid=ed9a52cb-a4b3-41b5-8e8f-f1d658c7cb8d"},"vehicle_type_id":"4","last_reported":1689113192,"current_range_meters":19200,"station_id":"","pricing_plan_id":"free"},{"bike_id":"08e9a1e2-dcc8-4953-bcc0-303e8947f484","system_id":"levelo_inurba_marseille","lat":43.299243,"lon":5.374807,"is_reserved":false,"is_disabled":false,"rental_uris":{"android":"levelo://app?vid=08e9a1e2-dcc8-4953-bcc0-303e8947f484","ios":"levelo://app?vid=08e9a1e2-dcc8-4953-bcc0-303e8947f484"},"vehicle_type_id":"4","last_reported":1689113192,"current_range_meters":2800,"station_id":"ce4bgjh2rcd13ifvqbg0","pricing_plan_id":"free"},{"bike_id":"f7b6bbfa-8599-42ff-af3c-81c8a25d88d8","system_id":"levelo_inurba_marseille","lat":43.299243,"lon":5.374807,"is_reserved":false,"is_disabled":false,"rental_uris":{"android":"levelo://app?vid=f7b6bbfa-8599-42ff-af3c-81c8a25d88d8","ios":"levelo://app?vid=f7b6bbfa-8599-42ff-af3c-81c8a25d88d8"},"vehicle_type_id":"4","last_reported":1689113192,"current_range_meters":25200,"station_id":"ce4bgjh2rcd13ifvqbg0","pricing_plan_id":"free"},{"bike_id":"a562ff5f-5326-4282-bc38-7b5de7f0b011","system_id":"levelo_inurba_marseille","lat":43.311722,"lon":5.387247,"is_reserved":false,"is_disabled":false,"rental_uris":{"android":"levelo://app?vid=a562ff5f-5326-4282-bc38-7b5de7f0b011","ios":"levelo://app?vid=a562ff5f-5326-4282-bc38-7b5de7f0b011"},"vehicle_type_id":"4","last_reported":1689113192,"current_range_meters":12400,"station_id":"ce4bgv12rcd13ifvqcp0","pricing_plan_id":"free"},{"bike_id":"057ede1f-247c-450e-bc18-51deb2f9c061","system_id":"levelo_inurba_marseille","lat":43.30254,"lon":5.38154,"is_reserved":false,"is_disabled":false,"rental_uris":{"android":"levelo://app?vid=057ede1f-247c-450e-bc18-51deb2f9c061","ios":"levelo://app?vid=057ede1f-247c-450e-bc18-51deb2f9c061"},"vehicle_type_id":"4","last_reported":1689113192,"current_range_meters":10000,"station_id":"","pricing_plan_id":"free"},{"bike_id":"3a35c478-c12d-4ab4-8867-661db07b0b50","system_id":"levelo_inurba_marseille","lat":43.311722,"lon":5.387247,"is_reserved":false,"is_disabled":false,"rental_uris":{"android":"levelo://app?vid=3a35c478-c12d-4ab4-8867-661db07b0b50","ios":"levelo://app?vid=3a35c478-c12d-4ab4-8867-661db07b0b50"},"vehicle_type_id":"4","last_reported":1689113192,"current_range_meters":28400,"station_id":"ce4bgv12rcd13ifvqcp0","pricing_plan_id":"free"},{"bike_id":"b17d8833-368c-47a3-9dad-42bbaef728ed","system_id":"levelo_inurba_marseille","lat":43.311722,"lon":5.387247,"is_reserved":false,"is_disabled":false,"rental_uris":{"android":"levelo://app?vid=b17d8833-368c-47a3-9dad-42bbaef728ed","ios":"levelo://app?vid=b17d8833-368c-47a3-9dad-42bbaef728ed"},"vehicle_type_id":"4","last_reported":1689113192,"current_range_meters":26000,"station_id":"ce4bgv12rcd13ifvqcp0","pricing_plan_id":"free"},{"bike_id":"a193ca13-ef95-47ed-ac3f-246ca569e7a3","system_id":"levelo_inurba_marseille","lat":43.311722,"lon":5.387247,"is_reserved":false,"is_disabled":false,"rental_uris":{"android":"levelo://app?vid=a193ca13-ef95-47ed-ac3f-246ca569e7a3","ios":"levelo://app?vid=a193ca13-ef95-47ed-ac3f-246ca569e7a3"},"vehicle_type_id":"4","last_reported":1689113192,"current_range_meters":27200,"station_id":"ce4bgv12rcd13ifvqcp0","pricing_plan_id":"free"},{"bike_id":"becbd3fd-1575-4fd6-aaa2-7e3c8d75c85b","system_id":"levelo_inurba_marseille","lat":43.311722,"lon":5.387247,"is_reserved":false,"is_disabled":false,"rental_uris":{"android":"levelo://app?vid=becbd3fd-1575-4fd6-aaa2-7e3c8d75c85b","ios":"levelo://app?vid=becbd3fd-1575-4fd6-aaa2-7e3c8d75c85b"},"vehicle_type_id":"4","last_reported":1689113192,"current_range_meters":15200,"station_id":"ce4bgv12rcd13ifvqcp0","pricing_plan_id":"free"},{"bike_id":"fe60ac76-0b1b-4d4f-b715-ae8878e61f90","system_id":"levelo_inurba_marseille","lat":43.328371,"lon":5.366909,"is_reserved":false,"is_disabled":false,"rental_uris":{"android":"levelo://app?vid=fe60ac76-0b1b-4d4f-b715-ae8878e61f90","ios":"levelo://app?vid=fe60ac76-0b1b-4d4f-b715-ae8878e61f90"},"vehicle_type_id":"4","last_reported":1689113192,"current_range_meters":5200,"station_id":"ce4bhs92rcd13ifvqi0g","pricing_plan_id":"free"},{"bike_id":"82c0663d-b10b-41e9-a3f9-9ee62ea8c128","system_id":"levelo_inurba_marseille","lat":43.328371,"lon":5.366909,"is_reserved":false,"is_disabled":false,"rental_uris":{"android":"levelo://app?vid=82c0663d-b10b-41e9-a3f9-9ee62ea8c128","ios":"levelo://app?vid=82c0663d-b10b-41e9-a3f9-9ee62ea8c128"},"vehicle_type_id":"4","last_reported":1689113192,"current_range_meters":19200,"station_id":"ce4bhs92rcd13ifvqi0g","pricing_plan_id":"free"},{"bike_id":"dd3846f3-ff6b-4b88-92a4-1d7ff732aedf","system_id":"levelo_inurba_marseille","lat":43.328371,"lon":5.366909,"is_reserved":false,"is_disabled":false,"rental_uris":{"android":"levelo://app?vid=dd3846f3-ff6b-4b88-92a4-1d7ff732aedf","ios":"levelo://app?vid=dd3846f3-ff6b-4b88-92a4-1d7ff732aedf"},"vehicle_type_id":"4","last_reported":1689113192,"current_range_meters":19200,"station_id":"ce4bhs92rcd13ifvqi0g","pricing_plan_id":"free"},{"bike_id":"74407244-ba39-462d-88fc-a473c2c49845","system_id":"levelo_inurba_marseille","lat":43.328371,"lon":5.366909,"is_reserved":false,"is_disabled":false,"rental_uris":{"android":"levelo://app?vid=74407244-ba39-462d-88fc-a473c2c49845","ios":"levelo://app?vid=74407244-ba39-462d-88fc-a473c2c49845"},"vehicle_type_id":"4","last_reported":1689113192,"current_range_meters":20800,"station_id":"ce4bhs92rcd13ifvqi0g","pricing_plan_id":"free"},{"bike_id":"9ab6acd3-36c0-40d7-a8cb-2e2f800b400f","system_id":"levelo_inurba_marseille","lat":43.328371,"lon":5.366909,"is_reserved":false,"is_disabled":false,"rental_uris":{"android":"levelo://app?vid=9ab6acd3-36c0-40d7-a8cb-2e2f800b400f","ios":"levelo://app?vid=9ab6acd3-36c0-40d7-a8cb-2e2f800b400f"},"vehicle_type_id":"4","last_reported":1689113192,"current_range_meters":5600,"station_id":"ce4bhs92rcd13ifvqi0g","pricing_plan_id":"free"},{"bike_id":"a54240bd-886a-40d8-b179-983d41370a19","system_id":"levelo_inurba_marseille","lat":43.32828,"lon":5.3668,"is_reserved":false,"is_disabled":false,"rental_uris":{"android":"levelo://app?vid=a54240bd-886a-40d8-b179-983d41370a19","ios":"levelo://app?vid=a54240bd-886a-40d8-b179-983d41370a19"},"vehicle_type_id":"4","last_reported":1689113192,"current_range_meters":4400,"station_id":"ce4bhs92rcd13ifvqi0g","pricing_plan_id":"free"},{"bike_id":"c4f05027-afdf-4955-8415-7bbeb3c9b318","system_id":"levelo_inurba_marseille","lat":43.328371,"lon":5.366909,"is_reserved":false,"is_disabled":false,"rental_uris":{"android":"levelo://app?vid=c4f05027-afdf-4955-8415-7bbeb3c9b318","ios":"levelo://app?vid=c4f05027-afdf-4955-8415-7bbeb3c9b318"},"vehicle_type_id":"4","last_reported":1689113192,"current_range_meters":4400,"station_id":"ce4bhs92rcd13ifvqi0g","pricing_plan_id":"free"},{"bike_id":"71cff3a3-0a67-4159-8e0c-f10f8ae2b748","system_id":"levelo_inurba_marseille","lat":43.328371,"lon":5.366909,"is_reserved":false,"is_disabled":false,"rental_uris":{"android":"levelo://app?vid=71cff3a3-0a67-4159-8e0c-f10f8ae2b748","ios":"levelo://app?vid=71cff3a3-0a67-4159-8e0c-f10f8ae2b748"},"vehicle_type_id":"4","last_reported":1689113192,"current_range_meters":20800,"station_id":"ce4bhs92rcd13ifvqi0g","pricing_plan_id":"free"},{"bike_id":"98be7db6-8143-41d3-9935-185fe9ab20f3","system_id":"levelo_inurba_marseille","lat":43.3283,"lon":5.36682,"is_reserved":false,"is_disabled":false,"rental_uris":{"android":"levelo://app?vid=98be7db6-8143-41d3-9935-185fe9ab20f3","ios":"levelo://app?vid=98be7db6-8143-41d3-9935-185fe9ab20f3"},"vehicle_type_id":"4","last_reported":1689113192,"current_range_meters":25200,"station_id":"ce4bhs92rcd13ifvqi0g","pricing_plan_id":"free"},{"bike_id":"7026f680-b637-4c29-8ca8-3286106d6c68","system_id":"levelo_inurba_marseille","lat":43.32831,"lon":5.36688,"is_reserved":false,"is_disabled":false,"rental_uris":{"android":"levelo://app?vid=7026f680-b637-4c29-8ca8-3286106d6c68","ios":"levelo://app?vid=7026f680-b637-4c29-8ca8-3286106d6c68"},"vehicle_type_id":"4","last_reported":1689113192,"current_range_meters":21600,"station_id":"ce4bhs92rcd13ifvqi0g","pricing_plan_id":"free"},{"bike_id":"6e84172c-531f-4b24-a0a2-0973f54d26cc","system_id":"levelo_inurba_marseille","lat":43.32831,"lon":5.3668,"is_reserved":false,"is_disabled":false,"rental_uris":{"android":"levelo://app?vid=6e84172c-531f-4b24-a0a2-0973f54d26cc","ios":"levelo://app?vid=6e84172c-531f-4b24-a0a2-0973f54d26cc"},"vehicle_type_id":"4","last_reported":1689113192,"current_range_meters":28000,"station_id":"ce4bhs92rcd13ifvqi0g","pricing_plan_id":"free"},{"bike_id":"dae73537-ced7-481d-90e5-a224c0c7707b","system_id":"levelo_inurba_marseille","lat":43.32835,"lon":5.36686,"is_reserved":false,"is_disabled":false,"rental_uris":{"android":"levelo://app?vid=dae73537-ced7-481d-90e5-a224c0c7707b","ios":"levelo://app?vid=dae73537-ced7-481d-90e5-a224c0c7707b"},"vehicle_type_id":"4","last_reported":1689113192,"current_range_meters":8400,"station_id":"ce4bhs92rcd13ifvqi0g","pricing_plan_id":"free"},{"bike_id":"7cc51e05-826e-4bad-9cfe-c17287decf29","system_id":"levelo_inurba_marseille","lat":43.29714,"lon":5.3661,"is_reserved":false,"is_disabled":false,"rental_uris":{"android":"levelo://app?vid=7cc51e05-826e-4bad-9cfe-c17287decf29","ios":"levelo://app?vid=7cc51e05-826e-4bad-9cfe-c17287decf29"},"vehicle_type_id":"4","last_reported":1689113192,"current_range_meters":18400,"station_id":"ce4bgn12rcd13ifvqbt0","pricing_plan_id":"free"},{"bike_id":"5ea73e21-dcac-447b-9e8f-3a8481eb4313","system_id":"levelo_inurba_marseille","lat":43.29713,"lon":5.3661,"is_reserved":false,"is_disabled":false,"rental_uris":{"android":"levelo://app?vid=5ea73e21-dcac-447b-9e8f-3a8481eb4313","ios":"levelo://app?vid=5ea73e21-dcac-447b-9e8f-3a8481eb4313"},"vehicle_type_id":"4","last_reported":1689113192,"current_range_meters":12000,"station_id":"ce4bgn12rcd13ifvqbt0","pricing_plan_id":"free"},{"bike_id":"ac0ab414-c38e-4625-b276-0d829fe79721","system_id":"levelo_inurba_marseille","lat":43.328371,"lon":5.366909,"is_reserved":false,"is_disabled":false,"rental_uris":{"android":"levelo://app?vid=ac0ab414-c38e-4625-b276-0d829fe79721","ios":"levelo://app?vid=ac0ab414-c38e-4625-b276-0d829fe79721"},"vehicle_type_id":"4","last_reported":1689113192,"current_range_meters":29200,"station_id":"ce4bhs92rcd13ifvqi0g","pricing_plan_id":"free"},{"bike_id":"74e091c8-36c9-4932-b52b-92a60f25a803","system_id":"levelo_inurba_marseille","lat":43.2971,"lon":5.3661,"is_reserved":false,"is_disabled":false,"rental_uris":{"android":"levelo://app?vid=74e091c8-36c9-4932-b52b-92a60f25a803","ios":"levelo://app?vid=74e091c8-36c9-4932-b52b-92a60f25a803"},"vehicle_type_id":"4","last_reported":1689113192,"current_range_meters":23200,"station_id":"ce4bgn12rcd13ifvqbt0","pricing_plan_id":"free"},{"bike_id":"c0824d4a-9b63-4c22-b433-20b71f3da7b9","system_id":"levelo_inurba_marseille","lat":43.2971,"lon":5.36609,"is_reserved":false,"is_disabled":false,"rental_uris":{"android":"levelo://app?vid=c0824d4a-9b63-4c22-b433-20b71f3da7b9","ios":"levelo://app?vid=c0824d4a-9b63-4c22-b433-20b71f3da7b9"},"vehicle_type_id":"4","last_reported":1689113192,"current_range_meters":13200,"station_id":"ce4bgn12rcd13ifvqbt0","pricing_plan_id":"free"},{"bike_id":"9f2221e7-b787-46f9-a389-00005fa81751","system_id":"levelo_inurba_marseille","lat":43.2971,"lon":5.36608,"is_reserved":false,"is_disabled":false,"rental_uris":{"android":"levelo://app?vid=9f2221e7-b787-46f9-a389-00005fa81751","ios":"levelo://app?vid=9f2221e7-b787-46f9-a389-00005fa81751"},"vehicle_type_id":"4","last_reported":1689113192,"current_range_meters":31200,"station_id":"ce4bgn12rcd13ifvqbt0","pricing_plan_id":"free"},{"bike_id":"671e6103-749a-44d5-9262-c0380ac8955e","system_id":"levelo_inurba_marseille","lat":43.297163,"lon":5.365866,"is_reserved":false,"is_disabled":false,"rental_uris":{"android":"levelo://app?vid=671e6103-749a-44d5-9262-c0380ac8955e","ios":"levelo://app?vid=671e6103-749a-44d5-9262-c0380ac8955e"},"vehicle_type_id":"4","last_reported":1689113192,"current_range_meters":31200,"station_id":"ce4bgn12rcd13ifvqbt0","pricing_plan_id":"free"},{"bike_id":"51f48678-26d4-4bbc-8f52-5e2b219eda87","system_id":"levelo_inurba_marseille","lat":43.297163,"lon":5.365866,"is_reserved":false,"is_disabled":false,"rental_uris":{"android":"levelo://app?vid=51f48678-26d4-4bbc-8f52-5e2b219eda87","ios":"levelo://app?vid=51f48678-26d4-4bbc-8f52-5e2b219eda87"},"vehicle_type_id":"4","last_reported":1689113192,"current_range_meters":30800,"station_id":"ce4bgn12rcd13ifvqbt0","pricing_plan_id":"free"},{"bike_id":"bb52540a-5452-40ba-a697-b012ab3b2089","system_id":"levelo_inurba_marseille","lat":43.297163,"lon":5.365866,"is_reserved":false,"is_disabled":false,"rental_uris":{"android":"levelo://app?vid=bb52540a-5452-40ba-a697-b012ab3b2089","ios":"levelo://app?vid=bb52540a-5452-40ba-a697-b012ab3b2089"},"vehicle_type_id":"4","last_reported":1689113192,"current_range_meters":31200,"station_id":"ce4bgn12rcd13ifvqbt0","pricing_plan_id":"free"},{"bike_id":"9f57cb93-34a4-469b-aa35-60194e34c25e","system_id":"levelo_inurba_marseille","lat":43.297163,"lon":5.365866,"is_reserved":false,"is_disabled":false,"rental_uris":{"android":"levelo://app?vid=9f57cb93-34a4-469b-aa35-60194e34c25e","ios":"levelo://app?vid=9f57cb93-34a4-469b-aa35-60194e34c25e"},"vehicle_type_id":"4","last_reported":1689113192,"current_range_meters":31200,"station_id":"ce4bgn12rcd13ifvqbt0","pricing_plan_id":"free"},{"bike_id":"11812485-737e-4775-a7b0-c1dbec57bd7f","system_id":"levelo_inurba_marseille","lat":43.297163,"lon":5.365866,"is_reserved":false,"is_disabled":false,"rental_uris":{"android":"levelo://app?vid=11812485-737e-4775-a7b0-c1dbec57bd7f","ios":"levelo://app?vid=11812485-737e-4775-a7b0-c1dbec57bd7f"},"vehicle_type_id":"4","last_reported":1689113192,"current_range_meters":31200,"station_id":"ce4bgn12rcd13ifvqbt0","pricing_plan_id":"free"},{"bike_id":"02b8081e-7b3b-4ef1-8c58-04de23d6bf05","system_id":"levelo_inurba_marseille","lat":43.29626,"lon":5.37163,"is_reserved":false,"is_disabled":false,"rental_uris":{"android":"levelo://app?vid=02b8081e-7b3b-4ef1-8c58-04de23d6bf05","ios":"levelo://app?vid=02b8081e-7b3b-4ef1-8c58-04de23d6bf05"},"vehicle_type_id":"4","last_reported":1689113192,"current_range_meters":30400,"station_id":"ce4bgnh2rcd13ifvqc0g","pricing_plan_id":"free"},{"bike_id":"b8ec00c8-0fbc-41a7-9817-5ad3b5686676","system_id":"levelo_inurba_marseille","lat":43.29624,"lon":5.37161,"is_reserved":false,"is_disabled":false,"rental_uris":{"android":"levelo://app?vid=b8ec00c8-0fbc-41a7-9817-5ad3b5686676","ios":"levelo://app?vid=b8ec00c8-0fbc-41a7-9817-5ad3b5686676"},"vehicle_type_id":"4","last_reported":1689113192,"current_range_meters":27200,"station_id":"ce4bgnh2rcd13ifvqc0g","pricing_plan_id":"free"},{"bike_id":"6e31cbfb-b833-42ba-b677-69362f3c4ba9","system_id":"levelo_inurba_marseille","lat":43.29624,"lon":5.37166,"is_reserved":false,"is_disabled":false,"rental_uris":{"android":"levelo://app?vid=6e31cbfb-b833-42ba-b677-69362f3c4ba9","ios":"levelo://app?vid=6e31cbfb-b833-42ba-b677-69362f3c4ba9"},"vehicle_type_id":"4","last_reported":1689113192,"current_range_meters":31600,"station_id":"ce4bgnh2rcd13ifvqc0g","pricing_plan_id":"free"},{"bike_id":"bcd8ef25-95ee-4d16-95c1-02c42bb4cf39","system_id":"levelo_inurba_marseille","lat":43.29622,"lon":5.37156,"is_reserved":false,"is_disabled":false,"rental_uris":{"android":"levelo://app?vid=bcd8ef25-95ee-4d16-95c1-02c42bb4cf39","ios":"levelo://app?vid=bcd8ef25-95ee-4d16-95c1-02c42bb4cf39"},"vehicle_type_id":"4","last_reported":1689113192,"current_range_meters":30000,"station_id":"ce4bgnh2rcd13ifvqc0g","pricing_plan_id":"free"},{"bike_id":"aafb5165-fe71-419c-9fd9-c94d84f8bc36","system_id":"levelo_inurba_marseille","lat":43.29622,"lon":5.37157,"is_reserved":false,"is_disabled":false,"rental_uris":{"android":"levelo://app?vid=aafb5165-fe71-419c-9fd9-c94d84f8bc36","ios":"levelo://app?vid=aafb5165-fe71-419c-9fd9-c94d84f8bc36"},"vehicle_type_id":"4","last_reported":1689113192,"current_range_meters":31600,"station_id":"ce4bgnh2rcd13ifvqc0g","pricing_plan_id":"free"},{"bike_id":"da69689e-729a-4026-80b3-3f0a5bc94228","system_id":"levelo_inurba_marseille","lat":43.29621,"lon":5.37162,"is_reserved":false,"is_disabled":false,"rental_uris":{"android":"levelo://app?vid=da69689e-729a-4026-80b3-3f0a5bc94228","ios":"levelo://app?vid=da69689e-729a-4026-80b3-3f0a5bc94228"},"vehicle_type_id":"4","last_reported":1689113192,"current_range_meters":31200,"station_id":"ce4bgnh2rcd13ifvqc0g","pricing_plan_id":"free"},{"bike_id":"bdb9a72c-c9c8-4d47-a207-51c07813fca5","system_id":"levelo_inurba_marseille","lat":43.295822,"lon":5.367442,"is_reserved":false,"is_disabled":false,"rental_uris":{"android":"levelo://app?vid=bdb9a72c-c9c8-4d47-a207-51c07813fca5","ios":"levelo://app?vid=bdb9a72c-c9c8-4d47-a207-51c07813fca5"},"vehicle_type_id":"4","last_reported":1689113192,"current_range_meters":6800,"station_id":"","pricing_plan_id":"free"},{"bike_id":"99dac2ec-5cc8-4203-9b94-7cfd93be7f08","system_id":"levelo_inurba_marseille","lat":43.295809,"lon":5.367432,"is_reserved":false,"is_disabled":false,"rental_uris":{"android":"levelo://app?vid=99dac2ec-5cc8-4203-9b94-7cfd93be7f08","ios":"levelo://app?vid=99dac2ec-5cc8-4203-9b94-7cfd93be7f08"},"vehicle_type_id":"4","last_reported":1689113192,"current_range_meters":28800,"station_id":"ce4bgph2rcd13ifvqc2g","pricing_plan_id":"free"},{"bike_id":"ab8bb350-50f3-4c41-aa0a-4c0100195a3f","system_id":"levelo_inurba_marseille","lat":43.29573,"lon":5.367355,"is_reserved":false,"is_disabled":false,"rental_uris":{"android":"levelo://app?vid=ab8bb350-50f3-4c41-aa0a-4c0100195a3f","ios":"levelo://app?vid=ab8bb350-50f3-4c41-aa0a-4c0100195a3f"},"vehicle_type_id":"4","last_reported":1689113192,"current_range_meters":18400,"station_id":"ce4bgph2rcd13ifvqc2g","pricing_plan_id":"free"},{"bike_id":"5cacbd07-3aaf-4a29-ab3b-6bb563e96cb9","system_id":"levelo_inurba_marseille","lat":43.309589,"lon":5.390258,"is_reserved":false,"is_disabled":false,"rental_uris":{"android":"levelo://app?vid=5cacbd07-3aaf-4a29-ab3b-6bb563e96cb9","ios":"levelo://app?vid=5cacbd07-3aaf-4a29-ab3b-6bb563e96cb9"},"vehicle_type_id":"4","last_reported":1689113192,"current_range_meters":19200,"station_id":"ce4bgup2rcd13ifvqco0","pricing_plan_id":"free"},{"bike_id":"008769a5-b201-4680-a1fe-e1f9f19bf7e3","system_id":"levelo_inurba_marseille","lat":43.309589,"lon":5.390258,"is_reserved":false,"is_disabled":false,"rental_uris":{"android":"levelo://app?vid=008769a5-b201-4680-a1fe-e1f9f19bf7e3","ios":"levelo://app?vid=008769a5-b201-4680-a1fe-e1f9f19bf7e3"},"vehicle_type_id":"4","last_reported":1689113192,"current_range_meters":24400,"station_id":"ce4bgup2rcd13ifvqco0","pricing_plan_id":"free"},{"bike_id":"ed4c44b9-5784-4049-b8c2-49bfe991bea0","system_id":"levelo_inurba_marseille","lat":43.299028,"lon":5.381509,"is_reserved":false,"is_disabled":false,"rental_uris":{"android":"levelo://app?vid=ed4c44b9-5784-4049-b8c2-49bfe991bea0","ios":"levelo://app?vid=ed4c44b9-5784-4049-b8c2-49bfe991bea0"},"vehicle_type_id":"4","last_reported":1689113192,"current_range_meters":30800,"station_id":"ce4bgj12rcd13ifvqbc0","pricing_plan_id":"free"},{"bike_id":"c3f8718a-446a-49e3-9b7b-399c84bdfcce","system_id":"levelo_inurba_marseille","lat":43.309589,"lon":5.390258,"is_reserved":false,"is_disabled":false,"rental_uris":{"android":"levelo://app?vid=c3f8718a-446a-49e3-9b7b-399c84bdfcce","ios":"levelo://app?vid=c3f8718a-446a-49e3-9b7b-399c84bdfcce"},"vehicle_type_id":"4","last_reported":1689113192,"current_range_meters":16000,"station_id":"ce4bgup2rcd13ifvqco0","pricing_plan_id":"free"},{"bike_id":"c6948e23-5e6d-468e-a7d0-65061435d887","system_id":"levelo_inurba_marseille","lat":43.29902,"lon":5.38155,"is_reserved":false,"is_disabled":false,"rental_uris":{"android":"levelo://app?vid=c6948e23-5e6d-468e-a7d0-65061435d887","ios":"levelo://app?vid=c6948e23-5e6d-468e-a7d0-65061435d887"},"vehicle_type_id":"4","last_reported":1689113192,"current_range_meters":31200,"station_id":"","pricing_plan_id":"free"},{"bike_id":"e2d808a3-69a3-4ddb-b68d-aeb1e95a8ccf","system_id":"levelo_inurba_marseille","lat":43.317557,"lon":5.390173,"is_reserved":false,"is_disabled":false,"rental_uris":{"android":"levelo://app?vid=e2d808a3-69a3-4ddb-b68d-aeb1e95a8ccf","ios":"levelo://app?vid=e2d808a3-69a3-4ddb-b68d-aeb1e95a8ccf"},"vehicle_type_id":"4","last_reported":1689113192,"current_range_meters":28800,"station_id":"ce4bhqp2rcd13ifvqhng","pricing_plan_id":"free"},{"bike_id":"627f8e5a-5db0-4cbb-8c53-3ed6922b563f","system_id":"levelo_inurba_marseille","lat":43.317557,"lon":5.390173,"is_reserved":false,"is_disabled":false,"rental_uris":{"android":"levelo://app?vid=627f8e5a-5db0-4cbb-8c53-3ed6922b563f","ios":"levelo://app?vid=627f8e5a-5db0-4cbb-8c53-3ed6922b563f"},"vehicle_type_id":"4","last_reported":1689113192,"current_range_meters":31200,"station_id":"ce4bhqp2rcd13ifvqhng","pricing_plan_id":"free"},{"bike_id":"d4f7cd59-0c2e-4cd9-acc0-d2db61240575","system_id":"levelo_inurba_marseille","lat":43.31761,"lon":5.39011,"is_reserved":false,"is_disabled":false,"rental_uris":{"android":"levelo://app?vid=d4f7cd59-0c2e-4cd9-acc0-d2db61240575","ios":"levelo://app?vid=d4f7cd59-0c2e-4cd9-acc0-d2db61240575"},"vehicle_type_id":"4","last_reported":1689113192,"current_range_meters":23200,"station_id":"ce4bhqp2rcd13ifvqhng","pricing_plan_id":"free"},{"bike_id":"8c61f9ce-bf65-4deb-b624-0867bc7a7907","system_id":"levelo_inurba_marseille","lat":43.317557,"lon":5.390173,"is_reserved":false,"is_disabled":false,"rental_uris":{"android":"levelo://app?vid=8c61f9ce-bf65-4deb-b624-0867bc7a7907","ios":"levelo://app?vid=8c61f9ce-bf65-4deb-b624-0867bc7a7907"},"vehicle_type_id":"4","last_reported":1689113192,"current_range_meters":31600,"station_id":"ce4bhqp2rcd13ifvqhng","pricing_plan_id":"free"},{"bike_id":"eb698611-807b-4517-b542-dfac4519c2e4","system_id":"levelo_inurba_marseille","lat":43.317557,"lon":5.390173,"is_reserved":false,"is_disabled":false,"rental_uris":{"android":"levelo://app?vid=eb698611-807b-4517-b542-dfac4519c2e4","ios":"levelo://app?vid=eb698611-807b-4517-b542-dfac4519c2e4"},"vehicle_type_id":"4","last_reported":1689113192,"current_range_meters":31600,"station_id":"ce4bhqp2rcd13ifvqhng","pricing_plan_id":"free"},{"bike_id":"7415c422-e609-4b51-a4d0-f6efc7dbe2c7","system_id":"levelo_inurba_marseille","lat":43.3176,"lon":5.39014,"is_reserved":false,"is_disabled":false,"rental_uris":{"android":"levelo://app?vid=7415c422-e609-4b51-a4d0-f6efc7dbe2c7","ios":"levelo://app?vid=7415c422-e609-4b51-a4d0-f6efc7dbe2c7"},"vehicle_type_id":"4","last_reported":1689113192,"current_range_meters":15200,"station_id":"ce4bhqp2rcd13ifvqhng","pricing_plan_id":"free"},{"bike_id":"1edd266f-eaa6-40e1-ae01-31684fa68a82","system_id":"levelo_inurba_marseille","lat":43.31758,"lon":5.39018,"is_reserved":false,"is_disabled":false,"rental_uris":{"android":"levelo://app?vid=1edd266f-eaa6-40e1-ae01-31684fa68a82","ios":"levelo://app?vid=1edd266f-eaa6-40e1-ae01-31684fa68a82"},"vehicle_type_id":"4","last_reported":1689113192,"current_range_meters":16400,"station_id":"ce4bhqp2rcd13ifvqhng","pricing_plan_id":"free"},{"bike_id":"0b94d718-c38b-4f0f-82d3-55a93b41ddee","system_id":"levelo_inurba_marseille","lat":43.31755,"lon":5.3902,"is_reserved":false,"is_disabled":false,"rental_uris":{"android":"levelo://app?vid=0b94d718-c38b-4f0f-82d3-55a93b41ddee","ios":"levelo://app?vid=0b94d718-c38b-4f0f-82d3-55a93b41ddee"},"vehicle_type_id":"4","last_reported":1689113192,"current_range_meters":24000,"station_id":"ce4bhqp2rcd13ifvqhng","pricing_plan_id":"free"},{"bike_id":"d5723717-8f36-4514-bcde-f753dfeebd28","system_id":"levelo_inurba_marseille","lat":43.31763,"lon":5.39017,"is_reserved":false,"is_disabled":false,"rental_uris":{"android":"levelo://app?vid=d5723717-8f36-4514-bcde-f753dfeebd28","ios":"levelo://app?vid=d5723717-8f36-4514-bcde-f753dfeebd28"},"vehicle_type_id":"4","last_reported":1689113192,"current_range_meters":27600,"station_id":"ce4bhqp2rcd13ifvqhng","pricing_plan_id":"free"},{"bike_id":"172ad08e-865f-4b89-8698-a1b80b64363b","system_id":"levelo_inurba_marseille","lat":43.31759,"lon":5.39024,"is_reserved":false,"is_disabled":false,"rental_uris":{"android":"levelo://app?vid=172ad08e-865f-4b89-8698-a1b80b64363b","ios":"levelo://app?vid=172ad08e-865f-4b89-8698-a1b80b64363b"},"vehicle_type_id":"4","last_reported":1689113192,"current_range_meters":14000,"station_id":"ce4bhqp2rcd13ifvqhng","pricing_plan_id":"free"},{"bike_id":"e17cffcd-645a-4c42-9f9d-40a7f7b26fe0","system_id":"levelo_inurba_marseille","lat":43.298037,"lon":5.381066,"is_reserved":false,"is_disabled":false,"rental_uris":{"android":"levelo://app?vid=e17cffcd-645a-4c42-9f9d-40a7f7b26fe0","ios":"levelo://app?vid=e17cffcd-645a-4c42-9f9d-40a7f7b26fe0"},"vehicle_type_id":"4","last_reported":1689113192,"current_range_meters":26000,"station_id":"ce4bgip2rcd13ifvqbb0","pricing_plan_id":"free"},{"bike_id":"983357b1-5a69-40aa-9964-a0eff2f86012","system_id":"levelo_inurba_marseille","lat":43.3044,"lon":5.38883,"is_reserved":false,"is_disabled":false,"rental_uris":{"android":"levelo://app?vid=983357b1-5a69-40aa-9964-a0eff2f86012","ios":"levelo://app?vid=983357b1-5a69-40aa-9964-a0eff2f86012"},"vehicle_type_id":"4","last_reported":1689113192,"current_range_meters":26400,"station_id":"ce4bgk12rcd13ifvqbi0","pricing_plan_id":"free"},{"bike_id":"a5ddb7e0-d153-42a8-bf33-b0ce4a172530","system_id":"levelo_inurba_marseille","lat":43.30431,"lon":5.38884,"is_reserved":false,"is_disabled":false,"rental_uris":{"android":"levelo://app?vid=a5ddb7e0-d153-42a8-bf33-b0ce4a172530","ios":"levelo://app?vid=a5ddb7e0-d153-42a8-bf33-b0ce4a172530"},"vehicle_type_id":"4","last_reported":1689113192,"current_range_meters":24400,"station_id":"ce4bgk12rcd13ifvqbi0","pricing_plan_id":"free"},{"bike_id":"12fa73a3-0f83-467b-a401-b026017c44f0","system_id":"levelo_inurba_marseille","lat":43.304278,"lon":5.388868,"is_reserved":false,"is_disabled":false,"rental_uris":{"android":"levelo://app?vid=12fa73a3-0f83-467b-a401-b026017c44f0","ios":"levelo://app?vid=12fa73a3-0f83-467b-a401-b026017c44f0"},"vehicle_type_id":"4","last_reported":1689113192,"current_range_meters":22000,"station_id":"ce4bgk12rcd13ifvqbi0","pricing_plan_id":"free"},{"bike_id":"4fc5a4f6-dbe5-413f-8b3a-cb48d87412ee","system_id":"levelo_inurba_marseille","lat":43.30442,"lon":5.38894,"is_reserved":false,"is_disabled":false,"rental_uris":{"android":"levelo://app?vid=4fc5a4f6-dbe5-413f-8b3a-cb48d87412ee","ios":"levelo://app?vid=4fc5a4f6-dbe5-413f-8b3a-cb48d87412ee"},"vehicle_type_id":"4","last_reported":1689113192,"current_range_meters":8800,"station_id":"ce4bgk12rcd13ifvqbi0","pricing_plan_id":"free"},{"bike_id":"134eb3d2-9868-4b24-8537-5a13638e21a0","system_id":"levelo_inurba_marseille","lat":43.30431,"lon":5.38888,"is_reserved":false,"is_disabled":false,"rental_uris":{"android":"levelo://app?vid=134eb3d2-9868-4b24-8537-5a13638e21a0","ios":"levelo://app?vid=134eb3d2-9868-4b24-8537-5a13638e21a0"},"vehicle_type_id":"4","last_reported":1689113192,"current_range_meters":22000,"station_id":"ce4bgk12rcd13ifvqbi0","pricing_plan_id":"free"},{"bike_id":"b98ddf84-192a-482d-a785-fc4665f77a12","system_id":"levelo_inurba_marseille","lat":43.299707,"lon":5.384859,"is_reserved":false,"is_disabled":false,"rental_uris":{"android":"levelo://app?vid=b98ddf84-192a-482d-a785-fc4665f77a12","ios":"levelo://app?vid=b98ddf84-192a-482d-a785-fc4665f77a12"},"vehicle_type_id":"4","last_reported":1689113192,"current_range_meters":19600,"station_id":"ce4bgj92rcd13ifvqbd0","pricing_plan_id":"free"},{"bike_id":"d48f3e06-c0c8-49de-887c-8793acffb1f4","system_id":"levelo_inurba_marseille","lat":43.299706,"lon":5.384781,"is_reserved":false,"is_disabled":false,"rental_uris":{"android":"levelo://app?vid=d48f3e06-c0c8-49de-887c-8793acffb1f4","ios":"levelo://app?vid=d48f3e06-c0c8-49de-887c-8793acffb1f4"},"vehicle_type_id":"4","last_reported":1689113192,"current_range_meters":12000,"station_id":"ce4bgj92rcd13ifvqbd0","pricing_plan_id":"free"},{"bike_id":"f01c2770-3abb-484d-905a-93f11d695710","system_id":"levelo_inurba_marseille","lat":43.299707,"lon":5.384859,"is_reserved":false,"is_disabled":false,"rental_uris":{"android":"levelo://app?vid=f01c2770-3abb-484d-905a-93f11d695710","ios":"levelo://app?vid=f01c2770-3abb-484d-905a-93f11d695710"},"vehicle_type_id":"4","last_reported":1689113192,"current_range_meters":16000,"station_id":"ce4bgj92rcd13ifvqbd0","pricing_plan_id":"free"},{"bike_id":"e9525e4c-2b5a-4387-85ca-9099cc5e7473","system_id":"levelo_inurba_marseille","lat":43.29965,"lon":5.38473,"is_reserved":false,"is_disabled":false,"rental_uris":{"android":"levelo://app?vid=e9525e4c-2b5a-4387-85ca-9099cc5e7473","ios":"levelo://app?vid=e9525e4c-2b5a-4387-85ca-9099cc5e7473"},"vehicle_type_id":"4","last_reported":1689113192,"current_range_meters":29200,"station_id":"ce4bgj92rcd13ifvqbd0","pricing_plan_id":"free"},{"bike_id":"a63563e4-6029-4338-b038-d30767d7508b","system_id":"levelo_inurba_marseille","lat":43.299707,"lon":5.384859,"is_reserved":false,"is_disabled":false,"rental_uris":{"android":"levelo://app?vid=a63563e4-6029-4338-b038-d30767d7508b","ios":"levelo://app?vid=a63563e4-6029-4338-b038-d30767d7508b"},"vehicle_type_id":"4","last_reported":1689113192,"current_range_meters":20800,"station_id":"ce4bgj92rcd13ifvqbd0","pricing_plan_id":"free"},{"bike_id":"c5bf0b1f-4246-4c27-a0a2-5aaa1707e18a","system_id":"levelo_inurba_marseille","lat":43.29972,"lon":5.38487,"is_reserved":false,"is_disabled":false,"rental_uris":{"android":"levelo://app?vid=c5bf0b1f-4246-4c27-a0a2-5aaa1707e18a","ios":"levelo://app?vid=c5bf0b1f-4246-4c27-a0a2-5aaa1707e18a"},"vehicle_type_id":"4","last_reported":1689113192,"current_range_meters":23600,"station_id":"ce4bgj92rcd13ifvqbd0","pricing_plan_id":"free"},{"bike_id":"1d896e34-3ebe-46fc-8a6d-534bcb69c504","system_id":"levelo_inurba_marseille","lat":43.299707,"lon":5.384859,"is_reserved":false,"is_disabled":false,"rental_uris":{"android":"levelo://app?vid=1d896e34-3ebe-46fc-8a6d-534bcb69c504","ios":"levelo://app?vid=1d896e34-3ebe-46fc-8a6d-534bcb69c504"},"vehicle_type_id":"4","last_reported":1689113192,"current_range_meters":15600,"station_id":"ce4bgj92rcd13ifvqbd0","pricing_plan_id":"free"},{"bike_id":"6bc1bead-4ec1-4f2b-8ada-b7fa4038a766","system_id":"levelo_inurba_marseille","lat":43.299707,"lon":5.384859,"is_reserved":false,"is_disabled":false,"rental_uris":{"android":"levelo://app?vid=6bc1bead-4ec1-4f2b-8ada-b7fa4038a766","ios":"levelo://app?vid=6bc1bead-4ec1-4f2b-8ada-b7fa4038a766"},"vehicle_type_id":"4","last_reported":1689113192,"current_range_meters":31200,"station_id":"ce4bgj92rcd13ifvqbd0","pricing_plan_id":"free"},{"bike_id":"d1c5238b-f10b-483b-b980-36761b771d8a","system_id":"levelo_inurba_marseille","lat":43.299685,"lon":5.384875,"is_reserved":false,"is_disabled":false,"rental_uris":{"android":"levelo://app?vid=d1c5238b-f10b-483b-b980-36761b771d8a","ios":"levelo://app?vid=d1c5238b-f10b-483b-b980-36761b771d8a"},"vehicle_type_id":"4","last_reported":1689113192,"current_range_meters":31200,"station_id":"ce4bgj92rcd13ifvqbd0","pricing_plan_id":"free"},{"bike_id":"1ff13a78-584f-46a2-a126-36c82669e7ed","system_id":"levelo_inurba_marseille","lat":43.299724,"lon":5.384848,"is_reserved":false,"is_disabled":false,"rental_uris":{"android":"levelo://app?vid=1ff13a78-584f-46a2-a126-36c82669e7ed","ios":"levelo://app?vid=1ff13a78-584f-46a2-a126-36c82669e7ed"},"vehicle_type_id":"4","last_reported":1689113192,"current_range_meters":30000,"station_id":"ce4bgj92rcd13ifvqbd0","pricing_plan_id":"free"},{"bike_id":"aac20ad8-0df8-45b1-b1a0-86016eeac548","system_id":"levelo_inurba_marseille","lat":43.299707,"lon":5.384859,"is_reserved":false,"is_disabled":false,"rental_uris":{"android":"levelo://app?vid=aac20ad8-0df8-45b1-b1a0-86016eeac548","ios":"levelo://app?vid=aac20ad8-0df8-45b1-b1a0-86016eeac548"},"vehicle_type_id":"4","last_reported":1689113192,"current_range_meters":31200,"station_id":"ce4bgj92rcd13ifvqbd0","pricing_plan_id":"free"},{"bike_id":"b29b2997-9fd5-46fa-9619-bdbdb91dccea","system_id":"levelo_inurba_marseille","lat":43.299724,"lon":5.384848,"is_reserved":false,"is_disabled":false,"rental_uris":{"android":"levelo://app?vid=b29b2997-9fd5-46fa-9619-bdbdb91dccea","ios":"levelo://app?vid=b29b2997-9fd5-46fa-9619-bdbdb91dccea"},"vehicle_type_id":"4","last_reported":1689113192,"current_range_meters":25600,"station_id":"ce4bgj92rcd13ifvqbd0","pricing_plan_id":"free"},{"bike_id":"5054e37f-3658-4e1f-9b6f-2d94909c7a4a","system_id":"levelo_inurba_marseille","lat":43.29967,"lon":5.38495,"is_reserved":false,"is_disabled":false,"rental_uris":{"android":"levelo://app?vid=5054e37f-3658-4e1f-9b6f-2d94909c7a4a","ios":"levelo://app?vid=5054e37f-3658-4e1f-9b6f-2d94909c7a4a"},"vehicle_type_id":"4","last_reported":1689113192,"current_range_meters":4800,"station_id":"ce4bgj92rcd13ifvqbd0","pricing_plan_id":"free"},{"bike_id":"602ffd0a-4085-449f-9aa4-ba6cb44048a8","system_id":"levelo_inurba_marseille","lat":43.299717,"lon":5.384845,"is_reserved":false,"is_disabled":false,"rental_uris":{"android":"levelo://app?vid=602ffd0a-4085-449f-9aa4-ba6cb44048a8","ios":"levelo://app?vid=602ffd0a-4085-449f-9aa4-ba6cb44048a8"},"vehicle_type_id":"4","last_reported":1689113192,"current_range_meters":22000,"station_id":"ce4bgj92rcd13ifvqbd0","pricing_plan_id":"free"},{"bike_id":"cad64765-9de9-42c9-b2c1-4b14a24f72cf","system_id":"levelo_inurba_marseille","lat":43.29966,"lon":5.38498,"is_reserved":false,"is_disabled":false,"rental_uris":{"android":"levelo://app?vid=cad64765-9de9-42c9-b2c1-4b14a24f72cf","ios":"levelo://app?vid=cad64765-9de9-42c9-b2c1-4b14a24f72cf"},"vehicle_type_id":"4","last_reported":1689113192,"current_range_meters":11200,"station_id":"ce4bgj92rcd13ifvqbd0","pricing_plan_id":"free"},{"bike_id":"4bef1896-4baa-4e28-a837-de629c2f5d50","system_id":"levelo_inurba_marseille","lat":43.29964,"lon":5.38496,"is_reserved":false,"is_disabled":false,"rental_uris":{"android":"levelo://app?vid=4bef1896-4baa-4e28-a837-de629c2f5d50","ios":"levelo://app?vid=4bef1896-4baa-4e28-a837-de629c2f5d50"},"vehicle_type_id":"4","last_reported":1689113192,"current_range_meters":19600,"station_id":"ce4bgj92rcd13ifvqbd0","pricing_plan_id":"free"},{"bike_id":"d659698a-d52b-4260-b3e3-1e4924a4d6df","system_id":"levelo_inurba_marseille","lat":43.299707,"lon":5.384859,"is_reserved":false,"is_disabled":false,"rental_uris":{"android":"levelo://app?vid=d659698a-d52b-4260-b3e3-1e4924a4d6df","ios":"levelo://app?vid=d659698a-d52b-4260-b3e3-1e4924a4d6df"},"vehicle_type_id":"4","last_reported":1689113192,"current_range_meters":9200,"station_id":"ce4bgj92rcd13ifvqbd0","pricing_plan_id":"free"},{"bike_id":"c7403f56-5c48-47b4-af21-6d07e18fc66b","system_id":"levelo_inurba_marseille","lat":43.2996,"lon":5.38493,"is_reserved":false,"is_disabled":false,"rental_uris":{"android":"levelo://app?vid=c7403f56-5c48-47b4-af21-6d07e18fc66b","ios":"levelo://app?vid=c7403f56-5c48-47b4-af21-6d07e18fc66b"},"vehicle_type_id":"4","last_reported":1689113192,"current_range_meters":0,"station_id":"ce4bgj92rcd13ifvqbd0","pricing_plan_id":"free"},{"bike_id":"d4a21e6a-fb36-4b76-a953-da76a8bc5cd0","system_id":"levelo_inurba_marseille","lat":43.32367,"lon":5.388836,"is_reserved":false,"is_disabled":false,"rental_uris":{"android":"levelo://app?vid=d4a21e6a-fb36-4b76-a953-da76a8bc5cd0","ios":"levelo://app?vid=d4a21e6a-fb36-4b76-a953-da76a8bc5cd0"},"vehicle_type_id":"4","last_reported":1689113192,"current_range_meters":20000,"station_id":"ce4bhqp2rcd13ifvqhog","pricing_plan_id":"free"},{"bike_id":"e7a214e7-e874-4cd1-9dd0-9349e66bb712","system_id":"levelo_inurba_marseille","lat":43.32367,"lon":5.388836,"is_reserved":false,"is_disabled":false,"rental_uris":{"android":"levelo://app?vid=e7a214e7-e874-4cd1-9dd0-9349e66bb712","ios":"levelo://app?vid=e7a214e7-e874-4cd1-9dd0-9349e66bb712"},"vehicle_type_id":"4","last_reported":1689113192,"current_range_meters":20400,"station_id":"ce4bhqp2rcd13ifvqhog","pricing_plan_id":"free"},{"bike_id":"ad79b0e1-0eca-4f67-9c5d-8c76f3d86337","system_id":"levelo_inurba_marseille","lat":43.296,"lon":5.38106,"is_reserved":false,"is_disabled":false,"rental_uris":{"android":"levelo://app?vid=ad79b0e1-0eca-4f67-9c5d-8c76f3d86337","ios":"levelo://app?vid=ad79b0e1-0eca-4f67-9c5d-8c76f3d86337"},"vehicle_type_id":"4","last_reported":1689113192,"current_range_meters":27200,"station_id":"ce4bgl12rcd13ifvqbo0","pricing_plan_id":"free"},{"bike_id":"72e13994-6d29-4e0c-9b4d-b6dbf7076ae1","system_id":"levelo_inurba_marseille","lat":43.29601,"lon":5.381084,"is_reserved":false,"is_disabled":false,"rental_uris":{"android":"levelo://app?vid=72e13994-6d29-4e0c-9b4d-b6dbf7076ae1","ios":"levelo://app?vid=72e13994-6d29-4e0c-9b4d-b6dbf7076ae1"},"vehicle_type_id":"4","last_reported":1689113192,"current_range_meters":27600,"station_id":"ce4bgl12rcd13ifvqbo0","pricing_plan_id":"free"},{"bike_id":"1525b468-9374-492d-b2b7-af411528a904","system_id":"levelo_inurba_marseille","lat":43.2959,"lon":5.38124,"is_reserved":false,"is_disabled":false,"rental_uris":{"android":"levelo://app?vid=1525b468-9374-492d-b2b7-af411528a904","ios":"levelo://app?vid=1525b468-9374-492d-b2b7-af411528a904"},"vehicle_type_id":"4","last_reported":1689113192,"current_range_meters":4000,"station_id":"ce4bgl12rcd13ifvqbo0","pricing_plan_id":"free"},{"bike_id":"0719098b-8836-45cb-b8d4-024c5e5574e4","system_id":"levelo_inurba_marseille","lat":43.286961,"lon":5.373785,"is_reserved":false,"is_disabled":false,"rental_uris":{"android":"levelo://app?vid=0719098b-8836-45cb-b8d4-024c5e5574e4","ios":"levelo://app?vid=0719098b-8836-45cb-b8d4-024c5e5574e4"},"vehicle_type_id":"4","last_reported":1689113192,"current_range_meters":0,"station_id":"ce4bh3p2rcd13ifvqdq0","pricing_plan_id":"free"},{"bike_id":"24d2f6a7-2237-45dd-a9ec-661c16015ebc","system_id":"levelo_inurba_marseille","lat":43.29741,"lon":5.38534,"is_reserved":false,"is_disabled":false,"rental_uris":{"android":"levelo://app?vid=24d2f6a7-2237-45dd-a9ec-661c16015ebc","ios":"levelo://app?vid=24d2f6a7-2237-45dd-a9ec-661c16015ebc"},"vehicle_type_id":"4","last_reported":1689113192,"current_range_meters":21200,"station_id":"","pricing_plan_id":"free"},{"bike_id":"997687d6-3927-4ba9-9b2c-6b66b152ace8","system_id":"levelo_inurba_marseille","lat":43.30596,"lon":5.39359,"is_reserved":false,"is_disabled":false,"rental_uris":{"android":"levelo://app?vid=997687d6-3927-4ba9-9b2c-6b66b152ace8","ios":"levelo://app?vid=997687d6-3927-4ba9-9b2c-6b66b152ace8"},"vehicle_type_id":"4","last_reported":1689113192,"current_range_meters":27200,"station_id":"ce4bh0p2rcd13ifvqd80","pricing_plan_id":"free"},{"bike_id":"e24fc6f9-f7d0-4bcc-a7e4-230671c600b2","system_id":"levelo_inurba_marseille","lat":43.303002,"lon":5.392142,"is_reserved":false,"is_disabled":false,"rental_uris":{"android":"levelo://app?vid=e24fc6f9-f7d0-4bcc-a7e4-230671c600b2","ios":"levelo://app?vid=e24fc6f9-f7d0-4bcc-a7e4-230671c600b2"},"vehicle_type_id":"4","last_reported":1689113192,"current_range_meters":22800,"station_id":"ce4bgkh2rcd13ifvqbk0","pricing_plan_id":"free"},{"bike_id":"1f84d3b8-1535-4077-b089-bb4cd97a67b3","system_id":"levelo_inurba_marseille","lat":43.305994,"lon":5.393687,"is_reserved":false,"is_disabled":false,"rental_uris":{"android":"levelo://app?vid=1f84d3b8-1535-4077-b089-bb4cd97a67b3","ios":"levelo://app?vid=1f84d3b8-1535-4077-b089-bb4cd97a67b3"},"vehicle_type_id":"4","last_reported":1689113192,"current_range_meters":29600,"station_id":"ce4bh0p2rcd13ifvqd80","pricing_plan_id":"free"},{"bike_id":"ed2edc4a-62fc-4b0b-a465-4ed271aa350d","system_id":"levelo_inurba_marseille","lat":43.302992,"lon":5.392136,"is_reserved":false,"is_disabled":false,"rental_uris":{"android":"levelo://app?vid=ed2edc4a-62fc-4b0b-a465-4ed271aa350d","ios":"levelo://app?vid=ed2edc4a-62fc-4b0b-a465-4ed271aa350d"},"vehicle_type_id":"4","last_reported":1689113192,"current_range_meters":14000,"station_id":"ce4bgkh2rcd13ifvqbk0","pricing_plan_id":"free"},{"bike_id":"f39f151d-3a46-44ba-90d4-5704d2f0aaac","system_id":"levelo_inurba_marseille","lat":43.302992,"lon":5.392136,"is_reserved":false,"is_disabled":false,"rental_uris":{"android":"levelo://app?vid=f39f151d-3a46-44ba-90d4-5704d2f0aaac","ios":"levelo://app?vid=f39f151d-3a46-44ba-90d4-5704d2f0aaac"},"vehicle_type_id":"4","last_reported":1689113192,"current_range_meters":19600,"station_id":"ce4bgkh2rcd13ifvqbk0","pricing_plan_id":"free"},{"bike_id":"2a5a7d24-8820-4499-8a00-d6c900b03fd7","system_id":"levelo_inurba_marseille","lat":43.302992,"lon":5.392136,"is_reserved":false,"is_disabled":false,"rental_uris":{"android":"levelo://app?vid=2a5a7d24-8820-4499-8a00-d6c900b03fd7","ios":"levelo://app?vid=2a5a7d24-8820-4499-8a00-d6c900b03fd7"},"vehicle_type_id":"4","last_reported":1689113192,"current_range_meters":14400,"station_id":"ce4bgkh2rcd13ifvqbk0","pricing_plan_id":"free"},{"bike_id":"1d730fd0-359c-49d5-a375-207692d20c2b","system_id":"levelo_inurba_marseille","lat":43.30085,"lon":5.390856,"is_reserved":false,"is_disabled":false,"rental_uris":{"android":"levelo://app?vid=1d730fd0-359c-49d5-a375-207692d20c2b","ios":"levelo://app?vid=1d730fd0-359c-49d5-a375-207692d20c2b"},"vehicle_type_id":"4","last_reported":1689113192,"current_range_meters":12400,"station_id":"ce4bh192rcd13ifvqdb0","pricing_plan_id":"free"},{"bike_id":"804755db-493f-4b86-a0fd-9affce04baa0","system_id":"levelo_inurba_marseille","lat":43.300852,"lon":5.390859,"is_reserved":false,"is_disabled":false,"rental_uris":{"android":"levelo://app?vid=804755db-493f-4b86-a0fd-9affce04baa0","ios":"levelo://app?vid=804755db-493f-4b86-a0fd-9affce04baa0"},"vehicle_type_id":"4","last_reported":1689113192,"current_range_meters":13200,"station_id":"ce4bh192rcd13ifvqdb0","pricing_plan_id":"free"},{"bike_id":"7dbea451-aa47-47ad-9205-bc038637dd05","system_id":"levelo_inurba_marseille","lat":43.30085,"lon":5.390856,"is_reserved":false,"is_disabled":false,"rental_uris":{"android":"levelo://app?vid=7dbea451-aa47-47ad-9205-bc038637dd05","ios":"levelo://app?vid=7dbea451-aa47-47ad-9205-bc038637dd05"},"vehicle_type_id":"4","last_reported":1689113192,"current_range_meters":11200,"station_id":"ce4bh192rcd13ifvqdb0","pricing_plan_id":"free"},{"bike_id":"fe9901c8-3947-4132-b265-8f936fa33d1a","system_id":"levelo_inurba_marseille","lat":43.302992,"lon":5.392136,"is_reserved":false,"is_disabled":false,"rental_uris":{"android":"levelo://app?vid=fe9901c8-3947-4132-b265-8f936fa33d1a","ios":"levelo://app?vid=fe9901c8-3947-4132-b265-8f936fa33d1a"},"vehicle_type_id":"4","last_reported":1689113192,"current_range_meters":26800,"station_id":"ce4bgkh2rcd13ifvqbk0","pricing_plan_id":"free"},{"bike_id":"d6aacd18-9200-4706-9ae9-075425c558db","system_id":"levelo_inurba_marseille","lat":43.30084,"lon":5.39065,"is_reserved":false,"is_disabled":false,"rental_uris":{"android":"levelo://app?vid=d6aacd18-9200-4706-9ae9-075425c558db","ios":"levelo://app?vid=d6aacd18-9200-4706-9ae9-075425c558db"},"vehicle_type_id":"4","last_reported":1689113192,"current_range_meters":5600,"station_id":"ce4bh192rcd13ifvqdb0","pricing_plan_id":"free"},{"bike_id":"5eb44ab9-51bb-4a1a-b56d-0917fa4dffc2","system_id":"levelo_inurba_marseille","lat":43.300852,"lon":5.390859,"is_reserved":false,"is_disabled":false,"rental_uris":{"android":"levelo://app?vid=5eb44ab9-51bb-4a1a-b56d-0917fa4dffc2","ios":"levelo://app?vid=5eb44ab9-51bb-4a1a-b56d-0917fa4dffc2"},"vehicle_type_id":"4","last_reported":1689113192,"current_range_meters":1600,"station_id":"ce4bh192rcd13ifvqdb0","pricing_plan_id":"free"},{"bike_id":"d02626af-450b-4455-8ba3-5234c4331715","system_id":"levelo_inurba_marseille","lat":43.298764,"lon":5.388973,"is_reserved":false,"is_disabled":false,"rental_uris":{"android":"levelo://app?vid=d02626af-450b-4455-8ba3-5234c4331715","ios":"levelo://app?vid=d02626af-450b-4455-8ba3-5234c4331715"},"vehicle_type_id":"4","last_reported":1689113192,"current_range_meters":28000,"station_id":"ce4bh392rcd13ifvqdl0","pricing_plan_id":"free"},{"bike_id":"1d93f177-80fd-471d-bf2b-151c49a6a63d","system_id":"levelo_inurba_marseille","lat":43.300852,"lon":5.390859,"is_reserved":false,"is_disabled":false,"rental_uris":{"android":"levelo://app?vid=1d93f177-80fd-471d-bf2b-151c49a6a63d","ios":"levelo://app?vid=1d93f177-80fd-471d-bf2b-151c49a6a63d"},"vehicle_type_id":"4","last_reported":1689113192,"current_range_meters":20800,"station_id":"ce4bh192rcd13ifvqdb0","pricing_plan_id":"free"},{"bike_id":"9863f805-5732-466e-b569-3b47cd0a1c19","system_id":"levelo_inurba_marseille","lat":43.30085,"lon":5.390856,"is_reserved":false,"is_disabled":false,"rental_uris":{"android":"levelo://app?vid=9863f805-5732-466e-b569-3b47cd0a1c19","ios":"levelo://app?vid=9863f805-5732-466e-b569-3b47cd0a1c19"},"vehicle_type_id":"4","last_reported":1689113192,"current_range_meters":13200,"station_id":"ce4bh192rcd13ifvqdb0","pricing_plan_id":"free"},{"bike_id":"867d0893-3bcc-4dc6-90b1-7aa8d12acf66","system_id":"levelo_inurba_marseille","lat":43.298764,"lon":5.388973,"is_reserved":false,"is_disabled":false,"rental_uris":{"android":"levelo://app?vid=867d0893-3bcc-4dc6-90b1-7aa8d12acf66","ios":"levelo://app?vid=867d0893-3bcc-4dc6-90b1-7aa8d12acf66"},"vehicle_type_id":"4","last_reported":1689113192,"current_range_meters":11600,"station_id":"ce4bh392rcd13ifvqdl0","pricing_plan_id":"free"},{"bike_id":"9bc5eb8f-8317-45f6-82f7-02f90a003829","system_id":"levelo_inurba_marseille","lat":43.298764,"lon":5.388973,"is_reserved":false,"is_disabled":false,"rental_uris":{"android":"levelo://app?vid=9bc5eb8f-8317-45f6-82f7-02f90a003829","ios":"levelo://app?vid=9bc5eb8f-8317-45f6-82f7-02f90a003829"},"vehicle_type_id":"4","last_reported":1689113192,"current_range_meters":28000,"station_id":"ce4bh392rcd13ifvqdl0","pricing_plan_id":"free"},{"bike_id":"87ed8cff-c707-467a-80ff-65fbb51486cd","system_id":"levelo_inurba_marseille","lat":43.298764,"lon":5.388973,"is_reserved":false,"is_disabled":false,"rental_uris":{"android":"levelo://app?vid=87ed8cff-c707-467a-80ff-65fbb51486cd","ios":"levelo://app?vid=87ed8cff-c707-467a-80ff-65fbb51486cd"},"vehicle_type_id":"4","last_reported":1689113192,"current_range_meters":30800,"station_id":"ce4bh392rcd13ifvqdl0","pricing_plan_id":"free"},{"bike_id":"f97c944c-7ceb-4ab1-8f5e-b838a462bd26","system_id":"levelo_inurba_marseille","lat":43.298764,"lon":5.388973,"is_reserved":false,"is_disabled":false,"rental_uris":{"android":"levelo://app?vid=f97c944c-7ceb-4ab1-8f5e-b838a462bd26","ios":"levelo://app?vid=f97c944c-7ceb-4ab1-8f5e-b838a462bd26"},"vehicle_type_id":"4","last_reported":1689113192,"current_range_meters":13200,"station_id":"ce4bh392rcd13ifvqdl0","pricing_plan_id":"free"},{"bike_id":"1d4893eb-198b-4536-aab8-30fae8dc9024","system_id":"levelo_inurba_marseille","lat":43.29868,"lon":5.38894,"is_reserved":false,"is_disabled":false,"rental_uris":{"android":"levelo://app?vid=1d4893eb-198b-4536-aab8-30fae8dc9024","ios":"levelo://app?vid=1d4893eb-198b-4536-aab8-30fae8dc9024"},"vehicle_type_id":"4","last_reported":1689113192,"current_range_meters":6000,"station_id":"ce4bh392rcd13ifvqdl0","pricing_plan_id":"free"},{"bike_id":"252d5852-358a-4a2e-a153-04f9995dfb56","system_id":"levelo_inurba_marseille","lat":43.297815,"lon":5.393548,"is_reserved":false,"is_disabled":false,"rental_uris":{"android":"levelo://app?vid=252d5852-358a-4a2e-a153-04f9995dfb56","ios":"levelo://app?vid=252d5852-358a-4a2e-a153-04f9995dfb56"},"vehicle_type_id":"4","last_reported":1689113192,"current_range_meters":2000,"station_id":"chh1huq6cuj3fo74tm60","pricing_plan_id":"free"},{"bike_id":"0ed8cd50-c6e8-4ebf-8c01-946af589c176","system_id":"levelo_inurba_marseille","lat":43.309038,"lon":5.396546,"is_reserved":false,"is_disabled":false,"rental_uris":{"android":"levelo://app?vid=0ed8cd50-c6e8-4ebf-8c01-946af589c176","ios":"levelo://app?vid=0ed8cd50-c6e8-4ebf-8c01-946af589c176"},"vehicle_type_id":"4","last_reported":1689113192,"current_range_meters":0,"station_id":"ce4bh012rcd13ifvqcv0","pricing_plan_id":"free"},{"bike_id":"ec8fae45-4583-498c-b917-0e4c674ca928","system_id":"levelo_inurba_marseille","lat":43.31332,"lon":5.39684,"is_reserved":false,"is_disabled":false,"rental_uris":{"android":"levelo://app?vid=ec8fae45-4583-498c-b917-0e4c674ca928","ios":"levelo://app?vid=ec8fae45-4583-498c-b917-0e4c674ca928"},"vehicle_type_id":"4","last_reported":1689113192,"current_range_meters":22000,"station_id":"ce4bgvp2rcd13ifvqcu0","pricing_plan_id":"free"},{"bike_id":"4bab8186-2c97-4c76-9f3f-e32f854ace41","system_id":"levelo_inurba_marseille","lat":43.3133,"lon":5.39685,"is_reserved":false,"is_disabled":false,"rental_uris":{"android":"levelo://app?vid=4bab8186-2c97-4c76-9f3f-e32f854ace41","ios":"levelo://app?vid=4bab8186-2c97-4c76-9f3f-e32f854ace41"},"vehicle_type_id":"4","last_reported":1689113192,"current_range_meters":29600,"station_id":"","pricing_plan_id":"free"},{"bike_id":"f52cf6bf-572a-498f-b11a-6c3db502d47f","system_id":"levelo_inurba_marseille","lat":43.3089,"lon":5.39642,"is_reserved":false,"is_disabled":false,"rental_uris":{"android":"levelo://app?vid=f52cf6bf-572a-498f-b11a-6c3db502d47f","ios":"levelo://app?vid=f52cf6bf-572a-498f-b11a-6c3db502d47f"},"vehicle_type_id":"4","last_reported":1689113192,"current_range_meters":20800,"station_id":"ce4bh012rcd13ifvqcv0","pricing_plan_id":"free"},{"bike_id":"c52b987c-fce6-4b53-9cf7-0d62796e9591","system_id":"levelo_inurba_marseille","lat":43.309038,"lon":5.396546,"is_reserved":false,"is_disabled":false,"rental_uris":{"android":"levelo://app?vid=c52b987c-fce6-4b53-9cf7-0d62796e9591","ios":"levelo://app?vid=c52b987c-fce6-4b53-9cf7-0d62796e9591"},"vehicle_type_id":"4","last_reported":1689113192,"current_range_meters":22800,"station_id":"ce4bh012rcd13ifvqcv0","pricing_plan_id":"free"},{"bike_id":"8723f5df-2358-47f7-8b40-e2a9c7afd798","system_id":"levelo_inurba_marseille","lat":43.309038,"lon":5.396546,"is_reserved":false,"is_disabled":false,"rental_uris":{"android":"levelo://app?vid=8723f5df-2358-47f7-8b40-e2a9c7afd798","ios":"levelo://app?vid=8723f5df-2358-47f7-8b40-e2a9c7afd798"},"vehicle_type_id":"4","last_reported":1689113192,"current_range_meters":26800,"station_id":"ce4bh012rcd13ifvqcv0","pricing_plan_id":"free"},{"bike_id":"3c6e02cd-275b-4a79-9c7e-8ac0aaec9f21","system_id":"levelo_inurba_marseille","lat":43.309038,"lon":5.396546,"is_reserved":false,"is_disabled":false,"rental_uris":{"android":"levelo://app?vid=3c6e02cd-275b-4a79-9c7e-8ac0aaec9f21","ios":"levelo://app?vid=3c6e02cd-275b-4a79-9c7e-8ac0aaec9f21"},"vehicle_type_id":"4","last_reported":1689113192,"current_range_meters":20000,"station_id":"ce4bh012rcd13ifvqcv0","pricing_plan_id":"free"},{"bike_id":"915cff38-3fc8-4f1b-808c-029b9808834f","system_id":"levelo_inurba_marseille","lat":43.31325,"lon":5.3969,"is_reserved":false,"is_disabled":false,"rental_uris":{"android":"levelo://app?vid=915cff38-3fc8-4f1b-808c-029b9808834f","ios":"levelo://app?vid=915cff38-3fc8-4f1b-808c-029b9808834f"},"vehicle_type_id":"4","last_reported":1689113192,"current_range_meters":15200,"station_id":"ce4bgvp2rcd13ifvqcu0","pricing_plan_id":"free"},{"bike_id":"b01fb2d1-8167-4916-8969-df74ea46eb74","system_id":"levelo_inurba_marseille","lat":43.3133,"lon":5.3969,"is_reserved":false,"is_disabled":false,"rental_uris":{"android":"levelo://app?vid=b01fb2d1-8167-4916-8969-df74ea46eb74","ios":"levelo://app?vid=b01fb2d1-8167-4916-8969-df74ea46eb74"},"vehicle_type_id":"4","last_reported":1689113192,"current_range_meters":29600,"station_id":"ce4bgvp2rcd13ifvqcu0","pricing_plan_id":"free"},{"bike_id":"3ec620dc-8eb1-457b-b32d-cc2ca08c863c","system_id":"levelo_inurba_marseille","lat":43.31332,"lon":5.39692,"is_reserved":false,"is_disabled":false,"rental_uris":{"android":"levelo://app?vid=3ec620dc-8eb1-457b-b32d-cc2ca08c863c","ios":"levelo://app?vid=3ec620dc-8eb1-457b-b32d-cc2ca08c863c"},"vehicle_type_id":"4","last_reported":1689113192,"current_range_meters":11600,"station_id":"","pricing_plan_id":"free"},{"bike_id":"9d974a19-57b7-4dea-996b-0a0c238cabe1","system_id":"levelo_inurba_marseille","lat":43.30889,"lon":5.39646,"is_reserved":false,"is_disabled":false,"rental_uris":{"android":"levelo://app?vid=9d974a19-57b7-4dea-996b-0a0c238cabe1","ios":"levelo://app?vid=9d974a19-57b7-4dea-996b-0a0c238cabe1"},"vehicle_type_id":"4","last_reported":1689113192,"current_range_meters":9600,"station_id":"ce4bh012rcd13ifvqcv0","pricing_plan_id":"free"},{"bike_id":"4b5b355c-d3b0-43b4-a97a-8420684e37e1","system_id":"levelo_inurba_marseille","lat":43.31327,"lon":5.39693,"is_reserved":false,"is_disabled":false,"rental_uris":{"android":"levelo://app?vid=4b5b355c-d3b0-43b4-a97a-8420684e37e1","ios":"levelo://app?vid=4b5b355c-d3b0-43b4-a97a-8420684e37e1"},"vehicle_type_id":"4","last_reported":1689113192,"current_range_meters":20800,"station_id":"ce4bgvp2rcd13ifvqcu0","pricing_plan_id":"free"},{"bike_id":"2bf82982-d9af-46d7-9976-ba09391a217e","system_id":"levelo_inurba_marseille","lat":43.31327,"lon":5.39694,"is_reserved":false,"is_disabled":false,"rental_uris":{"android":"levelo://app?vid=2bf82982-d9af-46d7-9976-ba09391a217e","ios":"levelo://app?vid=2bf82982-d9af-46d7-9976-ba09391a217e"},"vehicle_type_id":"4","last_reported":1689113192,"current_range_meters":4400,"station_id":"","pricing_plan_id":"free"},{"bike_id":"e44a9f07-eccb-47b4-8da6-1131bd54b6b3","system_id":"levelo_inurba_marseille","lat":43.30889,"lon":5.39648,"is_reserved":false,"is_disabled":false,"rental_uris":{"android":"levelo://app?vid=e44a9f07-eccb-47b4-8da6-1131bd54b6b3","ios":"levelo://app?vid=e44a9f07-eccb-47b4-8da6-1131bd54b6b3"},"vehicle_type_id":"4","last_reported":1689113192,"current_range_meters":18000,"station_id":"ce4bh012rcd13ifvqcv0","pricing_plan_id":"free"},{"bike_id":"5e70ea42-d3b8-4ac6-a9c7-2df1413667ce","system_id":"levelo_inurba_marseille","lat":43.309038,"lon":5.396546,"is_reserved":false,"is_disabled":false,"rental_uris":{"android":"levelo://app?vid=5e70ea42-d3b8-4ac6-a9c7-2df1413667ce","ios":"levelo://app?vid=5e70ea42-d3b8-4ac6-a9c7-2df1413667ce"},"vehicle_type_id":"4","last_reported":1689113192,"current_range_meters":30400,"station_id":"ce4bh012rcd13ifvqcv0","pricing_plan_id":"free"},{"bike_id":"9fa131c2-b7e2-4f76-9cfe-391a823298d3","system_id":"levelo_inurba_marseille","lat":43.31323,"lon":5.39695,"is_reserved":false,"is_disabled":false,"rental_uris":{"android":"levelo://app?vid=9fa131c2-b7e2-4f76-9cfe-391a823298d3","ios":"levelo://app?vid=9fa131c2-b7e2-4f76-9cfe-391a823298d3"},"vehicle_type_id":"4","last_reported":1689113192,"current_range_meters":18400,"station_id":"ce4bgvp2rcd13ifvqcu0","pricing_plan_id":"free"},{"bike_id":"7a6e4495-6612-49ed-a938-9f261ee9968e","system_id":"levelo_inurba_marseille","lat":43.31329,"lon":5.39695,"is_reserved":false,"is_disabled":false,"rental_uris":{"android":"levelo://app?vid=7a6e4495-6612-49ed-a938-9f261ee9968e","ios":"levelo://app?vid=7a6e4495-6612-49ed-a938-9f261ee9968e"},"vehicle_type_id":"4","last_reported":1689113192,"current_range_meters":22400,"station_id":"ce4bgvp2rcd13ifvqcu0","pricing_plan_id":"free"},{"bike_id":"28336bae-5ce7-4fe0-b1ea-4b1b28a6de6c","system_id":"levelo_inurba_marseille","lat":43.309038,"lon":5.396546,"is_reserved":false,"is_disabled":false,"rental_uris":{"android":"levelo://app?vid=28336bae-5ce7-4fe0-b1ea-4b1b28a6de6c","ios":"levelo://app?vid=28336bae-5ce7-4fe0-b1ea-4b1b28a6de6c"},"vehicle_type_id":"4","last_reported":1689113192,"current_range_meters":21600,"station_id":"ce4bh012rcd13ifvqcv0","pricing_plan_id":"free"},{"bike_id":"98126cae-3564-4fd8-81da-d31f3f94b0ae","system_id":"levelo_inurba_marseille","lat":43.31326,"lon":5.39696,"is_reserved":false,"is_disabled":false,"rental_uris":{"android":"levelo://app?vid=98126cae-3564-4fd8-81da-d31f3f94b0ae","ios":"levelo://app?vid=98126cae-3564-4fd8-81da-d31f3f94b0ae"},"vehicle_type_id":"4","last_reported":1689113192,"current_range_meters":8000,"station_id":"","pricing_plan_id":"free"},{"bike_id":"d1fa76a6-c86b-44f8-a62e-7f40bc967460","system_id":"levelo_inurba_marseille","lat":43.309038,"lon":5.396546,"is_reserved":false,"is_disabled":false,"rental_uris":{"android":"levelo://app?vid=d1fa76a6-c86b-44f8-a62e-7f40bc967460","ios":"levelo://app?vid=d1fa76a6-c86b-44f8-a62e-7f40bc967460"},"vehicle_type_id":"4","last_reported":1689113192,"current_range_meters":14800,"station_id":"ce4bh012rcd13ifvqcv0","pricing_plan_id":"free"},{"bike_id":"f6de9263-1636-4114-b371-59dbfecae38a","system_id":"levelo_inurba_marseille","lat":43.292663,"lon":5.376389,"is_reserved":false,"is_disabled":false,"rental_uris":{"android":"levelo://app?vid=f6de9263-1636-4114-b371-59dbfecae38a","ios":"levelo://app?vid=f6de9263-1636-4114-b371-59dbfecae38a"},"vehicle_type_id":"4","last_reported":1689113192,"current_range_meters":30000,"station_id":"ce4bgi12rcd13ifvqb80","pricing_plan_id":"free"},{"bike_id":"18569e40-ee0a-4f2a-9048-1971f6d07318","system_id":"levelo_inurba_marseille","lat":43.30887,"lon":5.39653,"is_reserved":false,"is_disabled":false,"rental_uris":{"android":"levelo://app?vid=18569e40-ee0a-4f2a-9048-1971f6d07318","ios":"levelo://app?vid=18569e40-ee0a-4f2a-9048-1971f6d07318"},"vehicle_type_id":"4","last_reported":1689113192,"current_range_meters":4800,"station_id":"ce4bh012rcd13ifvqcv0","pricing_plan_id":"free"},{"bike_id":"f53fa176-0e99-4fd9-b3ba-b339394ff628","system_id":"levelo_inurba_marseille","lat":43.31329,"lon":5.397,"is_reserved":false,"is_disabled":false,"rental_uris":{"android":"levelo://app?vid=f53fa176-0e99-4fd9-b3ba-b339394ff628","ios":"levelo://app?vid=f53fa176-0e99-4fd9-b3ba-b339394ff628"},"vehicle_type_id":"4","last_reported":1689113192,"current_range_meters":29200,"station_id":"ce4bgvp2rcd13ifvqcu0","pricing_plan_id":"free"},{"bike_id":"625a8a47-f0db-4cf4-a53f-0b1f2827062c","system_id":"levelo_inurba_marseille","lat":43.302008,"lon":5.394694,"is_reserved":false,"is_disabled":false,"rental_uris":{"android":"levelo://app?vid=625a8a47-f0db-4cf4-a53f-0b1f2827062c","ios":"levelo://app?vid=625a8a47-f0db-4cf4-a53f-0b1f2827062c"},"vehicle_type_id":"4","last_reported":1689113192,"current_range_meters":14400,"station_id":"ce4bh0p2rcd13ifvqd70","pricing_plan_id":"free"},{"bike_id":"8bd49905-7b7a-40bd-9dde-0b1d5124caa5","system_id":"levelo_inurba_marseille","lat":43.29529,"lon":5.385581,"is_reserved":false,"is_disabled":false,"rental_uris":{"android":"levelo://app?vid=8bd49905-7b7a-40bd-9dde-0b1d5124caa5","ios":"levelo://app?vid=8bd49905-7b7a-40bd-9dde-0b1d5124caa5"},"vehicle_type_id":"4","last_reported":1689113192,"current_range_meters":14400,"station_id":"ce4bgih2rcd13ifvqba0","pricing_plan_id":"free"},{"bike_id":"f2a1dadb-1df4-496a-85a9-398c046d26d9","system_id":"levelo_inurba_marseille","lat":43.29529,"lon":5.385581,"is_reserved":false,"is_disabled":false,"rental_uris":{"android":"levelo://app?vid=f2a1dadb-1df4-496a-85a9-398c046d26d9","ios":"levelo://app?vid=f2a1dadb-1df4-496a-85a9-398c046d26d9"},"vehicle_type_id":"4","last_reported":1689113192,"current_range_meters":14800,"station_id":"ce4bgih2rcd13ifvqba0","pricing_plan_id":"free"},{"bike_id":"fdbcee35-701c-4e8e-8a70-b708d58efe74","system_id":"levelo_inurba_marseille","lat":43.29529,"lon":5.385581,"is_reserved":false,"is_disabled":false,"rental_uris":{"android":"levelo://app?vid=fdbcee35-701c-4e8e-8a70-b708d58efe74","ios":"levelo://app?vid=fdbcee35-701c-4e8e-8a70-b708d58efe74"},"vehicle_type_id":"4","last_reported":1689113192,"current_range_meters":5600,"station_id":"ce4bgih2rcd13ifvqba0","pricing_plan_id":"free"},{"bike_id":"15981934-95b9-4f6f-b73f-693e46292244","system_id":"levelo_inurba_marseille","lat":43.29529,"lon":5.385581,"is_reserved":false,"is_disabled":false,"rental_uris":{"android":"levelo://app?vid=15981934-95b9-4f6f-b73f-693e46292244","ios":"levelo://app?vid=15981934-95b9-4f6f-b73f-693e46292244"},"vehicle_type_id":"4","last_reported":1689113192,"current_range_meters":31200,"station_id":"ce4bgih2rcd13ifvqba0","pricing_plan_id":"free"},{"bike_id":"42e4e255-e85d-4920-b0ad-2caee016c71d","system_id":"levelo_inurba_marseille","lat":43.29529,"lon":5.385581,"is_reserved":false,"is_disabled":false,"rental_uris":{"android":"levelo://app?vid=42e4e255-e85d-4920-b0ad-2caee016c71d","ios":"levelo://app?vid=42e4e255-e85d-4920-b0ad-2caee016c71d"},"vehicle_type_id":"4","last_reported":1689113192,"current_range_meters":31200,"station_id":"ce4bgih2rcd13ifvqba0","pricing_plan_id":"free"},{"bike_id":"f7633b20-e086-48d0-9bfc-c73f1952a3e2","system_id":"levelo_inurba_marseille","lat":43.29529,"lon":5.385581,"is_reserved":false,"is_disabled":false,"rental_uris":{"android":"levelo://app?vid=f7633b20-e086-48d0-9bfc-c73f1952a3e2","ios":"levelo://app?vid=f7633b20-e086-48d0-9bfc-c73f1952a3e2"},"vehicle_type_id":"4","last_reported":1689113192,"current_range_meters":11600,"station_id":"ce4bgih2rcd13ifvqba0","pricing_plan_id":"free"},{"bike_id":"69cf2ab9-e614-428e-817f-37681b13bf46","system_id":"levelo_inurba_marseille","lat":43.29529,"lon":5.385581,"is_reserved":false,"is_disabled":false,"rental_uris":{"android":"levelo://app?vid=69cf2ab9-e614-428e-817f-37681b13bf46","ios":"levelo://app?vid=69cf2ab9-e614-428e-817f-37681b13bf46"},"vehicle_type_id":"4","last_reported":1689113192,"current_range_meters":12800,"station_id":"ce4bgih2rcd13ifvqba0","pricing_plan_id":"free"},{"bike_id":"03f4c147-32d8-4d05-9f5b-4bdca1c0466c","system_id":"levelo_inurba_marseille","lat":43.29529,"lon":5.385581,"is_reserved":false,"is_disabled":false,"rental_uris":{"android":"levelo://app?vid=03f4c147-32d8-4d05-9f5b-4bdca1c0466c","ios":"levelo://app?vid=03f4c147-32d8-4d05-9f5b-4bdca1c0466c"},"vehicle_type_id":"4","last_reported":1689113192,"current_range_meters":3200,"station_id":"ce4bgih2rcd13ifvqba0","pricing_plan_id":"free"},{"bike_id":"dd8b38c4-fd18-4c32-81de-ce06f0dde43f","system_id":"levelo_inurba_marseille","lat":43.29529,"lon":5.385581,"is_reserved":false,"is_disabled":false,"rental_uris":{"android":"levelo://app?vid=dd8b38c4-fd18-4c32-81de-ce06f0dde43f","ios":"levelo://app?vid=dd8b38c4-fd18-4c32-81de-ce06f0dde43f"},"vehicle_type_id":"4","last_reported":1689113192,"current_range_meters":22000,"station_id":"ce4bgih2rcd13ifvqba0","pricing_plan_id":"free"},{"bike_id":"1097b665-5b6d-4589-9fa6-b53b833df08f","system_id":"levelo_inurba_marseille","lat":43.29529,"lon":5.385581,"is_reserved":false,"is_disabled":false,"rental_uris":{"android":"levelo://app?vid=1097b665-5b6d-4589-9fa6-b53b833df08f","ios":"levelo://app?vid=1097b665-5b6d-4589-9fa6-b53b833df08f"},"vehicle_type_id":"4","last_reported":1689113192,"current_range_meters":3200,"station_id":"ce4bgih2rcd13ifvqba0","pricing_plan_id":"free"},{"bike_id":"ffddc38b-578d-4747-8327-a212ea425b8e","system_id":"levelo_inurba_marseille","lat":43.29529,"lon":5.385581,"is_reserved":false,"is_disabled":false,"rental_uris":{"android":"levelo://app?vid=ffddc38b-578d-4747-8327-a212ea425b8e","ios":"levelo://app?vid=ffddc38b-578d-4747-8327-a212ea425b8e"},"vehicle_type_id":"4","last_reported":1689113192,"current_range_meters":26000,"station_id":"ce4bgih2rcd13ifvqba0","pricing_plan_id":"free"},{"bike_id":"03ffdf36-7a3f-4f5a-9972-1c63bfc538cd","system_id":"levelo_inurba_marseille","lat":43.29532,"lon":5.38539,"is_reserved":false,"is_disabled":false,"rental_uris":{"android":"levelo://app?vid=03ffdf36-7a3f-4f5a-9972-1c63bfc538cd","ios":"levelo://app?vid=03ffdf36-7a3f-4f5a-9972-1c63bfc538cd"},"vehicle_type_id":"4","last_reported":1689113192,"current_range_meters":18000,"station_id":"ce4bgih2rcd13ifvqba0","pricing_plan_id":"free"},{"bike_id":"fe15e926-2769-4cc8-97d7-2d8c5929e3ed","system_id":"levelo_inurba_marseille","lat":43.29529,"lon":5.385581,"is_reserved":false,"is_disabled":false,"rental_uris":{"android":"levelo://app?vid=fe15e926-2769-4cc8-97d7-2d8c5929e3ed","ios":"levelo://app?vid=fe15e926-2769-4cc8-97d7-2d8c5929e3ed"},"vehicle_type_id":"4","last_reported":1689113192,"current_range_meters":10800,"station_id":"ce4bgih2rcd13ifvqba0","pricing_plan_id":"free"},{"bike_id":"5fec2354-7f39-47ef-9f55-2123558f0126","system_id":"levelo_inurba_marseille","lat":43.29529,"lon":5.385581,"is_reserved":false,"is_disabled":false,"rental_uris":{"android":"levelo://app?vid=5fec2354-7f39-47ef-9f55-2123558f0126","ios":"levelo://app?vid=5fec2354-7f39-47ef-9f55-2123558f0126"},"vehicle_type_id":"4","last_reported":1689113192,"current_range_meters":31200,"station_id":"ce4bgih2rcd13ifvqba0","pricing_plan_id":"free"},{"bike_id":"46b306e3-f68e-4a92-9b47-77bb18349585","system_id":"levelo_inurba_marseille","lat":43.29529,"lon":5.385581,"is_reserved":false,"is_disabled":false,"rental_uris":{"android":"levelo://app?vid=46b306e3-f68e-4a92-9b47-77bb18349585","ios":"levelo://app?vid=46b306e3-f68e-4a92-9b47-77bb18349585"},"vehicle_type_id":"4","last_reported":1689113192,"current_range_meters":0,"station_id":"ce4bgih2rcd13ifvqba0","pricing_plan_id":"free"},