{"last_updated":1773670414,"ttl":60,"version":"2.2","data":{"bikes":[{"bike_id":"d91b4619-360b-4308-a6b3-abe79e9f6dfc","system_id":"levelo_inurba_marseille","lat":43.30599,"lon":5.37213,"is_reserved":false,"is_disabled":false,"rental_uris":{"android":"levelo://app?vid=d91b4619-360b-4308-a6b3-abe79e9f6dfc","ios":"levelo://app?vid=d91b4619-360b-4308-a6b3-abe79e9f6dfc"},"vehicle_type_id":"4","last_reported":1773670415,"current_range_meters":36800,"station_id":"ce4bgqh2rcd13ifvqc4g","pricing_plan_id":"cebpf4jnsgd1na2vs0mg"},{"bike_id":"1177f5f6-485e-4b71-a611-ec2446e3d954","system_id":"levelo_inurba_marseille","lat":43.26502,"lon":5.39533,"is_reserved":false,"is_disabled":false,"rental_uris":{"android":"levelo://app?vid=1177f5f6-485e-4b71-a611-ec2446e3d954","ios":"levelo://app?vid=1177f5f6-485e-4b71-a611-ec2446e3d954"},"vehicle_type_id":"4","last_reported":1773670415,"current_range_meters":26800,"station_id":"ce4bhi12rcd13ifvqfq0","pricing_plan_id":"cebpf4jnsgd1na2vs0mg"},{"bike_id":"a4ca7329-3ac2-44ac-9c8b-c3829e8c8f46","system_id":"levelo_inurba_marseille","lat":43.2849,"lon":5.38987,"is_reserved":false,"is_disabled":true,"rental_uris":{"android":"levelo://app?vid=a4ca7329-3ac2-44ac-9c8b-c3829e8c8f46","ios":"levelo://app?vid=a4ca7329-3ac2-44ac-9c8b-c3829e8c8f46"},"vehicle_type_id":"4","last_reported":1773670415,"current_range_meters":5600,"station_id":"","pricing_plan_id":"cebpf4jnsgd1na2vs0mg"},{"bike_id":"79ee3a76-161d-42e4-b558-375f2cb1b0bb","system_id":"levelo_inurba_marseille","lat":43.28283,"lon":5.35071,"is_reserved":false,"is_disabled":false,"rental_uris":{"android":"levelo://app?vid=79ee3a76-161d-42e4-b558-375f2cb1b0bb","ios":"levelo://app?vid=79ee3a76-161d-42e4-b558-375f2cb1b0bb"},"vehicle_type_id":"4","last_reported":1773670415,"current_range_meters":8400,"station_id":"ce4bhbp2rcd13ifvqerg","pricing_plan_id":"cebpf4jnsgd1na2vs0mg"},{"bike_id":"0ae745ab-afb8-4357-87b5-3deaa4ba80bf","system_id":"levelo_inurba_marseille","lat":43.25712,"lon":5.41103,"is_reserved":false,"is_disabled":false,"rental_uris":{"android":"levelo://app?vid=0ae745ab-afb8-4357-87b5-3deaa4ba80bf","ios":"levelo://app?vid=0ae745ab-afb8-4357-87b5-3deaa4ba80bf"},"vehicle_type_id":"4","last_reported":1773670415,"current_range_meters":28000,"station_id":"ce4bhkp2rcd13ifvqgd0","pricing_plan_id":"cebpf4jnsgd1na2vs0mg"},{"bike_id":"0af203fb-c1fe-4f43-a9a2-b6b372ffe20c","system_id":"levelo_inurba_marseille","lat":43.28475,"lon":5.48386,"is_reserved":false,"is_disabled":false,"rental_uris":{"android":"levelo://app?vid=0af203fb-c1fe-4f43-a9a2-b6b372ffe20c","ios":"levelo://app?vid=0af203fb-c1fe-4f43-a9a2-b6b372ffe20c"},"vehicle_type_id":"4","last_reported":1773670415,"current_range_meters":18800,"station_id":"","pricing_plan_id":"cebpf4jnsgd1na2vs0mg"},{"bike_id":"0ecd47cf-a7b9-4223-8093-c6087cb3bd4a","system_id":"levelo_inurba_marseille","lat":43.28413,"lon":5.34976,"is_reserved":false,"is_disabled":false,"rental_uris":{"android":"levelo://app?vid=0ecd47cf-a7b9-4223-8093-c6087cb3bd4a","ios":"levelo://app?vid=0ecd47cf-a7b9-4223-8093-c6087cb3bd4a"},"vehicle_type_id":"4","last_reported":1773670415,"current_range_meters":19600,"station_id":"ce4bhbh2rcd13ifvqepg","pricing_plan_id":"cebpf4jnsgd1na2vs0mg"},{"bike_id":"fa05944a-25c4-4c7a-aaf9-d8f832bd3a59","system_id":"levelo_inurba_marseille","lat":43.30737,"lon":5.42447,"is_reserved":false,"is_disabled":false,"rental_uris":{"android":"levelo://app?vid=fa05944a-25c4-4c7a-aaf9-d8f832bd3a59","ios":"levelo://app?vid=fa05944a-25c4-4c7a-aaf9-d8f832bd3a59"},"vehicle_type_id":"4","last_reported":1773670415,"current_range_meters":19600,"station_id":"st_cvj6ca6bvosntc0bfgr0","pricing_plan_id":"cebpf4jnsgd1na2vs0mg"},{"bike_id":"319b1581-475f-4797-be0a-0bd4a5861756","system_id":"levelo_inurba_marseille","lat":43.31392,"lon":5.36695,"is_reserved":false,"is_disabled":false,"rental_uris":{"android":"levelo://app?vid=319b1581-475f-4797-be0a-0bd4a5861756","ios":"levelo://app?vid=319b1581-475f-4797-be0a-0bd4a5861756"},"vehicle_type_id":"4","last_reported":1773670415,"current_range_meters":33600,"station_id":"","pricing_plan_id":"cebpf4jnsgd1na2vs0mg"},{"bike_id":"ee3a78bd-9b7f-41d0-9f1d-2dcc5ec6f6cf","system_id":"levelo_inurba_marseille","lat":43.27314,"lon":5.39097,"is_reserved":false,"is_disabled":false,"rental_uris":{"android":"levelo://app?vid=ee3a78bd-9b7f-41d0-9f1d-2dcc5ec6f6cf","ios":"levelo://app?vid=ee3a78bd-9b7f-41d0-9f1d-2dcc5ec6f6cf"},"vehicle_type_id":"4","last_reported":1773670415,"current_range_meters":38400,"station_id":"ce4bhgp2rcd13ifvqfe0","pricing_plan_id":"cebpf4jnsgd1na2vs0mg"},{"bike_id":"0729b13b-930c-4c22-a344-f9d156766203","system_id":"levelo_inurba_marseille","lat":43.24073,"lon":5.37764,"is_reserved":false,"is_disabled":false,"rental_uris":{"android":"levelo://app?vid=0729b13b-930c-4c22-a344-f9d156766203","ios":"levelo://app?vid=0729b13b-930c-4c22-a344-f9d156766203"},"vehicle_type_id":"4","last_reported":1773670415,"current_range_meters":2800,"station_id":"ce4bhnp2rcd13ifvqgvg","pricing_plan_id":"cebpf4jnsgd1na2vs0mg"},{"bike_id":"e06b6f91-93be-4271-a893-ca5b609ebf7f","system_id":"levelo_inurba_marseille","lat":43.30541,"lon":5.36537,"is_reserved":false,"is_disabled":false,"rental_uris":{"android":"levelo://app?vid=e06b6f91-93be-4271-a893-ca5b609ebf7f","ios":"levelo://app?vid=e06b6f91-93be-4271-a893-ca5b609ebf7f"},"vehicle_type_id":"4","last_reported":1773670415,"current_range_meters":19600,"station_id":"ce4bgs12rcd13ifvqcag","pricing_plan_id":"cebpf4jnsgd1na2vs0mg"},{"bike_id":"7e113368-8b43-4dc9-a7d3-1b200ce7f912","system_id":"levelo_inurba_marseille","lat":43.2707,"lon":5.3831,"is_reserved":false,"is_disabled":false,"rental_uris":{"android":"levelo://app?vid=7e113368-8b43-4dc9-a7d3-1b200ce7f912","ios":"levelo://app?vid=7e113368-8b43-4dc9-a7d3-1b200ce7f912"},"vehicle_type_id":"4","last_reported":1773670415,"current_range_meters":28800,"station_id":"st_d3n2fo6cfp8s73cte1j0","pricing_plan_id":"cebpf4jnsgd1na2vs0mg"},{"bike_id":"ff630ac9-3879-47ac-9e5a-425f1a8a4498","system_id":"levelo_inurba_marseille","lat":43.30185,"lon":5.36621,"is_reserved":false,"is_disabled":false,"rental_uris":{"android":"levelo://app?vid=ff630ac9-3879-47ac-9e5a-425f1a8a4498","ios":"levelo://app?vid=ff630ac9-3879-47ac-9e5a-425f1a8a4498"},"vehicle_type_id":"4","last_reported":1773670415,"current_range_meters":36800,"station_id":"ce4bgrh2rcd13ifvqc8g","pricing_plan_id":"cebpf4jnsgd1na2vs0mg"},{"bike_id":"83694ccd-c6f2-493d-9bff-4d8155ca6b41","system_id":"levelo_inurba_marseille","lat":43.2972,"lon":5.37684,"is_reserved":false,"is_disabled":false,"rental_uris":{"android":"levelo://app?vid=83694ccd-c6f2-493d-9bff-4d8155ca6b41","ios":"levelo://app?vid=83694ccd-c6f2-493d-9bff-4d8155ca6b41"},"vehicle_type_id":"4","last_reported":1773670415,"current_range_meters":12400,"station_id":"ce4bgkh2rcd13ifvqbl0","pricing_plan_id":"cebpf4jnsgd1na2vs0mg"},{"bike_id":"24ca51c5-59e1-40a8-97b0-a81088fb4bd9","system_id":"levelo_inurba_marseille","lat":43.27315,"lon":5.39089,"is_reserved":false,"is_disabled":false,"rental_uris":{"android":"levelo://app?vid=24ca51c5-59e1-40a8-97b0-a81088fb4bd9","ios":"levelo://app?vid=24ca51c5-59e1-40a8-97b0-a81088fb4bd9"},"vehicle_type_id":"4","last_reported":1773670415,"current_range_meters":36000,"station_id":"ce4bhgp2rcd13ifvqfe0","pricing_plan_id":"cebpf4jnsgd1na2vs0mg"},{"bike_id":"9b90fc99-5ad3-4599-9271-4436dfc71249","system_id":"levelo_inurba_marseille","lat":43.33779,"lon":5.37424,"is_reserved":false,"is_disabled":true,"rental_uris":{"android":"levelo://app?vid=9b90fc99-5ad3-4599-9271-4436dfc71249","ios":"levelo://app?vid=9b90fc99-5ad3-4599-9271-4436dfc71249"},"vehicle_type_id":"4","last_reported":1773670415,"current_range_meters":0,"station_id":"","pricing_plan_id":"cebpf4jnsgd1na2vs0mg"},{"bike_id":"8fc40567-b791-4317-b952-acc2abec6d07","system_id":"levelo_inurba_marseille","lat":43.27515,"lon":5.41547,"is_reserved":false,"is_disabled":false,"rental_uris":{"android":"levelo://app?vid=8fc40567-b791-4317-b952-acc2abec6d07","ios":"levelo://app?vid=8fc40567-b791-4317-b952-acc2abec6d07"},"vehicle_type_id":"4","last_reported":1773670415,"current_range_meters":14400,"station_id":"st_d6im8g6chgec73a5pndg","pricing_plan_id":"cebpf4jnsgd1na2vs0mg"},{"bike_id":"772463ed-7cb1-4997-b1e8-cc819038b901","system_id":"levelo_inurba_marseille","lat":43.30148,"lon":5.38101,"is_reserved":false,"is_disabled":false,"rental_uris":{"android":"levelo://app?vid=772463ed-7cb1-4997-b1e8-cc819038b901","ios":"levelo://app?vid=772463ed-7cb1-4997-b1e8-cc819038b901"},"vehicle_type_id":"4","last_reported":1773670415,"current_range_meters":34800,"station_id":"ce4bgjp2rcd13ifvqbh0","pricing_plan_id":"cebpf4jnsgd1na2vs0mg"},{"bike_id":"9f17abc3-c116-4a63-ab86-74b83efebd3b","system_id":"levelo_inurba_marseille","lat":43.29779,"lon":5.37112,"is_reserved":false,"is_disabled":false,"rental_uris":{"android":"levelo://app?vid=9f17abc3-c116-4a63-ab86-74b83efebd3b","ios":"levelo://app?vid=9f17abc3-c116-4a63-ab86-74b83efebd3b"},"vehicle_type_id":"4","last_reported":1773670415,"current_range_meters":39200,"station_id":"ce4bgop2rcd13ifvqc1g","pricing_plan_id":"cebpf4jnsgd1na2vs0mg"},{"bike_id":"276d2224-8e4a-4107-bd1a-a113a4e73789","system_id":"levelo_inurba_marseille","lat":43.28951,"lon":5.36428,"is_reserved":false,"is_disabled":false,"rental_uris":{"android":"levelo://app?vid=276d2224-8e4a-4107-bd1a-a113a4e73789","ios":"levelo://app?vid=276d2224-8e4a-4107-bd1a-a113a4e73789"},"vehicle_type_id":"4","last_reported":1773670415,"current_range_meters":8400,"station_id":"ce4bhc92rcd13ifvqetg","pricing_plan_id":"cebpf4jnsgd1na2vs0mg"},{"bike_id":"f95ed799-21d2-4ee8-aa17-5bdcff50618a","system_id":"levelo_inurba_marseille","lat":43.28151,"lon":5.42628,"is_reserved":false,"is_disabled":false,"rental_uris":{"android":"levelo://app?vid=f95ed799-21d2-4ee8-aa17-5bdcff50618a","ios":"levelo://app?vid=f95ed799-21d2-4ee8-aa17-5bdcff50618a"},"vehicle_type_id":"4","last_reported":1773670415,"current_range_meters":39200,"station_id":"ce4bhnh2rcd13ifvqgug","pricing_plan_id":"cebpf4jnsgd1na2vs0mg"},{"bike_id":"ee736d93-e2f4-4dbf-bdd4-b3bd5b1ae1b6","system_id":"levelo_inurba_marseille","lat":43.29636,"lon":5.40593,"is_reserved":false,"is_disabled":false,"rental_uris":{"android":"levelo://app?vid=ee736d93-e2f4-4dbf-bdd4-b3bd5b1ae1b6","ios":"levelo://app?vid=ee736d93-e2f4-4dbf-bdd4-b3bd5b1ae1b6"},"vehicle_type_id":"4","last_reported":1773670415,"current_range_meters":38000,"station_id":"ce4bh0h2rcd13ifvqd60","pricing_plan_id":"cebpf4jnsgd1na2vs0mg"},{"bike_id":"4a8d7a43-5dbb-42a2-b5ca-8c6627ac6666","system_id":"levelo_inurba_marseille","lat":43.30182,"lon":5.36611,"is_reserved":false,"is_disabled":false,"rental_uris":{"android":"levelo://app?vid=4a8d7a43-5dbb-42a2-b5ca-8c6627ac6666","ios":"levelo://app?vid=4a8d7a43-5dbb-42a2-b5ca-8c6627ac6666"},"vehicle_type_id":"4","last_reported":1773670415,"current_range_meters":39200,"station_id":"ce4bgrh2rcd13ifvqc8g","pricing_plan_id":"cebpf4jnsgd1na2vs0mg"},{"bike_id":"7be2ee45-7c3a-4d12-90f3-7c4109c97d01","system_id":"levelo_inurba_marseille","lat":43.28865,"lon":5.35849,"is_reserved":false,"is_disabled":false,"rental_uris":{"android":"levelo://app?vid=7be2ee45-7c3a-4d12-90f3-7c4109c97d01","ios":"levelo://app?vid=7be2ee45-7c3a-4d12-90f3-7c4109c97d01"},"vehicle_type_id":"4","last_reported":1773670415,"current_range_meters":33600,"station_id":"ce4bhb12rcd13ifvqem0","pricing_plan_id":"cebpf4jnsgd1na2vs0mg"},{"bike_id":"415bfeb9-0e2a-46f9-9790-98c7da8b8cbf","system_id":"levelo_inurba_marseille","lat":43.30285,"lon":5.39633,"is_reserved":false,"is_disabled":true,"rental_uris":{"android":"levelo://app?vid=415bfeb9-0e2a-46f9-9790-98c7da8b8cbf","ios":"levelo://app?vid=415bfeb9-0e2a-46f9-9790-98c7da8b8cbf"},"vehicle_type_id":"4","last_reported":1773670415,"current_range_meters":0,"station_id":"","pricing_plan_id":"cebpf4jnsgd1na2vs0mg"},{"bike_id":"29e43977-ef6d-49b4-8dac-e1d069a3dbc6","system_id":"levelo_inurba_marseille","lat":43.30885,"lon":5.37196,"is_reserved":false,"is_disabled":false,"rental_uris":{"android":"levelo://app?vid=29e43977-ef6d-49b4-8dac-e1d069a3dbc6","ios":"levelo://app?vid=29e43977-ef6d-49b4-8dac-e1d069a3dbc6"},"vehicle_type_id":"4","last_reported":1773670415,"current_range_meters":24400,"station_id":"ce4bguh2rcd13ifvqckg","pricing_plan_id":"cebpf4jnsgd1na2vs0mg"},{"bike_id":"7d5b997f-5115-45cd-8ced-c8507a994f25","system_id":"levelo_inurba_marseille","lat":43.30175,"lon":5.36608,"is_reserved":false,"is_disabled":false,"rental_uris":{"android":"levelo://app?vid=7d5b997f-5115-45cd-8ced-c8507a994f25","ios":"levelo://app?vid=7d5b997f-5115-45cd-8ced-c8507a994f25"},"vehicle_type_id":"4","last_reported":1773670415,"current_range_meters":11600,"station_id":"ce4bgrh2rcd13ifvqc8g","pricing_plan_id":"cebpf4jnsgd1na2vs0mg"},{"bike_id":"9d81edfa-23b4-4c0f-b037-c83b4deb804a","system_id":"levelo_inurba_marseille","lat":43.24391,"lon":5.37051,"is_reserved":false,"is_disabled":false,"rental_uris":{"android":"levelo://app?vid=9d81edfa-23b4-4c0f-b037-c83b4deb804a","ios":"levelo://app?vid=9d81edfa-23b4-4c0f-b037-c83b4deb804a"},"vehicle_type_id":"4","last_reported":1773670415,"current_range_meters":16800,"station_id":"ce4bhhh2rcd13ifvqfk0","pricing_plan_id":"cebpf4jnsgd1na2vs0mg"},{"bike_id":"44ed9f91-493e-41a6-a1c2-b89c2d0ba1c1","system_id":"levelo_inurba_marseille","lat":43.29514,"lon":5.37493,"is_reserved":false,"is_disabled":false,"rental_uris":{"android":"levelo://app?vid=44ed9f91-493e-41a6-a1c2-b89c2d0ba1c1","ios":"levelo://app?vid=44ed9f91-493e-41a6-a1c2-b89c2d0ba1c1"},"vehicle_type_id":"4","last_reported":1773670415,"current_range_meters":22400,"station_id":"ce4bgkp2rcd13ifvqbmg","pricing_plan_id":"cebpf4jnsgd1na2vs0mg"},{"bike_id":"bf35deae-c02e-4382-b944-c4bbe450d63e","system_id":"levelo_inurba_marseille","lat":43.26673,"lon":5.38287,"is_reserved":false,"is_disabled":false,"rental_uris":{"android":"levelo://app?vid=bf35deae-c02e-4382-b944-c4bbe450d63e","ios":"levelo://app?vid=bf35deae-c02e-4382-b944-c4bbe450d63e"},"vehicle_type_id":"4","last_reported":1773670415,"current_range_meters":39200,"station_id":"ce4bhg92rcd13ifvqf90","pricing_plan_id":"cebpf4jnsgd1na2vs0mg"},{"bike_id":"13e1c74f-9286-4765-b911-523b25505b6d","system_id":"levelo_inurba_marseille","lat":43.29585,"lon":5.36738,"is_reserved":false,"is_disabled":false,"rental_uris":{"android":"levelo://app?vid=13e1c74f-9286-4765-b911-523b25505b6d","ios":"levelo://app?vid=13e1c74f-9286-4765-b911-523b25505b6d"},"vehicle_type_id":"4","last_reported":1773670415,"current_range_meters":35600,"station_id":"ce4bgph2rcd13ifvqc2g","pricing_plan_id":"cebpf4jnsgd1na2vs0mg"},{"bike_id":"3da27fab-f707-4d6f-8b10-883081079bc6","system_id":"levelo_inurba_marseille","lat":43.27357,"lon":5.36238,"is_reserved":false,"is_disabled":false,"rental_uris":{"android":"levelo://app?vid=3da27fab-f707-4d6f-8b10-883081079bc6","ios":"levelo://app?vid=3da27fab-f707-4d6f-8b10-883081079bc6"},"vehicle_type_id":"4","last_reported":1773670415,"current_range_meters":39200,"station_id":"ce4bhbh2rcd13ifvqeo0","pricing_plan_id":"cebpf4jnsgd1na2vs0mg"},{"bike_id":"c5f68eaa-d3dc-425f-a69c-13a6f9f5140a","system_id":"levelo_inurba_marseille","lat":43.32554,"lon":5.41401,"is_reserved":false,"is_disabled":false,"rental_uris":{"android":"levelo://app?vid=c5f68eaa-d3dc-425f-a69c-13a6f9f5140a","ios":"levelo://app?vid=c5f68eaa-d3dc-425f-a69c-13a6f9f5140a"},"vehicle_type_id":"4","last_reported":1773670415,"current_range_meters":36000,"station_id":"ce4bhq12rcd13ifvqhhg","pricing_plan_id":"cebpf4jnsgd1na2vs0mg"},{"bike_id":"933a2485-1198-4e3d-a3be-1c25ad5c0c97","system_id":"levelo_inurba_marseille","lat":43.25927,"lon":5.4089,"is_reserved":false,"is_disabled":false,"rental_uris":{"android":"levelo://app?vid=933a2485-1198-4e3d-a3be-1c25ad5c0c97","ios":"levelo://app?vid=933a2485-1198-4e3d-a3be-1c25ad5c0c97"},"vehicle_type_id":"4","last_reported":1773670415,"current_range_meters":35200,"station_id":"ce4bhm92rcd13ifvqglg","pricing_plan_id":"cebpf4jnsgd1na2vs0mg"},{"bike_id":"9e9d573a-2c65-4533-b6fa-aed42697d03e","system_id":"levelo_inurba_marseille","lat":43.29956,"lon":5.41307,"is_reserved":false,"is_disabled":false,"rental_uris":{"android":"levelo://app?vid=9e9d573a-2c65-4533-b6fa-aed42697d03e","ios":"levelo://app?vid=9e9d573a-2c65-4533-b6fa-aed42697d03e"},"vehicle_type_id":"4","last_reported":1773670415,"current_range_meters":39200,"station_id":"ce4bhp12rcd13ifvqh9g","pricing_plan_id":"cebpf4jnsgd1na2vs0mg"},{"bike_id":"b278ad17-e09c-46d1-95da-e7299e72a641","system_id":"levelo_inurba_marseille","lat":43.22564,"lon":5.41625,"is_reserved":false,"is_disabled":false,"rental_uris":{"android":"levelo://app?vid=b278ad17-e09c-46d1-95da-e7299e72a641","ios":"levelo://app?vid=b278ad17-e09c-46d1-95da-e7299e72a641"},"vehicle_type_id":"4","last_reported":1773670415,"current_range_meters":30400,"station_id":"st_d2o4gvlbi1j2169b742g","pricing_plan_id":"cebpf4jnsgd1na2vs0mg"},{"bike_id":"7e55300e-c6ce-4cea-b352-04866308b200","system_id":"levelo_inurba_marseille","lat":43.29632,"lon":5.4217,"is_reserved":false,"is_disabled":false,"rental_uris":{"android":"levelo://app?vid=7e55300e-c6ce-4cea-b352-04866308b200","ios":"levelo://app?vid=7e55300e-c6ce-4cea-b352-04866308b200"},"vehicle_type_id":"4","last_reported":1773670415,"current_range_meters":20000,"station_id":"","pricing_plan_id":"cebpf4jnsgd1na2vs0mg"},{"bike_id":"83749433-0a80-4c00-b712-c6dbf0d86014","system_id":"levelo_inurba_marseille","lat":43.30506,"lon":5.36496,"is_reserved":false,"is_disabled":false,"rental_uris":{"android":"levelo://app?vid=83749433-0a80-4c00-b712-c6dbf0d86014","ios":"levelo://app?vid=83749433-0a80-4c00-b712-c6dbf0d86014"},"vehicle_type_id":"4","last_reported":1773670415,"current_range_meters":25600,"station_id":"","pricing_plan_id":"cebpf4jnsgd1na2vs0mg"},{"bike_id":"b873da24-1045-4d09-b91f-3e423eac7b45","system_id":"levelo_inurba_marseille","lat":43.33148,"lon":5.37734,"is_reserved":false,"is_disabled":false,"rental_uris":{"android":"levelo://app?vid=b873da24-1045-4d09-b91f-3e423eac7b45","ios":"levelo://app?vid=b873da24-1045-4d09-b91f-3e423eac7b45"},"vehicle_type_id":"4","last_reported":1773670415,"current_range_meters":4400,"station_id":"st_d46cu089ee8s73dldbu0","pricing_plan_id":"cebpf4jnsgd1na2vs0mg"},{"bike_id":"61810534-e31e-4a8c-be14-f067091c4302","system_id":"levelo_inurba_marseille","lat":43.28419,"lon":5.34991,"is_reserved":false,"is_disabled":false,"rental_uris":{"android":"levelo://app?vid=61810534-e31e-4a8c-be14-f067091c4302","ios":"levelo://app?vid=61810534-e31e-4a8c-be14-f067091c4302"},"vehicle_type_id":"4","last_reported":1773670415,"current_range_meters":39200,"station_id":"ce4bhbh2rcd13ifvqepg","pricing_plan_id":"cebpf4jnsgd1na2vs0mg"},{"bike_id":"5eaad388-2ccc-4bbb-9427-e42f493f2045","system_id":"levelo_inurba_marseille","lat":43.30605,"lon":5.37217,"is_reserved":false,"is_disabled":false,"rental_uris":{"android":"levelo://app?vid=5eaad388-2ccc-4bbb-9427-e42f493f2045","ios":"levelo://app?vid=5eaad388-2ccc-4bbb-9427-e42f493f2045"},"vehicle_type_id":"4","last_reported":1773670415,"current_range_meters":36400,"station_id":"ce4bgqh2rcd13ifvqc4g","pricing_plan_id":"cebpf4jnsgd1na2vs0mg"},{"bike_id":"8a39bd95-653a-47cf-989d-cd8f1fe2ee04","system_id":"levelo_inurba_marseille","lat":43.2985,"lon":5.36269,"is_reserved":false,"is_disabled":false,"rental_uris":{"android":"levelo://app?vid=8a39bd95-653a-47cf-989d-cd8f1fe2ee04","ios":"levelo://app?vid=8a39bd95-653a-47cf-989d-cd8f1fe2ee04"},"vehicle_type_id":"4","last_reported":1773670415,"current_range_meters":27200,"station_id":"ce4bgpp2rcd13ifvqc3g","pricing_plan_id":"cebpf4jnsgd1na2vs0mg"},{"bike_id":"b992d013-31c6-40e6-b76c-ffb49d136524","system_id":"levelo_inurba_marseille","lat":43.32381,"lon":5.38886,"is_reserved":false,"is_disabled":false,"rental_uris":{"android":"levelo://app?vid=b992d013-31c6-40e6-b76c-ffb49d136524","ios":"levelo://app?vid=b992d013-31c6-40e6-b76c-ffb49d136524"},"vehicle_type_id":"4","last_reported":1773670415,"current_range_meters":38800,"station_id":"ce4bhqp2rcd13ifvqhog","pricing_plan_id":"cebpf4jnsgd1na2vs0mg"},{"bike_id":"17c385b8-6c2e-4672-84a5-af2ee05efb40","system_id":"levelo_inurba_marseille","lat":43.29375,"lon":5.37841,"is_reserved":false,"is_disabled":true,"rental_uris":{"android":"levelo://app?vid=17c385b8-6c2e-4672-84a5-af2ee05efb40","ios":"levelo://app?vid=17c385b8-6c2e-4672-84a5-af2ee05efb40"},"vehicle_type_id":"4","last_reported":1773670415,"current_range_meters":400,"station_id":"ce4bgjh2rcd13ifvqbf0","pricing_plan_id":"cebpf4jnsgd1na2vs0mg"},{"bike_id":"cbd84b36-6b61-495b-b397-6cab818744a3","system_id":"levelo_inurba_marseille","lat":43.23907,"lon":5.37437,"is_reserved":false,"is_disabled":false,"rental_uris":{"android":"levelo://app?vid=cbd84b36-6b61-495b-b397-6cab818744a3","ios":"levelo://app?vid=cbd84b36-6b61-495b-b397-6cab818744a3"},"vehicle_type_id":"4","last_reported":1773670415,"current_range_meters":18000,"station_id":"","pricing_plan_id":"cebpf4jnsgd1na2vs0mg"},{"bike_id":"77216a7f-364c-4873-bc97-ce369405114b","system_id":"levelo_inurba_marseille","lat":43.30128,"lon":5.43106,"is_reserved":false,"is_disabled":false,"rental_uris":{"android":"levelo://app?vid=77216a7f-364c-4873-bc97-ce369405114b","ios":"levelo://app?vid=77216a7f-364c-4873-bc97-ce369405114b"},"vehicle_type_id":"4","last_reported":1773670415,"current_range_meters":3600,"station_id":"st_d3js3co5814s73ftftug","pricing_plan_id":"cebpf4jnsgd1na2vs0mg"},{"bike_id":"95335745-9338-4a1d-a429-0f72ada4d5ca","system_id":"levelo_inurba_marseille","lat":43.26356,"lon":5.4106,"is_reserved":false,"is_disabled":false,"rental_uris":{"android":"levelo://app?vid=95335745-9338-4a1d-a429-0f72ada4d5ca","ios":"levelo://app?vid=95335745-9338-4a1d-a429-0f72ada4d5ca"},"vehicle_type_id":"4","last_reported":1773670415,"current_range_meters":25600,"station_id":"st_d4e5ca6na9uc73bfl5fg","pricing_plan_id":"cebpf4jnsgd1na2vs0mg"},{"bike_id":"0daf6109-b8b0-47a6-a266-d3ab8c2a01a8","system_id":"levelo_inurba_marseille","lat":43.26552,"lon":5.40331,"is_reserved":false,"is_disabled":false,"rental_uris":{"android":"levelo://app?vid=0daf6109-b8b0-47a6-a266-d3ab8c2a01a8","ios":"levelo://app?vid=0daf6109-b8b0-47a6-a266-d3ab8c2a01a8"},"vehicle_type_id":"4","last_reported":1773670415,"current_range_meters":30000,"station_id":"ce4bhmp2rcd13ifvqgng","pricing_plan_id":"cebpf4jnsgd1na2vs0mg"},{"bike_id":"052a698f-0c12-45bf-8237-a646d214139c","system_id":"levelo_inurba_marseille","lat":43.30556,"lon":5.3653,"is_reserved":false,"is_disabled":false,"rental_uris":{"android":"levelo://app?vid=052a698f-0c12-45bf-8237-a646d214139c","ios":"levelo://app?vid=052a698f-0c12-45bf-8237-a646d214139c"},"vehicle_type_id":"4","last_reported":1773670415,"current_range_meters":16400,"station_id":"ce4bgs12rcd13ifvqcag","pricing_plan_id":"cebpf4jnsgd1na2vs0mg"},{"bike_id":"014fbe6d-acef-4024-b919-caaae3fc7ea1","system_id":"levelo_inurba_marseille","lat":43.2861,"lon":5.35101,"is_reserved":false,"is_disabled":false,"rental_uris":{"android":"levelo://app?vid=014fbe6d-acef-4024-b919-caaae3fc7ea1","ios":"levelo://app?vid=014fbe6d-acef-4024-b919-caaae3fc7ea1"},"vehicle_type_id":"4","last_reported":1773670415,"current_range_meters":28800,"station_id":"ce4bhch2rcd13ifvqeug","pricing_plan_id":"cebpf4jnsgd1na2vs0mg"},{"bike_id":"b5f02cd4-343e-4cdc-ba83-b9e2daa6537f","system_id":"levelo_inurba_marseille","lat":43.26677,"lon":5.3826,"is_reserved":false,"is_disabled":false,"rental_uris":{"android":"levelo://app?vid=b5f02cd4-343e-4cdc-ba83-b9e2daa6537f","ios":"levelo://app?vid=b5f02cd4-343e-4cdc-ba83-b9e2daa6537f"},"vehicle_type_id":"4","last_reported":1773670415,"current_range_meters":34800,"station_id":"ce4bhg92rcd13ifvqf90","pricing_plan_id":"cebpf4jnsgd1na2vs0mg"},{"bike_id":"19373765-144a-4790-8089-8a5de9544f1f","system_id":"levelo_inurba_marseille","lat":43.24172,"lon":5.39717,"is_reserved":false,"is_disabled":false,"rental_uris":{"android":"levelo://app?vid=19373765-144a-4790-8089-8a5de9544f1f","ios":"levelo://app?vid=19373765-144a-4790-8089-8a5de9544f1f"},"vehicle_type_id":"4","last_reported":1773670415,"current_range_meters":28800,"station_id":"ce4bhn12rcd13ifvqgpg","pricing_plan_id":"cebpf4jnsgd1na2vs0mg"},{"bike_id":"902f01b2-c4a9-49a6-b6c5-42f943c733e9","system_id":"levelo_inurba_marseille","lat":43.30883,"lon":5.372,"is_reserved":false,"is_disabled":false,"rental_uris":{"android":"levelo://app?vid=902f01b2-c4a9-49a6-b6c5-42f943c733e9","ios":"levelo://app?vid=902f01b2-c4a9-49a6-b6c5-42f943c733e9"},"vehicle_type_id":"4","last_reported":1773670415,"current_range_meters":33600,"station_id":"ce4bguh2rcd13ifvqckg","pricing_plan_id":"cebpf4jnsgd1na2vs0mg"},{"bike_id":"d0dab2fa-d617-4c19-a612-133b45b47130","system_id":"levelo_inurba_marseille","lat":43.23198,"lon":5.35542,"is_reserved":false,"is_disabled":false,"rental_uris":{"android":"levelo://app?vid=d0dab2fa-d617-4c19-a612-133b45b47130","ios":"levelo://app?vid=d0dab2fa-d617-4c19-a612-133b45b47130"},"vehicle_type_id":"4","last_reported":1773670415,"current_range_meters":20800,"station_id":"ce4bhu92rcd13ifvqi70","pricing_plan_id":"cebpf4jnsgd1na2vs0mg"},{"bike_id":"491ba74c-a458-433d-a534-dfa81b7720cd","system_id":"levelo_inurba_marseille","lat":43.21752,"lon":5.34603,"is_reserved":false,"is_disabled":false,"rental_uris":{"android":"levelo://app?vid=491ba74c-a458-433d-a534-dfa81b7720cd","ios":"levelo://app?vid=491ba74c-a458-433d-a534-dfa81b7720cd"},"vehicle_type_id":"4","last_reported":1773670415,"current_range_meters":9600,"station_id":"st_cvj6r9ubvosntc0bgbag","pricing_plan_id":"cebpf4jnsgd1na2vs0mg"},{"bike_id":"fdf866ca-9a01-40b6-8b5d-7ed716ee6f5e","system_id":"levelo_inurba_marseille","lat":43.30739,"lon":5.42438,"is_reserved":false,"is_disabled":false,"rental_uris":{"android":"levelo://app?vid=fdf866ca-9a01-40b6-8b5d-7ed716ee6f5e","ios":"levelo://app?vid=fdf866ca-9a01-40b6-8b5d-7ed716ee6f5e"},"vehicle_type_id":"4","last_reported":1773670415,"current_range_meters":39200,"station_id":"st_cvj6ca6bvosntc0bfgr0","pricing_plan_id":"cebpf4jnsgd1na2vs0mg"},{"bike_id":"4933ac27-248a-4686-b475-7cc87b6d5074","system_id":"levelo_inurba_marseille","lat":43.24066,"lon":5.37726,"is_reserved":false,"is_disabled":false,"rental_uris":{"android":"levelo://app?vid=4933ac27-248a-4686-b475-7cc87b6d5074","ios":"levelo://app?vid=4933ac27-248a-4686-b475-7cc87b6d5074"},"vehicle_type_id":"4","last_reported":1773670415,"current_range_meters":38000,"station_id":"ce4bhnp2rcd13ifvqgvg","pricing_plan_id":"cebpf4jnsgd1na2vs0mg"},{"bike_id":"c2d75a77-7dda-428e-bdbd-a97c9d7e2102","system_id":"levelo_inurba_marseille","lat":43.27042,"lon":5.38222,"is_reserved":false,"is_disabled":true,"rental_uris":{"android":"levelo://app?vid=c2d75a77-7dda-428e-bdbd-a97c9d7e2102","ios":"levelo://app?vid=c2d75a77-7dda-428e-bdbd-a97c9d7e2102"},"vehicle_type_id":"4","last_reported":1773670415,"current_range_meters":35600,"station_id":"st_d3n2fo6cfp8s73cte1j0","pricing_plan_id":"cebpf4jnsgd1na2vs0mg"},{"bike_id":"857b6928-ed90-4f6e-a6cf-93ba460b7680","system_id":"levelo_inurba_marseille","lat":43.3237,"lon":5.38873,"is_reserved":false,"is_disabled":false,"rental_uris":{"android":"levelo://app?vid=857b6928-ed90-4f6e-a6cf-93ba460b7680","ios":"levelo://app?vid=857b6928-ed90-4f6e-a6cf-93ba460b7680"},"vehicle_type_id":"4","last_reported":1773670415,"current_range_meters":39200,"station_id":"ce4bhqp2rcd13ifvqhog","pricing_plan_id":"cebpf4jnsgd1na2vs0mg"},{"bike_id":"e378ab9d-c754-4563-b960-fd5460f9bff6","system_id":"levelo_inurba_marseille","lat":43.29909,"lon":5.37567,"is_reserved":false,"is_disabled":false,"rental_uris":{"android":"levelo://app?vid=e378ab9d-c754-4563-b960-fd5460f9bff6","ios":"levelo://app?vid=e378ab9d-c754-4563-b960-fd5460f9bff6"},"vehicle_type_id":"4","last_reported":1773670415,"current_range_meters":38400,"station_id":"","pricing_plan_id":"cebpf4jnsgd1na2vs0mg"},{"bike_id":"dea631f7-42a0-4fc4-b750-984aa138e4f3","system_id":"levelo_inurba_marseille","lat":43.32347,"lon":5.38841,"is_reserved":false,"is_disabled":false,"rental_uris":{"android":"levelo://app?vid=dea631f7-42a0-4fc4-b750-984aa138e4f3","ios":"levelo://app?vid=dea631f7-42a0-4fc4-b750-984aa138e4f3"},"vehicle_type_id":"4","last_reported":1773670415,"current_range_meters":33200,"station_id":"ce4bhqp2rcd13ifvqhog","pricing_plan_id":"cebpf4jnsgd1na2vs0mg"},{"bike_id":"12bb0608-da9d-4e04-8f31-0e077a96fffb","system_id":"levelo_inurba_marseille","lat":43.25585,"lon":5.38231,"is_reserved":false,"is_disabled":false,"rental_uris":{"android":"levelo://app?vid=12bb0608-da9d-4e04-8f31-0e077a96fffb","ios":"levelo://app?vid=12bb0608-da9d-4e04-8f31-0e077a96fffb"},"vehicle_type_id":"4","last_reported":1773670415,"current_range_meters":28400,"station_id":"ce4bhih2rcd13ifvqfs0","pricing_plan_id":"cebpf4jnsgd1na2vs0mg"},{"bike_id":"ef124b6c-1864-4cf0-9457-14566d1138f0","system_id":"levelo_inurba_marseille","lat":43.26358,"lon":5.41073,"is_reserved":false,"is_disabled":false,"rental_uris":{"android":"levelo://app?vid=ef124b6c-1864-4cf0-9457-14566d1138f0","ios":"levelo://app?vid=ef124b6c-1864-4cf0-9457-14566d1138f0"},"vehicle_type_id":"4","last_reported":1773670415,"current_range_meters":26000,"station_id":"st_d4e5ca6na9uc73bfl5fg","pricing_plan_id":"cebpf4jnsgd1na2vs0mg"},{"bike_id":"87961bc8-b9ec-434a-9714-7ea7cf0235a9","system_id":"levelo_inurba_marseille","lat":43.29045,"lon":5.39941,"is_reserved":false,"is_disabled":false,"rental_uris":{"android":"levelo://app?vid=87961bc8-b9ec-434a-9714-7ea7cf0235a9","ios":"levelo://app?vid=87961bc8-b9ec-434a-9714-7ea7cf0235a9"},"vehicle_type_id":"4","last_reported":1773670415,"current_range_meters":13600,"station_id":"ce4bh392rcd13ifvqdm0","pricing_plan_id":"cebpf4jnsgd1na2vs0mg"},{"bike_id":"1dbc2359-923d-4f88-a168-a5102060bfcb","system_id":"levelo_inurba_marseille","lat":43.28284,"lon":5.35084,"is_reserved":false,"is_disabled":false,"rental_uris":{"android":"levelo://app?vid=1dbc2359-923d-4f88-a168-a5102060bfcb","ios":"levelo://app?vid=1dbc2359-923d-4f88-a168-a5102060bfcb"},"vehicle_type_id":"4","last_reported":1773670415,"current_range_meters":15200,"station_id":"ce4bhbp2rcd13ifvqerg","pricing_plan_id":"cebpf4jnsgd1na2vs0mg"},{"bike_id":"badacbb6-0c1f-4bd5-900a-66dcf61f42d5","system_id":"levelo_inurba_marseille","lat":43.26064,"lon":5.39404,"is_reserved":false,"is_disabled":false,"rental_uris":{"android":"levelo://app?vid=badacbb6-0c1f-4bd5-900a-66dcf61f42d5","ios":"levelo://app?vid=badacbb6-0c1f-4bd5-900a-66dcf61f42d5"},"vehicle_type_id":"4","last_reported":1773670415,"current_range_meters":38000,"station_id":"ce4bhh92rcd13ifvqfj0","pricing_plan_id":"cebpf4jnsgd1na2vs0mg"},{"bike_id":"f85f9766-0c59-47a0-aa84-124bac8ee080","system_id":"levelo_inurba_marseille","lat":43.26361,"lon":5.41081,"is_reserved":false,"is_disabled":false,"rental_uris":{"android":"levelo://app?vid=f85f9766-0c59-47a0-aa84-124bac8ee080","ios":"levelo://app?vid=f85f9766-0c59-47a0-aa84-124bac8ee080"},"vehicle_type_id":"4","last_reported":1773670415,"current_range_meters":38000,"station_id":"st_d4e5ca6na9uc73bfl5fg","pricing_plan_id":"cebpf4jnsgd1na2vs0mg"},{"bike_id":"5dedbb18-e988-4c62-a1b7-6082fc58ac3f","system_id":"levelo_inurba_marseille","lat":43.25087,"lon":5.39501,"is_reserved":false,"is_disabled":false,"rental_uris":{"android":"levelo://app?vid=5dedbb18-e988-4c62-a1b7-6082fc58ac3f","ios":"levelo://app?vid=5dedbb18-e988-4c62-a1b7-6082fc58ac3f"},"vehicle_type_id":"4","last_reported":1773670415,"current_range_meters":4000,"station_id":"ce4bhm12rcd13ifvqgkg","pricing_plan_id":"cebpf4jnsgd1na2vs0mg"},{"bike_id":"7d0d6579-73dd-45b7-81e1-90af3d6ef163","system_id":"levelo_inurba_marseille","lat":43.22575,"lon":5.41628,"is_reserved":false,"is_disabled":false,"rental_uris":{"android":"levelo://app?vid=7d0d6579-73dd-45b7-81e1-90af3d6ef163","ios":"levelo://app?vid=7d0d6579-73dd-45b7-81e1-90af3d6ef163"},"vehicle_type_id":"4","last_reported":1773670415,"current_range_meters":8800,"station_id":"st_d2o4gvlbi1j2169b742g","pricing_plan_id":"cebpf4jnsgd1na2vs0mg"},{"bike_id":"c74a55e2-e354-447b-b99a-f9c84c1ffcee","system_id":"levelo_inurba_marseille","lat":43.30566,"lon":5.37183,"is_reserved":false,"is_disabled":false,"rental_uris":{"android":"levelo://app?vid=c74a55e2-e354-447b-b99a-f9c84c1ffcee","ios":"levelo://app?vid=c74a55e2-e354-447b-b99a-f9c84c1ffcee"},"vehicle_type_id":"4","last_reported":1773670415,"current_range_meters":38800,"station_id":"ce4bgqh2rcd13ifvqc4g","pricing_plan_id":"cebpf4jnsgd1na2vs0mg"},{"bike_id":"2ab628f4-4cfd-478e-9f06-4eed69164c58","system_id":"levelo_inurba_marseille","lat":43.31373,"lon":5.36702,"is_reserved":false,"is_disabled":false,"rental_uris":{"android":"levelo://app?vid=2ab628f4-4cfd-478e-9f06-4eed69164c58","ios":"levelo://app?vid=2ab628f4-4cfd-478e-9f06-4eed69164c58"},"vehicle_type_id":"4","last_reported":1773670415,"current_range_meters":30400,"station_id":"ce4bgr92rcd13ifvqc6g","pricing_plan_id":"cebpf4jnsgd1na2vs0mg"},{"bike_id":"fad74607-96bc-47b3-b89a-d4d2fb826c8a","system_id":"levelo_inurba_marseille","lat":43.29281,"lon":5.40116,"is_reserved":false,"is_disabled":false,"rental_uris":{"android":"levelo://app?vid=fad74607-96bc-47b3-b89a-d4d2fb826c8a","ios":"levelo://app?vid=fad74607-96bc-47b3-b89a-d4d2fb826c8a"},"vehicle_type_id":"4","last_reported":1773670415,"current_range_meters":26000,"station_id":"ce4bh312rcd13ifvqdk0","pricing_plan_id":"cebpf4jnsgd1na2vs0mg"},{"bike_id":"3d3afd54-1c51-4d77-8394-a33323eb7e6e","system_id":"levelo_inurba_marseille","lat":43.24936,"lon":5.40493,"is_reserved":false,"is_disabled":false,"rental_uris":{"android":"levelo://app?vid=3d3afd54-1c51-4d77-8394-a33323eb7e6e","ios":"levelo://app?vid=3d3afd54-1c51-4d77-8394-a33323eb7e6e"},"vehicle_type_id":"4","last_reported":1773670415,"current_range_meters":9200,"station_id":"st_d2ngiaodas8pm72gd1h0","pricing_plan_id":"cebpf4jnsgd1na2vs0mg"},{"bike_id":"6bd46585-7360-490f-b2a6-8e61e6304105","system_id":"levelo_inurba_marseille","lat":43.29769,"lon":5.42767,"is_reserved":false,"is_disabled":false,"rental_uris":{"android":"levelo://app?vid=6bd46585-7360-490f-b2a6-8e61e6304105","ios":"levelo://app?vid=6bd46585-7360-490f-b2a6-8e61e6304105"},"vehicle_type_id":"4","last_reported":1773670415,"current_range_meters":14400,"station_id":"st_d3md5207bmas73dh9klg","pricing_plan_id":"cebpf4jnsgd1na2vs0mg"},{"bike_id":"4c177e21-a8fe-4f57-a94f-d114f72249f7","system_id":"levelo_inurba_marseille","lat":43.31858,"lon":5.3697,"is_reserved":false,"is_disabled":false,"rental_uris":{"android":"levelo://app?vid=4c177e21-a8fe-4f57-a94f-d114f72249f7","ios":"levelo://app?vid=4c177e21-a8fe-4f57-a94f-d114f72249f7"},"vehicle_type_id":"4","last_reported":1773670415,"current_range_meters":36000,"station_id":"","pricing_plan_id":"cebpf4jnsgd1na2vs0mg"},{"bike_id":"96625843-b633-4ba7-9c1a-9852fed43dd1","system_id":"levelo_inurba_marseille","lat":43.26551,"lon":5.38999,"is_reserved":false,"is_disabled":false,"rental_uris":{"android":"levelo://app?vid=96625843-b633-4ba7-9c1a-9852fed43dd1","ios":"levelo://app?vid=96625843-b633-4ba7-9c1a-9852fed43dd1"},"vehicle_type_id":"4","last_reported":1773670415,"current_range_meters":11200,"station_id":"ce4bhe12rcd13ifvqf30","pricing_plan_id":"cebpf4jnsgd1na2vs0mg"},{"bike_id":"7dd0527d-b670-4edf-9073-e8f09a05690c","system_id":"levelo_inurba_marseille","lat":43.29936,"lon":5.36537,"is_reserved":false,"is_disabled":false,"rental_uris":{"android":"levelo://app?vid=7dd0527d-b670-4edf-9073-e8f09a05690c","ios":"levelo://app?vid=7dd0527d-b670-4edf-9073-e8f09a05690c"},"vehicle_type_id":"4","last_reported":1773670415,"current_range_meters":4000,"station_id":"ce4bgm92rcd13ifvqbr0","pricing_plan_id":"cebpf4jnsgd1na2vs0mg"},{"bike_id":"03b1b92a-d21f-4b09-ad20-c80e5eee47a1","system_id":"levelo_inurba_marseille","lat":43.29845,"lon":5.36277,"is_reserved":false,"is_disabled":false,"rental_uris":{"android":"levelo://app?vid=03b1b92a-d21f-4b09-ad20-c80e5eee47a1","ios":"levelo://app?vid=03b1b92a-d21f-4b09-ad20-c80e5eee47a1"},"vehicle_type_id":"4","last_reported":1773670415,"current_range_meters":33600,"station_id":"ce4bgpp2rcd13ifvqc3g","pricing_plan_id":"cebpf4jnsgd1na2vs0mg"},{"bike_id":"90006b8d-6aa9-4ebe-9082-e177c10b421a","system_id":"levelo_inurba_marseille","lat":43.31292,"lon":5.36943,"is_reserved":false,"is_disabled":false,"rental_uris":{"android":"levelo://app?vid=90006b8d-6aa9-4ebe-9082-e177c10b421a","ios":"levelo://app?vid=90006b8d-6aa9-4ebe-9082-e177c10b421a"},"vehicle_type_id":"4","last_reported":1773670415,"current_range_meters":36400,"station_id":"","pricing_plan_id":"cebpf4jnsgd1na2vs0mg"},{"bike_id":"584f7aa0-b582-45fa-adcb-d34128f4ce54","system_id":"levelo_inurba_marseille","lat":43.27813,"lon":5.40715,"is_reserved":false,"is_disabled":true,"rental_uris":{"android":"levelo://app?vid=584f7aa0-b582-45fa-adcb-d34128f4ce54","ios":"levelo://app?vid=584f7aa0-b582-45fa-adcb-d34128f4ce54"},"vehicle_type_id":"4","last_reported":1773670415,"current_range_meters":8400,"station_id":"","pricing_plan_id":"cebpf4jnsgd1na2vs0mg"},{"bike_id":"155b0320-79c3-41cb-91e9-f84de49ff2b3","system_id":"levelo_inurba_marseille","lat":43.2591,"lon":5.40942,"is_reserved":false,"is_disabled":false,"rental_uris":{"android":"levelo://app?vid=155b0320-79c3-41cb-91e9-f84de49ff2b3","ios":"levelo://app?vid=155b0320-79c3-41cb-91e9-f84de49ff2b3"},"vehicle_type_id":"4","last_reported":1773670415,"current_range_meters":36000,"station_id":"ce4bhm92rcd13ifvqglg","pricing_plan_id":"cebpf4jnsgd1na2vs0mg"},{"bike_id":"8ae3cd93-1df5-4c86-a3cd-ea1407ea9258","system_id":"levelo_inurba_marseille","lat":43.30752,"lon":5.42446,"is_reserved":false,"is_disabled":false,"rental_uris":{"android":"levelo://app?vid=8ae3cd93-1df5-4c86-a3cd-ea1407ea9258","ios":"levelo://app?vid=8ae3cd93-1df5-4c86-a3cd-ea1407ea9258"},"vehicle_type_id":"4","last_reported":1773670415,"current_range_meters":32000,"station_id":"st_cvj6ca6bvosntc0bfgr0","pricing_plan_id":"cebpf4jnsgd1na2vs0mg"},{"bike_id":"0bd699b8-0f51-4e7d-b635-e29484ca415b","system_id":"levelo_inurba_marseille","lat":43.25585,"lon":5.38223,"is_reserved":false,"is_disabled":false,"rental_uris":{"android":"levelo://app?vid=0bd699b8-0f51-4e7d-b635-e29484ca415b","ios":"levelo://app?vid=0bd699b8-0f51-4e7d-b635-e29484ca415b"},"vehicle_type_id":"4","last_reported":1773670415,"current_range_meters":19200,"station_id":"ce4bhih2rcd13ifvqfs0","pricing_plan_id":"cebpf4jnsgd1na2vs0mg"},{"bike_id":"a1a487e0-263f-4bcb-a083-313a46d262d6","system_id":"levelo_inurba_marseille","lat":43.29116,"lon":5.43276,"is_reserved":false,"is_disabled":true,"rental_uris":{"android":"levelo://app?vid=a1a487e0-263f-4bcb-a083-313a46d262d6","ios":"levelo://app?vid=a1a487e0-263f-4bcb-a083-313a46d262d6"},"vehicle_type_id":"4","last_reported":1773670415,"current_range_meters":22000,"station_id":"","pricing_plan_id":"cebpf4jnsgd1na2vs0mg"},{"bike_id":"80349c10-4722-47ae-a549-f9c542386094","system_id":"levelo_inurba_marseille","lat":43.30542,"lon":5.36516,"is_reserved":false,"is_disabled":false,"rental_uris":{"android":"levelo://app?vid=80349c10-4722-47ae-a549-f9c542386094","ios":"levelo://app?vid=80349c10-4722-47ae-a549-f9c542386094"},"vehicle_type_id":"4","last_reported":1773670415,"current_range_meters":39200,"station_id":"ce4bgs12rcd13ifvqcag","pricing_plan_id":"cebpf4jnsgd1na2vs0mg"},{"bike_id":"6b24d631-d5b9-47e8-921a-18505da85c70","system_id":"levelo_inurba_marseille","lat":43.27064,"lon":5.4026,"is_reserved":false,"is_disabled":false,"rental_uris":{"android":"levelo://app?vid=6b24d631-d5b9-47e8-921a-18505da85c70","ios":"levelo://app?vid=6b24d631-d5b9-47e8-921a-18505da85c70"},"vehicle_type_id":"4","last_reported":1773670415,"current_range_meters":34800,"station_id":"ce4bhk92rcd13ifvqgc0","pricing_plan_id":"cebpf4jnsgd1na2vs0mg"},{"bike_id":"ddd64a40-0275-4ca7-a97f-2eff5d3e514a","system_id":"levelo_inurba_marseille","lat":43.28473,"lon":5.48393,"is_reserved":false,"is_disabled":false,"rental_uris":{"android":"levelo://app?vid=ddd64a40-0275-4ca7-a97f-2eff5d3e514a","ios":"levelo://app?vid=ddd64a40-0275-4ca7-a97f-2eff5d3e514a"},"vehicle_type_id":"4","last_reported":1773670415,"current_range_meters":8800,"station_id":"","pricing_plan_id":"cebpf4jnsgd1na2vs0mg"},{"bike_id":"81467cca-3c71-4094-a5dc-2ce923c92b67","system_id":"levelo_inurba_marseille","lat":43.2669,"lon":5.38268,"is_reserved":false,"is_disabled":false,"rental_uris":{"android":"levelo://app?vid=81467cca-3c71-4094-a5dc-2ce923c92b67","ios":"levelo://app?vid=81467cca-3c71-4094-a5dc-2ce923c92b67"},"vehicle_type_id":"4","last_reported":1773670415,"current_range_meters":27600,"station_id":"ce4bhg92rcd13ifvqf90","pricing_plan_id":"cebpf4jnsgd1na2vs0mg"},{"bike_id":"f0752db4-9746-4f09-a991-9d3088a31eb9","system_id":"levelo_inurba_marseille","lat":43.28593,"lon":5.35152,"is_reserved":false,"is_disabled":false,"rental_uris":{"android":"levelo://app?vid=f0752db4-9746-4f09-a991-9d3088a31eb9","ios":"levelo://app?vid=f0752db4-9746-4f09-a991-9d3088a31eb9"},"vehicle_type_id":"4","last_reported":1773670415,"current_range_meters":11600,"station_id":"ce4bhch2rcd13ifvqeug","pricing_plan_id":"cebpf4jnsgd1na2vs0mg"},{"bike_id":"7459a8ce-4c42-4485-90ec-512304b48dd0","system_id":"levelo_inurba_marseille","lat":43.2416,"lon":5.39713,"is_reserved":false,"is_disabled":false,"rental_uris":{"android":"levelo://app?vid=7459a8ce-4c42-4485-90ec-512304b48dd0","ios":"levelo://app?vid=7459a8ce-4c42-4485-90ec-512304b48dd0"},"vehicle_type_id":"4","last_reported":1773670415,"current_range_meters":35600,"station_id":"ce4bhn12rcd13ifvqgpg","pricing_plan_id":"cebpf4jnsgd1na2vs0mg"},{"bike_id":"1a2ad8e0-25f4-4b1d-a268-792ddb756ae5","system_id":"levelo_inurba_marseille","lat":43.33537,"lon":5.37477,"is_reserved":false,"is_disabled":false,"rental_uris":{"android":"levelo://app?vid=1a2ad8e0-25f4-4b1d-a268-792ddb756ae5","ios":"levelo://app?vid=1a2ad8e0-25f4-4b1d-a268-792ddb756ae5"},"vehicle_type_id":"4","last_reported":1773670415,"current_range_meters":14800,"station_id":"st_d46tts09ee8s73dlu43g","pricing_plan_id":"cebpf4jnsgd1na2vs0mg"},{"bike_id":"5dea7ece-1d9b-471d-a08a-4a42d6f62761","system_id":"levelo_inurba_marseille","lat":43.28607,"lon":5.35084,"is_reserved":false,"is_disabled":false,"rental_uris":{"android":"levelo://app?vid=5dea7ece-1d9b-471d-a08a-4a42d6f62761","ios":"levelo://app?vid=5dea7ece-1d9b-471d-a08a-4a42d6f62761"},"vehicle_type_id":"4","last_reported":1773670415,"current_range_meters":32400,"station_id":"ce4bhch2rcd13ifvqeug","pricing_plan_id":"cebpf4jnsgd1na2vs0mg"},{"bike_id":"62a968e7-817d-43b4-aded-c3ea6cb5a0b3","system_id":"levelo_inurba_marseille","lat":43.26678,"lon":5.38262,"is_reserved":false,"is_disabled":false,"rental_uris":{"android":"levelo://app?vid=62a968e7-817d-43b4-aded-c3ea6cb5a0b3","ios":"levelo://app?vid=62a968e7-817d-43b4-aded-c3ea6cb5a0b3"},"vehicle_type_id":"4","last_reported":1773670415,"current_range_meters":27600,"station_id":"ce4bhg92rcd13ifvqf90","pricing_plan_id":"cebpf4jnsgd1na2vs0mg"},{"bike_id":"e5a797cb-e1fa-46f1-827d-4528129adf92","system_id":"levelo_inurba_marseille","lat":43.24653,"lon":5.38883,"is_reserved":false,"is_disabled":false,"rental_uris":{"android":"levelo://app?vid=e5a797cb-e1fa-46f1-827d-4528129adf92","ios":"levelo://app?vid=e5a797cb-e1fa-46f1-827d-4528129adf92"},"vehicle_type_id":"4","last_reported":1773670415,"current_range_meters":4800,"station_id":"ce4bhg12rcd13ifvqf60","pricing_plan_id":"cebpf4jnsgd1na2vs0mg"},{"bike_id":"a21e6ff4-95b2-4acc-85e5-71e5327062bb","system_id":"levelo_inurba_marseille","lat":43.24466,"lon":5.42546,"is_reserved":false,"is_disabled":false,"rental_uris":{"android":"levelo://app?vid=a21e6ff4-95b2-4acc-85e5-71e5327062bb","ios":"levelo://app?vid=a21e6ff4-95b2-4acc-85e5-71e5327062bb"},"vehicle_type_id":"4","last_reported":1773670415,"current_range_meters":16400,"station_id":"st_d4a3vfp97mjs738cd8kg","pricing_plan_id":"cebpf4jnsgd1na2vs0mg"},{"bike_id":"d1141fb4-59b4-44f4-91cc-49a601f9de2f","system_id":"levelo_inurba_marseille","lat":43.25109,"lon":5.40327,"is_reserved":false,"is_disabled":false,"rental_uris":{"android":"levelo://app?vid=d1141fb4-59b4-44f4-91cc-49a601f9de2f","ios":"levelo://app?vid=d1141fb4-59b4-44f4-91cc-49a601f9de2f"},"vehicle_type_id":"4","last_reported":1773670415,"current_range_meters":10800,"station_id":"ce4bhlh2rcd13ifvqgig","pricing_plan_id":"cebpf4jnsgd1na2vs0mg"},{"bike_id":"529a3fba-c634-4c3b-b494-ce629a839a61","system_id":"levelo_inurba_marseille","lat":43.24541,"lon":5.39526,"is_reserved":false,"is_disabled":false,"rental_uris":{"android":"levelo://app?vid=529a3fba-c634-4c3b-b494-ce629a839a61","ios":"levelo://app?vid=529a3fba-c634-4c3b-b494-ce629a839a61"},"vehicle_type_id":"4","last_reported":1773670415,"current_range_meters":19600,"station_id":"ce4bhlp2rcd13ifvqgjg","pricing_plan_id":"cebpf4jnsgd1na2vs0mg"},{"bike_id":"0d9003bc-fe7c-415b-9609-eb9885b2805d","system_id":"levelo_inurba_marseille","lat":43.27322,"lon":5.39093,"is_reserved":false,"is_disabled":false,"rental_uris":{"android":"levelo://app?vid=0d9003bc-fe7c-415b-9609-eb9885b2805d","ios":"levelo://app?vid=0d9003bc-fe7c-415b-9609-eb9885b2805d"},"vehicle_type_id":"4","last_reported":1773670415,"current_range_meters":37600,"station_id":"ce4bhgp2rcd13ifvqfe0","pricing_plan_id":"cebpf4jnsgd1na2vs0mg"},{"bike_id":"97061fda-b2e5-4166-91ad-b412719416de","system_id":"levelo_inurba_marseille","lat":43.29965,"lon":5.37177,"is_reserved":false,"is_disabled":false,"rental_uris":{"android":"levelo://app?vid=97061fda-b2e5-4166-91ad-b412719416de","ios":"levelo://app?vid=97061fda-b2e5-4166-91ad-b412719416de"},"vehicle_type_id":"4","last_reported":1773670415,"current_range_meters":38000,"station_id":"ce4bgr92rcd13ifvqc7g","pricing_plan_id":"cebpf4jnsgd1na2vs0mg"},{"bike_id":"fce7cbbb-7e40-4345-96fd-5af6a4f99936","system_id":"levelo_inurba_marseille","lat":43.23778,"lon":5.36632,"is_reserved":false,"is_disabled":false,"rental_uris":{"android":"levelo://app?vid=fce7cbbb-7e40-4345-96fd-5af6a4f99936","ios":"levelo://app?vid=fce7cbbb-7e40-4345-96fd-5af6a4f99936"},"vehicle_type_id":"4","last_reported":1773670415,"current_range_meters":12400,"station_id":"st_d3nk18o9ro0c73en2l3g","pricing_plan_id":"cebpf4jnsgd1na2vs0mg"},{"bike_id":"b9c85eed-fb57-4158-ba55-0b9d86eddab8","system_id":"levelo_inurba_marseille","lat":43.29168,"lon":5.37154,"is_reserved":false,"is_disabled":false,"rental_uris":{"android":"levelo://app?vid=b9c85eed-fb57-4158-ba55-0b9d86eddab8","ios":"levelo://app?vid=b9c85eed-fb57-4158-ba55-0b9d86eddab8"},"vehicle_type_id":"4","last_reported":1773670415,"current_range_meters":18000,"station_id":"ce4bha92rcd13ifvqeh0","pricing_plan_id":"cebpf4jnsgd1na2vs0mg"},{"bike_id":"130c186d-4016-4221-ad5a-506b65be4be7","system_id":"levelo_inurba_marseille","lat":43.243775,"lon":5.370672,"is_reserved":false,"is_disabled":false,"rental_uris":{"android":"levelo://app?vid=130c186d-4016-4221-ad5a-506b65be4be7","ios":"levelo://app?vid=130c186d-4016-4221-ad5a-506b65be4be7"},"vehicle_type_id":"4","last_reported":1773670415,"current_range_meters":11200,"station_id":"ce4bhhh2rcd13ifvqfk0","pricing_plan_id":"cebpf4jnsgd1na2vs0mg"},{"bike_id":"e2622a4e-e283-4d3d-9bf3-846c60a3b3ec","system_id":"levelo_inurba_marseille","lat":43.31168,"lon":5.38717,"is_reserved":false,"is_disabled":false,"rental_uris":{"android":"levelo://app?vid=e2622a4e-e283-4d3d-9bf3-846c60a3b3ec","ios":"levelo://app?vid=e2622a4e-e283-4d3d-9bf3-846c60a3b3ec"},"vehicle_type_id":"4","last_reported":1773670415,"current_range_meters":35600,"station_id":"ce4bgv12rcd13ifvqcp0","pricing_plan_id":"cebpf4jnsgd1na2vs0mg"},{"bike_id":"adb2885c-29cc-4e43-b36c-488c895a7480","system_id":"levelo_inurba_marseille","lat":43.28413,"lon":5.34982,"is_reserved":false,"is_disabled":false,"rental_uris":{"android":"levelo://app?vid=adb2885c-29cc-4e43-b36c-488c895a7480","ios":"levelo://app?vid=adb2885c-29cc-4e43-b36c-488c895a7480"},"vehicle_type_id":"4","last_reported":1773670415,"current_range_meters":19600,"station_id":"ce4bhbh2rcd13ifvqepg","pricing_plan_id":"cebpf4jnsgd1na2vs0mg"},{"bike_id":"e842dc60-ab62-4379-a0ed-030031db5b1e","system_id":"levelo_inurba_marseille","lat":43.21216,"lon":5.3509,"is_reserved":false,"is_disabled":false,"rental_uris":{"android":"levelo://app?vid=e842dc60-ab62-4379-a0ed-030031db5b1e","ios":"levelo://app?vid=e842dc60-ab62-4379-a0ed-030031db5b1e"},"vehicle_type_id":"4","last_reported":1773670415,"current_range_meters":10800,"station_id":"st_cvj6sg6p6f1abm77japg","pricing_plan_id":"cebpf4jnsgd1na2vs0mg"},{"bike_id":"70014854-acff-49ca-9046-c49e81b9ca34","system_id":"levelo_inurba_marseille","lat":43.21745,"lon":5.34608,"is_reserved":false,"is_disabled":false,"rental_uris":{"android":"levelo://app?vid=70014854-acff-49ca-9046-c49e81b9ca34","ios":"levelo://app?vid=70014854-acff-49ca-9046-c49e81b9ca34"},"vehicle_type_id":"4","last_reported":1773670415,"current_range_meters":25600,"station_id":"st_cvj6r9ubvosntc0bgbag","pricing_plan_id":"cebpf4jnsgd1na2vs0mg"},{"bike_id":"ebae0e78-6890-4e81-8932-827cabc0dcd4","system_id":"levelo_inurba_marseille","lat":43.30307,"lon":5.36882,"is_reserved":false,"is_disabled":false,"rental_uris":{"android":"levelo://app?vid=ebae0e78-6890-4e81-8932-827cabc0dcd4","ios":"levelo://app?vid=ebae0e78-6890-4e81-8932-827cabc0dcd4"},"vehicle_type_id":"4","last_reported":1773670415,"current_range_meters":40000,"station_id":"ce4bgqh2rcd13ifvqc5g","pricing_plan_id":"cebpf4jnsgd1na2vs0mg"},{"bike_id":"03b94259-1207-488d-a813-437afdfe11d4","system_id":"levelo_inurba_marseille","lat":43.27191,"lon":5.39146,"is_reserved":false,"is_disabled":false,"rental_uris":{"android":"levelo://app?vid=03b94259-1207-488d-a813-437afdfe11d4","ios":"levelo://app?vid=03b94259-1207-488d-a813-437afdfe11d4"},"vehicle_type_id":"4","last_reported":1773670415,"current_range_meters":38800,"station_id":"ce4bhhp2rcd13ifvqfm0","pricing_plan_id":"cebpf4jnsgd1na2vs0mg"},{"bike_id":"f390fab6-52a0-4bcf-a47e-3a9e67e606d0","system_id":"levelo_inurba_marseille","lat":43.31455,"lon":5.37328,"is_reserved":false,"is_disabled":false,"rental_uris":{"android":"levelo://app?vid=f390fab6-52a0-4bcf-a47e-3a9e67e606d0","ios":"levelo://app?vid=f390fab6-52a0-4bcf-a47e-3a9e67e606d0"},"vehicle_type_id":"4","last_reported":1773670415,"current_range_meters":34000,"station_id":"ce4bgt12rcd13ifvqcd0","pricing_plan_id":"cebpf4jnsgd1na2vs0mg"},{"bike_id":"177dde7b-d2de-4c6f-a770-315c66758692","system_id":"levelo_inurba_marseille","lat":43.28481,"lon":5.48389,"is_reserved":false,"is_disabled":false,"rental_uris":{"android":"levelo://app?vid=177dde7b-d2de-4c6f-a770-315c66758692","ios":"levelo://app?vid=177dde7b-d2de-4c6f-a770-315c66758692"},"vehicle_type_id":"4","last_reported":1773670415,"current_range_meters":32400,"station_id":"","pricing_plan_id":"cebpf4jnsgd1na2vs0mg"},{"bike_id":"6f54e01c-8e88-4d8b-ae33-a3d8388a376b","system_id":"levelo_inurba_marseille","lat":43.25004,"lon":5.38931,"is_reserved":false,"is_disabled":false,"rental_uris":{"android":"levelo://app?vid=6f54e01c-8e88-4d8b-ae33-a3d8388a376b","ios":"levelo://app?vid=6f54e01c-8e88-4d8b-ae33-a3d8388a376b"},"vehicle_type_id":"4","last_reported":1773670415,"current_range_meters":25200,"station_id":"ce4bhgp2rcd13ifvqfd0","pricing_plan_id":"cebpf4jnsgd1na2vs0mg"},{"bike_id":"1698ed0c-acaa-4deb-b8bb-e68d5d5bdac3","system_id":"levelo_inurba_marseille","lat":43.27218,"lon":5.39171,"is_reserved":false,"is_disabled":false,"rental_uris":{"android":"levelo://app?vid=1698ed0c-acaa-4deb-b8bb-e68d5d5bdac3","ios":"levelo://app?vid=1698ed0c-acaa-4deb-b8bb-e68d5d5bdac3"},"vehicle_type_id":"4","last_reported":1773670415,"current_range_meters":18000,"station_id":"ce4bhhp2rcd13ifvqfm0","pricing_plan_id":"cebpf4jnsgd1na2vs0mg"},{"bike_id":"1741325f-8422-4356-83e0-b5761d6e485a","system_id":"levelo_inurba_marseille","lat":43.3135,"lon":5.36727,"is_reserved":false,"is_disabled":false,"rental_uris":{"android":"levelo://app?vid=1741325f-8422-4356-83e0-b5761d6e485a","ios":"levelo://app?vid=1741325f-8422-4356-83e0-b5761d6e485a"},"vehicle_type_id":"4","last_reported":1773670415,"current_range_meters":38800,"station_id":"ce4bgr92rcd13ifvqc6g","pricing_plan_id":"cebpf4jnsgd1na2vs0mg"},{"bike_id":"43918b9b-ff13-4bbb-ac03-aa8307d32985","system_id":"levelo_inurba_marseille","lat":43.23195,"lon":5.35558,"is_reserved":false,"is_disabled":false,"rental_uris":{"android":"levelo://app?vid=43918b9b-ff13-4bbb-ac03-aa8307d32985","ios":"levelo://app?vid=43918b9b-ff13-4bbb-ac03-aa8307d32985"},"vehicle_type_id":"4","last_reported":1773670415,"current_range_meters":28000,"station_id":"ce4bhu92rcd13ifvqi70","pricing_plan_id":"cebpf4jnsgd1na2vs0mg"},{"bike_id":"f4b7fd6d-fc43-40a0-9444-97cda83baecc","system_id":"levelo_inurba_marseille","lat":43.28477,"lon":5.48391,"is_reserved":false,"is_disabled":false,"rental_uris":{"android":"levelo://app?vid=f4b7fd6d-fc43-40a0-9444-97cda83baecc","ios":"levelo://app?vid=f4b7fd6d-fc43-40a0-9444-97cda83baecc"},"vehicle_type_id":"4","last_reported":1773670415,"current_range_meters":25600,"station_id":"","pricing_plan_id":"cebpf4jnsgd1na2vs0mg"},{"bike_id":"ad5d6575-373a-4626-b109-e5e54a834cdc","system_id":"levelo_inurba_marseille","lat":43.30925,"lon":5.40151,"is_reserved":false,"is_disabled":true,"rental_uris":{"android":"levelo://app?vid=ad5d6575-373a-4626-b109-e5e54a834cdc","ios":"levelo://app?vid=ad5d6575-373a-4626-b109-e5e54a834cdc"},"vehicle_type_id":"4","last_reported":1773670415,"current_range_meters":28000,"station_id":"ce4bgvp2rcd13ifvqct0","pricing_plan_id":"cebpf4jnsgd1na2vs0mg"},{"bike_id":"05a5bb77-5037-4830-9763-68fa9af8f814","system_id":"levelo_inurba_marseille","lat":43.30582,"lon":5.3718,"is_reserved":false,"is_disabled":false,"rental_uris":{"android":"levelo://app?vid=05a5bb77-5037-4830-9763-68fa9af8f814","ios":"levelo://app?vid=05a5bb77-5037-4830-9763-68fa9af8f814"},"vehicle_type_id":"4","last_reported":1773670415,"current_range_meters":36800,"station_id":"ce4bgqh2rcd13ifvqc4g","pricing_plan_id":"cebpf4jnsgd1na2vs0mg"},{"bike_id":"06e2f918-f90a-467d-8613-9c86e6e485be","system_id":"levelo_inurba_marseille","lat":43.29623,"lon":5.37146,"is_reserved":false,"is_disabled":false,"rental_uris":{"android":"levelo://app?vid=06e2f918-f90a-467d-8613-9c86e6e485be","ios":"levelo://app?vid=06e2f918-f90a-467d-8613-9c86e6e485be"},"vehicle_type_id":"4","last_reported":1773670415,"current_range_meters":38800,"station_id":"ce4bgnh2rcd13ifvqc0g","pricing_plan_id":"cebpf4jnsgd1na2vs0mg"},{"bike_id":"8cf11af3-a06c-4250-b156-2ebe886a2214","system_id":"levelo_inurba_marseille","lat":43.23138,"lon":5.43693,"is_reserved":false,"is_disabled":false,"rental_uris":{"android":"levelo://app?vid=8cf11af3-a06c-4250-b156-2ebe886a2214","ios":"levelo://app?vid=8cf11af3-a06c-4250-b156-2ebe886a2214"},"vehicle_type_id":"4","last_reported":1773670415,"current_range_meters":20400,"station_id":"ce4bhmp2rcd13ifvqgog","pricing_plan_id":"cebpf4jnsgd1na2vs0mg"},{"bike_id":"47437dbd-a43a-491e-9da9-be7faee139eb","system_id":"levelo_inurba_marseille","lat":43.32482,"lon":5.36561,"is_reserved":false,"is_disabled":false,"rental_uris":{"android":"levelo://app?vid=47437dbd-a43a-491e-9da9-be7faee139eb","ios":"levelo://app?vid=47437dbd-a43a-491e-9da9-be7faee139eb"},"vehicle_type_id":"4","last_reported":1773670415,"current_range_meters":39200,"station_id":"ce4bhs12rcd13ifvqhvg","pricing_plan_id":"cebpf4jnsgd1na2vs0mg"},{"bike_id":"f06ca8c9-e94d-425a-b1a3-910bccdf1237","system_id":"levelo_inurba_marseille","lat":43.27504,"lon":5.42434,"is_reserved":false,"is_disabled":false,"rental_uris":{"android":"levelo://app?vid=f06ca8c9-e94d-425a-b1a3-910bccdf1237","ios":"levelo://app?vid=f06ca8c9-e94d-425a-b1a3-910bccdf1237"},"vehicle_type_id":"4","last_reported":1773670415,"current_range_meters":12800,"station_id":"ce4bhn92rcd13ifvqgrg","pricing_plan_id":"cebpf4jnsgd1na2vs0mg"},{"bike_id":"ff5a7c03-c138-404c-ae1b-79063c8814da","system_id":"levelo_inurba_marseille","lat":43.2827,"lon":5.35059,"is_reserved":false,"is_disabled":false,"rental_uris":{"android":"levelo://app?vid=ff5a7c03-c138-404c-ae1b-79063c8814da","ios":"levelo://app?vid=ff5a7c03-c138-404c-ae1b-79063c8814da"},"vehicle_type_id":"4","last_reported":1773670415,"current_range_meters":33200,"station_id":"ce4bhbp2rcd13ifvqerg","pricing_plan_id":"cebpf4jnsgd1na2vs0mg"},{"bike_id":"49fc7284-9e84-4e41-b11a-a6f445433570","system_id":"levelo_inurba_marseille","lat":43.28076,"lon":5.39647,"is_reserved":false,"is_disabled":true,"rental_uris":{"android":"levelo://app?vid=49fc7284-9e84-4e41-b11a-a6f445433570","ios":"levelo://app?vid=49fc7284-9e84-4e41-b11a-a6f445433570"},"vehicle_type_id":"4","last_reported":1773670415,"current_range_meters":31200,"station_id":"ce4bho12rcd13ifvqh2g","pricing_plan_id":"cebpf4jnsgd1na2vs0mg"},{"bike_id":"3850945a-02e3-457e-bddc-67f8e7b87bce","system_id":"levelo_inurba_marseille","lat":43.29249,"lon":5.40901,"is_reserved":false,"is_disabled":false,"rental_uris":{"android":"levelo://app?vid=3850945a-02e3-457e-bddc-67f8e7b87bce","ios":"levelo://app?vid=3850945a-02e3-457e-bddc-67f8e7b87bce"},"vehicle_type_id":"4","last_reported":1773670415,"current_range_meters":33200,"station_id":"ce4bh192rcd13ifvqdc0","pricing_plan_id":"cebpf4jnsgd1na2vs0mg"},{"bike_id":"17189782-7fc4-49a6-8080-9f162c295681","system_id":"levelo_inurba_marseille","lat":43.28945,"lon":5.36379,"is_reserved":false,"is_disabled":false,"rental_uris":{"android":"levelo://app?vid=17189782-7fc4-49a6-8080-9f162c295681","ios":"levelo://app?vid=17189782-7fc4-49a6-8080-9f162c295681"},"vehicle_type_id":"4","last_reported":1773670415,"current_range_meters":11200,"station_id":"ce4bhc92rcd13ifvqetg","pricing_plan_id":"cebpf4jnsgd1na2vs0mg"},{"bike_id":"4f8a8f64-0cea-447a-a6cb-ea09d24d6c0e","system_id":"levelo_inurba_marseille","lat":43.22554,"lon":5.41635,"is_reserved":false,"is_disabled":false,"rental_uris":{"android":"levelo://app?vid=4f8a8f64-0cea-447a-a6cb-ea09d24d6c0e","ios":"levelo://app?vid=4f8a8f64-0cea-447a-a6cb-ea09d24d6c0e"},"vehicle_type_id":"4","last_reported":1773670415,"current_range_meters":36000,"station_id":"st_d2o4gvlbi1j2169b742g","pricing_plan_id":"cebpf4jnsgd1na2vs0mg"},{"bike_id":"b31afc95-1b64-485e-b477-94147f8bf6a3","system_id":"levelo_inurba_marseille","lat":43.29102,"lon":5.38122,"is_reserved":false,"is_disabled":false,"rental_uris":{"android":"levelo://app?vid=b31afc95-1b64-485e-b477-94147f8bf6a3","ios":"levelo://app?vid=b31afc95-1b64-485e-b477-94147f8bf6a3"},"vehicle_type_id":"4","last_reported":1773670415,"current_range_meters":36400,"station_id":"ce4bh512rcd13ifvqe2g","pricing_plan_id":"cebpf4jnsgd1na2vs0mg"},{"bike_id":"1f487b11-fe62-48c6-bc95-ef78a3a9fd4e","system_id":"levelo_inurba_marseille","lat":43.30745,"lon":5.42432,"is_reserved":false,"is_disabled":false,"rental_uris":{"android":"levelo://app?vid=1f487b11-fe62-48c6-bc95-ef78a3a9fd4e","ios":"levelo://app?vid=1f487b11-fe62-48c6-bc95-ef78a3a9fd4e"},"vehicle_type_id":"4","last_reported":1773670415,"current_range_meters":39200,"station_id":"st_cvj6ca6bvosntc0bfgr0","pricing_plan_id":"cebpf4jnsgd1na2vs0mg"},{"bike_id":"fae7e927-24da-4d38-910e-c7296d949fc4","system_id":"levelo_inurba_marseille","lat":43.31369,"lon":5.36678,"is_reserved":false,"is_disabled":false,"rental_uris":{"android":"levelo://app?vid=fae7e927-24da-4d38-910e-c7296d949fc4","ios":"levelo://app?vid=fae7e927-24da-4d38-910e-c7296d949fc4"},"vehicle_type_id":"4","last_reported":1773670415,"current_range_meters":30400,"station_id":"ce4bgr92rcd13ifvqc6g","pricing_plan_id":"cebpf4jnsgd1na2vs0mg"},{"bike_id":"34257e2b-5da9-4af1-bdd7-664aa8db6834","system_id":"levelo_inurba_marseille","lat":43.23207,"lon":5.3556,"is_reserved":false,"is_disabled":false,"rental_uris":{"android":"levelo://app?vid=34257e2b-5da9-4af1-bdd7-664aa8db6834","ios":"levelo://app?vid=34257e2b-5da9-4af1-bdd7-664aa8db6834"},"vehicle_type_id":"4","last_reported":1773670415,"current_range_meters":34800,"station_id":"ce4bhu92rcd13ifvqi70","pricing_plan_id":"cebpf4jnsgd1na2vs0mg"},{"bike_id":"288bcbf7-3a52-4b2b-9af2-61f8cf367965","system_id":"levelo_inurba_marseille","lat":43.25727,"lon":5.41117,"is_reserved":false,"is_disabled":false,"rental_uris":{"android":"levelo://app?vid=288bcbf7-3a52-4b2b-9af2-61f8cf367965","ios":"levelo://app?vid=288bcbf7-3a52-4b2b-9af2-61f8cf367965"},"vehicle_type_id":"4","last_reported":1773670415,"current_range_meters":34000,"station_id":"ce4bhkp2rcd13ifvqgd0","pricing_plan_id":"cebpf4jnsgd1na2vs0mg"},{"bike_id":"fec66160-eca4-4055-a135-94a62af705e8","system_id":"levelo_inurba_marseille","lat":43.24978,"lon":5.38951,"is_reserved":false,"is_disabled":false,"rental_uris":{"android":"levelo://app?vid=fec66160-eca4-4055-a135-94a62af705e8","ios":"levelo://app?vid=fec66160-eca4-4055-a135-94a62af705e8"},"vehicle_type_id":"4","last_reported":1773670415,"current_range_meters":8800,"station_id":"ce4bhgp2rcd13ifvqfd0","pricing_plan_id":"cebpf4jnsgd1na2vs0mg"},{"bike_id":"491cd09c-e0c2-44f1-852f-8525d428457d","system_id":"levelo_inurba_marseille","lat":43.3109,"lon":5.42434,"is_reserved":false,"is_disabled":false,"rental_uris":{"android":"levelo://app?vid=491cd09c-e0c2-44f1-852f-8525d428457d","ios":"levelo://app?vid=491cd09c-e0c2-44f1-852f-8525d428457d"},"vehicle_type_id":"4","last_reported":1773670415,"current_range_meters":22000,"station_id":"ce4bhp92rcd13ifvqhag","pricing_plan_id":"cebpf4jnsgd1na2vs0mg"},{"bike_id":"ec6aecc9-6355-43c0-b67e-09bbbeca1a71","system_id":"levelo_inurba_marseille","lat":43.30152,"lon":5.38094,"is_reserved":false,"is_disabled":false,"rental_uris":{"android":"levelo://app?vid=ec6aecc9-6355-43c0-b67e-09bbbeca1a71","ios":"levelo://app?vid=ec6aecc9-6355-43c0-b67e-09bbbeca1a71"},"vehicle_type_id":"4","last_reported":1773670415,"current_range_meters":28400,"station_id":"ce4bgjp2rcd13ifvqbh0","pricing_plan_id":"cebpf4jnsgd1na2vs0mg"},{"bike_id":"8efb579a-a563-4156-bc48-a4542721ceab","system_id":"levelo_inurba_marseille","lat":43.23192,"lon":5.35531,"is_reserved":false,"is_disabled":false,"rental_uris":{"android":"levelo://app?vid=8efb579a-a563-4156-bc48-a4542721ceab","ios":"levelo://app?vid=8efb579a-a563-4156-bc48-a4542721ceab"},"vehicle_type_id":"4","last_reported":1773670415,"current_range_meters":17200,"station_id":"ce4bhu92rcd13ifvqi70","pricing_plan_id":"cebpf4jnsgd1na2vs0mg"},{"bike_id":"531cc776-0c51-4b8e-a023-d103a1a12f70","system_id":"levelo_inurba_marseille","lat":43.26942,"lon":5.40243,"is_reserved":false,"is_disabled":false,"rental_uris":{"android":"levelo://app?vid=531cc776-0c51-4b8e-a023-d103a1a12f70","ios":"levelo://app?vid=531cc776-0c51-4b8e-a023-d103a1a12f70"},"vehicle_type_id":"4","last_reported":1773670415,"current_range_meters":39200,"station_id":"cjm6bp8fraef2m0cb0m0","pricing_plan_id":"cebpf4jnsgd1na2vs0mg"},{"bike_id":"bc9aea85-6620-4ef3-881c-7e81f44dc4fb","system_id":"levelo_inurba_marseille","lat":43.33012,"lon":5.39046,"is_reserved":false,"is_disabled":false,"rental_uris":{"android":"levelo://app?vid=bc9aea85-6620-4ef3-881c-7e81f44dc4fb","ios":"levelo://app?vid=bc9aea85-6620-4ef3-881c-7e81f44dc4fb"},"vehicle_type_id":"4","last_reported":1773670415,"current_range_meters":37600,"station_id":"ce4bhr92rcd13ifvqhrg","pricing_plan_id":"cebpf4jnsgd1na2vs0mg"},{"bike_id":"9c528212-0db7-442e-98cb-d9233c05e6e1","system_id":"levelo_inurba_marseille","lat":43.29953,"lon":5.41319,"is_reserved":false,"is_disabled":false,"rental_uris":{"android":"levelo://app?vid=9c528212-0db7-442e-98cb-d9233c05e6e1","ios":"levelo://app?vid=9c528212-0db7-442e-98cb-d9233c05e6e1"},"vehicle_type_id":"4","last_reported":1773670415,"current_range_meters":38400,"station_id":"ce4bhp12rcd13ifvqh9g","pricing_plan_id":"cebpf4jnsgd1na2vs0mg"},{"bike_id":"e59ffb01-b028-44ab-a5e5-5d8f6dba3aee","system_id":"levelo_inurba_marseille","lat":43.29811,"lon":5.37083,"is_reserved":false,"is_disabled":false,"rental_uris":{"android":"levelo://app?vid=e59ffb01-b028-44ab-a5e5-5d8f6dba3aee","ios":"levelo://app?vid=e59ffb01-b028-44ab-a5e5-5d8f6dba3aee"},"vehicle_type_id":"4","last_reported":1773670415,"current_range_meters":38000,"station_id":"ce4bgop2rcd13ifvqc1g","pricing_plan_id":"cebpf4jnsgd1na2vs0mg"},{"bike_id":"f10523e5-8852-4b92-a3d2-5f484309f0c9","system_id":"levelo_inurba_marseille","lat":43.30394,"lon":5.42474,"is_reserved":false,"is_disabled":false,"rental_uris":{"android":"levelo://app?vid=f10523e5-8852-4b92-a3d2-5f484309f0c9","ios":"levelo://app?vid=f10523e5-8852-4b92-a3d2-5f484309f0c9"},"vehicle_type_id":"4","last_reported":1773670415,"current_range_meters":10800,"station_id":"ce4bghh2rcd13ifvqb60","pricing_plan_id":"cebpf4jnsgd1na2vs0mg"},{"bike_id":"c53fbb2a-979a-463a-b9d8-b70e0a06d8d0","system_id":"levelo_inurba_marseille","lat":43.28616,"lon":5.35108,"is_reserved":false,"is_disabled":false,"rental_uris":{"android":"levelo://app?vid=c53fbb2a-979a-463a-b9d8-b70e0a06d8d0","ios":"levelo://app?vid=c53fbb2a-979a-463a-b9d8-b70e0a06d8d0"},"vehicle_type_id":"4","last_reported":1773670415,"current_range_meters":33600,"station_id":"ce4bhch2rcd13ifvqeug","pricing_plan_id":"cebpf4jnsgd1na2vs0mg"},{"bike_id":"eb1d1e5d-c035-4be2-ab4f-714082cc667f","system_id":"levelo_inurba_marseille","lat":43.25087,"lon":5.39508,"is_reserved":false,"is_disabled":false,"rental_uris":{"android":"levelo://app?vid=eb1d1e5d-c035-4be2-ab4f-714082cc667f","ios":"levelo://app?vid=eb1d1e5d-c035-4be2-ab4f-714082cc667f"},"vehicle_type_id":"4","last_reported":1773670415,"current_range_meters":17600,"station_id":"ce4bhm12rcd13ifvqgkg","pricing_plan_id":"cebpf4jnsgd1na2vs0mg"},{"bike_id":"cf3d27ef-91c6-429a-962e-d10a32a01938","system_id":"levelo_inurba_marseille","lat":43.29825,"lon":5.44054,"is_reserved":false,"is_disabled":false,"rental_uris":{"android":"levelo://app?vid=cf3d27ef-91c6-429a-962e-d10a32a01938","ios":"levelo://app?vid=cf3d27ef-91c6-429a-962e-d10a32a01938"},"vehicle_type_id":"4","last_reported":1773670415,"current_range_meters":8400,"station_id":"st_d3jp68qikq2c7381ktn0","pricing_plan_id":"cebpf4jnsgd1na2vs0mg"},{"bike_id":"6d0a1d1d-62d9-4b05-b15c-9b1404f11361","system_id":"levelo_inurba_marseille","lat":43.25499,"lon":5.3765,"is_reserved":false,"is_disabled":false,"rental_uris":{"android":"levelo://app?vid=6d0a1d1d-62d9-4b05-b15c-9b1404f11361","ios":"levelo://app?vid=6d0a1d1d-62d9-4b05-b15c-9b1404f11361"},"vehicle_type_id":"4","last_reported":1773670415,"current_range_meters":36800,"station_id":"ce4bhh12rcd13ifvqff0","pricing_plan_id":"cebpf4jnsgd1na2vs0mg"},{"bike_id":"6001e803-a44b-4967-9037-cbbd6a012376","system_id":"levelo_inurba_marseille","lat":43.30192,"lon":5.36593,"is_reserved":false,"is_disabled":false,"rental_uris":{"android":"levelo://app?vid=6001e803-a44b-4967-9037-cbbd6a012376","ios":"levelo://app?vid=6001e803-a44b-4967-9037-cbbd6a012376"},"vehicle_type_id":"4","last_reported":1773670415,"current_range_meters":38400,"station_id":"ce4bgrh2rcd13ifvqc8g","pricing_plan_id":"cebpf4jnsgd1na2vs0mg"},{"bike_id":"ff3c80d4-6915-439d-8d4f-2189798176f6","system_id":"levelo_inurba_marseille","lat":43.29929,"lon":5.36542,"is_reserved":false,"is_disabled":false,"rental_uris":{"android":"levelo://app?vid=ff3c80d4-6915-439d-8d4f-2189798176f6","ios":"levelo://app?vid=ff3c80d4-6915-439d-8d4f-2189798176f6"},"vehicle_type_id":"4","last_reported":1773670415,"current_range_meters":8400,"station_id":"ce4bgm92rcd13ifvqbr0","pricing_plan_id":"cebpf4jnsgd1na2vs0mg"},{"bike_id":"bba6e098-8829-44e2-84ce-d0f0b60a2530","system_id":"levelo_inurba_marseille","lat":43.30268,"lon":5.37722,"is_reserved":false,"is_disabled":true,"rental_uris":{"android":"levelo://app?vid=bba6e098-8829-44e2-84ce-d0f0b60a2530","ios":"levelo://app?vid=bba6e098-8829-44e2-84ce-d0f0b60a2530"},"vehicle_type_id":"4","last_reported":1773670415,"current_range_meters":1200,"station_id":"ce4bguh2rcd13ifvqcj0","pricing_plan_id":"cebpf4jnsgd1na2vs0mg"},{"bike_id":"18331d37-859a-41e4-9df3-a997c25cf5fa","system_id":"levelo_inurba_marseille","lat":43.25891,"lon":5.40867,"is_reserved":false,"is_disabled":false,"rental_uris":{"android":"levelo://app?vid=18331d37-859a-41e4-9df3-a997c25cf5fa","ios":"levelo://app?vid=18331d37-859a-41e4-9df3-a997c25cf5fa"},"vehicle_type_id":"4","last_reported":1773670415,"current_range_meters":33600,"station_id":"ce4bhm92rcd13ifvqglg","pricing_plan_id":"cebpf4jnsgd1na2vs0mg"},{"bike_id":"88bd1de4-947e-43e7-996f-b3a6c434223c","system_id":"levelo_inurba_marseille","lat":43.25828,"lon":5.39432,"is_reserved":false,"is_disabled":true,"rental_uris":{"android":"levelo://app?vid=88bd1de4-947e-43e7-996f-b3a6c434223c","ios":"levelo://app?vid=88bd1de4-947e-43e7-996f-b3a6c434223c"},"vehicle_type_id":"4","last_reported":1773670415,"current_range_meters":33200,"station_id":"ce4bhip2rcd13ifvqft0","pricing_plan_id":"cebpf4jnsgd1na2vs0mg"},{"bike_id":"05f50eb5-8d59-44ce-ba20-2d5c1a8a4c7b","system_id":"levelo_inurba_marseille","lat":43.31716,"lon":5.42402,"is_reserved":false,"is_disabled":false,"rental_uris":{"android":"levelo://app?vid=05f50eb5-8d59-44ce-ba20-2d5c1a8a4c7b","ios":"levelo://app?vid=05f50eb5-8d59-44ce-ba20-2d5c1a8a4c7b"},"vehicle_type_id":"4","last_reported":1773670415,"current_range_meters":18000,"station_id":"ce4bhp92rcd13ifvqhbg","pricing_plan_id":"cebpf4jnsgd1na2vs0mg"},{"bike_id":"f07b69cf-80ce-4cd4-8e6b-73876093e07b","system_id":"levelo_inurba_marseille","lat":43.31371,"lon":5.36723,"is_reserved":false,"is_disabled":false,"rental_uris":{"android":"levelo://app?vid=f07b69cf-80ce-4cd4-8e6b-73876093e07b","ios":"levelo://app?vid=f07b69cf-80ce-4cd4-8e6b-73876093e07b"},"vehicle_type_id":"4","last_reported":1773670415,"current_range_meters":32000,"station_id":"ce4bgr92rcd13ifvqc6g","pricing_plan_id":"cebpf4jnsgd1na2vs0mg"},{"bike_id":"fb32a1c0-e487-43ab-b761-dcce914aad54","system_id":"levelo_inurba_marseille","lat":43.25101,"lon":5.40316,"is_reserved":false,"is_disabled":false,"rental_uris":{"android":"levelo://app?vid=fb32a1c0-e487-43ab-b761-dcce914aad54","ios":"levelo://app?vid=fb32a1c0-e487-43ab-b761-dcce914aad54"},"vehicle_type_id":"4","last_reported":1773670415,"current_range_meters":39200,"station_id":"ce4bhlh2rcd13ifvqgig","pricing_plan_id":"cebpf4jnsgd1na2vs0mg"},{"bike_id":"cfbbae9e-650f-48ab-92e2-75d0f7cb2be9","system_id":"levelo_inurba_marseille","lat":43.30534,"lon":5.36532,"is_reserved":false,"is_disabled":false,"rental_uris":{"android":"levelo://app?vid=cfbbae9e-650f-48ab-92e2-75d0f7cb2be9","ios":"levelo://app?vid=cfbbae9e-650f-48ab-92e2-75d0f7cb2be9"},"vehicle_type_id":"4","last_reported":1773670415,"current_range_meters":39200,"station_id":"ce4bgs12rcd13ifvqcag","pricing_plan_id":"cebpf4jnsgd1na2vs0mg"},{"bike_id":"162c6b27-e1f2-425f-996a-2307bdd30f28","system_id":"levelo_inurba_marseille","lat":43.29587,"lon":5.36751,"is_reserved":false,"is_disabled":false,"rental_uris":{"android":"levelo://app?vid=162c6b27-e1f2-425f-996a-2307bdd30f28","ios":"levelo://app?vid=162c6b27-e1f2-425f-996a-2307bdd30f28"},"vehicle_type_id":"4","last_reported":1773670415,"current_range_meters":38400,"station_id":"ce4bgph2rcd13ifvqc2g","pricing_plan_id":"cebpf4jnsgd1na2vs0mg"},{"bike_id":"52b73382-91ce-45bb-9aca-7b5331ec1721","system_id":"levelo_inurba_marseille","lat":43.27913,"lon":5.39583,"is_reserved":false,"is_disabled":false,"rental_uris":{"android":"levelo://app?vid=52b73382-91ce-45bb-9aca-7b5331ec1721","ios":"levelo://app?vid=52b73382-91ce-45bb-9aca-7b5331ec1721"},"vehicle_type_id":"4","last_reported":1773670415,"current_range_meters":29600,"station_id":"ce4bhf92rcd13ifvqf40","pricing_plan_id":"cebpf4jnsgd1na2vs0mg"},{"bike_id":"e2098bbb-5ace-4a72-920f-fe2cf19bc462","system_id":"levelo_inurba_marseille","lat":43.28151,"lon":5.42635,"is_reserved":false,"is_disabled":false,"rental_uris":{"android":"levelo://app?vid=e2098bbb-5ace-4a72-920f-fe2cf19bc462","ios":"levelo://app?vid=e2098bbb-5ace-4a72-920f-fe2cf19bc462"},"vehicle_type_id":"4","last_reported":1773670415,"current_range_meters":40000,"station_id":"ce4bhnh2rcd13ifvqgug","pricing_plan_id":"cebpf4jnsgd1na2vs0mg"},{"bike_id":"58f111c3-d4d8-401b-b1de-be436e4b63d6","system_id":"levelo_inurba_marseille","lat":43.23192,"lon":5.39985,"is_reserved":false,"is_disabled":false,"rental_uris":{"android":"levelo://app?vid=58f111c3-d4d8-401b-b1de-be436e4b63d6","ios":"levelo://app?vid=58f111c3-d4d8-401b-b1de-be436e4b63d6"},"vehicle_type_id":"4","last_reported":1773670415,"current_range_meters":28800,"station_id":"ce4bhn12rcd13ifvqgqg","pricing_plan_id":"cebpf4jnsgd1na2vs0mg"},{"bike_id":"e6d9e185-de29-413a-8517-3942df1a652a","system_id":"levelo_inurba_marseille","lat":43.29851,"lon":5.36268,"is_reserved":false,"is_disabled":false,"rental_uris":{"android":"levelo://app?vid=e6d9e185-de29-413a-8517-3942df1a652a","ios":"levelo://app?vid=e6d9e185-de29-413a-8517-3942df1a652a"},"vehicle_type_id":"4","last_reported":1773670415,"current_range_meters":38000,"station_id":"ce4bgpp2rcd13ifvqc3g","pricing_plan_id":"cebpf4jnsgd1na2vs0mg"},{"bike_id":"18a66153-af68-4607-b89a-3546bb9e3e13","system_id":"levelo_inurba_marseille","lat":43.29866,"lon":5.39726,"is_reserved":false,"is_disabled":false,"rental_uris":{"android":"levelo://app?vid=18a66153-af68-4607-b89a-3546bb9e3e13","ios":"levelo://app?vid=18a66153-af68-4607-b89a-3546bb9e3e13"},"vehicle_type_id":"4","last_reported":1773670415,"current_range_meters":28800,"station_id":"ce4bh0h2rcd13ifvqd50","pricing_plan_id":"cebpf4jnsgd1na2vs0mg"},{"bike_id":"ffd2aa79-124b-40e3-b74b-93a25fcdb83f","system_id":"levelo_inurba_marseille","lat":43.23197,"lon":5.39967,"is_reserved":false,"is_disabled":false,"rental_uris":{"android":"levelo://app?vid=ffd2aa79-124b-40e3-b74b-93a25fcdb83f","ios":"levelo://app?vid=ffd2aa79-124b-40e3-b74b-93a25fcdb83f"},"vehicle_type_id":"4","last_reported":1773670415,"current_range_meters":26800,"station_id":"ce4bhn12rcd13ifvqgqg","pricing_plan_id":"cebpf4jnsgd1na2vs0mg"},{"bike_id":"40450e44-cc9d-407c-957a-1aeb6f187932","system_id":"levelo_inurba_marseille","lat":43.22566,"lon":5.41622,"is_reserved":false,"is_disabled":false,"rental_uris":{"android":"levelo://app?vid=40450e44-cc9d-407c-957a-1aeb6f187932","ios":"levelo://app?vid=40450e44-cc9d-407c-957a-1aeb6f187932"},"vehicle_type_id":"4","last_reported":1773670415,"current_range_meters":7200,"station_id":"st_d2o4gvlbi1j2169b742g","pricing_plan_id":"cebpf4jnsgd1na2vs0mg"},{"bike_id":"e24aa91d-22b2-440b-bc6d-25ab2b336b7a","system_id":"levelo_inurba_marseille","lat":43.23185,"lon":5.35545,"is_reserved":false,"is_disabled":false,"rental_uris":{"android":"levelo://app?vid=e24aa91d-22b2-440b-bc6d-25ab2b336b7a","ios":"levelo://app?vid=e24aa91d-22b2-440b-bc6d-25ab2b336b7a"},"vehicle_type_id":"4","last_reported":1773670415,"current_range_meters":39200,"station_id":"ce4bhu92rcd13ifvqi70","pricing_plan_id":"cebpf4jnsgd1na2vs0mg"},{"bike_id":"bc4f7328-cab9-4fcd-8fd6-48b670075c96","system_id":"levelo_inurba_marseille","lat":43.30502,"lon":5.36545,"is_reserved":false,"is_disabled":false,"rental_uris":{"android":"levelo://app?vid=bc4f7328-cab9-4fcd-8fd6-48b670075c96","ios":"levelo://app?vid=bc4f7328-cab9-4fcd-8fd6-48b670075c96"},"vehicle_type_id":"4","last_reported":1773670415,"current_range_meters":39200,"station_id":"ce4bgs12rcd13ifvqcag","pricing_plan_id":"cebpf4jnsgd1na2vs0mg"},{"bike_id":"8439959a-aa48-4561-86c2-9e9a8b3321dc","system_id":"levelo_inurba_marseille","lat":43.31769,"lon":5.38991,"is_reserved":false,"is_disabled":false,"rental_uris":{"android":"levelo://app?vid=8439959a-aa48-4561-86c2-9e9a8b3321dc","ios":"levelo://app?vid=8439959a-aa48-4561-86c2-9e9a8b3321dc"},"vehicle_type_id":"4","last_reported":1773670415,"current_range_meters":38000,"station_id":"ce4bhqp2rcd13ifvqhng","pricing_plan_id":"cebpf4jnsgd1na2vs0mg"},{"bike_id":"eaa5390d-2d68-4739-8254-52f983e127b1","system_id":"levelo_inurba_marseille","lat":43.28476,"lon":5.48402,"is_reserved":false,"is_disabled":false,"rental_uris":{"android":"levelo://app?vid=eaa5390d-2d68-4739-8254-52f983e127b1","ios":"levelo://app?vid=eaa5390d-2d68-4739-8254-52f983e127b1"},"vehicle_type_id":"4","last_reported":1773670415,"current_range_meters":20800,"station_id":"","pricing_plan_id":"cebpf4jnsgd1na2vs0mg"},{"bike_id":"f53ed231-3e48-421e-91cb-581c11eece38","system_id":"levelo_inurba_marseille","lat":43.24953,"lon":5.40487,"is_reserved":false,"is_disabled":false,"rental_uris":{"android":"levelo://app?vid=f53ed231-3e48-421e-91cb-581c11eece38","ios":"levelo://app?vid=f53ed231-3e48-421e-91cb-581c11eece38"},"vehicle_type_id":"4","last_reported":1773670415,"current_range_meters":8800,"station_id":"st_d2ngiaodas8pm72gd1h0","pricing_plan_id":"cebpf4jnsgd1na2vs0mg"},{"bike_id":"d668a14d-59f3-46e7-bdd6-66c2cfb5206f","system_id":"levelo_inurba_marseille","lat":43.26362,"lon":5.41071,"is_reserved":false,"is_disabled":false,"rental_uris":{"android":"levelo://app?vid=d668a14d-59f3-46e7-bdd6-66c2cfb5206f","ios":"levelo://app?vid=d668a14d-59f3-46e7-bdd6-66c2cfb5206f"},"vehicle_type_id":"4","last_reported":1773670415,"current_range_meters":39200,"station_id":"st_d4e5ca6na9uc73bfl5fg","pricing_plan_id":"cebpf4jnsgd1na2vs0mg"},{"bike_id":"7e5c3ee1-7a26-47a6-9861-1ad7f612ec87","system_id":"levelo_inurba_marseille","lat":43.28261,"lon":5.3506,"is_reserved":false,"is_disabled":false,"rental_uris":{"android":"levelo://app?vid=7e5c3ee1-7a26-47a6-9861-1ad7f612ec87","ios":"levelo://app?vid=7e5c3ee1-7a26-47a6-9861-1ad7f612ec87"},"vehicle_type_id":"4","last_reported":1773670415,"current_range_meters":26000,"station_id":"ce4bhbp2rcd13ifvqerg","pricing_plan_id":"cebpf4jnsgd1na2vs0mg"},{"bike_id":"eba7007a-22fe-4603-b600-e6d79c47801e","system_id":"levelo_inurba_marseille","lat":43.27194,"lon":5.40981,"is_reserved":false,"is_disabled":false,"rental_uris":{"android":"levelo://app?vid=eba7007a-22fe-4603-b600-e6d79c47801e","ios":"levelo://app?vid=eba7007a-22fe-4603-b600-e6d79c47801e"},"vehicle_type_id":"4","last_reported":1773670415,"current_range_meters":28400,"station_id":"ce4bhl12rcd13ifvqgf0","pricing_plan_id":"cebpf4jnsgd1na2vs0mg"},{"bike_id":"963aea0f-edfd-42fe-bb5c-9e3909fc1c6c","system_id":"levelo_inurba_marseille","lat":43.25576,"lon":5.3823,"is_reserved":false,"is_disabled":false,"rental_uris":{"android":"levelo://app?vid=963aea0f-edfd-42fe-bb5c-9e3909fc1c6c","ios":"levelo://app?vid=963aea0f-edfd-42fe-bb5c-9e3909fc1c6c"},"vehicle_type_id":"4","last_reported":1773670415,"current_range_meters":39200,"station_id":"ce4bhih2rcd13ifvqfs0","pricing_plan_id":"cebpf4jnsgd1na2vs0mg"},{"bike_id":"8aaf525a-2438-4977-86b2-70256683bfeb","system_id":"levelo_inurba_marseille","lat":43.28529,"lon":5.44091,"is_reserved":false,"is_disabled":false,"rental_uris":{"android":"levelo://app?vid=8aaf525a-2438-4977-86b2-70256683bfeb","ios":"levelo://app?vid=8aaf525a-2438-4977-86b2-70256683bfeb"},"vehicle_type_id":"4","last_reported":1773670415,"current_range_meters":32000,"station_id":"st_d3j3df2ikq2c7380ej80","pricing_plan_id":"cebpf4jnsgd1na2vs0mg"},{"bike_id":"85265e16-a1ee-430f-b1ec-c68bd8d54de3","system_id":"levelo_inurba_marseille","lat":43.24663,"lon":5.38176,"is_reserved":false,"is_disabled":false,"rental_uris":{"android":"levelo://app?vid=85265e16-a1ee-430f-b1ec-c68bd8d54de3","ios":"levelo://app?vid=85265e16-a1ee-430f-b1ec-c68bd8d54de3"},"vehicle_type_id":"4","last_reported":1773670415,"current_range_meters":6400,"station_id":"ce4bhih2rcd13ifvqfr0","pricing_plan_id":"cebpf4jnsgd1na2vs0mg"},{"bike_id":"85384336-ec8c-4d14-8cf7-dd1704f5ada9","system_id":"levelo_inurba_marseille","lat":43.28424,"lon":5.34985,"is_reserved":false,"is_disabled":false,"rental_uris":{"android":"levelo://app?vid=85384336-ec8c-4d14-8cf7-dd1704f5ada9","ios":"levelo://app?vid=85384336-ec8c-4d14-8cf7-dd1704f5ada9"},"vehicle_type_id":"4","last_reported":1773670415,"current_range_meters":36000,"station_id":"ce4bhbh2rcd13ifvqepg","pricing_plan_id":"cebpf4jnsgd1na2vs0mg"},{"bike_id":"64bbf5db-f1ed-46fb-8f3f-5a1a519fb92d","system_id":"levelo_inurba_marseille","lat":43.29924,"lon":5.3747,"is_reserved":false,"is_disabled":false,"rental_uris":{"android":"levelo://app?vid=64bbf5db-f1ed-46fb-8f3f-5a1a519fb92d","ios":"levelo://app?vid=64bbf5db-f1ed-46fb-8f3f-5a1a519fb92d"},"vehicle_type_id":"4","last_reported":1773670415,"current_range_meters":34000,"station_id":"ce4bgjh2rcd13ifvqbg0","pricing_plan_id":"cebpf4jnsgd1na2vs0mg"},{"bike_id":"595f9878-31d2-4c93-8b8e-9fa0ff0679bb","system_id":"levelo_inurba_marseille","lat":43.3035,"lon":5.42548,"is_reserved":false,"is_disabled":false,"rental_uris":{"android":"levelo://app?vid=595f9878-31d2-4c93-8b8e-9fa0ff0679bb","ios":"levelo://app?vid=595f9878-31d2-4c93-8b8e-9fa0ff0679bb"},"vehicle_type_id":"4","last_reported":1773670415,"current_range_meters":26800,"station_id":"","pricing_plan_id":"cebpf4jnsgd1na2vs0mg"},{"bike_id":"592a7547-d375-47f5-a92c-507aad4780b8","system_id":"levelo_inurba_marseille","lat":43.22567,"lon":5.41617,"is_reserved":false,"is_disabled":false,"rental_uris":{"android":"levelo://app?vid=592a7547-d375-47f5-a92c-507aad4780b8","ios":"levelo://app?vid=592a7547-d375-47f5-a92c-507aad4780b8"},"vehicle_type_id":"4","last_reported":1773670415,"current_range_meters":33200,"station_id":"st_d2o4gvlbi1j2169b742g","pricing_plan_id":"cebpf4jnsgd1na2vs0mg"},{"bike_id":"66238237-b0ff-4d4c-9fd0-1d54f6552b47","system_id":"levelo_inurba_marseille","lat":43.2175,"lon":5.34599,"is_reserved":false,"is_disabled":false,"rental_uris":{"android":"levelo://app?vid=66238237-b0ff-4d4c-9fd0-1d54f6552b47","ios":"levelo://app?vid=66238237-b0ff-4d4c-9fd0-1d54f6552b47"},"vehicle_type_id":"4","last_reported":1773670415,"current_range_meters":10800,"station_id":"st_cvj6r9ubvosntc0bgbag","pricing_plan_id":"cebpf4jnsgd1na2vs0mg"},{"bike_id":"0261f6e5-2774-40dd-b946-99be025dda00","system_id":"levelo_inurba_marseille","lat":43.24047,"lon":5.37766,"is_reserved":false,"is_disabled":false,"rental_uris":{"android":"levelo://app?vid=0261f6e5-2774-40dd-b946-99be025dda00","ios":"levelo://app?vid=0261f6e5-2774-40dd-b946-99be025dda00"},"vehicle_type_id":"4","last_reported":1773670415,"current_range_meters":28000,"station_id":"ce4bhnp2rcd13ifvqgvg","pricing_plan_id":"cebpf4jnsgd1na2vs0mg"},{"bike_id":"3c9c540c-f990-4fa6-84b4-a07e345c5366","system_id":"levelo_inurba_marseille","lat":43.33737,"lon":5.39227,"is_reserved":false,"is_disabled":false,"rental_uris":{"android":"levelo://app?vid=3c9c540c-f990-4fa6-84b4-a07e345c5366","ios":"levelo://app?vid=3c9c540c-f990-4fa6-84b4-a07e345c5366"},"vehicle_type_id":"4","last_reported":1773670415,"current_range_meters":39200,"station_id":"ce4bhr92rcd13ifvqhsg","pricing_plan_id":"cebpf4jnsgd1na2vs0mg"},{"bike_id":"10815e11-61cb-415f-8a36-f29cace97448","system_id":"levelo_inurba_marseille","lat":43.3059,"lon":5.36656,"is_reserved":false,"is_disabled":false,"rental_uris":{"android":"levelo://app?vid=10815e11-61cb-415f-8a36-f29cace97448","ios":"levelo://app?vid=10815e11-61cb-415f-8a36-f29cace97448"},"vehicle_type_id":"4","last_reported":1773670415,"current_range_meters":30800,"station_id":"","pricing_plan_id":"cebpf4jnsgd1na2vs0mg"},{"bike_id":"72e248b9-3433-4c84-9cdf-83a90cf0f4a9","system_id":"levelo_inurba_marseille","lat":43.29192,"lon":5.39311,"is_reserved":false,"is_disabled":true,"rental_uris":{"android":"levelo://app?vid=72e248b9-3433-4c84-9cdf-83a90cf0f4a9","ios":"levelo://app?vid=72e248b9-3433-4c84-9cdf-83a90cf0f4a9"},"vehicle_type_id":"4","last_reported":1773670415,"current_range_meters":11200,"station_id":"ce4bh192rcd13ifvqdd0","pricing_plan_id":"cebpf4jnsgd1na2vs0mg"},{"bike_id":"62e3ddf4-37fd-4059-a06a-262f18eaa00a","system_id":"levelo_inurba_marseille","lat":43.30525,"lon":5.38415,"is_reserved":false,"is_disabled":false,"rental_uris":{"android":"levelo://app?vid=62e3ddf4-37fd-4059-a06a-262f18eaa00a","ios":"levelo://app?vid=62e3ddf4-37fd-4059-a06a-262f18eaa00a"},"vehicle_type_id":"4","last_reported":1773670415,"current_range_meters":38000,"station_id":"ce4bgg92rcd13ifvqb30","pricing_plan_id":"cebpf4jnsgd1na2vs0mg"},{"bike_id":"e34c5d63-4f27-4d9a-8753-52027326f28e","system_id":"levelo_inurba_marseille","lat":43.31155,"lon":5.38712,"is_reserved":false,"is_disabled":false,"rental_uris":{"android":"levelo://app?vid=e34c5d63-4f27-4d9a-8753-52027326f28e","ios":"levelo://app?vid=e34c5d63-4f27-4d9a-8753-52027326f28e"},"vehicle_type_id":"4","last_reported":1773670415,"current_range_meters":39200,"station_id":"ce4bgv12rcd13ifvqcp0","pricing_plan_id":"cebpf4jnsgd1na2vs0mg"},{"bike_id":"8aafbcd1-e0fe-4ef4-b089-a98b4c86c0ee","system_id":"levelo_inurba_marseille","lat":43.26195,"lon":5.37461,"is_reserved":false,"is_disabled":true,"rental_uris":{"android":"levelo://app?vid=8aafbcd1-e0fe-4ef4-b089-a98b4c86c0ee","ios":"levelo://app?vid=8aafbcd1-e0fe-4ef4-b089-a98b4c86c0ee"},"vehicle_type_id":"4","last_reported":1773670415,"current_range_meters":26000,"station_id":"ce4bhgp2rcd13ifvqfc0","pricing_plan_id":"cebpf4jnsgd1na2vs0mg"},{"bike_id":"734176c9-c001-4f62-b964-ce58cd59b0fa","system_id":"levelo_inurba_marseille","lat":43.23137,"lon":5.43696,"is_reserved":false,"is_disabled":false,"rental_uris":{"android":"levelo://app?vid=734176c9-c001-4f62-b964-ce58cd59b0fa","ios":"levelo://app?vid=734176c9-c001-4f62-b964-ce58cd59b0fa"},"vehicle_type_id":"4","last_reported":1773670415,"current_range_meters":19600,"station_id":"ce4bhmp2rcd13ifvqgog","pricing_plan_id":"cebpf4jnsgd1na2vs0mg"},{"bike_id":"da3ff40f-9a88-4175-86ac-4b97b89150ee","system_id":"levelo_inurba_marseille","lat":43.27371,"lon":5.3626,"is_reserved":false,"is_disabled":false,"rental_uris":{"android":"levelo://app?vid=da3ff40f-9a88-4175-86ac-4b97b89150ee","ios":"levelo://app?vid=da3ff40f-9a88-4175-86ac-4b97b89150ee"},"vehicle_type_id":"4","last_reported":1773670415,"current_range_meters":6000,"station_id":"ce4bhbh2rcd13ifvqeo0","pricing_plan_id":"cebpf4jnsgd1na2vs0mg"},{"bike_id":"b3e8b3aa-26db-449c-8162-0ed85a2bc616","system_id":"levelo_inurba_marseille","lat":43.32029,"lon":5.41442,"is_reserved":false,"is_disabled":false,"rental_uris":{"android":"levelo://app?vid=b3e8b3aa-26db-449c-8162-0ed85a2bc616","ios":"levelo://app?vid=b3e8b3aa-26db-449c-8162-0ed85a2bc616"},"vehicle_type_id":"4","last_reported":1773670415,"current_range_meters":20800,"station_id":"","pricing_plan_id":"cebpf4jnsgd1na2vs0mg"},{"bike_id":"0415130a-da16-48a1-9d0b-27915824da9e","system_id":"levelo_inurba_marseille","lat":43.29987,"lon":5.37168,"is_reserved":false,"is_disabled":false,"rental_uris":{"android":"levelo://app?vid=0415130a-da16-48a1-9d0b-27915824da9e","ios":"levelo://app?vid=0415130a-da16-48a1-9d0b-27915824da9e"},"vehicle_type_id":"4","last_reported":1773670415,"current_range_meters":4800,"station_id":"ce4bgr92rcd13ifvqc7g","pricing_plan_id":"cebpf4jnsgd1na2vs0mg"},{"bike_id":"7cf4be83-26ac-4c93-9356-1166c34c70ba","system_id":"levelo_inurba_marseille","lat":43.32996,"lon":5.41306,"is_reserved":false,"is_disabled":false,"rental_uris":{"android":"levelo://app?vid=7cf4be83-26ac-4c93-9356-1166c34c70ba","ios":"levelo://app?vid=7cf4be83-26ac-4c93-9356-1166c34c70ba"},"vehicle_type_id":"4","last_reported":1773670415,"current_range_meters":10000,"station_id":"","pricing_plan_id":"cebpf4jnsgd1na2vs0mg"},{"bike_id":"d03f9bdb-4ab4-4e1f-ae03-3cffd5c48c8d","system_id":"levelo_inurba_marseille","lat":43.22936,"lon":5.35375,"is_reserved":false,"is_disabled":false,"rental_uris":{"android":"levelo://app?vid=d03f9bdb-4ab4-4e1f-ae03-3cffd5c48c8d","ios":"levelo://app?vid=d03f9bdb-4ab4-4e1f-ae03-3cffd5c48c8d"},"vehicle_type_id":"4","last_reported":1773670415,"current_range_meters":39200,"station_id":"cpo3532slgdg3j2ikp40","pricing_plan_id":"cebpf4jnsgd1na2vs0mg"},{"bike_id":"13fecc26-aa5e-4287-8255-384cc87c1b0a","system_id":"levelo_inurba_marseille","lat":43.27065,"lon":5.42261,"is_reserved":false,"is_disabled":false,"rental_uris":{"android":"levelo://app?vid=13fecc26-aa5e-4287-8255-384cc87c1b0a","ios":"levelo://app?vid=13fecc26-aa5e-4287-8255-384cc87c1b0a"},"vehicle_type_id":"4","last_reported":1773670415,"current_range_meters":40000,"station_id":"ce4bhk92rcd13ifvqgb0","pricing_plan_id":"cebpf4jnsgd1na2vs0mg"},{"bike_id":"d2b74bdd-3a95-45ae-a8c5-e755338cdf98","system_id":"levelo_inurba_marseille","lat":43.30239,"lon":5.40054,"is_reserved":false,"is_disabled":false,"rental_uris":{"android":"levelo://app?vid=d2b74bdd-3a95-45ae-a8c5-e755338cdf98","ios":"levelo://app?vid=d2b74bdd-3a95-45ae-a8c5-e755338cdf98"},"vehicle_type_id":"4","last_reported":1773670415,"current_range_meters":38000,"station_id":"ce4bgvh2rcd13ifvqcs0","pricing_plan_id":"cebpf4jnsgd1na2vs0mg"},{"bike_id":"ac32d1ce-eadb-41fb-af36-758f0f8d5898","system_id":"levelo_inurba_marseille","lat":43.29892,"lon":5.43666,"is_reserved":false,"is_disabled":false,"rental_uris":{"android":"levelo://app?vid=ac32d1ce-eadb-41fb-af36-758f0f8d5898","ios":"levelo://app?vid=ac32d1ce-eadb-41fb-af36-758f0f8d5898"},"vehicle_type_id":"4","last_reported":1773670415,"current_range_meters":19600,"station_id":"ce4bhpp2rcd13ifvqhfg","pricing_plan_id":"cebpf4jnsgd1na2vs0mg"},{"bike_id":"1198f1b9-8957-4684-bf55-f1a4bb0e08bb","system_id":"levelo_inurba_marseille","lat":43.29834,"lon":5.36266,"is_reserved":false,"is_disabled":false,"rental_uris":{"android":"levelo://app?vid=1198f1b9-8957-4684-bf55-f1a4bb0e08bb","ios":"levelo://app?vid=1198f1b9-8957-4684-bf55-f1a4bb0e08bb"},"vehicle_type_id":"4","last_reported":1773670415,"current_range_meters":39200,"station_id":"ce4bgpp2rcd13ifvqc3g","pricing_plan_id":"cebpf4jnsgd1na2vs0mg"},{"bike_id":"0aa11af6-4a66-4b65-b781-8959dd3e1b05","system_id":"levelo_inurba_marseille","lat":43.2991,"lon":5.38077,"is_reserved":false,"is_disabled":false,"rental_uris":{"android":"levelo://app?vid=0aa11af6-4a66-4b65-b781-8959dd3e1b05","ios":"levelo://app?vid=0aa11af6-4a66-4b65-b781-8959dd3e1b05"},"vehicle_type_id":"4","last_reported":1773670415,"current_range_meters":28000,"station_id":"","pricing_plan_id":"cebpf4jnsgd1na2vs0mg"},{"bike_id":"418580e6-fe33-4376-9e32-1b7fa7c3dab5","system_id":"levelo_inurba_marseille","lat":43.2466,"lon":5.38872,"is_reserved":false,"is_disabled":false,"rental_uris":{"android":"levelo://app?vid=418580e6-fe33-4376-9e32-1b7fa7c3dab5","ios":"levelo://app?vid=418580e6-fe33-4376-9e32-1b7fa7c3dab5"},"vehicle_type_id":"4","last_reported":1773670415,"current_range_meters":25600,"station_id":"ce4bhg12rcd13ifvqf60","pricing_plan_id":"cebpf4jnsgd1na2vs0mg"},{"bike_id":"16beb1f4-c64c-4043-aa5c-0277047a7a1a","system_id":"levelo_inurba_marseille","lat":43.26933,"lon":5.38908,"is_reserved":false,"is_disabled":false,"rental_uris":{"android":"levelo://app?vid=16beb1f4-c64c-4043-aa5c-0277047a7a1a","ios":"levelo://app?vid=16beb1f4-c64c-4043-aa5c-0277047a7a1a"},"vehicle_type_id":"4","last_reported":1773670415,"current_range_meters":38800,"station_id":"ce4bhhh2rcd13ifvqfl0","pricing_plan_id":"cebpf4jnsgd1na2vs0mg"},{"bike_id":"7a85b7c2-58a9-4ddc-89f1-3343e9f4cbfe","system_id":"levelo_inurba_marseille","lat":43.26943,"lon":5.3888,"is_reserved":false,"is_disabled":false,"rental_uris":{"android":"levelo://app?vid=7a85b7c2-58a9-4ddc-89f1-3343e9f4cbfe","ios":"levelo://app?vid=7a85b7c2-58a9-4ddc-89f1-3343e9f4cbfe"},"vehicle_type_id":"4","last_reported":1773670415,"current_range_meters":30800,"station_id":"ce4bhhh2rcd13ifvqfl0","pricing_plan_id":"cebpf4jnsgd1na2vs0mg"},{"bike_id":"ae5def3c-7543-49c4-bc07-b307fc0d383c","system_id":"levelo_inurba_marseille","lat":43.32373,"lon":5.3887,"is_reserved":false,"is_disabled":false,"rental_uris":{"android":"levelo://app?vid=ae5def3c-7543-49c4-bc07-b307fc0d383c","ios":"levelo://app?vid=ae5def3c-7543-49c4-bc07-b307fc0d383c"},"vehicle_type_id":"4","last_reported":1773670415,"current_range_meters":39200,"station_id":"ce4bhqp2rcd13ifvqhog","pricing_plan_id":"cebpf4jnsgd1na2vs0mg"},{"bike_id":"070475bf-1a52-421a-820b-baec73f3c197","system_id":"levelo_inurba_marseille","lat":43.26569,"lon":5.39011,"is_reserved":false,"is_disabled":false,"rental_uris":{"android":"levelo://app?vid=070475bf-1a52-421a-820b-baec73f3c197","ios":"levelo://app?vid=070475bf-1a52-421a-820b-baec73f3c197"},"vehicle_type_id":"4","last_reported":1773670415,"current_range_meters":39200,"station_id":"ce4bhe12rcd13ifvqf30","pricing_plan_id":"cebpf4jnsgd1na2vs0mg"},{"bike_id":"5660b7c9-4215-4c98-8d02-03986140ce02","system_id":"levelo_inurba_marseille","lat":43.27209,"lon":5.39185,"is_reserved":false,"is_disabled":false,"rental_uris":{"android":"levelo://app?vid=5660b7c9-4215-4c98-8d02-03986140ce02","ios":"levelo://app?vid=5660b7c9-4215-4c98-8d02-03986140ce02"},"vehicle_type_id":"4","last_reported":1773670415,"current_range_meters":27200,"station_id":"ce4bhhp2rcd13ifvqfm0","pricing_plan_id":"cebpf4jnsgd1na2vs0mg"},{"bike_id":"c5301128-1c98-473f-b471-0306f238104d","system_id":"levelo_inurba_marseille","lat":43.2552,"lon":5.37637,"is_reserved":false,"is_disabled":false,"rental_uris":{"android":"levelo://app?vid=c5301128-1c98-473f-b471-0306f238104d","ios":"levelo://app?vid=c5301128-1c98-473f-b471-0306f238104d"},"vehicle_type_id":"4","last_reported":1773670415,"current_range_meters":36800,"station_id":"ce4bhh12rcd13ifvqff0","pricing_plan_id":"cebpf4jnsgd1na2vs0mg"},{"bike_id":"c8f5ec7e-ccc6-49f8-b39a-2f757784a180","system_id":"levelo_inurba_marseille","lat":43.31457,"lon":5.3733,"is_reserved":false,"is_disabled":false,"rental_uris":{"android":"levelo://app?vid=c8f5ec7e-ccc6-49f8-b39a-2f757784a180","ios":"levelo://app?vid=c8f5ec7e-ccc6-49f8-b39a-2f757784a180"},"vehicle_type_id":"4","last_reported":1773670415,"current_range_meters":8400,"station_id":"ce4bgt12rcd13ifvqcd0","pricing_plan_id":"cebpf4jnsgd1na2vs0mg"},{"bike_id":"f809ec14-94c2-402c-ac48-1eafa5a661af","system_id":"levelo_inurba_marseille","lat":43.28503,"lon":5.38584,"is_reserved":false,"is_disabled":false,"rental_uris":{"android":"levelo://app?vid=f809ec14-94c2-402c-ac48-1eafa5a661af","ios":"levelo://app?vid=f809ec14-94c2-402c-ac48-1eafa5a661af"},"vehicle_type_id":"4","last_reported":1773670415,"current_range_meters":39200,"station_id":"ce4bh8p2rcd13ifvqeb0","pricing_plan_id":"cebpf4jnsgd1na2vs0mg"},{"bike_id":"2a93646f-b9c1-4c5b-b6c8-ee3db13de70e","system_id":"levelo_inurba_marseille","lat":43.26203,"lon":5.3794,"is_reserved":false,"is_disabled":false,"rental_uris":{"android":"levelo://app?vid=2a93646f-b9c1-4c5b-b6c8-ee3db13de70e","ios":"levelo://app?vid=2a93646f-b9c1-4c5b-b6c8-ee3db13de70e"},"vehicle_type_id":"4","last_reported":1773670415,"current_range_meters":36800,"station_id":"ce4bhjp2rcd13ifvqg90","pricing_plan_id":"cebpf4jnsgd1na2vs0mg"},{"bike_id":"a3c5b423-a9fa-4272-80e8-5e01ae0ee9f8","system_id":"levelo_inurba_marseille","lat":43.26061,"lon":5.39399,"is_reserved":false,"is_disabled":false,"rental_uris":{"android":"levelo://app?vid=a3c5b423-a9fa-4272-80e8-5e01ae0ee9f8","ios":"levelo://app?vid=a3c5b423-a9fa-4272-80e8-5e01ae0ee9f8"},"vehicle_type_id":"4","last_reported":1773670415,"current_range_meters":10800,"station_id":"ce4bhh92rcd13ifvqfj0","pricing_plan_id":"cebpf4jnsgd1na2vs0mg"},{"bike_id":"fb7dbbc6-b78e-41bb-ba39-e00be8062ae2","system_id":"levelo_inurba_marseille","lat":43.26198,"lon":5.37927,"is_reserved":false,"is_disabled":false,"rental_uris":{"android":"levelo://app?vid=fb7dbbc6-b78e-41bb-ba39-e00be8062ae2","ios":"levelo://app?vid=fb7dbbc6-b78e-41bb-ba39-e00be8062ae2"},"vehicle_type_id":"4","last_reported":1773670415,"current_range_meters":39200,"station_id":"ce4bhjp2rcd13ifvqg90","pricing_plan_id":"cebpf4jnsgd1na2vs0mg"},{"bike_id":"700a1080-fc52-425a-a768-08123850f727","system_id":"levelo_inurba_marseille","lat":43.23778,"lon":5.36631,"is_reserved":false,"is_disabled":false,"rental_uris":{"android":"levelo://app?vid=700a1080-fc52-425a-a768-08123850f727","ios":"levelo://app?vid=700a1080-fc52-425a-a768-08123850f727"},"vehicle_type_id":"4","last_reported":1773670415,"current_range_meters":18000,"station_id":"st_d3nk18o9ro0c73en2l3g","pricing_plan_id":"cebpf4jnsgd1na2vs0mg"},{"bike_id":"23e678b2-1f77-49cd-b6e6-b676bf50bd0d","system_id":"levelo_inurba_marseille","lat":43.28342,"lon":5.38088,"is_reserved":false,"is_disabled":true,"rental_uris":{"android":"levelo://app?vid=23e678b2-1f77-49cd-b6e6-b676bf50bd0d","ios":"levelo://app?vid=23e678b2-1f77-49cd-b6e6-b676bf50bd0d"},"vehicle_type_id":"4","last_reported":1773670415,"current_range_meters":32400,"station_id":"ce4bh412rcd13ifvqdr0","pricing_plan_id":"cebpf4jnsgd1na2vs0mg"},{"bike_id":"e2a03a7f-5648-4f9b-ac20-b0e493b7b350","system_id":"levelo_inurba_marseille","lat":43.32342,"lon":5.36747,"is_reserved":false,"is_disabled":false,"rental_uris":{"android":"levelo://app?vid=e2a03a7f-5648-4f9b-ac20-b0e493b7b350","ios":"levelo://app?vid=e2a03a7f-5648-4f9b-ac20-b0e493b7b350"},"vehicle_type_id":"4","last_reported":1773670415,"current_range_meters":39200,"station_id":"ce4bhsh2rcd13ifvqi2g","pricing_plan_id":"cebpf4jnsgd1na2vs0mg"},{"bike_id":"1477f222-e27e-4b95-86a5-75357a9f21d8","system_id":"levelo_inurba_marseille","lat":43.29157,"lon":5.3716,"is_reserved":false,"is_disabled":false,"rental_uris":{"android":"levelo://app?vid=1477f222-e27e-4b95-86a5-75357a9f21d8","ios":"levelo://app?vid=1477f222-e27e-4b95-86a5-75357a9f21d8"},"vehicle_type_id":"4","last_reported":1773670415,"current_range_meters":32400,"station_id":"ce4bha92rcd13ifvqeh0","pricing_plan_id":"cebpf4jnsgd1na2vs0mg"},{"bike_id":"b231ffc4-58c5-4eee-8a96-e0228790bd5e","system_id":"levelo_inurba_marseille","lat":43.30609,"lon":5.36521,"is_reserved":false,"is_disabled":false,"rental_uris":{"android":"levelo://app?vid=b231ffc4-58c5-4eee-8a96-e0228790bd5e","ios":"levelo://app?vid=b231ffc4-58c5-4eee-8a96-e0228790bd5e"},"vehicle_type_id":"4","last_reported":1773670415,"current_range_meters":20000,"station_id":"","pricing_plan_id":"cebpf4jnsgd1na2vs0mg"},{"bike_id":"ddfa8bc2-a2ab-4f06-ba77-074bccd79449","system_id":"levelo_inurba_marseille","lat":43.27367,"lon":5.36254,"is_reserved":false,"is_disabled":false,"rental_uris":{"android":"levelo://app?vid=ddfa8bc2-a2ab-4f06-ba77-074bccd79449","ios":"levelo://app?vid=ddfa8bc2-a2ab-4f06-ba77-074bccd79449"},"vehicle_type_id":"4","last_reported":1773670415,"current_range_meters":10000,"station_id":"ce4bhbh2rcd13ifvqeo0","pricing_plan_id":"cebpf4jnsgd1na2vs0mg"},{"bike_id":"9c2486c2-e062-4581-a21f-f081ce0fb87f","system_id":"levelo_inurba_marseille","lat":43.29817,"lon":5.44061,"is_reserved":false,"is_disabled":false,"rental_uris":{"android":"levelo://app?vid=9c2486c2-e062-4581-a21f-f081ce0fb87f","ios":"levelo://app?vid=9c2486c2-e062-4581-a21f-f081ce0fb87f"},"vehicle_type_id":"4","last_reported":1773670415,"current_range_meters":16400,"station_id":"st_d3jp68qikq2c7381ktn0","pricing_plan_id":"cebpf4jnsgd1na2vs0mg"},{"bike_id":"3f484f2e-0b76-41f3-9fe3-3db907fd108c","system_id":"levelo_inurba_marseille","lat":43.24788,"lon":5.3747,"is_reserved":false,"is_disabled":false,"rental_uris":{"android":"levelo://app?vid=3f484f2e-0b76-41f3-9fe3-3db907fd108c","ios":"levelo://app?vid=3f484f2e-0b76-41f3-9fe3-3db907fd108c"},"vehicle_type_id":"4","last_reported":1773670415,"current_range_meters":26800,"station_id":"ce4bhgh2rcd13ifvqfb0","pricing_plan_id":"cebpf4jnsgd1na2vs0mg"},{"bike_id":"ca5596d5-ef65-4751-8bbc-02c0154ab942","system_id":"levelo_inurba_marseille","lat":43.33171,"lon":5.37746,"is_reserved":false,"is_disabled":false,"rental_uris":{"android":"levelo://app?vid=ca5596d5-ef65-4751-8bbc-02c0154ab942","ios":"levelo://app?vid=ca5596d5-ef65-4751-8bbc-02c0154ab942"},"vehicle_type_id":"4","last_reported":1773670415,"current_range_meters":30000,"station_id":"st_d46cu089ee8s73dldbu0","pricing_plan_id":"cebpf4jnsgd1na2vs0mg"},{"bike_id":"a8ffcb99-ce05-4b81-b908-71253449bbc3","system_id":"levelo_inurba_marseille","lat":43.29962,"lon":5.41324,"is_reserved":false,"is_disabled":false,"rental_uris":{"android":"levelo://app?vid=a8ffcb99-ce05-4b81-b908-71253449bbc3","ios":"levelo://app?vid=a8ffcb99-ce05-4b81-b908-71253449bbc3"},"vehicle_type_id":"4","last_reported":1773670415,"current_range_meters":36400,"station_id":"ce4bhp12rcd13ifvqh9g","pricing_plan_id":"cebpf4jnsgd1na2vs0mg"},{"bike_id":"fa4b0550-a256-4e30-bfae-7db9387b3589","system_id":"levelo_inurba_marseille","lat":43.28715,"lon":5.39988,"is_reserved":false,"is_disabled":false,"rental_uris":{"android":"levelo://app?vid=fa4b0550-a256-4e30-bfae-7db9387b3589","ios":"levelo://app?vid=fa4b0550-a256-4e30-bfae-7db9387b3589"},"vehicle_type_id":"4","last_reported":1773670415,"current_range_meters":32000,"station_id":"ce4bho92rcd13ifvqh3g","pricing_plan_id":"cebpf4jnsgd1na2vs0mg"},