{"last_updated":1691003091,"ttl":30,"version":"2.2","data":{"bikes":[{"bike_id":"49953e3e-3a06-47c0-928e-98ef983eef50","system_id":"levelo_inurba_marseille","lat":43.309076,"lon":5.368465,"is_reserved":false,"is_disabled":false,"rental_uris":{"android":"levelo://app?vid=49953e3e-3a06-47c0-928e-98ef983eef50","ios":"levelo://app?vid=49953e3e-3a06-47c0-928e-98ef983eef50"},"vehicle_type_id":"4","last_reported":1691003091,"current_range_meters":21600,"station_id":"ce4bgn92rcd13ifvqbvg","pricing_plan_id":"free"},{"bike_id":"bd3b48c8-3299-4d8e-a664-96b0e5694610","system_id":"levelo_inurba_marseille","lat":43.314811,"lon":5.373103,"is_reserved":false,"is_disabled":false,"rental_uris":{"android":"levelo://app?vid=bd3b48c8-3299-4d8e-a664-96b0e5694610","ios":"levelo://app?vid=bd3b48c8-3299-4d8e-a664-96b0e5694610"},"vehicle_type_id":"4","last_reported":1691003091,"current_range_meters":31200,"station_id":"ce4bgt12rcd13ifvqcd0","pricing_plan_id":"free"},{"bike_id":"1f1b930d-18ac-451b-9a8f-65a1eb99bcd5","system_id":"levelo_inurba_marseille","lat":43.309039,"lon":5.371797,"is_reserved":false,"is_disabled":false,"rental_uris":{"android":"levelo://app?vid=1f1b930d-18ac-451b-9a8f-65a1eb99bcd5","ios":"levelo://app?vid=1f1b930d-18ac-451b-9a8f-65a1eb99bcd5"},"vehicle_type_id":"4","last_reported":1691003091,"current_range_meters":4400,"station_id":"ce4bguh2rcd13ifvqckg","pricing_plan_id":"free"},{"bike_id":"ad61cf93-e947-43ef-803f-853ecd9e2323","system_id":"levelo_inurba_marseille","lat":43.309039,"lon":5.371797,"is_reserved":false,"is_disabled":false,"rental_uris":{"android":"levelo://app?vid=ad61cf93-e947-43ef-803f-853ecd9e2323","ios":"levelo://app?vid=ad61cf93-e947-43ef-803f-853ecd9e2323"},"vehicle_type_id":"4","last_reported":1691003091,"current_range_meters":18000,"station_id":"ce4bguh2rcd13ifvqckg","pricing_plan_id":"free"},{"bike_id":"a9cf4840-5bc8-4b60-8d94-baa97e3437aa","system_id":"levelo_inurba_marseille","lat":43.309039,"lon":5.371797,"is_reserved":false,"is_disabled":false,"rental_uris":{"android":"levelo://app?vid=a9cf4840-5bc8-4b60-8d94-baa97e3437aa","ios":"levelo://app?vid=a9cf4840-5bc8-4b60-8d94-baa97e3437aa"},"vehicle_type_id":"4","last_reported":1691003091,"current_range_meters":20400,"station_id":"ce4bguh2rcd13ifvqckg","pricing_plan_id":"free"},{"bike_id":"4396d199-3c72-4e07-9c49-8e46440cc37a","system_id":"levelo_inurba_marseille","lat":43.31649,"lon":5.37433,"is_reserved":false,"is_disabled":false,"rental_uris":{"android":"levelo://app?vid=4396d199-3c72-4e07-9c49-8e46440cc37a","ios":"levelo://app?vid=4396d199-3c72-4e07-9c49-8e46440cc37a"},"vehicle_type_id":"4","last_reported":1691003091,"current_range_meters":22000,"station_id":"","pricing_plan_id":"free"},{"bike_id":"74d14feb-a892-478d-b86f-291c876731cb","system_id":"levelo_inurba_marseille","lat":43.31675,"lon":5.37519,"is_reserved":false,"is_disabled":false,"rental_uris":{"android":"levelo://app?vid=74d14feb-a892-478d-b86f-291c876731cb","ios":"levelo://app?vid=74d14feb-a892-478d-b86f-291c876731cb"},"vehicle_type_id":"4","last_reported":1691003091,"current_range_meters":29600,"station_id":"","pricing_plan_id":"free"},{"bike_id":"304c7050-fdd1-42e7-b480-d48fb0c4fc8f","system_id":"levelo_inurba_marseille","lat":43.305714,"lon":5.365633,"is_reserved":false,"is_disabled":false,"rental_uris":{"android":"levelo://app?vid=304c7050-fdd1-42e7-b480-d48fb0c4fc8f","ios":"levelo://app?vid=304c7050-fdd1-42e7-b480-d48fb0c4fc8f"},"vehicle_type_id":"4","last_reported":1691003091,"current_range_meters":14400,"station_id":"ce4bgs12rcd13ifvqcag","pricing_plan_id":"free"},{"bike_id":"963a78ba-8c77-4269-87a4-7ef8969f3fd8","system_id":"levelo_inurba_marseille","lat":43.305714,"lon":5.365633,"is_reserved":false,"is_disabled":false,"rental_uris":{"android":"levelo://app?vid=963a78ba-8c77-4269-87a4-7ef8969f3fd8","ios":"levelo://app?vid=963a78ba-8c77-4269-87a4-7ef8969f3fd8"},"vehicle_type_id":"4","last_reported":1691003091,"current_range_meters":2800,"station_id":"ce4bgs12rcd13ifvqcag","pricing_plan_id":"free"},{"bike_id":"ad7a4736-8ffe-4041-8d7f-d799b42ab001","system_id":"levelo_inurba_marseille","lat":43.305706,"lon":5.365654,"is_reserved":false,"is_disabled":false,"rental_uris":{"android":"levelo://app?vid=ad7a4736-8ffe-4041-8d7f-d799b42ab001","ios":"levelo://app?vid=ad7a4736-8ffe-4041-8d7f-d799b42ab001"},"vehicle_type_id":"4","last_reported":1691003091,"current_range_meters":12800,"station_id":"ce4bgs12rcd13ifvqcag","pricing_plan_id":"free"},{"bike_id":"f20ea888-8740-440b-bfeb-8eb2a7c1f652","system_id":"levelo_inurba_marseille","lat":43.305989,"lon":5.37225,"is_reserved":false,"is_disabled":false,"rental_uris":{"android":"levelo://app?vid=f20ea888-8740-440b-bfeb-8eb2a7c1f652","ios":"levelo://app?vid=f20ea888-8740-440b-bfeb-8eb2a7c1f652"},"vehicle_type_id":"4","last_reported":1691003091,"current_range_meters":30800,"station_id":"ce4bgqh2rcd13ifvqc4g","pricing_plan_id":"free"},{"bike_id":"647238d4-04e5-4eb5-8f5a-f7294eec9dcf","system_id":"levelo_inurba_marseille","lat":43.305989,"lon":5.37225,"is_reserved":false,"is_disabled":false,"rental_uris":{"android":"levelo://app?vid=647238d4-04e5-4eb5-8f5a-f7294eec9dcf","ios":"levelo://app?vid=647238d4-04e5-4eb5-8f5a-f7294eec9dcf"},"vehicle_type_id":"4","last_reported":1691003091,"current_range_meters":6800,"station_id":"ce4bgqh2rcd13ifvqc4g","pricing_plan_id":"free"},{"bike_id":"225e3b0d-baa9-4feb-bef5-536bb88430da","system_id":"levelo_inurba_marseille","lat":43.31124,"lon":5.37799,"is_reserved":false,"is_disabled":false,"rental_uris":{"android":"levelo://app?vid=225e3b0d-baa9-4feb-bef5-536bb88430da","ios":"levelo://app?vid=225e3b0d-baa9-4feb-bef5-536bb88430da"},"vehicle_type_id":"4","last_reported":1691003091,"current_range_meters":5600,"station_id":"ce4bgt92rcd13ifvqcg0","pricing_plan_id":"free"},{"bike_id":"a9f3ca26-1169-44db-9b52-df9318cbb353","system_id":"levelo_inurba_marseille","lat":43.307945,"lon":5.376487,"is_reserved":false,"is_disabled":false,"rental_uris":{"android":"levelo://app?vid=a9f3ca26-1169-44db-9b52-df9318cbb353","ios":"levelo://app?vid=a9f3ca26-1169-44db-9b52-df9318cbb353"},"vehicle_type_id":"4","last_reported":1691003091,"current_range_meters":7200,"station_id":"ce4bgv92rcd13ifvqcq0","pricing_plan_id":"free"},{"bike_id":"21c90b83-4fdf-4bf1-895d-eeef58070a00","system_id":"levelo_inurba_marseille","lat":43.30304,"lon":5.368987,"is_reserved":false,"is_disabled":false,"rental_uris":{"android":"levelo://app?vid=21c90b83-4fdf-4bf1-895d-eeef58070a00","ios":"levelo://app?vid=21c90b83-4fdf-4bf1-895d-eeef58070a00"},"vehicle_type_id":"4","last_reported":1691003091,"current_range_meters":0,"station_id":"ce4bgqh2rcd13ifvqc5g","pricing_plan_id":"free"},{"bike_id":"bd3c31ff-cbdc-4776-9412-f4728cafdfdb","system_id":"levelo_inurba_marseille","lat":43.31525,"lon":5.38037,"is_reserved":false,"is_disabled":false,"rental_uris":{"android":"levelo://app?vid=bd3c31ff-cbdc-4776-9412-f4728cafdfdb","ios":"levelo://app?vid=bd3c31ff-cbdc-4776-9412-f4728cafdfdb"},"vehicle_type_id":"4","last_reported":1691003091,"current_range_meters":28400,"station_id":"ce4bhsp2rcd13ifvqi50","pricing_plan_id":"free"},{"bike_id":"69efd253-fbbb-4a73-9ba0-16d8244fa080","system_id":"levelo_inurba_marseille","lat":43.304606,"lon":5.379026,"is_reserved":false,"is_disabled":false,"rental_uris":{"android":"levelo://app?vid=69efd253-fbbb-4a73-9ba0-16d8244fa080","ios":"levelo://app?vid=69efd253-fbbb-4a73-9ba0-16d8244fa080"},"vehicle_type_id":"4","last_reported":1691003091,"current_range_meters":29200,"station_id":"ce4bgup2rcd13ifvqcn0","pricing_plan_id":"free"},{"bike_id":"195eb5ed-de2b-4b0d-815a-980b0a04ed1d","system_id":"levelo_inurba_marseille","lat":43.29856,"lon":5.36298,"is_reserved":false,"is_disabled":false,"rental_uris":{"android":"levelo://app?vid=195eb5ed-de2b-4b0d-815a-980b0a04ed1d","ios":"levelo://app?vid=195eb5ed-de2b-4b0d-815a-980b0a04ed1d"},"vehicle_type_id":"4","last_reported":1691003091,"current_range_meters":14800,"station_id":"ce4bgpp2rcd13ifvqc3g","pricing_plan_id":"free"},{"bike_id":"f93e90cd-4f51-4337-a79a-6706328824f5","system_id":"levelo_inurba_marseille","lat":43.29853,"lon":5.36289,"is_reserved":false,"is_disabled":false,"rental_uris":{"android":"levelo://app?vid=f93e90cd-4f51-4337-a79a-6706328824f5","ios":"levelo://app?vid=f93e90cd-4f51-4337-a79a-6706328824f5"},"vehicle_type_id":"4","last_reported":1691003091,"current_range_meters":31200,"station_id":"ce4bgpp2rcd13ifvqc3g","pricing_plan_id":"free"},{"bike_id":"152d008d-70cd-4463-b962-a38d532b2514","system_id":"levelo_inurba_marseille","lat":43.298433,"lon":5.362774,"is_reserved":false,"is_disabled":false,"rental_uris":{"android":"levelo://app?vid=152d008d-70cd-4463-b962-a38d532b2514","ios":"levelo://app?vid=152d008d-70cd-4463-b962-a38d532b2514"},"vehicle_type_id":"4","last_reported":1691003091,"current_range_meters":10400,"station_id":"ce4bgpp2rcd13ifvqc3g","pricing_plan_id":"free"},{"bike_id":"7f192307-41e1-4cac-94a2-e98c991f0f11","system_id":"levelo_inurba_marseille","lat":43.298433,"lon":5.362774,"is_reserved":false,"is_disabled":false,"rental_uris":{"android":"levelo://app?vid=7f192307-41e1-4cac-94a2-e98c991f0f11","ios":"levelo://app?vid=7f192307-41e1-4cac-94a2-e98c991f0f11"},"vehicle_type_id":"4","last_reported":1691003091,"current_range_meters":31200,"station_id":"ce4bgpp2rcd13ifvqc3g","pricing_plan_id":"free"},{"bike_id":"53f0fe3f-9385-46ca-9a16-00866d1dcc51","system_id":"levelo_inurba_marseille","lat":43.298433,"lon":5.362774,"is_reserved":false,"is_disabled":false,"rental_uris":{"android":"levelo://app?vid=53f0fe3f-9385-46ca-9a16-00866d1dcc51","ios":"levelo://app?vid=53f0fe3f-9385-46ca-9a16-00866d1dcc51"},"vehicle_type_id":"4","last_reported":1691003091,"current_range_meters":31600,"station_id":"ce4bgpp2rcd13ifvqc3g","pricing_plan_id":"free"},{"bike_id":"d03e9a66-fdfb-4681-a512-6159af072ea8","system_id":"levelo_inurba_marseille","lat":43.298433,"lon":5.362774,"is_reserved":false,"is_disabled":false,"rental_uris":{"android":"levelo://app?vid=d03e9a66-fdfb-4681-a512-6159af072ea8","ios":"levelo://app?vid=d03e9a66-fdfb-4681-a512-6159af072ea8"},"vehicle_type_id":"4","last_reported":1691003091,"current_range_meters":25200,"station_id":"ce4bgpp2rcd13ifvqc3g","pricing_plan_id":"free"},{"bike_id":"53a8502e-3dc5-4670-b419-8a09c1eab852","system_id":"levelo_inurba_marseille","lat":43.298433,"lon":5.362774,"is_reserved":false,"is_disabled":false,"rental_uris":{"android":"levelo://app?vid=53a8502e-3dc5-4670-b419-8a09c1eab852","ios":"levelo://app?vid=53a8502e-3dc5-4670-b419-8a09c1eab852"},"vehicle_type_id":"4","last_reported":1691003091,"current_range_meters":31600,"station_id":"ce4bgpp2rcd13ifvqc3g","pricing_plan_id":"free"},{"bike_id":"79ade18b-a45b-46ad-b3b6-b9a2219884a8","system_id":"levelo_inurba_marseille","lat":43.298433,"lon":5.362774,"is_reserved":false,"is_disabled":false,"rental_uris":{"android":"levelo://app?vid=79ade18b-a45b-46ad-b3b6-b9a2219884a8","ios":"levelo://app?vid=79ade18b-a45b-46ad-b3b6-b9a2219884a8"},"vehicle_type_id":"4","last_reported":1691003091,"current_range_meters":12800,"station_id":"ce4bgpp2rcd13ifvqc3g","pricing_plan_id":"free"},{"bike_id":"6c38617b-766c-4067-a2c3-3330028d664d","system_id":"levelo_inurba_marseille","lat":43.298433,"lon":5.362774,"is_reserved":false,"is_disabled":false,"rental_uris":{"android":"levelo://app?vid=6c38617b-766c-4067-a2c3-3330028d664d","ios":"levelo://app?vid=6c38617b-766c-4067-a2c3-3330028d664d"},"vehicle_type_id":"4","last_reported":1691003091,"current_range_meters":31600,"station_id":"ce4bgpp2rcd13ifvqc3g","pricing_plan_id":"free"},{"bike_id":"91353cd8-dd4c-4c6c-b061-f472ec360449","system_id":"levelo_inurba_marseille","lat":43.298433,"lon":5.362774,"is_reserved":false,"is_disabled":false,"rental_uris":{"android":"levelo://app?vid=91353cd8-dd4c-4c6c-b061-f472ec360449","ios":"levelo://app?vid=91353cd8-dd4c-4c6c-b061-f472ec360449"},"vehicle_type_id":"4","last_reported":1691003091,"current_range_meters":18400,"station_id":"ce4bgpp2rcd13ifvqc3g","pricing_plan_id":"free"},{"bike_id":"9a740cd8-f634-44d1-aa72-0d17165e12d5","system_id":"levelo_inurba_marseille","lat":43.298433,"lon":5.362774,"is_reserved":false,"is_disabled":false,"rental_uris":{"android":"levelo://app?vid=9a740cd8-f634-44d1-aa72-0d17165e12d5","ios":"levelo://app?vid=9a740cd8-f634-44d1-aa72-0d17165e12d5"},"vehicle_type_id":"4","last_reported":1691003091,"current_range_meters":31600,"station_id":"ce4bgpp2rcd13ifvqc3g","pricing_plan_id":"free"},{"bike_id":"b0350f26-d454-482e-937e-e53ecd070611","system_id":"levelo_inurba_marseille","lat":43.298433,"lon":5.362774,"is_reserved":false,"is_disabled":false,"rental_uris":{"android":"levelo://app?vid=b0350f26-d454-482e-937e-e53ecd070611","ios":"levelo://app?vid=b0350f26-d454-482e-937e-e53ecd070611"},"vehicle_type_id":"4","last_reported":1691003091,"current_range_meters":31600,"station_id":"ce4bgpp2rcd13ifvqc3g","pricing_plan_id":"free"},{"bike_id":"41ec297c-1667-4d12-bad7-3f5217821153","system_id":"levelo_inurba_marseille","lat":43.298433,"lon":5.362774,"is_reserved":false,"is_disabled":false,"rental_uris":{"android":"levelo://app?vid=41ec297c-1667-4d12-bad7-3f5217821153","ios":"levelo://app?vid=41ec297c-1667-4d12-bad7-3f5217821153"},"vehicle_type_id":"4","last_reported":1691003091,"current_range_meters":24800,"station_id":"ce4bgpp2rcd13ifvqc3g","pricing_plan_id":"free"},{"bike_id":"8fb52739-9ed4-4be4-9b1d-7cc5213ede59","system_id":"levelo_inurba_marseille","lat":43.298433,"lon":5.362774,"is_reserved":false,"is_disabled":false,"rental_uris":{"android":"levelo://app?vid=8fb52739-9ed4-4be4-9b1d-7cc5213ede59","ios":"levelo://app?vid=8fb52739-9ed4-4be4-9b1d-7cc5213ede59"},"vehicle_type_id":"4","last_reported":1691003091,"current_range_meters":16000,"station_id":"ce4bgpp2rcd13ifvqc3g","pricing_plan_id":"free"},{"bike_id":"30537d43-af02-4a10-b928-7b9b8cf633d2","system_id":"levelo_inurba_marseille","lat":43.305364,"lon":5.384119,"is_reserved":false,"is_disabled":false,"rental_uris":{"android":"levelo://app?vid=30537d43-af02-4a10-b928-7b9b8cf633d2","ios":"levelo://app?vid=30537d43-af02-4a10-b928-7b9b8cf633d2"},"vehicle_type_id":"4","last_reported":1691003091,"current_range_meters":28800,"station_id":"ce4bgg92rcd13ifvqb30","pricing_plan_id":"free"},{"bike_id":"e3afb512-ba46-4f61-a1b7-9972bf2c617d","system_id":"levelo_inurba_marseille","lat":43.298433,"lon":5.362774,"is_reserved":false,"is_disabled":false,"rental_uris":{"android":"levelo://app?vid=e3afb512-ba46-4f61-a1b7-9972bf2c617d","ios":"levelo://app?vid=e3afb512-ba46-4f61-a1b7-9972bf2c617d"},"vehicle_type_id":"4","last_reported":1691003091,"current_range_meters":8800,"station_id":"ce4bgpp2rcd13ifvqc3g","pricing_plan_id":"free"},{"bike_id":"2c2c4c91-afc0-447d-b50d-3a0720ae884d","system_id":"levelo_inurba_marseille","lat":43.298433,"lon":5.362774,"is_reserved":false,"is_disabled":false,"rental_uris":{"android":"levelo://app?vid=2c2c4c91-afc0-447d-b50d-3a0720ae884d","ios":"levelo://app?vid=2c2c4c91-afc0-447d-b50d-3a0720ae884d"},"vehicle_type_id":"4","last_reported":1691003091,"current_range_meters":4000,"station_id":"ce4bgpp2rcd13ifvqc3g","pricing_plan_id":"free"},{"bike_id":"2c73cd65-2f7b-4a35-b001-aa56362c629f","system_id":"levelo_inurba_marseille","lat":43.298433,"lon":5.362774,"is_reserved":false,"is_disabled":false,"rental_uris":{"android":"levelo://app?vid=2c73cd65-2f7b-4a35-b001-aa56362c629f","ios":"levelo://app?vid=2c73cd65-2f7b-4a35-b001-aa56362c629f"},"vehicle_type_id":"4","last_reported":1691003091,"current_range_meters":32000,"station_id":"ce4bgpp2rcd13ifvqc3g","pricing_plan_id":"free"},{"bike_id":"8d424628-a074-4735-a26d-fa05f89d0922","system_id":"levelo_inurba_marseille","lat":43.298433,"lon":5.362774,"is_reserved":false,"is_disabled":false,"rental_uris":{"android":"levelo://app?vid=8d424628-a074-4735-a26d-fa05f89d0922","ios":"levelo://app?vid=8d424628-a074-4735-a26d-fa05f89d0922"},"vehicle_type_id":"4","last_reported":1691003091,"current_range_meters":31600,"station_id":"ce4bgpp2rcd13ifvqc3g","pricing_plan_id":"free"},{"bike_id":"80144e8b-712d-4bb1-90bf-4bfedd84fa77","system_id":"levelo_inurba_marseille","lat":43.298433,"lon":5.362774,"is_reserved":false,"is_disabled":false,"rental_uris":{"android":"levelo://app?vid=80144e8b-712d-4bb1-90bf-4bfedd84fa77","ios":"levelo://app?vid=80144e8b-712d-4bb1-90bf-4bfedd84fa77"},"vehicle_type_id":"4","last_reported":1691003091,"current_range_meters":31600,"station_id":"ce4bgpp2rcd13ifvqc3g","pricing_plan_id":"free"},{"bike_id":"78713c2a-be9a-4c07-bade-dcf0d3f80bb0","system_id":"levelo_inurba_marseille","lat":43.298433,"lon":5.362774,"is_reserved":false,"is_disabled":false,"rental_uris":{"android":"levelo://app?vid=78713c2a-be9a-4c07-bade-dcf0d3f80bb0","ios":"levelo://app?vid=78713c2a-be9a-4c07-bade-dcf0d3f80bb0"},"vehicle_type_id":"4","last_reported":1691003091,"current_range_meters":22800,"station_id":"ce4bgpp2rcd13ifvqc3g","pricing_plan_id":"free"},{"bike_id":"e2df2ab7-927d-4657-9770-31cbd09d1da8","system_id":"levelo_inurba_marseille","lat":43.298433,"lon":5.362774,"is_reserved":false,"is_disabled":false,"rental_uris":{"android":"levelo://app?vid=e2df2ab7-927d-4657-9770-31cbd09d1da8","ios":"levelo://app?vid=e2df2ab7-927d-4657-9770-31cbd09d1da8"},"vehicle_type_id":"4","last_reported":1691003091,"current_range_meters":29200,"station_id":"ce4bgpp2rcd13ifvqc3g","pricing_plan_id":"free"},{"bike_id":"8a5d3ba8-e12a-4358-b23d-b5c7744c3ab5","system_id":"levelo_inurba_marseille","lat":43.298433,"lon":5.362774,"is_reserved":false,"is_disabled":false,"rental_uris":{"android":"levelo://app?vid=8a5d3ba8-e12a-4358-b23d-b5c7744c3ab5","ios":"levelo://app?vid=8a5d3ba8-e12a-4358-b23d-b5c7744c3ab5"},"vehicle_type_id":"4","last_reported":1691003091,"current_range_meters":10800,"station_id":"ce4bgpp2rcd13ifvqc3g","pricing_plan_id":"free"},{"bike_id":"c859e185-cd07-40de-8ee7-3679706ebdae","system_id":"levelo_inurba_marseille","lat":43.298433,"lon":5.362774,"is_reserved":false,"is_disabled":false,"rental_uris":{"android":"levelo://app?vid=c859e185-cd07-40de-8ee7-3679706ebdae","ios":"levelo://app?vid=c859e185-cd07-40de-8ee7-3679706ebdae"},"vehicle_type_id":"4","last_reported":1691003091,"current_range_meters":31600,"station_id":"ce4bgpp2rcd13ifvqc3g","pricing_plan_id":"free"},{"bike_id":"4eebef83-0ce0-4a0b-b7c9-ecb51ee63ce3","system_id":"levelo_inurba_marseille","lat":43.29843,"lon":5.36268,"is_reserved":false,"is_disabled":false,"rental_uris":{"android":"levelo://app?vid=4eebef83-0ce0-4a0b-b7c9-ecb51ee63ce3","ios":"levelo://app?vid=4eebef83-0ce0-4a0b-b7c9-ecb51ee63ce3"},"vehicle_type_id":"4","last_reported":1691003091,"current_range_meters":8800,"station_id":"","pricing_plan_id":"free"},{"bike_id":"782c47fe-057b-4234-a709-7a9e46f5e790","system_id":"levelo_inurba_marseille","lat":43.29842,"lon":5.36271,"is_reserved":false,"is_disabled":false,"rental_uris":{"android":"levelo://app?vid=782c47fe-057b-4234-a709-7a9e46f5e790","ios":"levelo://app?vid=782c47fe-057b-4234-a709-7a9e46f5e790"},"vehicle_type_id":"4","last_reported":1691003091,"current_range_meters":20400,"station_id":"ce4bgpp2rcd13ifvqc3g","pricing_plan_id":"free"},{"bike_id":"89cbf903-56f9-4abc-af5e-0da5570aefc8","system_id":"levelo_inurba_marseille","lat":43.298433,"lon":5.362774,"is_reserved":false,"is_disabled":false,"rental_uris":{"android":"levelo://app?vid=89cbf903-56f9-4abc-af5e-0da5570aefc8","ios":"levelo://app?vid=89cbf903-56f9-4abc-af5e-0da5570aefc8"},"vehicle_type_id":"4","last_reported":1691003091,"current_range_meters":15200,"station_id":"ce4bgpp2rcd13ifvqc3g","pricing_plan_id":"free"},{"bike_id":"ee48361f-5561-4973-93a6-6089c3c219cf","system_id":"levelo_inurba_marseille","lat":43.29842,"lon":5.36267,"is_reserved":false,"is_disabled":false,"rental_uris":{"android":"levelo://app?vid=ee48361f-5561-4973-93a6-6089c3c219cf","ios":"levelo://app?vid=ee48361f-5561-4973-93a6-6089c3c219cf"},"vehicle_type_id":"4","last_reported":1691003091,"current_range_meters":31200,"station_id":"ce4bgpp2rcd13ifvqc3g","pricing_plan_id":"free"},{"bike_id":"f5d32c65-c34d-449a-b444-a1dca64b9bad","system_id":"levelo_inurba_marseille","lat":43.298415,"lon":5.362697,"is_reserved":false,"is_disabled":false,"rental_uris":{"android":"levelo://app?vid=f5d32c65-c34d-449a-b444-a1dca64b9bad","ios":"levelo://app?vid=f5d32c65-c34d-449a-b444-a1dca64b9bad"},"vehicle_type_id":"4","last_reported":1691003091,"current_range_meters":31200,"station_id":"ce4bgpp2rcd13ifvqc3g","pricing_plan_id":"free"},{"bike_id":"2f6ca2c1-6a77-4971-ac9d-bef9e8988804","system_id":"levelo_inurba_marseille","lat":43.298433,"lon":5.362774,"is_reserved":false,"is_disabled":false,"rental_uris":{"android":"levelo://app?vid=2f6ca2c1-6a77-4971-ac9d-bef9e8988804","ios":"levelo://app?vid=2f6ca2c1-6a77-4971-ac9d-bef9e8988804"},"vehicle_type_id":"4","last_reported":1691003091,"current_range_meters":12800,"station_id":"ce4bgpp2rcd13ifvqc3g","pricing_plan_id":"free"},{"bike_id":"64ef02c2-82b2-4564-9103-1a61932c6807","system_id":"levelo_inurba_marseille","lat":43.298414,"lon":5.362687,"is_reserved":false,"is_disabled":false,"rental_uris":{"android":"levelo://app?vid=64ef02c2-82b2-4564-9103-1a61932c6807","ios":"levelo://app?vid=64ef02c2-82b2-4564-9103-1a61932c6807"},"vehicle_type_id":"4","last_reported":1691003091,"current_range_meters":22800,"station_id":"ce4bgpp2rcd13ifvqc3g","pricing_plan_id":"free"},{"bike_id":"2a29ec2b-8dc7-490b-826b-f47095507857","system_id":"levelo_inurba_marseille","lat":43.311722,"lon":5.387247,"is_reserved":false,"is_disabled":false,"rental_uris":{"android":"levelo://app?vid=2a29ec2b-8dc7-490b-826b-f47095507857","ios":"levelo://app?vid=2a29ec2b-8dc7-490b-826b-f47095507857"},"vehicle_type_id":"4","last_reported":1691003091,"current_range_meters":13200,"station_id":"ce4bgv12rcd13ifvqcp0","pricing_plan_id":"free"},{"bike_id":"7cade2de-58a8-4220-90ae-0a68cf31fd43","system_id":"levelo_inurba_marseille","lat":43.29841,"lon":5.36268,"is_reserved":false,"is_disabled":false,"rental_uris":{"android":"levelo://app?vid=7cade2de-58a8-4220-90ae-0a68cf31fd43","ios":"levelo://app?vid=7cade2de-58a8-4220-90ae-0a68cf31fd43"},"vehicle_type_id":"4","last_reported":1691003091,"current_range_meters":31200,"station_id":"ce4bgpp2rcd13ifvqc3g","pricing_plan_id":"free"},{"bike_id":"86bbca6a-bb1e-49b6-a3be-faa1dc2cdd87","system_id":"levelo_inurba_marseille","lat":43.298433,"lon":5.362774,"is_reserved":false,"is_disabled":false,"rental_uris":{"android":"levelo://app?vid=86bbca6a-bb1e-49b6-a3be-faa1dc2cdd87","ios":"levelo://app?vid=86bbca6a-bb1e-49b6-a3be-faa1dc2cdd87"},"vehicle_type_id":"4","last_reported":1691003091,"current_range_meters":18000,"station_id":"ce4bgpp2rcd13ifvqc3g","pricing_plan_id":"free"},{"bike_id":"dcdd96a3-d61b-488a-b98d-12e2297159c0","system_id":"levelo_inurba_marseille","lat":43.311722,"lon":5.387247,"is_reserved":false,"is_disabled":false,"rental_uris":{"android":"levelo://app?vid=dcdd96a3-d61b-488a-b98d-12e2297159c0","ios":"levelo://app?vid=dcdd96a3-d61b-488a-b98d-12e2297159c0"},"vehicle_type_id":"4","last_reported":1691003091,"current_range_meters":8800,"station_id":"ce4bgv12rcd13ifvqcp0","pricing_plan_id":"free"},{"bike_id":"c850665d-70d5-4f06-b430-b8aced7f878b","system_id":"levelo_inurba_marseille","lat":43.311722,"lon":5.387247,"is_reserved":false,"is_disabled":false,"rental_uris":{"android":"levelo://app?vid=c850665d-70d5-4f06-b430-b8aced7f878b","ios":"levelo://app?vid=c850665d-70d5-4f06-b430-b8aced7f878b"},"vehicle_type_id":"4","last_reported":1691003091,"current_range_meters":30000,"station_id":"ce4bgv12rcd13ifvqcp0","pricing_plan_id":"free"},{"bike_id":"94d385b1-f593-4755-838a-e18d17d60e87","system_id":"levelo_inurba_marseille","lat":43.322872,"lon":5.382756,"is_reserved":false,"is_disabled":false,"rental_uris":{"android":"levelo://app?vid=94d385b1-f593-4755-838a-e18d17d60e87","ios":"levelo://app?vid=94d385b1-f593-4755-838a-e18d17d60e87"},"vehicle_type_id":"4","last_reported":1691003091,"current_range_meters":28800,"station_id":"ce4bhr12rcd13ifvqhqg","pricing_plan_id":"free"},{"bike_id":"509f5888-4a6b-4689-a157-3b8ce2307ebd","system_id":"levelo_inurba_marseille","lat":43.297794,"lon":5.370888,"is_reserved":false,"is_disabled":false,"rental_uris":{"android":"levelo://app?vid=509f5888-4a6b-4689-a157-3b8ce2307ebd","ios":"levelo://app?vid=509f5888-4a6b-4689-a157-3b8ce2307ebd"},"vehicle_type_id":"4","last_reported":1691003091,"current_range_meters":23200,"station_id":"ce4bgop2rcd13ifvqc1g","pricing_plan_id":"free"},{"bike_id":"b75938ee-d70c-4f56-b090-c70e4b478252","system_id":"levelo_inurba_marseille","lat":43.297794,"lon":5.370888,"is_reserved":false,"is_disabled":false,"rental_uris":{"android":"levelo://app?vid=b75938ee-d70c-4f56-b090-c70e4b478252","ios":"levelo://app?vid=b75938ee-d70c-4f56-b090-c70e4b478252"},"vehicle_type_id":"4","last_reported":1691003091,"current_range_meters":24000,"station_id":"ce4bgop2rcd13ifvqc1g","pricing_plan_id":"free"},{"bike_id":"7cf1aab8-38a1-47db-af16-2123c0ca6e97","system_id":"levelo_inurba_marseille","lat":43.322872,"lon":5.382756,"is_reserved":false,"is_disabled":false,"rental_uris":{"android":"levelo://app?vid=7cf1aab8-38a1-47db-af16-2123c0ca6e97","ios":"levelo://app?vid=7cf1aab8-38a1-47db-af16-2123c0ca6e97"},"vehicle_type_id":"4","last_reported":1691003091,"current_range_meters":24800,"station_id":"ce4bhr12rcd13ifvqhqg","pricing_plan_id":"free"},{"bike_id":"33dcf960-34de-4e6d-a597-90958cfc8abb","system_id":"levelo_inurba_marseille","lat":43.32291,"lon":5.38273,"is_reserved":false,"is_disabled":false,"rental_uris":{"android":"levelo://app?vid=33dcf960-34de-4e6d-a597-90958cfc8abb","ios":"levelo://app?vid=33dcf960-34de-4e6d-a597-90958cfc8abb"},"vehicle_type_id":"4","last_reported":1691003091,"current_range_meters":22800,"station_id":"ce4bhr12rcd13ifvqhqg","pricing_plan_id":"free"},{"bike_id":"027f92b8-71a5-4c9f-a663-1a55a6bfb197","system_id":"levelo_inurba_marseille","lat":43.32289,"lon":5.38277,"is_reserved":false,"is_disabled":false,"rental_uris":{"android":"levelo://app?vid=027f92b8-71a5-4c9f-a663-1a55a6bfb197","ios":"levelo://app?vid=027f92b8-71a5-4c9f-a663-1a55a6bfb197"},"vehicle_type_id":"4","last_reported":1691003091,"current_range_meters":24800,"station_id":"ce4bhr12rcd13ifvqhqg","pricing_plan_id":"free"},{"bike_id":"99cade05-3f1b-4602-ba46-84ee0ab758a1","system_id":"levelo_inurba_marseille","lat":43.297774,"lon":5.370875,"is_reserved":false,"is_disabled":false,"rental_uris":{"android":"levelo://app?vid=99cade05-3f1b-4602-ba46-84ee0ab758a1","ios":"levelo://app?vid=99cade05-3f1b-4602-ba46-84ee0ab758a1"},"vehicle_type_id":"4","last_reported":1691003091,"current_range_meters":16000,"station_id":"ce4bgop2rcd13ifvqc1g","pricing_plan_id":"free"},{"bike_id":"04041c0e-725a-4973-8c34-0479d8f8c3e9","system_id":"levelo_inurba_marseille","lat":43.32286,"lon":5.38287,"is_reserved":false,"is_disabled":false,"rental_uris":{"android":"levelo://app?vid=04041c0e-725a-4973-8c34-0479d8f8c3e9","ios":"levelo://app?vid=04041c0e-725a-4973-8c34-0479d8f8c3e9"},"vehicle_type_id":"4","last_reported":1691003091,"current_range_meters":29600,"station_id":"ce4bhr12rcd13ifvqhqg","pricing_plan_id":"free"},{"bike_id":"e06d29d6-6a97-46de-b506-634b035b228c","system_id":"levelo_inurba_marseille","lat":43.32826,"lon":5.3668,"is_reserved":false,"is_disabled":false,"rental_uris":{"android":"levelo://app?vid=e06d29d6-6a97-46de-b506-634b035b228c","ios":"levelo://app?vid=e06d29d6-6a97-46de-b506-634b035b228c"},"vehicle_type_id":"4","last_reported":1691003091,"current_range_meters":27600,"station_id":"ce4bhs92rcd13ifvqi0g","pricing_plan_id":"free"},{"bike_id":"dd789220-e7b5-42c1-b9dc-dc4243148021","system_id":"levelo_inurba_marseille","lat":43.29709,"lon":5.36602,"is_reserved":false,"is_disabled":false,"rental_uris":{"android":"levelo://app?vid=dd789220-e7b5-42c1-b9dc-dc4243148021","ios":"levelo://app?vid=dd789220-e7b5-42c1-b9dc-dc4243148021"},"vehicle_type_id":"4","last_reported":1691003091,"current_range_meters":31200,"station_id":"ce4bgn12rcd13ifvqbt0","pricing_plan_id":"free"},{"bike_id":"25bf430a-e2b5-4d72-803f-4bb6e3f5df84","system_id":"levelo_inurba_marseille","lat":43.296129,"lon":5.370777,"is_reserved":false,"is_disabled":false,"rental_uris":{"android":"levelo://app?vid=25bf430a-e2b5-4d72-803f-4bb6e3f5df84","ios":"levelo://app?vid=25bf430a-e2b5-4d72-803f-4bb6e3f5df84"},"vehicle_type_id":"4","last_reported":1691003091,"current_range_meters":0,"station_id":"ce4bgnh2rcd13ifvqc0g","pricing_plan_id":"free"},{"bike_id":"8d06a44f-7665-451f-9a62-db4884db95a4","system_id":"levelo_inurba_marseille","lat":43.29573,"lon":5.367355,"is_reserved":false,"is_disabled":false,"rental_uris":{"android":"levelo://app?vid=8d06a44f-7665-451f-9a62-db4884db95a4","ios":"levelo://app?vid=8d06a44f-7665-451f-9a62-db4884db95a4"},"vehicle_type_id":"4","last_reported":1691003091,"current_range_meters":16800,"station_id":"ce4bgph2rcd13ifvqc2g","pricing_plan_id":"free"},{"bike_id":"ce8da820-8b55-4569-9869-0a71e197b200","system_id":"levelo_inurba_marseille","lat":43.299142,"lon":5.38139,"is_reserved":false,"is_disabled":false,"rental_uris":{"android":"levelo://app?vid=ce8da820-8b55-4569-9869-0a71e197b200","ios":"levelo://app?vid=ce8da820-8b55-4569-9869-0a71e197b200"},"vehicle_type_id":"4","last_reported":1691003091,"current_range_meters":24000,"station_id":"ce4bgj12rcd13ifvqbc0","pricing_plan_id":"free"},{"bike_id":"130ce5fa-a632-4d72-b232-4aa1bbd8e8a4","system_id":"levelo_inurba_marseille","lat":43.299028,"lon":5.381509,"is_reserved":false,"is_disabled":false,"rental_uris":{"android":"levelo://app?vid=130ce5fa-a632-4d72-b232-4aa1bbd8e8a4","ios":"levelo://app?vid=130ce5fa-a632-4d72-b232-4aa1bbd8e8a4"},"vehicle_type_id":"4","last_reported":1691003091,"current_range_meters":31600,"station_id":"ce4bgj12rcd13ifvqbc0","pricing_plan_id":"free"},{"bike_id":"03a0d81c-0859-4b0d-a7ee-2b1a62ede185","system_id":"levelo_inurba_marseille","lat":43.29714,"lon":5.37698,"is_reserved":false,"is_disabled":false,"rental_uris":{"android":"levelo://app?vid=03a0d81c-0859-4b0d-a7ee-2b1a62ede185","ios":"levelo://app?vid=03a0d81c-0859-4b0d-a7ee-2b1a62ede185"},"vehicle_type_id":"4","last_reported":1691003091,"current_range_meters":15600,"station_id":"ce4bgkh2rcd13ifvqbl0","pricing_plan_id":"free"},{"bike_id":"6049c86c-eabb-4e3e-90a8-ecb39c418685","system_id":"levelo_inurba_marseille","lat":43.299028,"lon":5.381509,"is_reserved":false,"is_disabled":false,"rental_uris":{"android":"levelo://app?vid=6049c86c-eabb-4e3e-90a8-ecb39c418685","ios":"levelo://app?vid=6049c86c-eabb-4e3e-90a8-ecb39c418685"},"vehicle_type_id":"4","last_reported":1691003091,"current_range_meters":28800,"station_id":"ce4bgj12rcd13ifvqbc0","pricing_plan_id":"free"},{"bike_id":"d3eaedf5-adfb-4ef2-8972-25a57b50ca8c","system_id":"levelo_inurba_marseille","lat":43.299028,"lon":5.381509,"is_reserved":false,"is_disabled":false,"rental_uris":{"android":"levelo://app?vid=d3eaedf5-adfb-4ef2-8972-25a57b50ca8c","ios":"levelo://app?vid=d3eaedf5-adfb-4ef2-8972-25a57b50ca8c"},"vehicle_type_id":"4","last_reported":1691003091,"current_range_meters":30800,"station_id":"ce4bgj12rcd13ifvqbc0","pricing_plan_id":"free"},{"bike_id":"bd1ba3be-65e3-42ad-a42f-1c60658c02b8","system_id":"levelo_inurba_marseille","lat":43.299028,"lon":5.381509,"is_reserved":false,"is_disabled":false,"rental_uris":{"android":"levelo://app?vid=bd1ba3be-65e3-42ad-a42f-1c60658c02b8","ios":"levelo://app?vid=bd1ba3be-65e3-42ad-a42f-1c60658c02b8"},"vehicle_type_id":"4","last_reported":1691003091,"current_range_meters":7200,"station_id":"ce4bgj12rcd13ifvqbc0","pricing_plan_id":"free"},{"bike_id":"7f3132a0-277e-4f8b-93ef-1aac9748ba54","system_id":"levelo_inurba_marseille","lat":43.299028,"lon":5.381509,"is_reserved":false,"is_disabled":false,"rental_uris":{"android":"levelo://app?vid=7f3132a0-277e-4f8b-93ef-1aac9748ba54","ios":"levelo://app?vid=7f3132a0-277e-4f8b-93ef-1aac9748ba54"},"vehicle_type_id":"4","last_reported":1691003091,"current_range_meters":31600,"station_id":"ce4bgj12rcd13ifvqbc0","pricing_plan_id":"free"},{"bike_id":"8d331646-7973-4921-8b55-c319c0f80712","system_id":"levelo_inurba_marseille","lat":43.299028,"lon":5.381509,"is_reserved":false,"is_disabled":false,"rental_uris":{"android":"levelo://app?vid=8d331646-7973-4921-8b55-c319c0f80712","ios":"levelo://app?vid=8d331646-7973-4921-8b55-c319c0f80712"},"vehicle_type_id":"4","last_reported":1691003091,"current_range_meters":30400,"station_id":"ce4bgj12rcd13ifvqbc0","pricing_plan_id":"free"},{"bike_id":"5cbb35a0-d61e-4f99-b59a-f65bc4b67ccd","system_id":"levelo_inurba_marseille","lat":43.299088,"lon":5.381446,"is_reserved":false,"is_disabled":false,"rental_uris":{"android":"levelo://app?vid=5cbb35a0-d61e-4f99-b59a-f65bc4b67ccd","ios":"levelo://app?vid=5cbb35a0-d61e-4f99-b59a-f65bc4b67ccd"},"vehicle_type_id":"4","last_reported":1691003091,"current_range_meters":12400,"station_id":"","pricing_plan_id":"free"},{"bike_id":"06d9d5f9-093a-4738-9745-188edef73dc7","system_id":"levelo_inurba_marseille","lat":43.299028,"lon":5.381509,"is_reserved":false,"is_disabled":false,"rental_uris":{"android":"levelo://app?vid=06d9d5f9-093a-4738-9745-188edef73dc7","ios":"levelo://app?vid=06d9d5f9-093a-4738-9745-188edef73dc7"},"vehicle_type_id":"4","last_reported":1691003091,"current_range_meters":30400,"station_id":"ce4bgj12rcd13ifvqbc0","pricing_plan_id":"free"},{"bike_id":"a7473b10-a2d7-4de8-ac98-f55549ef71ba","system_id":"levelo_inurba_marseille","lat":43.299028,"lon":5.381509,"is_reserved":false,"is_disabled":false,"rental_uris":{"android":"levelo://app?vid=a7473b10-a2d7-4de8-ac98-f55549ef71ba","ios":"levelo://app?vid=a7473b10-a2d7-4de8-ac98-f55549ef71ba"},"vehicle_type_id":"4","last_reported":1691003091,"current_range_meters":31600,"station_id":"ce4bgj12rcd13ifvqbc0","pricing_plan_id":"free"},{"bike_id":"7b4bb3db-bf20-4362-87cd-0978ac57935a","system_id":"levelo_inurba_marseille","lat":43.299112,"lon":5.381514,"is_reserved":false,"is_disabled":false,"rental_uris":{"android":"levelo://app?vid=7b4bb3db-bf20-4362-87cd-0978ac57935a","ios":"levelo://app?vid=7b4bb3db-bf20-4362-87cd-0978ac57935a"},"vehicle_type_id":"4","last_reported":1691003091,"current_range_meters":22000,"station_id":"ce4bgj12rcd13ifvqbc0","pricing_plan_id":"free"},{"bike_id":"8574739b-36b4-4c7c-b662-f4736631f63c","system_id":"levelo_inurba_marseille","lat":43.299097,"lon":5.381505,"is_reserved":false,"is_disabled":false,"rental_uris":{"android":"levelo://app?vid=8574739b-36b4-4c7c-b662-f4736631f63c","ios":"levelo://app?vid=8574739b-36b4-4c7c-b662-f4736631f63c"},"vehicle_type_id":"4","last_reported":1691003091,"current_range_meters":29600,"station_id":"ce4bgj12rcd13ifvqbc0","pricing_plan_id":"free"},{"bike_id":"681c4d42-e515-482e-8b2c-aa076d804cbf","system_id":"levelo_inurba_marseille","lat":43.299028,"lon":5.381509,"is_reserved":false,"is_disabled":false,"rental_uris":{"android":"levelo://app?vid=681c4d42-e515-482e-8b2c-aa076d804cbf","ios":"levelo://app?vid=681c4d42-e515-482e-8b2c-aa076d804cbf"},"vehicle_type_id":"4","last_reported":1691003091,"current_range_meters":31600,"station_id":"ce4bgj12rcd13ifvqbc0","pricing_plan_id":"free"},{"bike_id":"f0b1921d-8fc5-42f6-8214-26455e772ce5","system_id":"levelo_inurba_marseille","lat":43.30962,"lon":5.39037,"is_reserved":false,"is_disabled":false,"rental_uris":{"android":"levelo://app?vid=f0b1921d-8fc5-42f6-8214-26455e772ce5","ios":"levelo://app?vid=f0b1921d-8fc5-42f6-8214-26455e772ce5"},"vehicle_type_id":"4","last_reported":1691003091,"current_range_meters":15200,"station_id":"ce4bgup2rcd13ifvqco0","pricing_plan_id":"free"},{"bike_id":"f29ccf75-01cd-48d5-bcc8-dd3138bbd060","system_id":"levelo_inurba_marseille","lat":43.29544,"lon":5.36506,"is_reserved":false,"is_disabled":false,"rental_uris":{"android":"levelo://app?vid=f29ccf75-01cd-48d5-bcc8-dd3138bbd060","ios":"levelo://app?vid=f29ccf75-01cd-48d5-bcc8-dd3138bbd060"},"vehicle_type_id":"4","last_reported":1691003091,"current_range_meters":16800,"station_id":"","pricing_plan_id":"free"},{"bike_id":"3e98b8b4-07d6-4995-a392-97dabac14f7d","system_id":"levelo_inurba_marseille","lat":43.317557,"lon":5.390173,"is_reserved":false,"is_disabled":false,"rental_uris":{"android":"levelo://app?vid=3e98b8b4-07d6-4995-a392-97dabac14f7d","ios":"levelo://app?vid=3e98b8b4-07d6-4995-a392-97dabac14f7d"},"vehicle_type_id":"4","last_reported":1691003091,"current_range_meters":31600,"station_id":"ce4bhqp2rcd13ifvqhng","pricing_plan_id":"free"},{"bike_id":"cae2b2c7-be80-4277-9a92-fdf7e4fe2590","system_id":"levelo_inurba_marseille","lat":43.317557,"lon":5.390173,"is_reserved":false,"is_disabled":false,"rental_uris":{"android":"levelo://app?vid=cae2b2c7-be80-4277-9a92-fdf7e4fe2590","ios":"levelo://app?vid=cae2b2c7-be80-4277-9a92-fdf7e4fe2590"},"vehicle_type_id":"4","last_reported":1691003091,"current_range_meters":9200,"station_id":"ce4bhqp2rcd13ifvqhng","pricing_plan_id":"free"},{"bike_id":"d703dee8-f8a9-4d10-9377-0f7e094c5bbd","system_id":"levelo_inurba_marseille","lat":43.317557,"lon":5.390173,"is_reserved":false,"is_disabled":false,"rental_uris":{"android":"levelo://app?vid=d703dee8-f8a9-4d10-9377-0f7e094c5bbd","ios":"levelo://app?vid=d703dee8-f8a9-4d10-9377-0f7e094c5bbd"},"vehicle_type_id":"4","last_reported":1691003091,"current_range_meters":21600,"station_id":"ce4bhqp2rcd13ifvqhng","pricing_plan_id":"free"},{"bike_id":"5f6fe95b-3122-4dec-b32f-dccd539cf579","system_id":"levelo_inurba_marseille","lat":43.317557,"lon":5.390173,"is_reserved":false,"is_disabled":false,"rental_uris":{"android":"levelo://app?vid=5f6fe95b-3122-4dec-b32f-dccd539cf579","ios":"levelo://app?vid=5f6fe95b-3122-4dec-b32f-dccd539cf579"},"vehicle_type_id":"4","last_reported":1691003091,"current_range_meters":27200,"station_id":"ce4bhqp2rcd13ifvqhng","pricing_plan_id":"free"},{"bike_id":"53ea2671-0c60-4101-97f8-b2103dcac782","system_id":"levelo_inurba_marseille","lat":43.317557,"lon":5.390173,"is_reserved":false,"is_disabled":false,"rental_uris":{"android":"levelo://app?vid=53ea2671-0c60-4101-97f8-b2103dcac782","ios":"levelo://app?vid=53ea2671-0c60-4101-97f8-b2103dcac782"},"vehicle_type_id":"4","last_reported":1691003091,"current_range_meters":5200,"station_id":"ce4bhqp2rcd13ifvqhng","pricing_plan_id":"free"},{"bike_id":"da912af9-899a-4251-aa0b-848a34434fe7","system_id":"levelo_inurba_marseille","lat":43.31756,"lon":5.39013,"is_reserved":false,"is_disabled":false,"rental_uris":{"android":"levelo://app?vid=da912af9-899a-4251-aa0b-848a34434fe7","ios":"levelo://app?vid=da912af9-899a-4251-aa0b-848a34434fe7"},"vehicle_type_id":"4","last_reported":1691003091,"current_range_meters":20400,"station_id":"ce4bhqp2rcd13ifvqhng","pricing_plan_id":"free"},{"bike_id":"ed10fc00-e0a4-451f-83a8-da22232f689c","system_id":"levelo_inurba_marseille","lat":43.2978,"lon":5.38093,"is_reserved":false,"is_disabled":false,"rental_uris":{"android":"levelo://app?vid=ed10fc00-e0a4-451f-83a8-da22232f689c","ios":"levelo://app?vid=ed10fc00-e0a4-451f-83a8-da22232f689c"},"vehicle_type_id":"4","last_reported":1691003091,"current_range_meters":15200,"station_id":"ce4bgip2rcd13ifvqbb0","pricing_plan_id":"free"},{"bike_id":"b52cf151-fdd6-4711-bf26-f142546b7075","system_id":"levelo_inurba_marseille","lat":43.29543,"lon":5.37478,"is_reserved":false,"is_disabled":false,"rental_uris":{"android":"levelo://app?vid=b52cf151-fdd6-4711-bf26-f142546b7075","ios":"levelo://app?vid=b52cf151-fdd6-4711-bf26-f142546b7075"},"vehicle_type_id":"4","last_reported":1691003091,"current_range_meters":22000,"station_id":"ce4bgh92rcd13ifvqb50","pricing_plan_id":"free"},{"bike_id":"68c85d46-d933-41ef-8dd0-695a83b942b2","system_id":"levelo_inurba_marseille","lat":43.295279,"lon":5.375048,"is_reserved":false,"is_disabled":false,"rental_uris":{"android":"levelo://app?vid=68c85d46-d933-41ef-8dd0-695a83b942b2","ios":"levelo://app?vid=68c85d46-d933-41ef-8dd0-695a83b942b2"},"vehicle_type_id":"4","last_reported":1691003091,"current_range_meters":0,"station_id":"ce4bgkp2rcd13ifvqbmg","pricing_plan_id":"free"},{"bike_id":"29f389a7-5930-4331-855a-a947b150eecd","system_id":"levelo_inurba_marseille","lat":43.295279,"lon":5.375048,"is_reserved":false,"is_disabled":false,"rental_uris":{"android":"levelo://app?vid=29f389a7-5930-4331-855a-a947b150eecd","ios":"levelo://app?vid=29f389a7-5930-4331-855a-a947b150eecd"},"vehicle_type_id":"4","last_reported":1691003091,"current_range_meters":400,"station_id":"ce4bgkp2rcd13ifvqbmg","pricing_plan_id":"free"},{"bike_id":"6609beef-ca84-48b6-a8bd-5af0d269cd58","system_id":"levelo_inurba_marseille","lat":43.29901,"lon":5.3849,"is_reserved":false,"is_disabled":false,"rental_uris":{"android":"levelo://app?vid=6609beef-ca84-48b6-a8bd-5af0d269cd58","ios":"levelo://app?vid=6609beef-ca84-48b6-a8bd-5af0d269cd58"},"vehicle_type_id":"4","last_reported":1691003091,"current_range_meters":20000,"station_id":"","pricing_plan_id":"free"},{"bike_id":"58a6635c-4a80-4f19-a739-16c42ebed577","system_id":"levelo_inurba_marseille","lat":43.32366,"lon":5.38875,"is_reserved":false,"is_disabled":false,"rental_uris":{"android":"levelo://app?vid=58a6635c-4a80-4f19-a739-16c42ebed577","ios":"levelo://app?vid=58a6635c-4a80-4f19-a739-16c42ebed577"},"vehicle_type_id":"4","last_reported":1691003091,"current_range_meters":16800,"station_id":"ce4bhqp2rcd13ifvqhog","pricing_plan_id":"free"},{"bike_id":"3ea7f0f4-0c54-414e-a516-428023527452","system_id":"levelo_inurba_marseille","lat":43.323644,"lon":5.388797,"is_reserved":false,"is_disabled":false,"rental_uris":{"android":"levelo://app?vid=3ea7f0f4-0c54-414e-a516-428023527452","ios":"levelo://app?vid=3ea7f0f4-0c54-414e-a516-428023527452"},"vehicle_type_id":"4","last_reported":1691003091,"current_range_meters":1200,"station_id":"ce4bhqp2rcd13ifvqhog","pricing_plan_id":"free"},{"bike_id":"419713fa-7cc1-4cfe-93fa-32add7c4fc42","system_id":"levelo_inurba_marseille","lat":43.32369,"lon":5.38881,"is_reserved":false,"is_disabled":false,"rental_uris":{"android":"levelo://app?vid=419713fa-7cc1-4cfe-93fa-32add7c4fc42","ios":"levelo://app?vid=419713fa-7cc1-4cfe-93fa-32add7c4fc42"},"vehicle_type_id":"4","last_reported":1691003091,"current_range_meters":14000,"station_id":"ce4bhqp2rcd13ifvqhog","pricing_plan_id":"free"},{"bike_id":"83e40035-5ae5-4bb2-89ae-adf2ef147026","system_id":"levelo_inurba_marseille","lat":43.323665,"lon":5.388845,"is_reserved":false,"is_disabled":false,"rental_uris":{"android":"levelo://app?vid=83e40035-5ae5-4bb2-89ae-adf2ef147026","ios":"levelo://app?vid=83e40035-5ae5-4bb2-89ae-adf2ef147026"},"vehicle_type_id":"4","last_reported":1691003091,"current_range_meters":18000,"station_id":"","pricing_plan_id":"free"},{"bike_id":"30386b7b-ecb5-4e60-924c-dbc020d3cb1a","system_id":"levelo_inurba_marseille","lat":43.32367,"lon":5.388836,"is_reserved":false,"is_disabled":false,"rental_uris":{"android":"levelo://app?vid=30386b7b-ecb5-4e60-924c-dbc020d3cb1a","ios":"levelo://app?vid=30386b7b-ecb5-4e60-924c-dbc020d3cb1a"},"vehicle_type_id":"4","last_reported":1691003091,"current_range_meters":14400,"station_id":"ce4bhqp2rcd13ifvqhog","pricing_plan_id":"free"},{"bike_id":"86b994c0-4814-4056-a0a6-3895ff71af24","system_id":"levelo_inurba_marseille","lat":43.32367,"lon":5.388836,"is_reserved":false,"is_disabled":false,"rental_uris":{"android":"levelo://app?vid=86b994c0-4814-4056-a0a6-3895ff71af24","ios":"levelo://app?vid=86b994c0-4814-4056-a0a6-3895ff71af24"},"vehicle_type_id":"4","last_reported":1691003091,"current_range_meters":22000,"station_id":"ce4bhqp2rcd13ifvqhog","pricing_plan_id":"free"},{"bike_id":"3aaf83cb-65e1-4a67-ad16-04d6edd6c427","system_id":"levelo_inurba_marseille","lat":43.29601,"lon":5.381084,"is_reserved":false,"is_disabled":false,"rental_uris":{"android":"levelo://app?vid=3aaf83cb-65e1-4a67-ad16-04d6edd6c427","ios":"levelo://app?vid=3aaf83cb-65e1-4a67-ad16-04d6edd6c427"},"vehicle_type_id":"4","last_reported":1691003091,"current_range_meters":3600,"station_id":"ce4bgl12rcd13ifvqbo0","pricing_plan_id":"free"},{"bike_id":"75c16315-36d9-451e-a503-a3685d84e9ff","system_id":"levelo_inurba_marseille","lat":43.29602,"lon":5.381084,"is_reserved":false,"is_disabled":false,"rental_uris":{"android":"levelo://app?vid=75c16315-36d9-451e-a503-a3685d84e9ff","ios":"levelo://app?vid=75c16315-36d9-451e-a503-a3685d84e9ff"},"vehicle_type_id":"4","last_reported":1691003091,"current_range_meters":22400,"station_id":"ce4bgl12rcd13ifvqbo0","pricing_plan_id":"free"},{"bike_id":"78c00079-b7f5-415a-9bfa-c4720eff6c72","system_id":"levelo_inurba_marseille","lat":43.29602,"lon":5.381084,"is_reserved":false,"is_disabled":false,"rental_uris":{"android":"levelo://app?vid=78c00079-b7f5-415a-9bfa-c4720eff6c72","ios":"levelo://app?vid=78c00079-b7f5-415a-9bfa-c4720eff6c72"},"vehicle_type_id":"4","last_reported":1691003091,"current_range_meters":4000,"station_id":"ce4bgl12rcd13ifvqbo0","pricing_plan_id":"free"},{"bike_id":"1a556856-f160-4d11-aff8-752a09614665","system_id":"levelo_inurba_marseille","lat":43.29303,"lon":5.37157,"is_reserved":false,"is_disabled":false,"rental_uris":{"android":"levelo://app?vid=1a556856-f160-4d11-aff8-752a09614665","ios":"levelo://app?vid=1a556856-f160-4d11-aff8-752a09614665"},"vehicle_type_id":"4","last_reported":1691003091,"current_range_meters":23200,"station_id":"ce4bgh92rcd13ifvqb40","pricing_plan_id":"free"},{"bike_id":"128656e5-375f-453a-898b-a61100dae1aa","system_id":"levelo_inurba_marseille","lat":43.292749,"lon":5.368402,"is_reserved":false,"is_disabled":false,"rental_uris":{"android":"levelo://app?vid=128656e5-375f-453a-898b-a61100dae1aa","ios":"levelo://app?vid=128656e5-375f-453a-898b-a61100dae1aa"},"vehicle_type_id":"4","last_reported":1691003091,"current_range_meters":10000,"station_id":"ce4bhbp2rcd13ifvqesg","pricing_plan_id":"free"},{"bike_id":"e44145d0-ce5f-4bc2-9e39-cd8b6de1b1f0","system_id":"levelo_inurba_marseille","lat":43.305994,"lon":5.393687,"is_reserved":false,"is_disabled":false,"rental_uris":{"android":"levelo://app?vid=e44145d0-ce5f-4bc2-9e39-cd8b6de1b1f0","ios":"levelo://app?vid=e44145d0-ce5f-4bc2-9e39-cd8b6de1b1f0"},"vehicle_type_id":"4","last_reported":1691003091,"current_range_meters":2400,"station_id":"ce4bh0p2rcd13ifvqd80","pricing_plan_id":"free"},{"bike_id":"e5ece78d-3873-436b-9b78-d10d153d0317","system_id":"levelo_inurba_marseille","lat":43.2936,"lon":5.37835,"is_reserved":false,"is_disabled":false,"rental_uris":{"android":"levelo://app?vid=e5ece78d-3873-436b-9b78-d10d153d0317","ios":"levelo://app?vid=e5ece78d-3873-436b-9b78-d10d153d0317"},"vehicle_type_id":"4","last_reported":1691003091,"current_range_meters":10800,"station_id":"ce4bgjh2rcd13ifvqbf0","pricing_plan_id":"free"},{"bike_id":"12a7baa0-2272-44f1-9e8b-e042041f46e2","system_id":"levelo_inurba_marseille","lat":43.2936,"lon":5.37835,"is_reserved":false,"is_disabled":false,"rental_uris":{"android":"levelo://app?vid=12a7baa0-2272-44f1-9e8b-e042041f46e2","ios":"levelo://app?vid=12a7baa0-2272-44f1-9e8b-e042041f46e2"},"vehicle_type_id":"4","last_reported":1691003091,"current_range_meters":10400,"station_id":"ce4bgjh2rcd13ifvqbf0","pricing_plan_id":"free"},{"bike_id":"e8ba17a3-e308-423c-a762-f9239778e2c7","system_id":"levelo_inurba_marseille","lat":43.29371,"lon":5.37867,"is_reserved":false,"is_disabled":false,"rental_uris":{"android":"levelo://app?vid=e8ba17a3-e308-423c-a762-f9239778e2c7","ios":"levelo://app?vid=e8ba17a3-e308-423c-a762-f9239778e2c7"},"vehicle_type_id":"4","last_reported":1691003091,"current_range_meters":4400,"station_id":"","pricing_plan_id":"free"},{"bike_id":"7664364a-ed51-47c4-954a-2e24395e6ab7","system_id":"levelo_inurba_marseille","lat":43.298797,"lon":5.389,"is_reserved":false,"is_disabled":false,"rental_uris":{"android":"levelo://app?vid=7664364a-ed51-47c4-954a-2e24395e6ab7","ios":"levelo://app?vid=7664364a-ed51-47c4-954a-2e24395e6ab7"},"vehicle_type_id":"4","last_reported":1691003091,"current_range_meters":23600,"station_id":"ce4bhbp2rcd13ifvqerg","pricing_plan_id":"free"},{"bike_id":"1e98ab71-d09e-4746-9eef-c0a3c87d1169","system_id":"levelo_inurba_marseille","lat":43.298764,"lon":5.388973,"is_reserved":false,"is_disabled":false,"rental_uris":{"android":"levelo://app?vid=1e98ab71-d09e-4746-9eef-c0a3c87d1169","ios":"levelo://app?vid=1e98ab71-d09e-4746-9eef-c0a3c87d1169"},"vehicle_type_id":"4","last_reported":1691003091,"current_range_meters":14800,"station_id":"ce4bh392rcd13ifvqdl0","pricing_plan_id":"free"},{"bike_id":"6e949596-c6bb-4655-85a8-3c5c1bcc04e6","system_id":"levelo_inurba_marseille","lat":43.31327,"lon":5.39687,"is_reserved":false,"is_disabled":false,"rental_uris":{"android":"levelo://app?vid=6e949596-c6bb-4655-85a8-3c5c1bcc04e6","ios":"levelo://app?vid=6e949596-c6bb-4655-85a8-3c5c1bcc04e6"},"vehicle_type_id":"4","last_reported":1691003091,"current_range_meters":29200,"station_id":"ce4bgvp2rcd13ifvqcu0","pricing_plan_id":"free"},{"bike_id":"c09c8975-d248-4d31-b7d2-2d4c68423d0d","system_id":"levelo_inurba_marseille","lat":43.31322,"lon":5.39689,"is_reserved":false,"is_disabled":false,"rental_uris":{"android":"levelo://app?vid=c09c8975-d248-4d31-b7d2-2d4c68423d0d","ios":"levelo://app?vid=c09c8975-d248-4d31-b7d2-2d4c68423d0d"},"vehicle_type_id":"4","last_reported":1691003091,"current_range_meters":31200,"station_id":"ce4bgvp2rcd13ifvqcu0","pricing_plan_id":"free"},{"bike_id":"f2e6f996-d1eb-4274-820f-60e0db2b66e0","system_id":"levelo_inurba_marseille","lat":43.31329,"lon":5.3969,"is_reserved":false,"is_disabled":false,"rental_uris":{"android":"levelo://app?vid=f2e6f996-d1eb-4274-820f-60e0db2b66e0","ios":"levelo://app?vid=f2e6f996-d1eb-4274-820f-60e0db2b66e0"},"vehicle_type_id":"4","last_reported":1691003091,"current_range_meters":13200,"station_id":"ce4bgvp2rcd13ifvqcu0","pricing_plan_id":"free"},{"bike_id":"521c9354-9d9a-48a4-8bb5-73c33004c0dc","system_id":"levelo_inurba_marseille","lat":43.31323,"lon":5.39693,"is_reserved":false,"is_disabled":false,"rental_uris":{"android":"levelo://app?vid=521c9354-9d9a-48a4-8bb5-73c33004c0dc","ios":"levelo://app?vid=521c9354-9d9a-48a4-8bb5-73c33004c0dc"},"vehicle_type_id":"4","last_reported":1691003091,"current_range_meters":6400,"station_id":"ce4bgvp2rcd13ifvqcu0","pricing_plan_id":"free"},{"bike_id":"0454ffce-87a0-40eb-a183-c6a4b3496905","system_id":"levelo_inurba_marseille","lat":43.31328,"lon":5.39693,"is_reserved":false,"is_disabled":false,"rental_uris":{"android":"levelo://app?vid=0454ffce-87a0-40eb-a183-c6a4b3496905","ios":"levelo://app?vid=0454ffce-87a0-40eb-a183-c6a4b3496905"},"vehicle_type_id":"4","last_reported":1691003091,"current_range_meters":31600,"station_id":"ce4bgvp2rcd13ifvqcu0","pricing_plan_id":"free"},{"bike_id":"0f936b79-dd52-4c5d-ae95-d91f359f0671","system_id":"levelo_inurba_marseille","lat":43.31324,"lon":5.39697,"is_reserved":false,"is_disabled":false,"rental_uris":{"android":"levelo://app?vid=0f936b79-dd52-4c5d-ae95-d91f359f0671","ios":"levelo://app?vid=0f936b79-dd52-4c5d-ae95-d91f359f0671"},"vehicle_type_id":"4","last_reported":1691003091,"current_range_meters":1600,"station_id":"ce4bgvp2rcd13ifvqcu0","pricing_plan_id":"free"},{"bike_id":"b753dd14-b663-48c5-8ed6-8e3c14453d55","system_id":"levelo_inurba_marseille","lat":43.30887,"lon":5.39654,"is_reserved":false,"is_disabled":false,"rental_uris":{"android":"levelo://app?vid=b753dd14-b663-48c5-8ed6-8e3c14453d55","ios":"levelo://app?vid=b753dd14-b663-48c5-8ed6-8e3c14453d55"},"vehicle_type_id":"4","last_reported":1691003091,"current_range_meters":22400,"station_id":"ce4bh012rcd13ifvqcv0","pricing_plan_id":"free"},{"bike_id":"d9998d54-4db0-45e2-b574-41c0c0a3c478","system_id":"levelo_inurba_marseille","lat":43.31329,"lon":5.39701,"is_reserved":false,"is_disabled":false,"rental_uris":{"android":"levelo://app?vid=d9998d54-4db0-45e2-b574-41c0c0a3c478","ios":"levelo://app?vid=d9998d54-4db0-45e2-b574-41c0c0a3c478"},"vehicle_type_id":"4","last_reported":1691003091,"current_range_meters":2000,"station_id":"ce4bgvp2rcd13ifvqcu0","pricing_plan_id":"free"},{"bike_id":"151624d5-41ab-40fb-9fd2-1b7b5e0b04b2","system_id":"levelo_inurba_marseille","lat":43.31325,"lon":5.39702,"is_reserved":false,"is_disabled":false,"rental_uris":{"android":"levelo://app?vid=151624d5-41ab-40fb-9fd2-1b7b5e0b04b2","ios":"levelo://app?vid=151624d5-41ab-40fb-9fd2-1b7b5e0b04b2"},"vehicle_type_id":"4","last_reported":1691003091,"current_range_meters":17200,"station_id":"ce4bgvp2rcd13ifvqcu0","pricing_plan_id":"free"},{"bike_id":"33e56278-1758-4340-a0b1-18a94aa4f46b","system_id":"levelo_inurba_marseille","lat":43.31317,"lon":5.39704,"is_reserved":false,"is_disabled":false,"rental_uris":{"android":"levelo://app?vid=33e56278-1758-4340-a0b1-18a94aa4f46b","ios":"levelo://app?vid=33e56278-1758-4340-a0b1-18a94aa4f46b"},"vehicle_type_id":"4","last_reported":1691003091,"current_range_meters":5600,"station_id":"ce4bgvp2rcd13ifvqcu0","pricing_plan_id":"free"},{"bike_id":"2da72967-5600-4249-a50c-d26efd97c85b","system_id":"levelo_inurba_marseille","lat":43.29529,"lon":5.385581,"is_reserved":false,"is_disabled":false,"rental_uris":{"android":"levelo://app?vid=2da72967-5600-4249-a50c-d26efd97c85b","ios":"levelo://app?vid=2da72967-5600-4249-a50c-d26efd97c85b"},"vehicle_type_id":"4","last_reported":1691003091,"current_range_meters":11600,"station_id":"ce4bgih2rcd13ifvqba0","pricing_plan_id":"free"},{"bike_id":"abc9b41e-3086-4e20-b9bf-ccc4d0698a83","system_id":"levelo_inurba_marseille","lat":43.29533,"lon":5.3854,"is_reserved":false,"is_disabled":false,"rental_uris":{"android":"levelo://app?vid=abc9b41e-3086-4e20-b9bf-ccc4d0698a83","ios":"levelo://app?vid=abc9b41e-3086-4e20-b9bf-ccc4d0698a83"},"vehicle_type_id":"4","last_reported":1691003091,"current_range_meters":8000,"station_id":"ce4bgih2rcd13ifvqba0","pricing_plan_id":"free"},{"bike_id":"27c82e7b-508f-4125-9524-5fe3f81fd4b5","system_id":"levelo_inurba_marseille","lat":43.29529,"lon":5.385581,"is_reserved":false,"is_disabled":false,"rental_uris":{"android":"levelo://app?vid=27c82e7b-508f-4125-9524-5fe3f81fd4b5","ios":"levelo://app?vid=27c82e7b-508f-4125-9524-5fe3f81fd4b5"},"vehicle_type_id":"4","last_reported":1691003091,"current_range_meters":16400,"station_id":"ce4bgih2rcd13ifvqba0","pricing_plan_id":"free"},{"bike_id":"2635dd8c-c912-446c-9edf-cb606f15b597","system_id":"levelo_inurba_marseille","lat":43.290779,"lon":5.371482,"is_reserved":false,"is_disabled":false,"rental_uris":{"android":"levelo://app?vid=2635dd8c-c912-446c-9edf-cb606f15b597","ios":"levelo://app?vid=2635dd8c-c912-446c-9edf-cb606f15b597"},"vehicle_type_id":"4","last_reported":1691003091,"current_range_meters":800,"station_id":"ce4bh5p2rcd13ifvqe4g","pricing_plan_id":"free"},{"bike_id":"004f1112-faf4-431d-acb0-7e217b60e3a0","system_id":"levelo_inurba_marseille","lat":43.302008,"lon":5.394694,"is_reserved":false,"is_disabled":false,"rental_uris":{"android":"levelo://app?vid=004f1112-faf4-431d-acb0-7e217b60e3a0","ios":"levelo://app?vid=004f1112-faf4-431d-acb0-7e217b60e3a0"},"vehicle_type_id":"4","last_reported":1691003091,"current_range_meters":11600,"station_id":"ce4bh0p2rcd13ifvqd70","pricing_plan_id":"free"},{"bike_id":"c9f4686c-6de3-4654-b473-dcde5b577a5f","system_id":"levelo_inurba_marseille","lat":43.294153,"lon":5.386305,"is_reserved":false,"is_disabled":false,"rental_uris":{"android":"levelo://app?vid=c9f4686c-6de3-4654-b473-dcde5b577a5f","ios":"levelo://app?vid=c9f4686c-6de3-4654-b473-dcde5b577a5f"},"vehicle_type_id":"4","last_reported":1691003091,"current_range_meters":2400,"station_id":"ce4bh2h2rcd13ifvqdh0","pricing_plan_id":"free"},{"bike_id":"eb93b343-82db-486b-ac92-06086118e4d8","system_id":"levelo_inurba_marseille","lat":43.289184,"lon":5.366408,"is_reserved":false,"is_disabled":false,"rental_uris":{"android":"levelo://app?vid=eb93b343-82db-486b-ac92-06086118e4d8","ios":"levelo://app?vid=eb93b343-82db-486b-ac92-06086118e4d8"},"vehicle_type_id":"4","last_reported":1691003091,"current_range_meters":13200,"station_id":"ce4bhap2rcd13ifvqek0","pricing_plan_id":"free"},{"bike_id":"e651f6f7-ca2d-4eab-9937-6e36000238ea","system_id":"levelo_inurba_marseille","lat":43.289184,"lon":5.366408,"is_reserved":false,"is_disabled":false,"rental_uris":{"android":"levelo://app?vid=e651f6f7-ca2d-4eab-9937-6e36000238ea","ios":"levelo://app?vid=e651f6f7-ca2d-4eab-9937-6e36000238ea"},"vehicle_type_id":"4","last_reported":1691003091,"current_range_meters":2000,"station_id":"ce4bhap2rcd13ifvqek0","pricing_plan_id":"free"},{"bike_id":"048ba562-1752-49e6-96c0-cb60d56be6aa","system_id":"levelo_inurba_marseille","lat":43.294162,"lon":5.386292,"is_reserved":false,"is_disabled":false,"rental_uris":{"android":"levelo://app?vid=048ba562-1752-49e6-96c0-cb60d56be6aa","ios":"levelo://app?vid=048ba562-1752-49e6-96c0-cb60d56be6aa"},"vehicle_type_id":"4","last_reported":1691003091,"current_range_meters":27600,"station_id":"ce4bh2h2rcd13ifvqdh0","pricing_plan_id":"free"},{"bike_id":"bbd7e1f9-e40a-4350-b041-ef7ebefe20e5","system_id":"levelo_inurba_marseille","lat":43.289184,"lon":5.366408,"is_reserved":false,"is_disabled":false,"rental_uris":{"android":"levelo://app?vid=bbd7e1f9-e40a-4350-b041-ef7ebefe20e5","ios":"levelo://app?vid=bbd7e1f9-e40a-4350-b041-ef7ebefe20e5"},"vehicle_type_id":"4","last_reported":1691003091,"current_range_meters":22400,"station_id":"ce4bhap2rcd13ifvqek0","pricing_plan_id":"free"},{"bike_id":"f1caf0ba-8af7-4a94-af25-29124144c39d","system_id":"levelo_inurba_marseille","lat":43.289184,"lon":5.366408,"is_reserved":false,"is_disabled":false,"rental_uris":{"android":"levelo://app?vid=f1caf0ba-8af7-4a94-af25-29124144c39d","ios":"levelo://app?vid=f1caf0ba-8af7-4a94-af25-29124144c39d"},"vehicle_type_id":"4","last_reported":1691003091,"current_range_meters":6400,"station_id":"ce4bhap2rcd13ifvqek0","pricing_plan_id":"free"},{"bike_id":"849f1bca-0f51-4c2a-9296-5396a3e692af","system_id":"levelo_inurba_marseille","lat":43.29269,"lon":5.38444,"is_reserved":false,"is_disabled":false,"rental_uris":{"android":"levelo://app?vid=849f1bca-0f51-4c2a-9296-5396a3e692af","ios":"levelo://app?vid=849f1bca-0f51-4c2a-9296-5396a3e692af"},"vehicle_type_id":"4","last_reported":1691003091,"current_range_meters":3600,"station_id":"ce4bh692rcd13ifvqea0","pricing_plan_id":"free"},{"bike_id":"d1a1de67-2c5b-45c2-bbce-06e701516df8","system_id":"levelo_inurba_marseille","lat":43.33039,"lon":5.38914,"is_reserved":false,"is_disabled":false,"rental_uris":{"android":"levelo://app?vid=d1a1de67-2c5b-45c2-bbce-06e701516df8","ios":"levelo://app?vid=d1a1de67-2c5b-45c2-bbce-06e701516df8"},"vehicle_type_id":"4","last_reported":1691003091,"current_range_meters":29200,"station_id":"ce4bhr92rcd13ifvqhrg","pricing_plan_id":"free"},{"bike_id":"05eb7167-1649-4b38-8503-b0d2e3456f24","system_id":"levelo_inurba_marseille","lat":43.33038,"lon":5.38918,"is_reserved":false,"is_disabled":false,"rental_uris":{"android":"levelo://app?vid=05eb7167-1649-4b38-8503-b0d2e3456f24","ios":"levelo://app?vid=05eb7167-1649-4b38-8503-b0d2e3456f24"},"vehicle_type_id":"4","last_reported":1691003091,"current_range_meters":29200,"station_id":"ce4bhr92rcd13ifvqhrg","pricing_plan_id":"free"},{"bike_id":"b2fde967-202b-4a83-b81d-3d2f7bafff45","system_id":"levelo_inurba_marseille","lat":43.33042,"lon":5.38915,"is_reserved":false,"is_disabled":false,"rental_uris":{"android":"levelo://app?vid=b2fde967-202b-4a83-b81d-3d2f7bafff45","ios":"levelo://app?vid=b2fde967-202b-4a83-b81d-3d2f7bafff45"},"vehicle_type_id":"4","last_reported":1691003091,"current_range_meters":30000,"station_id":"ce4bhr92rcd13ifvqhrg","pricing_plan_id":"free"},{"bike_id":"dad0ed44-e9a9-48b1-bc87-2f857af1931f","system_id":"levelo_inurba_marseille","lat":43.33048,"lon":5.38906,"is_reserved":false,"is_disabled":false,"rental_uris":{"android":"levelo://app?vid=dad0ed44-e9a9-48b1-bc87-2f857af1931f","ios":"levelo://app?vid=dad0ed44-e9a9-48b1-bc87-2f857af1931f"},"vehicle_type_id":"4","last_reported":1691003091,"current_range_meters":8400,"station_id":"ce4bhr92rcd13ifvqhrg","pricing_plan_id":"free"},{"bike_id":"2f2d42a2-8de0-405f-9429-d3eae654394c","system_id":"levelo_inurba_marseille","lat":43.33041,"lon":5.38918,"is_reserved":false,"is_disabled":false,"rental_uris":{"android":"levelo://app?vid=2f2d42a2-8de0-405f-9429-d3eae654394c","ios":"levelo://app?vid=2f2d42a2-8de0-405f-9429-d3eae654394c"},"vehicle_type_id":"4","last_reported":1691003091,"current_range_meters":29600,"station_id":"ce4bhr92rcd13ifvqhrg","pricing_plan_id":"free"},{"bike_id":"7f9a1bf7-b54b-40d0-8375-5835f592e844","system_id":"levelo_inurba_marseille","lat":43.33043,"lon":5.38916,"is_reserved":false,"is_disabled":false,"rental_uris":{"android":"levelo://app?vid=7f9a1bf7-b54b-40d0-8375-5835f592e844","ios":"levelo://app?vid=7f9a1bf7-b54b-40d0-8375-5835f592e844"},"vehicle_type_id":"4","last_reported":1691003091,"current_range_meters":30800,"station_id":"ce4bhr92rcd13ifvqhrg","pricing_plan_id":"free"},{"bike_id":"f67edc25-bcc7-41fb-8431-1add679b0933","system_id":"levelo_inurba_marseille","lat":43.33038,"lon":5.38924,"is_reserved":false,"is_disabled":false,"rental_uris":{"android":"levelo://app?vid=f67edc25-bcc7-41fb-8431-1add679b0933","ios":"levelo://app?vid=f67edc25-bcc7-41fb-8431-1add679b0933"},"vehicle_type_id":"4","last_reported":1691003091,"current_range_meters":29200,"station_id":"ce4bhr92rcd13ifvqhrg","pricing_plan_id":"free"},{"bike_id":"00b2dcdc-2882-40a1-9132-89c3ec15cf18","system_id":"levelo_inurba_marseille","lat":43.33041,"lon":5.3892,"is_reserved":false,"is_disabled":false,"rental_uris":{"android":"levelo://app?vid=00b2dcdc-2882-40a1-9132-89c3ec15cf18","ios":"levelo://app?vid=00b2dcdc-2882-40a1-9132-89c3ec15cf18"},"vehicle_type_id":"4","last_reported":1691003091,"current_range_meters":27200,"station_id":"ce4bhr92rcd13ifvqhrg","pricing_plan_id":"free"},{"bike_id":"0b40da1c-c5a8-44b1-ae95-03a93c8bf4e2","system_id":"levelo_inurba_marseille","lat":43.33041,"lon":5.3892,"is_reserved":false,"is_disabled":false,"rental_uris":{"android":"levelo://app?vid=0b40da1c-c5a8-44b1-ae95-03a93c8bf4e2","ios":"levelo://app?vid=0b40da1c-c5a8-44b1-ae95-03a93c8bf4e2"},"vehicle_type_id":"4","last_reported":1691003091,"current_range_meters":21600,"station_id":"ce4bhr92rcd13ifvqhrg","pricing_plan_id":"free"},{"bike_id":"8795e432-c7a3-4d95-9fa9-9f904bfbcb4a","system_id":"levelo_inurba_marseille","lat":43.33043,"lon":5.38917,"is_reserved":false,"is_disabled":false,"rental_uris":{"android":"levelo://app?vid=8795e432-c7a3-4d95-9fa9-9f904bfbcb4a","ios":"levelo://app?vid=8795e432-c7a3-4d95-9fa9-9f904bfbcb4a"},"vehicle_type_id":"4","last_reported":1691003091,"current_range_meters":22000,"station_id":"ce4bhr92rcd13ifvqhrg","pricing_plan_id":"free"},{"bike_id":"45917de0-783e-4a1c-9fb6-137e403275ca","system_id":"levelo_inurba_marseille","lat":43.33045,"lon":5.38914,"is_reserved":false,"is_disabled":false,"rental_uris":{"android":"levelo://app?vid=45917de0-783e-4a1c-9fb6-137e403275ca","ios":"levelo://app?vid=45917de0-783e-4a1c-9fb6-137e403275ca"},"vehicle_type_id":"4","last_reported":1691003091,"current_range_meters":22800,"station_id":"ce4bhr92rcd13ifvqhrg","pricing_plan_id":"free"},{"bike_id":"20cf3f6d-acf4-4653-bf24-baa04253f77a","system_id":"levelo_inurba_marseille","lat":43.33043,"lon":5.38918,"is_reserved":false,"is_disabled":false,"rental_uris":{"android":"levelo://app?vid=20cf3f6d-acf4-4653-bf24-baa04253f77a","ios":"levelo://app?vid=20cf3f6d-acf4-4653-bf24-baa04253f77a"},"vehicle_type_id":"4","last_reported":1691003091,"current_range_meters":27200,"station_id":"ce4bhr92rcd13ifvqhrg","pricing_plan_id":"free"},{"bike_id":"a716ed66-8607-47f1-a4f4-b99eecc862cb","system_id":"levelo_inurba_marseille","lat":43.33041,"lon":5.38921,"is_reserved":false,"is_disabled":false,"rental_uris":{"android":"levelo://app?vid=a716ed66-8607-47f1-a4f4-b99eecc862cb","ios":"levelo://app?vid=a716ed66-8607-47f1-a4f4-b99eecc862cb"},"vehicle_type_id":"4","last_reported":1691003091,"current_range_meters":2400,"station_id":"ce4bhr92rcd13ifvqhrg","pricing_plan_id":"free"},{"bike_id":"1f66c3db-c528-4a84-8843-30e848de60e9","system_id":"levelo_inurba_marseille","lat":43.33045,"lon":5.38915,"is_reserved":false,"is_disabled":false,"rental_uris":{"android":"levelo://app?vid=1f66c3db-c528-4a84-8843-30e848de60e9","ios":"levelo://app?vid=1f66c3db-c528-4a84-8843-30e848de60e9"},"vehicle_type_id":"4","last_reported":1691003091,"current_range_meters":30400,"station_id":"ce4bhr92rcd13ifvqhrg","pricing_plan_id":"free"},{"bike_id":"1eca23e4-03bf-48c2-b77a-2e1c9c54ef87","system_id":"levelo_inurba_marseille","lat":43.33045,"lon":5.38915,"is_reserved":false,"is_disabled":false,"rental_uris":{"android":"levelo://app?vid=1eca23e4-03bf-48c2-b77a-2e1c9c54ef87","ios":"levelo://app?vid=1eca23e4-03bf-48c2-b77a-2e1c9c54ef87"},"vehicle_type_id":"4","last_reported":1691003091,"current_range_meters":30400,"station_id":"ce4bhr92rcd13ifvqhrg","pricing_plan_id":"free"},{"bike_id":"9a9d26d5-7d2a-40b6-a299-b7c810d6dd15","system_id":"levelo_inurba_marseille","lat":43.33044,"lon":5.38917,"is_reserved":false,"is_disabled":false,"rental_uris":{"android":"levelo://app?vid=9a9d26d5-7d2a-40b6-a299-b7c810d6dd15","ios":"levelo://app?vid=9a9d26d5-7d2a-40b6-a299-b7c810d6dd15"},"vehicle_type_id":"4","last_reported":1691003091,"current_range_meters":30000,"station_id":"ce4bhr92rcd13ifvqhrg","pricing_plan_id":"free"},{"bike_id":"6951de4c-0f1d-40e8-949e-f54f8f75185d","system_id":"levelo_inurba_marseille","lat":43.33045,"lon":5.38916,"is_reserved":false,"is_disabled":false,"rental_uris":{"android":"levelo://app?vid=6951de4c-0f1d-40e8-949e-f54f8f75185d","ios":"levelo://app?vid=6951de4c-0f1d-40e8-949e-f54f8f75185d"},"vehicle_type_id":"4","last_reported":1691003091,"current_range_meters":12000,"station_id":"ce4bhr92rcd13ifvqhrg","pricing_plan_id":"free"},{"bike_id":"5554be9e-ea6d-448b-a933-772bf8ca7cdf","system_id":"levelo_inurba_marseille","lat":43.33042,"lon":5.38921,"is_reserved":false,"is_disabled":false,"rental_uris":{"android":"levelo://app?vid=5554be9e-ea6d-448b-a933-772bf8ca7cdf","ios":"levelo://app?vid=5554be9e-ea6d-448b-a933-772bf8ca7cdf"},"vehicle_type_id":"4","last_reported":1691003091,"current_range_meters":30000,"station_id":"ce4bhr92rcd13ifvqhrg","pricing_plan_id":"free"},{"bike_id":"7ebbf3c4-154a-4b73-9a8a-d0fb0ca4427f","system_id":"levelo_inurba_marseille","lat":43.33045,"lon":5.38917,"is_reserved":false,"is_disabled":false,"rental_uris":{"android":"levelo://app?vid=7ebbf3c4-154a-4b73-9a8a-d0fb0ca4427f","ios":"levelo://app?vid=7ebbf3c4-154a-4b73-9a8a-d0fb0ca4427f"},"vehicle_type_id":"4","last_reported":1691003091,"current_range_meters":22400,"station_id":"ce4bhr92rcd13ifvqhrg","pricing_plan_id":"free"},{"bike_id":"9ad86192-cd94-4e59-b0aa-19c6c390cd26","system_id":"levelo_inurba_marseille","lat":43.330443,"lon":5.389206,"is_reserved":false,"is_disabled":false,"rental_uris":{"android":"levelo://app?vid=9ad86192-cd94-4e59-b0aa-19c6c390cd26","ios":"levelo://app?vid=9ad86192-cd94-4e59-b0aa-19c6c390cd26"},"vehicle_type_id":"4","last_reported":1691003091,"current_range_meters":22400,"station_id":"ce4bhr92rcd13ifvqhrg","pricing_plan_id":"free"},{"bike_id":"026afa47-b026-4895-8f2e-dd40a80c4a5b","system_id":"levelo_inurba_marseille","lat":43.33048,"lon":5.38916,"is_reserved":false,"is_disabled":false,"rental_uris":{"android":"levelo://app?vid=026afa47-b026-4895-8f2e-dd40a80c4a5b","ios":"levelo://app?vid=026afa47-b026-4895-8f2e-dd40a80c4a5b"},"vehicle_type_id":"4","last_reported":1691003091,"current_range_meters":22800,"station_id":"ce4bhr92rcd13ifvqhrg","pricing_plan_id":"free"},{"bike_id":"d3ac0a03-be90-4568-af95-f5097d0fb3ba","system_id":"levelo_inurba_marseille","lat":43.33042,"lon":5.38926,"is_reserved":false,"is_disabled":false,"rental_uris":{"android":"levelo://app?vid=d3ac0a03-be90-4568-af95-f5097d0fb3ba","ios":"levelo://app?vid=d3ac0a03-be90-4568-af95-f5097d0fb3ba"},"vehicle_type_id":"4","last_reported":1691003091,"current_range_meters":29200,"station_id":"ce4bhr92rcd13ifvqhrg","pricing_plan_id":"free"},{"bike_id":"134ef223-0af9-48f2-bbd1-4d84dd8cb35c","system_id":"levelo_inurba_marseille","lat":43.290104,"lon":5.356111,"is_reserved":false,"is_disabled":false,"rental_uris":{"android":"levelo://app?vid=134ef223-0af9-48f2-bbd1-4d84dd8cb35c","ios":"levelo://app?vid=134ef223-0af9-48f2-bbd1-4d84dd8cb35c"},"vehicle_type_id":"4","last_reported":1691003091,"current_range_meters":31600,"station_id":"ce4bhb92rcd13ifvqen0","pricing_plan_id":"free"},{"bike_id":"7bfa6f92-ac1c-4e3b-97ac-3206bab4632a","system_id":"levelo_inurba_marseille","lat":43.290104,"lon":5.356111,"is_reserved":false,"is_disabled":false,"rental_uris":{"android":"levelo://app?vid=7bfa6f92-ac1c-4e3b-97ac-3206bab4632a","ios":"levelo://app?vid=7bfa6f92-ac1c-4e3b-97ac-3206bab4632a"},"vehicle_type_id":"4","last_reported":1691003091,"current_range_meters":6000,"station_id":"ce4bhb92rcd13ifvqen0","pricing_plan_id":"free"},{"bike_id":"e479119d-42f5-4caa-8afd-19d538f330d6","system_id":"levelo_inurba_marseille","lat":43.290995,"lon":5.381361,"is_reserved":false,"is_disabled":false,"rental_uris":{"android":"levelo://app?vid=e479119d-42f5-4caa-8afd-19d538f330d6","ios":"levelo://app?vid=e479119d-42f5-4caa-8afd-19d538f330d6"},"vehicle_type_id":"4","last_reported":1691003091,"current_range_meters":8400,"station_id":"ce4bh512rcd13ifvqe2g","pricing_plan_id":"free"},{"bike_id":"05bf2cc0-c80b-4d3b-9303-5cea93148e89","system_id":"levelo_inurba_marseille","lat":43.290995,"lon":5.381361,"is_reserved":false,"is_disabled":false,"rental_uris":{"android":"levelo://app?vid=05bf2cc0-c80b-4d3b-9303-5cea93148e89","ios":"levelo://app?vid=05bf2cc0-c80b-4d3b-9303-5cea93148e89"},"vehicle_type_id":"4","last_reported":1691003091,"current_range_meters":31600,"station_id":"ce4bh512rcd13ifvqe2g","pricing_plan_id":"free"},{"bike_id":"9569cf06-fa68-43a2-9ba4-94f75b1dbb79","system_id":"levelo_inurba_marseille","lat":43.295169,"lon":5.390426,"is_reserved":false,"is_disabled":false,"rental_uris":{"android":"levelo://app?vid=9569cf06-fa68-43a2-9ba4-94f75b1dbb79","ios":"levelo://app?vid=9569cf06-fa68-43a2-9ba4-94f75b1dbb79"},"vehicle_type_id":"4","last_reported":1691003091,"current_range_meters":2400,"station_id":"ce4bh3p2rcd13ifvqdp0","pricing_plan_id":"free"},{"bike_id":"dc6a06b7-b15d-4368-94ac-f1961b4026cc","system_id":"levelo_inurba_marseille","lat":43.2978,"lon":5.39337,"is_reserved":false,"is_disabled":false,"rental_uris":{"android":"levelo://app?vid=dc6a06b7-b15d-4368-94ac-f1961b4026cc","ios":"levelo://app?vid=dc6a06b7-b15d-4368-94ac-f1961b4026cc"},"vehicle_type_id":"4","last_reported":1691003091,"current_range_meters":5200,"station_id":"chh1huq6cuj3fo74tm60","pricing_plan_id":"free"},{"bike_id":"0e59dc14-3695-4e32-9f33-494d0d6acf94","system_id":"levelo_inurba_marseille","lat":43.297815,"lon":5.393548,"is_reserved":false,"is_disabled":false,"rental_uris":{"android":"levelo://app?vid=0e59dc14-3695-4e32-9f33-494d0d6acf94","ios":"levelo://app?vid=0e59dc14-3695-4e32-9f33-494d0d6acf94"},"vehicle_type_id":"4","last_reported":1691003091,"current_range_meters":5600,"station_id":"chh1huq6cuj3fo74tm60","pricing_plan_id":"free"},{"bike_id":"778abb9a-d699-4eab-9411-e48bb72736fa","system_id":"levelo_inurba_marseille","lat":43.289741,"lon":5.378306,"is_reserved":false,"is_disabled":false,"rental_uris":{"android":"levelo://app?vid=778abb9a-d699-4eab-9411-e48bb72736fa","ios":"levelo://app?vid=778abb9a-d699-4eab-9411-e48bb72736fa"},"vehicle_type_id":"4","last_reported":1691003091,"current_range_meters":0,"station_id":"ce4bh9p2rcd13ifvqed0","pricing_plan_id":"free"},{"bike_id":"8d4e3cf4-8777-4ab7-8273-9417c19d9354","system_id":"levelo_inurba_marseille","lat":43.28999,"lon":5.3814,"is_reserved":false,"is_disabled":false,"rental_uris":{"android":"levelo://app?vid=8d4e3cf4-8777-4ab7-8273-9417c19d9354","ios":"levelo://app?vid=8d4e3cf4-8777-4ab7-8273-9417c19d9354"},"vehicle_type_id":"4","last_reported":1691003091,"current_range_meters":0,"station_id":"ce4bh4p2rcd13ifvqe1g","pricing_plan_id":"free"},{"bike_id":"72f14042-44ab-4b9e-a26f-e76eac60f4a0","system_id":"levelo_inurba_marseille","lat":43.309371,"lon":5.401449,"is_reserved":false,"is_disabled":false,"rental_uris":{"android":"levelo://app?vid=72f14042-44ab-4b9e-a26f-e76eac60f4a0","ios":"levelo://app?vid=72f14042-44ab-4b9e-a26f-e76eac60f4a0"},"vehicle_type_id":"4","last_reported":1691003091,"current_range_meters":24000,"station_id":"ce4bgvp2rcd13ifvqct0","pricing_plan_id":"free"},{"bike_id":"4f2348f7-6dbd-4815-868c-23ba2e670f2d","system_id":"levelo_inurba_marseille","lat":43.30937,"lon":5.40147,"is_reserved":false,"is_disabled":false,"rental_uris":{"android":"levelo://app?vid=4f2348f7-6dbd-4815-868c-23ba2e670f2d","ios":"levelo://app?vid=4f2348f7-6dbd-4815-868c-23ba2e670f2d"},"vehicle_type_id":"4","last_reported":1691003091,"current_range_meters":400,"station_id":"ce4bgvp2rcd13ifvqct0","pricing_plan_id":"free"},{"bike_id":"528e162b-f0c0-4481-a1c9-f97c85a3fee5","system_id":"levelo_inurba_marseille","lat":43.30642,"lon":5.401031,"is_reserved":false,"is_disabled":false,"rental_uris":{"android":"levelo://app?vid=528e162b-f0c0-4481-a1c9-f97c85a3fee5","ios":"levelo://app?vid=528e162b-f0c0-4481-a1c9-f97c85a3fee5"},"vehicle_type_id":"4","last_reported":1691003091,"current_range_meters":26400,"station_id":"ce4bh112rcd13ifvqda0","pricing_plan_id":"free"},{"bike_id":"75199276-b705-4ad7-b6a9-49aeaa84628a","system_id":"levelo_inurba_marseille","lat":43.286593,"lon":5.363346,"is_reserved":false,"is_disabled":false,"rental_uris":{"android":"levelo://app?vid=75199276-b705-4ad7-b6a9-49aeaa84628a","ios":"levelo://app?vid=75199276-b705-4ad7-b6a9-49aeaa84628a"},"vehicle_type_id":"4","last_reported":1691003091,"current_range_meters":31600,"station_id":"ce4bhah2rcd13ifvqej0","pricing_plan_id":"free"},{"bike_id":"2b6bed92-aebb-46a5-84c9-480bfc9e58b3","system_id":"levelo_inurba_marseille","lat":43.286593,"lon":5.363346,"is_reserved":false,"is_disabled":false,"rental_uris":{"android":"levelo://app?vid=2b6bed92-aebb-46a5-84c9-480bfc9e58b3","ios":"levelo://app?vid=2b6bed92-aebb-46a5-84c9-480bfc9e58b3"},"vehicle_type_id":"4","last_reported":1691003091,"current_range_meters":0,"station_id":"ce4bhah2rcd13ifvqej0","pricing_plan_id":"free"},{"bike_id":"686eef5b-69ad-40d8-b5cd-1023f4169788","system_id":"levelo_inurba_marseille","lat":43.295196,"lon":5.39397,"is_reserved":false,"is_disabled":false,"rental_uris":{"android":"levelo://app?vid=686eef5b-69ad-40d8-b5cd-1023f4169788","ios":"levelo://app?vid=686eef5b-69ad-40d8-b5cd-1023f4169788"},"vehicle_type_id":"4","last_reported":1691003091,"current_range_meters":0,"station_id":"ce4bh292rcd13ifvqdf0","pricing_plan_id":"free"},{"bike_id":"91137ad6-3c38-4bff-98a6-c5f9288191d5","system_id":"levelo_inurba_marseille","lat":43.286039,"lon":5.370679,"is_reserved":false,"is_disabled":false,"rental_uris":{"android":"levelo://app?vid=91137ad6-3c38-4bff-98a6-c5f9288191d5","ios":"levelo://app?vid=91137ad6-3c38-4bff-98a6-c5f9288191d5"},"vehicle_type_id":"4","last_reported":1691003091,"current_range_meters":25200,"station_id":"ce4bht12rcd13ifvqi60","pricing_plan_id":"free"},{"bike_id":"33c3a4f6-0b6e-4271-841f-67f2fb9c5b2b","system_id":"levelo_inurba_marseille","lat":43.286039,"lon":5.370679,"is_reserved":false,"is_disabled":false,"rental_uris":{"android":"levelo://app?vid=33c3a4f6-0b6e-4271-841f-67f2fb9c5b2b","ios":"levelo://app?vid=33c3a4f6-0b6e-4271-841f-67f2fb9c5b2b"},"vehicle_type_id":"4","last_reported":1691003091,"current_range_meters":15200,"station_id":"ce4bht12rcd13ifvqi60","pricing_plan_id":"free"},{"bike_id":"ce673f72-b004-4d57-bcc6-85944adb6c06","system_id":"levelo_inurba_marseille","lat":43.286039,"lon":5.370679,"is_reserved":false,"is_disabled":false,"rental_uris":{"android":"levelo://app?vid=ce673f72-b004-4d57-bcc6-85944adb6c06","ios":"levelo://app?vid=ce673f72-b004-4d57-bcc6-85944adb6c06"},"vehicle_type_id":"4","last_reported":1691003091,"current_range_meters":17600,"station_id":"ce4bht12rcd13ifvqi60","pricing_plan_id":"free"},{"bike_id":"17336c82-a448-4884-a7b0-ed64f672c7f8","system_id":"levelo_inurba_marseille","lat":43.28606,"lon":5.37067,"is_reserved":false,"is_disabled":false,"rental_uris":{"android":"levelo://app?vid=17336c82-a448-4884-a7b0-ed64f672c7f8","ios":"levelo://app?vid=17336c82-a448-4884-a7b0-ed64f672c7f8"},"vehicle_type_id":"4","last_reported":1691003091,"current_range_meters":10400,"station_id":"ce4bht12rcd13ifvqi60","pricing_plan_id":"free"},{"bike_id":"eb83af10-1abe-414d-97e2-770836b0dd52","system_id":"levelo_inurba_marseille","lat":43.28721,"lon":5.3793,"is_reserved":false,"is_disabled":false,"rental_uris":{"android":"levelo://app?vid=eb83af10-1abe-414d-97e2-770836b0dd52","ios":"levelo://app?vid=eb83af10-1abe-414d-97e2-770836b0dd52"},"vehicle_type_id":"4","last_reported":1691003091,"current_range_meters":4000,"station_id":"","pricing_plan_id":"free"},{"bike_id":"918f29c8-9cb7-4e4e-89eb-ab0bf3d0b463","system_id":"levelo_inurba_marseille","lat":43.287185,"lon":5.379373,"is_reserved":false,"is_disabled":false,"rental_uris":{"android":"levelo://app?vid=918f29c8-9cb7-4e4e-89eb-ab0bf3d0b463","ios":"levelo://app?vid=918f29c8-9cb7-4e4e-89eb-ab0bf3d0b463"},"vehicle_type_id":"4","last_reported":1691003091,"current_range_meters":27200,"station_id":"ce4bh9p2rcd13ifvqec0","pricing_plan_id":"free"},{"bike_id":"7ce180e9-bd5d-4c9c-8f99-4c6521c30da4","system_id":"levelo_inurba_marseille","lat":43.31643,"lon":5.40433,"is_reserved":false,"is_disabled":false,"rental_uris":{"android":"levelo://app?vid=7ce180e9-bd5d-4c9c-8f99-4c6521c30da4","ios":"levelo://app?vid=7ce180e9-bd5d-4c9c-8f99-4c6521c30da4"},"vehicle_type_id":"4","last_reported":1691003091,"current_range_meters":24800,"station_id":"ce4bh012rcd13ifvqd00","pricing_plan_id":"free"},{"bike_id":"992d4d46-9f22-439a-ba60-77868c399592","system_id":"levelo_inurba_marseille","lat":43.316517,"lon":5.404375,"is_reserved":false,"is_disabled":false,"rental_uris":{"android":"levelo://app?vid=992d4d46-9f22-439a-ba60-77868c399592","ios":"levelo://app?vid=992d4d46-9f22-439a-ba60-77868c399592"},"vehicle_type_id":"4","last_reported":1691003091,"current_range_meters":29200,"station_id":"ce4bh012rcd13ifvqd00","pricing_plan_id":"free"},{"bike_id":"7eeb9539-a218-46fa-8215-75ee860772be","system_id":"levelo_inurba_marseille","lat":43.316517,"lon":5.404375,"is_reserved":false,"is_disabled":false,"rental_uris":{"android":"levelo://app?vid=7eeb9539-a218-46fa-8215-75ee860772be","ios":"levelo://app?vid=7eeb9539-a218-46fa-8215-75ee860772be"},"vehicle_type_id":"4","last_reported":1691003091,"current_range_meters":28800,"station_id":"ce4bh012rcd13ifvqd00","pricing_plan_id":"free"},{"bike_id":"319b67a5-c642-4797-8c02-6eb0ecc259ea","system_id":"levelo_inurba_marseille","lat":43.31646,"lon":5.40436,"is_reserved":false,"is_disabled":false,"rental_uris":{"android":"levelo://app?vid=319b67a5-c642-4797-8c02-6eb0ecc259ea","ios":"levelo://app?vid=319b67a5-c642-4797-8c02-6eb0ecc259ea"},"vehicle_type_id":"4","last_reported":1691003091,"current_range_meters":22000,"station_id":"ce4bh012rcd13ifvqd00","pricing_plan_id":"free"},{"bike_id":"a1731584-5fed-40a8-93e5-dbe3360cc50c","system_id":"levelo_inurba_marseille","lat":43.31641,"lon":5.40438,"is_reserved":false,"is_disabled":false,"rental_uris":{"android":"levelo://app?vid=a1731584-5fed-40a8-93e5-dbe3360cc50c","ios":"levelo://app?vid=a1731584-5fed-40a8-93e5-dbe3360cc50c"},"vehicle_type_id":"4","last_reported":1691003091,"current_range_meters":30400,"station_id":"ce4bh012rcd13ifvqd00","pricing_plan_id":"free"},{"bike_id":"99b07d52-006c-428c-87c8-3eaf3e1ab7cd","system_id":"levelo_inurba_marseille","lat":43.31652,"lon":5.40442,"is_reserved":false,"is_disabled":false,"rental_uris":{"android":"levelo://app?vid=99b07d52-006c-428c-87c8-3eaf3e1ab7cd","ios":"levelo://app?vid=99b07d52-006c-428c-87c8-3eaf3e1ab7cd"},"vehicle_type_id":"4","last_reported":1691003091,"current_range_meters":28800,"station_id":"ce4bh012rcd13ifvqd00","pricing_plan_id":"free"},{"bike_id":"e15d5a39-4ea1-4533-968c-7c2063e24f60","system_id":"levelo_inurba_marseille","lat":43.285742,"lon":5.395004,"is_reserved":false,"is_disabled":false,"rental_uris":{"android":"levelo://app?vid=e15d5a39-4ea1-4533-968c-7c2063e24f60","ios":"levelo://app?vid=e15d5a39-4ea1-4533-968c-7c2063e24f60"},"vehicle_type_id":"4","last_reported":1691003091,"current_range_meters":0,"station_id":"ce4bh292rcd13ifvqdg0","pricing_plan_id":"free"},{"bike_id":"92088e9c-004b-4362-a43e-8d01f94b4d67","system_id":"levelo_inurba_marseille","lat":43.291994,"lon":5.392907,"is_reserved":false,"is_disabled":false,"rental_uris":{"android":"levelo://app?vid=92088e9c-004b-4362-a43e-8d01f94b4d67","ios":"levelo://app?vid=92088e9c-004b-4362-a43e-8d01f94b4d67"},"vehicle_type_id":"4","last_reported":1691003091,"current_range_meters":20800,"station_id":"ce4bh192rcd13ifvqdd0","pricing_plan_id":"free"},{"bike_id":"e0ac1008-62aa-4b2f-9186-7463884961f7","system_id":"levelo_inurba_marseille","lat":43.29192,"lon":5.39312,"is_reserved":false,"is_disabled":false,"rental_uris":{"android":"levelo://app?vid=e0ac1008-62aa-4b2f-9186-7463884961f7","ios":"levelo://app?vid=e0ac1008-62aa-4b2f-9186-7463884961f7"},"vehicle_type_id":"4","last_reported":1691003091,"current_range_meters":15200,"station_id":"ce4bh192rcd13ifvqdd0","pricing_plan_id":"free"},{"bike_id":"99ef77c8-5f24-48f8-b499-d5f3fc911ee4","system_id":"levelo_inurba_marseille","lat":43.29243,"lon":5.39413,"is_reserved":false,"is_disabled":false,"rental_uris":{"android":"levelo://app?vid=99ef77c8-5f24-48f8-b499-d5f3fc911ee4","ios":"levelo://app?vid=99ef77c8-5f24-48f8-b499-d5f3fc911ee4"},"vehicle_type_id":"4","last_reported":1691003091,"current_range_meters":22000,"station_id":"","pricing_plan_id":"free"},{"bike_id":"c2ca8583-805a-4117-b24f-38db18934d62","system_id":"levelo_inurba_marseille","lat":43.284538,"lon":5.358657,"is_reserved":false,"is_disabled":false,"rental_uris":{"android":"levelo://app?vid=c2ca8583-805a-4117-b24f-38db18934d62","ios":"levelo://app?vid=c2ca8583-805a-4117-b24f-38db18934d62"},"vehicle_type_id":"4","last_reported":1691003091,"current_range_meters":1200,"station_id":"ce4bhah2rcd13ifvqei0","pricing_plan_id":"free"},{"bike_id":"aebbc4c9-7b4d-4adf-9773-ea64790714b9","system_id":"levelo_inurba_marseille","lat":43.283998,"lon":5.375062,"is_reserved":false,"is_disabled":false,"rental_uris":{"android":"levelo://app?vid=aebbc4c9-7b4d-4adf-9773-ea64790714b9","ios":"levelo://app?vid=aebbc4c9-7b4d-4adf-9773-ea64790714b9"},"vehicle_type_id":"4","last_reported":1691003091,"current_range_meters":29200,"station_id":"ce4bh412rcd13ifvqds0","pricing_plan_id":"free"},{"bike_id":"4ef7b450-4912-41a8-a3fc-a5ccb50a4577","system_id":"levelo_inurba_marseille","lat":43.283998,"lon":5.375062,"is_reserved":false,"is_disabled":false,"rental_uris":{"android":"levelo://app?vid=4ef7b450-4912-41a8-a3fc-a5ccb50a4577","ios":"levelo://app?vid=4ef7b450-4912-41a8-a3fc-a5ccb50a4577"},"vehicle_type_id":"4","last_reported":1691003091,"current_range_meters":15200,"station_id":"ce4bh412rcd13ifvqds0","pricing_plan_id":"free"},{"bike_id":"834cb775-6037-4db8-aa19-8ca282a54be0","system_id":"levelo_inurba_marseille","lat":43.283998,"lon":5.375062,"is_reserved":false,"is_disabled":false,"rental_uris":{"android":"levelo://app?vid=834cb775-6037-4db8-aa19-8ca282a54be0","ios":"levelo://app?vid=834cb775-6037-4db8-aa19-8ca282a54be0"},"vehicle_type_id":"4","last_reported":1691003091,"current_range_meters":29600,"station_id":"ce4bh412rcd13ifvqds0","pricing_plan_id":"free"},{"bike_id":"966cd79e-c406-405e-a939-ce24b852cafb","system_id":"levelo_inurba_marseille","lat":43.28407,"lon":5.37511,"is_reserved":false,"is_disabled":false,"rental_uris":{"android":"levelo://app?vid=966cd79e-c406-405e-a939-ce24b852cafb","ios":"levelo://app?vid=966cd79e-c406-405e-a939-ce24b852cafb"},"vehicle_type_id":"4","last_reported":1691003091,"current_range_meters":22000,"station_id":"ce4bh412rcd13ifvqds0","pricing_plan_id":"free"},{"bike_id":"2052cfe5-e307-42d4-98ff-3c2c74b3d525","system_id":"levelo_inurba_marseille","lat":43.283998,"lon":5.375062,"is_reserved":false,"is_disabled":false,"rental_uris":{"android":"levelo://app?vid=2052cfe5-e307-42d4-98ff-3c2c74b3d525","ios":"levelo://app?vid=2052cfe5-e307-42d4-98ff-3c2c74b3d525"},"vehicle_type_id":"4","last_reported":1691003091,"current_range_meters":17200,"station_id":"ce4bh412rcd13ifvqds0","pricing_plan_id":"free"},{"bike_id":"fb0e4e1e-c30b-4470-9647-b39b1451fe8a","system_id":"levelo_inurba_marseille","lat":43.28404,"lon":5.37518,"is_reserved":false,"is_disabled":false,"rental_uris":{"android":"levelo://app?vid=fb0e4e1e-c30b-4470-9647-b39b1451fe8a","ios":"levelo://app?vid=fb0e4e1e-c30b-4470-9647-b39b1451fe8a"},"vehicle_type_id":"4","last_reported":1691003091,"current_range_meters":9200,"station_id":"ce4bh412rcd13ifvqds0","pricing_plan_id":"free"},{"bike_id":"15383cbd-20d9-4ada-9f22-5088767d2e8c","system_id":"levelo_inurba_marseille","lat":43.286595,"lon":5.386795,"is_reserved":false,"is_disabled":false,"rental_uris":{"android":"levelo://app?vid=15383cbd-20d9-4ada-9f22-5088767d2e8c","ios":"levelo://app?vid=15383cbd-20d9-4ada-9f22-5088767d2e8c"},"vehicle_type_id":"4","last_reported":1691003091,"current_range_meters":11600,"station_id":"ce4bh492rcd13ifvqdug","pricing_plan_id":"free"},{"bike_id":"79fb3e40-d21e-419b-8ae6-ad77e23ed775","system_id":"levelo_inurba_marseille","lat":43.286595,"lon":5.386795,"is_reserved":false,"is_disabled":false,"rental_uris":{"android":"levelo://app?vid=79fb3e40-d21e-419b-8ae6-ad77e23ed775","ios":"levelo://app?vid=79fb3e40-d21e-419b-8ae6-ad77e23ed775"},"vehicle_type_id":"4","last_reported":1691003091,"current_range_meters":0,"station_id":"ce4bh492rcd13ifvqdug","pricing_plan_id":"free"},{"bike_id":"cbbff3fe-3c7f-43fc-ac51-cca5f39a0265","system_id":"levelo_inurba_marseille","lat":43.286595,"lon":5.386795,"is_reserved":false,"is_disabled":false,"rental_uris":{"android":"levelo://app?vid=cbbff3fe-3c7f-43fc-ac51-cca5f39a0265","ios":"levelo://app?vid=cbbff3fe-3c7f-43fc-ac51-cca5f39a0265"},"vehicle_type_id":"4","last_reported":1691003091,"current_range_meters":10800,"station_id":"ce4bh492rcd13ifvqdug","pricing_plan_id":"free"},{"bike_id":"4fcd4fdc-4c94-49a2-85f6-1e201fc17f8d","system_id":"levelo_inurba_marseille","lat":43.31883,"lon":5.40734,"is_reserved":false,"is_disabled":false,"rental_uris":{"android":"levelo://app?vid=4fcd4fdc-4c94-49a2-85f6-1e201fc17f8d","ios":"levelo://app?vid=4fcd4fdc-4c94-49a2-85f6-1e201fc17f8d"},"vehicle_type_id":"4","last_reported":1691003091,"current_range_meters":17600,"station_id":"ce4bhq12rcd13ifvqhig","pricing_plan_id":"free"},{"bike_id":"98db51aa-ea4b-4608-9d13-b33ac5b52a63","system_id":"levelo_inurba_marseille","lat":43.337168,"lon":5.391825,"is_reserved":false,"is_disabled":false,"rental_uris":{"android":"levelo://app?vid=98db51aa-ea4b-4608-9d13-b33ac5b52a63","ios":"levelo://app?vid=98db51aa-ea4b-4608-9d13-b33ac5b52a63"},"vehicle_type_id":"4","last_reported":1691003091,"current_range_meters":24000,"station_id":"ce4bhr92rcd13ifvqhsg","pricing_plan_id":"free"},{"bike_id":"d83dcb76-f857-457b-bb29-c61945756364","system_id":"levelo_inurba_marseille","lat":43.33714,"lon":5.39181,"is_reserved":false,"is_disabled":false,"rental_uris":{"android":"levelo://app?vid=d83dcb76-f857-457b-bb29-c61945756364","ios":"levelo://app?vid=d83dcb76-f857-457b-bb29-c61945756364"},"vehicle_type_id":"4","last_reported":1691003091,"current_range_meters":21600,"station_id":"ce4bhr92rcd13ifvqhsg","pricing_plan_id":"free"},{"bike_id":"939edbe6-adcc-4f97-ad69-99748df4073d","system_id":"levelo_inurba_marseille","lat":43.33721,"lon":5.3918,"is_reserved":false,"is_disabled":false,"rental_uris":{"android":"levelo://app?vid=939edbe6-adcc-4f97-ad69-99748df4073d","ios":"levelo://app?vid=939edbe6-adcc-4f97-ad69-99748df4073d"},"vehicle_type_id":"4","last_reported":1691003091,"current_range_meters":2000,"station_id":"ce4bhr92rcd13ifvqhsg","pricing_plan_id":"free"},{"bike_id":"3e563380-a985-451c-801d-2783d7714294","system_id":"levelo_inurba_marseille","lat":43.33724,"lon":5.39175,"is_reserved":false,"is_disabled":false,"rental_uris":{"android":"levelo://app?vid=3e563380-a985-451c-801d-2783d7714294","ios":"levelo://app?vid=3e563380-a985-451c-801d-2783d7714294"},"vehicle_type_id":"4","last_reported":1691003091,"current_range_meters":24800,"station_id":"ce4bhr92rcd13ifvqhsg","pricing_plan_id":"free"},{"bike_id":"1edc4038-106d-40e1-ab65-8597e6171a1b","system_id":"levelo_inurba_marseille","lat":43.33719,"lon":5.3919,"is_reserved":false,"is_disabled":false,"rental_uris":{"android":"levelo://app?vid=1edc4038-106d-40e1-ab65-8597e6171a1b","ios":"levelo://app?vid=1edc4038-106d-40e1-ab65-8597e6171a1b"},"vehicle_type_id":"4","last_reported":1691003091,"current_range_meters":21200,"station_id":"ce4bhr92rcd13ifvqhsg","pricing_plan_id":"free"},{"bike_id":"eaf6fc0f-47a5-4e38-b435-865f762e69f2","system_id":"levelo_inurba_marseille","lat":43.323464,"lon":5.406297,"is_reserved":false,"is_disabled":false,"rental_uris":{"android":"levelo://app?vid=eaf6fc0f-47a5-4e38-b435-865f762e69f2","ios":"levelo://app?vid=eaf6fc0f-47a5-4e38-b435-865f762e69f2"},"vehicle_type_id":"4","last_reported":1691003091,"current_range_meters":4000,"station_id":"ce4bhq92rcd13ifvqhjg","pricing_plan_id":"free"},{"bike_id":"40de583e-accb-4721-a8a6-7d230889501e","system_id":"levelo_inurba_marseille","lat":43.33727,"lon":5.39178,"is_reserved":false,"is_disabled":false,"rental_uris":{"android":"levelo://app?vid=40de583e-accb-4721-a8a6-7d230889501e","ios":"levelo://app?vid=40de583e-accb-4721-a8a6-7d230889501e"},"vehicle_type_id":"4","last_reported":1691003091,"current_range_meters":14000,"station_id":"ce4bhr92rcd13ifvqhsg","pricing_plan_id":"free"},{"bike_id":"9d8dc018-8295-487e-aae9-79ce0f469cdf","system_id":"levelo_inurba_marseille","lat":43.33717,"lon":5.391857,"is_reserved":false,"is_disabled":false,"rental_uris":{"android":"levelo://app?vid=9d8dc018-8295-487e-aae9-79ce0f469cdf","ios":"levelo://app?vid=9d8dc018-8295-487e-aae9-79ce0f469cdf"},"vehicle_type_id":"4","last_reported":1691003091,"current_range_meters":2000,"station_id":"ce4bhr92rcd13ifvqhsg","pricing_plan_id":"free"},{"bike_id":"e588aa9f-efc6-4277-9a49-060963d384e9","system_id":"levelo_inurba_marseille","lat":43.33728,"lon":5.39188,"is_reserved":false,"is_disabled":false,"rental_uris":{"android":"levelo://app?vid=e588aa9f-efc6-4277-9a49-060963d384e9","ios":"levelo://app?vid=e588aa9f-efc6-4277-9a49-060963d384e9"},"vehicle_type_id":"4","last_reported":1691003091,"current_range_meters":6000,"station_id":"ce4bhr92rcd13ifvqhsg","pricing_plan_id":"free"},{"bike_id":"c5b5292c-61ef-4abb-8b45-5548f98073cf","system_id":"levelo_inurba_marseille","lat":43.323464,"lon":5.406297,"is_reserved":false,"is_disabled":false,"rental_uris":{"android":"levelo://app?vid=c5b5292c-61ef-4abb-8b45-5548f98073cf","ios":"levelo://app?vid=c5b5292c-61ef-4abb-8b45-5548f98073cf"},"vehicle_type_id":"4","last_reported":1691003091,"current_range_meters":23600,"station_id":"ce4bhq92rcd13ifvqhjg","pricing_plan_id":"free"},{"bike_id":"33b40514-c8e4-4e87-b26f-78a0a846d0ff","system_id":"levelo_inurba_marseille","lat":43.284793,"lon":5.384113,"is_reserved":false,"is_disabled":false,"rental_uris":{"android":"levelo://app?vid=33b40514-c8e4-4e87-b26f-78a0a846d0ff","ios":"levelo://app?vid=33b40514-c8e4-4e87-b26f-78a0a846d0ff"},"vehicle_type_id":"4","last_reported":1691003091,"current_range_meters":2000,"station_id":"ce4bh512rcd13ifvqe3g","pricing_plan_id":"free"},{"bike_id":"f73fd59f-4388-40d2-8a91-07a4643bfaef","system_id":"levelo_inurba_marseille","lat":43.284787,"lon":5.384116,"is_reserved":false,"is_disabled":false,"rental_uris":{"android":"levelo://app?vid=f73fd59f-4388-40d2-8a91-07a4643bfaef","ios":"levelo://app?vid=f73fd59f-4388-40d2-8a91-07a4643bfaef"},"vehicle_type_id":"4","last_reported":1691003091,"current_range_meters":15600,"station_id":"ce4bh512rcd13ifvqe3g","pricing_plan_id":"free"},{"bike_id":"dbada9f9-e33c-4a7d-ab43-1cac4e571e70","system_id":"levelo_inurba_marseille","lat":43.284787,"lon":5.384116,"is_reserved":false,"is_disabled":false,"rental_uris":{"android":"levelo://app?vid=dbada9f9-e33c-4a7d-ab43-1cac4e571e70","ios":"levelo://app?vid=dbada9f9-e33c-4a7d-ab43-1cac4e571e70"},"vehicle_type_id":"4","last_reported":1691003091,"current_range_meters":30000,"station_id":"ce4bh512rcd13ifvqe3g","pricing_plan_id":"free"},{"bike_id":"041d507f-31a1-4569-ab14-78e4e0badfd5","system_id":"levelo_inurba_marseille","lat":43.284793,"lon":5.384119,"is_reserved":false,"is_disabled":false,"rental_uris":{"android":"levelo://app?vid=041d507f-31a1-4569-ab14-78e4e0badfd5","ios":"levelo://app?vid=041d507f-31a1-4569-ab14-78e4e0badfd5"},"vehicle_type_id":"4","last_reported":1691003091,"current_range_meters":5600,"station_id":"ce4bh512rcd13ifvqe3g","pricing_plan_id":"free"},{"bike_id":"f168533a-2bcd-47b4-a3db-f8476490549a","system_id":"levelo_inurba_marseille","lat":43.288497,"lon":5.393089,"is_reserved":false,"is_disabled":false,"rental_uris":{"android":"levelo://app?vid=f168533a-2bcd-47b4-a3db-f8476490549a","ios":"levelo://app?vid=f168533a-2bcd-47b4-a3db-f8476490549a"},"vehicle_type_id":"4","last_reported":1691003091,"current_range_meters":14000,"station_id":"ce4bh2p2rcd13ifvqdi0","pricing_plan_id":"free"},{"bike_id":"8c774530-76a7-40c8-bac7-12ae69f5bc35","system_id":"levelo_inurba_marseille","lat":43.288497,"lon":5.393089,"is_reserved":false,"is_disabled":false,"rental_uris":{"android":"levelo://app?vid=8c774530-76a7-40c8-bac7-12ae69f5bc35","ios":"levelo://app?vid=8c774530-76a7-40c8-bac7-12ae69f5bc35"},"vehicle_type_id":"4","last_reported":1691003091,"current_range_meters":15200,"station_id":"ce4bh2p2rcd13ifvqdi0","pricing_plan_id":"free"},{"bike_id":"f8a824d8-142a-4fba-be4c-4e27634a157e","system_id":"levelo_inurba_marseille","lat":43.288501,"lon":5.393087,"is_reserved":false,"is_disabled":false,"rental_uris":{"android":"levelo://app?vid=f8a824d8-142a-4fba-be4c-4e27634a157e","ios":"levelo://app?vid=f8a824d8-142a-4fba-be4c-4e27634a157e"},"vehicle_type_id":"4","last_reported":1691003091,"current_range_meters":14800,"station_id":"ce4bh2p2rcd13ifvqdi0","pricing_plan_id":"free"},{"bike_id":"f7f5768e-b80f-4da0-8864-86696a8877fb","system_id":"levelo_inurba_marseille","lat":43.32456,"lon":5.40727,"is_reserved":false,"is_disabled":false,"rental_uris":{"android":"levelo://app?vid=f7f5768e-b80f-4da0-8864-86696a8877fb","ios":"levelo://app?vid=f7f5768e-b80f-4da0-8864-86696a8877fb"},"vehicle_type_id":"4","last_reported":1691003091,"current_range_meters":3200,"station_id":"","pricing_plan_id":"free"},{"bike_id":"c87c818d-3dfd-4d93-84fb-16ddde33ebb6","system_id":"levelo_inurba_marseille","lat":43.28039,"lon":5.369297,"is_reserved":false,"is_disabled":false,"rental_uris":{"android":"levelo://app?vid=c87c818d-3dfd-4d93-84fb-16ddde33ebb6","ios":"levelo://app?vid=c87c818d-3dfd-4d93-84fb-16ddde33ebb6"},"vehicle_type_id":"4","last_reported":1691003091,"current_range_meters":28400,"station_id":"ce4bha12rcd13ifvqef0","pricing_plan_id":"free"},{"bike_id":"20d0b1bc-173c-41ce-910f-1b3fe97a3fde","system_id":"levelo_inurba_marseille","lat":43.283502,"lon":5.386471,"is_reserved":false,"is_disabled":false,"rental_uris":{"android":"levelo://app?vid=20d0b1bc-173c-41ce-910f-1b3fe97a3fde","ios":"levelo://app?vid=20d0b1bc-173c-41ce-910f-1b3fe97a3fde"},"vehicle_type_id":"4","last_reported":1691003091,"current_range_meters":16800,"station_id":"ce4bh492rcd13ifvqdvg","pricing_plan_id":"free"},{"bike_id":"8b145d43-7ec1-4ea5-a061-d2b1ca5224aa","system_id":"levelo_inurba_marseille","lat":43.28039,"lon":5.369297,"is_reserved":false,"is_disabled":false,"rental_uris":{"android":"levelo://app?vid=8b145d43-7ec1-4ea5-a061-d2b1ca5224aa","ios":"levelo://app?vid=8b145d43-7ec1-4ea5-a061-d2b1ca5224aa"},"vehicle_type_id":"4","last_reported":1691003091,"current_range_meters":31200,"station_id":"ce4bha12rcd13ifvqef0","pricing_plan_id":"free"},{"bike_id":"75ee34d1-9246-4506-a437-03f4ec559bef","system_id":"levelo_inurba_marseille","lat":43.28039,"lon":5.369297,"is_reserved":false,"is_disabled":false,"rental_uris":{"android":"levelo://app?vid=75ee34d1-9246-4506-a437-03f4ec559bef","ios":"levelo://app?vid=75ee34d1-9246-4506-a437-03f4ec559bef"},"vehicle_type_id":"4","last_reported":1691003091,"current_range_meters":12000,"station_id":"ce4bha12rcd13ifvqef0","pricing_plan_id":"free"},{"bike_id":"d1ff6b7c-0889-4b05-a0d9-6be403661e47","system_id":"levelo_inurba_marseille","lat":43.280382,"lon":5.369291,"is_reserved":false,"is_disabled":false,"rental_uris":{"android":"levelo://app?vid=d1ff6b7c-0889-4b05-a0d9-6be403661e47","ios":"levelo://app?vid=d1ff6b7c-0889-4b05-a0d9-6be403661e47"},"vehicle_type_id":"4","last_reported":1691003091,"current_range_meters":10000,"station_id":"ce4bha12rcd13ifvqef0","pricing_plan_id":"free"},{"bike_id":"ebd1fa41-e87e-444b-840b-9765cfeba830","system_id":"levelo_inurba_marseille","lat":43.280382,"lon":5.369291,"is_reserved":false,"is_disabled":false,"rental_uris":{"android":"levelo://app?vid=ebd1fa41-e87e-444b-840b-9765cfeba830","ios":"levelo://app?vid=ebd1fa41-e87e-444b-840b-9765cfeba830"},"vehicle_type_id":"4","last_reported":1691003091,"current_range_meters":19600,"station_id":"ce4bha12rcd13ifvqef0","pricing_plan_id":"free"},{"bike_id":"918791f7-707d-4a93-9ece-90acdbf507f5","system_id":"levelo_inurba_marseille","lat":43.28039,"lon":5.369297,"is_reserved":false,"is_disabled":false,"rental_uris":{"android":"levelo://app?vid=918791f7-707d-4a93-9ece-90acdbf507f5","ios":"levelo://app?vid=918791f7-707d-4a93-9ece-90acdbf507f5"},"vehicle_type_id":"4","last_reported":1691003091,"current_range_meters":19600,"station_id":"ce4bha12rcd13ifvqef0","pricing_plan_id":"free"},{"bike_id":"1b3b276c-c136-494b-9a2e-01bde96e8b37","system_id":"levelo_inurba_marseille","lat":43.280382,"lon":5.369291,"is_reserved":false,"is_disabled":false,"rental_uris":{"android":"levelo://app?vid=1b3b276c-c136-494b-9a2e-01bde96e8b37","ios":"levelo://app?vid=1b3b276c-c136-494b-9a2e-01bde96e8b37"},"vehicle_type_id":"4","last_reported":1691003091,"current_range_meters":14000,"station_id":"ce4bha12rcd13ifvqef0","pricing_plan_id":"free"},{"bike_id":"c67fd003-011a-42e2-85f2-2714de5997e4","system_id":"levelo_inurba_marseille","lat":43.32502,"lon":5.40824,"is_reserved":false,"is_disabled":false,"rental_uris":{"android":"levelo://app?vid=c67fd003-011a-42e2-85f2-2714de5997e4","ios":"levelo://app?vid=c67fd003-011a-42e2-85f2-2714de5997e4"},"vehicle_type_id":"4","last_reported":1691003091,"current_range_meters":0,"station_id":"","pricing_plan_id":"free"},{"bike_id":"27ba3c99-ddaa-402a-8929-bc774880341b","system_id":"levelo_inurba_marseille","lat":43.28109,"lon":5.37844,"is_reserved":false,"is_disabled":false,"rental_uris":{"android":"levelo://app?vid=27ba3c99-ddaa-402a-8929-bc774880341b","ios":"levelo://app?vid=27ba3c99-ddaa-402a-8929-bc774880341b"},"vehicle_type_id":"4","last_reported":1691003091,"current_range_meters":25600,"station_id":"ce4bha12rcd13ifvqee0","pricing_plan_id":"free"},{"bike_id":"4a5a6e11-b11d-4571-9bc3-9c02664f936f","system_id":"levelo_inurba_marseille","lat":43.281044,"lon":5.378308,"is_reserved":false,"is_disabled":false,"rental_uris":{"android":"levelo://app?vid=4a5a6e11-b11d-4571-9bc3-9c02664f936f","ios":"levelo://app?vid=4a5a6e11-b11d-4571-9bc3-9c02664f936f"},"vehicle_type_id":"4","last_reported":1691003091,"current_range_meters":13600,"station_id":"ce4bha12rcd13ifvqee0","pricing_plan_id":"free"},{"bike_id":"7a23b749-97fa-4ba2-980b-f8f628cb3189","system_id":"levelo_inurba_marseille","lat":43.28104,"lon":5.37829,"is_reserved":false,"is_disabled":false,"rental_uris":{"android":"levelo://app?vid=7a23b749-97fa-4ba2-980b-f8f628cb3189","ios":"levelo://app?vid=7a23b749-97fa-4ba2-980b-f8f628cb3189"},"vehicle_type_id":"4","last_reported":1691003091,"current_range_meters":26400,"station_id":"ce4bha12rcd13ifvqee0","pricing_plan_id":"free"},{"bike_id":"11a4b84f-7d08-4594-8b3d-abae2c87a30c","system_id":"levelo_inurba_marseille","lat":43.296263,"lon":5.40601,"is_reserved":false,"is_disabled":false,"rental_uris":{"android":"levelo://app?vid=11a4b84f-7d08-4594-8b3d-abae2c87a30c","ios":"levelo://app?vid=11a4b84f-7d08-4594-8b3d-abae2c87a30c"},"vehicle_type_id":"4","last_reported":1691003091,"current_range_meters":6000,"station_id":"ce4bh0h2rcd13ifvqd60","pricing_plan_id":"free"},{"bike_id":"c39cc22c-f2a8-4668-b895-f2c26f0567a2","system_id":"levelo_inurba_marseille","lat":43.28105,"lon":5.37837,"is_reserved":false,"is_disabled":false,"rental_uris":{"android":"levelo://app?vid=c39cc22c-f2a8-4668-b895-f2c26f0567a2","ios":"levelo://app?vid=c39cc22c-f2a8-4668-b895-f2c26f0567a2"},