{"last_updated":1724083831,"ttl":30,"version":"2.2","data":{"bikes":[{"bike_id":"b2cc8b46-0fc1-4533-9364-6e868e5df7dd","system_id":"levelo_inurba_marseille","lat":43.312239,"lon":5.368562,"is_reserved":false,"is_disabled":false,"rental_uris":{"android":"levelo://app?vid=b2cc8b46-0fc1-4533-9364-6e868e5df7dd","ios":"levelo://app?vid=b2cc8b46-0fc1-4533-9364-6e868e5df7dd"},"vehicle_type_id":"4","last_reported":1724083832,"current_range_meters":1600,"station_id":"ce4bgl92rcd13ifvqbq0","pricing_plan_id":"cebpf4jnsgd1na2vs0mg"},{"bike_id":"f294b8ce-de66-4cc1-a059-e25d8ce8ae57","system_id":"levelo_inurba_marseille","lat":43.309076,"lon":5.368465,"is_reserved":false,"is_disabled":false,"rental_uris":{"android":"levelo://app?vid=f294b8ce-de66-4cc1-a059-e25d8ce8ae57","ios":"levelo://app?vid=f294b8ce-de66-4cc1-a059-e25d8ce8ae57"},"vehicle_type_id":"4","last_reported":1724083832,"current_range_meters":0,"station_id":"ce4bgn92rcd13ifvqbvg","pricing_plan_id":"cebpf4jnsgd1na2vs0mg"},{"bike_id":"e11fc206-d827-472d-a198-ab584d95fc90","system_id":"levelo_inurba_marseille","lat":43.31499,"lon":5.37299,"is_reserved":false,"is_disabled":false,"rental_uris":{"android":"levelo://app?vid=e11fc206-d827-472d-a198-ab584d95fc90","ios":"levelo://app?vid=e11fc206-d827-472d-a198-ab584d95fc90"},"vehicle_type_id":"4","last_reported":1724083832,"current_range_meters":0,"station_id":"ce4bgt12rcd13ifvqcd0","pricing_plan_id":"cebpf4jnsgd1na2vs0mg"},{"bike_id":"aba20d67-f311-45f8-a8cb-6c140cc578ee","system_id":"levelo_inurba_marseille","lat":43.309039,"lon":5.371797,"is_reserved":false,"is_disabled":false,"rental_uris":{"android":"levelo://app?vid=aba20d67-f311-45f8-a8cb-6c140cc578ee","ios":"levelo://app?vid=aba20d67-f311-45f8-a8cb-6c140cc578ee"},"vehicle_type_id":"4","last_reported":1724083832,"current_range_meters":0,"station_id":"ce4bguh2rcd13ifvqckg","pricing_plan_id":"cebpf4jnsgd1na2vs0mg"},{"bike_id":"7b9ee7e8-5abe-4ae5-a03b-760beb6ef082","system_id":"levelo_inurba_marseille","lat":43.314576,"lon":5.373786,"is_reserved":false,"is_disabled":false,"rental_uris":{"android":"levelo://app?vid=7b9ee7e8-5abe-4ae5-a03b-760beb6ef082","ios":"levelo://app?vid=7b9ee7e8-5abe-4ae5-a03b-760beb6ef082"},"vehicle_type_id":"4","last_reported":1724083832,"current_range_meters":2400,"station_id":"","pricing_plan_id":"cebpf4jnsgd1na2vs0mg"},{"bike_id":"3570c08c-6b7c-4e4e-b76d-c453e3ed736b","system_id":"levelo_inurba_marseille","lat":43.311125,"lon":5.377624,"is_reserved":false,"is_disabled":false,"rental_uris":{"android":"levelo://app?vid=3570c08c-6b7c-4e4e-b76d-c453e3ed736b","ios":"levelo://app?vid=3570c08c-6b7c-4e4e-b76d-c453e3ed736b"},"vehicle_type_id":"4","last_reported":1724083832,"current_range_meters":800,"station_id":"ce4bgt92rcd13ifvqcg0","pricing_plan_id":"cebpf4jnsgd1na2vs0mg"},{"bike_id":"a012641f-0463-46c5-8f66-5ebf883cfc97","system_id":"levelo_inurba_marseille","lat":43.307945,"lon":5.376487,"is_reserved":false,"is_disabled":false,"rental_uris":{"android":"levelo://app?vid=a012641f-0463-46c5-8f66-5ebf883cfc97","ios":"levelo://app?vid=a012641f-0463-46c5-8f66-5ebf883cfc97"},"vehicle_type_id":"4","last_reported":1724083832,"current_range_meters":2800,"station_id":"ce4bgv92rcd13ifvqcq0","pricing_plan_id":"cebpf4jnsgd1na2vs0mg"},{"bike_id":"246a335a-3abc-45f3-9ab4-b5a2e9501c22","system_id":"levelo_inurba_marseille","lat":43.296921,"lon":5.376579,"is_reserved":false,"is_disabled":false,"rental_uris":{"android":"levelo://app?vid=246a335a-3abc-45f3-9ab4-b5a2e9501c22","ios":"levelo://app?vid=246a335a-3abc-45f3-9ab4-b5a2e9501c22"},"vehicle_type_id":"4","last_reported":1724083832,"current_range_meters":9600,"station_id":"ce4bgkh2rcd13ifvqbl0","pricing_plan_id":"cebpf4jnsgd1na2vs0mg"},{"bike_id":"cb490b10-c1a8-4de2-8a01-831078cbae4f","system_id":"levelo_inurba_marseille","lat":43.301939,"lon":5.366286,"is_reserved":false,"is_disabled":false,"rental_uris":{"android":"levelo://app?vid=cb490b10-c1a8-4de2-8a01-831078cbae4f","ios":"levelo://app?vid=cb490b10-c1a8-4de2-8a01-831078cbae4f"},"vehicle_type_id":"4","last_reported":1724083832,"current_range_meters":0,"station_id":"ce4bgrh2rcd13ifvqc8g","pricing_plan_id":"cebpf4jnsgd1na2vs0mg"},{"bike_id":"545c8e51-e822-4604-941b-6bffe9358360","system_id":"levelo_inurba_marseille","lat":43.30929,"lon":5.37891,"is_reserved":false,"is_disabled":false,"rental_uris":{"android":"levelo://app?vid=545c8e51-e822-4604-941b-6bffe9358360","ios":"levelo://app?vid=545c8e51-e822-4604-941b-6bffe9358360"},"vehicle_type_id":"4","last_reported":1724083832,"current_range_meters":15200,"station_id":"","pricing_plan_id":"cebpf4jnsgd1na2vs0mg"},{"bike_id":"59f7c551-b7f5-4215-8083-d61ee98d6c86","system_id":"levelo_inurba_marseille","lat":43.31546,"lon":5.3802,"is_reserved":false,"is_disabled":false,"rental_uris":{"android":"levelo://app?vid=59f7c551-b7f5-4215-8083-d61ee98d6c86","ios":"levelo://app?vid=59f7c551-b7f5-4215-8083-d61ee98d6c86"},"vehicle_type_id":"4","last_reported":1724083832,"current_range_meters":6800,"station_id":"ce4bhsp2rcd13ifvqi50","pricing_plan_id":"cebpf4jnsgd1na2vs0mg"},{"bike_id":"d7e75515-13be-42b2-86d1-6846a874e5fa","system_id":"levelo_inurba_marseille","lat":43.301939,"lon":5.366286,"is_reserved":false,"is_disabled":false,"rental_uris":{"android":"levelo://app?vid=d7e75515-13be-42b2-86d1-6846a874e5fa","ios":"levelo://app?vid=d7e75515-13be-42b2-86d1-6846a874e5fa"},"vehicle_type_id":"4","last_reported":1724083832,"current_range_meters":18800,"station_id":"ce4bgrh2rcd13ifvqc8g","pricing_plan_id":"cebpf4jnsgd1na2vs0mg"},{"bike_id":"7d6df19f-981a-4a14-b583-0633972fbbd0","system_id":"levelo_inurba_marseille","lat":43.324771,"lon":5.36557,"is_reserved":false,"is_disabled":false,"rental_uris":{"android":"levelo://app?vid=7d6df19f-981a-4a14-b583-0633972fbbd0","ios":"levelo://app?vid=7d6df19f-981a-4a14-b583-0633972fbbd0"},"vehicle_type_id":"4","last_reported":1724083832,"current_range_meters":31200,"station_id":"ce4bhs12rcd13ifvqhvg","pricing_plan_id":"cebpf4jnsgd1na2vs0mg"},{"bike_id":"dc18ef80-7b17-4500-950b-a5b475701f80","system_id":"levelo_inurba_marseille","lat":43.324771,"lon":5.36557,"is_reserved":false,"is_disabled":false,"rental_uris":{"android":"levelo://app?vid=dc18ef80-7b17-4500-950b-a5b475701f80","ios":"levelo://app?vid=dc18ef80-7b17-4500-950b-a5b475701f80"},"vehicle_type_id":"4","last_reported":1724083832,"current_range_meters":12000,"station_id":"ce4bhs12rcd13ifvqhvg","pricing_plan_id":"cebpf4jnsgd1na2vs0mg"},{"bike_id":"f3cecce2-6278-4047-a7b5-8bb3a3e1ccf3","system_id":"levelo_inurba_marseille","lat":43.324771,"lon":5.36557,"is_reserved":false,"is_disabled":false,"rental_uris":{"android":"levelo://app?vid=f3cecce2-6278-4047-a7b5-8bb3a3e1ccf3","ios":"levelo://app?vid=f3cecce2-6278-4047-a7b5-8bb3a3e1ccf3"},"vehicle_type_id":"4","last_reported":1724083832,"current_range_meters":31600,"station_id":"ce4bhs12rcd13ifvqhvg","pricing_plan_id":"cebpf4jnsgd1na2vs0mg"},{"bike_id":"e3320ad1-80fc-4357-8088-3385ae06d232","system_id":"levelo_inurba_marseille","lat":43.324771,"lon":5.36557,"is_reserved":false,"is_disabled":false,"rental_uris":{"android":"levelo://app?vid=e3320ad1-80fc-4357-8088-3385ae06d232","ios":"levelo://app?vid=e3320ad1-80fc-4357-8088-3385ae06d232"},"vehicle_type_id":"4","last_reported":1724083832,"current_range_meters":31200,"station_id":"ce4bhs12rcd13ifvqhvg","pricing_plan_id":"cebpf4jnsgd1na2vs0mg"},{"bike_id":"13c661e1-fcc2-48bc-95f3-582ad174802e","system_id":"levelo_inurba_marseille","lat":43.32483,"lon":5.36569,"is_reserved":false,"is_disabled":false,"rental_uris":{"android":"levelo://app?vid=13c661e1-fcc2-48bc-95f3-582ad174802e","ios":"levelo://app?vid=13c661e1-fcc2-48bc-95f3-582ad174802e"},"vehicle_type_id":"4","last_reported":1724083832,"current_range_meters":15200,"station_id":"ce4bhs12rcd13ifvqhvg","pricing_plan_id":"cebpf4jnsgd1na2vs0mg"},{"bike_id":"cced093b-a673-4626-b160-7ff1d8debb20","system_id":"levelo_inurba_marseille","lat":43.324771,"lon":5.36557,"is_reserved":false,"is_disabled":false,"rental_uris":{"android":"levelo://app?vid=cced093b-a673-4626-b160-7ff1d8debb20","ios":"levelo://app?vid=cced093b-a673-4626-b160-7ff1d8debb20"},"vehicle_type_id":"4","last_reported":1724083832,"current_range_meters":13600,"station_id":"ce4bhs12rcd13ifvqhvg","pricing_plan_id":"cebpf4jnsgd1na2vs0mg"},{"bike_id":"37cf23ff-c337-43b0-abb7-46373bdb32ad","system_id":"levelo_inurba_marseille","lat":43.32485,"lon":5.3656,"is_reserved":false,"is_disabled":false,"rental_uris":{"android":"levelo://app?vid=37cf23ff-c337-43b0-abb7-46373bdb32ad","ios":"levelo://app?vid=37cf23ff-c337-43b0-abb7-46373bdb32ad"},"vehicle_type_id":"4","last_reported":1724083832,"current_range_meters":4000,"station_id":"ce4bhs12rcd13ifvqhvg","pricing_plan_id":"cebpf4jnsgd1na2vs0mg"},{"bike_id":"47fddce7-e112-4bcd-90a1-bbc8058afde4","system_id":"levelo_inurba_marseille","lat":43.324771,"lon":5.36557,"is_reserved":false,"is_disabled":false,"rental_uris":{"android":"levelo://app?vid=47fddce7-e112-4bcd-90a1-bbc8058afde4","ios":"levelo://app?vid=47fddce7-e112-4bcd-90a1-bbc8058afde4"},"vehicle_type_id":"4","last_reported":1724083832,"current_range_meters":28800,"station_id":"ce4bhs12rcd13ifvqhvg","pricing_plan_id":"cebpf4jnsgd1na2vs0mg"},{"bike_id":"006d918b-d366-4358-bcb1-321285afa275","system_id":"levelo_inurba_marseille","lat":43.324864,"lon":5.365644,"is_reserved":false,"is_disabled":false,"rental_uris":{"android":"levelo://app?vid=006d918b-d366-4358-bcb1-321285afa275","ios":"levelo://app?vid=006d918b-d366-4358-bcb1-321285afa275"},"vehicle_type_id":"4","last_reported":1724083832,"current_range_meters":8000,"station_id":"ce4bhs12rcd13ifvqhvg","pricing_plan_id":"cebpf4jnsgd1na2vs0mg"},{"bike_id":"24cb5cef-ed2d-4242-b19a-10161e815d19","system_id":"levelo_inurba_marseille","lat":43.32491,"lon":5.36562,"is_reserved":false,"is_disabled":false,"rental_uris":{"android":"levelo://app?vid=24cb5cef-ed2d-4242-b19a-10161e815d19","ios":"levelo://app?vid=24cb5cef-ed2d-4242-b19a-10161e815d19"},"vehicle_type_id":"4","last_reported":1724083832,"current_range_meters":14800,"station_id":"ce4bhs12rcd13ifvqhvg","pricing_plan_id":"cebpf4jnsgd1na2vs0mg"},{"bike_id":"a901e684-2511-4030-ba9f-4605e1ac1156","system_id":"levelo_inurba_marseille","lat":43.301429,"lon":5.37413,"is_reserved":false,"is_disabled":false,"rental_uris":{"android":"levelo://app?vid=a901e684-2511-4030-ba9f-4605e1ac1156","ios":"levelo://app?vid=a901e684-2511-4030-ba9f-4605e1ac1156"},"vehicle_type_id":"4","last_reported":1724083832,"current_range_meters":31200,"station_id":"ce4bgs92rcd13ifvqcc0","pricing_plan_id":"cebpf4jnsgd1na2vs0mg"},{"bike_id":"874e50ba-aa3e-48b7-b610-3263f4ab3eaa","system_id":"levelo_inurba_marseille","lat":43.30586,"lon":5.3816,"is_reserved":false,"is_disabled":false,"rental_uris":{"android":"levelo://app?vid=874e50ba-aa3e-48b7-b610-3263f4ab3eaa","ios":"levelo://app?vid=874e50ba-aa3e-48b7-b610-3263f4ab3eaa"},"vehicle_type_id":"4","last_reported":1724083832,"current_range_meters":22400,"station_id":"","pricing_plan_id":"cebpf4jnsgd1na2vs0mg"},{"bike_id":"a1798685-55dd-4e8f-aca9-88a3dcd21e71","system_id":"levelo_inurba_marseille","lat":43.29937,"lon":5.36545,"is_reserved":false,"is_disabled":false,"rental_uris":{"android":"levelo://app?vid=a1798685-55dd-4e8f-aca9-88a3dcd21e71","ios":"levelo://app?vid=a1798685-55dd-4e8f-aca9-88a3dcd21e71"},"vehicle_type_id":"4","last_reported":1724083832,"current_range_meters":1600,"station_id":"ce4bgm92rcd13ifvqbr0","pricing_plan_id":"cebpf4jnsgd1na2vs0mg"},{"bike_id":"497016d7-cec6-42c0-b62c-1c86840224cd","system_id":"levelo_inurba_marseille","lat":43.305364,"lon":5.384119,"is_reserved":false,"is_disabled":false,"rental_uris":{"android":"levelo://app?vid=497016d7-cec6-42c0-b62c-1c86840224cd","ios":"levelo://app?vid=497016d7-cec6-42c0-b62c-1c86840224cd"},"vehicle_type_id":"4","last_reported":1724083832,"current_range_meters":0,"station_id":"ce4bgg92rcd13ifvqb30","pricing_plan_id":"cebpf4jnsgd1na2vs0mg"},{"bike_id":"d29c10e3-71eb-491f-b877-efbd1535f376","system_id":"levelo_inurba_marseille","lat":43.299243,"lon":5.37481,"is_reserved":false,"is_disabled":false,"rental_uris":{"android":"levelo://app?vid=d29c10e3-71eb-491f-b877-efbd1535f376","ios":"levelo://app?vid=d29c10e3-71eb-491f-b877-efbd1535f376"},"vehicle_type_id":"4","last_reported":1724083832,"current_range_meters":0,"station_id":"ce4bgjh2rcd13ifvqbg0","pricing_plan_id":"cebpf4jnsgd1na2vs0mg"},{"bike_id":"dd02fc68-3e9d-4a47-adf8-776f27df586f","system_id":"levelo_inurba_marseille","lat":43.301417,"lon":5.3809,"is_reserved":false,"is_disabled":false,"rental_uris":{"android":"levelo://app?vid=dd02fc68-3e9d-4a47-adf8-776f27df586f","ios":"levelo://app?vid=dd02fc68-3e9d-4a47-adf8-776f27df586f"},"vehicle_type_id":"4","last_reported":1724083832,"current_range_meters":16800,"station_id":"ce4bgjp2rcd13ifvqbh0","pricing_plan_id":"cebpf4jnsgd1na2vs0mg"},{"bike_id":"a5efc095-a7bf-48c5-8f20-462ab676e39d","system_id":"levelo_inurba_marseille","lat":43.297794,"lon":5.370888,"is_reserved":false,"is_disabled":false,"rental_uris":{"android":"levelo://app?vid=a5efc095-a7bf-48c5-8f20-462ab676e39d","ios":"levelo://app?vid=a5efc095-a7bf-48c5-8f20-462ab676e39d"},"vehicle_type_id":"4","last_reported":1724083832,"current_range_meters":0,"station_id":"ce4bgop2rcd13ifvqc1g","pricing_plan_id":"cebpf4jnsgd1na2vs0mg"},{"bike_id":"eba71373-8e65-472d-9cb3-42afd9b07409","system_id":"levelo_inurba_marseille","lat":43.301417,"lon":5.3809,"is_reserved":false,"is_disabled":false,"rental_uris":{"android":"levelo://app?vid=eba71373-8e65-472d-9cb3-42afd9b07409","ios":"levelo://app?vid=eba71373-8e65-472d-9cb3-42afd9b07409"},"vehicle_type_id":"4","last_reported":1724083832,"current_range_meters":0,"station_id":"ce4bgjp2rcd13ifvqbh0","pricing_plan_id":"cebpf4jnsgd1na2vs0mg"},{"bike_id":"e336f2dc-080b-464c-b555-dde97c92f3dc","system_id":"levelo_inurba_marseille","lat":43.301417,"lon":5.3809,"is_reserved":false,"is_disabled":false,"rental_uris":{"android":"levelo://app?vid=e336f2dc-080b-464c-b555-dde97c92f3dc","ios":"levelo://app?vid=e336f2dc-080b-464c-b555-dde97c92f3dc"},"vehicle_type_id":"4","last_reported":1724083832,"current_range_meters":18000,"station_id":"ce4bgjp2rcd13ifvqbh0","pricing_plan_id":"cebpf4jnsgd1na2vs0mg"},{"bike_id":"f288ccee-c168-4b1b-95e1-32673ad0b1ef","system_id":"levelo_inurba_marseille","lat":43.301417,"lon":5.3809,"is_reserved":false,"is_disabled":false,"rental_uris":{"android":"levelo://app?vid=f288ccee-c168-4b1b-95e1-32673ad0b1ef","ios":"levelo://app?vid=f288ccee-c168-4b1b-95e1-32673ad0b1ef"},"vehicle_type_id":"4","last_reported":1724083832,"current_range_meters":2800,"station_id":"ce4bgjp2rcd13ifvqbh0","pricing_plan_id":"cebpf4jnsgd1na2vs0mg"},{"bike_id":"f5756eed-ea1c-4ab7-b4f2-8ac9473fed35","system_id":"levelo_inurba_marseille","lat":43.3229,"lon":5.38256,"is_reserved":false,"is_disabled":false,"rental_uris":{"android":"levelo://app?vid=f5756eed-ea1c-4ab7-b4f2-8ac9473fed35","ios":"levelo://app?vid=f5756eed-ea1c-4ab7-b4f2-8ac9473fed35"},"vehicle_type_id":"4","last_reported":1724083832,"current_range_meters":26800,"station_id":"ce4bhr12rcd13ifvqhqg","pricing_plan_id":"cebpf4jnsgd1na2vs0mg"},{"bike_id":"53953694-c47a-4436-bd04-d3624fae809f","system_id":"levelo_inurba_marseille","lat":43.297163,"lon":5.365866,"is_reserved":false,"is_disabled":false,"rental_uris":{"android":"levelo://app?vid=53953694-c47a-4436-bd04-d3624fae809f","ios":"levelo://app?vid=53953694-c47a-4436-bd04-d3624fae809f"},"vehicle_type_id":"4","last_reported":1724083832,"current_range_meters":20000,"station_id":"ce4bgn12rcd13ifvqbt0","pricing_plan_id":"cebpf4jnsgd1na2vs0mg"},{"bike_id":"a6c6fe33-9371-4d5e-a515-c0d05690764f","system_id":"levelo_inurba_marseille","lat":43.29717,"lon":5.36614,"is_reserved":false,"is_disabled":false,"rental_uris":{"android":"levelo://app?vid=a6c6fe33-9371-4d5e-a515-c0d05690764f","ios":"levelo://app?vid=a6c6fe33-9371-4d5e-a515-c0d05690764f"},"vehicle_type_id":"4","last_reported":1724083832,"current_range_meters":6400,"station_id":"ce4bgn12rcd13ifvqbt0","pricing_plan_id":"cebpf4jnsgd1na2vs0mg"},{"bike_id":"4cdb609e-699d-4d39-b4c8-d2a028101125","system_id":"levelo_inurba_marseille","lat":43.29721,"lon":5.3688,"is_reserved":false,"is_disabled":false,"rental_uris":{"android":"levelo://app?vid=4cdb609e-699d-4d39-b4c8-d2a028101125","ios":"levelo://app?vid=4cdb609e-699d-4d39-b4c8-d2a028101125"},"vehicle_type_id":"4","last_reported":1724083832,"current_range_meters":0,"station_id":"","pricing_plan_id":"cebpf4jnsgd1na2vs0mg"},{"bike_id":"43eb5918-a7d1-4528-b5af-c3f7fdd8ef84","system_id":"levelo_inurba_marseille","lat":43.297163,"lon":5.365866,"is_reserved":false,"is_disabled":false,"rental_uris":{"android":"levelo://app?vid=43eb5918-a7d1-4528-b5af-c3f7fdd8ef84","ios":"levelo://app?vid=43eb5918-a7d1-4528-b5af-c3f7fdd8ef84"},"vehicle_type_id":"4","last_reported":1724083832,"current_range_meters":30800,"station_id":"ce4bgn12rcd13ifvqbt0","pricing_plan_id":"cebpf4jnsgd1na2vs0mg"},{"bike_id":"48252763-9303-4050-befc-82c53378535c","system_id":"levelo_inurba_marseille","lat":43.315,"lon":5.38869,"is_reserved":false,"is_disabled":false,"rental_uris":{"android":"levelo://app?vid=48252763-9303-4050-befc-82c53378535c","ios":"levelo://app?vid=48252763-9303-4050-befc-82c53378535c"},"vehicle_type_id":"4","last_reported":1724083832,"current_range_meters":8400,"station_id":"","pricing_plan_id":"cebpf4jnsgd1na2vs0mg"},{"bike_id":"0607eea2-c1a9-4ecd-a155-e726e0bfd42f","system_id":"levelo_inurba_marseille","lat":43.29573,"lon":5.367355,"is_reserved":false,"is_disabled":false,"rental_uris":{"android":"levelo://app?vid=0607eea2-c1a9-4ecd-a155-e726e0bfd42f","ios":"levelo://app?vid=0607eea2-c1a9-4ecd-a155-e726e0bfd42f"},"vehicle_type_id":"4","last_reported":1724083832,"current_range_meters":2400,"station_id":"ce4bgph2rcd13ifvqc2g","pricing_plan_id":"cebpf4jnsgd1na2vs0mg"},{"bike_id":"fc3367f3-d4bd-431d-b4ad-04a19fcb1ae2","system_id":"levelo_inurba_marseille","lat":43.29622,"lon":5.37157,"is_reserved":false,"is_disabled":false,"rental_uris":{"android":"levelo://app?vid=fc3367f3-d4bd-431d-b4ad-04a19fcb1ae2","ios":"levelo://app?vid=fc3367f3-d4bd-431d-b4ad-04a19fcb1ae2"},"vehicle_type_id":"4","last_reported":1724083832,"current_range_meters":0,"station_id":"ce4bgnh2rcd13ifvqc0g","pricing_plan_id":"cebpf4jnsgd1na2vs0mg"},{"bike_id":"aa4cb9b4-33fb-4d25-9978-0c7cc1a33e73","system_id":"levelo_inurba_marseille","lat":43.29573,"lon":5.367355,"is_reserved":false,"is_disabled":false,"rental_uris":{"android":"levelo://app?vid=aa4cb9b4-33fb-4d25-9978-0c7cc1a33e73","ios":"levelo://app?vid=aa4cb9b4-33fb-4d25-9978-0c7cc1a33e73"},"vehicle_type_id":"4","last_reported":1724083832,"current_range_meters":2000,"station_id":"ce4bgph2rcd13ifvqc2g","pricing_plan_id":"cebpf4jnsgd1na2vs0mg"},{"bike_id":"376085e0-e229-4d3b-b2e0-f081c3092eab","system_id":"levelo_inurba_marseille","lat":43.29573,"lon":5.367355,"is_reserved":false,"is_disabled":false,"rental_uris":{"android":"levelo://app?vid=376085e0-e229-4d3b-b2e0-f081c3092eab","ios":"levelo://app?vid=376085e0-e229-4d3b-b2e0-f081c3092eab"},"vehicle_type_id":"4","last_reported":1724083832,"current_range_meters":15600,"station_id":"ce4bgph2rcd13ifvqc2g","pricing_plan_id":"cebpf4jnsgd1na2vs0mg"},{"bike_id":"2ec670dc-28f5-4595-b9df-71b901be1c24","system_id":"levelo_inurba_marseille","lat":43.296921,"lon":5.376579,"is_reserved":false,"is_disabled":false,"rental_uris":{"android":"levelo://app?vid=2ec670dc-28f5-4595-b9df-71b901be1c24","ios":"levelo://app?vid=2ec670dc-28f5-4595-b9df-71b901be1c24"},"vehicle_type_id":"4","last_reported":1724083832,"current_range_meters":10400,"station_id":"ce4bgkh2rcd13ifvqbl0","pricing_plan_id":"cebpf4jnsgd1na2vs0mg"},{"bike_id":"847e4193-070b-4f59-83db-7f1f45a8967e","system_id":"levelo_inurba_marseille","lat":43.296921,"lon":5.376579,"is_reserved":false,"is_disabled":false,"rental_uris":{"android":"levelo://app?vid=847e4193-070b-4f59-83db-7f1f45a8967e","ios":"levelo://app?vid=847e4193-070b-4f59-83db-7f1f45a8967e"},"vehicle_type_id":"4","last_reported":1724083832,"current_range_meters":23200,"station_id":"ce4bgkh2rcd13ifvqbl0","pricing_plan_id":"cebpf4jnsgd1na2vs0mg"},{"bike_id":"cd14f01c-dfc9-4e02-a16e-46ca8052c100","system_id":"levelo_inurba_marseille","lat":43.309589,"lon":5.390258,"is_reserved":false,"is_disabled":false,"rental_uris":{"android":"levelo://app?vid=cd14f01c-dfc9-4e02-a16e-46ca8052c100","ios":"levelo://app?vid=cd14f01c-dfc9-4e02-a16e-46ca8052c100"},"vehicle_type_id":"4","last_reported":1724083832,"current_range_meters":0,"station_id":"ce4bgup2rcd13ifvqco0","pricing_plan_id":"cebpf4jnsgd1na2vs0mg"},{"bike_id":"e48907da-d5fb-49ab-8417-68bdf16db37f","system_id":"levelo_inurba_marseille","lat":43.317557,"lon":5.390173,"is_reserved":false,"is_disabled":false,"rental_uris":{"android":"levelo://app?vid=e48907da-d5fb-49ab-8417-68bdf16db37f","ios":"levelo://app?vid=e48907da-d5fb-49ab-8417-68bdf16db37f"},"vehicle_type_id":"4","last_reported":1724083832,"current_range_meters":31600,"station_id":"ce4bhqp2rcd13ifvqhng","pricing_plan_id":"cebpf4jnsgd1na2vs0mg"},{"bike_id":"8f3f0e09-c856-43f3-9ae7-b9156ed81c71","system_id":"levelo_inurba_marseille","lat":43.29581,"lon":5.375027,"is_reserved":false,"is_disabled":false,"rental_uris":{"android":"levelo://app?vid=8f3f0e09-c856-43f3-9ae7-b9156ed81c71","ios":"levelo://app?vid=8f3f0e09-c856-43f3-9ae7-b9156ed81c71"},"vehicle_type_id":"4","last_reported":1724083832,"current_range_meters":0,"station_id":"ce4bgh92rcd13ifvqb50","pricing_plan_id":"cebpf4jnsgd1na2vs0mg"},{"bike_id":"2d6fb221-33ff-4201-a928-88962a257a28","system_id":"levelo_inurba_marseille","lat":43.29575,"lon":5.37493,"is_reserved":false,"is_disabled":false,"rental_uris":{"android":"levelo://app?vid=2d6fb221-33ff-4201-a928-88962a257a28","ios":"levelo://app?vid=2d6fb221-33ff-4201-a928-88962a257a28"},"vehicle_type_id":"4","last_reported":1724083832,"current_range_meters":28400,"station_id":"ce4bgh92rcd13ifvqb50","pricing_plan_id":"cebpf4jnsgd1na2vs0mg"},{"bike_id":"f503fb64-60d0-4227-99a8-8d83142c9db0","system_id":"levelo_inurba_marseille","lat":43.298037,"lon":5.381066,"is_reserved":false,"is_disabled":false,"rental_uris":{"android":"levelo://app?vid=f503fb64-60d0-4227-99a8-8d83142c9db0","ios":"levelo://app?vid=f503fb64-60d0-4227-99a8-8d83142c9db0"},"vehicle_type_id":"4","last_reported":1724083832,"current_range_meters":6000,"station_id":"ce4bgip2rcd13ifvqbb0","pricing_plan_id":"cebpf4jnsgd1na2vs0mg"},{"bike_id":"fcdbb210-6730-49af-90a5-c5e8bcbefb6f","system_id":"levelo_inurba_marseille","lat":43.298037,"lon":5.381066,"is_reserved":false,"is_disabled":false,"rental_uris":{"android":"levelo://app?vid=fcdbb210-6730-49af-90a5-c5e8bcbefb6f","ios":"levelo://app?vid=fcdbb210-6730-49af-90a5-c5e8bcbefb6f"},"vehicle_type_id":"4","last_reported":1724083832,"current_range_meters":4800,"station_id":"ce4bgip2rcd13ifvqbb0","pricing_plan_id":"cebpf4jnsgd1na2vs0mg"},{"bike_id":"41e3904f-bc64-4693-9d1f-c4214f89b1db","system_id":"levelo_inurba_marseille","lat":43.298037,"lon":5.381066,"is_reserved":false,"is_disabled":false,"rental_uris":{"android":"levelo://app?vid=41e3904f-bc64-4693-9d1f-c4214f89b1db","ios":"levelo://app?vid=41e3904f-bc64-4693-9d1f-c4214f89b1db"},"vehicle_type_id":"4","last_reported":1724083832,"current_range_meters":20400,"station_id":"ce4bgip2rcd13ifvqbb0","pricing_plan_id":"cebpf4jnsgd1na2vs0mg"},{"bike_id":"fca9d3da-fbf1-4d0a-88e0-d14db272942b","system_id":"levelo_inurba_marseille","lat":43.304274,"lon":5.388873,"is_reserved":false,"is_disabled":false,"rental_uris":{"android":"levelo://app?vid=fca9d3da-fbf1-4d0a-88e0-d14db272942b","ios":"levelo://app?vid=fca9d3da-fbf1-4d0a-88e0-d14db272942b"},"vehicle_type_id":"4","last_reported":1724083832,"current_range_meters":1200,"station_id":"ce4bgk12rcd13ifvqbi0","pricing_plan_id":"cebpf4jnsgd1na2vs0mg"},{"bike_id":"bc367d40-2a92-4a11-a79b-9ecc5a84d2c5","system_id":"levelo_inurba_marseille","lat":43.304274,"lon":5.388873,"is_reserved":false,"is_disabled":false,"rental_uris":{"android":"levelo://app?vid=bc367d40-2a92-4a11-a79b-9ecc5a84d2c5","ios":"levelo://app?vid=bc367d40-2a92-4a11-a79b-9ecc5a84d2c5"},"vehicle_type_id":"4","last_reported":1724083832,"current_range_meters":12400,"station_id":"ce4bgk12rcd13ifvqbi0","pricing_plan_id":"cebpf4jnsgd1na2vs0mg"},{"bike_id":"1372a6a4-77e3-4c86-ae47-20ac88130d90","system_id":"levelo_inurba_marseille","lat":43.298037,"lon":5.381066,"is_reserved":false,"is_disabled":false,"rental_uris":{"android":"levelo://app?vid=1372a6a4-77e3-4c86-ae47-20ac88130d90","ios":"levelo://app?vid=1372a6a4-77e3-4c86-ae47-20ac88130d90"},"vehicle_type_id":"4","last_reported":1724083832,"current_range_meters":2400,"station_id":"ce4bgip2rcd13ifvqbb0","pricing_plan_id":"cebpf4jnsgd1na2vs0mg"},{"bike_id":"be7a5738-4c39-4257-b413-6e647df9d3b7","system_id":"levelo_inurba_marseille","lat":43.295748,"lon":5.37522,"is_reserved":false,"is_disabled":false,"rental_uris":{"android":"levelo://app?vid=be7a5738-4c39-4257-b413-6e647df9d3b7","ios":"levelo://app?vid=be7a5738-4c39-4257-b413-6e647df9d3b7"},"vehicle_type_id":"4","last_reported":1724083832,"current_range_meters":16800,"station_id":"ce4bgh92rcd13ifvqb50","pricing_plan_id":"cebpf4jnsgd1na2vs0mg"},{"bike_id":"ed56b742-556d-4754-b660-30ed6d8d787c","system_id":"levelo_inurba_marseille","lat":43.29568,"lon":5.37509,"is_reserved":false,"is_disabled":false,"rental_uris":{"android":"levelo://app?vid=ed56b742-556d-4754-b660-30ed6d8d787c","ios":"levelo://app?vid=ed56b742-556d-4754-b660-30ed6d8d787c"},"vehicle_type_id":"4","last_reported":1724083832,"current_range_meters":21200,"station_id":"ce4bgh92rcd13ifvqb50","pricing_plan_id":"cebpf4jnsgd1na2vs0mg"},{"bike_id":"662bffa4-4557-40b2-acbd-44c495b499e2","system_id":"levelo_inurba_marseille","lat":43.304278,"lon":5.388868,"is_reserved":false,"is_disabled":false,"rental_uris":{"android":"levelo://app?vid=662bffa4-4557-40b2-acbd-44c495b499e2","ios":"levelo://app?vid=662bffa4-4557-40b2-acbd-44c495b499e2"},"vehicle_type_id":"4","last_reported":1724083832,"current_range_meters":3200,"station_id":"ce4bgk12rcd13ifvqbi0","pricing_plan_id":"cebpf4jnsgd1na2vs0mg"},{"bike_id":"d8a96d0b-1052-4ebb-af18-27a95774a5f9","system_id":"levelo_inurba_marseille","lat":43.31475,"lon":5.39161,"is_reserved":false,"is_disabled":false,"rental_uris":{"android":"levelo://app?vid=d8a96d0b-1052-4ebb-af18-27a95774a5f9","ios":"levelo://app?vid=d8a96d0b-1052-4ebb-af18-27a95774a5f9"},"vehicle_type_id":"4","last_reported":1724083832,"current_range_meters":14400,"station_id":"","pricing_plan_id":"cebpf4jnsgd1na2vs0mg"},{"bike_id":"b4770ad9-4968-4229-ae52-85524152a3f2","system_id":"levelo_inurba_marseille","lat":43.304278,"lon":5.388868,"is_reserved":false,"is_disabled":false,"rental_uris":{"android":"levelo://app?vid=b4770ad9-4968-4229-ae52-85524152a3f2","ios":"levelo://app?vid=b4770ad9-4968-4229-ae52-85524152a3f2"},"vehicle_type_id":"4","last_reported":1724083832,"current_range_meters":24000,"station_id":"ce4bgk12rcd13ifvqbi0","pricing_plan_id":"cebpf4jnsgd1na2vs0mg"},{"bike_id":"db5d9a0a-9741-49a4-b08f-8749f355cd41","system_id":"levelo_inurba_marseille","lat":43.304274,"lon":5.388873,"is_reserved":false,"is_disabled":false,"rental_uris":{"android":"levelo://app?vid=db5d9a0a-9741-49a4-b08f-8749f355cd41","ios":"levelo://app?vid=db5d9a0a-9741-49a4-b08f-8749f355cd41"},"vehicle_type_id":"4","last_reported":1724083832,"current_range_meters":14400,"station_id":"ce4bgk12rcd13ifvqbi0","pricing_plan_id":"cebpf4jnsgd1na2vs0mg"},{"bike_id":"cef0a2ae-cf8f-4a7b-9dae-98f3e74bbb65","system_id":"levelo_inurba_marseille","lat":43.304278,"lon":5.388868,"is_reserved":false,"is_disabled":false,"rental_uris":{"android":"levelo://app?vid=cef0a2ae-cf8f-4a7b-9dae-98f3e74bbb65","ios":"levelo://app?vid=cef0a2ae-cf8f-4a7b-9dae-98f3e74bbb65"},"vehicle_type_id":"4","last_reported":1724083832,"current_range_meters":31600,"station_id":"ce4bgk12rcd13ifvqbi0","pricing_plan_id":"cebpf4jnsgd1na2vs0mg"},{"bike_id":"6bbee719-22e8-4927-8714-a5badee8f0d4","system_id":"levelo_inurba_marseille","lat":43.304278,"lon":5.388868,"is_reserved":false,"is_disabled":false,"rental_uris":{"android":"levelo://app?vid=6bbee719-22e8-4927-8714-a5badee8f0d4","ios":"levelo://app?vid=6bbee719-22e8-4927-8714-a5badee8f0d4"},"vehicle_type_id":"4","last_reported":1724083832,"current_range_meters":32000,"station_id":"ce4bgk12rcd13ifvqbi0","pricing_plan_id":"cebpf4jnsgd1na2vs0mg"},{"bike_id":"af7b0793-c7cd-4d05-974b-27954af105fe","system_id":"levelo_inurba_marseille","lat":43.299707,"lon":5.384859,"is_reserved":false,"is_disabled":false,"rental_uris":{"android":"levelo://app?vid=af7b0793-c7cd-4d05-974b-27954af105fe","ios":"levelo://app?vid=af7b0793-c7cd-4d05-974b-27954af105fe"},"vehicle_type_id":"4","last_reported":1724083832,"current_range_meters":24400,"station_id":"ce4bgj92rcd13ifvqbd0","pricing_plan_id":"cebpf4jnsgd1na2vs0mg"},{"bike_id":"818de53a-ed44-4384-b3ce-6c3fd483686b","system_id":"levelo_inurba_marseille","lat":43.299707,"lon":5.384859,"is_reserved":false,"is_disabled":false,"rental_uris":{"android":"levelo://app?vid=818de53a-ed44-4384-b3ce-6c3fd483686b","ios":"levelo://app?vid=818de53a-ed44-4384-b3ce-6c3fd483686b"},"vehicle_type_id":"4","last_reported":1724083832,"current_range_meters":14000,"station_id":"ce4bgj92rcd13ifvqbd0","pricing_plan_id":"cebpf4jnsgd1na2vs0mg"},{"bike_id":"2477d923-0ddd-4f47-aba3-72209384922a","system_id":"levelo_inurba_marseille","lat":43.299707,"lon":5.384859,"is_reserved":false,"is_disabled":false,"rental_uris":{"android":"levelo://app?vid=2477d923-0ddd-4f47-aba3-72209384922a","ios":"levelo://app?vid=2477d923-0ddd-4f47-aba3-72209384922a"},"vehicle_type_id":"4","last_reported":1724083832,"current_range_meters":31200,"station_id":"ce4bgj92rcd13ifvqbd0","pricing_plan_id":"cebpf4jnsgd1na2vs0mg"},{"bike_id":"33bd65f1-f3a2-4cc7-90d5-e7d83f728eeb","system_id":"levelo_inurba_marseille","lat":43.299724,"lon":5.384848,"is_reserved":false,"is_disabled":false,"rental_uris":{"android":"levelo://app?vid=33bd65f1-f3a2-4cc7-90d5-e7d83f728eeb","ios":"levelo://app?vid=33bd65f1-f3a2-4cc7-90d5-e7d83f728eeb"},"vehicle_type_id":"4","last_reported":1724083832,"current_range_meters":31200,"station_id":"ce4bgj92rcd13ifvqbd0","pricing_plan_id":"cebpf4jnsgd1na2vs0mg"},{"bike_id":"a62af38b-6645-4ec4-a1d8-d1ff44d8bfdd","system_id":"levelo_inurba_marseille","lat":43.295279,"lon":5.375048,"is_reserved":false,"is_disabled":false,"rental_uris":{"android":"levelo://app?vid=a62af38b-6645-4ec4-a1d8-d1ff44d8bfdd","ios":"levelo://app?vid=a62af38b-6645-4ec4-a1d8-d1ff44d8bfdd"},"vehicle_type_id":"4","last_reported":1724083832,"current_range_meters":18800,"station_id":"ce4bgkp2rcd13ifvqbmg","pricing_plan_id":"cebpf4jnsgd1na2vs0mg"},{"bike_id":"2c17522c-f031-4c45-9495-30a327d70529","system_id":"levelo_inurba_marseille","lat":43.29607,"lon":5.38104,"is_reserved":false,"is_disabled":false,"rental_uris":{"android":"levelo://app?vid=2c17522c-f031-4c45-9495-30a327d70529","ios":"levelo://app?vid=2c17522c-f031-4c45-9495-30a327d70529"},"vehicle_type_id":"4","last_reported":1724083832,"current_range_meters":4400,"station_id":"ce4bgl12rcd13ifvqbo0","pricing_plan_id":"cebpf4jnsgd1na2vs0mg"},{"bike_id":"ba04956b-3d72-4409-bd43-4957b202c4d5","system_id":"levelo_inurba_marseille","lat":43.293061,"lon":5.368525,"is_reserved":false,"is_disabled":false,"rental_uris":{"android":"levelo://app?vid=ba04956b-3d72-4409-bd43-4957b202c4d5","ios":"levelo://app?vid=ba04956b-3d72-4409-bd43-4957b202c4d5"},"vehicle_type_id":"4","last_reported":1724083832,"current_range_meters":30400,"station_id":"ce4bhbp2rcd13ifvqesg","pricing_plan_id":"cebpf4jnsgd1na2vs0mg"},{"bike_id":"1a73c42a-4695-4959-b790-f111c5ab01a7","system_id":"levelo_inurba_marseille","lat":43.293249,"lon":5.371578,"is_reserved":false,"is_disabled":false,"rental_uris":{"android":"levelo://app?vid=1a73c42a-4695-4959-b790-f111c5ab01a7","ios":"levelo://app?vid=1a73c42a-4695-4959-b790-f111c5ab01a7"},"vehicle_type_id":"4","last_reported":1724083832,"current_range_meters":30000,"station_id":"ce4bgh92rcd13ifvqb40","pricing_plan_id":"cebpf4jnsgd1na2vs0mg"},{"bike_id":"8e4a7418-5f88-4a8f-8e48-0fc8c86d600d","system_id":"levelo_inurba_marseille","lat":43.293259,"lon":5.371586,"is_reserved":false,"is_disabled":false,"rental_uris":{"android":"levelo://app?vid=8e4a7418-5f88-4a8f-8e48-0fc8c86d600d","ios":"levelo://app?vid=8e4a7418-5f88-4a8f-8e48-0fc8c86d600d"},"vehicle_type_id":"4","last_reported":1724083832,"current_range_meters":0,"station_id":"ce4bgh92rcd13ifvqb40","pricing_plan_id":"cebpf4jnsgd1na2vs0mg"},{"bike_id":"0f92af19-2f73-4495-9e39-29557a46668d","system_id":"levelo_inurba_marseille","lat":43.31403,"lon":5.39461,"is_reserved":false,"is_disabled":false,"rental_uris":{"android":"levelo://app?vid=0f92af19-2f73-4495-9e39-29557a46668d","ios":"levelo://app?vid=0f92af19-2f73-4495-9e39-29557a46668d"},"vehicle_type_id":"4","last_reported":1724083832,"current_range_meters":19200,"station_id":"","pricing_plan_id":"cebpf4jnsgd1na2vs0mg"},{"bike_id":"ac029415-ae23-4e56-ab32-3270672e4d09","system_id":"levelo_inurba_marseille","lat":43.318215,"lon":5.39363,"is_reserved":false,"is_disabled":false,"rental_uris":{"android":"levelo://app?vid=ac029415-ae23-4e56-ab32-3270672e4d09","ios":"levelo://app?vid=ac029415-ae23-4e56-ab32-3270672e4d09"},"vehicle_type_id":"4","last_reported":1724083832,"current_range_meters":5600,"station_id":"","pricing_plan_id":"cebpf4jnsgd1na2vs0mg"},{"bike_id":"7eeba101-3a83-46fc-ab28-054cc5c84f28","system_id":"levelo_inurba_marseille","lat":43.29301,"lon":5.37438,"is_reserved":false,"is_disabled":false,"rental_uris":{"android":"levelo://app?vid=7eeba101-3a83-46fc-ab28-054cc5c84f28","ios":"levelo://app?vid=7eeba101-3a83-46fc-ab28-054cc5c84f28"},"vehicle_type_id":"4","last_reported":1724083832,"current_range_meters":18000,"station_id":"ce4bgi12rcd13ifvqb70","pricing_plan_id":"cebpf4jnsgd1na2vs0mg"},{"bike_id":"3bf860ee-3e41-42da-828f-885469124711","system_id":"levelo_inurba_marseille","lat":43.293033,"lon":5.374557,"is_reserved":false,"is_disabled":false,"rental_uris":{"android":"levelo://app?vid=3bf860ee-3e41-42da-828f-885469124711","ios":"levelo://app?vid=3bf860ee-3e41-42da-828f-885469124711"},"vehicle_type_id":"4","last_reported":1724083832,"current_range_meters":0,"station_id":"ce4bgi12rcd13ifvqb70","pricing_plan_id":"cebpf4jnsgd1na2vs0mg"},{"bike_id":"e17d390f-a747-4f0a-83fa-99622b30ebd0","system_id":"levelo_inurba_marseille","lat":43.305994,"lon":5.393687,"is_reserved":false,"is_disabled":false,"rental_uris":{"android":"levelo://app?vid=e17d390f-a747-4f0a-83fa-99622b30ebd0","ios":"levelo://app?vid=e17d390f-a747-4f0a-83fa-99622b30ebd0"},"vehicle_type_id":"4","last_reported":1724083832,"current_range_meters":27600,"station_id":"ce4bh0p2rcd13ifvqd80","pricing_plan_id":"cebpf4jnsgd1na2vs0mg"},{"bike_id":"cbe88b3e-104f-402d-8eb0-2a43f41a3b44","system_id":"levelo_inurba_marseille","lat":43.293009,"lon":5.374584,"is_reserved":false,"is_disabled":false,"rental_uris":{"android":"levelo://app?vid=cbe88b3e-104f-402d-8eb0-2a43f41a3b44","ios":"levelo://app?vid=cbe88b3e-104f-402d-8eb0-2a43f41a3b44"},"vehicle_type_id":"4","last_reported":1724083832,"current_range_meters":6800,"station_id":"ce4bgi12rcd13ifvqb70","pricing_plan_id":"cebpf4jnsgd1na2vs0mg"},{"bike_id":"454eed1c-15c5-467a-bed6-ba1f98aafdff","system_id":"levelo_inurba_marseille","lat":43.303002,"lon":5.392142,"is_reserved":false,"is_disabled":false,"rental_uris":{"android":"levelo://app?vid=454eed1c-15c5-467a-bed6-ba1f98aafdff","ios":"levelo://app?vid=454eed1c-15c5-467a-bed6-ba1f98aafdff"},"vehicle_type_id":"4","last_reported":1724083832,"current_range_meters":14000,"station_id":"ce4bgkh2rcd13ifvqbk0","pricing_plan_id":"cebpf4jnsgd1na2vs0mg"},{"bike_id":"fd60116b-f6cf-44ce-96fa-a80f2bd8de51","system_id":"levelo_inurba_marseille","lat":43.303002,"lon":5.392142,"is_reserved":false,"is_disabled":false,"rental_uris":{"android":"levelo://app?vid=fd60116b-f6cf-44ce-96fa-a80f2bd8de51","ios":"levelo://app?vid=fd60116b-f6cf-44ce-96fa-a80f2bd8de51"},"vehicle_type_id":"4","last_reported":1724083832,"current_range_meters":26400,"station_id":"ce4bgkh2rcd13ifvqbk0","pricing_plan_id":"cebpf4jnsgd1na2vs0mg"},{"bike_id":"91f98801-4950-497b-b579-f9d9b9822f57","system_id":"levelo_inurba_marseille","lat":43.302992,"lon":5.392136,"is_reserved":false,"is_disabled":false,"rental_uris":{"android":"levelo://app?vid=91f98801-4950-497b-b579-f9d9b9822f57","ios":"levelo://app?vid=91f98801-4950-497b-b579-f9d9b9822f57"},"vehicle_type_id":"4","last_reported":1724083832,"current_range_meters":14800,"station_id":"ce4bgkh2rcd13ifvqbk0","pricing_plan_id":"cebpf4jnsgd1na2vs0mg"},{"bike_id":"2a42b9c7-9c12-4615-b019-51b5260f3b80","system_id":"levelo_inurba_marseille","lat":43.2936,"lon":5.37835,"is_reserved":false,"is_disabled":false,"rental_uris":{"android":"levelo://app?vid=2a42b9c7-9c12-4615-b019-51b5260f3b80","ios":"levelo://app?vid=2a42b9c7-9c12-4615-b019-51b5260f3b80"},"vehicle_type_id":"4","last_reported":1724083832,"current_range_meters":7600,"station_id":"ce4bgjh2rcd13ifvqbf0","pricing_plan_id":"cebpf4jnsgd1na2vs0mg"},{"bike_id":"f516c665-978c-462d-b15f-4fdc68c14341","system_id":"levelo_inurba_marseille","lat":43.2936,"lon":5.37835,"is_reserved":false,"is_disabled":false,"rental_uris":{"android":"levelo://app?vid=f516c665-978c-462d-b15f-4fdc68c14341","ios":"levelo://app?vid=f516c665-978c-462d-b15f-4fdc68c14341"},"vehicle_type_id":"4","last_reported":1724083832,"current_range_meters":23600,"station_id":"ce4bgjh2rcd13ifvqbf0","pricing_plan_id":"cebpf4jnsgd1na2vs0mg"},{"bike_id":"ce538437-f078-4c9a-833d-e8a92ebaac84","system_id":"levelo_inurba_marseille","lat":43.300852,"lon":5.390859,"is_reserved":false,"is_disabled":false,"rental_uris":{"android":"levelo://app?vid=ce538437-f078-4c9a-833d-e8a92ebaac84","ios":"levelo://app?vid=ce538437-f078-4c9a-833d-e8a92ebaac84"},"vehicle_type_id":"4","last_reported":1724083832,"current_range_meters":31200,"station_id":"ce4bh192rcd13ifvqdb0","pricing_plan_id":"cebpf4jnsgd1na2vs0mg"},{"bike_id":"1c95d7c4-4ab7-495e-b476-7569e7bfd379","system_id":"levelo_inurba_marseille","lat":43.292311,"lon":5.360731,"is_reserved":false,"is_disabled":false,"rental_uris":{"android":"levelo://app?vid=1c95d7c4-4ab7-495e-b476-7569e7bfd379","ios":"levelo://app?vid=1c95d7c4-4ab7-495e-b476-7569e7bfd379"},"vehicle_type_id":"4","last_reported":1724083832,"current_range_meters":0,"station_id":"ce4bhbh2rcd13ifvqeqg","pricing_plan_id":"cebpf4jnsgd1na2vs0mg"},{"bike_id":"82d3a628-92da-4978-826a-5bed7064cc0c","system_id":"levelo_inurba_marseille","lat":43.292311,"lon":5.360731,"is_reserved":false,"is_disabled":false,"rental_uris":{"android":"levelo://app?vid=82d3a628-92da-4978-826a-5bed7064cc0c","ios":"levelo://app?vid=82d3a628-92da-4978-826a-5bed7064cc0c"},"vehicle_type_id":"4","last_reported":1724083832,"current_range_meters":29600,"station_id":"ce4bhbh2rcd13ifvqeqg","pricing_plan_id":"cebpf4jnsgd1na2vs0mg"},{"bike_id":"836fa699-d0bb-44f6-87c3-f7dd051d8520","system_id":"levelo_inurba_marseille","lat":43.292311,"lon":5.360731,"is_reserved":false,"is_disabled":false,"rental_uris":{"android":"levelo://app?vid=836fa699-d0bb-44f6-87c3-f7dd051d8520","ios":"levelo://app?vid=836fa699-d0bb-44f6-87c3-f7dd051d8520"},"vehicle_type_id":"4","last_reported":1724083832,"current_range_meters":20400,"station_id":"ce4bhbh2rcd13ifvqeqg","pricing_plan_id":"cebpf4jnsgd1na2vs0mg"},{"bike_id":"9790a0cd-c7a9-49b3-befc-e467f90df7a2","system_id":"levelo_inurba_marseille","lat":43.298764,"lon":5.388973,"is_reserved":false,"is_disabled":false,"rental_uris":{"android":"levelo://app?vid=9790a0cd-c7a9-49b3-befc-e467f90df7a2","ios":"levelo://app?vid=9790a0cd-c7a9-49b3-befc-e467f90df7a2"},"vehicle_type_id":"4","last_reported":1724083832,"current_range_meters":24400,"station_id":"ce4bh392rcd13ifvqdl0","pricing_plan_id":"cebpf4jnsgd1na2vs0mg"},{"bike_id":"fea37c13-e795-4acb-9cf3-72bb29672678","system_id":"levelo_inurba_marseille","lat":43.309047,"lon":5.396551,"is_reserved":false,"is_disabled":false,"rental_uris":{"android":"levelo://app?vid=fea37c13-e795-4acb-9cf3-72bb29672678","ios":"levelo://app?vid=fea37c13-e795-4acb-9cf3-72bb29672678"},"vehicle_type_id":"4","last_reported":1724083832,"current_range_meters":3200,"station_id":"ce4bh012rcd13ifvqcv0","pricing_plan_id":"cebpf4jnsgd1na2vs0mg"},{"bike_id":"95479d2f-9c4c-4518-a83b-b6e47a90067e","system_id":"levelo_inurba_marseille","lat":43.292005,"lon":5.357875,"is_reserved":false,"is_disabled":false,"rental_uris":{"android":"levelo://app?vid=95479d2f-9c4c-4518-a83b-b6e47a90067e","ios":"levelo://app?vid=95479d2f-9c4c-4518-a83b-b6e47a90067e"},"vehicle_type_id":"4","last_reported":1724083832,"current_range_meters":14800,"station_id":"ce4bhb12rcd13ifvqel0","pricing_plan_id":"cebpf4jnsgd1na2vs0mg"},{"bike_id":"a7926177-5b55-4fbc-a46a-3eb5e2722aee","system_id":"levelo_inurba_marseille","lat":43.309047,"lon":5.396551,"is_reserved":false,"is_disabled":false,"rental_uris":{"android":"levelo://app?vid=a7926177-5b55-4fbc-a46a-3eb5e2722aee","ios":"levelo://app?vid=a7926177-5b55-4fbc-a46a-3eb5e2722aee"},"vehicle_type_id":"4","last_reported":1724083832,"current_range_meters":26800,"station_id":"ce4bh012rcd13ifvqcv0","pricing_plan_id":"cebpf4jnsgd1na2vs0mg"},{"bike_id":"b208063e-c9eb-4e79-8cd6-a146c37113a5","system_id":"levelo_inurba_marseille","lat":43.309047,"lon":5.396551,"is_reserved":false,"is_disabled":false,"rental_uris":{"android":"levelo://app?vid=b208063e-c9eb-4e79-8cd6-a146c37113a5","ios":"levelo://app?vid=b208063e-c9eb-4e79-8cd6-a146c37113a5"},"vehicle_type_id":"4","last_reported":1724083832,"current_range_meters":5200,"station_id":"ce4bh012rcd13ifvqcv0","pricing_plan_id":"cebpf4jnsgd1na2vs0mg"},{"bike_id":"4205968e-8222-49da-9fda-9a8bedddd88c","system_id":"levelo_inurba_marseille","lat":43.29529,"lon":5.385581,"is_reserved":false,"is_disabled":false,"rental_uris":{"android":"levelo://app?vid=4205968e-8222-49da-9fda-9a8bedddd88c","ios":"levelo://app?vid=4205968e-8222-49da-9fda-9a8bedddd88c"},"vehicle_type_id":"4","last_reported":1724083832,"current_range_meters":0,"station_id":"ce4bgih2rcd13ifvqba0","pricing_plan_id":"cebpf4jnsgd1na2vs0mg"},{"bike_id":"50e9d760-6851-44c4-8ff1-34a0511f2c10","system_id":"levelo_inurba_marseille","lat":43.29529,"lon":5.385581,"is_reserved":false,"is_disabled":false,"rental_uris":{"android":"levelo://app?vid=50e9d760-6851-44c4-8ff1-34a0511f2c10","ios":"levelo://app?vid=50e9d760-6851-44c4-8ff1-34a0511f2c10"},"vehicle_type_id":"4","last_reported":1724083832,"current_range_meters":0,"station_id":"ce4bgih2rcd13ifvqba0","pricing_plan_id":"cebpf4jnsgd1na2vs0mg"},{"bike_id":"33e99f59-df0d-42f9-9316-a703910c41d1","system_id":"levelo_inurba_marseille","lat":43.29529,"lon":5.385581,"is_reserved":false,"is_disabled":false,"rental_uris":{"android":"levelo://app?vid=33e99f59-df0d-42f9-9316-a703910c41d1","ios":"levelo://app?vid=33e99f59-df0d-42f9-9316-a703910c41d1"},"vehicle_type_id":"4","last_reported":1724083832,"current_range_meters":12400,"station_id":"ce4bgih2rcd13ifvqba0","pricing_plan_id":"cebpf4jnsgd1na2vs0mg"},{"bike_id":"255a4341-b7f1-4542-b0f9-71c0f849ee86","system_id":"levelo_inurba_marseille","lat":43.29526,"lon":5.38538,"is_reserved":false,"is_disabled":false,"rental_uris":{"android":"levelo://app?vid=255a4341-b7f1-4542-b0f9-71c0f849ee86","ios":"levelo://app?vid=255a4341-b7f1-4542-b0f9-71c0f849ee86"},"vehicle_type_id":"4","last_reported":1724083832,"current_range_meters":0,"station_id":"ce4bgih2rcd13ifvqba0","pricing_plan_id":"cebpf4jnsgd1na2vs0mg"},{"bike_id":"d97d4213-433e-47c1-b823-a67ef6190ad1","system_id":"levelo_inurba_marseille","lat":43.29524,"lon":5.38539,"is_reserved":false,"is_disabled":false,"rental_uris":{"android":"levelo://app?vid=d97d4213-433e-47c1-b823-a67ef6190ad1","ios":"levelo://app?vid=d97d4213-433e-47c1-b823-a67ef6190ad1"},"vehicle_type_id":"4","last_reported":1724083832,"current_range_meters":2000,"station_id":"ce4bgih2rcd13ifvqba0","pricing_plan_id":"cebpf4jnsgd1na2vs0mg"},{"bike_id":"942f9fa9-da53-488b-af44-c959997d62b9","system_id":"levelo_inurba_marseille","lat":43.302008,"lon":5.394694,"is_reserved":false,"is_disabled":false,"rental_uris":{"android":"levelo://app?vid=942f9fa9-da53-488b-af44-c959997d62b9","ios":"levelo://app?vid=942f9fa9-da53-488b-af44-c959997d62b9"},"vehicle_type_id":"4","last_reported":1724083832,"current_range_meters":19600,"station_id":"ce4bh0p2rcd13ifvqd70","pricing_plan_id":"cebpf4jnsgd1na2vs0mg"},{"bike_id":"0402a890-ae6e-41ed-a104-7322b36e264a","system_id":"levelo_inurba_marseille","lat":43.290631,"lon":5.359244,"is_reserved":false,"is_disabled":false,"rental_uris":{"android":"levelo://app?vid=0402a890-ae6e-41ed-a104-7322b36e264a","ios":"levelo://app?vid=0402a890-ae6e-41ed-a104-7322b36e264a"},"vehicle_type_id":"4","last_reported":1724083832,"current_range_meters":17600,"station_id":"ce4bha92rcd13ifvqeg0","pricing_plan_id":"cebpf4jnsgd1na2vs0mg"},{"bike_id":"0010fbc2-1cac-42f1-9c11-2d974f57777d","system_id":"levelo_inurba_marseille","lat":43.289468,"lon":5.363719,"is_reserved":false,"is_disabled":false,"rental_uris":{"android":"levelo://app?vid=0010fbc2-1cac-42f1-9c11-2d974f57777d","ios":"levelo://app?vid=0010fbc2-1cac-42f1-9c11-2d974f57777d"},"vehicle_type_id":"4","last_reported":1724083832,"current_range_meters":9600,"station_id":"ce4bhc92rcd13ifvqetg","pricing_plan_id":"cebpf4jnsgd1na2vs0mg"},{"bike_id":"2a349d2c-1d2b-4412-8bc5-8dff9f22a6fe","system_id":"levelo_inurba_marseille","lat":43.289184,"lon":5.366408,"is_reserved":false,"is_disabled":false,"rental_uris":{"android":"levelo://app?vid=2a349d2c-1d2b-4412-8bc5-8dff9f22a6fe","ios":"levelo://app?vid=2a349d2c-1d2b-4412-8bc5-8dff9f22a6fe"},"vehicle_type_id":"4","last_reported":1724083832,"current_range_meters":4800,"station_id":"ce4bhap2rcd13ifvqek0","pricing_plan_id":"cebpf4jnsgd1na2vs0mg"},{"bike_id":"6d737421-698a-4011-a456-745f6c22e053","system_id":"levelo_inurba_marseille","lat":43.289468,"lon":5.363719,"is_reserved":false,"is_disabled":false,"rental_uris":{"android":"levelo://app?vid=6d737421-698a-4011-a456-745f6c22e053","ios":"levelo://app?vid=6d737421-698a-4011-a456-745f6c22e053"},"vehicle_type_id":"4","last_reported":1724083832,"current_range_meters":26400,"station_id":"ce4bhc92rcd13ifvqetg","pricing_plan_id":"cebpf4jnsgd1na2vs0mg"},{"bike_id":"d3d17150-ceec-465f-9281-c98a209aa556","system_id":"levelo_inurba_marseille","lat":43.29776,"lon":5.39169,"is_reserved":false,"is_disabled":false,"rental_uris":{"android":"levelo://app?vid=d3d17150-ceec-465f-9281-c98a209aa556","ios":"levelo://app?vid=d3d17150-ceec-465f-9281-c98a209aa556"},"vehicle_type_id":"4","last_reported":1724083832,"current_range_meters":23200,"station_id":"","pricing_plan_id":"cebpf4jnsgd1na2vs0mg"},{"bike_id":"1eaa4639-0722-4e12-9290-ffcedf6f7cd3","system_id":"levelo_inurba_marseille","lat":43.28938,"lon":5.363998,"is_reserved":false,"is_disabled":false,"rental_uris":{"android":"levelo://app?vid=1eaa4639-0722-4e12-9290-ffcedf6f7cd3","ios":"levelo://app?vid=1eaa4639-0722-4e12-9290-ffcedf6f7cd3"},"vehicle_type_id":"4","last_reported":1724083832,"current_range_meters":0,"station_id":"ce4bhc92rcd13ifvqetg","pricing_plan_id":"cebpf4jnsgd1na2vs0mg"},{"bike_id":"062b54b2-6c90-4fa6-9481-30f333ff4719","system_id":"levelo_inurba_marseille","lat":43.292644,"lon":5.384257,"is_reserved":false,"is_disabled":false,"rental_uris":{"android":"levelo://app?vid=062b54b2-6c90-4fa6-9481-30f333ff4719","ios":"levelo://app?vid=062b54b2-6c90-4fa6-9481-30f333ff4719"},"vehicle_type_id":"4","last_reported":1724083832,"current_range_meters":9600,"station_id":"ce4bh692rcd13ifvqea0","pricing_plan_id":"cebpf4jnsgd1na2vs0mg"},{"bike_id":"94c8019c-2f1d-4912-9de7-a84bd8c87712","system_id":"levelo_inurba_marseille","lat":43.290104,"lon":5.356111,"is_reserved":false,"is_disabled":false,"rental_uris":{"android":"levelo://app?vid=94c8019c-2f1d-4912-9de7-a84bd8c87712","ios":"levelo://app?vid=94c8019c-2f1d-4912-9de7-a84bd8c87712"},"vehicle_type_id":"4","last_reported":1724083832,"current_range_meters":31200,"station_id":"ce4bhb92rcd13ifvqen0","pricing_plan_id":"cebpf4jnsgd1na2vs0mg"},{"bike_id":"6c9a8f85-7ddc-46ca-84c0-c0d5478a0c11","system_id":"levelo_inurba_marseille","lat":43.29008,"lon":5.3561,"is_reserved":false,"is_disabled":false,"rental_uris":{"android":"levelo://app?vid=6c9a8f85-7ddc-46ca-84c0-c0d5478a0c11","ios":"levelo://app?vid=6c9a8f85-7ddc-46ca-84c0-c0d5478a0c11"},"vehicle_type_id":"4","last_reported":1724083832,"current_range_meters":0,"station_id":"ce4bhb92rcd13ifvqen0","pricing_plan_id":"cebpf4jnsgd1na2vs0mg"},{"bike_id":"4cfc5d26-a4f2-41a0-820c-e610cc8fd719","system_id":"levelo_inurba_marseille","lat":43.290103,"lon":5.356114,"is_reserved":false,"is_disabled":false,"rental_uris":{"android":"levelo://app?vid=4cfc5d26-a4f2-41a0-820c-e610cc8fd719","ios":"levelo://app?vid=4cfc5d26-a4f2-41a0-820c-e610cc8fd719"},"vehicle_type_id":"4","last_reported":1724083832,"current_range_meters":22800,"station_id":"ce4bhb92rcd13ifvqen0","pricing_plan_id":"cebpf4jnsgd1na2vs0mg"},{"bike_id":"71348895-a6a3-4c67-83e6-7f436bc0fcd6","system_id":"levelo_inurba_marseille","lat":43.290995,"lon":5.381361,"is_reserved":false,"is_disabled":false,"rental_uris":{"android":"levelo://app?vid=71348895-a6a3-4c67-83e6-7f436bc0fcd6","ios":"levelo://app?vid=71348895-a6a3-4c67-83e6-7f436bc0fcd6"},"vehicle_type_id":"4","last_reported":1724083832,"current_range_meters":30000,"station_id":"ce4bh512rcd13ifvqe2g","pricing_plan_id":"cebpf4jnsgd1na2vs0mg"},{"bike_id":"37640aba-6dab-443e-85b3-f1e2dd80c9dc","system_id":"levelo_inurba_marseille","lat":43.2889,"lon":5.36059,"is_reserved":false,"is_disabled":false,"rental_uris":{"android":"levelo://app?vid=37640aba-6dab-443e-85b3-f1e2dd80c9dc","ios":"levelo://app?vid=37640aba-6dab-443e-85b3-f1e2dd80c9dc"},"vehicle_type_id":"4","last_reported":1724083832,"current_range_meters":20000,"station_id":"ce4bhbh2rcd13ifvqepg","pricing_plan_id":"cebpf4jnsgd1na2vs0mg"},{"bike_id":"45b9aef5-ef33-4af0-99c8-413e90644ddc","system_id":"levelo_inurba_marseille","lat":43.297807,"lon":5.393533,"is_reserved":false,"is_disabled":false,"rental_uris":{"android":"levelo://app?vid=45b9aef5-ef33-4af0-99c8-413e90644ddc","ios":"levelo://app?vid=45b9aef5-ef33-4af0-99c8-413e90644ddc"},"vehicle_type_id":"4","last_reported":1724083832,"current_range_meters":24000,"station_id":"chh1huq6cuj3fo74tm60","pricing_plan_id":"cebpf4jnsgd1na2vs0mg"},{"bike_id":"9e6b37f2-52ae-4e93-88b7-10f42858af38","system_id":"levelo_inurba_marseille","lat":43.2979,"lon":5.39338,"is_reserved":false,"is_disabled":false,"rental_uris":{"android":"levelo://app?vid=9e6b37f2-52ae-4e93-88b7-10f42858af38","ios":"levelo://app?vid=9e6b37f2-52ae-4e93-88b7-10f42858af38"},"vehicle_type_id":"4","last_reported":1724083832,"current_range_meters":400,"station_id":"chh1huq6cuj3fo74tm60","pricing_plan_id":"cebpf4jnsgd1na2vs0mg"},{"bike_id":"c2ac57f1-ee9a-4d6a-b498-2ad5e661540b","system_id":"levelo_inurba_marseille","lat":43.297815,"lon":5.393548,"is_reserved":false,"is_disabled":false,"rental_uris":{"android":"levelo://app?vid=c2ac57f1-ee9a-4d6a-b498-2ad5e661540b","ios":"levelo://app?vid=c2ac57f1-ee9a-4d6a-b498-2ad5e661540b"},"vehicle_type_id":"4","last_reported":1724083832,"current_range_meters":0,"station_id":"chh1huq6cuj3fo74tm60","pricing_plan_id":"cebpf4jnsgd1na2vs0mg"},{"bike_id":"58fa8c78-86bc-48aa-84a3-a7eae72bda40","system_id":"levelo_inurba_marseille","lat":43.295169,"lon":5.390426,"is_reserved":false,"is_disabled":false,"rental_uris":{"android":"levelo://app?vid=58fa8c78-86bc-48aa-84a3-a7eae72bda40","ios":"levelo://app?vid=58fa8c78-86bc-48aa-84a3-a7eae72bda40"},"vehicle_type_id":"4","last_reported":1724083832,"current_range_meters":30400,"station_id":"ce4bh3p2rcd13ifvqdp0","pricing_plan_id":"cebpf4jnsgd1na2vs0mg"},{"bike_id":"c713fa35-4d62-4e3a-9e6e-1f822bda8196","system_id":"levelo_inurba_marseille","lat":43.295169,"lon":5.390426,"is_reserved":false,"is_disabled":false,"rental_uris":{"android":"levelo://app?vid=c713fa35-4d62-4e3a-9e6e-1f822bda8196","ios":"levelo://app?vid=c713fa35-4d62-4e3a-9e6e-1f822bda8196"},"vehicle_type_id":"4","last_reported":1724083832,"current_range_meters":10400,"station_id":"ce4bh3p2rcd13ifvqdp0","pricing_plan_id":"cebpf4jnsgd1na2vs0mg"},{"bike_id":"798d4b2e-9389-474c-95cb-73fa5443b68b","system_id":"levelo_inurba_marseille","lat":43.330442,"lon":5.389148,"is_reserved":false,"is_disabled":false,"rental_uris":{"android":"levelo://app?vid=798d4b2e-9389-474c-95cb-73fa5443b68b","ios":"levelo://app?vid=798d4b2e-9389-474c-95cb-73fa5443b68b"},"vehicle_type_id":"4","last_reported":1724083832,"current_range_meters":7600,"station_id":"ce4bhr92rcd13ifvqhrg","pricing_plan_id":"cebpf4jnsgd1na2vs0mg"},{"bike_id":"ea188c12-63f1-4917-8115-0e3adf763a12","system_id":"levelo_inurba_marseille","lat":43.330204,"lon":5.39036,"is_reserved":false,"is_disabled":false,"rental_uris":{"android":"levelo://app?vid=ea188c12-63f1-4917-8115-0e3adf763a12","ios":"levelo://app?vid=ea188c12-63f1-4917-8115-0e3adf763a12"},"vehicle_type_id":"4","last_reported":1724083832,"current_range_meters":13600,"station_id":"ce4bhr92rcd13ifvqhrg","pricing_plan_id":"cebpf4jnsgd1na2vs0mg"},{"bike_id":"266be89d-3858-4d33-88ca-708cc3e68ea4","system_id":"levelo_inurba_marseille","lat":43.330442,"lon":5.389148,"is_reserved":false,"is_disabled":false,"rental_uris":{"android":"levelo://app?vid=266be89d-3858-4d33-88ca-708cc3e68ea4","ios":"levelo://app?vid=266be89d-3858-4d33-88ca-708cc3e68ea4"},"vehicle_type_id":"4","last_reported":1724083832,"current_range_meters":31600,"station_id":"ce4bhr92rcd13ifvqhrg","pricing_plan_id":"cebpf4jnsgd1na2vs0mg"},{"bike_id":"ee0d0773-cb7f-41b3-a9dd-6d7b8e68ee20","system_id":"levelo_inurba_marseille","lat":43.330442,"lon":5.389148,"is_reserved":false,"is_disabled":false,"rental_uris":{"android":"levelo://app?vid=ee0d0773-cb7f-41b3-a9dd-6d7b8e68ee20","ios":"levelo://app?vid=ee0d0773-cb7f-41b3-a9dd-6d7b8e68ee20"},"vehicle_type_id":"4","last_reported":1724083832,"current_range_meters":31600,"station_id":"ce4bhr92rcd13ifvqhrg","pricing_plan_id":"cebpf4jnsgd1na2vs0mg"},{"bike_id":"d2478b89-e017-4ef6-97ff-b42dd22055d4","system_id":"levelo_inurba_marseille","lat":43.330442,"lon":5.389148,"is_reserved":false,"is_disabled":false,"rental_uris":{"android":"levelo://app?vid=d2478b89-e017-4ef6-97ff-b42dd22055d4","ios":"levelo://app?vid=d2478b89-e017-4ef6-97ff-b42dd22055d4"},"vehicle_type_id":"4","last_reported":1724083832,"current_range_meters":28400,"station_id":"ce4bhr92rcd13ifvqhrg","pricing_plan_id":"cebpf4jnsgd1na2vs0mg"},{"bike_id":"8b995eda-d792-4667-8e45-2a3b6bc9f8e8","system_id":"levelo_inurba_marseille","lat":43.330194,"lon":5.390441,"is_reserved":false,"is_disabled":false,"rental_uris":{"android":"levelo://app?vid=8b995eda-d792-4667-8e45-2a3b6bc9f8e8","ios":"levelo://app?vid=8b995eda-d792-4667-8e45-2a3b6bc9f8e8"},"vehicle_type_id":"4","last_reported":1724083832,"current_range_meters":31200,"station_id":"ce4bhr92rcd13ifvqhrg","pricing_plan_id":"cebpf4jnsgd1na2vs0mg"},{"bike_id":"39597a1f-f8db-4f79-b704-e97ed580d241","system_id":"levelo_inurba_marseille","lat":43.330442,"lon":5.389148,"is_reserved":false,"is_disabled":false,"rental_uris":{"android":"levelo://app?vid=39597a1f-f8db-4f79-b704-e97ed580d241","ios":"levelo://app?vid=39597a1f-f8db-4f79-b704-e97ed580d241"},"vehicle_type_id":"4","last_reported":1724083832,"current_range_meters":31600,"station_id":"ce4bhr92rcd13ifvqhrg","pricing_plan_id":"cebpf4jnsgd1na2vs0mg"},{"bike_id":"864a9688-380a-454b-bf6d-85255f4cbe06","system_id":"levelo_inurba_marseille","lat":43.33023,"lon":5.3904,"is_reserved":false,"is_disabled":false,"rental_uris":{"android":"levelo://app?vid=864a9688-380a-454b-bf6d-85255f4cbe06","ios":"levelo://app?vid=864a9688-380a-454b-bf6d-85255f4cbe06"},"vehicle_type_id":"4","last_reported":1724083832,"current_range_meters":27600,"station_id":"ce4bhr92rcd13ifvqhrg","pricing_plan_id":"cebpf4jnsgd1na2vs0mg"},{"bike_id":"31c77f7b-f599-4cdb-8331-d05b0e6ced66","system_id":"levelo_inurba_marseille","lat":43.33022,"lon":5.39042,"is_reserved":false,"is_disabled":false,"rental_uris":{"android":"levelo://app?vid=31c77f7b-f599-4cdb-8331-d05b0e6ced66","ios":"levelo://app?vid=31c77f7b-f599-4cdb-8331-d05b0e6ced66"},"vehicle_type_id":"4","last_reported":1724083832,"current_range_meters":24800,"station_id":"ce4bhr92rcd13ifvqhrg","pricing_plan_id":"cebpf4jnsgd1na2vs0mg"},{"bike_id":"bb76d034-b000-414e-af9e-0cf3d4922ed6","system_id":"levelo_inurba_marseille","lat":43.33024,"lon":5.39041,"is_reserved":false,"is_disabled":false,"rental_uris":{"android":"levelo://app?vid=bb76d034-b000-414e-af9e-0cf3d4922ed6","ios":"levelo://app?vid=bb76d034-b000-414e-af9e-0cf3d4922ed6"},"vehicle_type_id":"4","last_reported":1724083832,"current_range_meters":27600,"station_id":"ce4bhr92rcd13ifvqhrg","pricing_plan_id":"cebpf4jnsgd1na2vs0mg"},{"bike_id":"adb755f0-596a-484b-a14c-c563dd92c33e","system_id":"levelo_inurba_marseille","lat":43.33028,"lon":5.39036,"is_reserved":false,"is_disabled":false,"rental_uris":{"android":"levelo://app?vid=adb755f0-596a-484b-a14c-c563dd92c33e","ios":"levelo://app?vid=adb755f0-596a-484b-a14c-c563dd92c33e"},"vehicle_type_id":"4","last_reported":1724083832,"current_range_meters":30800,"station_id":"ce4bhr92rcd13ifvqhrg","pricing_plan_id":"cebpf4jnsgd1na2vs0mg"},{"bike_id":"a1f77ca5-3240-4b1b-a07e-c4c4a5330094","system_id":"levelo_inurba_marseille","lat":43.33025,"lon":5.39043,"is_reserved":false,"is_disabled":false,"rental_uris":{"android":"levelo://app?vid=a1f77ca5-3240-4b1b-a07e-c4c4a5330094","ios":"levelo://app?vid=a1f77ca5-3240-4b1b-a07e-c4c4a5330094"},"vehicle_type_id":"4","last_reported":1724083832,"current_range_meters":4800,"station_id":"ce4bhr92rcd13ifvqhrg","pricing_plan_id":"cebpf4jnsgd1na2vs0mg"},{"bike_id":"fb5f022c-7a1a-4a19-bd54-6f1af4184084","system_id":"levelo_inurba_marseille","lat":43.290094,"lon":5.381264,"is_reserved":false,"is_disabled":false,"rental_uris":{"android":"levelo://app?vid=fb5f022c-7a1a-4a19-bd54-6f1af4184084","ios":"levelo://app?vid=fb5f022c-7a1a-4a19-bd54-6f1af4184084"},"vehicle_type_id":"4","last_reported":1724083832,"current_range_meters":30800,"station_id":"ce4bh4p2rcd13ifvqe1g","pricing_plan_id":"cebpf4jnsgd1na2vs0mg"},{"bike_id":"a8879a81-4b75-4acc-b636-b2c5cf61bdcc","system_id":"levelo_inurba_marseille","lat":43.290094,"lon":5.381264,"is_reserved":false,"is_disabled":false,"rental_uris":{"android":"levelo://app?vid=a8879a81-4b75-4acc-b636-b2c5cf61bdcc","ios":"levelo://app?vid=a8879a81-4b75-4acc-b636-b2c5cf61bdcc"},"vehicle_type_id":"4","last_reported":1724083832,"current_range_meters":28800,"station_id":"ce4bh4p2rcd13ifvqe1g","pricing_plan_id":"cebpf4jnsgd1na2vs0mg"},{"bike_id":"8ee2570d-e566-4fe4-82be-34329bbac571","system_id":"levelo_inurba_marseille","lat":43.290094,"lon":5.381264,"is_reserved":false,"is_disabled":false,"rental_uris":{"android":"levelo://app?vid=8ee2570d-e566-4fe4-82be-34329bbac571","ios":"levelo://app?vid=8ee2570d-e566-4fe4-82be-34329bbac571"},"vehicle_type_id":"4","last_reported":1724083832,"current_range_meters":14800,"station_id":"ce4bh4p2rcd13ifvqe1g","pricing_plan_id":"cebpf4jnsgd1na2vs0mg"},{"bike_id":"a0f359f1-0967-4367-9c0c-a0e88922594b","system_id":"levelo_inurba_marseille","lat":43.28856,"lon":5.358371,"is_reserved":false,"is_disabled":false,"rental_uris":{"android":"levelo://app?vid=a0f359f1-0967-4367-9c0c-a0e88922594b","ios":"levelo://app?vid=a0f359f1-0967-4367-9c0c-a0e88922594b"},"vehicle_type_id":"4","last_reported":1724083832,"current_range_meters":17200,"station_id":"ce4bhb12rcd13ifvqem0","pricing_plan_id":"cebpf4jnsgd1na2vs0mg"},{"bike_id":"e2471044-b281-43d9-aadc-bde046b020a9","system_id":"levelo_inurba_marseille","lat":43.28859,"lon":5.35833,"is_reserved":false,"is_disabled":false,"rental_uris":{"android":"levelo://app?vid=e2471044-b281-43d9-aadc-bde046b020a9","ios":"levelo://app?vid=e2471044-b281-43d9-aadc-bde046b020a9"},"vehicle_type_id":"4","last_reported":1724083832,"current_range_meters":0,"station_id":"ce4bhb12rcd13ifvqem0","pricing_plan_id":"cebpf4jnsgd1na2vs0mg"},{"bike_id":"f8f29ea7-67e9-465d-9c41-14d78a3272c2","system_id":"levelo_inurba_marseille","lat":43.28792,"lon":5.36347,"is_reserved":false,"is_disabled":false,"rental_uris":{"android":"levelo://app?vid=f8f29ea7-67e9-465d-9c41-14d78a3272c2","ios":"levelo://app?vid=f8f29ea7-67e9-465d-9c41-14d78a3272c2"},"vehicle_type_id":"4","last_reported":1724083832,"current_range_meters":15200,"station_id":"","pricing_plan_id":"cebpf4jnsgd1na2vs0mg"},{"bike_id":"9e0d75ed-487f-4489-8182-2ef7c527cf84","system_id":"levelo_inurba_marseille","lat":43.28856,"lon":5.358371,"is_reserved":false,"is_disabled":false,"rental_uris":{"android":"levelo://app?vid=9e0d75ed-487f-4489-8182-2ef7c527cf84","ios":"levelo://app?vid=9e0d75ed-487f-4489-8182-2ef7c527cf84"},"vehicle_type_id":"4","last_reported":1724083832,"current_range_meters":6800,"station_id":"ce4bhb12rcd13ifvqem0","pricing_plan_id":"cebpf4jnsgd1na2vs0mg"},{"bike_id":"d144a543-b518-4b60-94a9-1ebce2f2ba07","system_id":"levelo_inurba_marseille","lat":43.28852,"lon":5.35841,"is_reserved":false,"is_disabled":false,"rental_uris":{"android":"levelo://app?vid=d144a543-b518-4b60-94a9-1ebce2f2ba07","ios":"levelo://app?vid=d144a543-b518-4b60-94a9-1ebce2f2ba07"},"vehicle_type_id":"4","last_reported":1724083832,"current_range_meters":20000,"station_id":"ce4bhb12rcd13ifvqem0","pricing_plan_id":"cebpf4jnsgd1na2vs0mg"},{"bike_id":"1836cc79-05f9-4e7a-b5bb-2f4ade13265f","system_id":"levelo_inurba_marseille","lat":43.337188,"lon":5.374574,"is_reserved":false,"is_disabled":false,"rental_uris":{"android":"levelo://app?vid=1836cc79-05f9-4e7a-b5bb-2f4ade13265f","ios":"levelo://app?vid=1836cc79-05f9-4e7a-b5bb-2f4ade13265f"},"vehicle_type_id":"4","last_reported":1724083832,"current_range_meters":23200,"station_id":"","pricing_plan_id":"cebpf4jnsgd1na2vs0mg"},{"bike_id":"0e29bb4b-a142-468e-b1d8-2aad49f218eb","system_id":"levelo_inurba_marseille","lat":43.33733,"lon":5.37443,"is_reserved":false,"is_disabled":false,"rental_uris":{"android":"levelo://app?vid=0e29bb4b-a142-468e-b1d8-2aad49f218eb","ios":"levelo://app?vid=0e29bb4b-a142-468e-b1d8-2aad49f218eb"},"vehicle_type_id":"4","last_reported":1724083832,"current_range_meters":26800,"station_id":"","pricing_plan_id":"cebpf4jnsgd1na2vs0mg"},{"bike_id":"374f8495-693e-4904-ba59-4c621a155ebe","system_id":"levelo_inurba_marseille","lat":43.30931,"lon":5.40136,"is_reserved":false,"is_disabled":false,"rental_uris":{"android":"levelo://app?vid=374f8495-693e-4904-ba59-4c621a155ebe","ios":"levelo://app?vid=374f8495-693e-4904-ba59-4c621a155ebe"},"vehicle_type_id":"4","last_reported":1724083832,"current_range_meters":31200,"station_id":"ce4bgvp2rcd13ifvqct0","pricing_plan_id":"cebpf4jnsgd1na2vs0mg"},{"bike_id":"836f7ce4-983a-46fa-b2a0-2d4a0f3b4d4c","system_id":"levelo_inurba_marseille","lat":43.309323,"lon":5.401377,"is_reserved":false,"is_disabled":false,"rental_uris":{"android":"levelo://app?vid=836f7ce4-983a-46fa-b2a0-2d4a0f3b4d4c","ios":"levelo://app?vid=836f7ce4-983a-46fa-b2a0-2d4a0f3b4d4c"},"vehicle_type_id":"4","last_reported":1724083832,"current_range_meters":26000,"station_id":"ce4bgvp2rcd13ifvqct0","pricing_plan_id":"cebpf4jnsgd1na2vs0mg"},{"bike_id":"b3bc95aa-c280-4f4d-b1b3-df60b5d859ec","system_id":"levelo_inurba_marseille","lat":43.337444,"lon":5.374475,"is_reserved":false,"is_disabled":false,"rental_uris":{"android":"levelo://app?vid=b3bc95aa-c280-4f4d-b1b3-df60b5d859ec","ios":"levelo://app?vid=b3bc95aa-c280-4f4d-b1b3-df60b5d859ec"},"vehicle_type_id":"3","last_reported":1724083832,"current_range_meters":24800,"station_id":"","pricing_plan_id":"cebpf4jnsgd1na2vs0mg"},{"bike_id":"1efa0b4a-e2bc-496e-a256-a2f14c3799dd","system_id":"levelo_inurba_marseille","lat":43.337457,"lon":5.37458,"is_reserved":false,"is_disabled":false,"rental_uris":{"android":"levelo://app?vid=1efa0b4a-e2bc-496e-a256-a2f14c3799dd","ios":"levelo://app?vid=1efa0b4a-e2bc-496e-a256-a2f14c3799dd"},"vehicle_type_id":"4","last_reported":1724083832,"current_range_meters":10800,"station_id":"","pricing_plan_id":"cebpf4jnsgd1na2vs0mg"},{"bike_id":"54fdf921-46c4-497a-93b1-cbec754b3d62","system_id":"levelo_inurba_marseille","lat":43.33749,"lon":5.37464,"is_reserved":false,"is_disabled":false,"rental_uris":{"android":"levelo://app?vid=54fdf921-46c4-497a-93b1-cbec754b3d62","ios":"levelo://app?vid=54fdf921-46c4-497a-93b1-cbec754b3d62"},"vehicle_type_id":"4","last_reported":1724083832,"current_range_meters":22800,"station_id":"","pricing_plan_id":"cebpf4jnsgd1na2vs0mg"},{"bike_id":"5f490b04-8ec8-49bd-9c24-398595aab77a","system_id":"levelo_inurba_marseille","lat":43.30642,"lon":5.401031,"is_reserved":false,"is_disabled":false,"rental_uris":{"android":"levelo://app?vid=5f490b04-8ec8-49bd-9c24-398595aab77a","ios":"levelo://app?vid=5f490b04-8ec8-49bd-9c24-398595aab77a"},"vehicle_type_id":"4","last_reported":1724083832,"current_range_meters":6000,"station_id":"ce4bh112rcd13ifvqda0","pricing_plan_id":"cebpf4jnsgd1na2vs0mg"},{"bike_id":"d832636a-6d4e-46e4-b5bb-a29dca938cff","system_id":"levelo_inurba_marseille","lat":43.301117,"lon":5.398795,"is_reserved":false,"is_disabled":false,"rental_uris":{"android":"levelo://app?vid=d832636a-6d4e-46e4-b5bb-a29dca938cff","ios":"levelo://app?vid=d832636a-6d4e-46e4-b5bb-a29dca938cff"},"vehicle_type_id":"4","last_reported":1724083832,"current_range_meters":15200,"station_id":"ce4bh0h2rcd13ifvqd40","pricing_plan_id":"cebpf4jnsgd1na2vs0mg"},{"bike_id":"f617c3b9-8612-4a18-9ba0-eb4387033ba9","system_id":"levelo_inurba_marseille","lat":43.28891,"lon":5.3539,"is_reserved":false,"is_disabled":false,"rental_uris":{"android":"levelo://app?vid=f617c3b9-8612-4a18-9ba0-eb4387033ba9","ios":"levelo://app?vid=f617c3b9-8612-4a18-9ba0-eb4387033ba9"},"vehicle_type_id":"4","last_reported":1724083832,"current_range_meters":15200,"station_id":"","pricing_plan_id":"cebpf4jnsgd1na2vs0mg"},{"bike_id":"70f4af36-432a-4516-aa5f-7cddbe12b3a7","system_id":"levelo_inurba_marseille","lat":43.301117,"lon":5.398795,"is_reserved":false,"is_disabled":false,"rental_uris":{"android":"levelo://app?vid=70f4af36-432a-4516-aa5f-7cddbe12b3a7","ios":"levelo://app?vid=70f4af36-432a-4516-aa5f-7cddbe12b3a7"},"vehicle_type_id":"4","last_reported":1724083832,"current_range_meters":17600,"station_id":"ce4bh0h2rcd13ifvqd40","pricing_plan_id":"cebpf4jnsgd1na2vs0mg"},{"bike_id":"fef0c398-463f-49f5-843c-14e0867cc777","system_id":"levelo_inurba_marseille","lat":43.301427,"lon":5.39868,"is_reserved":false,"is_disabled":false,"rental_uris":{"android":"levelo://app?vid=fef0c398-463f-49f5-843c-14e0867cc777","ios":"levelo://app?vid=fef0c398-463f-49f5-843c-14e0867cc777"},"vehicle_type_id":"4","last_reported":1724083832,"current_range_meters":30800,"station_id":"ce4bh0h2rcd13ifvqd40","pricing_plan_id":"cebpf4jnsgd1na2vs0mg"},{"bike_id":"ddb41de0-e0d7-4aa2-875f-3ccc7ebc770f","system_id":"levelo_inurba_marseille","lat":43.30134,"lon":5.39868,"is_reserved":false,"is_disabled":false,"rental_uris":{"android":"levelo://app?vid=ddb41de0-e0d7-4aa2-875f-3ccc7ebc770f","ios":"levelo://app?vid=ddb41de0-e0d7-4aa2-875f-3ccc7ebc770f"},"vehicle_type_id":"4","last_reported":1724083832,"current_range_meters":31200,"station_id":"ce4bh0h2rcd13ifvqd40","pricing_plan_id":"cebpf4jnsgd1na2vs0mg"},{"bike_id":"0e2ec2da-e200-4f10-949e-dd98dbeb1432","system_id":"levelo_inurba_marseille","lat":43.301117,"lon":5.398795,"is_reserved":false,"is_disabled":false,"rental_uris":{"android":"levelo://app?vid=0e2ec2da-e200-4f10-949e-dd98dbeb1432","ios":"levelo://app?vid=0e2ec2da-e200-4f10-949e-dd98dbeb1432"},"vehicle_type_id":"4","last_reported":1724083832,"current_range_meters":31600,"station_id":"ce4bh0h2rcd13ifvqd40","pricing_plan_id":"cebpf4jnsgd1na2vs0mg"},{"bike_id":"0fac126d-360d-43c0-912a-cfc422598b78","system_id":"levelo_inurba_marseille","lat":43.28727,"lon":5.36078,"is_reserved":false,"is_disabled":false,"rental_uris":{"android":"levelo://app?vid=0fac126d-360d-43c0-912a-cfc422598b78","ios":"levelo://app?vid=0fac126d-360d-43c0-912a-cfc422598b78"},"vehicle_type_id":"4","last_reported":1724083832,"current_range_meters":24800,"station_id":"cki0cbj6b192h4jlfktg","pricing_plan_id":"cebpf4jnsgd1na2vs0mg"},{"bike_id":"de99460e-d3df-46d2-84c0-4b51a8d696c2","system_id":"levelo_inurba_marseille","lat":43.286591,"lon":5.363346,"is_reserved":false,"is_disabled":false,"rental_uris":{"android":"levelo://app?vid=de99460e-d3df-46d2-84c0-4b51a8d696c2","ios":"levelo://app?vid=de99460e-d3df-46d2-84c0-4b51a8d696c2"},"vehicle_type_id":"4","last_reported":1724083832,"current_range_meters":28000,"station_id":"ce4bhah2rcd13ifvqej0","pricing_plan_id":"cebpf4jnsgd1na2vs0mg"},{"bike_id":"1d4cdcf9-b6da-42cc-b6c4-714ff44b1c60","system_id":"levelo_inurba_marseille","lat":43.286961,"lon":5.373785,"is_reserved":false,"is_disabled":false,"rental_uris":{"android":"levelo://app?vid=1d4cdcf9-b6da-42cc-b6c4-714ff44b1c60","ios":"levelo://app?vid=1d4cdcf9-b6da-42cc-b6c4-714ff44b1c60"},"vehicle_type_id":"4","last_reported":1724083832,"current_range_meters":22000,"station_id":"ce4bh3p2rcd13ifvqdq0","pricing_plan_id":"cebpf4jnsgd1na2vs0mg"},{"bike_id":"89a8da92-b4b1-4fc3-a9f7-2240901bb82c","system_id":"levelo_inurba_marseille","lat":43.286591,"lon":5.363346,"is_reserved":false,"is_disabled":false,"rental_uris":{"android":"levelo://app?vid=89a8da92-b4b1-4fc3-a9f7-2240901bb82c","ios":"levelo://app?vid=89a8da92-b4b1-4fc3-a9f7-2240901bb82c"},"vehicle_type_id":"4","last_reported":1724083832,"current_range_meters":2000,"station_id":"ce4bhah2rcd13ifvqej0","pricing_plan_id":"cebpf4jnsgd1na2vs0mg"},{"bike_id":"f5126110-6274-4c29-9deb-ada8c8e6b0e9","system_id":"levelo_inurba_marseille","lat":43.286591,"lon":5.363346,"is_reserved":false,"is_disabled":false,"rental_uris":{"android":"levelo://app?vid=f5126110-6274-4c29-9deb-ada8c8e6b0e9","ios":"levelo://app?vid=f5126110-6274-4c29-9deb-ada8c8e6b0e9"},"vehicle_type_id":"4","last_reported":1724083832,"current_range_meters":22000,"station_id":"ce4bhah2rcd13ifvqej0","pricing_plan_id":"cebpf4jnsgd1na2vs0mg"},{"bike_id":"ca7c6c80-f083-4ffd-b272-11a83d56f241","system_id":"levelo_inurba_marseille","lat":43.286593,"lon":5.363346,"is_reserved":false,"is_disabled":false,"rental_uris":{"android":"levelo://app?vid=ca7c6c80-f083-4ffd-b272-11a83d56f241","ios":"levelo://app?vid=ca7c6c80-f083-4ffd-b272-11a83d56f241"},"vehicle_type_id":"4","last_reported":1724083832,"current_range_meters":19600,"station_id":"ce4bhah2rcd13ifvqej0","pricing_plan_id":"cebpf4jnsgd1na2vs0mg"},{"bike_id":"722e49af-ff15-4ec8-80e9-4a9f4ccf401d","system_id":"levelo_inurba_marseille","lat":43.298681,"lon":5.397225,"is_reserved":false,"is_disabled":false,"rental_uris":{"android":"levelo://app?vid=722e49af-ff15-4ec8-80e9-4a9f4ccf401d","ios":"levelo://app?vid=722e49af-ff15-4ec8-80e9-4a9f4ccf401d"},"vehicle_type_id":"4","last_reported":1724083832,"current_range_meters":22400,"station_id":"ce4bh0h2rcd13ifvqd50","pricing_plan_id":"cebpf4jnsgd1na2vs0mg"},{"bike_id":"193951b1-e03a-4c0a-b58e-1ce8fed12ebb","system_id":"levelo_inurba_marseille","lat":43.30243,"lon":5.40055,"is_reserved":false,"is_disabled":false,"rental_uris":{"android":"levelo://app?vid=193951b1-e03a-4c0a-b58e-1ce8fed12ebb","ios":"levelo://app?vid=193951b1-e03a-4c0a-b58e-1ce8fed12ebb"},"vehicle_type_id":"4","last_reported":1724083832,"current_range_meters":0,"station_id":"ce4bgvh2rcd13ifvqcs0","pricing_plan_id":"cebpf4jnsgd1na2vs0mg"},{"bike_id":"ca824a9a-b73e-4d81-b025-ec5eda7ea85f","system_id":"levelo_inurba_marseille","lat":43.290336,"lon":5.386425,"is_reserved":false,"is_disabled":false,"rental_uris":{"android":"levelo://app?vid=ca824a9a-b73e-4d81-b025-ec5eda7ea85f","ios":"levelo://app?vid=ca824a9a-b73e-4d81-b025-ec5eda7ea85f"},"vehicle_type_id":"4","last_reported":1724083832,"current_range_meters":4800,"station_id":"ce4bh4p2rcd13ifvqe0g","pricing_plan_id":"cebpf4jnsgd1na2vs0mg"},{"bike_id":"b6991a5b-a4b2-4412-b269-dc5db63d1b73","system_id":"levelo_inurba_marseille","lat":43.28612,"lon":5.37063,"is_reserved":false,"is_disabled":false,"rental_uris":{"android":"levelo://app?vid=b6991a5b-a4b2-4412-b269-dc5db63d1b73","ios":"levelo://app?vid=b6991a5b-a4b2-4412-b269-dc5db63d1b73"},"vehicle_type_id":"4","last_reported":1724083832,"current_range_meters":0,"station_id":"ce4bht12rcd13ifvqi60","pricing_plan_id":"cebpf4jnsgd1na2vs0mg"},{"bike_id":"900f09cf-821f-43c8-9533-322a27ae3b99","system_id":"levelo_inurba_marseille","lat":43.28611,"lon":5.37057,"is_reserved":false,"is_disabled":false,"rental_uris":{"android":"levelo://app?vid=900f09cf-821f-43c8-9533-322a27ae3b99","ios":"levelo://app?vid=900f09cf-821f-43c8-9533-322a27ae3b99"},"vehicle_type_id":"4","last_reported":1724083832,"current_range_meters":0,"station_id":"ce4bht12rcd13ifvqi60","pricing_plan_id":"cebpf4jnsgd1na2vs0mg"},{"bike_id":"295d214f-82ec-4b76-9f65-925b1504b0a6","system_id":"levelo_inurba_marseille","lat":43.287184,"lon":5.37937,"is_reserved":false,"is_disabled":false,"rental_uris":{"android":"levelo://app?vid=295d214f-82ec-4b76-9f65-925b1504b0a6","ios":"levelo://app?vid=295d214f-82ec-4b76-9f65-925b1504b0a6"},"vehicle_type_id":"4","last_reported":1724083832,"current_range_meters":0,"station_id":"ce4bh9p2rcd13ifvqec0","pricing_plan_id":"cebpf4jnsgd1na2vs0mg"},{"bike_id":"8a7dd363-4797-4925-b20c-1e03aa6cffbf","system_id":"levelo_inurba_marseille","lat":43.28721,"lon":5.37931,"is_reserved":false,"is_disabled":false,"rental_uris":{"android":"levelo://app?vid=8a7dd363-4797-4925-b20c-1e03aa6cffbf","ios":"levelo://app?vid=8a7dd363-4797-4925-b20c-1e03aa6cffbf"},"vehicle_type_id":"4","last_reported":1724083832,"current_range_meters":0,"station_id":"ce4bh9p2rcd13ifvqec0","pricing_plan_id":"cebpf4jnsgd1na2vs0mg"},{"bike_id":"bc64b6c7-2861-4095-b98b-7e140831cb95","system_id":"levelo_inurba_marseille","lat":43.28716,"lon":5.37925,"is_reserved":false,"is_disabled":false,"rental_uris":{"android":"levelo://app?vid=bc64b6c7-2861-4095-b98b-7e140831cb95","ios":"levelo://app?vid=bc64b6c7-2861-4095-b98b-7e140831cb95"},"vehicle_type_id":"4","last_reported":1724083832,"current_range_meters":0,"station_id":"ce4bh9p2rcd13ifvqec0","pricing_plan_id":"cebpf4jnsgd1na2vs0mg"},{"bike_id":"5b73de12-d43f-45ac-8ca9-96ffd67ef5b2","system_id":"levelo_inurba_marseille","lat":43.291994,"lon":5.392907,"is_reserved":false,"is_disabled":false,"rental_uris":{"android":"levelo://app?vid=5b73de12-d43f-45ac-8ca9-96ffd67ef5b2","ios":"levelo://app?vid=5b73de12-d43f-45ac-8ca9-96ffd67ef5b2"},"vehicle_type_id":"4","last_reported":1724083832,"current_range_meters":12800,"station_id":"ce4bh192rcd13ifvqdd0","pricing_plan_id":"cebpf4jnsgd1na2vs0mg"},{"bike_id":"1aea7d07-70fd-4552-95b5-3e8e8c5d780f","system_id":"levelo_inurba_marseille","lat":43.291994,"lon":5.392907,"is_reserved":false,"is_disabled":false,"rental_uris":{"android":"levelo://app?vid=1aea7d07-70fd-4552-95b5-3e8e8c5d780f","ios":"levelo://app?vid=1aea7d07-70fd-4552-95b5-3e8e8c5d780f"},"vehicle_type_id":"4","last_reported":1724083832,"current_range_meters":0,"station_id":"ce4bh192rcd13ifvqdd0","pricing_plan_id":"cebpf4jnsgd1na2vs0mg"},{"bike_id":"6700042a-9731-4ed4-8c72-fafec628d45a","system_id":"levelo_inurba_marseille","lat":43.291994,"lon":5.392907,"is_reserved":false,"is_disabled":false,"rental_uris":{"android":"levelo://app?vid=6700042a-9731-4ed4-8c72-fafec628d45a","ios":"levelo://app?vid=6700042a-9731-4ed4-8c72-fafec628d45a"},"vehicle_type_id":"4","last_reported":1724083832,"current_range_meters":14400,"station_id":"ce4bh192rcd13ifvqdd0","pricing_plan_id":"cebpf4jnsgd1na2vs0mg"},{"bike_id":"e13f3dbd-a31e-4e6b-8fbf-ace055ca07e3","system_id":"levelo_inurba_marseille","lat":43.28502,"lon":5.35964,"is_reserved":false,"is_disabled":false,"rental_uris":{"android":"levelo://app?vid=e13f3dbd-a31e-4e6b-8fbf-ace055ca07e3","ios":"levelo://app?vid=e13f3dbd-a31e-4e6b-8fbf-ace055ca07e3"},"vehicle_type_id":"4","last_reported":1724083832,"current_range_meters":12400,"station_id":"","pricing_plan_id":"cebpf4jnsgd1na2vs0mg"},{"bike_id":"f1c20a0e-2fa6-4156-9ce1-308d4f9dbe08","system_id":"levelo_inurba_marseille","lat":43.291994,"lon":5.392907,"is_reserved":false,"is_disabled":false,"rental_uris":{"android":"levelo://app?vid=f1c20a0e-2fa6-4156-9ce1-308d4f9dbe08","ios":"levelo://app?vid=f1c20a0e-2fa6-4156-9ce1-308d4f9dbe08"},"vehicle_type_id":"4","last_reported":1724083832,"current_range_meters":15600,"station_id":"ce4bh192rcd13ifvqdd0","pricing_plan_id":"cebpf4jnsgd1na2vs0mg"},{"bike_id":"3a5a6769-1fd4-4526-9671-765112c2c84b","system_id":"levelo_inurba_marseille","lat":43.28462,"lon":5.35894,"is_reserved":false,"is_disabled":false,"rental_uris":{"android":"levelo://app?vid=3a5a6769-1fd4-4526-9671-765112c2c84b","ios":"levelo://app?vid=3a5a6769-1fd4-4526-9671-765112c2c84b"},"vehicle_type_id":"4","last_reported":1724083832,"current_range_meters":0,"station_id":"ce4bhah2rcd13ifvqei0","pricing_plan_id":"cebpf4jnsgd1na2vs0mg"},{"bike_id":"cda615ea-4c54-4cdd-8d0b-bef23b0ac180","system_id":"levelo_inurba_marseille","lat":43.28463,"lon":5.35887,"is_reserved":false,"is_disabled":false,"rental_uris":{"android":"levelo://app?vid=cda615ea-4c54-4cdd-8d0b-bef23b0ac180","ios":"levelo://app?vid=cda615ea-4c54-4cdd-8d0b-bef23b0ac180"},"vehicle_type_id":"4","last_reported":1724083832,"current_range_meters":14000,"station_id":"ce4bhah2rcd13ifvqei0","pricing_plan_id":"cebpf4jnsgd1na2vs0mg"},{"bike_id":"88b31e86-4ac8-474e-8b3a-4bf1178b3c05","system_id":"levelo_inurba_marseille","lat":43.284538,"lon":5.358657,"is_reserved":false,"is_disabled":false,"rental_uris":{"android":"levelo://app?vid=88b31e86-4ac8-474e-8b3a-4bf1178b3c05","ios":"levelo://app?vid=88b31e86-4ac8-474e-8b3a-4bf1178b3c05"},"vehicle_type_id":"4","last_reported":1724083832,"current_range_meters":27600,"station_id":"ce4bhah2rcd13ifvqei0","pricing_plan_id":"cebpf4jnsgd1na2vs0mg"},{"bike_id":"d1f3dcb4-4b42-4399-8e66-493b99b32764","system_id":"levelo_inurba_marseille","lat":43.284534,"lon":5.358662,"is_reserved":false,"is_disabled":false,"rental_uris":{"android":"levelo://app?vid=d1f3dcb4-4b42-4399-8e66-493b99b32764","ios":"levelo://app?vid=d1f3dcb4-4b42-4399-8e66-493b99b32764"},"vehicle_type_id":"4","last_reported":1724083832,"current_range_meters":7200,"station_id":"ce4bhah2rcd13ifvqei0","pricing_plan_id":"cebpf4jnsgd1na2vs0mg"},{"bike_id":"a1d821a7-b4b9-474d-a839-25efb5f2b52e","system_id":"levelo_inurba_marseille","lat":43.284534,"lon":5.358662,"is_reserved":false,"is_disabled":false,"rental_uris":{"android":"levelo://app?vid=a1d821a7-b4b9-474d-a839-25efb5f2b52e","ios":"levelo://app?vid=a1d821a7-b4b9-474d-a839-25efb5f2b52e"},"vehicle_type_id":"4","last_reported":1724083832,"current_range_meters":3200,"station_id":"ce4bhah2rcd13ifvqei0","pricing_plan_id":"cebpf4jnsgd1na2vs0mg"},{"bike_id":"a813b11f-a213-4b1d-9d14-063bee66d9af","system_id":"levelo_inurba_marseille","lat":43.284534,"lon":5.358662,"is_reserved":false,"is_disabled":false,"rental_uris":{"android":"levelo://app?vid=a813b11f-a213-4b1d-9d14-063bee66d9af","ios":"levelo://app?vid=a813b11f-a213-4b1d-9d14-063bee66d9af"},"vehicle_type_id":"4","last_reported":1724083832,"current_range_meters":10400,"station_id":"ce4bhah2rcd13ifvqei0","pricing_plan_id":"cebpf4jnsgd1na2vs0mg"},{"bike_id":"d5d93719-7faa-4d12-a82c-b25730fa9645","system_id":"levelo_inurba_marseille","lat":43.319179,"lon":5.407725,"is_reserved":false,"is_disabled":false,"rental_uris":{"android":"levelo://app?vid=d5d93719-7faa-4d12-a82c-b25730fa9645","ios":"levelo://app?vid=d5d93719-7faa-4d12-a82c-b25730fa9645"},"vehicle_type_id":"4","last_reported":1724083832,"current_range_meters":16000,"station_id":"ce4bhq12rcd13ifvqhig","pricing_plan_id":"cebpf4jnsgd1na2vs0mg"},{"bike_id":"7bd992d2-957f-4928-b4a1-f1e8e60e6934","system_id":"levelo_inurba_marseille","lat":43.294314,"lon":5.397498,"is_reserved":false,"is_disabled":false,"rental_uris":{"android":"levelo://app?vid=7bd992d2-957f-4928-b4a1-f1e8e60e6934","ios":"levelo://app?vid=7bd992d2-957f-4928-b4a1-f1e8e60e6934"},"vehicle_type_id":"4","last_reported":1724083832,"current_range_meters":9200,"station_id":"ce4bh3h2rcd13ifvqdo0","pricing_plan_id":"cebpf4jnsgd1na2vs0mg"},{"bike_id":"bf1c0933-bd6c-4c60-b601-63a6142565ff","system_id":"levelo_inurba_marseille","lat":43.28624,"lon":5.35109,"is_reserved":false,"is_disabled":false,"rental_uris":{"android":"levelo://app?vid=bf1c0933-bd6c-4c60-b601-63a6142565ff","ios":"levelo://app?vid=bf1c0933-bd6c-4c60-b601-63a6142565ff"},"vehicle_type_id":"4","last_reported":1724083832,"current_range_meters":31200,"station_id":"ce4bhch2rcd13ifvqeug","pricing_plan_id":"cebpf4jnsgd1na2vs0mg"},{"bike_id":"d2435045-89d6-45c2-aa18-8562a28bc6ef","system_id":"levelo_inurba_marseille","lat":43.28623,"lon":5.35112,"is_reserved":false,"is_disabled":false,"rental_uris":{"android":"levelo://app?vid=d2435045-89d6-45c2-aa18-8562a28bc6ef","ios":"levelo://app?vid=d2435045-89d6-45c2-aa18-8562a28bc6ef"},"vehicle_type_id":"4","last_reported":1724083832,"current_range_meters":0,"station_id":"ce4bhch2rcd13ifvqeug","pricing_plan_id":"cebpf4jnsgd1na2vs0mg"},{"bike_id":"9dbdfeb5-f915-4e4f-962e-b0f3aad93307","system_id":"levelo_inurba_marseille","lat":43.28624,"lon":5.35102,"is_reserved":false,"is_disabled":false,"rental_uris":{"android":"levelo://app?vid=9dbdfeb5-f915-4e4f-962e-b0f3aad93307","ios":"levelo://app?vid=9dbdfeb5-f915-4e4f-962e-b0f3aad93307"},"vehicle_type_id":"4","last_reported":1724083832,"current_range_meters":22800,"station_id":"ce4bhch2rcd13ifvqeug","pricing_plan_id":"cebpf4jnsgd1na2vs0mg"},{"bike_id":"d6dfc70e-a93f-4ec9-ba6b-3b70dd0d89f8","system_id":"levelo_inurba_marseille","lat":43.28621,"lon":5.35106,"is_reserved":false,"is_disabled":false,"rental_uris":{"android":"levelo://app?vid=d6dfc70e-a93f-4ec9-ba6b-3b70dd0d89f8","ios":"levelo://app?vid=d6dfc70e-a93f-4ec9-ba6b-3b70dd0d89f8"},"vehicle_type_id":"4","last_reported":1724083832,"current_range_meters":16000,"station_id":"ce4bhch2rcd13ifvqeug","pricing_plan_id":"cebpf4jnsgd1na2vs0mg"},{"bike_id":"692b1280-c872-43e3-95b0-210923b1c01d","system_id":"levelo_inurba_marseille","lat":43.2862,"lon":5.35109,"is_reserved":false,"is_disabled":false,"rental_uris":{"android":"levelo://app?vid=692b1280-c872-43e3-95b0-210923b1c01d","ios":"levelo://app?vid=692b1280-c872-43e3-95b0-210923b1c01d"},"vehicle_type_id":"4","last_reported":1724083832,"current_range_meters":4800,"station_id":"ce4bhch2rcd13ifvqeug","pricing_plan_id":"cebpf4jnsgd1na2vs0mg"},{"bike_id":"e1f3378e-6394-4978-bc55-6a9e46ec6efb","system_id":"levelo_inurba_marseille","lat":43.2862,"lon":5.35109,"is_reserved":false,"is_disabled":false,"rental_uris":{"android":"levelo://app?vid=e1f3378e-6394-4978-bc55-6a9e46ec6efb","ios":"levelo://app?vid=e1f3378e-6394-4978-bc55-6a9e46ec6efb"},"vehicle_type_id":"4","last_reported":1724083832,"current_range_meters":1600,"station_id":"ce4bhch2rcd13ifvqeug","pricing_plan_id":"cebpf4jnsgd1na2vs0mg"},{"bike_id":"8f7ed6a9-d810-42df-aeca-0384469fb82b","system_id":"levelo_inurba_marseille","lat":43.286212,"lon":5.351017,"is_reserved":false,"is_disabled":false,"rental_uris":{"android":"levelo://app?vid=8f7ed6a9-d810-42df-aeca-0384469fb82b","ios":"levelo://app?vid=8f7ed6a9-d810-42df-aeca-0384469fb82b"},"vehicle_type_id":"4","last_reported":1724083832,"current_range_meters":14400,"station_id":"ce4bhch2rcd13ifvqeug","pricing_plan_id":"cebpf4jnsgd1na2vs0mg"},{"bike_id":"9f54ab34-3d3b-4cbe-90c3-d0f0ea97deb4","system_id":"levelo_inurba_marseille","lat":43.28617,"lon":5.35113,"is_reserved":false,"is_disabled":false,"rental_uris":{"android":"levelo://app?vid=9f54ab34-3d3b-4cbe-90c3-d0f0ea97deb4","ios":"levelo://app?vid=9f54ab34-3d3b-4cbe-90c3-d0f0ea97deb4"},"vehicle_type_id":"4","last_reported":1724083832,"current_range_meters":2400,"station_id":"ce4bhch2rcd13ifvqeug","pricing_plan_id":"cebpf4jnsgd1na2vs0mg"},{"bike_id":"034e01db-e2ff-41d3-990c-6264bf016edd","system_id":"levelo_inurba_marseille","lat":43.28619,"lon":5.35106,"is_reserved":false,"is_disabled":false,"rental_uris":{"android":"levelo://app?vid=034e01db-e2ff-41d3-990c-6264bf016edd","ios":"levelo://app?vid=034e01db-e2ff-41d3-990c-6264bf016edd"},"vehicle_type_id":"4","last_reported":1724083832,"current_range_meters":20800,"station_id":"ce4bhch2rcd13ifvqeug","pricing_plan_id":"cebpf4jnsgd1na2vs0mg"},{"bike_id":"6902473f-b8cf-4069-ac7f-2c62c5dcc646","system_id":"levelo_inurba_marseille","lat":43.286126,"lon":5.351262,"is_reserved":false,"is_disabled":false,"rental_uris":{"android":"levelo://app?vid=6902473f-b8cf-4069-ac7f-2c62c5dcc646","ios":"levelo://app?vid=6902473f-b8cf-4069-ac7f-2c62c5dcc646"},"vehicle_type_id":"4","last_reported":1724083832,"current_range_meters":2400,"station_id":"ce4bhch2rcd13ifvqeug","pricing_plan_id":"cebpf4jnsgd1na2vs0mg"},{"bike_id":"af030742-668c-4054-8db4-3ff90f86b69c","system_id":"levelo_inurba_marseille","lat":43.28617,"lon":5.35111,"is_reserved":false,"is_disabled":false,"rental_uris":{"android":"levelo://app?vid=af030742-668c-4054-8db4-3ff90f86b69c","ios":"levelo://app?vid=af030742-668c-4054-8db4-3ff90f86b69c"},"vehicle_type_id":"4","last_reported":1724083832,"current_range_meters":20800,"station_id":"ce4bhch2rcd13ifvqeug","pricing_plan_id":"cebpf4jnsgd1na2vs0mg"},{"bike_id":"97381919-a541-447e-92ed-9689f19270b3","system_id":"levelo_inurba_marseille","lat":43.28618,"lon":5.35107,"is_reserved":false,"is_disabled":false,"rental_uris":{"android":"levelo://app?vid=97381919-a541-447e-92ed-9689f19270b3","ios":"levelo://app?vid=97381919-a541-447e-92ed-9689f19270b3"},"vehicle_type_id":"4","last_reported":1724083832,"current_range_meters":0,"station_id":"ce4bhch2rcd13ifvqeug","pricing_plan_id":"cebpf4jnsgd1na2vs0mg"},{"bike_id":"4c2846ff-0751-4d25-9a93-f94e665f749c","system_id":"levelo_inurba_marseille","lat":43.28618,"lon":5.35104,"is_reserved":false,"is_disabled":false,"rental_uris":{"android":"levelo://app?vid=4c2846ff-0751-4d25-9a93-f94e665f749c","ios":"levelo://app?vid=4c2846ff-0751-4d25-9a93-f94e665f749c"},"vehicle_type_id":"4","last_reported":1724083832,"current_range_meters":9200,"station_id":"ce4bhch2rcd13ifvqeug","pricing_plan_id":"cebpf4jnsgd1na2vs0mg"},{"bike_id":"c91f4265-f2cf-4662-8034-39a0663d0517","system_id":"levelo_inurba_marseille","lat":43.28617,"lon":5.35107,"is_reserved":false,"is_disabled":false,"rental_uris":{"android":"levelo://app?vid=c91f4265-f2cf-4662-8034-39a0663d0517","ios":"levelo://app?vid=c91f4265-f2cf-4662-8034-39a0663d0517"},"vehicle_type_id":"4","last_reported":1724083832,"current_range_meters":18400,"station_id":"ce4bhch2rcd13ifvqeug","pricing_plan_id":"cebpf4jnsgd1na2vs0mg"},{"bike_id":"846d336f-9c4d-4baa-89ae-8ef533c05655","system_id":"levelo_inurba_marseille","lat":43.28617,"lon":5.35106,"is_reserved":false,"is_disabled":false,"rental_uris":{"android":"levelo://app?vid=846d336f-9c4d-4baa-89ae-8ef533c05655","ios":"levelo://app?vid=846d336f-9c4d-4baa-89ae-8ef533c05655"},"vehicle_type_id":"4","last_reported":1724083832,"current_range_meters":16400,"station_id":"ce4bhch2rcd13ifvqeug","pricing_plan_id":"cebpf4jnsgd1na2vs0mg"},{"bike_id":"ccc467f7-5ac2-4210-b44f-9d89cc451c86","system_id":"levelo_inurba_marseille","lat":43.28617,"lon":5.35105,"is_reserved":false,"is_disabled":false,"rental_uris":{"android":"levelo://app?vid=ccc467f7-5ac2-4210-b44f-9d89cc451c86","ios":"levelo://app?vid=ccc467f7-5ac2-4210-b44f-9d89cc451c86"},"vehicle_type_id":"4","last_reported":1724083832,"current_range_meters":14000,"station_id":"ce4bhch2rcd13ifvqeug","pricing_plan_id":"cebpf4jnsgd1na2vs0mg"},{"bike_id":"73668540-1bb5-45a4-aa13-a9168748e736","system_id":"levelo_inurba_marseille","lat":43.285856,"lon":5.350771,"is_reserved":false,"is_disabled":false,"rental_uris":{"android":"levelo://app?vid=73668540-1bb5-45a4-aa13-a9168748e736","ios":"levelo://app?vid=73668540-1bb5-45a4-aa13-a9168748e736"},"vehicle_type_id":"4","last_reported":1724083832,"current_range_meters":10800,"station_id":"ce4bhch2rcd13ifvqeug","pricing_plan_id":"cebpf4jnsgd1na2vs0mg"},{"bike_id":"45ac114b-c75e-4af3-971c-9b06ad78da97","system_id":"levelo_inurba_marseille","lat":43.285856,"lon":5.350771,"is_reserved":false,"is_disabled":false,"rental_uris":{"android":"levelo://app?vid=45ac114b-c75e-4af3-971c-9b06ad78da97","ios":"levelo://app?vid=45ac114b-c75e-4af3-971c-9b06ad78da97"},"vehicle_type_id":"4","last_reported":1724083832,"current_range_meters":30000,"station_id":"ce4bhch2rcd13ifvqeug","pricing_plan_id":"cebpf4jnsgd1na2vs0mg"},{"bike_id":"eae5f8d3-f24f-4e15-a4a1-bef92f3400b0","system_id":"levelo_inurba_marseille","lat":43.28615,"lon":5.35103,"is_reserved":false,"is_disabled":false,"rental_uris":{"android":"levelo://app?vid=eae5f8d3-f24f-4e15-a4a1-bef92f3400b0","ios":"levelo://app?vid=eae5f8d3-f24f-4e15-a4a1-bef92f3400b0"},"vehicle_type_id":"4","last_reported":1724083832,"current_range_meters":28000,"station_id":"ce4bhch2rcd13ifvqeug","pricing_plan_id":"cebpf4jnsgd1na2vs0mg"},{"bike_id":"c2d8dd8e-a640-4ea5-88b9-e819cd7411c5","system_id":"levelo_inurba_marseille","lat":43.28614,"lon":5.35105,"is_reserved":false,"is_disabled":false,"rental_uris":{"android":"levelo://app?vid=c2d8dd8e-a640-4ea5-88b9-e819cd7411c5","ios":"levelo://app?vid=c2d8dd8e-a640-4ea5-88b9-e819cd7411c5"},"vehicle_type_id":"4","last_reported":1724083832,"current_range_meters":0,"station_id":"ce4bhch2rcd13ifvqeug","pricing_plan_id":"cebpf4jnsgd1na2vs0mg"},{"bike_id":"edc51789-b491-49fc-bf82-3319f9f20c7a","system_id":"levelo_inurba_marseille","lat":43.28615,"lon":5.351,"is_reserved":false,"is_disabled":false,"rental_uris":{"android":"levelo://app?vid=edc51789-b491-49fc-bf82-3319f9f20c7a","ios":"levelo://app?vid=edc51789-b491-49fc-bf82-3319f9f20c7a"},"vehicle_type_id":"4","last_reported":1724083832,"current_range_meters":27600,"station_id":"ce4bhch2rcd13ifvqeug","pricing_plan_id":"cebpf4jnsgd1na2vs0mg"},{"bike_id":"f6a940ac-798e-431f-867c-ecce03ba962c","system_id":"levelo_inurba_marseille","lat":43.28613,"lon":5.35106,"is_reserved":false,"is_disabled":false,"rental_uris":{"android":"levelo://app?vid=f6a940ac-798e-431f-867c-ecce03ba962c","ios":"levelo://app?vid=f6a940ac-798e-431f-867c-ecce03ba962c"},"vehicle_type_id":"4","last_reported":1724083832,"current_range_meters":0,"station_id":"ce4bhch2rcd13ifvqeug","pricing_plan_id":"cebpf4jnsgd1na2vs0mg"},{"bike_id":"e69becf2-da0d-4357-a21d-ce53c599ab08","system_id":"levelo_inurba_marseille","lat":43.28613,"lon":5.35105,"is_reserved":false,"is_disabled":false,"rental_uris":{"android":"levelo://app?vid=e69becf2-da0d-4357-a21d-ce53c599ab08","ios":"levelo://app?vid=e69becf2-da0d-4357-a21d-ce53c599ab08"},"vehicle_type_id":"4","last_reported":1724083832,"current_range_meters":16800,"station_id":"ce4bhch2rcd13ifvqeug","pricing_plan_id":"cebpf4jnsgd1na2vs0mg"},{"bike_id":"256f0fb6-e883-4d05-ad23-faaf3a3d0c7e","system_id":"levelo_inurba_marseille","lat":43.28615,"lon":5.35097,"is_reserved":false,"is_disabled":false,"rental_uris":{"android":"levelo://app?vid=256f0fb6-e883-4d05-ad23-faaf3a3d0c7e","ios":"levelo://app?vid=256f0fb6-e883-4d05-ad23-faaf3a3d0c7e"},"vehicle_type_id":"4","last_reported":1724083832,"current_range_meters":10000,"station_id":"ce4bhch2rcd13ifvqeug","pricing_plan_id":"cebpf4jnsgd1na2vs0mg"},{"bike_id":"6bda1790-3892-4859-bafb-22ec63aa8c70","system_id":"levelo_inurba_marseille","lat":43.28615,"lon":5.35097,"is_reserved":false,"is_disabled":false,"rental_uris":{"android":"levelo://app?vid=6bda1790-3892-4859-bafb-22ec63aa8c70","ios":"levelo://app?vid=6bda1790-3892-4859-bafb-22ec63aa8c70"},"vehicle_type_id":"4","last_reported":1724083832,"current_range_meters":27200,"station_id":"ce4bhch2rcd13ifvqeug","pricing_plan_id":"cebpf4jnsgd1na2vs0mg"},{"bike_id":"61c884ed-b869-4860-bcf3-68421c78be08","system_id":"levelo_inurba_marseille","lat":43.285848,"lon":5.350787,"is_reserved":false,"is_disabled":false,"rental_uris":{"android":"levelo://app?vid=61c884ed-b869-4860-bcf3-68421c78be08","ios":"levelo://app?vid=61c884ed-b869-4860-bcf3-68421c78be08"},"vehicle_type_id":"4","last_reported":1724083832,"current_range_meters":18800,"station_id":"ce4bhch2rcd13ifvqeug","pricing_plan_id":"cebpf4jnsgd1na2vs0mg"},{"bike_id":"c3bb4e33-49ca-42ea-94d8-0a6523566cc6","system_id":"levelo_inurba_marseille","lat":43.28612,"lon":5.35105,"is_reserved":false,"is_disabled":false,"rental_uris":{"android":"levelo://app?vid=c3bb4e33-49ca-42ea-94d8-0a6523566cc6","ios":"levelo://app?vid=c3bb4e33-49ca-42ea-94d8-0a6523566cc6"},"vehicle_type_id":"4","last_reported":1724083832,"current_range_meters":22800,"station_id":"ce4bhch2rcd13ifvqeug","pricing_plan_id":"cebpf4jnsgd1na2vs0mg"},{"bike_id":"97b53f6c-12c8-4321-8f0f-8e3eae525e94","system_id":"levelo_inurba_marseille","lat":43.28613,"lon":5.351,"is_reserved":false,"is_disabled":false,"rental_uris":{"android":"levelo://app?vid=97b53f6c-12c8-4321-8f0f-8e3eae525e94","ios":"levelo://app?vid=97b53f6c-12c8-4321-8f0f-8e3eae525e94"},"vehicle_type_id":"4","last_reported":1724083832,"current_range_meters":11200,"station_id":"ce4bhch2rcd13ifvqeug","pricing_plan_id":"cebpf4jnsgd1na2vs0mg"},{"bike_id":"5c61a5fc-a3db-4f2c-8d64-cb4899ff08b6","system_id":"levelo_inurba_marseille","lat":43.285856,"lon":5.350771,"is_reserved":false,"is_disabled":false,"rental_uris":{"android":"levelo://app?vid=5c61a5fc-a3db-4f2c-8d64-cb4899ff08b6","ios":"levelo://app?vid=5c61a5fc-a3db-4f2c-8d64-cb4899ff08b6"},"vehicle_type_id":"4","last_reported":1724083832,"current_range_meters":31200,"station_id":"ce4bhch2rcd13ifvqeug","pricing_plan_id":"cebpf4jnsgd1na2vs0mg"},{"bike_id":"1815929b-3b10-4dfe-bb3c-517f46dcfea7","system_id":"levelo_inurba_marseille","lat":43.28611,"lon":5.35099,"is_reserved":false,"is_disabled":false,"rental_uris":{"android":"levelo://app?vid=1815929b-3b10-4dfe-bb3c-517f46dcfea7","ios":"levelo://app?vid=1815929b-3b10-4dfe-bb3c-517f46dcfea7"},"vehicle_type_id":"4","last_reported":1724083832,"current_range_meters":20800,"station_id":"ce4bhch2rcd13ifvqeug","pricing_plan_id":"cebpf4jnsgd1na2vs0mg"},{"bike_id":"85b91865-3f05-48cc-8a6d-e2267ceb4cd8","system_id":"levelo_inurba_marseille","lat":43.28611,"lon":5.35099,"is_reserved":false,"is_disabled":false,"rental_uris":{"android":"levelo://app?vid=85b91865-3f05-48cc-8a6d-e2267ceb4cd8","ios":"levelo://app?vid=85b91865-3f05-48cc-8a6d-e2267ceb4cd8"},"vehicle_type_id":"4","last_reported":1724083832,"current_range_meters":23600,"station_id":"ce4bhch2rcd13ifvqeug","pricing_plan_id":"cebpf4jnsgd1na2vs0mg"},{"bike_id":"9c496a34-8f18-4d9a-87ea-10356b49fc7a","system_id":"levelo_inurba_marseille","lat":43.286099,"lon":5.35102,"is_reserved":false,"is_disabled":false,"rental_uris":{"android":"levelo://app?vid=9c496a34-8f18-4d9a-87ea-10356b49fc7a","ios":"levelo://app?vid=9c496a34-8f18-4d9a-87ea-10356b49fc7a"},"vehicle_type_id":"4","last_reported":1724083832,"current_range_meters":5600,"station_id":"ce4bhch2rcd13ifvqeug","pricing_plan_id":"cebpf4jnsgd1na2vs0mg"},{"bike_id":"11980507-2547-4101-8333-3a36c0ac9c03","system_id":"levelo_inurba_marseille","lat":43.2861,"lon":5.35099,"is_reserved":false,"is_disabled":false,"rental_uris":{"android":"levelo://app?vid=11980507-2547-4101-8333-3a36c0ac9c03","ios":"levelo://app?vid=11980507-2547-4101-8333-3a36c0ac9c03"},"vehicle_type_id":"4","last_reported":1724083832,"current_range_meters":12000,"station_id":"ce4bhch2rcd13ifvqeug","pricing_plan_id":"cebpf4jnsgd1na2vs0mg"},{"bike_id":"7dbc01e8-2125-4f66-92c1-441ca6fd47d8","system_id":"levelo_inurba_marseille","lat":43.283998,"lon":5.375062,"is_reserved":false,"is_disabled":false,"rental_uris":{"android":"levelo://app?vid=7dbc01e8-2125-4f66-92c1-441ca6fd47d8","ios":"levelo://app?vid=7dbc01e8-2125-4f66-92c1-441ca6fd47d8"},"vehicle_type_id":"4","last_reported":1724083832,"current_range_meters":0,"station_id":"ce4bh412rcd13ifvqds0","pricing_plan_id":"cebpf4jnsgd1na2vs0mg"},{"bike_id":"45b00452-4107-48be-9b8a-4732f476c3b2","system_id":"levelo_inurba_marseille","lat":43.295713,"lon":5.399639,"is_reserved":false,"is_disabled":false,"rental_uris":{"android":"levelo://app?vid=45b00452-4107-48be-9b8a-4732f476c3b2","ios":"levelo://app?vid=45b00452-4107-48be-9b8a-4732f476c3b2"},"vehicle_type_id":"4","last_reported":1724083832,"current_range_meters":5200,"station_id":"ce4bh312rcd13ifvqdj0","pricing_plan_id":"cebpf4jnsgd1na2vs0mg"},{"bike_id":"fb7cd410-4b46-42f8-869c-374ad1ae8182","system_id":"levelo_inurba_marseille","lat":43.283998,"lon":5.375062,"is_reserved":false,"is_disabled":false,"rental_uris":{"android":"levelo://app?vid=fb7cd410-4b46-42f8-869c-374ad1ae8182","ios":"levelo://app?vid=fb7cd410-4b46-42f8-869c-374ad1ae8182"},"vehicle_type_id":"4","last_reported":1724083832,"current_range_meters":16000,"station_id":"ce4bh412rcd13ifvqds0","pricing_plan_id":"cebpf4jnsgd1na2vs0mg"},{"bike_id":"b2141c36-b687-427d-b44b-b17bae2dbfd2","system_id":"levelo_inurba_marseille","lat":43.295713,"lon":5.399639,"is_reserved":false,"is_disabled":false,"rental_uris":{"android":"levelo://app?vid=b2141c36-b687-427d-b44b-b17bae2dbfd2","ios":"levelo://app?vid=b2141c36-b687-427d-b44b-b17bae2dbfd2"},"vehicle_type_id":"4","last_reported":1724083832,"current_range_meters":1200,"station_id":"ce4bh312rcd13ifvqdj0","pricing_plan_id":"cebpf4jnsgd1na2vs0mg"},{"bike_id":"27e6e31c-3628-4351-9813-ba6b23c0d0d8","system_id":"levelo_inurba_marseille","lat":43.288501,"lon":5.393087,"is_reserved":false,"is_disabled":false,"rental_uris":{"android":"levelo://app?vid=27e6e31c-3628-4351-9813-ba6b23c0d0d8","ios":"levelo://app?vid=27e6e31c-3628-4351-9813-ba6b23c0d0d8"},"vehicle_type_id":"4","last_reported":1724083832,"current_range_meters":400,"station_id":"ce4bh2p2rcd13ifvqdi0","pricing_plan_id":"cebpf4jnsgd1na2vs0mg"},{"bike_id":"77027f95-c706-4d05-8399-dd70db6735fb","system_id":"levelo_inurba_marseille","lat":43.286595,"lon":5.386795,"is_reserved":false,"is_disabled":false,"rental_uris":{"android":"levelo://app?vid=77027f95-c706-4d05-8399-dd70db6735fb","ios":"levelo://app?vid=77027f95-c706-4d05-8399-dd70db6735fb"},"vehicle_type_id":"4","last_reported":1724083832,"current_range_meters":13600,"station_id":"ce4bh492rcd13ifvqdug","pricing_plan_id":"cebpf4jnsgd1na2vs0mg"},{"bike_id":"6f818363-78eb-42b1-b4f7-620c270f7d93","system_id":"levelo_inurba_marseille","lat":43.2875,"lon":5.389023,"is_reserved":false,"is_disabled":false,"rental_uris":{"android":"levelo://app?vid=6f818363-78eb-42b1-b4f7-620c270f7d93","ios":"levelo://app?vid=6f818363-78eb-42b1-b4f7-620c270f7d93"},"vehicle_type_id":"4","last_reported":1724083832,"current_range_meters":11200,"station_id":"","pricing_plan_id":"cebpf4jnsgd1na2vs0mg"},{"bike_id":"2f379666-92d3-4a3e-a4d5-684302d9a8ad","system_id":"levelo_inurba_marseille","lat":43.319179,"lon":5.407725,"is_reserved":false,"is_disabled":false,"rental_uris":{"android":"levelo://app?vid=2f379666-92d3-4a3e-a4d5-684302d9a8ad","ios":"levelo://app?vid=2f379666-92d3-4a3e-a4d5-684302d9a8ad"},"vehicle_type_id":"4","last_reported":1724083832,"current_range_meters":15600,"station_id":"ce4bhq12rcd13ifvqhig","pricing_plan_id":"cebpf4jnsgd1na2vs0mg"},{"bike_id":"75fe05cc-2b81-49e5-92ae-9a973fa7ec49","system_id":"levelo_inurba_marseille","lat":43.318917,"lon":5.407394,"is_reserved":false,"is_disabled":false,"rental_uris":{"android":"levelo://app?vid=75fe05cc-2b81-49e5-92ae-9a973fa7ec49","ios":"levelo://app?vid=75fe05cc-2b81-49e5-92ae-9a973fa7ec49"},"vehicle_type_id":"4","last_reported":1724083832,"current_range_meters":14400,"station_id":"","pricing_plan_id":"cebpf4jnsgd1na2vs0mg"},{"bike_id":"22da9a0c-65dc-4659-9c0d-baa4ffbaaa25","system_id":"levelo_inurba_marseille","lat":43.319179,"lon":5.407725,"is_reserved":false,"is_disabled":false,"rental_uris":{"android":"levelo://app?vid=22da9a0c-65dc-4659-9c0d-baa4ffbaaa25","ios":"levelo://app?vid=22da9a0c-65dc-4659-9c0d-baa4ffbaaa25"},"vehicle_type_id":"4","last_reported":1724083832,"current_range_meters":18800,"station_id":"ce4bhq12rcd13ifvqhig","pricing_plan_id":"cebpf4jnsgd1na2vs0mg"},{"bike_id":"2a2f76c3-a773-4804-9252-0c78cacce7b6","system_id":"levelo_inurba_marseille","lat":43.33717,"lon":5.391857,"is_reserved":false,"is_disabled":false,"rental_uris":{"android":"levelo://app?vid=2a2f76c3-a773-4804-9252-0c78cacce7b6","ios":"levelo://app?vid=2a2f76c3-a773-4804-9252-0c78cacce7b6"},"vehicle_type_id":"4","last_reported":1724083832,"current_range_meters":27200,"station_id":"ce4bhr92rcd13ifvqhsg","pricing_plan_id":"cebpf4jnsgd1na2vs0mg"},