{"last_updated":1729174158,"ttl":60,"version":"2.2","data":{"bikes":[{"bike_id":"d24510a5-cbcb-4911-8b3f-bcfc556a2da9","system_id":"levelo_inurba_marseille","lat":43.25581,"lon":5.38225,"is_reserved":false,"is_disabled":false,"rental_uris":{"android":"levelo://app?vid=d24510a5-cbcb-4911-8b3f-bcfc556a2da9","ios":"levelo://app?vid=d24510a5-cbcb-4911-8b3f-bcfc556a2da9"},"vehicle_type_id":"4","last_reported":1729174158,"current_range_meters":27200,"station_id":"ce4bhih2rcd13ifvqfs0","pricing_plan_id":"cebpf4jnsgd1na2vs0mg"},{"bike_id":"6e1a69fa-28b6-4b31-bb32-4c2399508547","system_id":"levelo_inurba_marseille","lat":43.29734,"lon":5.37688,"is_reserved":false,"is_disabled":false,"rental_uris":{"android":"levelo://app?vid=6e1a69fa-28b6-4b31-bb32-4c2399508547","ios":"levelo://app?vid=6e1a69fa-28b6-4b31-bb32-4c2399508547"},"vehicle_type_id":"4","last_reported":1729174158,"current_range_meters":37600,"station_id":"ce4bgkh2rcd13ifvqbl0","pricing_plan_id":"cebpf4jnsgd1na2vs0mg"},{"bike_id":"d31a4285-1f59-4bb6-b00b-b8a74e1345f2","system_id":"levelo_inurba_marseille","lat":43.31488,"lon":5.37309,"is_reserved":false,"is_disabled":false,"rental_uris":{"android":"levelo://app?vid=d31a4285-1f59-4bb6-b00b-b8a74e1345f2","ios":"levelo://app?vid=d31a4285-1f59-4bb6-b00b-b8a74e1345f2"},"vehicle_type_id":"4","last_reported":1729174158,"current_range_meters":34000,"station_id":"ce4bgt12rcd13ifvqcd0","pricing_plan_id":"cebpf4jnsgd1na2vs0mg"},{"bike_id":"676ec6c4-6b42-43e0-81fe-327782965da5","system_id":"levelo_inurba_marseille","lat":43.337444,"lon":5.374475,"is_reserved":false,"is_disabled":false,"rental_uris":{"android":"levelo://app?vid=676ec6c4-6b42-43e0-81fe-327782965da5","ios":"levelo://app?vid=676ec6c4-6b42-43e0-81fe-327782965da5"},"vehicle_type_id":"4","last_reported":1729174158,"current_range_meters":16400,"station_id":"","pricing_plan_id":"cebpf4jnsgd1na2vs0mg"},{"bike_id":"9d14cfb8-7a20-4ee5-8f0a-15d082c27676","system_id":"levelo_inurba_marseille","lat":43.28612,"lon":5.351,"is_reserved":false,"is_disabled":false,"rental_uris":{"android":"levelo://app?vid=9d14cfb8-7a20-4ee5-8f0a-15d082c27676","ios":"levelo://app?vid=9d14cfb8-7a20-4ee5-8f0a-15d082c27676"},"vehicle_type_id":"4","last_reported":1729174158,"current_range_meters":38400,"station_id":"ce4bhch2rcd13ifvqeug","pricing_plan_id":"cebpf4jnsgd1na2vs0mg"},{"bike_id":"f320ba45-0a96-4404-8bf4-521e8b0f5517","system_id":"levelo_inurba_marseille","lat":43.27808,"lon":5.40711,"is_reserved":false,"is_disabled":false,"rental_uris":{"android":"levelo://app?vid=f320ba45-0a96-4404-8bf4-521e8b0f5517","ios":"levelo://app?vid=f320ba45-0a96-4404-8bf4-521e8b0f5517"},"vehicle_type_id":"4","last_reported":1729174158,"current_range_meters":22400,"station_id":"ce4bhnh2rcd13ifvqgtg","pricing_plan_id":"cebpf4jnsgd1na2vs0mg"},{"bike_id":"9d59b8eb-ce71-481c-86a1-a7723d591326","system_id":"levelo_inurba_marseille","lat":43.26487,"lon":5.39549,"is_reserved":false,"is_disabled":false,"rental_uris":{"android":"levelo://app?vid=9d59b8eb-ce71-481c-86a1-a7723d591326","ios":"levelo://app?vid=9d59b8eb-ce71-481c-86a1-a7723d591326"},"vehicle_type_id":"4","last_reported":1729174158,"current_range_meters":11600,"station_id":"ce4bhi12rcd13ifvqfq0","pricing_plan_id":"cebpf4jnsgd1na2vs0mg"},{"bike_id":"c1359b57-6ae0-427e-9abc-4b172c7e2e67","system_id":"levelo_inurba_marseille","lat":43.30935,"lon":5.40144,"is_reserved":false,"is_disabled":false,"rental_uris":{"android":"levelo://app?vid=c1359b57-6ae0-427e-9abc-4b172c7e2e67","ios":"levelo://app?vid=c1359b57-6ae0-427e-9abc-4b172c7e2e67"},"vehicle_type_id":"4","last_reported":1729174158,"current_range_meters":38800,"station_id":"ce4bgvp2rcd13ifvqct0","pricing_plan_id":"cebpf4jnsgd1na2vs0mg"},{"bike_id":"3aaf82e4-9dd9-493b-b80a-7c1599f88417","system_id":"levelo_inurba_marseille","lat":43.28615,"lon":5.35102,"is_reserved":false,"is_disabled":false,"rental_uris":{"android":"levelo://app?vid=3aaf82e4-9dd9-493b-b80a-7c1599f88417","ios":"levelo://app?vid=3aaf82e4-9dd9-493b-b80a-7c1599f88417"},"vehicle_type_id":"4","last_reported":1729174158,"current_range_meters":7200,"station_id":"ce4bhch2rcd13ifvqeug","pricing_plan_id":"cebpf4jnsgd1na2vs0mg"},{"bike_id":"fed99947-e3a1-4d04-aa47-62516c592e3c","system_id":"levelo_inurba_marseille","lat":43.26784,"lon":5.39417,"is_reserved":false,"is_disabled":false,"rental_uris":{"android":"levelo://app?vid=fed99947-e3a1-4d04-aa47-62516c592e3c","ios":"levelo://app?vid=fed99947-e3a1-4d04-aa47-62516c592e3c"},"vehicle_type_id":"4","last_reported":1729174158,"current_range_meters":17200,"station_id":"ce4bhh12rcd13ifvqfg0","pricing_plan_id":"cebpf4jnsgd1na2vs0mg"},{"bike_id":"c0d54a59-513f-432f-b3b3-b3892821fd5a","system_id":"levelo_inurba_marseille","lat":43.32536,"lon":5.41433,"is_reserved":false,"is_disabled":false,"rental_uris":{"android":"levelo://app?vid=c0d54a59-513f-432f-b3b3-b3892821fd5a","ios":"levelo://app?vid=c0d54a59-513f-432f-b3b3-b3892821fd5a"},"vehicle_type_id":"4","last_reported":1729174158,"current_range_meters":6800,"station_id":"ce4bhq12rcd13ifvqhhg","pricing_plan_id":"cebpf4jnsgd1na2vs0mg"},{"bike_id":"f007d8fd-5fb4-4dc0-b2f7-a68b1d39079e","system_id":"levelo_inurba_marseille","lat":43.27376,"lon":5.36257,"is_reserved":false,"is_disabled":false,"rental_uris":{"android":"levelo://app?vid=f007d8fd-5fb4-4dc0-b2f7-a68b1d39079e","ios":"levelo://app?vid=f007d8fd-5fb4-4dc0-b2f7-a68b1d39079e"},"vehicle_type_id":"4","last_reported":1729174158,"current_range_meters":37600,"station_id":"ce4bhbh2rcd13ifvqeo0","pricing_plan_id":"cebpf4jnsgd1na2vs0mg"},{"bike_id":"bef75615-d3c4-45a1-a6f3-b02c35c05469","system_id":"levelo_inurba_marseille","lat":43.292116,"lon":5.393258,"is_reserved":false,"is_disabled":false,"rental_uris":{"android":"levelo://app?vid=bef75615-d3c4-45a1-a6f3-b02c35c05469","ios":"levelo://app?vid=bef75615-d3c4-45a1-a6f3-b02c35c05469"},"vehicle_type_id":"4","last_reported":1729174158,"current_range_meters":16400,"station_id":"ce4bh312rcd13ifvqdk0","pricing_plan_id":"cebpf4jnsgd1na2vs0mg"},{"bike_id":"b9b3ba5c-90e0-4849-aa6c-139933989e3c","system_id":"levelo_inurba_marseille","lat":43.29878,"lon":5.3891,"is_reserved":false,"is_disabled":false,"rental_uris":{"android":"levelo://app?vid=b9b3ba5c-90e0-4849-aa6c-139933989e3c","ios":"levelo://app?vid=b9b3ba5c-90e0-4849-aa6c-139933989e3c"},"vehicle_type_id":"4","last_reported":1729174158,"current_range_meters":30000,"station_id":"ce4bh392rcd13ifvqdl0","pricing_plan_id":"cebpf4jnsgd1na2vs0mg"},{"bike_id":"f618ed6f-9678-4de6-8784-2d5bbbf7082f","system_id":"levelo_inurba_marseille","lat":43.31696,"lon":5.37749,"is_reserved":false,"is_disabled":false,"rental_uris":{"android":"levelo://app?vid=f618ed6f-9678-4de6-8784-2d5bbbf7082f","ios":"levelo://app?vid=f618ed6f-9678-4de6-8784-2d5bbbf7082f"},"vehicle_type_id":"4","last_reported":1729174158,"current_range_meters":20800,"station_id":"ce4bgth2rcd13ifvqch0","pricing_plan_id":"cebpf4jnsgd1na2vs0mg"},{"bike_id":"4fbb8310-461b-420c-8502-7fbf61604a98","system_id":"levelo_inurba_marseille","lat":43.29172,"lon":5.3715,"is_reserved":false,"is_disabled":false,"rental_uris":{"android":"levelo://app?vid=4fbb8310-461b-420c-8502-7fbf61604a98","ios":"levelo://app?vid=4fbb8310-461b-420c-8502-7fbf61604a98"},"vehicle_type_id":"4","last_reported":1729174158,"current_range_meters":32800,"station_id":"ce4bha92rcd13ifvqeh0","pricing_plan_id":"cebpf4jnsgd1na2vs0mg"},{"bike_id":"dde2a333-e4ed-48bc-9956-b08910a68eb6","system_id":"levelo_inurba_marseille","lat":43.27965,"lon":5.38752,"is_reserved":false,"is_disabled":false,"rental_uris":{"android":"levelo://app?vid=dde2a333-e4ed-48bc-9956-b08910a68eb6","ios":"levelo://app?vid=dde2a333-e4ed-48bc-9956-b08910a68eb6"},"vehicle_type_id":"4","last_reported":1729174158,"current_range_meters":14800,"station_id":"ce4bhg12rcd13ifvqf80","pricing_plan_id":"cebpf4jnsgd1na2vs0mg"},{"bike_id":"4ae2c184-8c50-452d-87fb-8f7bf4f540f3","system_id":"levelo_inurba_marseille","lat":43.24656,"lon":5.38897,"is_reserved":false,"is_disabled":false,"rental_uris":{"android":"levelo://app?vid=4ae2c184-8c50-452d-87fb-8f7bf4f540f3","ios":"levelo://app?vid=4ae2c184-8c50-452d-87fb-8f7bf4f540f3"},"vehicle_type_id":"4","last_reported":1729174158,"current_range_meters":39200,"station_id":"ce4bhg12rcd13ifvqf60","pricing_plan_id":"cebpf4jnsgd1na2vs0mg"},{"bike_id":"69641d30-f779-4b50-8b70-0592a6ee5886","system_id":"levelo_inurba_marseille","lat":43.30558,"lon":5.36699,"is_reserved":false,"is_disabled":false,"rental_uris":{"android":"levelo://app?vid=69641d30-f779-4b50-8b70-0592a6ee5886","ios":"levelo://app?vid=69641d30-f779-4b50-8b70-0592a6ee5886"},"vehicle_type_id":"4","last_reported":1729174158,"current_range_meters":25200,"station_id":"ce4bgrp2rcd13ifvqc9g","pricing_plan_id":"cebpf4jnsgd1na2vs0mg"},{"bike_id":"608269dc-51ae-4588-8fca-9278e6de90f7","system_id":"levelo_inurba_marseille","lat":43.30148,"lon":5.38085,"is_reserved":false,"is_disabled":false,"rental_uris":{"android":"levelo://app?vid=608269dc-51ae-4588-8fca-9278e6de90f7","ios":"levelo://app?vid=608269dc-51ae-4588-8fca-9278e6de90f7"},"vehicle_type_id":"4","last_reported":1729174158,"current_range_meters":35600,"station_id":"ce4bgjp2rcd13ifvqbh0","pricing_plan_id":"cebpf4jnsgd1na2vs0mg"},{"bike_id":"8e153723-a236-4ead-9ae8-250981926f54","system_id":"levelo_inurba_marseille","lat":43.29874,"lon":5.39739,"is_reserved":false,"is_disabled":false,"rental_uris":{"android":"levelo://app?vid=8e153723-a236-4ead-9ae8-250981926f54","ios":"levelo://app?vid=8e153723-a236-4ead-9ae8-250981926f54"},"vehicle_type_id":"4","last_reported":1729174158,"current_range_meters":36000,"station_id":"ce4bh0h2rcd13ifvqd50","pricing_plan_id":"cebpf4jnsgd1na2vs0mg"},{"bike_id":"77eec062-1307-4daf-838a-d4b7c4ae0c35","system_id":"levelo_inurba_marseille","lat":43.31712,"lon":5.43709,"is_reserved":false,"is_disabled":false,"rental_uris":{"android":"levelo://app?vid=77eec062-1307-4daf-838a-d4b7c4ae0c35","ios":"levelo://app?vid=77eec062-1307-4daf-838a-d4b7c4ae0c35"},"vehicle_type_id":"4","last_reported":1729174158,"current_range_meters":20400,"station_id":"ce4bhp92rcd13ifvqhcg","pricing_plan_id":"cebpf4jnsgd1na2vs0mg"},{"bike_id":"b37cac09-8862-4b5a-a6ae-69f6364f6d5b","system_id":"levelo_inurba_marseille","lat":43.29937,"lon":5.36563,"is_reserved":false,"is_disabled":false,"rental_uris":{"android":"levelo://app?vid=b37cac09-8862-4b5a-a6ae-69f6364f6d5b","ios":"levelo://app?vid=b37cac09-8862-4b5a-a6ae-69f6364f6d5b"},"vehicle_type_id":"4","last_reported":1729174158,"current_range_meters":20000,"station_id":"ce4bgm92rcd13ifvqbr0","pricing_plan_id":"cebpf4jnsgd1na2vs0mg"},{"bike_id":"56da5a5d-e301-4452-8c07-d6a5a0f92928","system_id":"levelo_inurba_marseille","lat":43.30548,"lon":5.36688,"is_reserved":false,"is_disabled":false,"rental_uris":{"android":"levelo://app?vid=56da5a5d-e301-4452-8c07-d6a5a0f92928","ios":"levelo://app?vid=56da5a5d-e301-4452-8c07-d6a5a0f92928"},"vehicle_type_id":"4","last_reported":1729174158,"current_range_meters":38800,"station_id":"ce4bgrp2rcd13ifvqc9g","pricing_plan_id":"cebpf4jnsgd1na2vs0mg"},{"bike_id":"ba385696-1c00-4366-b0a7-b17da0e20789","system_id":"levelo_inurba_marseille","lat":43.31759,"lon":5.3901,"is_reserved":false,"is_disabled":false,"rental_uris":{"android":"levelo://app?vid=ba385696-1c00-4366-b0a7-b17da0e20789","ios":"levelo://app?vid=ba385696-1c00-4366-b0a7-b17da0e20789"},"vehicle_type_id":"4","last_reported":1729174158,"current_range_meters":12800,"station_id":"ce4bhqp2rcd13ifvqhng","pricing_plan_id":"cebpf4jnsgd1na2vs0mg"},{"bike_id":"3294d7ad-4856-49d8-aa87-e4612951c3e7","system_id":"levelo_inurba_marseille","lat":43.29537,"lon":5.38538,"is_reserved":false,"is_disabled":false,"rental_uris":{"android":"levelo://app?vid=3294d7ad-4856-49d8-aa87-e4612951c3e7","ios":"levelo://app?vid=3294d7ad-4856-49d8-aa87-e4612951c3e7"},"vehicle_type_id":"4","last_reported":1729174158,"current_range_meters":33200,"station_id":"ce4bgih2rcd13ifvqba0","pricing_plan_id":"cebpf4jnsgd1na2vs0mg"},{"bike_id":"052b3563-392a-4857-8174-027696f961ab","system_id":"levelo_inurba_marseille","lat":43.24661,"lon":5.38894,"is_reserved":false,"is_disabled":false,"rental_uris":{"android":"levelo://app?vid=052b3563-392a-4857-8174-027696f961ab","ios":"levelo://app?vid=052b3563-392a-4857-8174-027696f961ab"},"vehicle_type_id":"4","last_reported":1729174158,"current_range_meters":24000,"station_id":"ce4bhg12rcd13ifvqf60","pricing_plan_id":"cebpf4jnsgd1na2vs0mg"},{"bike_id":"e2c1501f-d025-4af9-8a83-6b0a6e2d1aee","system_id":"levelo_inurba_marseille","lat":43.31765,"lon":5.39012,"is_reserved":false,"is_disabled":false,"rental_uris":{"android":"levelo://app?vid=e2c1501f-d025-4af9-8a83-6b0a6e2d1aee","ios":"levelo://app?vid=e2c1501f-d025-4af9-8a83-6b0a6e2d1aee"},"vehicle_type_id":"4","last_reported":1729174158,"current_range_meters":28400,"station_id":"ce4bhqp2rcd13ifvqhng","pricing_plan_id":"cebpf4jnsgd1na2vs0mg"},{"bike_id":"11c1f47a-a5ce-4eb5-95ba-e40578162e79","system_id":"levelo_inurba_marseille","lat":43.30542,"lon":5.38421,"is_reserved":false,"is_disabled":false,"rental_uris":{"android":"levelo://app?vid=11c1f47a-a5ce-4eb5-95ba-e40578162e79","ios":"levelo://app?vid=11c1f47a-a5ce-4eb5-95ba-e40578162e79"},"vehicle_type_id":"4","last_reported":1729174158,"current_range_meters":38800,"station_id":"ce4bgg92rcd13ifvqb30","pricing_plan_id":"cebpf4jnsgd1na2vs0mg"},{"bike_id":"2bd3e409-8210-4f77-b3a5-77025d10f1e6","system_id":"levelo_inurba_marseille","lat":43.29784,"lon":5.37105,"is_reserved":false,"is_disabled":false,"rental_uris":{"android":"levelo://app?vid=2bd3e409-8210-4f77-b3a5-77025d10f1e6","ios":"levelo://app?vid=2bd3e409-8210-4f77-b3a5-77025d10f1e6"},"vehicle_type_id":"4","last_reported":1729174158,"current_range_meters":36400,"station_id":"ce4bgop2rcd13ifvqc1g","pricing_plan_id":"cebpf4jnsgd1na2vs0mg"},{"bike_id":"94647bec-1e3a-4324-aa3c-e061248e2556","system_id":"levelo_inurba_marseille","lat":43.23809,"lon":5.43053,"is_reserved":false,"is_disabled":false,"rental_uris":{"android":"levelo://app?vid=94647bec-1e3a-4324-aa3c-e061248e2556","ios":"levelo://app?vid=94647bec-1e3a-4324-aa3c-e061248e2556"},"vehicle_type_id":"4","last_reported":1729174158,"current_range_meters":16400,"station_id":"","pricing_plan_id":"cebpf4jnsgd1na2vs0mg"},{"bike_id":"f38aecae-7620-4a7e-b9af-ccae28fc37f3","system_id":"levelo_inurba_marseille","lat":43.29417,"lon":5.38626,"is_reserved":false,"is_disabled":false,"rental_uris":{"android":"levelo://app?vid=f38aecae-7620-4a7e-b9af-ccae28fc37f3","ios":"levelo://app?vid=f38aecae-7620-4a7e-b9af-ccae28fc37f3"},"vehicle_type_id":"4","last_reported":1729174158,"current_range_meters":22800,"station_id":"ce4bh2h2rcd13ifvqdh0","pricing_plan_id":"cebpf4jnsgd1na2vs0mg"},{"bike_id":"86b18091-b909-4f1b-886b-9d9625948362","system_id":"levelo_inurba_marseille","lat":43.25586,"lon":5.38242,"is_reserved":false,"is_disabled":false,"rental_uris":{"android":"levelo://app?vid=86b18091-b909-4f1b-886b-9d9625948362","ios":"levelo://app?vid=86b18091-b909-4f1b-886b-9d9625948362"},"vehicle_type_id":"4","last_reported":1729174158,"current_range_meters":29600,"station_id":"ce4bhih2rcd13ifvqfs0","pricing_plan_id":"cebpf4jnsgd1na2vs0mg"},{"bike_id":"f8047b24-1e6a-4c49-a11a-363dad5331f2","system_id":"levelo_inurba_marseille","lat":43.3136,"lon":5.38488,"is_reserved":false,"is_disabled":false,"rental_uris":{"android":"levelo://app?vid=f8047b24-1e6a-4c49-a11a-363dad5331f2","ios":"levelo://app?vid=f8047b24-1e6a-4c49-a11a-363dad5331f2"},"vehicle_type_id":"4","last_reported":1729174158,"current_range_meters":39200,"station_id":"ce4bgt92rcd13ifvqcf0","pricing_plan_id":"cebpf4jnsgd1na2vs0mg"},{"bike_id":"3bffc58c-389e-49cd-b608-2be8695e9584","system_id":"levelo_inurba_marseille","lat":43.33726,"lon":5.39178,"is_reserved":false,"is_disabled":false,"rental_uris":{"android":"levelo://app?vid=3bffc58c-389e-49cd-b608-2be8695e9584","ios":"levelo://app?vid=3bffc58c-389e-49cd-b608-2be8695e9584"},"vehicle_type_id":"4","last_reported":1729174158,"current_range_meters":22000,"station_id":"ce4bhr92rcd13ifvqhsg","pricing_plan_id":"cebpf4jnsgd1na2vs0mg"},{"bike_id":"4eb5bb7d-d404-4aac-869c-ebfcb8d384c1","system_id":"levelo_inurba_marseille","lat":43.23148,"lon":5.43721,"is_reserved":false,"is_disabled":false,"rental_uris":{"android":"levelo://app?vid=4eb5bb7d-d404-4aac-869c-ebfcb8d384c1","ios":"levelo://app?vid=4eb5bb7d-d404-4aac-869c-ebfcb8d384c1"},"vehicle_type_id":"4","last_reported":1729174158,"current_range_meters":30400,"station_id":"ce4bhmp2rcd13ifvqgog","pricing_plan_id":"cebpf4jnsgd1na2vs0mg"},{"bike_id":"1fa1faaf-93d9-4b30-b687-924957008ab4","system_id":"levelo_inurba_marseille","lat":43.3014,"lon":5.37413,"is_reserved":false,"is_disabled":false,"rental_uris":{"android":"levelo://app?vid=1fa1faaf-93d9-4b30-b687-924957008ab4","ios":"levelo://app?vid=1fa1faaf-93d9-4b30-b687-924957008ab4"},"vehicle_type_id":"4","last_reported":1729174158,"current_range_meters":34000,"station_id":"ce4bgs92rcd13ifvqcc0","pricing_plan_id":"cebpf4jnsgd1na2vs0mg"},{"bike_id":"39b461af-911b-4d54-bf80-3c46ed4c916e","system_id":"levelo_inurba_marseille","lat":43.27427,"lon":5.39344,"is_reserved":false,"is_disabled":false,"rental_uris":{"android":"levelo://app?vid=39b461af-911b-4d54-bf80-3c46ed4c916e","ios":"levelo://app?vid=39b461af-911b-4d54-bf80-3c46ed4c916e"},"vehicle_type_id":"4","last_reported":1729174158,"current_range_meters":28000,"station_id":"","pricing_plan_id":"cebpf4jnsgd1na2vs0mg"},{"bike_id":"32a6c07c-2efc-4c39-83b2-ad20df521685","system_id":"levelo_inurba_marseille","lat":43.28275,"lon":5.35073,"is_reserved":false,"is_disabled":false,"rental_uris":{"android":"levelo://app?vid=32a6c07c-2efc-4c39-83b2-ad20df521685","ios":"levelo://app?vid=32a6c07c-2efc-4c39-83b2-ad20df521685"},"vehicle_type_id":"4","last_reported":1729174158,"current_range_meters":7200,"station_id":"ce4bhbp2rcd13ifvqerg","pricing_plan_id":"cebpf4jnsgd1na2vs0mg"},{"bike_id":"a228b649-43d7-4c79-979a-7b5b40b7defd","system_id":"levelo_inurba_marseille","lat":43.25498,"lon":5.37648,"is_reserved":false,"is_disabled":false,"rental_uris":{"android":"levelo://app?vid=a228b649-43d7-4c79-979a-7b5b40b7defd","ios":"levelo://app?vid=a228b649-43d7-4c79-979a-7b5b40b7defd"},"vehicle_type_id":"4","last_reported":1729174158,"current_range_meters":28800,"station_id":"ce4bhh12rcd13ifvqff0","pricing_plan_id":"cebpf4jnsgd1na2vs0mg"},{"bike_id":"e371bd4b-4485-4c8b-8e23-26c25e523a51","system_id":"levelo_inurba_marseille","lat":43.25932,"lon":5.40908,"is_reserved":false,"is_disabled":false,"rental_uris":{"android":"levelo://app?vid=e371bd4b-4485-4c8b-8e23-26c25e523a51","ios":"levelo://app?vid=e371bd4b-4485-4c8b-8e23-26c25e523a51"},"vehicle_type_id":"4","last_reported":1729174158,"current_range_meters":16800,"station_id":"ce4bhm92rcd13ifvqglg","pricing_plan_id":"cebpf4jnsgd1na2vs0mg"},{"bike_id":"9556199e-7a5f-49b5-96a3-4b11c9ae630f","system_id":"levelo_inurba_marseille","lat":43.24813,"lon":5.37452,"is_reserved":false,"is_disabled":false,"rental_uris":{"android":"levelo://app?vid=9556199e-7a5f-49b5-96a3-4b11c9ae630f","ios":"levelo://app?vid=9556199e-7a5f-49b5-96a3-4b11c9ae630f"},"vehicle_type_id":"4","last_reported":1729174158,"current_range_meters":38400,"station_id":"ce4bhgh2rcd13ifvqfb0","pricing_plan_id":"cebpf4jnsgd1na2vs0mg"},{"bike_id":"d10de4ed-2019-4e0a-9f1d-5853a743290d","system_id":"levelo_inurba_marseille","lat":43.29038,"lon":5.38648,"is_reserved":false,"is_disabled":false,"rental_uris":{"android":"levelo://app?vid=d10de4ed-2019-4e0a-9f1d-5853a743290d","ios":"levelo://app?vid=d10de4ed-2019-4e0a-9f1d-5853a743290d"},"vehicle_type_id":"4","last_reported":1729174158,"current_range_meters":38800,"station_id":"ce4bh4p2rcd13ifvqe0g","pricing_plan_id":"cebpf4jnsgd1na2vs0mg"},{"bike_id":"8801404a-a4a5-49e4-ac21-befd0a2fed80","system_id":"levelo_inurba_marseille","lat":43.29052,"lon":5.35902,"is_reserved":false,"is_disabled":false,"rental_uris":{"android":"levelo://app?vid=8801404a-a4a5-49e4-ac21-befd0a2fed80","ios":"levelo://app?vid=8801404a-a4a5-49e4-ac21-befd0a2fed80"},"vehicle_type_id":"4","last_reported":1729174158,"current_range_meters":38000,"station_id":"ce4bha92rcd13ifvqeg0","pricing_plan_id":"cebpf4jnsgd1na2vs0mg"},{"bike_id":"f21cb8e6-bf8e-473e-a489-061d8a7178c1","system_id":"levelo_inurba_marseille","lat":43.30792,"lon":5.37652,"is_reserved":false,"is_disabled":false,"rental_uris":{"android":"levelo://app?vid=f21cb8e6-bf8e-473e-a489-061d8a7178c1","ios":"levelo://app?vid=f21cb8e6-bf8e-473e-a489-061d8a7178c1"},"vehicle_type_id":"4","last_reported":1729174158,"current_range_meters":38400,"station_id":"ce4bgv92rcd13ifvqcq0","pricing_plan_id":"cebpf4jnsgd1na2vs0mg"},{"bike_id":"cd1a22a9-3db6-4b57-873c-d099734c600f","system_id":"levelo_inurba_marseille","lat":43.31225,"lon":5.36858,"is_reserved":false,"is_disabled":false,"rental_uris":{"android":"levelo://app?vid=cd1a22a9-3db6-4b57-873c-d099734c600f","ios":"levelo://app?vid=cd1a22a9-3db6-4b57-873c-d099734c600f"},"vehicle_type_id":"4","last_reported":1729174158,"current_range_meters":35600,"station_id":"ce4bgl92rcd13ifvqbq0","pricing_plan_id":"cebpf4jnsgd1na2vs0mg"},{"bike_id":"b3b8591c-5379-4a69-90ab-ae3253c0799a","system_id":"levelo_inurba_marseille","lat":43.23155,"lon":5.43696,"is_reserved":false,"is_disabled":false,"rental_uris":{"android":"levelo://app?vid=b3b8591c-5379-4a69-90ab-ae3253c0799a","ios":"levelo://app?vid=b3b8591c-5379-4a69-90ab-ae3253c0799a"},"vehicle_type_id":"4","last_reported":1729174158,"current_range_meters":6800,"station_id":"ce4bhmp2rcd13ifvqgog","pricing_plan_id":"cebpf4jnsgd1na2vs0mg"},{"bike_id":"57f45f1a-2ccb-4510-bfb7-8ea24432395c","system_id":"levelo_inurba_marseille","lat":43.29416,"lon":5.38624,"is_reserved":false,"is_disabled":false,"rental_uris":{"android":"levelo://app?vid=57f45f1a-2ccb-4510-bfb7-8ea24432395c","ios":"levelo://app?vid=57f45f1a-2ccb-4510-bfb7-8ea24432395c"},"vehicle_type_id":"4","last_reported":1729174158,"current_range_meters":18000,"station_id":"ce4bh2h2rcd13ifvqdh0","pricing_plan_id":"cebpf4jnsgd1na2vs0mg"},{"bike_id":"c0aea6bf-9822-4eef-a7c6-ea0b29185a8d","system_id":"levelo_inurba_marseille","lat":43.27944,"lon":5.41029,"is_reserved":false,"is_disabled":false,"rental_uris":{"android":"levelo://app?vid=c0aea6bf-9822-4eef-a7c6-ea0b29185a8d","ios":"levelo://app?vid=c0aea6bf-9822-4eef-a7c6-ea0b29185a8d"},"vehicle_type_id":"4","last_reported":1729174158,"current_range_meters":28000,"station_id":"ce4bhnp2rcd13ifvqh0g","pricing_plan_id":"cebpf4jnsgd1na2vs0mg"},{"bike_id":"90263e99-d5aa-44b8-a4c8-0353aa3b308c","system_id":"levelo_inurba_marseille","lat":43.2307,"lon":5.35496,"is_reserved":false,"is_disabled":false,"rental_uris":{"android":"levelo://app?vid=90263e99-d5aa-44b8-a4c8-0353aa3b308c","ios":"levelo://app?vid=90263e99-d5aa-44b8-a4c8-0353aa3b308c"},"vehicle_type_id":"4","last_reported":1729174158,"current_range_meters":8800,"station_id":"cpo3342slgdg3j2ifvpg","pricing_plan_id":"cebpf4jnsgd1na2vs0mg"},{"bike_id":"2871640c-a4f3-4f61-a342-156b39b491e5","system_id":"levelo_inurba_marseille","lat":43.23149,"lon":5.43714,"is_reserved":false,"is_disabled":false,"rental_uris":{"android":"levelo://app?vid=2871640c-a4f3-4f61-a342-156b39b491e5","ios":"levelo://app?vid=2871640c-a4f3-4f61-a342-156b39b491e5"},"vehicle_type_id":"4","last_reported":1729174158,"current_range_meters":12400,"station_id":"ce4bhmp2rcd13ifvqgog","pricing_plan_id":"cebpf4jnsgd1na2vs0mg"},{"bike_id":"2f45af2d-394b-4979-aaad-9aaa07aa7349","system_id":"levelo_inurba_marseille","lat":43.27206,"lon":5.39181,"is_reserved":false,"is_disabled":false,"rental_uris":{"android":"levelo://app?vid=2f45af2d-394b-4979-aaad-9aaa07aa7349","ios":"levelo://app?vid=2f45af2d-394b-4979-aaad-9aaa07aa7349"},"vehicle_type_id":"4","last_reported":1729174158,"current_range_meters":14000,"station_id":"ce4bhhp2rcd13ifvqfm0","pricing_plan_id":"cebpf4jnsgd1na2vs0mg"},{"bike_id":"dc5e232c-43bc-4622-9ea1-e1a67f622418","system_id":"levelo_inurba_marseille","lat":43.25581,"lon":5.38231,"is_reserved":false,"is_disabled":false,"rental_uris":{"android":"levelo://app?vid=dc5e232c-43bc-4622-9ea1-e1a67f622418","ios":"levelo://app?vid=dc5e232c-43bc-4622-9ea1-e1a67f622418"},"vehicle_type_id":"4","last_reported":1729174158,"current_range_meters":32400,"station_id":"ce4bhih2rcd13ifvqfs0","pricing_plan_id":"cebpf4jnsgd1na2vs0mg"},{"bike_id":"1cd343c8-245e-4510-bed9-dcc94a7ab19d","system_id":"levelo_inurba_marseille","lat":43.25932,"lon":5.40918,"is_reserved":false,"is_disabled":false,"rental_uris":{"android":"levelo://app?vid=1cd343c8-245e-4510-bed9-dcc94a7ab19d","ios":"levelo://app?vid=1cd343c8-245e-4510-bed9-dcc94a7ab19d"},"vehicle_type_id":"4","last_reported":1729174158,"current_range_meters":8000,"station_id":"ce4bhm92rcd13ifvqglg","pricing_plan_id":"cebpf4jnsgd1na2vs0mg"},{"bike_id":"8815d0d6-e07f-423d-931d-8dfb85c49c02","system_id":"levelo_inurba_marseille","lat":43.30143,"lon":5.39883,"is_reserved":false,"is_disabled":false,"rental_uris":{"android":"levelo://app?vid=8815d0d6-e07f-423d-931d-8dfb85c49c02","ios":"levelo://app?vid=8815d0d6-e07f-423d-931d-8dfb85c49c02"},"vehicle_type_id":"4","last_reported":1729174158,"current_range_meters":38800,"station_id":"ce4bh0h2rcd13ifvqd40","pricing_plan_id":"cebpf4jnsgd1na2vs0mg"},{"bike_id":"2eca4975-5a7f-4cf5-826a-8506ea6e28da","system_id":"levelo_inurba_marseille","lat":43.24664,"lon":5.38162,"is_reserved":false,"is_disabled":false,"rental_uris":{"android":"levelo://app?vid=2eca4975-5a7f-4cf5-826a-8506ea6e28da","ios":"levelo://app?vid=2eca4975-5a7f-4cf5-826a-8506ea6e28da"},"vehicle_type_id":"4","last_reported":1729174158,"current_range_meters":28000,"station_id":"ce4bhih2rcd13ifvqfr0","pricing_plan_id":"cebpf4jnsgd1na2vs0mg"},{"bike_id":"32ce68a3-3fc7-4257-974f-ab657619c295","system_id":"levelo_inurba_marseille","lat":43.33764,"lon":5.37438,"is_reserved":false,"is_disabled":false,"rental_uris":{"android":"levelo://app?vid=32ce68a3-3fc7-4257-974f-ab657619c295","ios":"levelo://app?vid=32ce68a3-3fc7-4257-974f-ab657619c295"},"vehicle_type_id":"4","last_reported":1729174158,"current_range_meters":38000,"station_id":"","pricing_plan_id":"cebpf4jnsgd1na2vs0mg"},{"bike_id":"8faef0c8-c695-4311-920f-db7ba85e9621","system_id":"levelo_inurba_marseille","lat":43.27569,"lon":5.38414,"is_reserved":false,"is_disabled":false,"rental_uris":{"android":"levelo://app?vid=8faef0c8-c695-4311-920f-db7ba85e9621","ios":"levelo://app?vid=8faef0c8-c695-4311-920f-db7ba85e9621"},"vehicle_type_id":"4","last_reported":1729174158,"current_range_meters":36800,"station_id":"ce4bhh92rcd13ifvqfi0","pricing_plan_id":"cebpf4jnsgd1na2vs0mg"},{"bike_id":"2552979b-8546-4eff-9cd6-06f11015612d","system_id":"levelo_inurba_marseille","lat":43.3137,"lon":5.38498,"is_reserved":false,"is_disabled":false,"rental_uris":{"android":"levelo://app?vid=2552979b-8546-4eff-9cd6-06f11015612d","ios":"levelo://app?vid=2552979b-8546-4eff-9cd6-06f11015612d"},"vehicle_type_id":"4","last_reported":1729174158,"current_range_meters":21600,"station_id":"ce4bgt92rcd13ifvqcf0","pricing_plan_id":"cebpf4jnsgd1na2vs0mg"},{"bike_id":"0f0c8df0-1a69-46fa-8c1e-5c3f19a24548","system_id":"levelo_inurba_marseille","lat":43.29878,"lon":5.38909,"is_reserved":false,"is_disabled":false,"rental_uris":{"android":"levelo://app?vid=0f0c8df0-1a69-46fa-8c1e-5c3f19a24548","ios":"levelo://app?vid=0f0c8df0-1a69-46fa-8c1e-5c3f19a24548"},"vehicle_type_id":"4","last_reported":1729174158,"current_range_meters":20400,"station_id":"ce4bh392rcd13ifvqdl0","pricing_plan_id":"cebpf4jnsgd1na2vs0mg"},{"bike_id":"1846dcb3-69e9-4c23-8883-f1b62e0a85b1","system_id":"levelo_inurba_marseille","lat":43.24075,"lon":5.37754,"is_reserved":false,"is_disabled":false,"rental_uris":{"android":"levelo://app?vid=1846dcb3-69e9-4c23-8883-f1b62e0a85b1","ios":"levelo://app?vid=1846dcb3-69e9-4c23-8883-f1b62e0a85b1"},"vehicle_type_id":"4","last_reported":1729174158,"current_range_meters":26000,"station_id":"ce4bhnp2rcd13ifvqgvg","pricing_plan_id":"cebpf4jnsgd1na2vs0mg"},{"bike_id":"fa7bbdc9-afbe-404d-8676-647037cc76a9","system_id":"levelo_inurba_marseille","lat":43.231942,"lon":5.355464,"is_reserved":false,"is_disabled":false,"rental_uris":{"android":"levelo://app?vid=fa7bbdc9-afbe-404d-8676-647037cc76a9","ios":"levelo://app?vid=fa7bbdc9-afbe-404d-8676-647037cc76a9"},"vehicle_type_id":"4","last_reported":1729174158,"current_range_meters":33600,"station_id":"ce4bhu92rcd13ifvqi70","pricing_plan_id":"cebpf4jnsgd1na2vs0mg"},{"bike_id":"c14a1dcb-535d-42a8-9822-1b7d8c3f9201","system_id":"levelo_inurba_marseille","lat":43.31276,"lon":5.40155,"is_reserved":false,"is_disabled":false,"rental_uris":{"android":"levelo://app?vid=c14a1dcb-535d-42a8-9822-1b7d8c3f9201","ios":"levelo://app?vid=c14a1dcb-535d-42a8-9822-1b7d8c3f9201"},"vehicle_type_id":"4","last_reported":1729174158,"current_range_meters":11600,"station_id":"ce4bh092rcd13ifvqd30","pricing_plan_id":"cebpf4jnsgd1na2vs0mg"},{"bike_id":"931ad2f4-35ea-42b5-bc1a-1fdec477398a","system_id":"levelo_inurba_marseille","lat":43.33764,"lon":5.37442,"is_reserved":false,"is_disabled":false,"rental_uris":{"android":"levelo://app?vid=931ad2f4-35ea-42b5-bc1a-1fdec477398a","ios":"levelo://app?vid=931ad2f4-35ea-42b5-bc1a-1fdec477398a"},"vehicle_type_id":"4","last_reported":1729174158,"current_range_meters":28000,"station_id":"","pricing_plan_id":"cebpf4jnsgd1na2vs0mg"},{"bike_id":"348a3729-e440-4f4a-8dbd-e9bb0acb6647","system_id":"levelo_inurba_marseille","lat":43.31072,"lon":5.38359,"is_reserved":false,"is_disabled":false,"rental_uris":{"android":"levelo://app?vid=348a3729-e440-4f4a-8dbd-e9bb0acb6647","ios":"levelo://app?vid=348a3729-e440-4f4a-8dbd-e9bb0acb6647"},"vehicle_type_id":"4","last_reported":1729174158,"current_range_meters":12400,"station_id":"ce4bgv92rcd13ifvqcr0","pricing_plan_id":"cebpf4jnsgd1na2vs0mg"},{"bike_id":"1b286d88-38de-4654-af64-51914b19b962","system_id":"levelo_inurba_marseille","lat":43.24626,"lon":5.388747,"is_reserved":false,"is_disabled":false,"rental_uris":{"android":"levelo://app?vid=1b286d88-38de-4654-af64-51914b19b962","ios":"levelo://app?vid=1b286d88-38de-4654-af64-51914b19b962"},"vehicle_type_id":"4","last_reported":1729174158,"current_range_meters":3600,"station_id":"ce4bhg12rcd13ifvqf60","pricing_plan_id":"cebpf4jnsgd1na2vs0mg"},{"bike_id":"4e82a983-4406-4fc1-9c7d-45090c1e4862","system_id":"levelo_inurba_marseille","lat":43.24545,"lon":5.39522,"is_reserved":false,"is_disabled":false,"rental_uris":{"android":"levelo://app?vid=4e82a983-4406-4fc1-9c7d-45090c1e4862","ios":"levelo://app?vid=4e82a983-4406-4fc1-9c7d-45090c1e4862"},"vehicle_type_id":"4","last_reported":1729174158,"current_range_meters":6000,"station_id":"ce4bhlp2rcd13ifvqgjg","pricing_plan_id":"cebpf4jnsgd1na2vs0mg"},{"bike_id":"8c1ec6cb-2291-4814-837b-be8625c706f3","system_id":"levelo_inurba_marseille","lat":43.23197,"lon":5.35542,"is_reserved":false,"is_disabled":false,"rental_uris":{"android":"levelo://app?vid=8c1ec6cb-2291-4814-837b-be8625c706f3","ios":"levelo://app?vid=8c1ec6cb-2291-4814-837b-be8625c706f3"},"vehicle_type_id":"4","last_reported":1729174158,"current_range_meters":36800,"station_id":"ce4bhu92rcd13ifvqi70","pricing_plan_id":"cebpf4jnsgd1na2vs0mg"},{"bike_id":"7750c53d-6dc7-4fd8-8365-b874827419a3","system_id":"levelo_inurba_marseille","lat":43.24649,"lon":5.38891,"is_reserved":false,"is_disabled":false,"rental_uris":{"android":"levelo://app?vid=7750c53d-6dc7-4fd8-8365-b874827419a3","ios":"levelo://app?vid=7750c53d-6dc7-4fd8-8365-b874827419a3"},"vehicle_type_id":"4","last_reported":1729174158,"current_range_meters":14000,"station_id":"ce4bhg12rcd13ifvqf60","pricing_plan_id":"cebpf4jnsgd1na2vs0mg"},{"bike_id":"f0e67b4d-7d6a-4a7e-a1bb-2450276e0844","system_id":"levelo_inurba_marseille","lat":43.28616,"lon":5.35102,"is_reserved":false,"is_disabled":false,"rental_uris":{"android":"levelo://app?vid=f0e67b4d-7d6a-4a7e-a1bb-2450276e0844","ios":"levelo://app?vid=f0e67b4d-7d6a-4a7e-a1bb-2450276e0844"},"vehicle_type_id":"4","last_reported":1729174158,"current_range_meters":37600,"station_id":"ce4bhch2rcd13ifvqeug","pricing_plan_id":"cebpf4jnsgd1na2vs0mg"},{"bike_id":"c89c2319-61a9-47ef-9229-e31c9eaab143","system_id":"levelo_inurba_marseille","lat":43.23199,"lon":5.35541,"is_reserved":false,"is_disabled":false,"rental_uris":{"android":"levelo://app?vid=c89c2319-61a9-47ef-9229-e31c9eaab143","ios":"levelo://app?vid=c89c2319-61a9-47ef-9229-e31c9eaab143"},"vehicle_type_id":"4","last_reported":1729174158,"current_range_meters":3600,"station_id":"ce4bhu92rcd13ifvqi70","pricing_plan_id":"cebpf4jnsgd1na2vs0mg"},{"bike_id":"c1b4d58c-7d67-4800-b5de-bf664ea422e8","system_id":"levelo_inurba_marseille","lat":43.24648,"lon":5.38891,"is_reserved":false,"is_disabled":false,"rental_uris":{"android":"levelo://app?vid=c1b4d58c-7d67-4800-b5de-bf664ea422e8","ios":"levelo://app?vid=c1b4d58c-7d67-4800-b5de-bf664ea422e8"},"vehicle_type_id":"4","last_reported":1729174158,"current_range_meters":11200,"station_id":"ce4bhg12rcd13ifvqf60","pricing_plan_id":"cebpf4jnsgd1na2vs0mg"},{"bike_id":"712ea180-7320-417e-a64f-811965068ea0","system_id":"levelo_inurba_marseille","lat":43.28703,"lon":5.39981,"is_reserved":false,"is_disabled":false,"rental_uris":{"android":"levelo://app?vid=712ea180-7320-417e-a64f-811965068ea0","ios":"levelo://app?vid=712ea180-7320-417e-a64f-811965068ea0"},"vehicle_type_id":"4","last_reported":1729174158,"current_range_meters":27200,"station_id":"ce4bho92rcd13ifvqh3g","pricing_plan_id":"cebpf4jnsgd1na2vs0mg"},{"bike_id":"412459fa-82a2-4b35-a670-8c341b67ea38","system_id":"levelo_inurba_marseille","lat":43.30329,"lon":5.40437,"is_reserved":false,"is_disabled":false,"rental_uris":{"android":"levelo://app?vid=412459fa-82a2-4b35-a670-8c341b67ea38","ios":"levelo://app?vid=412459fa-82a2-4b35-a670-8c341b67ea38"},"vehicle_type_id":"4","last_reported":1729174158,"current_range_meters":36800,"station_id":"ce4bh012rcd13ifvqd10","pricing_plan_id":"cebpf4jnsgd1na2vs0mg"},{"bike_id":"62087261-1de9-4e1b-b032-a678967a4d07","system_id":"levelo_inurba_marseille","lat":43.274933,"lon":5.424519,"is_reserved":false,"is_disabled":false,"rental_uris":{"android":"levelo://app?vid=62087261-1de9-4e1b-b032-a678967a4d07","ios":"levelo://app?vid=62087261-1de9-4e1b-b032-a678967a4d07"},"vehicle_type_id":"4","last_reported":1729174158,"current_range_meters":4000,"station_id":"ce4bhp92rcd13ifvqhag","pricing_plan_id":"cebpf4jnsgd1na2vs0mg"},{"bike_id":"22b535b9-e408-47e8-8864-5fdba51acb33","system_id":"levelo_inurba_marseille","lat":43.30146,"lon":5.37412,"is_reserved":false,"is_disabled":false,"rental_uris":{"android":"levelo://app?vid=22b535b9-e408-47e8-8864-5fdba51acb33","ios":"levelo://app?vid=22b535b9-e408-47e8-8864-5fdba51acb33"},"vehicle_type_id":"4","last_reported":1729174158,"current_range_meters":23200,"station_id":"ce4bgs92rcd13ifvqcc0","pricing_plan_id":"cebpf4jnsgd1na2vs0mg"},{"bike_id":"5fbf8b17-0732-43bc-b2e9-9b3358ccc3be","system_id":"levelo_inurba_marseille","lat":43.30541,"lon":5.36543,"is_reserved":false,"is_disabled":false,"rental_uris":{"android":"levelo://app?vid=5fbf8b17-0732-43bc-b2e9-9b3358ccc3be","ios":"levelo://app?vid=5fbf8b17-0732-43bc-b2e9-9b3358ccc3be"},"vehicle_type_id":"4","last_reported":1729174158,"current_range_meters":28800,"station_id":"ce4bgs12rcd13ifvqcag","pricing_plan_id":"cebpf4jnsgd1na2vs0mg"},{"bike_id":"874494de-7452-4f47-9fec-c5ec79478035","system_id":"levelo_inurba_marseille","lat":43.23964,"lon":5.36635,"is_reserved":false,"is_disabled":false,"rental_uris":{"android":"levelo://app?vid=874494de-7452-4f47-9fec-c5ec79478035","ios":"levelo://app?vid=874494de-7452-4f47-9fec-c5ec79478035"},"vehicle_type_id":"4","last_reported":1729174158,"current_range_meters":28000,"station_id":"ce4bhi12rcd13ifvqfp0","pricing_plan_id":"cebpf4jnsgd1na2vs0mg"},{"bike_id":"b13d8ea1-0eb3-41f7-b5ef-e16a5caa370c","system_id":"levelo_inurba_marseille","lat":43.30536,"lon":5.36532,"is_reserved":false,"is_disabled":false,"rental_uris":{"android":"levelo://app?vid=b13d8ea1-0eb3-41f7-b5ef-e16a5caa370c","ios":"levelo://app?vid=b13d8ea1-0eb3-41f7-b5ef-e16a5caa370c"},"vehicle_type_id":"4","last_reported":1729174158,"current_range_meters":26000,"station_id":"ce4bgs12rcd13ifvqcag","pricing_plan_id":"cebpf4jnsgd1na2vs0mg"},{"bike_id":"c18fa727-c1cc-4d62-8196-97e721642793","system_id":"levelo_inurba_marseille","lat":43.30334,"lon":5.40426,"is_reserved":false,"is_disabled":false,"rental_uris":{"android":"levelo://app?vid=c18fa727-c1cc-4d62-8196-97e721642793","ios":"levelo://app?vid=c18fa727-c1cc-4d62-8196-97e721642793"},"vehicle_type_id":"4","last_reported":1729174158,"current_range_meters":23200,"station_id":"ce4bh012rcd13ifvqd10","pricing_plan_id":"cebpf4jnsgd1na2vs0mg"},{"bike_id":"08ae83cb-f31d-469e-8b8d-1172d9f867d3","system_id":"levelo_inurba_marseille","lat":43.23962,"lon":5.36641,"is_reserved":false,"is_disabled":false,"rental_uris":{"android":"levelo://app?vid=08ae83cb-f31d-469e-8b8d-1172d9f867d3","ios":"levelo://app?vid=08ae83cb-f31d-469e-8b8d-1172d9f867d3"},"vehicle_type_id":"4","last_reported":1729174158,"current_range_meters":16800,"station_id":"ce4bhi12rcd13ifvqfp0","pricing_plan_id":"cebpf4jnsgd1na2vs0mg"},{"bike_id":"ee40d608-c09e-419a-b6ac-db05e031787d","system_id":"levelo_inurba_marseille","lat":43.2985,"lon":5.36288,"is_reserved":false,"is_disabled":false,"rental_uris":{"android":"levelo://app?vid=ee40d608-c09e-419a-b6ac-db05e031787d","ios":"levelo://app?vid=ee40d608-c09e-419a-b6ac-db05e031787d"},"vehicle_type_id":"4","last_reported":1729174158,"current_range_meters":37600,"station_id":"ce4bgpp2rcd13ifvqc3g","pricing_plan_id":"cebpf4jnsgd1na2vs0mg"},{"bike_id":"0994d7f0-fa2e-480f-b967-2b1e1b476b78","system_id":"levelo_inurba_marseille","lat":43.23187,"lon":5.35556,"is_reserved":false,"is_disabled":false,"rental_uris":{"android":"levelo://app?vid=0994d7f0-fa2e-480f-b967-2b1e1b476b78","ios":"levelo://app?vid=0994d7f0-fa2e-480f-b967-2b1e1b476b78"},"vehicle_type_id":"4","last_reported":1729174158,"current_range_meters":14400,"station_id":"ce4bhu92rcd13ifvqi70","pricing_plan_id":"cebpf4jnsgd1na2vs0mg"},{"bike_id":"cafacf31-3dc4-4662-b543-8a143108fe4d","system_id":"levelo_inurba_marseille","lat":43.23187,"lon":5.39984,"is_reserved":false,"is_disabled":false,"rental_uris":{"android":"levelo://app?vid=cafacf31-3dc4-4662-b543-8a143108fe4d","ios":"levelo://app?vid=cafacf31-3dc4-4662-b543-8a143108fe4d"},"vehicle_type_id":"4","last_reported":1729174158,"current_range_meters":24800,"station_id":"ce4bhn12rcd13ifvqgqg","pricing_plan_id":"cebpf4jnsgd1na2vs0mg"},{"bike_id":"1f54d42f-9db9-4cfd-b3b2-4c132f6dcb7e","system_id":"levelo_inurba_marseille","lat":43.29273,"lon":5.36848,"is_reserved":false,"is_disabled":false,"rental_uris":{"android":"levelo://app?vid=1f54d42f-9db9-4cfd-b3b2-4c132f6dcb7e","ios":"levelo://app?vid=1f54d42f-9db9-4cfd-b3b2-4c132f6dcb7e"},"vehicle_type_id":"4","last_reported":1729174158,"current_range_meters":12000,"station_id":"ce4bhbp2rcd13ifvqesg","pricing_plan_id":"cebpf4jnsgd1na2vs0mg"},{"bike_id":"86e22d90-048a-40f4-b500-32d71728c2fc","system_id":"levelo_inurba_marseille","lat":43.3211,"lon":5.36778,"is_reserved":false,"is_disabled":false,"rental_uris":{"android":"levelo://app?vid=86e22d90-048a-40f4-b500-32d71728c2fc","ios":"levelo://app?vid=86e22d90-048a-40f4-b500-32d71728c2fc"},"vehicle_type_id":"4","last_reported":1729174158,"current_range_meters":38800,"station_id":"ce4bhrh2rcd13ifvqhug","pricing_plan_id":"cebpf4jnsgd1na2vs0mg"},{"bike_id":"66ccc46d-618e-4760-b09c-27382152bdab","system_id":"levelo_inurba_marseille","lat":43.23192,"lon":5.3554,"is_reserved":false,"is_disabled":false,"rental_uris":{"android":"levelo://app?vid=66ccc46d-618e-4760-b09c-27382152bdab","ios":"levelo://app?vid=66ccc46d-618e-4760-b09c-27382152bdab"},"vehicle_type_id":"4","last_reported":1729174158,"current_range_meters":32800,"station_id":"ce4bhu92rcd13ifvqi70","pricing_plan_id":"cebpf4jnsgd1na2vs0mg"},{"bike_id":"00fe3fa8-0f45-480e-b920-34e33000d0c9","system_id":"levelo_inurba_marseille","lat":43.29892,"lon":5.38898,"is_reserved":false,"is_disabled":false,"rental_uris":{"android":"levelo://app?vid=00fe3fa8-0f45-480e-b920-34e33000d0c9","ios":"levelo://app?vid=00fe3fa8-0f45-480e-b920-34e33000d0c9"},"vehicle_type_id":"4","last_reported":1729174158,"current_range_meters":19200,"station_id":"ce4bh392rcd13ifvqdl0","pricing_plan_id":"cebpf4jnsgd1na2vs0mg"},{"bike_id":"d9d3643c-62da-4862-8b18-0b60e67ff6f0","system_id":"levelo_inurba_marseille","lat":43.27498,"lon":5.42457,"is_reserved":false,"is_disabled":false,"rental_uris":{"android":"levelo://app?vid=d9d3643c-62da-4862-8b18-0b60e67ff6f0","ios":"levelo://app?vid=d9d3643c-62da-4862-8b18-0b60e67ff6f0"},"vehicle_type_id":"4","last_reported":1729174158,"current_range_meters":1600,"station_id":"ce4bhn92rcd13ifvqgrg","pricing_plan_id":"cebpf4jnsgd1na2vs0mg"},{"bike_id":"fa1cccfe-fba8-45fc-a9c3-92c1523ced97","system_id":"levelo_inurba_marseille","lat":43.29982,"lon":5.37172,"is_reserved":false,"is_disabled":false,"rental_uris":{"android":"levelo://app?vid=fa1cccfe-fba8-45fc-a9c3-92c1523ced97","ios":"levelo://app?vid=fa1cccfe-fba8-45fc-a9c3-92c1523ced97"},"vehicle_type_id":"4","last_reported":1729174158,"current_range_meters":9200,"station_id":"ce4bgr92rcd13ifvqc7g","pricing_plan_id":"cebpf4jnsgd1na2vs0mg"},{"bike_id":"42848f26-2473-47e0-a735-d7d81463d0a1","system_id":"levelo_inurba_marseille","lat":43.30251,"lon":5.40065,"is_reserved":false,"is_disabled":false,"rental_uris":{"android":"levelo://app?vid=42848f26-2473-47e0-a735-d7d81463d0a1","ios":"levelo://app?vid=42848f26-2473-47e0-a735-d7d81463d0a1"},"vehicle_type_id":"4","last_reported":1729174158,"current_range_meters":38800,"station_id":"ce4bgvh2rcd13ifvqcs0","pricing_plan_id":"cebpf4jnsgd1na2vs0mg"},{"bike_id":"30404aca-08a3-4264-987a-aa6acb1f5cf1","system_id":"levelo_inurba_marseille","lat":43.25939,"lon":5.40902,"is_reserved":false,"is_disabled":false,"rental_uris":{"android":"levelo://app?vid=30404aca-08a3-4264-987a-aa6acb1f5cf1","ios":"levelo://app?vid=30404aca-08a3-4264-987a-aa6acb1f5cf1"},"vehicle_type_id":"4","last_reported":1729174158,"current_range_meters":19200,"station_id":"ce4bhm92rcd13ifvqglg","pricing_plan_id":"cebpf4jnsgd1na2vs0mg"},{"bike_id":"1380e543-eafd-4516-9717-1e0714bb2fb6","system_id":"levelo_inurba_marseille","lat":43.26486,"lon":5.39549,"is_reserved":false,"is_disabled":false,"rental_uris":{"android":"levelo://app?vid=1380e543-eafd-4516-9717-1e0714bb2fb6","ios":"levelo://app?vid=1380e543-eafd-4516-9717-1e0714bb2fb6"},"vehicle_type_id":"4","last_reported":1729174158,"current_range_meters":27200,"station_id":"ce4bhi12rcd13ifvqfq0","pricing_plan_id":"cebpf4jnsgd1na2vs0mg"},{"bike_id":"6300df2c-b9fe-4275-916d-dd75e59140c9","system_id":"levelo_inurba_marseille","lat":43.231959,"lon":5.355476,"is_reserved":false,"is_disabled":false,"rental_uris":{"android":"levelo://app?vid=6300df2c-b9fe-4275-916d-dd75e59140c9","ios":"levelo://app?vid=6300df2c-b9fe-4275-916d-dd75e59140c9"},"vehicle_type_id":"4","last_reported":1729174158,"current_range_meters":33200,"station_id":"ce4bhu92rcd13ifvqi70","pricing_plan_id":"cebpf4jnsgd1na2vs0mg"},{"bike_id":"9639a337-6ab9-4f66-9e6e-d0bf5dde7ef3","system_id":"levelo_inurba_marseille","lat":43.28615,"lon":5.35108,"is_reserved":false,"is_disabled":false,"rental_uris":{"android":"levelo://app?vid=9639a337-6ab9-4f66-9e6e-d0bf5dde7ef3","ios":"levelo://app?vid=9639a337-6ab9-4f66-9e6e-d0bf5dde7ef3"},"vehicle_type_id":"4","last_reported":1729174158,"current_range_meters":38800,"station_id":"ce4bhch2rcd13ifvqeug","pricing_plan_id":"cebpf4jnsgd1na2vs0mg"},{"bike_id":"59238a0c-de64-46a6-a64a-5a5563ed932a","system_id":"levelo_inurba_marseille","lat":43.22933,"lon":5.35373,"is_reserved":false,"is_disabled":false,"rental_uris":{"android":"levelo://app?vid=59238a0c-de64-46a6-a64a-5a5563ed932a","ios":"levelo://app?vid=59238a0c-de64-46a6-a64a-5a5563ed932a"},"vehicle_type_id":"4","last_reported":1729174158,"current_range_meters":30400,"station_id":"cpo3532slgdg3j2ikp40","pricing_plan_id":"cebpf4jnsgd1na2vs0mg"},{"bike_id":"2a35d769-41c1-4386-ab33-04cc394c4f43","system_id":"levelo_inurba_marseille","lat":43.25878,"lon":5.39892,"is_reserved":false,"is_disabled":false,"rental_uris":{"android":"levelo://app?vid=2a35d769-41c1-4386-ab33-04cc394c4f43","ios":"levelo://app?vid=2a35d769-41c1-4386-ab33-04cc394c4f43"},"vehicle_type_id":"4","last_reported":1729174158,"current_range_meters":33200,"station_id":"ce4bhl92rcd13ifvqghg","pricing_plan_id":"cebpf4jnsgd1na2vs0mg"},{"bike_id":"fede19d1-8653-442c-8765-5763c50a3b5d","system_id":"levelo_inurba_marseille","lat":43.29627,"lon":5.37724,"is_reserved":false,"is_disabled":false,"rental_uris":{"android":"levelo://app?vid=fede19d1-8653-442c-8765-5763c50a3b5d","ios":"levelo://app?vid=fede19d1-8653-442c-8765-5763c50a3b5d"},"vehicle_type_id":"4","last_reported":1729174158,"current_range_meters":29600,"station_id":"ce4bgi92rcd13ifvqb90","pricing_plan_id":"cebpf4jnsgd1na2vs0mg"},{"bike_id":"20c29f99-0e3c-45bb-837b-976b5cc98468","system_id":"levelo_inurba_marseille","lat":43.23151,"lon":5.4371,"is_reserved":false,"is_disabled":false,"rental_uris":{"android":"levelo://app?vid=20c29f99-0e3c-45bb-837b-976b5cc98468","ios":"levelo://app?vid=20c29f99-0e3c-45bb-837b-976b5cc98468"},"vehicle_type_id":"4","last_reported":1729174158,"current_range_meters":37600,"station_id":"ce4bhmp2rcd13ifvqgog","pricing_plan_id":"cebpf4jnsgd1na2vs0mg"},{"bike_id":"a6e9f1dc-2010-4660-bf75-39a77799f4f9","system_id":"levelo_inurba_marseille","lat":43.30913,"lon":5.36851,"is_reserved":false,"is_disabled":false,"rental_uris":{"android":"levelo://app?vid=a6e9f1dc-2010-4660-bf75-39a77799f4f9","ios":"levelo://app?vid=a6e9f1dc-2010-4660-bf75-39a77799f4f9"},"vehicle_type_id":"4","last_reported":1729174158,"current_range_meters":30000,"station_id":"ce4bgn92rcd13ifvqbvg","pricing_plan_id":"cebpf4jnsgd1na2vs0mg"},{"bike_id":"c23ad615-74bf-451f-a10e-90acbbe74911","system_id":"levelo_inurba_marseille","lat":43.27815,"lon":5.40709,"is_reserved":false,"is_disabled":false,"rental_uris":{"android":"levelo://app?vid=c23ad615-74bf-451f-a10e-90acbbe74911","ios":"levelo://app?vid=c23ad615-74bf-451f-a10e-90acbbe74911"},"vehicle_type_id":"4","last_reported":1729174158,"current_range_meters":38400,"station_id":"ce4bhnh2rcd13ifvqgtg","pricing_plan_id":"cebpf4jnsgd1na2vs0mg"},{"bike_id":"7f9d0cf8-012c-4a8e-b342-fe20c12e8a2a","system_id":"levelo_inurba_marseille","lat":43.24651,"lon":5.38891,"is_reserved":false,"is_disabled":false,"rental_uris":{"android":"levelo://app?vid=7f9d0cf8-012c-4a8e-b342-fe20c12e8a2a","ios":"levelo://app?vid=7f9d0cf8-012c-4a8e-b342-fe20c12e8a2a"},"vehicle_type_id":"4","last_reported":1729174158,"current_range_meters":6800,"station_id":"ce4bhg12rcd13ifvqf60","pricing_plan_id":"cebpf4jnsgd1na2vs0mg"},{"bike_id":"94dad7f8-6585-4b37-b691-74420d23ef13","system_id":"levelo_inurba_marseille","lat":43.30802,"lon":5.43517,"is_reserved":false,"is_disabled":false,"rental_uris":{"android":"levelo://app?vid=94dad7f8-6585-4b37-b691-74420d23ef13","ios":"levelo://app?vid=94dad7f8-6585-4b37-b691-74420d23ef13"},"vehicle_type_id":"4","last_reported":1729174158,"current_range_meters":38000,"station_id":"ce4bhph2rcd13ifvqheg","pricing_plan_id":"cebpf4jnsgd1na2vs0mg"},{"bike_id":"a2b2864f-6afb-46e5-a502-9789958951c7","system_id":"levelo_inurba_marseille","lat":43.25934,"lon":5.40907,"is_reserved":false,"is_disabled":false,"rental_uris":{"android":"levelo://app?vid=a2b2864f-6afb-46e5-a502-9789958951c7","ios":"levelo://app?vid=a2b2864f-6afb-46e5-a502-9789958951c7"},"vehicle_type_id":"4","last_reported":1729174158,"current_range_meters":37600,"station_id":"ce4bhm92rcd13ifvqglg","pricing_plan_id":"cebpf4jnsgd1na2vs0mg"},{"bike_id":"4562e9bb-7c1e-4e0e-95e1-858d0f8d86d1","system_id":"levelo_inurba_marseille","lat":43.23196,"lon":5.35553,"is_reserved":false,"is_disabled":false,"rental_uris":{"android":"levelo://app?vid=4562e9bb-7c1e-4e0e-95e1-858d0f8d86d1","ios":"levelo://app?vid=4562e9bb-7c1e-4e0e-95e1-858d0f8d86d1"},"vehicle_type_id":"4","last_reported":1729174158,"current_range_meters":7200,"station_id":"ce4bhu92rcd13ifvqi70","pricing_plan_id":"cebpf4jnsgd1na2vs0mg"},{"bike_id":"946c2eee-2eac-49df-9a58-dce934fbae9c","system_id":"levelo_inurba_marseille","lat":43.25579,"lon":5.38228,"is_reserved":false,"is_disabled":false,"rental_uris":{"android":"levelo://app?vid=946c2eee-2eac-49df-9a58-dce934fbae9c","ios":"levelo://app?vid=946c2eee-2eac-49df-9a58-dce934fbae9c"},"vehicle_type_id":"4","last_reported":1729174158,"current_range_meters":25600,"station_id":"ce4bhih2rcd13ifvqfs0","pricing_plan_id":"cebpf4jnsgd1na2vs0mg"},{"bike_id":"2b432ce9-2306-4927-86b9-3fa78c27ffe8","system_id":"levelo_inurba_marseille","lat":43.24547,"lon":5.39521,"is_reserved":false,"is_disabled":false,"rental_uris":{"android":"levelo://app?vid=2b432ce9-2306-4927-86b9-3fa78c27ffe8","ios":"levelo://app?vid=2b432ce9-2306-4927-86b9-3fa78c27ffe8"},"vehicle_type_id":"4","last_reported":1729174158,"current_range_meters":9200,"station_id":"ce4bhlp2rcd13ifvqgjg","pricing_plan_id":"cebpf4jnsgd1na2vs0mg"},{"bike_id":"c60ae59c-5f3f-493b-82be-9fdc769a1273","system_id":"levelo_inurba_marseille","lat":43.24087,"lon":5.37753,"is_reserved":false,"is_disabled":false,"rental_uris":{"android":"levelo://app?vid=c60ae59c-5f3f-493b-82be-9fdc769a1273","ios":"levelo://app?vid=c60ae59c-5f3f-493b-82be-9fdc769a1273"},"vehicle_type_id":"4","last_reported":1729174158,"current_range_meters":7200,"station_id":"ce4bhnp2rcd13ifvqgvg","pricing_plan_id":"cebpf4jnsgd1na2vs0mg"},{"bike_id":"2140b6a3-5118-4150-823e-9225aeb56201","system_id":"levelo_inurba_marseille","lat":43.23198,"lon":5.35548,"is_reserved":false,"is_disabled":false,"rental_uris":{"android":"levelo://app?vid=2140b6a3-5118-4150-823e-9225aeb56201","ios":"levelo://app?vid=2140b6a3-5118-4150-823e-9225aeb56201"},"vehicle_type_id":"4","last_reported":1729174158,"current_range_meters":36400,"station_id":"ce4bhu92rcd13ifvqi70","pricing_plan_id":"cebpf4jnsgd1na2vs0mg"},{"bike_id":"ff7bb813-432d-41a0-aa5a-5bfc6e514647","system_id":"levelo_inurba_marseille","lat":43.25937,"lon":5.40907,"is_reserved":false,"is_disabled":false,"rental_uris":{"android":"levelo://app?vid=ff7bb813-432d-41a0-aa5a-5bfc6e514647","ios":"levelo://app?vid=ff7bb813-432d-41a0-aa5a-5bfc6e514647"},"vehicle_type_id":"4","last_reported":1729174158,"current_range_meters":24800,"station_id":"ce4bhm92rcd13ifvqglg","pricing_plan_id":"cebpf4jnsgd1na2vs0mg"},{"bike_id":"375aba81-68ac-47d6-a3f1-cc6de7755cb9","system_id":"levelo_inurba_marseille","lat":43.25581,"lon":5.38226,"is_reserved":false,"is_disabled":false,"rental_uris":{"android":"levelo://app?vid=375aba81-68ac-47d6-a3f1-cc6de7755cb9","ios":"levelo://app?vid=375aba81-68ac-47d6-a3f1-cc6de7755cb9"},"vehicle_type_id":"4","last_reported":1729174158,"current_range_meters":30400,"station_id":"ce4bhih2rcd13ifvqfs0","pricing_plan_id":"cebpf4jnsgd1na2vs0mg"},{"bike_id":"a6a79723-8912-4d91-857c-c5b42d8ce154","system_id":"levelo_inurba_marseille","lat":43.33774,"lon":5.37424,"is_reserved":false,"is_disabled":false,"rental_uris":{"android":"levelo://app?vid=a6a79723-8912-4d91-857c-c5b42d8ce154","ios":"levelo://app?vid=a6a79723-8912-4d91-857c-c5b42d8ce154"},"vehicle_type_id":"4","last_reported":1729174158,"current_range_meters":12000,"station_id":"ce4bgk12rcd13ifvqbi0","pricing_plan_id":"cebpf4jnsgd1na2vs0mg"},{"bike_id":"34b91ea3-b3cf-4188-8741-02188a0be998","system_id":"levelo_inurba_marseille","lat":43.25584,"lon":5.38229,"is_reserved":false,"is_disabled":false,"rental_uris":{"android":"levelo://app?vid=34b91ea3-b3cf-4188-8741-02188a0be998","ios":"levelo://app?vid=34b91ea3-b3cf-4188-8741-02188a0be998"},"vehicle_type_id":"4","last_reported":1729174158,"current_range_meters":35600,"station_id":"ce4bhih2rcd13ifvqfs0","pricing_plan_id":"cebpf4jnsgd1na2vs0mg"},{"bike_id":"4e57754e-993f-4e4b-87d9-49a5f6fa22d4","system_id":"levelo_inurba_marseille","lat":43.30652,"lon":5.40081,"is_reserved":false,"is_disabled":false,"rental_uris":{"android":"levelo://app?vid=4e57754e-993f-4e4b-87d9-49a5f6fa22d4","ios":"levelo://app?vid=4e57754e-993f-4e4b-87d9-49a5f6fa22d4"},"vehicle_type_id":"4","last_reported":1729174158,"current_range_meters":16400,"station_id":"ce4bh112rcd13ifvqda0","pricing_plan_id":"cebpf4jnsgd1na2vs0mg"},{"bike_id":"974e9931-6d20-4545-9e5e-b40e518c0577","system_id":"levelo_inurba_marseille","lat":43.27813,"lon":5.40705,"is_reserved":false,"is_disabled":false,"rental_uris":{"android":"levelo://app?vid=974e9931-6d20-4545-9e5e-b40e518c0577","ios":"levelo://app?vid=974e9931-6d20-4545-9e5e-b40e518c0577"},"vehicle_type_id":"4","last_reported":1729174158,"current_range_meters":31200,"station_id":"ce4bhnh2rcd13ifvqgtg","pricing_plan_id":"cebpf4jnsgd1na2vs0mg"},{"bike_id":"2db12a1b-8be3-437e-aded-1916a1954a37","system_id":"levelo_inurba_marseille","lat":43.27974,"lon":5.38741,"is_reserved":false,"is_disabled":false,"rental_uris":{"android":"levelo://app?vid=2db12a1b-8be3-437e-aded-1916a1954a37","ios":"levelo://app?vid=2db12a1b-8be3-437e-aded-1916a1954a37"},"vehicle_type_id":"4","last_reported":1729174158,"current_range_meters":30400,"station_id":"ce4bhg12rcd13ifvqf80","pricing_plan_id":"cebpf4jnsgd1na2vs0mg"},{"bike_id":"447d9f9b-5078-45ee-a0c4-5102ccef7f4a","system_id":"levelo_inurba_marseille","lat":43.29846,"lon":5.36279,"is_reserved":false,"is_disabled":false,"rental_uris":{"android":"levelo://app?vid=447d9f9b-5078-45ee-a0c4-5102ccef7f4a","ios":"levelo://app?vid=447d9f9b-5078-45ee-a0c4-5102ccef7f4a"},"vehicle_type_id":"4","last_reported":1729174158,"current_range_meters":10800,"station_id":"ce4bgpp2rcd13ifvqc3g","pricing_plan_id":"cebpf4jnsgd1na2vs0mg"},{"bike_id":"55be5dde-3707-4116-be8f-e3d11f43ef39","system_id":"levelo_inurba_marseille","lat":43.27572,"lon":5.38418,"is_reserved":false,"is_disabled":false,"rental_uris":{"android":"levelo://app?vid=55be5dde-3707-4116-be8f-e3d11f43ef39","ios":"levelo://app?vid=55be5dde-3707-4116-be8f-e3d11f43ef39"},"vehicle_type_id":"4","last_reported":1729174158,"current_range_meters":20400,"station_id":"ce4bhh92rcd13ifvqfi0","pricing_plan_id":"cebpf4jnsgd1na2vs0mg"},{"bike_id":"83bcafb6-7740-4133-8b56-4bf302222f17","system_id":"levelo_inurba_marseille","lat":43.23964,"lon":5.36639,"is_reserved":false,"is_disabled":false,"rental_uris":{"android":"levelo://app?vid=83bcafb6-7740-4133-8b56-4bf302222f17","ios":"levelo://app?vid=83bcafb6-7740-4133-8b56-4bf302222f17"},"vehicle_type_id":"4","last_reported":1729174158,"current_range_meters":3600,"station_id":"ce4bhi12rcd13ifvqfp0","pricing_plan_id":"cebpf4jnsgd1na2vs0mg"},{"bike_id":"86af4008-bb90-40af-92fa-27c51567d9fd","system_id":"levelo_inurba_marseille","lat":43.27843,"lon":5.39212,"is_reserved":false,"is_disabled":false,"rental_uris":{"android":"levelo://app?vid=86af4008-bb90-40af-92fa-27c51567d9fd","ios":"levelo://app?vid=86af4008-bb90-40af-92fa-27c51567d9fd"},"vehicle_type_id":"4","last_reported":1729174158,"current_range_meters":38000,"station_id":"ce4bhjp2rcd13ifvqga0","pricing_plan_id":"cebpf4jnsgd1na2vs0mg"},{"bike_id":"7772d39f-5e28-445c-af91-069b0cf63793","system_id":"levelo_inurba_marseille","lat":43.33747,"lon":5.37433,"is_reserved":false,"is_disabled":false,"rental_uris":{"android":"levelo://app?vid=7772d39f-5e28-445c-af91-069b0cf63793","ios":"levelo://app?vid=7772d39f-5e28-445c-af91-069b0cf63793"},"vehicle_type_id":"4","last_reported":1729174158,"current_range_meters":16400,"station_id":"","pricing_plan_id":"cebpf4jnsgd1na2vs0mg"},{"bike_id":"306d207a-e0b2-4571-813d-f41b5e3cc051","system_id":"levelo_inurba_marseille","lat":43.30305,"lon":5.36906,"is_reserved":false,"is_disabled":false,"rental_uris":{"android":"levelo://app?vid=306d207a-e0b2-4571-813d-f41b5e3cc051","ios":"levelo://app?vid=306d207a-e0b2-4571-813d-f41b5e3cc051"},"vehicle_type_id":"4","last_reported":1729174158,"current_range_meters":26000,"station_id":"ce4bgqh2rcd13ifvqc5g","pricing_plan_id":"cebpf4jnsgd1na2vs0mg"},{"bike_id":"d85dd3bd-ea16-4f70-a21b-67b708254e7f","system_id":"levelo_inurba_marseille","lat":43.245863,"lon":5.380489,"is_reserved":false,"is_disabled":false,"rental_uris":{"android":"levelo://app?vid=d85dd3bd-ea16-4f70-a21b-67b708254e7f","ios":"levelo://app?vid=d85dd3bd-ea16-4f70-a21b-67b708254e7f"},"vehicle_type_id":"4","last_reported":1729174158,"current_range_meters":12800,"station_id":"","pricing_plan_id":"cebpf4jnsgd1na2vs0mg"},{"bike_id":"3213665e-989c-4d22-9f5a-31c8522597dd","system_id":"levelo_inurba_marseille","lat":43.296,"lon":5.36142,"is_reserved":false,"is_disabled":false,"rental_uris":{"android":"levelo://app?vid=3213665e-989c-4d22-9f5a-31c8522597dd","ios":"levelo://app?vid=3213665e-989c-4d22-9f5a-31c8522597dd"},"vehicle_type_id":"4","last_reported":1729174158,"current_range_meters":28000,"station_id":"","pricing_plan_id":"cebpf4jnsgd1na2vs0mg"},{"bike_id":"ff08bd26-2060-4809-b8d8-49cbdd727295","system_id":"levelo_inurba_marseille","lat":43.30211,"lon":5.39462,"is_reserved":false,"is_disabled":false,"rental_uris":{"android":"levelo://app?vid=ff08bd26-2060-4809-b8d8-49cbdd727295","ios":"levelo://app?vid=ff08bd26-2060-4809-b8d8-49cbdd727295"},"vehicle_type_id":"4","last_reported":1729174158,"current_range_meters":23200,"station_id":"ce4bh0p2rcd13ifvqd70","pricing_plan_id":"cebpf4jnsgd1na2vs0mg"},{"bike_id":"01f34d9f-efd9-4722-9203-d1989545f614","system_id":"levelo_inurba_marseille","lat":43.30342,"lon":5.40443,"is_reserved":false,"is_disabled":false,"rental_uris":{"android":"levelo://app?vid=01f34d9f-efd9-4722-9203-d1989545f614","ios":"levelo://app?vid=01f34d9f-efd9-4722-9203-d1989545f614"},"vehicle_type_id":"4","last_reported":1729174158,"current_range_meters":38800,"station_id":"ce4bh012rcd13ifvqd10","pricing_plan_id":"cebpf4jnsgd1na2vs0mg"},{"bike_id":"a4d688d3-0dff-4f78-85aa-704a8f1700b8","system_id":"levelo_inurba_marseille","lat":43.31758,"lon":5.39009,"is_reserved":false,"is_disabled":false,"rental_uris":{"android":"levelo://app?vid=a4d688d3-0dff-4f78-85aa-704a8f1700b8","ios":"levelo://app?vid=a4d688d3-0dff-4f78-85aa-704a8f1700b8"},"vehicle_type_id":"4","last_reported":1729174158,"current_range_meters":31200,"station_id":"ce4bhqp2rcd13ifvqhng","pricing_plan_id":"cebpf4jnsgd1na2vs0mg"},{"bike_id":"f3ff532f-bf34-44fd-ab2a-11de7aa441aa","system_id":"levelo_inurba_marseille","lat":43.24805,"lon":5.37458,"is_reserved":false,"is_disabled":false,"rental_uris":{"android":"levelo://app?vid=f3ff532f-bf34-44fd-ab2a-11de7aa441aa","ios":"levelo://app?vid=f3ff532f-bf34-44fd-ab2a-11de7aa441aa"},"vehicle_type_id":"4","last_reported":1729174158,"current_range_meters":36400,"station_id":"ce4bhgh2rcd13ifvqfb0","pricing_plan_id":"cebpf4jnsgd1na2vs0mg"},{"bike_id":"47e83732-04bb-41d4-b04c-996c3bf59938","system_id":"levelo_inurba_marseille","lat":43.31488,"lon":5.37309,"is_reserved":false,"is_disabled":false,"rental_uris":{"android":"levelo://app?vid=47e83732-04bb-41d4-b04c-996c3bf59938","ios":"levelo://app?vid=47e83732-04bb-41d4-b04c-996c3bf59938"},"vehicle_type_id":"4","last_reported":1729174158,"current_range_meters":38800,"station_id":"ce4bgt12rcd13ifvqcd0","pricing_plan_id":"cebpf4jnsgd1na2vs0mg"},{"bike_id":"1641b826-604a-4181-8231-dca386f637a6","system_id":"levelo_inurba_marseille","lat":43.23189,"lon":5.35542,"is_reserved":false,"is_disabled":false,"rental_uris":{"android":"levelo://app?vid=1641b826-604a-4181-8231-dca386f637a6","ios":"levelo://app?vid=1641b826-604a-4181-8231-dca386f637a6"},"vehicle_type_id":"4","last_reported":1729174158,"current_range_meters":33600,"station_id":"ce4bhu92rcd13ifvqi70","pricing_plan_id":"cebpf4jnsgd1na2vs0mg"},{"bike_id":"89211ee2-076f-4df3-92bd-cd8885f2e76d","system_id":"levelo_inurba_marseille","lat":43.23195,"lon":5.35551,"is_reserved":false,"is_disabled":false,"rental_uris":{"android":"levelo://app?vid=89211ee2-076f-4df3-92bd-cd8885f2e76d","ios":"levelo://app?vid=89211ee2-076f-4df3-92bd-cd8885f2e76d"},"vehicle_type_id":"4","last_reported":1729174158,"current_range_meters":33200,"station_id":"ce4bhu92rcd13ifvqi70","pricing_plan_id":"cebpf4jnsgd1na2vs0mg"},{"bike_id":"da2e91ac-c0d6-4976-aa56-75f8c898fb72","system_id":"levelo_inurba_marseille","lat":43.279694,"lon":5.387525,"is_reserved":false,"is_disabled":false,"rental_uris":{"android":"levelo://app?vid=da2e91ac-c0d6-4976-aa56-75f8c898fb72","ios":"levelo://app?vid=da2e91ac-c0d6-4976-aa56-75f8c898fb72"},"vehicle_type_id":"4","last_reported":1729174158,"current_range_meters":36000,"station_id":"ce4bhg12rcd13ifvqf80","pricing_plan_id":"cebpf4jnsgd1na2vs0mg"},{"bike_id":"64889850-7079-4b67-a508-0a94382bf846","system_id":"levelo_inurba_marseille","lat":43.31369,"lon":5.36709,"is_reserved":false,"is_disabled":false,"rental_uris":{"android":"levelo://app?vid=64889850-7079-4b67-a508-0a94382bf846","ios":"levelo://app?vid=64889850-7079-4b67-a508-0a94382bf846"},"vehicle_type_id":"4","last_reported":1729174158,"current_range_meters":38800,"station_id":"ce4bgr92rcd13ifvqc6g","pricing_plan_id":"cebpf4jnsgd1na2vs0mg"},{"bike_id":"32a49fe8-5752-4e25-9677-224e653ef32f","system_id":"levelo_inurba_marseille","lat":43.24083,"lon":5.37749,"is_reserved":false,"is_disabled":false,"rental_uris":{"android":"levelo://app?vid=32a49fe8-5752-4e25-9677-224e653ef32f","ios":"levelo://app?vid=32a49fe8-5752-4e25-9677-224e653ef32f"},"vehicle_type_id":"4","last_reported":1729174158,"current_range_meters":18800,"station_id":"ce4bhnp2rcd13ifvqgvg","pricing_plan_id":"cebpf4jnsgd1na2vs0mg"},{"bike_id":"d39a5687-1116-472f-a8fb-62c0d09c90d0","system_id":"levelo_inurba_marseille","lat":43.23152,"lon":5.43711,"is_reserved":false,"is_disabled":false,"rental_uris":{"android":"levelo://app?vid=d39a5687-1116-472f-a8fb-62c0d09c90d0","ios":"levelo://app?vid=d39a5687-1116-472f-a8fb-62c0d09c90d0"},"vehicle_type_id":"4","last_reported":1729174158,"current_range_meters":39200,"station_id":"ce4bhmp2rcd13ifvqgog","pricing_plan_id":"cebpf4jnsgd1na2vs0mg"},{"bike_id":"5d8c6bd8-ed52-40d5-9804-83fe1d45f366","system_id":"levelo_inurba_marseille","lat":43.30535,"lon":5.38423,"is_reserved":false,"is_disabled":false,"rental_uris":{"android":"levelo://app?vid=5d8c6bd8-ed52-40d5-9804-83fe1d45f366","ios":"levelo://app?vid=5d8c6bd8-ed52-40d5-9804-83fe1d45f366"},"vehicle_type_id":"4","last_reported":1729174158,"current_range_meters":19200,"station_id":"ce4bgg92rcd13ifvqb30","pricing_plan_id":"cebpf4jnsgd1na2vs0mg"},{"bike_id":"f88c7e01-bc8c-4735-8a37-e29425c30c87","system_id":"levelo_inurba_marseille","lat":43.23191,"lon":5.39988,"is_reserved":false,"is_disabled":false,"rental_uris":{"android":"levelo://app?vid=f88c7e01-bc8c-4735-8a37-e29425c30c87","ios":"levelo://app?vid=f88c7e01-bc8c-4735-8a37-e29425c30c87"},"vehicle_type_id":"4","last_reported":1729174158,"current_range_meters":12000,"station_id":"ce4bhn12rcd13ifvqgqg","pricing_plan_id":"cebpf4jnsgd1na2vs0mg"},{"bike_id":"ecb34647-7182-4824-bb3f-dc0c6b523c79","system_id":"levelo_inurba_marseille","lat":43.33753,"lon":5.37426,"is_reserved":false,"is_disabled":false,"rental_uris":{"android":"levelo://app?vid=ecb34647-7182-4824-bb3f-dc0c6b523c79","ios":"levelo://app?vid=ecb34647-7182-4824-bb3f-dc0c6b523c79"},"vehicle_type_id":"4","last_reported":1729174158,"current_range_meters":28000,"station_id":"","pricing_plan_id":"cebpf4jnsgd1na2vs0mg"},{"bike_id":"c8687817-23e8-4d53-870b-25e31ac622ca","system_id":"levelo_inurba_marseille","lat":43.28619,"lon":5.35101,"is_reserved":false,"is_disabled":false,"rental_uris":{"android":"levelo://app?vid=c8687817-23e8-4d53-870b-25e31ac622ca","ios":"levelo://app?vid=c8687817-23e8-4d53-870b-25e31ac622ca"},"vehicle_type_id":"4","last_reported":1729174158,"current_range_meters":20000,"station_id":"ce4bhch2rcd13ifvqeug","pricing_plan_id":"cebpf4jnsgd1na2vs0mg"},{"bike_id":"14deb1b1-b495-4b35-97c2-895a5ef7ad23","system_id":"levelo_inurba_marseille","lat":43.304669,"lon":5.379082,"is_reserved":false,"is_disabled":false,"rental_uris":{"android":"levelo://app?vid=14deb1b1-b495-4b35-97c2-895a5ef7ad23","ios":"levelo://app?vid=14deb1b1-b495-4b35-97c2-895a5ef7ad23"},"vehicle_type_id":"4","last_reported":1729174158,"current_range_meters":30800,"station_id":"ce4bhq92rcd13ifvqhjg","pricing_plan_id":"cebpf4jnsgd1na2vs0mg"},{"bike_id":"f751c42e-a252-48c0-9d1a-88f35665b70e","system_id":"levelo_inurba_marseille","lat":43.27811,"lon":5.40712,"is_reserved":false,"is_disabled":false,"rental_uris":{"android":"levelo://app?vid=f751c42e-a252-48c0-9d1a-88f35665b70e","ios":"levelo://app?vid=f751c42e-a252-48c0-9d1a-88f35665b70e"},"vehicle_type_id":"4","last_reported":1729174158,"current_range_meters":35200,"station_id":"ce4bhnh2rcd13ifvqgtg","pricing_plan_id":"cebpf4jnsgd1na2vs0mg"},{"bike_id":"87440bd7-4730-412f-b52f-03b263c3d6ba","system_id":"levelo_inurba_marseille","lat":43.2319,"lon":5.35555,"is_reserved":false,"is_disabled":false,"rental_uris":{"android":"levelo://app?vid=87440bd7-4730-412f-b52f-03b263c3d6ba","ios":"levelo://app?vid=87440bd7-4730-412f-b52f-03b263c3d6ba"},"vehicle_type_id":"4","last_reported":1729174158,"current_range_meters":18800,"station_id":"ce4bhu92rcd13ifvqi70","pricing_plan_id":"cebpf4jnsgd1na2vs0mg"},{"bike_id":"a76f2a01-609c-4fa7-bd5c-e42e933bfb84","system_id":"levelo_inurba_marseille","lat":43.32112,"lon":5.36778,"is_reserved":false,"is_disabled":false,"rental_uris":{"android":"levelo://app?vid=a76f2a01-609c-4fa7-bd5c-e42e933bfb84","ios":"levelo://app?vid=a76f2a01-609c-4fa7-bd5c-e42e933bfb84"},"vehicle_type_id":"4","last_reported":1729174158,"current_range_meters":38800,"station_id":"ce4bhrh2rcd13ifvqhug","pricing_plan_id":"cebpf4jnsgd1na2vs0mg"},{"bike_id":"8937c157-fc3b-4704-af92-e339d8163a54","system_id":"levelo_inurba_marseille","lat":43.29587,"lon":5.36735,"is_reserved":false,"is_disabled":false,"rental_uris":{"android":"levelo://app?vid=8937c157-fc3b-4704-af92-e339d8163a54","ios":"levelo://app?vid=8937c157-fc3b-4704-af92-e339d8163a54"},"vehicle_type_id":"4","last_reported":1729174158,"current_range_meters":22800,"station_id":"ce4bgph2rcd13ifvqc2g","pricing_plan_id":"cebpf4jnsgd1na2vs0mg"},{"bike_id":"930df337-3d90-4fc7-8722-c97c955004b6","system_id":"levelo_inurba_marseille","lat":43.30528,"lon":5.38428,"is_reserved":false,"is_disabled":false,"rental_uris":{"android":"levelo://app?vid=930df337-3d90-4fc7-8722-c97c955004b6","ios":"levelo://app?vid=930df337-3d90-4fc7-8722-c97c955004b6"},"vehicle_type_id":"4","last_reported":1729174158,"current_range_meters":17600,"station_id":"ce4bgg92rcd13ifvqb30","pricing_plan_id":"cebpf4jnsgd1na2vs0mg"},{"bike_id":"2db8c5db-3c85-4829-ba0f-75410592b5f5","system_id":"levelo_inurba_marseille","lat":43.28622,"lon":5.35101,"is_reserved":false,"is_disabled":false,"rental_uris":{"android":"levelo://app?vid=2db8c5db-3c85-4829-ba0f-75410592b5f5","ios":"levelo://app?vid=2db8c5db-3c85-4829-ba0f-75410592b5f5"},"vehicle_type_id":"4","last_reported":1729174158,"current_range_meters":8400,"station_id":"ce4bhch2rcd13ifvqeug","pricing_plan_id":"cebpf4jnsgd1na2vs0mg"},{"bike_id":"11ae48f5-4ab5-4f97-96e7-ca6556aedee5","system_id":"levelo_inurba_marseille","lat":43.30212,"lon":5.3946,"is_reserved":false,"is_disabled":false,"rental_uris":{"android":"levelo://app?vid=11ae48f5-4ab5-4f97-96e7-ca6556aedee5","ios":"levelo://app?vid=11ae48f5-4ab5-4f97-96e7-ca6556aedee5"},"vehicle_type_id":"4","last_reported":1729174158,"current_range_meters":16400,"station_id":"ce4bh0p2rcd13ifvqd70","pricing_plan_id":"cebpf4jnsgd1na2vs0mg"},{"bike_id":"2ca5b430-1771-4ecd-9b54-db0750fa0604","system_id":"levelo_inurba_marseille","lat":43.30544,"lon":5.36544,"is_reserved":false,"is_disabled":false,"rental_uris":{"android":"levelo://app?vid=2ca5b430-1771-4ecd-9b54-db0750fa0604","ios":"levelo://app?vid=2ca5b430-1771-4ecd-9b54-db0750fa0604"},"vehicle_type_id":"4","last_reported":1729174158,"current_range_meters":20400,"station_id":"ce4bgs12rcd13ifvqcag","pricing_plan_id":"cebpf4jnsgd1na2vs0mg"},{"bike_id":"db65d913-a142-43a7-b1c3-54dc85aadcca","system_id":"levelo_inurba_marseille","lat":43.24807,"lon":5.37455,"is_reserved":false,"is_disabled":false,"rental_uris":{"android":"levelo://app?vid=db65d913-a142-43a7-b1c3-54dc85aadcca","ios":"levelo://app?vid=db65d913-a142-43a7-b1c3-54dc85aadcca"},"vehicle_type_id":"4","last_reported":1729174158,"current_range_meters":24000,"station_id":"ce4bhgh2rcd13ifvqfb0","pricing_plan_id":"cebpf4jnsgd1na2vs0mg"},{"bike_id":"bf2089b0-26e1-414a-a423-b4e5749ee546","system_id":"levelo_inurba_marseille","lat":43.28415,"lon":5.34995,"is_reserved":false,"is_disabled":false,"rental_uris":{"android":"levelo://app?vid=bf2089b0-26e1-414a-a423-b4e5749ee546","ios":"levelo://app?vid=bf2089b0-26e1-414a-a423-b4e5749ee546"},"vehicle_type_id":"4","last_reported":1729174158,"current_range_meters":38800,"station_id":"ce4bhbh2rcd13ifvqepg","pricing_plan_id":"cebpf4jnsgd1na2vs0mg"},{"bike_id":"917774b9-13ef-43a4-bf47-4bcb4a36a27b","system_id":"levelo_inurba_marseille","lat":43.30309,"lon":5.392191,"is_reserved":false,"is_disabled":false,"rental_uris":{"android":"levelo://app?vid=917774b9-13ef-43a4-bf47-4bcb4a36a27b","ios":"levelo://app?vid=917774b9-13ef-43a4-bf47-4bcb4a36a27b"},"vehicle_type_id":"4","last_reported":1729174158,"current_range_meters":33600,"station_id":"ce4bgkh2rcd13ifvqbk0","pricing_plan_id":"cebpf4jnsgd1na2vs0mg"},{"bike_id":"c14ef5f2-0e25-4897-bdf5-11a8cb47f4b9","system_id":"levelo_inurba_marseille","lat":43.28433,"lon":5.34993,"is_reserved":false,"is_disabled":false,"rental_uris":{"android":"levelo://app?vid=c14ef5f2-0e25-4897-bdf5-11a8cb47f4b9","ios":"levelo://app?vid=c14ef5f2-0e25-4897-bdf5-11a8cb47f4b9"},"vehicle_type_id":"4","last_reported":1729174158,"current_range_meters":35600,"station_id":"ce4bhbh2rcd13ifvqepg","pricing_plan_id":"cebpf4jnsgd1na2vs0mg"},{"bike_id":"49c3db25-f66c-4541-ad54-af787a8b9e0e","system_id":"levelo_inurba_marseille","lat":43.27176,"lon":5.40984,"is_reserved":false,"is_disabled":false,"rental_uris":{"android":"levelo://app?vid=49c3db25-f66c-4541-ad54-af787a8b9e0e","ios":"levelo://app?vid=49c3db25-f66c-4541-ad54-af787a8b9e0e"},"vehicle_type_id":"4","last_reported":1729174158,"current_range_meters":38800,"station_id":"ce4bhl12rcd13ifvqgf0","pricing_plan_id":"cebpf4jnsgd1na2vs0mg"},{"bike_id":"0406a90c-9cd1-424f-aef0-0d7aa2dd1a62","system_id":"levelo_inurba_marseille","lat":43.30537,"lon":5.38428,"is_reserved":false,"is_disabled":false,"rental_uris":{"android":"levelo://app?vid=0406a90c-9cd1-424f-aef0-0d7aa2dd1a62","ios":"levelo://app?vid=0406a90c-9cd1-424f-aef0-0d7aa2dd1a62"},"vehicle_type_id":"4","last_reported":1729174158,"current_range_meters":38400,"station_id":"ce4bgg92rcd13ifvqb30","pricing_plan_id":"cebpf4jnsgd1na2vs0mg"},{"bike_id":"f089d4a1-7823-433a-a1c5-4fe27519edd0","system_id":"levelo_inurba_marseille","lat":43.23964,"lon":5.3663,"is_reserved":false,"is_disabled":false,"rental_uris":{"android":"levelo://app?vid=f089d4a1-7823-433a-a1c5-4fe27519edd0","ios":"levelo://app?vid=f089d4a1-7823-433a-a1c5-4fe27519edd0"},"vehicle_type_id":"4","last_reported":1729174158,"current_range_meters":34800,"station_id":"ce4bhi12rcd13ifvqfp0","pricing_plan_id":"cebpf4jnsgd1na2vs0mg"},{"bike_id":"2901ff37-0119-4f7b-91fb-d7fdf0736260","system_id":"levelo_inurba_marseille","lat":43.2293,"lon":5.35374,"is_reserved":false,"is_disabled":false,"rental_uris":{"android":"levelo://app?vid=2901ff37-0119-4f7b-91fb-d7fdf0736260","ios":"levelo://app?vid=2901ff37-0119-4f7b-91fb-d7fdf0736260"},"vehicle_type_id":"4","last_reported":1729174158,"current_range_meters":31200,"station_id":"cpo3532slgdg3j2ikp40","pricing_plan_id":"cebpf4jnsgd1na2vs0mg"},{"bike_id":"53f11546-ee0f-4227-921a-a57d93ed79b4","system_id":"levelo_inurba_marseille","lat":43.23148,"lon":5.43717,"is_reserved":false,"is_disabled":false,"rental_uris":{"android":"levelo://app?vid=53f11546-ee0f-4227-921a-a57d93ed79b4","ios":"levelo://app?vid=53f11546-ee0f-4227-921a-a57d93ed79b4"},"vehicle_type_id":"4","last_reported":1729174158,"current_range_meters":32000,"station_id":"ce4bhmp2rcd13ifvqgog","pricing_plan_id":"cebpf4jnsgd1na2vs0mg"},{"bike_id":"d7b43df6-e713-4bba-98bb-6a8cd01631fe","system_id":"levelo_inurba_marseille","lat":43.25497,"lon":5.37648,"is_reserved":false,"is_disabled":false,"rental_uris":{"android":"levelo://app?vid=d7b43df6-e713-4bba-98bb-6a8cd01631fe","ios":"levelo://app?vid=d7b43df6-e713-4bba-98bb-6a8cd01631fe"},"vehicle_type_id":"4","last_reported":1729174158,"current_range_meters":16000,"station_id":"ce4bhh12rcd13ifvqff0","pricing_plan_id":"cebpf4jnsgd1na2vs0mg"},{"bike_id":"25f491e5-d0ff-4e5e-94b3-5535a7d3231b","system_id":"levelo_inurba_marseille","lat":43.24551,"lon":5.39522,"is_reserved":false,"is_disabled":false,"rental_uris":{"android":"levelo://app?vid=25f491e5-d0ff-4e5e-94b3-5535a7d3231b","ios":"levelo://app?vid=25f491e5-d0ff-4e5e-94b3-5535a7d3231b"},"vehicle_type_id":"4","last_reported":1729174158,"current_range_meters":40000,"station_id":"ce4bhlp2rcd13ifvqgjg","pricing_plan_id":"cebpf4jnsgd1na2vs0mg"},{"bike_id":"226d8312-5bb8-4aba-8f94-5857debac0e3","system_id":"levelo_inurba_marseille","lat":43.27181,"lon":5.40987,"is_reserved":false,"is_disabled":false,"rental_uris":{"android":"levelo://app?vid=226d8312-5bb8-4aba-8f94-5857debac0e3","ios":"levelo://app?vid=226d8312-5bb8-4aba-8f94-5857debac0e3"},"vehicle_type_id":"4","last_reported":1729174158,"current_range_meters":38800,"station_id":"ce4bhl12rcd13ifvqgf0","pricing_plan_id":"cebpf4jnsgd1na2vs0mg"},{"bike_id":"e2023b7b-aecf-412d-9fa4-b1b5a96b9044","system_id":"levelo_inurba_marseille","lat":43.25107,"lon":5.40321,"is_reserved":false,"is_disabled":false,"rental_uris":{"android":"levelo://app?vid=e2023b7b-aecf-412d-9fa4-b1b5a96b9044","ios":"levelo://app?vid=e2023b7b-aecf-412d-9fa4-b1b5a96b9044"},"vehicle_type_id":"4","last_reported":1729174158,"current_range_meters":9200,"station_id":"ce4bhlh2rcd13ifvqgig","pricing_plan_id":"cebpf4jnsgd1na2vs0mg"},{"bike_id":"5b7d217b-b6a3-48b2-a7c0-1e484eaaea02","system_id":"levelo_inurba_marseille","lat":43.25936,"lon":5.40897,"is_reserved":false,"is_disabled":false,"rental_uris":{"android":"levelo://app?vid=5b7d217b-b6a3-48b2-a7c0-1e484eaaea02","ios":"levelo://app?vid=5b7d217b-b6a3-48b2-a7c0-1e484eaaea02"},"vehicle_type_id":"4","last_reported":1729174158,"current_range_meters":38400,"station_id":"ce4bhm92rcd13ifvqglg","pricing_plan_id":"cebpf4jnsgd1na2vs0mg"},{"bike_id":"292b9425-1372-40d4-bf0a-fe57aa779a41","system_id":"levelo_inurba_marseille","lat":43.23065,"lon":5.35492,"is_reserved":false,"is_disabled":false,"rental_uris":{"android":"levelo://app?vid=292b9425-1372-40d4-bf0a-fe57aa779a41","ios":"levelo://app?vid=292b9425-1372-40d4-bf0a-fe57aa779a41"},"vehicle_type_id":"4","last_reported":1729174158,"current_range_meters":24000,"station_id":"cpo3342slgdg3j2ifvpg","pricing_plan_id":"cebpf4jnsgd1na2vs0mg"},{"bike_id":"efeaea61-8512-4b75-bae8-c43941554118","system_id":"levelo_inurba_marseille","lat":43.29587,"lon":5.36739,"is_reserved":false,"is_disabled":false,"rental_uris":{"android":"levelo://app?vid=efeaea61-8512-4b75-bae8-c43941554118","ios":"levelo://app?vid=efeaea61-8512-4b75-bae8-c43941554118"},"vehicle_type_id":"4","last_reported":1729174158,"current_range_meters":27600,"station_id":"ce4bgph2rcd13ifvqc2g","pricing_plan_id":"cebpf4jnsgd1na2vs0mg"},{"bike_id":"19eeb32f-8657-43d6-a27e-ca690beaa840","system_id":"levelo_inurba_marseille","lat":43.32475,"lon":5.3655,"is_reserved":false,"is_disabled":false,"rental_uris":{"android":"levelo://app?vid=19eeb32f-8657-43d6-a27e-ca690beaa840","ios":"levelo://app?vid=19eeb32f-8657-43d6-a27e-ca690beaa840"},"vehicle_type_id":"4","last_reported":1729174158,"current_range_meters":38800,"station_id":"ce4bhs12rcd13ifvqhvg","pricing_plan_id":"cebpf4jnsgd1na2vs0mg"},{"bike_id":"cdbdc306-2882-40a2-a047-8389dcca1e39","system_id":"levelo_inurba_marseille","lat":43.27816,"lon":5.40713,"is_reserved":false,"is_disabled":false,"rental_uris":{"android":"levelo://app?vid=cdbdc306-2882-40a2-a047-8389dcca1e39","ios":"levelo://app?vid=cdbdc306-2882-40a2-a047-8389dcca1e39"},"vehicle_type_id":"4","last_reported":1729174158,"current_range_meters":14000,"station_id":"ce4bhnh2rcd13ifvqgtg","pricing_plan_id":"cebpf4jnsgd1na2vs0mg"},{"bike_id":"f23e9ee2-b37c-4a48-85c9-af83fb34c862","system_id":"levelo_inurba_marseille","lat":43.32485,"lon":5.36556,"is_reserved":false,"is_disabled":false,"rental_uris":{"android":"levelo://app?vid=f23e9ee2-b37c-4a48-85c9-af83fb34c862","ios":"levelo://app?vid=f23e9ee2-b37c-4a48-85c9-af83fb34c862"},"vehicle_type_id":"4","last_reported":1729174158,"current_range_meters":38800,"station_id":"ce4bhs12rcd13ifvqhvg","pricing_plan_id":"cebpf4jnsgd1na2vs0mg"},{"bike_id":"08988468-8fa9-4f52-a127-6f21136bcbfb","system_id":"levelo_inurba_marseille","lat":43.28556,"lon":5.37771,"is_reserved":false,"is_disabled":false,"rental_uris":{"android":"levelo://app?vid=08988468-8fa9-4f52-a127-6f21136bcbfb","ios":"levelo://app?vid=08988468-8fa9-4f52-a127-6f21136bcbfb"},"vehicle_type_id":"4","last_reported":1729174158,"current_range_meters":38000,"station_id":"","pricing_plan_id":"cebpf4jnsgd1na2vs0mg"},{"bike_id":"41bc1a3f-b5d9-4c7d-ba33-1a52e0269160","system_id":"levelo_inurba_marseille","lat":43.26197,"lon":5.3794,"is_reserved":false,"is_disabled":false,"rental_uris":{"android":"levelo://app?vid=41bc1a3f-b5d9-4c7d-ba33-1a52e0269160","ios":"levelo://app?vid=41bc1a3f-b5d9-4c7d-ba33-1a52e0269160"},"vehicle_type_id":"4","last_reported":1729174158,"current_range_meters":20800,"station_id":"ce4bhjp2rcd13ifvqg90","pricing_plan_id":"cebpf4jnsgd1na2vs0mg"},{"bike_id":"610ee4d7-8e97-4dc0-a123-ebac63ca8063","system_id":"levelo_inurba_marseille","lat":43.27194,"lon":5.39192,"is_reserved":false,"is_disabled":false,"rental_uris":{"android":"levelo://app?vid=610ee4d7-8e97-4dc0-a123-ebac63ca8063","ios":"levelo://app?vid=610ee4d7-8e97-4dc0-a123-ebac63ca8063"},"vehicle_type_id":"4","last_reported":1729174158,"current_range_meters":34000,"station_id":"ce4bhhp2rcd13ifvqfm0","pricing_plan_id":"cebpf4jnsgd1na2vs0mg"},{"bike_id":"1f37b7e6-9139-4ccd-a095-e8bad37eaf87","system_id":"levelo_inurba_marseille","lat":43.25944,"lon":5.40905,"is_reserved":false,"is_disabled":false,"rental_uris":{"android":"levelo://app?vid=1f37b7e6-9139-4ccd-a095-e8bad37eaf87","ios":"levelo://app?vid=1f37b7e6-9139-4ccd-a095-e8bad37eaf87"},"vehicle_type_id":"4","last_reported":1729174158,"current_range_meters":14000,"station_id":"ce4bhm92rcd13ifvqglg","pricing_plan_id":"cebpf4jnsgd1na2vs0mg"},{"bike_id":"647552cc-41e2-4642-af3c-35b5f1696425","system_id":"levelo_inurba_marseille","lat":43.3414,"lon":5.40913,"is_reserved":false,"is_disabled":false,"rental_uris":{"android":"levelo://app?vid=647552cc-41e2-4642-af3c-35b5f1696425","ios":"levelo://app?vid=647552cc-41e2-4642-af3c-35b5f1696425"},"vehicle_type_id":"4","last_reported":1729174158,"current_range_meters":36400,"station_id":"ce4bhqh2rcd13ifvqhlg","pricing_plan_id":"cebpf4jnsgd1na2vs0mg"},{"bike_id":"b0c9f58a-6930-48d5-acc1-62f5f9bf6e7b","system_id":"levelo_inurba_marseille","lat":43.29195,"lon":5.35801,"is_reserved":false,"is_disabled":false,"rental_uris":{"android":"levelo://app?vid=b0c9f58a-6930-48d5-acc1-62f5f9bf6e7b","ios":"levelo://app?vid=b0c9f58a-6930-48d5-acc1-62f5f9bf6e7b"},"vehicle_type_id":"4","last_reported":1729174158,"current_range_meters":2800,"station_id":"ce4bhb12rcd13ifvqel0","pricing_plan_id":"cebpf4jnsgd1na2vs0mg"},{"bike_id":"82f95ee6-926d-4e13-ba85-a39d0157505b","system_id":"levelo_inurba_marseille","lat":43.293026,"lon":5.379719,"is_reserved":false,"is_disabled":false,"rental_uris":{"android":"levelo://app?vid=82f95ee6-926d-4e13-ba85-a39d0157505b","ios":"levelo://app?vid=82f95ee6-926d-4e13-ba85-a39d0157505b"},"vehicle_type_id":"4","last_reported":1729174158,"current_range_meters":19200,"station_id":"ce4bgs12rcd13ifvqcag","pricing_plan_id":"cebpf4jnsgd1na2vs0mg"},{"bike_id":"1bb3f6a1-92b4-430b-a75d-5767c1b40d52","system_id":"levelo_inurba_marseille","lat":43.30137,"lon":5.39889,"is_reserved":false,"is_disabled":false,"rental_uris":{"android":"levelo://app?vid=1bb3f6a1-92b4-430b-a75d-5767c1b40d52","ios":"levelo://app?vid=1bb3f6a1-92b4-430b-a75d-5767c1b40d52"},"vehicle_type_id":"4","last_reported":1729174158,"current_range_meters":38800,"station_id":"ce4bh0h2rcd13ifvqd40","pricing_plan_id":"cebpf4jnsgd1na2vs0mg"},{"bike_id":"41781d3d-941e-4140-a86a-14bc69c69dfd","system_id":"levelo_inurba_marseille","lat":43.24083,"lon":5.37736,"is_reserved":false,"is_disabled":false,"rental_uris":{"android":"levelo://app?vid=41781d3d-941e-4140-a86a-14bc69c69dfd","ios":"levelo://app?vid=41781d3d-941e-4140-a86a-14bc69c69dfd"},"vehicle_type_id":"4","last_reported":1729174158,"current_range_meters":12800,"station_id":"ce4bhnp2rcd13ifvqgvg","pricing_plan_id":"cebpf4jnsgd1na2vs0mg"},{"bike_id":"a21b8469-2117-448f-afc8-cca83523e898","system_id":"levelo_inurba_marseille","lat":43.28367,"lon":5.3864,"is_reserved":false,"is_disabled":false,"rental_uris":{"android":"levelo://app?vid=a21b8469-2117-448f-afc8-cca83523e898","ios":"levelo://app?vid=a21b8469-2117-448f-afc8-cca83523e898"},"vehicle_type_id":"4","last_reported":1729174158,"current_range_meters":32000,"station_id":"ce4bh492rcd13ifvqdvg","pricing_plan_id":"cebpf4jnsgd1na2vs0mg"},{"bike_id":"9620fd44-1a5e-4cd0-b47f-1054b4c38ea0","system_id":"levelo_inurba_marseille","lat":43.30186,"lon":5.36608,"is_reserved":false,"is_disabled":false,"rental_uris":{"android":"levelo://app?vid=9620fd44-1a5e-4cd0-b47f-1054b4c38ea0","ios":"levelo://app?vid=9620fd44-1a5e-4cd0-b47f-1054b4c38ea0"},"vehicle_type_id":"4","last_reported":1729174158,"current_range_meters":38800,"station_id":"ce4bgrh2rcd13ifvqc8g","pricing_plan_id":"cebpf4jnsgd1na2vs0mg"},{"bike_id":"3664398f-378f-46f2-bd12-30042ad8db9d","system_id":"levelo_inurba_marseille","lat":43.23184,"lon":5.3998,"is_reserved":false,"is_disabled":false,"rental_uris":{"android":"levelo://app?vid=3664398f-378f-46f2-bd12-30042ad8db9d","ios":"levelo://app?vid=3664398f-378f-46f2-bd12-30042ad8db9d"},"vehicle_type_id":"4","last_reported":1729174158,"current_range_meters":34800,"station_id":"ce4bhn12rcd13ifvqgqg","pricing_plan_id":"cebpf4jnsgd1na2vs0mg"},{"bike_id":"507f454f-ca5c-4ce1-8d3e-3581fd751fa1","system_id":"levelo_inurba_marseille","lat":43.2781,"lon":5.40707,"is_reserved":false,"is_disabled":false,"rental_uris":{"android":"levelo://app?vid=507f454f-ca5c-4ce1-8d3e-3581fd751fa1","ios":"levelo://app?vid=507f454f-ca5c-4ce1-8d3e-3581fd751fa1"},"vehicle_type_id":"4","last_reported":1729174158,"current_range_meters":25200,"station_id":"ce4bhnh2rcd13ifvqgtg","pricing_plan_id":"cebpf4jnsgd1na2vs0mg"},{"bike_id":"aa7f96ed-cc48-4608-9ca7-688d7b972e79","system_id":"levelo_inurba_marseille","lat":43.29848,"lon":5.36285,"is_reserved":false,"is_disabled":false,"rental_uris":{"android":"levelo://app?vid=aa7f96ed-cc48-4608-9ca7-688d7b972e79","ios":"levelo://app?vid=aa7f96ed-cc48-4608-9ca7-688d7b972e79"},"vehicle_type_id":"4","last_reported":1729174158,"current_range_meters":27600,"station_id":"ce4bgpp2rcd13ifvqc3g","pricing_plan_id":"cebpf4jnsgd1na2vs0mg"},{"bike_id":"a9d80141-cb04-4f88-bcc5-9763572e3517","system_id":"levelo_inurba_marseille","lat":43.23194,"lon":5.355442,"is_reserved":false,"is_disabled":false,"rental_uris":{"android":"levelo://app?vid=a9d80141-cb04-4f88-bcc5-9763572e3517","ios":"levelo://app?vid=a9d80141-cb04-4f88-bcc5-9763572e3517"},"vehicle_type_id":"4","last_reported":1729174158,"current_range_meters":32800,"station_id":"ce4bhu92rcd13ifvqi70","pricing_plan_id":"cebpf4jnsgd1na2vs0mg"},{"bike_id":"35a22db4-7e9d-4709-be91-f373b0a75e57","system_id":"levelo_inurba_marseille","lat":43.33756,"lon":5.37449,"is_reserved":false,"is_disabled":false,"rental_uris":{"android":"levelo://app?vid=35a22db4-7e9d-4709-be91-f373b0a75e57","ios":"levelo://app?vid=35a22db4-7e9d-4709-be91-f373b0a75e57"},"vehicle_type_id":"4","last_reported":1729174158,"current_range_meters":14400,"station_id":"","pricing_plan_id":"cebpf4jnsgd1na2vs0mg"},{"bike_id":"73c81c60-6324-48ed-a11c-a3be0f4dfdd1","system_id":"levelo_inurba_marseille","lat":43.27373,"lon":5.36262,"is_reserved":false,"is_disabled":false,"rental_uris":{"android":"levelo://app?vid=73c81c60-6324-48ed-a11c-a3be0f4dfdd1","ios":"levelo://app?vid=73c81c60-6324-48ed-a11c-a3be0f4dfdd1"},"vehicle_type_id":"4","last_reported":1729174158,"current_range_meters":18800,"station_id":"ce4bhbh2rcd13ifvqeo0","pricing_plan_id":"cebpf4jnsgd1na2vs0mg"},{"bike_id":"ddc14c85-fb23-403f-a082-1759e446b6b5","system_id":"levelo_inurba_marseille","lat":43.26556,"lon":5.37283,"is_reserved":false,"is_disabled":false,"rental_uris":{"android":"levelo://app?vid=ddc14c85-fb23-403f-a082-1759e446b6b5","ios":"levelo://app?vid=ddc14c85-fb23-403f-a082-1759e446b6b5"},"vehicle_type_id":"4","last_reported":1729174158,"current_range_meters":4000,"station_id":"ce4bhg12rcd13ifvqf70","pricing_plan_id":"cebpf4jnsgd1na2vs0mg"},{"bike_id":"5807cc96-8b68-4556-8d84-7e33b07f0eed","system_id":"levelo_inurba_marseille","lat":43.29876,"lon":5.39729,"is_reserved":false,"is_disabled":false,"rental_uris":{"android":"levelo://app?vid=5807cc96-8b68-4556-8d84-7e33b07f0eed","ios":"levelo://app?vid=5807cc96-8b68-4556-8d84-7e33b07f0eed"},"vehicle_type_id":"4","last_reported":1729174158,"current_range_meters":28000,"station_id":"ce4bh0h2rcd13ifvqd50","pricing_plan_id":"cebpf4jnsgd1na2vs0mg"},{"bike_id":"bac48c24-cb05-47c9-b4b3-da50f2b7070f","system_id":"levelo_inurba_marseille","lat":43.29582,"lon":5.40019,"is_reserved":false,"is_disabled":false,"rental_uris":{"android":"levelo://app?vid=bac48c24-cb05-47c9-b4b3-da50f2b7070f","ios":"levelo://app?vid=bac48c24-cb05-47c9-b4b3-da50f2b7070f"},"vehicle_type_id":"4","last_reported":1729174158,"current_range_meters":20000,"station_id":"ce4bh0p2rcd13ifvqd70","pricing_plan_id":"cebpf4jnsgd1na2vs0mg"},{"bike_id":"e9a24fd4-ceaa-48e4-92bc-821427e836f2","system_id":"levelo_inurba_marseille","lat":43.26062,"lon":5.39396,"is_reserved":false,"is_disabled":false,"rental_uris":{"android":"levelo://app?vid=e9a24fd4-ceaa-48e4-92bc-821427e836f2","ios":"levelo://app?vid=e9a24fd4-ceaa-48e4-92bc-821427e836f2"},"vehicle_type_id":"4","last_reported":1729174158,"current_range_meters":4800,"station_id":"ce4bhh92rcd13ifvqfj0","pricing_plan_id":"cebpf4jnsgd1na2vs0mg"},{"bike_id":"4ce6a8a4-f543-406e-9b3b-bf69a485e2ff","system_id":"levelo_inurba_marseille","lat":43.24646,"lon":5.38884,"is_reserved":false,"is_disabled":false,"rental_uris":{"android":"levelo://app?vid=4ce6a8a4-f543-406e-9b3b-bf69a485e2ff","ios":"levelo://app?vid=4ce6a8a4-f543-406e-9b3b-bf69a485e2ff"},"vehicle_type_id":"4","last_reported":1729174158,"current_range_meters":32000,"station_id":"ce4bhg12rcd13ifvqf60","pricing_plan_id":"cebpf4jnsgd1na2vs0mg"},{"bike_id":"0b3e7fd6-2511-4337-b5d2-b8304124bef5","system_id":"levelo_inurba_marseille","lat":43.25941,"lon":5.40914,"is_reserved":false,"is_disabled":false,"rental_uris":{"android":"levelo://app?vid=0b3e7fd6-2511-4337-b5d2-b8304124bef5","ios":"levelo://app?vid=0b3e7fd6-2511-4337-b5d2-b8304124bef5"},"vehicle_type_id":"4","last_reported":1729174158,"current_range_meters":24400,"station_id":"ce4bhm92rcd13ifvqglg","pricing_plan_id":"cebpf4jnsgd1na2vs0mg"},{"bike_id":"baf70069-8411-4af8-8e51-a77ed351827d","system_id":"levelo_inurba_marseille","lat":43.27567,"lon":5.38419,"is_reserved":false,"is_disabled":false,"rental_uris":{"android":"levelo://app?vid=baf70069-8411-4af8-8e51-a77ed351827d","ios":"levelo://app?vid=baf70069-8411-4af8-8e51-a77ed351827d"},"vehicle_type_id":"4","last_reported":1729174158,"current_range_meters":14800,"station_id":"ce4bhh92rcd13ifvqfi0","pricing_plan_id":"cebpf4jnsgd1na2vs0mg"},{"bike_id":"d41309ab-1a1f-4395-acaa-455483c3f8e1","system_id":"levelo_inurba_marseille","lat":43.23194,"lon":5.35559,"is_reserved":false,"is_disabled":false,"rental_uris":{"android":"levelo://app?vid=d41309ab-1a1f-4395-acaa-455483c3f8e1","ios":"levelo://app?vid=d41309ab-1a1f-4395-acaa-455483c3f8e1"},"vehicle_type_id":"4","last_reported":1729174158,"current_range_meters":36400,"station_id":"ce4bhu92rcd13ifvqi70","pricing_plan_id":"cebpf4jnsgd1na2vs0mg"},{"bike_id":"fc9cc624-b42b-48e4-8103-4b39b2ecb0b7","system_id":"levelo_inurba_marseille","lat":43.27811,"lon":5.40704,"is_reserved":false,"is_disabled":false,"rental_uris":{"android":"levelo://app?vid=fc9cc624-b42b-48e4-8103-4b39b2ecb0b7","ios":"levelo://app?vid=fc9cc624-b42b-48e4-8103-4b39b2ecb0b7"},"vehicle_type_id":"4","last_reported":1729174158,"current_range_meters":37600,"station_id":"ce4bhnh2rcd13ifvqgtg","pricing_plan_id":"cebpf4jnsgd1na2vs0mg"},{"bike_id":"29a4e994-e19b-4968-9655-bd9d4f2d7b71","system_id":"levelo_inurba_marseille","lat":43.31491,"lon":5.37309,"is_reserved":false,"is_disabled":false,"rental_uris":{"android":"levelo://app?vid=29a4e994-e19b-4968-9655-bd9d4f2d7b71","ios":"levelo://app?vid=29a4e994-e19b-4968-9655-bd9d4f2d7b71"},"vehicle_type_id":"4","last_reported":1729174158,"current_range_meters":28000,"station_id":"ce4bgt12rcd13ifvqcd0","pricing_plan_id":"cebpf4jnsgd1na2vs0mg"},{"bike_id":"d7549997-4341-483a-8fd9-86b42a4b9e0d","system_id":"levelo_inurba_marseille","lat":43.31714,"lon":5.43707,"is_reserved":false,"is_disabled":false,"rental_uris":{"android":"levelo://app?vid=d7549997-4341-483a-8fd9-86b42a4b9e0d","ios":"levelo://app?vid=d7549997-4341-483a-8fd9-86b42a4b9e0d"},"vehicle_type_id":"4","last_reported":1729174158,"current_range_meters":39200,"station_id":"ce4bhp92rcd13ifvqhcg","pricing_plan_id":"cebpf4jnsgd1na2vs0mg"},{"bike_id":"4cfcf270-abe0-4ab9-b0e5-b0e833965683","system_id":"levelo_inurba_marseille","lat":43.28113,"lon":5.37839,"is_reserved":false,"is_disabled":false,"rental_uris":{"android":"levelo://app?vid=4cfcf270-abe0-4ab9-b0e5-b0e833965683","ios":"levelo://app?vid=4cfcf270-abe0-4ab9-b0e5-b0e833965683"},"vehicle_type_id":"4","last_reported":1729174158,"current_range_meters":22000,"station_id":"ce4bha12rcd13ifvqee0","pricing_plan_id":"cebpf4jnsgd1na2vs0mg"},{"bike_id":"a0c122e3-af93-4618-bbe9-09704639de9c","system_id":"levelo_inurba_marseille","lat":43.25931,"lon":5.40907,"is_reserved":false,"is_disabled":false,"rental_uris":{"android":"levelo://app?vid=a0c122e3-af93-4618-bbe9-09704639de9c","ios":"levelo://app?vid=a0c122e3-af93-4618-bbe9-09704639de9c"},"vehicle_type_id":"4","last_reported":1729174158,"current_range_meters":16000,"station_id":"ce4bhm92rcd13ifvqglg","pricing_plan_id":"cebpf4jnsgd1na2vs0mg"},{"bike_id":"693bc56f-e432-48f1-9c59-a6d5d9a6e662","system_id":"levelo_inurba_marseille","lat":43.24178,"lon":5.39737,"is_reserved":false,"is_disabled":false,"rental_uris":{"android":"levelo://app?vid=693bc56f-e432-48f1-9c59-a6d5d9a6e662","ios":"levelo://app?vid=693bc56f-e432-48f1-9c59-a6d5d9a6e662"},"vehicle_type_id":"4","last_reported":1729174158,"current_range_meters":19600,"station_id":"ce4bhn12rcd13ifvqgpg","pricing_plan_id":"cebpf4jnsgd1na2vs0mg"},{"bike_id":"a8daef43-5a21-4776-8b76-60c76a8caefc","system_id":"levelo_inurba_marseille","lat":43.27814,"lon":5.40711,"is_reserved":false,"is_disabled":false,"rental_uris":{"android":"levelo://app?vid=a8daef43-5a21-4776-8b76-60c76a8caefc","ios":"levelo://app?vid=a8daef43-5a21-4776-8b76-60c76a8caefc"},"vehicle_type_id":"4","last_reported":1729174158,"current_range_meters":6000,"station_id":"ce4bhnh2rcd13ifvqgtg","pricing_plan_id":"cebpf4jnsgd1na2vs0mg"},{"bike_id":"033a7f68-f273-426e-84a9-8a3b2c56f6f5","system_id":"levelo_inurba_marseille","lat":43.35281,"lon":5.36814,"is_reserved":false,"is_disabled":false,"rental_uris":{"android":"levelo://app?vid=033a7f68-f273-426e-84a9-8a3b2c56f6f5","ios":"levelo://app?vid=033a7f68-f273-426e-84a9-8a3b2c56f6f5"},"vehicle_type_id":"4","last_reported":1729174158,"current_range_meters":12000,"station_id":"","pricing_plan_id":"cebpf4jnsgd1na2vs0mg"},{"bike_id":"42d77b43-2760-463b-9b95-ab55a28ce10d","system_id":"levelo_inurba_marseille","lat":43.31376,"lon":5.38494,"is_reserved":false,"is_disabled":false,"rental_uris":{"android":"levelo://app?vid=42d77b43-2760-463b-9b95-ab55a28ce10d","ios":"levelo://app?vid=42d77b43-2760-463b-9b95-ab55a28ce10d"},"vehicle_type_id":"4","last_reported":1729174158,"current_range_meters":36800,"station_id":"ce4bgt92rcd13ifvqcf0","pricing_plan_id":"cebpf4jnsgd1na2vs0mg"},{"bike_id":"491e8794-df24-4aca-9830-f30af3dfef94","system_id":"levelo_inurba_marseille","lat":43.30147,"lon":5.38867,"is_reserved":false,"is_disabled":false,"rental_uris":{"android":"levelo://app?vid=491e8794-df24-4aca-9830-f30af3dfef94","ios":"levelo://app?vid=491e8794-df24-4aca-9830-f30af3dfef94"},"vehicle_type_id":"4","last_reported":1729174158,"current_range_meters":32400,"station_id":"ce4bgup2rcd13ifvqco0","pricing_plan_id":"cebpf4jnsgd1na2vs0mg"},{"bike_id":"1af2813b-98a0-4b62-aaf8-89652b30f639","system_id":"levelo_inurba_marseille","lat":43.22934,"lon":5.35385,"is_reserved":false,"is_disabled":false,"rental_uris":{"android":"levelo://app?vid=1af2813b-98a0-4b62-aaf8-89652b30f639","ios":"levelo://app?vid=1af2813b-98a0-4b62-aaf8-89652b30f639"},"vehicle_type_id":"4","last_reported":1729174158,"current_range_meters":18000,"station_id":"cpo3532slgdg3j2ikp40","pricing_plan_id":"cebpf4jnsgd1na2vs0mg"},{"bike_id":"1641ca7a-f19b-4e2f-858e-8aef67959587","system_id":"levelo_inurba_marseille","lat":43.31082,"lon":5.42433,"is_reserved":false,"is_disabled":false,"rental_uris":{"android":"levelo://app?vid=1641ca7a-f19b-4e2f-858e-8aef67959587","ios":"levelo://app?vid=1641ca7a-f19b-4e2f-858e-8aef67959587"},"vehicle_type_id":"4","last_reported":1729174158,"current_range_meters":7200,"station_id":"ce4bhp92rcd13ifvqhag","pricing_plan_id":"cebpf4jnsgd1na2vs0mg"},{"bike_id":"7cfbc47a-cb4e-4eb6-b1ae-e6379f86dbaa","system_id":"levelo_inurba_marseille","lat":43.313266,"lon":5.397004,"is_reserved":false,"is_disabled":false,"rental_uris":{"android":"levelo://app?vid=7cfbc47a-cb4e-4eb6-b1ae-e6379f86dbaa","ios":"levelo://app?vid=7cfbc47a-cb4e-4eb6-b1ae-e6379f86dbaa"},"vehicle_type_id":"4","last_reported":1729174158,"current_range_meters":38000,"station_id":"ce4bgvp2rcd13ifvqcu0","pricing_plan_id":"cebpf4jnsgd1na2vs0mg"},{"bike_id":"f93454e1-a669-4c63-a4ca-b572042c7971","system_id":"levelo_inurba_marseille","lat":43.23198,"lon":5.35553,"is_reserved":false,"is_disabled":false,"rental_uris":{"android":"levelo://app?vid=f93454e1-a669-4c63-a4ca-b572042c7971","ios":"levelo://app?vid=f93454e1-a669-4c63-a4ca-b572042c7971"},"vehicle_type_id":"4","last_reported":1729174158,"current_range_meters":14000,"station_id":"ce4bhu92rcd13ifvqi70","pricing_plan_id":"cebpf4jnsgd1na2vs0mg"},{"bike_id":"9feebf6a-cf06-4283-9475-cface9a88761","system_id":"levelo_inurba_marseille","lat":43.30807,"lon":5.43503,"is_reserved":false,"is_disabled":false,"rental_uris":{"android":"levelo://app?vid=9feebf6a-cf06-4283-9475-cface9a88761","ios":"levelo://app?vid=9feebf6a-cf06-4283-9475-cface9a88761"},"vehicle_type_id":"4","last_reported":1729174158,"current_range_meters":35600,"station_id":"ce4bhph2rcd13ifvqheg","pricing_plan_id":"cebpf4jnsgd1na2vs0mg"},{"bike_id":"57acc469-2633-4570-bce1-b2ec12a9e2c5","system_id":"levelo_inurba_marseille","lat":43.23153,"lon":5.43719,"is_reserved":false,"is_disabled":false,"rental_uris":{"android":"levelo://app?vid=57acc469-2633-4570-bce1-b2ec12a9e2c5","ios":"levelo://app?vid=57acc469-2633-4570-bce1-b2ec12a9e2c5"},"vehicle_type_id":"4","last_reported":1729174158,"current_range_meters":38800,"station_id":"ce4bhmp2rcd13ifvqgog","pricing_plan_id":"cebpf4jnsgd1na2vs0mg"},{"bike_id":"800ef758-bf60-49c8-b73e-c8477fb6ff28","system_id":"levelo_inurba_marseille","lat":43.24806,"lon":5.37458,"is_reserved":false,"is_disabled":false,"rental_uris":{"android":"levelo://app?vid=800ef758-bf60-49c8-b73e-c8477fb6ff28","ios":"levelo://app?vid=800ef758-bf60-49c8-b73e-c8477fb6ff28"},"vehicle_type_id":"4","last_reported":1729174158,"current_range_meters":36800,"station_id":"ce4bhgh2rcd13ifvqfb0","pricing_plan_id":"cebpf4jnsgd1na2vs0mg"},{"bike_id":"4176bfed-bc20-46a1-a074-8074b301138d","system_id":"levelo_inurba_marseille","lat":43.3248,"lon":5.36556,"is_reserved":false,"is_disabled":false,"rental_uris":{"android":"levelo://app?vid=4176bfed-bc20-46a1-a074-8074b301138d","ios":"levelo://app?vid=4176bfed-bc20-46a1-a074-8074b301138d"},"vehicle_type_id":"4","last_reported":1729174158,"current_range_meters":37600,"station_id":"ce4bhs12rcd13ifvqhvg","pricing_plan_id":"cebpf4jnsgd1na2vs0mg"},{"bike_id":"82bf6f5b-b758-4391-9316-7f95f0957300","system_id":"levelo_inurba_marseille","lat":43.29925,"lon":5.37485,"is_reserved":false,"is_disabled":false,"rental_uris":{"android":"levelo://app?vid=82bf6f5b-b758-4391-9316-7f95f0957300","ios":"levelo://app?vid=82bf6f5b-b758-4391-9316-7f95f0957300"},"vehicle_type_id":"4","last_reported":1729174158,"current_range_meters":3200,"station_id":"ce4bgjh2rcd13ifvqbg0","pricing_plan_id":"cebpf4jnsgd1na2vs0mg"},{"bike_id":"e5443f6e-cf86-41b8-b509-b4b3b9d31612","system_id":"levelo_inurba_marseille","lat":43.31367,"lon":5.36693,"is_reserved":false,"is_disabled":false,"rental_uris":{"android":"levelo://app?vid=e5443f6e-cf86-41b8-b509-b4b3b9d31612","ios":"levelo://app?vid=e5443f6e-cf86-41b8-b509-b4b3b9d31612"},"vehicle_type_id":"4","last_reported":1729174158,"current_range_meters":39200,"station_id":"ce4bgr92rcd13ifvqc6g","pricing_plan_id":"cebpf4jnsgd1na2vs0mg"},{"bike_id":"c591cf4d-78d0-444f-9b4d-87b883a6d35a","system_id":"levelo_inurba_marseille","lat":43.24671,"lon":5.38163,"is_reserved":false,"is_disabled":false,"rental_uris":{"android":"levelo://app?vid=c591cf4d-78d0-444f-9b4d-87b883a6d35a","ios":"levelo://app?vid=c591cf4d-78d0-444f-9b4d-87b883a6d35a"},"vehicle_type_id":"4","last_reported":1729174158,"current_range_meters":7200,"station_id":"ce4bhih2rcd13ifvqfr0","pricing_plan_id":"cebpf4jnsgd1na2vs0mg"},{"bike_id":"797d1b70-6635-4686-b8f3-3c7fc11077a6","system_id":"levelo_inurba_marseille","lat":43.31268,"lon":5.41201,"is_reserved":false,"is_disabled":false,"rental_uris":{"android":"levelo://app?vid=797d1b70-6635-4686-b8f3-3c7fc11077a6","ios":"levelo://app?vid=797d1b70-6635-4686-b8f3-3c7fc11077a6"},"vehicle_type_id":"4","last_reported":1729174158,"current_range_meters":8000,"station_id":"ce4bhp92rcd13ifvqhbg","pricing_plan_id":"cebpf4jnsgd1na2vs0mg"},{"bike_id":"bc533eef-8e9b-494a-9bca-29b4c94630b8","system_id":"levelo_inurba_marseille","lat":43.25582,"lon":5.38228,"is_reserved":false,"is_disabled":false,"rental_uris":{"android":"levelo://app?vid=bc533eef-8e9b-494a-9bca-29b4c94630b8","ios":"levelo://app?vid=bc533eef-8e9b-494a-9bca-29b4c94630b8"},"vehicle_type_id":"4","last_reported":1729174158,"current_range_meters":6400,"station_id":"ce4bhih2rcd13ifvqfs0","pricing_plan_id":"cebpf4jnsgd1na2vs0mg"},{"bike_id":"de3f7497-d6f6-41ed-8b70-953d5361f2e9","system_id":"levelo_inurba_marseille","lat":43.28785,"lon":5.3937,"is_reserved":false,"is_disabled":false,"rental_uris":{"android":"levelo://app?vid=de3f7497-d6f6-41ed-8b70-953d5361f2e9","ios":"levelo://app?vid=de3f7497-d6f6-41ed-8b70-953d5361f2e9"},"vehicle_type_id":"4","last_reported":1729174158,"current_range_meters":16800,"station_id":"ce4bh2p2rcd13ifvqdi0","pricing_plan_id":"cebpf4jnsgd1na2vs0mg"},{"bike_id":"7b75c883-97e0-48cb-88c7-f83bb2babfa7","system_id":"levelo_inurba_marseille","lat":43.296875,"lon":5.372944,"is_reserved":false,"is_disabled":false,"rental_uris":{"android":"levelo://app?vid=7b75c883-97e0-48cb-88c7-f83bb2babfa7","ios":"levelo://app?vid=7b75c883-97e0-48cb-88c7-f83bb2babfa7"},"vehicle_type_id":"4","last_reported":1729174158,"current_range_meters":33200,"station_id":"","pricing_plan_id":"cebpf4jnsgd1na2vs0mg"},{"bike_id":"7bfe9f91-3c85-4d90-9522-24eb0c1b4f5b","system_id":"levelo_inurba_marseille","lat":43.32053,"lon":5.41547,"is_reserved":false,"is_disabled":false,"rental_uris":{"android":"levelo://app?vid=7bfe9f91-3c85-4d90-9522-24eb0c1b4f5b","ios":"levelo://app?vid=7bfe9f91-3c85-4d90-9522-24eb0c1b4f5b"},"vehicle_type_id":"4","last_reported":1729174158,"current_range_meters":20000,"station_id":"ce4bhq92rcd13ifvqhkg","pricing_plan_id":"cebpf4jnsgd1na2vs0mg"},{"bike_id":"dbb5fdf7-421f-47b5-ad2e-e665b228c494","system_id":"levelo_inurba_marseille","lat":43.272011,"lon":5.391826,"is_reserved":false,"is_disabled":false,"rental_uris":{"android":"levelo://app?vid=dbb5fdf7-421f-47b5-ad2e-e665b228c494","ios":"levelo://app?vid=dbb5fdf7-421f-47b5-ad2e-e665b228c494"},"vehicle_type_id":"4","last_reported":1729174158,"current_range_meters":9600,"station_id":"ce4bho92rcd13ifvqh3g","pricing_plan_id":"cebpf4jnsgd1na2vs0mg"},