{"last_updated":1743714559,"ttl":60,"version":"2.2","data":{"bikes":[{"bike_id":"1e9018f2-e2ff-4517-9b3e-f61e2f78d85c","system_id":"levelo_inurba_marseille","lat":43.28672,"lon":5.38659,"is_reserved":false,"is_disabled":false,"rental_uris":{"android":"levelo://app?vid=1e9018f2-e2ff-4517-9b3e-f61e2f78d85c","ios":"levelo://app?vid=1e9018f2-e2ff-4517-9b3e-f61e2f78d85c"},"vehicle_type_id":"4","last_reported":1743714559,"current_range_meters":2800,"station_id":"ce4bh492rcd13ifvqdug","pricing_plan_id":"cebpf4jnsgd1na2vs0mg"},{"bike_id":"299dacb6-5266-4b81-88b2-50fcdef62869","system_id":"levelo_inurba_marseille","lat":43.24576,"lon":5.41643,"is_reserved":false,"is_disabled":false,"rental_uris":{"android":"levelo://app?vid=299dacb6-5266-4b81-88b2-50fcdef62869","ios":"levelo://app?vid=299dacb6-5266-4b81-88b2-50fcdef62869"},"vehicle_type_id":"4","last_reported":1743714559,"current_range_meters":2800,"station_id":"","pricing_plan_id":"cebpf4jnsgd1na2vs0mg"},{"bike_id":"585b6e2c-d9b9-4d81-bf14-09f6bedafb61","system_id":"levelo_inurba_marseille","lat":43.30435,"lon":5.36859,"is_reserved":false,"is_disabled":false,"rental_uris":{"android":"levelo://app?vid=585b6e2c-d9b9-4d81-bf14-09f6bedafb61","ios":"levelo://app?vid=585b6e2c-d9b9-4d81-bf14-09f6bedafb61"},"vehicle_type_id":"4","last_reported":1743714559,"current_range_meters":2800,"station_id":"","pricing_plan_id":"cebpf4jnsgd1na2vs0mg"},{"bike_id":"a0808337-37d6-488d-aae3-49008c58a2ec","system_id":"levelo_inurba_marseille","lat":43.30799,"lon":5.38165,"is_reserved":false,"is_disabled":false,"rental_uris":{"android":"levelo://app?vid=a0808337-37d6-488d-aae3-49008c58a2ec","ios":"levelo://app?vid=a0808337-37d6-488d-aae3-49008c58a2ec"},"vehicle_type_id":"4","last_reported":1743714559,"current_range_meters":2800,"station_id":"ce4bgt12rcd13ifvqce0","pricing_plan_id":"cebpf4jnsgd1na2vs0mg"},{"bike_id":"d157a8ac-f1ea-480a-a1ee-9ac00962bb01","system_id":"levelo_inurba_marseille","lat":43.29552,"lon":5.42304,"is_reserved":false,"is_disabled":true,"rental_uris":{"android":"levelo://app?vid=d157a8ac-f1ea-480a-a1ee-9ac00962bb01","ios":"levelo://app?vid=d157a8ac-f1ea-480a-a1ee-9ac00962bb01"},"vehicle_type_id":"4","last_reported":1743714559,"current_range_meters":3200,"station_id":"ce4bhph2rcd13ifvqhdg","pricing_plan_id":"cebpf4jnsgd1na2vs0mg"},{"bike_id":"062de6df-dcb7-46bb-91b2-60b4b03c6c53","system_id":"levelo_inurba_marseille","lat":43.29532,"lon":5.38557,"is_reserved":false,"is_disabled":true,"rental_uris":{"android":"levelo://app?vid=062de6df-dcb7-46bb-91b2-60b4b03c6c53","ios":"levelo://app?vid=062de6df-dcb7-46bb-91b2-60b4b03c6c53"},"vehicle_type_id":"4","last_reported":1743714559,"current_range_meters":3200,"station_id":"ce4bgih2rcd13ifvqba0","pricing_plan_id":"cebpf4jnsgd1na2vs0mg"},{"bike_id":"3bb8de6b-0f32-4157-9a51-4399a4219cd9","system_id":"levelo_inurba_marseille","lat":43.28608,"lon":5.37064,"is_reserved":false,"is_disabled":false,"rental_uris":{"android":"levelo://app?vid=3bb8de6b-0f32-4157-9a51-4399a4219cd9","ios":"levelo://app?vid=3bb8de6b-0f32-4157-9a51-4399a4219cd9"},"vehicle_type_id":"4","last_reported":1743714559,"current_range_meters":3200,"station_id":"ce4bht12rcd13ifvqi60","pricing_plan_id":"cebpf4jnsgd1na2vs0mg"},{"bike_id":"cb6c85c0-8cc7-4773-a287-3e0b15760e4d","system_id":"levelo_inurba_marseille","lat":43.29441,"lon":5.39748,"is_reserved":false,"is_disabled":false,"rental_uris":{"android":"levelo://app?vid=cb6c85c0-8cc7-4773-a287-3e0b15760e4d","ios":"levelo://app?vid=cb6c85c0-8cc7-4773-a287-3e0b15760e4d"},"vehicle_type_id":"4","last_reported":1743714559,"current_range_meters":4000,"station_id":"ce4bh3h2rcd13ifvqdo0","pricing_plan_id":"cebpf4jnsgd1na2vs0mg"},{"bike_id":"88fb12f4-cfec-41af-a212-57502b20c394","system_id":"levelo_inurba_marseille","lat":43.28443,"lon":5.35889,"is_reserved":false,"is_disabled":false,"rental_uris":{"android":"levelo://app?vid=88fb12f4-cfec-41af-a212-57502b20c394","ios":"levelo://app?vid=88fb12f4-cfec-41af-a212-57502b20c394"},"vehicle_type_id":"4","last_reported":1743714559,"current_range_meters":4000,"station_id":"ce4bhah2rcd13ifvqei0","pricing_plan_id":"cebpf4jnsgd1na2vs0mg"},{"bike_id":"f656fe50-61b1-4b6c-bde8-770244a23035","system_id":"levelo_inurba_marseille","lat":43.33005,"lon":5.3935,"is_reserved":false,"is_disabled":false,"rental_uris":{"android":"levelo://app?vid=f656fe50-61b1-4b6c-bde8-770244a23035","ios":"levelo://app?vid=f656fe50-61b1-4b6c-bde8-770244a23035"},"vehicle_type_id":"4","last_reported":1743714559,"current_range_meters":4000,"station_id":"","pricing_plan_id":"cebpf4jnsgd1na2vs0mg"},{"bike_id":"174a0272-f21c-42b9-afd8-a4b98233b8f9","system_id":"levelo_inurba_marseille","lat":43.31854,"lon":5.37395,"is_reserved":false,"is_disabled":false,"rental_uris":{"android":"levelo://app?vid=174a0272-f21c-42b9-afd8-a4b98233b8f9","ios":"levelo://app?vid=174a0272-f21c-42b9-afd8-a4b98233b8f9"},"vehicle_type_id":"4","last_reported":1743714559,"current_range_meters":4000,"station_id":"","pricing_plan_id":"cebpf4jnsgd1na2vs0mg"},{"bike_id":"387d92bd-e926-4abb-9bf6-834e76fa4fbb","system_id":"levelo_inurba_marseille","lat":43.28666,"lon":5.36353,"is_reserved":false,"is_disabled":false,"rental_uris":{"android":"levelo://app?vid=387d92bd-e926-4abb-9bf6-834e76fa4fbb","ios":"levelo://app?vid=387d92bd-e926-4abb-9bf6-834e76fa4fbb"},"vehicle_type_id":"4","last_reported":1743714559,"current_range_meters":4000,"station_id":"ce4bhah2rcd13ifvqej0","pricing_plan_id":"cebpf4jnsgd1na2vs0mg"},{"bike_id":"9feb917b-0f19-4790-bd5a-95fc2ec1c214","system_id":"levelo_inurba_marseille","lat":43.24388,"lon":5.37066,"is_reserved":false,"is_disabled":false,"rental_uris":{"android":"levelo://app?vid=9feb917b-0f19-4790-bd5a-95fc2ec1c214","ios":"levelo://app?vid=9feb917b-0f19-4790-bd5a-95fc2ec1c214"},"vehicle_type_id":"4","last_reported":1743714559,"current_range_meters":4400,"station_id":"ce4bhhh2rcd13ifvqfk0","pricing_plan_id":"cebpf4jnsgd1na2vs0mg"},{"bike_id":"4fa3c4cf-a145-4f0c-92fc-dd65142b4149","system_id":"levelo_inurba_marseille","lat":43.301422,"lon":5.398702,"is_reserved":false,"is_disabled":false,"rental_uris":{"android":"levelo://app?vid=4fa3c4cf-a145-4f0c-92fc-dd65142b4149","ios":"levelo://app?vid=4fa3c4cf-a145-4f0c-92fc-dd65142b4149"},"vehicle_type_id":"4","last_reported":1743714559,"current_range_meters":4400,"station_id":"ce4bhjp2rcd13ifvqga0","pricing_plan_id":"cebpf4jnsgd1na2vs0mg"},{"bike_id":"782f2d77-d592-4ef7-a6f2-7929a70f693a","system_id":"levelo_inurba_marseille","lat":43.27612,"lon":5.36133,"is_reserved":false,"is_disabled":false,"rental_uris":{"android":"levelo://app?vid=782f2d77-d592-4ef7-a6f2-7929a70f693a","ios":"levelo://app?vid=782f2d77-d592-4ef7-a6f2-7929a70f693a"},"vehicle_type_id":"4","last_reported":1743714559,"current_range_meters":4400,"station_id":"ce4bgj92rcd13ifvqbe0","pricing_plan_id":"cebpf4jnsgd1na2vs0mg"},{"bike_id":"b06bcefa-4863-48d2-b007-4e8ec99813f9","system_id":"levelo_inurba_marseille","lat":43.28351,"lon":5.38111,"is_reserved":false,"is_disabled":false,"rental_uris":{"android":"levelo://app?vid=b06bcefa-4863-48d2-b007-4e8ec99813f9","ios":"levelo://app?vid=b06bcefa-4863-48d2-b007-4e8ec99813f9"},"vehicle_type_id":"4","last_reported":1743714559,"current_range_meters":4400,"station_id":"ce4bh412rcd13ifvqdr0","pricing_plan_id":"cebpf4jnsgd1na2vs0mg"},{"bike_id":"b76ceae2-3c00-46cd-b993-fa72b5073718","system_id":"levelo_inurba_marseille","lat":43.28306,"lon":5.36088,"is_reserved":false,"is_disabled":false,"rental_uris":{"android":"levelo://app?vid=b76ceae2-3c00-46cd-b993-fa72b5073718","ios":"levelo://app?vid=b76ceae2-3c00-46cd-b993-fa72b5073718"},"vehicle_type_id":"4","last_reported":1743714559,"current_range_meters":4400,"station_id":"","pricing_plan_id":"cebpf4jnsgd1na2vs0mg"},{"bike_id":"aa2b10d5-4698-48b0-aa9a-57d64ed5d087","system_id":"levelo_inurba_marseille","lat":43.29441,"lon":5.38619,"is_reserved":false,"is_disabled":false,"rental_uris":{"android":"levelo://app?vid=aa2b10d5-4698-48b0-aa9a-57d64ed5d087","ios":"levelo://app?vid=aa2b10d5-4698-48b0-aa9a-57d64ed5d087"},"vehicle_type_id":"4","last_reported":1743714559,"current_range_meters":4400,"station_id":"ce4bh2h2rcd13ifvqdh0","pricing_plan_id":"cebpf4jnsgd1na2vs0mg"},{"bike_id":"c50a89dc-b7b3-47ca-b77f-0aedf03cdfeb","system_id":"levelo_inurba_marseille","lat":43.28147,"lon":5.4264,"is_reserved":false,"is_disabled":false,"rental_uris":{"android":"levelo://app?vid=c50a89dc-b7b3-47ca-b77f-0aedf03cdfeb","ios":"levelo://app?vid=c50a89dc-b7b3-47ca-b77f-0aedf03cdfeb"},"vehicle_type_id":"4","last_reported":1743714559,"current_range_meters":4800,"station_id":"ce4bhnh2rcd13ifvqgug","pricing_plan_id":"cebpf4jnsgd1na2vs0mg"},{"bike_id":"22987ff2-118b-4b71-93b3-0a2bc3fe4d66","system_id":"levelo_inurba_marseille","lat":43.27959,"lon":5.41046,"is_reserved":false,"is_disabled":false,"rental_uris":{"android":"levelo://app?vid=22987ff2-118b-4b71-93b3-0a2bc3fe4d66","ios":"levelo://app?vid=22987ff2-118b-4b71-93b3-0a2bc3fe4d66"},"vehicle_type_id":"4","last_reported":1743714559,"current_range_meters":4800,"station_id":"ce4bhnp2rcd13ifvqh0g","pricing_plan_id":"cebpf4jnsgd1na2vs0mg"},{"bike_id":"6997e810-3f4c-46f4-a539-996e89fe73bb","system_id":"levelo_inurba_marseille","lat":43.28151,"lon":5.4264,"is_reserved":false,"is_disabled":false,"rental_uris":{"android":"levelo://app?vid=6997e810-3f4c-46f4-a539-996e89fe73bb","ios":"levelo://app?vid=6997e810-3f4c-46f4-a539-996e89fe73bb"},"vehicle_type_id":"4","last_reported":1743714559,"current_range_meters":4800,"station_id":"ce4bhnh2rcd13ifvqgug","pricing_plan_id":"cebpf4jnsgd1na2vs0mg"},{"bike_id":"4f289e29-f4e9-45d3-bd4f-83308745e543","system_id":"levelo_inurba_marseille","lat":43.23189,"lon":5.35557,"is_reserved":false,"is_disabled":false,"rental_uris":{"android":"levelo://app?vid=4f289e29-f4e9-45d3-bd4f-83308745e543","ios":"levelo://app?vid=4f289e29-f4e9-45d3-bd4f-83308745e543"},"vehicle_type_id":"4","last_reported":1743714559,"current_range_meters":4800,"station_id":"ce4bhu92rcd13ifvqi70","pricing_plan_id":"cebpf4jnsgd1na2vs0mg"},{"bike_id":"7694d1bf-63a7-4de7-89e5-99a003d3dd37","system_id":"levelo_inurba_marseille","lat":43.29564,"lon":5.37531,"is_reserved":false,"is_disabled":false,"rental_uris":{"android":"levelo://app?vid=7694d1bf-63a7-4de7-89e5-99a003d3dd37","ios":"levelo://app?vid=7694d1bf-63a7-4de7-89e5-99a003d3dd37"},"vehicle_type_id":"4","last_reported":1743714559,"current_range_meters":5600,"station_id":"ce4bgh92rcd13ifvqb50","pricing_plan_id":"cebpf4jnsgd1na2vs0mg"},{"bike_id":"91b48a39-3350-42c9-9248-3028bd3ba181","system_id":"levelo_inurba_marseille","lat":43.239596,"lon":5.366267,"is_reserved":false,"is_disabled":false,"rental_uris":{"android":"levelo://app?vid=91b48a39-3350-42c9-9248-3028bd3ba181","ios":"levelo://app?vid=91b48a39-3350-42c9-9248-3028bd3ba181"},"vehicle_type_id":"4","last_reported":1743714559,"current_range_meters":5600,"station_id":"ce4bhi12rcd13ifvqfp0","pricing_plan_id":"cebpf4jnsgd1na2vs0mg"},{"bike_id":"f87e996c-206a-47d9-8697-84a2d463fdc3","system_id":"levelo_inurba_marseille","lat":43.23189,"lon":5.35555,"is_reserved":false,"is_disabled":false,"rental_uris":{"android":"levelo://app?vid=f87e996c-206a-47d9-8697-84a2d463fdc3","ios":"levelo://app?vid=f87e996c-206a-47d9-8697-84a2d463fdc3"},"vehicle_type_id":"4","last_reported":1743714559,"current_range_meters":5600,"station_id":"ce4bhu92rcd13ifvqi70","pricing_plan_id":"cebpf4jnsgd1na2vs0mg"},{"bike_id":"4d3cfc11-7cb5-42c5-ab78-03eecd24fc7f","system_id":"levelo_inurba_marseille","lat":43.26267,"lon":5.4043,"is_reserved":false,"is_disabled":false,"rental_uris":{"android":"levelo://app?vid=4d3cfc11-7cb5-42c5-ab78-03eecd24fc7f","ios":"levelo://app?vid=4d3cfc11-7cb5-42c5-ab78-03eecd24fc7f"},"vehicle_type_id":"4","last_reported":1743714559,"current_range_meters":5600,"station_id":"ce4bhmh2rcd13ifvqgmg","pricing_plan_id":"cebpf4jnsgd1na2vs0mg"},{"bike_id":"83af5f5b-7c22-4b62-9c6e-572e01719e1e","system_id":"levelo_inurba_marseille","lat":43.29534,"lon":5.38539,"is_reserved":false,"is_disabled":false,"rental_uris":{"android":"levelo://app?vid=83af5f5b-7c22-4b62-9c6e-572e01719e1e","ios":"levelo://app?vid=83af5f5b-7c22-4b62-9c6e-572e01719e1e"},"vehicle_type_id":"4","last_reported":1743714559,"current_range_meters":6000,"station_id":"ce4bgih2rcd13ifvqba0","pricing_plan_id":"cebpf4jnsgd1na2vs0mg"},{"bike_id":"9d13c440-da3b-4535-b70d-8105619f88bd","system_id":"levelo_inurba_marseille","lat":43.32365,"lon":5.38877,"is_reserved":false,"is_disabled":true,"rental_uris":{"android":"levelo://app?vid=9d13c440-da3b-4535-b70d-8105619f88bd","ios":"levelo://app?vid=9d13c440-da3b-4535-b70d-8105619f88bd"},"vehicle_type_id":"4","last_reported":1743714559,"current_range_meters":6000,"station_id":"ce4bhqp2rcd13ifvqhog","pricing_plan_id":"cebpf4jnsgd1na2vs0mg"},{"bike_id":"5a4bba22-b8bd-485a-9124-e201f115a77b","system_id":"levelo_inurba_marseille","lat":43.248081,"lon":5.374641,"is_reserved":false,"is_disabled":true,"rental_uris":{"android":"levelo://app?vid=5a4bba22-b8bd-485a-9124-e201f115a77b","ios":"levelo://app?vid=5a4bba22-b8bd-485a-9124-e201f115a77b"},"vehicle_type_id":"4","last_reported":1743714559,"current_range_meters":6000,"station_id":"","pricing_plan_id":"cebpf4jnsgd1na2vs0mg"},{"bike_id":"08f6f1d7-c056-4f53-ac38-e35ba24417bd","system_id":"levelo_inurba_marseille","lat":43.24383,"lon":5.37057,"is_reserved":false,"is_disabled":false,"rental_uris":{"android":"levelo://app?vid=08f6f1d7-c056-4f53-ac38-e35ba24417bd","ios":"levelo://app?vid=08f6f1d7-c056-4f53-ac38-e35ba24417bd"},"vehicle_type_id":"4","last_reported":1743714559,"current_range_meters":6000,"station_id":"ce4bhhh2rcd13ifvqfk0","pricing_plan_id":"cebpf4jnsgd1na2vs0mg"},{"bike_id":"c306a5c5-7f53-49d4-abef-b10354726bdf","system_id":"levelo_inurba_marseille","lat":43.28705,"lon":5.39983,"is_reserved":false,"is_disabled":false,"rental_uris":{"android":"levelo://app?vid=c306a5c5-7f53-49d4-abef-b10354726bdf","ios":"levelo://app?vid=c306a5c5-7f53-49d4-abef-b10354726bdf"},"vehicle_type_id":"4","last_reported":1743714559,"current_range_meters":6000,"station_id":"ce4bho92rcd13ifvqh3g","pricing_plan_id":"cebpf4jnsgd1na2vs0mg"},{"bike_id":"32597f0f-d49f-48cf-aa5d-2e1607ad69f2","system_id":"levelo_inurba_marseille","lat":43.26226,"lon":5.40434,"is_reserved":false,"is_disabled":false,"rental_uris":{"android":"levelo://app?vid=32597f0f-d49f-48cf-aa5d-2e1607ad69f2","ios":"levelo://app?vid=32597f0f-d49f-48cf-aa5d-2e1607ad69f2"},"vehicle_type_id":"4","last_reported":1743714559,"current_range_meters":6000,"station_id":"","pricing_plan_id":"cebpf4jnsgd1na2vs0mg"},{"bike_id":"83aa3c8e-91bd-485c-a041-0adac5639e00","system_id":"levelo_inurba_marseille","lat":43.306,"lon":5.37123,"is_reserved":false,"is_disabled":false,"rental_uris":{"android":"levelo://app?vid=83aa3c8e-91bd-485c-a041-0adac5639e00","ios":"levelo://app?vid=83aa3c8e-91bd-485c-a041-0adac5639e00"},"vehicle_type_id":"4","last_reported":1743714559,"current_range_meters":6400,"station_id":"","pricing_plan_id":"cebpf4jnsgd1na2vs0mg"},{"bike_id":"6c92c008-9060-4255-aeef-7f68f7c02c53","system_id":"levelo_inurba_marseille","lat":43.33024,"lon":5.39043,"is_reserved":false,"is_disabled":false,"rental_uris":{"android":"levelo://app?vid=6c92c008-9060-4255-aeef-7f68f7c02c53","ios":"levelo://app?vid=6c92c008-9060-4255-aeef-7f68f7c02c53"},"vehicle_type_id":"4","last_reported":1743714559,"current_range_meters":6400,"station_id":"ce4bhr92rcd13ifvqhrg","pricing_plan_id":"cebpf4jnsgd1na2vs0mg"},{"bike_id":"b3be7bc8-62d7-47b2-ab03-5ffa18153039","system_id":"levelo_inurba_marseille","lat":43.29541,"lon":5.3856,"is_reserved":false,"is_disabled":false,"rental_uris":{"android":"levelo://app?vid=b3be7bc8-62d7-47b2-ab03-5ffa18153039","ios":"levelo://app?vid=b3be7bc8-62d7-47b2-ab03-5ffa18153039"},"vehicle_type_id":"4","last_reported":1743714559,"current_range_meters":6400,"station_id":"ce4bgih2rcd13ifvqba0","pricing_plan_id":"cebpf4jnsgd1na2vs0mg"},{"bike_id":"73d80700-af3e-4b57-b471-6a30c2e59c3e","system_id":"levelo_inurba_marseille","lat":43.25678,"lon":5.39739,"is_reserved":false,"is_disabled":false,"rental_uris":{"android":"levelo://app?vid=73d80700-af3e-4b57-b471-6a30c2e59c3e","ios":"levelo://app?vid=73d80700-af3e-4b57-b471-6a30c2e59c3e"},"vehicle_type_id":"4","last_reported":1743714559,"current_range_meters":6400,"station_id":"","pricing_plan_id":"cebpf4jnsgd1na2vs0mg"},{"bike_id":"9c52fda3-b031-49e5-bb5e-5fd9f9e3567a","system_id":"levelo_inurba_marseille","lat":43.279755,"lon":5.387435,"is_reserved":false,"is_disabled":false,"rental_uris":{"android":"levelo://app?vid=9c52fda3-b031-49e5-bb5e-5fd9f9e3567a","ios":"levelo://app?vid=9c52fda3-b031-49e5-bb5e-5fd9f9e3567a"},"vehicle_type_id":"4","last_reported":1743714559,"current_range_meters":8800,"station_id":"ce4bhg12rcd13ifvqf80","pricing_plan_id":"cebpf4jnsgd1na2vs0mg"},{"bike_id":"6e0ac892-eb5a-4e58-b40d-44ea2a6de718","system_id":"levelo_inurba_marseille","lat":43.23197,"lon":5.35546,"is_reserved":false,"is_disabled":false,"rental_uris":{"android":"levelo://app?vid=6e0ac892-eb5a-4e58-b40d-44ea2a6de718","ios":"levelo://app?vid=6e0ac892-eb5a-4e58-b40d-44ea2a6de718"},"vehicle_type_id":"4","last_reported":1743714559,"current_range_meters":6400,"station_id":"ce4bhu92rcd13ifvqi70","pricing_plan_id":"cebpf4jnsgd1na2vs0mg"},{"bike_id":"ba7c5e14-a908-4f11-bf29-6efbc6c99ccc","system_id":"levelo_inurba_marseille","lat":43.2903,"lon":5.39974,"is_reserved":false,"is_disabled":false,"rental_uris":{"android":"levelo://app?vid=ba7c5e14-a908-4f11-bf29-6efbc6c99ccc","ios":"levelo://app?vid=ba7c5e14-a908-4f11-bf29-6efbc6c99ccc"},"vehicle_type_id":"4","last_reported":1743714559,"current_range_meters":6400,"station_id":"ce4bh392rcd13ifvqdm0","pricing_plan_id":"cebpf4jnsgd1na2vs0mg"},{"bike_id":"b4ce858d-504b-418b-ad13-9ea7fadc2068","system_id":"levelo_inurba_marseille","lat":43.28568,"lon":5.39495,"is_reserved":false,"is_disabled":false,"rental_uris":{"android":"levelo://app?vid=b4ce858d-504b-418b-ad13-9ea7fadc2068","ios":"levelo://app?vid=b4ce858d-504b-418b-ad13-9ea7fadc2068"},"vehicle_type_id":"4","last_reported":1743714559,"current_range_meters":6400,"station_id":"ce4bh292rcd13ifvqdg0","pricing_plan_id":"cebpf4jnsgd1na2vs0mg"},{"bike_id":"5eeb5e50-0db0-41c6-afc4-e17fd1bc146e","system_id":"levelo_inurba_marseille","lat":43.31521,"lon":5.37242,"is_reserved":false,"is_disabled":false,"rental_uris":{"android":"levelo://app?vid=5eeb5e50-0db0-41c6-afc4-e17fd1bc146e","ios":"levelo://app?vid=5eeb5e50-0db0-41c6-afc4-e17fd1bc146e"},"vehicle_type_id":"4","last_reported":1743714559,"current_range_meters":6800,"station_id":"ce4bgt12rcd13ifvqcd0","pricing_plan_id":"cebpf4jnsgd1na2vs0mg"},{"bike_id":"590d7074-66ed-48f2-a6f6-157a475f7797","system_id":"levelo_inurba_marseille","lat":43.2942,"lon":5.38616,"is_reserved":false,"is_disabled":false,"rental_uris":{"android":"levelo://app?vid=590d7074-66ed-48f2-a6f6-157a475f7797","ios":"levelo://app?vid=590d7074-66ed-48f2-a6f6-157a475f7797"},"vehicle_type_id":"4","last_reported":1743714559,"current_range_meters":6800,"station_id":"ce4bh2h2rcd13ifvqdh0","pricing_plan_id":"cebpf4jnsgd1na2vs0mg"},{"bike_id":"6fc08bb1-d85f-41e3-8e58-73f049c2866e","system_id":"levelo_inurba_marseille","lat":43.311738,"lon":5.387187,"is_reserved":false,"is_disabled":false,"rental_uris":{"android":"levelo://app?vid=6fc08bb1-d85f-41e3-8e58-73f049c2866e","ios":"levelo://app?vid=6fc08bb1-d85f-41e3-8e58-73f049c2866e"},"vehicle_type_id":"4","last_reported":1743714559,"current_range_meters":6400,"station_id":"ce4bh3h2rcd13ifvqdn0","pricing_plan_id":"cebpf4jnsgd1na2vs0mg"},{"bike_id":"78d6b7cd-ac07-453b-bc94-98692716d8c6","system_id":"levelo_inurba_marseille","lat":43.231912,"lon":5.355617,"is_reserved":false,"is_disabled":false,"rental_uris":{"android":"levelo://app?vid=78d6b7cd-ac07-453b-bc94-98692716d8c6","ios":"levelo://app?vid=78d6b7cd-ac07-453b-bc94-98692716d8c6"},"vehicle_type_id":"4","last_reported":1743714559,"current_range_meters":6800,"station_id":"ce4bhu92rcd13ifvqi70","pricing_plan_id":"cebpf4jnsgd1na2vs0mg"},{"bike_id":"d7442a8d-ddb9-4595-80d2-d17d487026dd","system_id":"levelo_inurba_marseille","lat":43.24075,"lon":5.37731,"is_reserved":false,"is_disabled":false,"rental_uris":{"android":"levelo://app?vid=d7442a8d-ddb9-4595-80d2-d17d487026dd","ios":"levelo://app?vid=d7442a8d-ddb9-4595-80d2-d17d487026dd"},"vehicle_type_id":"4","last_reported":1743714559,"current_range_meters":6800,"station_id":"ce4bhnp2rcd13ifvqgvg","pricing_plan_id":"cebpf4jnsgd1na2vs0mg"},{"bike_id":"e15eb1e3-f59b-4224-85dc-18f082814a63","system_id":"levelo_inurba_marseille","lat":43.28349,"lon":5.3809,"is_reserved":false,"is_disabled":false,"rental_uris":{"android":"levelo://app?vid=e15eb1e3-f59b-4224-85dc-18f082814a63","ios":"levelo://app?vid=e15eb1e3-f59b-4224-85dc-18f082814a63"},"vehicle_type_id":"4","last_reported":1743714559,"current_range_meters":6800,"station_id":"ce4bh412rcd13ifvqdr0","pricing_plan_id":"cebpf4jnsgd1na2vs0mg"},{"bike_id":"06a64584-bbe7-44a8-9aa0-03b727a6b690","system_id":"levelo_inurba_marseille","lat":43.32,"lon":5.38155,"is_reserved":false,"is_disabled":false,"rental_uris":{"android":"levelo://app?vid=06a64584-bbe7-44a8-9aa0-03b727a6b690","ios":"levelo://app?vid=06a64584-bbe7-44a8-9aa0-03b727a6b690"},"vehicle_type_id":"4","last_reported":1743714559,"current_range_meters":6800,"station_id":"ce4bhr12rcd13ifvqhpg","pricing_plan_id":"cebpf4jnsgd1na2vs0mg"},{"bike_id":"32a978e0-d0c2-43d4-9b03-19a5c41c27de","system_id":"levelo_inurba_marseille","lat":43.31059,"lon":5.38342,"is_reserved":false,"is_disabled":true,"rental_uris":{"android":"levelo://app?vid=32a978e0-d0c2-43d4-9b03-19a5c41c27de","ios":"levelo://app?vid=32a978e0-d0c2-43d4-9b03-19a5c41c27de"},"vehicle_type_id":"4","last_reported":1743714559,"current_range_meters":6800,"station_id":"ce4bgv92rcd13ifvqcr0","pricing_plan_id":"cebpf4jnsgd1na2vs0mg"},{"bike_id":"1c917038-b77e-40f2-877b-3fb489a9ae57","system_id":"levelo_inurba_marseille","lat":43.275651,"lon":5.384319,"is_reserved":false,"is_disabled":false,"rental_uris":{"android":"levelo://app?vid=1c917038-b77e-40f2-877b-3fb489a9ae57","ios":"levelo://app?vid=1c917038-b77e-40f2-877b-3fb489a9ae57"},"vehicle_type_id":"4","last_reported":1743714559,"current_range_meters":6400,"station_id":"ce4bhjp2rcd13ifvqg90","pricing_plan_id":"cebpf4jnsgd1na2vs0mg"},{"bike_id":"ef3d362c-32e3-42b9-a96e-2a77377fa812","system_id":"levelo_inurba_marseille","lat":43.29579,"lon":5.39949,"is_reserved":false,"is_disabled":false,"rental_uris":{"android":"levelo://app?vid=ef3d362c-32e3-42b9-a96e-2a77377fa812","ios":"levelo://app?vid=ef3d362c-32e3-42b9-a96e-2a77377fa812"},"vehicle_type_id":"4","last_reported":1743714559,"current_range_meters":6800,"station_id":"ce4bh312rcd13ifvqdj0","pricing_plan_id":"cebpf4jnsgd1na2vs0mg"},{"bike_id":"a75ff633-dbca-45ba-9627-761891f177e3","system_id":"levelo_inurba_marseille","lat":43.30951,"lon":5.39015,"is_reserved":false,"is_disabled":false,"rental_uris":{"android":"levelo://app?vid=a75ff633-dbca-45ba-9627-761891f177e3","ios":"levelo://app?vid=a75ff633-dbca-45ba-9627-761891f177e3"},"vehicle_type_id":"4","last_reported":1743714559,"current_range_meters":6800,"station_id":"ce4bgup2rcd13ifvqco0","pricing_plan_id":"cebpf4jnsgd1na2vs0mg"},{"bike_id":"e1bcd518-a3a1-4a25-9b9e-794fbd0bdf0a","system_id":"levelo_inurba_marseille","lat":43.23973,"lon":5.36614,"is_reserved":false,"is_disabled":false,"rental_uris":{"android":"levelo://app?vid=e1bcd518-a3a1-4a25-9b9e-794fbd0bdf0a","ios":"levelo://app?vid=e1bcd518-a3a1-4a25-9b9e-794fbd0bdf0a"},"vehicle_type_id":"4","last_reported":1743714559,"current_range_meters":6800,"station_id":"ce4bhi12rcd13ifvqfp0","pricing_plan_id":"cebpf4jnsgd1na2vs0mg"},{"bike_id":"d9ee8ed3-46a9-439c-9454-ae62e35c554c","system_id":"levelo_inurba_marseille","lat":43.3414,"lon":5.40905,"is_reserved":false,"is_disabled":false,"rental_uris":{"android":"levelo://app?vid=d9ee8ed3-46a9-439c-9454-ae62e35c554c","ios":"levelo://app?vid=d9ee8ed3-46a9-439c-9454-ae62e35c554c"},"vehicle_type_id":"4","last_reported":1743714559,"current_range_meters":6800,"station_id":"ce4bhqh2rcd13ifvqhlg","pricing_plan_id":"cebpf4jnsgd1na2vs0mg"},{"bike_id":"75dae32f-059a-4b5b-a5e8-963c6eda2f66","system_id":"levelo_inurba_marseille","lat":43.27554,"lon":5.40984,"is_reserved":false,"is_disabled":false,"rental_uris":{"android":"levelo://app?vid=75dae32f-059a-4b5b-a5e8-963c6eda2f66","ios":"levelo://app?vid=75dae32f-059a-4b5b-a5e8-963c6eda2f66"},"vehicle_type_id":"4","last_reported":1743714559,"current_range_meters":6800,"station_id":"","pricing_plan_id":"cebpf4jnsgd1na2vs0mg"},{"bike_id":"a7c8a24c-ffee-4858-93ad-96e4bd723f7a","system_id":"levelo_inurba_marseille","lat":43.28455,"lon":5.35887,"is_reserved":false,"is_disabled":false,"rental_uris":{"android":"levelo://app?vid=a7c8a24c-ffee-4858-93ad-96e4bd723f7a","ios":"levelo://app?vid=a7c8a24c-ffee-4858-93ad-96e4bd723f7a"},"vehicle_type_id":"4","last_reported":1743714559,"current_range_meters":6800,"station_id":"ce4bhah2rcd13ifvqei0","pricing_plan_id":"cebpf4jnsgd1na2vs0mg"},{"bike_id":"9684f4b4-207e-41dc-9a54-f1411fe6fae7","system_id":"levelo_inurba_marseille","lat":43.30156,"lon":5.38098,"is_reserved":false,"is_disabled":true,"rental_uris":{"android":"levelo://app?vid=9684f4b4-207e-41dc-9a54-f1411fe6fae7","ios":"levelo://app?vid=9684f4b4-207e-41dc-9a54-f1411fe6fae7"},"vehicle_type_id":"4","last_reported":1743714559,"current_range_meters":7200,"station_id":"ce4bgjp2rcd13ifvqbh0","pricing_plan_id":"cebpf4jnsgd1na2vs0mg"},{"bike_id":"000ca9d1-8408-494a-9841-abb744539257","system_id":"levelo_inurba_marseille","lat":43.28668,"lon":5.36346,"is_reserved":false,"is_disabled":false,"rental_uris":{"android":"levelo://app?vid=000ca9d1-8408-494a-9841-abb744539257","ios":"levelo://app?vid=000ca9d1-8408-494a-9841-abb744539257"},"vehicle_type_id":"4","last_reported":1743714559,"current_range_meters":7200,"station_id":"ce4bhah2rcd13ifvqej0","pricing_plan_id":"cebpf4jnsgd1na2vs0mg"},{"bike_id":"d2bd65b5-4a88-431a-b1ad-d6dea4792155","system_id":"levelo_inurba_marseille","lat":43.29043,"lon":5.37578,"is_reserved":false,"is_disabled":false,"rental_uris":{"android":"levelo://app?vid=d2bd65b5-4a88-431a-b1ad-d6dea4792155","ios":"levelo://app?vid=d2bd65b5-4a88-431a-b1ad-d6dea4792155"},"vehicle_type_id":"4","last_reported":1743714559,"current_range_meters":7200,"station_id":"ce4bh692rcd13ifvqe90","pricing_plan_id":"cebpf4jnsgd1na2vs0mg"},{"bike_id":"bddd4ccf-1482-4a9d-a8d7-0870910ef155","system_id":"levelo_inurba_marseille","lat":43.27947,"lon":5.41043,"is_reserved":false,"is_disabled":false,"rental_uris":{"android":"levelo://app?vid=bddd4ccf-1482-4a9d-a8d7-0870910ef155","ios":"levelo://app?vid=bddd4ccf-1482-4a9d-a8d7-0870910ef155"},"vehicle_type_id":"4","last_reported":1743714559,"current_range_meters":7200,"station_id":"ce4bhnp2rcd13ifvqh0g","pricing_plan_id":"cebpf4jnsgd1na2vs0mg"},{"bike_id":"3374421a-949f-40b6-870f-59a2d8ba0de4","system_id":"levelo_inurba_marseille","lat":43.24183,"lon":5.36384,"is_reserved":false,"is_disabled":false,"rental_uris":{"android":"levelo://app?vid=3374421a-949f-40b6-870f-59a2d8ba0de4","ios":"levelo://app?vid=3374421a-949f-40b6-870f-59a2d8ba0de4"},"vehicle_type_id":"4","last_reported":1743714559,"current_range_meters":7200,"station_id":"cpo36qri1sfpv3e86is0","pricing_plan_id":"cebpf4jnsgd1na2vs0mg"},{"bike_id":"c2e6881a-04a3-4a38-9cc0-75cacf165e78","system_id":"levelo_inurba_marseille","lat":43.28832,"lon":5.364645,"is_reserved":false,"is_disabled":false,"rental_uris":{"android":"levelo://app?vid=c2e6881a-04a3-4a38-9cc0-75cacf165e78","ios":"levelo://app?vid=c2e6881a-04a3-4a38-9cc0-75cacf165e78"},"vehicle_type_id":"4","last_reported":1743714559,"current_range_meters":7200,"station_id":"","pricing_plan_id":"cebpf4jnsgd1na2vs0mg"},{"bike_id":"ed910235-7712-4f43-a3a3-b84c24c262e1","system_id":"levelo_inurba_marseille","lat":43.28358,"lon":5.38095,"is_reserved":false,"is_disabled":false,"rental_uris":{"android":"levelo://app?vid=ed910235-7712-4f43-a3a3-b84c24c262e1","ios":"levelo://app?vid=ed910235-7712-4f43-a3a3-b84c24c262e1"},"vehicle_type_id":"4","last_reported":1743714559,"current_range_meters":7200,"station_id":"ce4bh412rcd13ifvqdr0","pricing_plan_id":"cebpf4jnsgd1na2vs0mg"},{"bike_id":"8f4dbeba-0045-4c56-9357-ed9d6fb30aee","system_id":"levelo_inurba_marseille","lat":43.29264,"lon":5.36838,"is_reserved":false,"is_disabled":false,"rental_uris":{"android":"levelo://app?vid=8f4dbeba-0045-4c56-9357-ed9d6fb30aee","ios":"levelo://app?vid=8f4dbeba-0045-4c56-9357-ed9d6fb30aee"},"vehicle_type_id":"4","last_reported":1743714559,"current_range_meters":7200,"station_id":"ce4bhbp2rcd13ifvqesg","pricing_plan_id":"cebpf4jnsgd1na2vs0mg"},{"bike_id":"c71f15b6-2590-4f8b-9c5c-e81cc022cc3d","system_id":"levelo_inurba_marseille","lat":43.28413,"lon":5.35,"is_reserved":false,"is_disabled":false,"rental_uris":{"android":"levelo://app?vid=c71f15b6-2590-4f8b-9c5c-e81cc022cc3d","ios":"levelo://app?vid=c71f15b6-2590-4f8b-9c5c-e81cc022cc3d"},"vehicle_type_id":"4","last_reported":1743714559,"current_range_meters":7200,"station_id":"ce4bhbh2rcd13ifvqepg","pricing_plan_id":"cebpf4jnsgd1na2vs0mg"},{"bike_id":"9acde94b-cdba-4433-b025-f8b39a15bb7b","system_id":"levelo_inurba_marseille","lat":43.29716,"lon":5.366,"is_reserved":false,"is_disabled":false,"rental_uris":{"android":"levelo://app?vid=9acde94b-cdba-4433-b025-f8b39a15bb7b","ios":"levelo://app?vid=9acde94b-cdba-4433-b025-f8b39a15bb7b"},"vehicle_type_id":"4","last_reported":1743714559,"current_range_meters":7200,"station_id":"ce4bgn12rcd13ifvqbt0","pricing_plan_id":"cebpf4jnsgd1na2vs0mg"},{"bike_id":"fede0e43-1609-4a28-9f97-913c3f149703","system_id":"levelo_inurba_marseille","lat":43.23186,"lon":5.3554,"is_reserved":false,"is_disabled":false,"rental_uris":{"android":"levelo://app?vid=fede0e43-1609-4a28-9f97-913c3f149703","ios":"levelo://app?vid=fede0e43-1609-4a28-9f97-913c3f149703"},"vehicle_type_id":"4","last_reported":1743714559,"current_range_meters":7200,"station_id":"ce4bhu92rcd13ifvqi70","pricing_plan_id":"cebpf4jnsgd1na2vs0mg"},{"bike_id":"15ea3e20-e3c1-434f-8b50-88d1ebba3f71","system_id":"levelo_inurba_marseille","lat":43.23204,"lon":5.35563,"is_reserved":false,"is_disabled":false,"rental_uris":{"android":"levelo://app?vid=15ea3e20-e3c1-434f-8b50-88d1ebba3f71","ios":"levelo://app?vid=15ea3e20-e3c1-434f-8b50-88d1ebba3f71"},"vehicle_type_id":"4","last_reported":1743714559,"current_range_meters":7200,"station_id":"ce4bhu92rcd13ifvqi70","pricing_plan_id":"cebpf4jnsgd1na2vs0mg"},{"bike_id":"4a8d215f-728c-4424-bfbf-5faa62888e2d","system_id":"levelo_inurba_marseille","lat":43.295101,"lon":5.394076,"is_reserved":false,"is_disabled":true,"rental_uris":{"android":"levelo://app?vid=4a8d215f-728c-4424-bfbf-5faa62888e2d","ios":"levelo://app?vid=4a8d215f-728c-4424-bfbf-5faa62888e2d"},"vehicle_type_id":"4","last_reported":1743714559,"current_range_meters":7200,"station_id":"ce4bh292rcd13ifvqdf0","pricing_plan_id":"cebpf4jnsgd1na2vs0mg"},{"bike_id":"b451dcd6-3b36-4a20-94c0-24f42eb3416a","system_id":"levelo_inurba_marseille","lat":43.27951,"lon":5.41041,"is_reserved":false,"is_disabled":false,"rental_uris":{"android":"levelo://app?vid=b451dcd6-3b36-4a20-94c0-24f42eb3416a","ios":"levelo://app?vid=b451dcd6-3b36-4a20-94c0-24f42eb3416a"},"vehicle_type_id":"4","last_reported":1743714559,"current_range_meters":8000,"station_id":"ce4bhnp2rcd13ifvqh0g","pricing_plan_id":"cebpf4jnsgd1na2vs0mg"},{"bike_id":"44b923fe-a680-401a-862e-95063da690ea","system_id":"levelo_inurba_marseille","lat":43.24395,"lon":5.37057,"is_reserved":false,"is_disabled":false,"rental_uris":{"android":"levelo://app?vid=44b923fe-a680-401a-862e-95063da690ea","ios":"levelo://app?vid=44b923fe-a680-401a-862e-95063da690ea"},"vehicle_type_id":"4","last_reported":1743714559,"current_range_meters":8000,"station_id":"ce4bhhh2rcd13ifvqfk0","pricing_plan_id":"cebpf4jnsgd1na2vs0mg"},{"bike_id":"265037a8-ec1c-434d-8701-f182338536d0","system_id":"levelo_inurba_marseille","lat":43.29648,"lon":5.3715,"is_reserved":false,"is_disabled":false,"rental_uris":{"android":"levelo://app?vid=265037a8-ec1c-434d-8701-f182338536d0","ios":"levelo://app?vid=265037a8-ec1c-434d-8701-f182338536d0"},"vehicle_type_id":"4","last_reported":1743714559,"current_range_meters":6800,"station_id":"ce4bgnh2rcd13ifvqc0g","pricing_plan_id":"cebpf4jnsgd1na2vs0mg"},{"bike_id":"71e55f99-90e5-4133-8167-5af8b2b35d7e","system_id":"levelo_inurba_marseille","lat":43.23074,"lon":5.35472,"is_reserved":false,"is_disabled":false,"rental_uris":{"android":"levelo://app?vid=71e55f99-90e5-4133-8167-5af8b2b35d7e","ios":"levelo://app?vid=71e55f99-90e5-4133-8167-5af8b2b35d7e"},"vehicle_type_id":"4","last_reported":1743714559,"current_range_meters":8000,"station_id":"cpo3342slgdg3j2ifvpg","pricing_plan_id":"cebpf4jnsgd1na2vs0mg"},{"bike_id":"9ab685a8-8c4c-4378-a03d-f71986d91d7b","system_id":"levelo_inurba_marseille","lat":43.29431,"lon":5.39758,"is_reserved":false,"is_disabled":false,"rental_uris":{"android":"levelo://app?vid=9ab685a8-8c4c-4378-a03d-f71986d91d7b","ios":"levelo://app?vid=9ab685a8-8c4c-4378-a03d-f71986d91d7b"},"vehicle_type_id":"4","last_reported":1743714559,"current_range_meters":8000,"station_id":"ce4bh3h2rcd13ifvqdo0","pricing_plan_id":"cebpf4jnsgd1na2vs0mg"},{"bike_id":"2f5ebb33-56ac-48ac-8004-513ec8b3c9df","system_id":"levelo_inurba_marseille","lat":43.25929,"lon":5.40891,"is_reserved":false,"is_disabled":false,"rental_uris":{"android":"levelo://app?vid=2f5ebb33-56ac-48ac-8004-513ec8b3c9df","ios":"levelo://app?vid=2f5ebb33-56ac-48ac-8004-513ec8b3c9df"},"vehicle_type_id":"4","last_reported":1743714559,"current_range_meters":8000,"station_id":"ce4bhm92rcd13ifvqglg","pricing_plan_id":"cebpf4jnsgd1na2vs0mg"},{"bike_id":"2372448a-d7df-45c3-bd13-b9b4112577c4","system_id":"levelo_inurba_marseille","lat":43.298978,"lon":5.485582,"is_reserved":false,"is_disabled":false,"rental_uris":{"android":"levelo://app?vid=2372448a-d7df-45c3-bd13-b9b4112577c4","ios":"levelo://app?vid=2372448a-d7df-45c3-bd13-b9b4112577c4"},"vehicle_type_id":"4","last_reported":1743714559,"current_range_meters":8000,"station_id":"","pricing_plan_id":"cebpf4jnsgd1na2vs0mg"},{"bike_id":"14281758-0977-476b-99d7-af158faae060","system_id":"levelo_inurba_marseille","lat":43.25871,"lon":5.39893,"is_reserved":false,"is_disabled":false,"rental_uris":{"android":"levelo://app?vid=14281758-0977-476b-99d7-af158faae060","ios":"levelo://app?vid=14281758-0977-476b-99d7-af158faae060"},"vehicle_type_id":"4","last_reported":1743714559,"current_range_meters":8000,"station_id":"ce4bhl92rcd13ifvqghg","pricing_plan_id":"cebpf4jnsgd1na2vs0mg"},{"bike_id":"c9fb25a7-e723-41fe-abac-05d32f3d4f9d","system_id":"levelo_inurba_marseille","lat":43.26018,"lon":5.41737,"is_reserved":false,"is_disabled":false,"rental_uris":{"android":"levelo://app?vid=c9fb25a7-e723-41fe-abac-05d32f3d4f9d","ios":"levelo://app?vid=c9fb25a7-e723-41fe-abac-05d32f3d4f9d"},"vehicle_type_id":"4","last_reported":1743714559,"current_range_meters":8000,"station_id":"","pricing_plan_id":"cebpf4jnsgd1na2vs0mg"},{"bike_id":"b13d3432-293b-4902-a3f1-a51b231e2d99","system_id":"levelo_inurba_marseille","lat":43.28613,"lon":5.35101,"is_reserved":false,"is_disabled":false,"rental_uris":{"android":"levelo://app?vid=b13d3432-293b-4902-a3f1-a51b231e2d99","ios":"levelo://app?vid=b13d3432-293b-4902-a3f1-a51b231e2d99"},"vehicle_type_id":"4","last_reported":1743714559,"current_range_meters":8000,"station_id":"ce4bhch2rcd13ifvqeug","pricing_plan_id":"cebpf4jnsgd1na2vs0mg"},{"bike_id":"4f3eb7d3-6193-4152-af90-0b8ba47b65bc","system_id":"levelo_inurba_marseille","lat":43.28161,"lon":5.42638,"is_reserved":false,"is_disabled":false,"rental_uris":{"android":"levelo://app?vid=4f3eb7d3-6193-4152-af90-0b8ba47b65bc","ios":"levelo://app?vid=4f3eb7d3-6193-4152-af90-0b8ba47b65bc"},"vehicle_type_id":"4","last_reported":1743714559,"current_range_meters":8400,"station_id":"ce4bhnh2rcd13ifvqgug","pricing_plan_id":"cebpf4jnsgd1na2vs0mg"},{"bike_id":"140e67a8-79de-48ea-851b-2b7ee265dff4","system_id":"levelo_inurba_marseille","lat":43.29963,"lon":5.37151,"is_reserved":false,"is_disabled":false,"rental_uris":{"android":"levelo://app?vid=140e67a8-79de-48ea-851b-2b7ee265dff4","ios":"levelo://app?vid=140e67a8-79de-48ea-851b-2b7ee265dff4"},"vehicle_type_id":"4","last_reported":1743714559,"current_range_meters":8400,"station_id":"ce4bgr92rcd13ifvqc7g","pricing_plan_id":"cebpf4jnsgd1na2vs0mg"},{"bike_id":"97de9475-5272-4166-a380-76c3186681c8","system_id":"levelo_inurba_marseille","lat":43.28718,"lon":5.37944,"is_reserved":false,"is_disabled":false,"rental_uris":{"android":"levelo://app?vid=97de9475-5272-4166-a380-76c3186681c8","ios":"levelo://app?vid=97de9475-5272-4166-a380-76c3186681c8"},"vehicle_type_id":"4","last_reported":1743714559,"current_range_meters":8400,"station_id":"ce4bh9p2rcd13ifvqec0","pricing_plan_id":"cebpf4jnsgd1na2vs0mg"},{"bike_id":"cd83c8ac-ed09-4369-9279-b6f36f2bbd3c","system_id":"levelo_inurba_marseille","lat":43.30822,"lon":5.38222,"is_reserved":false,"is_disabled":false,"rental_uris":{"android":"levelo://app?vid=cd83c8ac-ed09-4369-9279-b6f36f2bbd3c","ios":"levelo://app?vid=cd83c8ac-ed09-4369-9279-b6f36f2bbd3c"},"vehicle_type_id":"4","last_reported":1743714559,"current_range_meters":8400,"station_id":"","pricing_plan_id":"cebpf4jnsgd1na2vs0mg"},{"bike_id":"b89ee97e-85b0-490d-acda-a1a6ac97df44","system_id":"levelo_inurba_marseille","lat":43.29705,"lon":5.36617,"is_reserved":false,"is_disabled":false,"rental_uris":{"android":"levelo://app?vid=b89ee97e-85b0-490d-acda-a1a6ac97df44","ios":"levelo://app?vid=b89ee97e-85b0-490d-acda-a1a6ac97df44"},"vehicle_type_id":"4","last_reported":1743714559,"current_range_meters":8400,"station_id":"ce4bgn12rcd13ifvqbt0","pricing_plan_id":"cebpf4jnsgd1na2vs0mg"},{"bike_id":"e590fe23-e0aa-4322-a597-417c816f1dd9","system_id":"levelo_inurba_marseille","lat":43.279479,"lon":5.410456,"is_reserved":false,"is_disabled":false,"rental_uris":{"android":"levelo://app?vid=e590fe23-e0aa-4322-a597-417c816f1dd9","ios":"levelo://app?vid=e590fe23-e0aa-4322-a597-417c816f1dd9"},"vehicle_type_id":"4","last_reported":1743714559,"current_range_meters":8400,"station_id":"ce4bhnp2rcd13ifvqh0g","pricing_plan_id":"cebpf4jnsgd1na2vs0mg"},{"bike_id":"c135c5d1-a9f0-45c6-9e8f-943ce4e10bee","system_id":"levelo_inurba_marseille","lat":43.24401,"lon":5.3745,"is_reserved":false,"is_disabled":false,"rental_uris":{"android":"levelo://app?vid=c135c5d1-a9f0-45c6-9e8f-943ce4e10bee","ios":"levelo://app?vid=c135c5d1-a9f0-45c6-9e8f-943ce4e10bee"},"vehicle_type_id":"4","last_reported":1743714559,"current_range_meters":8400,"station_id":"","pricing_plan_id":"cebpf4jnsgd1na2vs0mg"},{"bike_id":"f37d8f5c-d063-4e35-8e15-0215542ca205","system_id":"levelo_inurba_marseille","lat":43.23728,"lon":5.40356,"is_reserved":false,"is_disabled":false,"rental_uris":{"android":"levelo://app?vid=f37d8f5c-d063-4e35-8e15-0215542ca205","ios":"levelo://app?vid=f37d8f5c-d063-4e35-8e15-0215542ca205"},"vehicle_type_id":"4","last_reported":1743714559,"current_range_meters":8400,"station_id":"","pricing_plan_id":"cebpf4jnsgd1na2vs0mg"},{"bike_id":"def5e07d-dbe2-4271-97c5-18d7a853ec5e","system_id":"levelo_inurba_marseille","lat":43.3127,"lon":5.40164,"is_reserved":false,"is_disabled":false,"rental_uris":{"android":"levelo://app?vid=def5e07d-dbe2-4271-97c5-18d7a853ec5e","ios":"levelo://app?vid=def5e07d-dbe2-4271-97c5-18d7a853ec5e"},"vehicle_type_id":"4","last_reported":1743714559,"current_range_meters":8400,"station_id":"ce4bh092rcd13ifvqd30","pricing_plan_id":"cebpf4jnsgd1na2vs0mg"},{"bike_id":"73c6623c-fdfd-460c-8460-f522c3f951af","system_id":"levelo_inurba_marseille","lat":43.30884,"lon":5.39634,"is_reserved":false,"is_disabled":false,"rental_uris":{"android":"levelo://app?vid=73c6623c-fdfd-460c-8460-f522c3f951af","ios":"levelo://app?vid=73c6623c-fdfd-460c-8460-f522c3f951af"},"vehicle_type_id":"4","last_reported":1743714559,"current_range_meters":8400,"station_id":"ce4bh012rcd13ifvqcv0","pricing_plan_id":"cebpf4jnsgd1na2vs0mg"},{"bike_id":"96b5f2ee-edbd-4adf-a1cb-b2ed2ce98b72","system_id":"levelo_inurba_marseille","lat":43.28106,"lon":5.37838,"is_reserved":false,"is_disabled":false,"rental_uris":{"android":"levelo://app?vid=96b5f2ee-edbd-4adf-a1cb-b2ed2ce98b72","ios":"levelo://app?vid=96b5f2ee-edbd-4adf-a1cb-b2ed2ce98b72"},"vehicle_type_id":"4","last_reported":1743714559,"current_range_meters":8400,"station_id":"ce4bha12rcd13ifvqee0","pricing_plan_id":"cebpf4jnsgd1na2vs0mg"},{"bike_id":"2b4310f7-b23c-4aa9-bbb2-808936556e6a","system_id":"levelo_inurba_marseille","lat":43.28436,"lon":5.34996,"is_reserved":false,"is_disabled":false,"rental_uris":{"android":"levelo://app?vid=2b4310f7-b23c-4aa9-bbb2-808936556e6a","ios":"levelo://app?vid=2b4310f7-b23c-4aa9-bbb2-808936556e6a"},"vehicle_type_id":"4","last_reported":1743714559,"current_range_meters":8800,"station_id":"ce4bhbh2rcd13ifvqepg","pricing_plan_id":"cebpf4jnsgd1na2vs0mg"},{"bike_id":"cc816832-e65b-406e-8bbe-a56fe5128c57","system_id":"levelo_inurba_marseille","lat":43.33026,"lon":5.39039,"is_reserved":false,"is_disabled":false,"rental_uris":{"android":"levelo://app?vid=cc816832-e65b-406e-8bbe-a56fe5128c57","ios":"levelo://app?vid=cc816832-e65b-406e-8bbe-a56fe5128c57"},"vehicle_type_id":"4","last_reported":1743714559,"current_range_meters":8800,"station_id":"ce4bhr92rcd13ifvqhrg","pricing_plan_id":"cebpf4jnsgd1na2vs0mg"},{"bike_id":"d6f3d6a0-1425-4e2d-809f-b652ad689069","system_id":"levelo_inurba_marseille","lat":43.250852,"lon":5.395245,"is_reserved":false,"is_disabled":false,"rental_uris":{"android":"levelo://app?vid=d6f3d6a0-1425-4e2d-809f-b652ad689069","ios":"levelo://app?vid=d6f3d6a0-1425-4e2d-809f-b652ad689069"},"vehicle_type_id":"4","last_reported":1743714559,"current_range_meters":8800,"station_id":"ce4bhm12rcd13ifvqgkg","pricing_plan_id":"cebpf4jnsgd1na2vs0mg"},{"bike_id":"fea9fa08-12bb-4d9c-95fa-bd8fe3fb3625","system_id":"levelo_inurba_marseille","lat":43.24402,"lon":5.37033,"is_reserved":false,"is_disabled":false,"rental_uris":{"android":"levelo://app?vid=fea9fa08-12bb-4d9c-95fa-bd8fe3fb3625","ios":"levelo://app?vid=fea9fa08-12bb-4d9c-95fa-bd8fe3fb3625"},"vehicle_type_id":"4","last_reported":1743714559,"current_range_meters":8800,"station_id":"ce4bhhh2rcd13ifvqfk0","pricing_plan_id":"cebpf4jnsgd1na2vs0mg"},{"bike_id":"f5759a4f-0592-41f6-9289-e855fab9cb10","system_id":"levelo_inurba_marseille","lat":43.24386,"lon":5.3707,"is_reserved":false,"is_disabled":false,"rental_uris":{"android":"levelo://app?vid=f5759a4f-0592-41f6-9289-e855fab9cb10","ios":"levelo://app?vid=f5759a4f-0592-41f6-9289-e855fab9cb10"},"vehicle_type_id":"4","last_reported":1743714559,"current_range_meters":8800,"station_id":"ce4bhhh2rcd13ifvqfk0","pricing_plan_id":"cebpf4jnsgd1na2vs0mg"},{"bike_id":"530add42-6a71-433e-8c7a-45b5a6543f85","system_id":"levelo_inurba_marseille","lat":43.25714,"lon":5.41112,"is_reserved":false,"is_disabled":false,"rental_uris":{"android":"levelo://app?vid=530add42-6a71-433e-8c7a-45b5a6543f85","ios":"levelo://app?vid=530add42-6a71-433e-8c7a-45b5a6543f85"},"vehicle_type_id":"4","last_reported":1743714559,"current_range_meters":8800,"station_id":"ce4bhkp2rcd13ifvqgd0","pricing_plan_id":"cebpf4jnsgd1na2vs0mg"},{"bike_id":"809ab426-da69-405a-9ff2-30b58e1aceb6","system_id":"levelo_inurba_marseille","lat":43.29979,"lon":5.38714,"is_reserved":false,"is_disabled":false,"rental_uris":{"android":"levelo://app?vid=809ab426-da69-405a-9ff2-30b58e1aceb6","ios":"levelo://app?vid=809ab426-da69-405a-9ff2-30b58e1aceb6"},"vehicle_type_id":"4","last_reported":1743714559,"current_range_meters":8800,"station_id":"","pricing_plan_id":"cebpf4jnsgd1na2vs0mg"},{"bike_id":"edc7315e-9829-43fe-9999-43c7ab26eaef","system_id":"levelo_inurba_marseille","lat":43.30797,"lon":5.38159,"is_reserved":false,"is_disabled":false,"rental_uris":{"android":"levelo://app?vid=edc7315e-9829-43fe-9999-43c7ab26eaef","ios":"levelo://app?vid=edc7315e-9829-43fe-9999-43c7ab26eaef"},"vehicle_type_id":"4","last_reported":1743714559,"current_range_meters":8800,"station_id":"ce4bgt12rcd13ifvqce0","pricing_plan_id":"cebpf4jnsgd1na2vs0mg"},{"bike_id":"131dafb3-0416-4bc5-b992-f5b1a1c2d479","system_id":"levelo_inurba_marseille","lat":43.28347,"lon":5.38111,"is_reserved":false,"is_disabled":false,"rental_uris":{"android":"levelo://app?vid=131dafb3-0416-4bc5-b992-f5b1a1c2d479","ios":"levelo://app?vid=131dafb3-0416-4bc5-b992-f5b1a1c2d479"},"vehicle_type_id":"4","last_reported":1743714559,"current_range_meters":8800,"station_id":"ce4bh412rcd13ifvqdr0","pricing_plan_id":"cebpf4jnsgd1na2vs0mg"},{"bike_id":"2bdbe7ee-37bf-4a09-bb1c-db0d38b1b1f5","system_id":"levelo_inurba_marseille","lat":43.29545,"lon":5.3854,"is_reserved":false,"is_disabled":false,"rental_uris":{"android":"levelo://app?vid=2bdbe7ee-37bf-4a09-bb1c-db0d38b1b1f5","ios":"levelo://app?vid=2bdbe7ee-37bf-4a09-bb1c-db0d38b1b1f5"},"vehicle_type_id":"4","last_reported":1743714559,"current_range_meters":8800,"station_id":"ce4bgih2rcd13ifvqba0","pricing_plan_id":"cebpf4jnsgd1na2vs0mg"},{"bike_id":"22f18dcb-9155-4af1-a93e-7c8d82c3f600","system_id":"levelo_inurba_marseille","lat":43.29532,"lon":5.38548,"is_reserved":false,"is_disabled":false,"rental_uris":{"android":"levelo://app?vid=22f18dcb-9155-4af1-a93e-7c8d82c3f600","ios":"levelo://app?vid=22f18dcb-9155-4af1-a93e-7c8d82c3f600"},"vehicle_type_id":"4","last_reported":1743714559,"current_range_meters":8800,"station_id":"ce4bgih2rcd13ifvqba0","pricing_plan_id":"cebpf4jnsgd1na2vs0mg"},{"bike_id":"ed4d7350-318a-444b-bf62-19f86e0514aa","system_id":"levelo_inurba_marseille","lat":43.27799,"lon":5.40709,"is_reserved":false,"is_disabled":false,"rental_uris":{"android":"levelo://app?vid=ed4d7350-318a-444b-bf62-19f86e0514aa","ios":"levelo://app?vid=ed4d7350-318a-444b-bf62-19f86e0514aa"},"vehicle_type_id":"4","last_reported":1743714559,"current_range_meters":8800,"station_id":"ce4bhnh2rcd13ifvqgtg","pricing_plan_id":"cebpf4jnsgd1na2vs0mg"},{"bike_id":"73d854ad-9eb6-4d68-8878-e9b2295ae65a","system_id":"levelo_inurba_marseille","lat":43.23058,"lon":5.35501,"is_reserved":false,"is_disabled":false,"rental_uris":{"android":"levelo://app?vid=73d854ad-9eb6-4d68-8878-e9b2295ae65a","ios":"levelo://app?vid=73d854ad-9eb6-4d68-8878-e9b2295ae65a"},"vehicle_type_id":"4","last_reported":1743714559,"current_range_meters":9200,"station_id":"cpo3342slgdg3j2ifvpg","pricing_plan_id":"cebpf4jnsgd1na2vs0mg"},{"bike_id":"5ab4edfb-d21f-4631-977a-7d7fc35aa74a","system_id":"levelo_inurba_marseille","lat":43.31108,"lon":5.37762,"is_reserved":false,"is_disabled":false,"rental_uris":{"android":"levelo://app?vid=5ab4edfb-d21f-4631-977a-7d7fc35aa74a","ios":"levelo://app?vid=5ab4edfb-d21f-4631-977a-7d7fc35aa74a"},"vehicle_type_id":"4","last_reported":1743714559,"current_range_meters":9200,"station_id":"ce4bgt92rcd13ifvqcg0","pricing_plan_id":"cebpf4jnsgd1na2vs0mg"},{"bike_id":"d76832c4-3604-4de9-b7a5-182f7c6e995c","system_id":"levelo_inurba_marseille","lat":43.31365,"lon":5.38508,"is_reserved":false,"is_disabled":true,"rental_uris":{"android":"levelo://app?vid=d76832c4-3604-4de9-b7a5-182f7c6e995c","ios":"levelo://app?vid=d76832c4-3604-4de9-b7a5-182f7c6e995c"},"vehicle_type_id":"4","last_reported":1743714559,"current_range_meters":9200,"station_id":"ce4bgt92rcd13ifvqcf0","pricing_plan_id":"cebpf4jnsgd1na2vs0mg"},{"bike_id":"00af5085-bd9f-4e74-8dc5-1b3e94bfa446","system_id":"levelo_inurba_marseille","lat":43.29894,"lon":5.38905,"is_reserved":false,"is_disabled":false,"rental_uris":{"android":"levelo://app?vid=00af5085-bd9f-4e74-8dc5-1b3e94bfa446","ios":"levelo://app?vid=00af5085-bd9f-4e74-8dc5-1b3e94bfa446"},"vehicle_type_id":"4","last_reported":1743714559,"current_range_meters":9200,"station_id":"ce4bh392rcd13ifvqdl0","pricing_plan_id":"cebpf4jnsgd1na2vs0mg"},{"bike_id":"b4cb4e28-e514-44da-9db3-2c7d453900ef","system_id":"levelo_inurba_marseille","lat":43.28162,"lon":5.42669,"is_reserved":false,"is_disabled":false,"rental_uris":{"android":"levelo://app?vid=b4cb4e28-e514-44da-9db3-2c7d453900ef","ios":"levelo://app?vid=b4cb4e28-e514-44da-9db3-2c7d453900ef"},"vehicle_type_id":"4","last_reported":1743714559,"current_range_meters":9200,"station_id":"ce4bhnh2rcd13ifvqgug","pricing_plan_id":"cebpf4jnsgd1na2vs0mg"},{"bike_id":"e8f004e0-6d0f-41c6-a9b6-2ac722b5fcf2","system_id":"levelo_inurba_marseille","lat":43.29536,"lon":5.38542,"is_reserved":false,"is_disabled":false,"rental_uris":{"android":"levelo://app?vid=e8f004e0-6d0f-41c6-a9b6-2ac722b5fcf2","ios":"levelo://app?vid=e8f004e0-6d0f-41c6-a9b6-2ac722b5fcf2"},"vehicle_type_id":"4","last_reported":1743714559,"current_range_meters":9200,"station_id":"ce4bgih2rcd13ifvqba0","pricing_plan_id":"cebpf4jnsgd1na2vs0mg"},{"bike_id":"2635283e-ffd4-4c1f-b9e8-1b146ac4c8cc","system_id":"levelo_inurba_marseille","lat":43.30226,"lon":5.41912,"is_reserved":false,"is_disabled":false,"rental_uris":{"android":"levelo://app?vid=2635283e-ffd4-4c1f-b9e8-1b146ac4c8cc","ios":"levelo://app?vid=2635283e-ffd4-4c1f-b9e8-1b146ac4c8cc"},"vehicle_type_id":"4","last_reported":1743714559,"current_range_meters":9200,"station_id":"","pricing_plan_id":"cebpf4jnsgd1na2vs0mg"},{"bike_id":"c06beae8-c2a1-4bc8-a0a1-0f5da73b34c1","system_id":"levelo_inurba_marseille","lat":43.29443,"lon":5.3975,"is_reserved":false,"is_disabled":false,"rental_uris":{"android":"levelo://app?vid=c06beae8-c2a1-4bc8-a0a1-0f5da73b34c1","ios":"levelo://app?vid=c06beae8-c2a1-4bc8-a0a1-0f5da73b34c1"},"vehicle_type_id":"4","last_reported":1743714559,"current_range_meters":9200,"station_id":"ce4bh3h2rcd13ifvqdo0","pricing_plan_id":"cebpf4jnsgd1na2vs0mg"},{"bike_id":"0dac6cbf-70aa-4c5b-9bd6-89ce0f38fbc3","system_id":"levelo_inurba_marseille","lat":43.31283,"lon":5.37324,"is_reserved":false,"is_disabled":false,"rental_uris":{"android":"levelo://app?vid=0dac6cbf-70aa-4c5b-9bd6-89ce0f38fbc3","ios":"levelo://app?vid=0dac6cbf-70aa-4c5b-9bd6-89ce0f38fbc3"},"vehicle_type_id":"4","last_reported":1743714559,"current_range_meters":9200,"station_id":"","pricing_plan_id":"cebpf4jnsgd1na2vs0mg"},{"bike_id":"09acc38a-ce9e-4339-b410-bdafaf8d5a13","system_id":"levelo_inurba_marseille","lat":43.25085,"lon":5.39526,"is_reserved":false,"is_disabled":true,"rental_uris":{"android":"levelo://app?vid=09acc38a-ce9e-4339-b410-bdafaf8d5a13","ios":"levelo://app?vid=09acc38a-ce9e-4339-b410-bdafaf8d5a13"},"vehicle_type_id":"4","last_reported":1743714559,"current_range_meters":9200,"station_id":"ce4bhm12rcd13ifvqgkg","pricing_plan_id":"cebpf4jnsgd1na2vs0mg"},{"bike_id":"c13336a2-47ce-488c-b5b6-77c01a3ac1d1","system_id":"levelo_inurba_marseille","lat":43.31885,"lon":5.40738,"is_reserved":false,"is_disabled":true,"rental_uris":{"android":"levelo://app?vid=c13336a2-47ce-488c-b5b6-77c01a3ac1d1","ios":"levelo://app?vid=c13336a2-47ce-488c-b5b6-77c01a3ac1d1"},"vehicle_type_id":"4","last_reported":1743714559,"current_range_meters":9200,"station_id":"ce4bhq12rcd13ifvqhig","pricing_plan_id":"cebpf4jnsgd1na2vs0mg"},{"bike_id":"84909fdf-3511-4a60-9eab-b7c6709ed6f7","system_id":"levelo_inurba_marseille","lat":43.281117,"lon":5.378337,"is_reserved":false,"is_disabled":false,"rental_uris":{"android":"levelo://app?vid=84909fdf-3511-4a60-9eab-b7c6709ed6f7","ios":"levelo://app?vid=84909fdf-3511-4a60-9eab-b7c6709ed6f7"},"vehicle_type_id":"4","last_reported":1743714559,"current_range_meters":9200,"station_id":"ce4bha12rcd13ifvqee0","pricing_plan_id":"cebpf4jnsgd1na2vs0mg"},{"bike_id":"06c14053-3a7f-4851-bac2-ca082d400ea4","system_id":"levelo_inurba_marseille","lat":43.29425,"lon":5.38613,"is_reserved":false,"is_disabled":false,"rental_uris":{"android":"levelo://app?vid=06c14053-3a7f-4851-bac2-ca082d400ea4","ios":"levelo://app?vid=06c14053-3a7f-4851-bac2-ca082d400ea4"},"vehicle_type_id":"4","last_reported":1743714559,"current_range_meters":9600,"station_id":"ce4bh2h2rcd13ifvqdh0","pricing_plan_id":"cebpf4jnsgd1na2vs0mg"},{"bike_id":"47da3bff-3768-439d-ba2a-899af7453880","system_id":"levelo_inurba_marseille","lat":43.29572,"lon":5.39974,"is_reserved":false,"is_disabled":false,"rental_uris":{"android":"levelo://app?vid=47da3bff-3768-439d-ba2a-899af7453880","ios":"levelo://app?vid=47da3bff-3768-439d-ba2a-899af7453880"},"vehicle_type_id":"4","last_reported":1743714559,"current_range_meters":9600,"station_id":"ce4bh312rcd13ifvqdj0","pricing_plan_id":"cebpf4jnsgd1na2vs0mg"},{"bike_id":"81296a64-2b77-42f6-8329-c4c8f1f0969e","system_id":"levelo_inurba_marseille","lat":43.28353,"lon":5.38105,"is_reserved":false,"is_disabled":false,"rental_uris":{"android":"levelo://app?vid=81296a64-2b77-42f6-8329-c4c8f1f0969e","ios":"levelo://app?vid=81296a64-2b77-42f6-8329-c4c8f1f0969e"},"vehicle_type_id":"4","last_reported":1743714559,"current_range_meters":9600,"station_id":"ce4bh412rcd13ifvqdr0","pricing_plan_id":"cebpf4jnsgd1na2vs0mg"},{"bike_id":"3cf22d29-90b6-4c79-a643-886bc3743ca7","system_id":"levelo_inurba_marseille","lat":43.33395,"lon":5.40089,"is_reserved":false,"is_disabled":false,"rental_uris":{"android":"levelo://app?vid=3cf22d29-90b6-4c79-a643-886bc3743ca7","ios":"levelo://app?vid=3cf22d29-90b6-4c79-a643-886bc3743ca7"},"vehicle_type_id":"4","last_reported":1743714559,"current_range_meters":9600,"station_id":"","pricing_plan_id":"cebpf4jnsgd1na2vs0mg"},{"bike_id":"be19e26c-e8d6-41dc-9289-b6df129eb6b6","system_id":"levelo_inurba_marseille","lat":43.29272,"lon":5.40888,"is_reserved":false,"is_disabled":false,"rental_uris":{"android":"levelo://app?vid=be19e26c-e8d6-41dc-9289-b6df129eb6b6","ios":"levelo://app?vid=be19e26c-e8d6-41dc-9289-b6df129eb6b6"},"vehicle_type_id":"4","last_reported":1743714559,"current_range_meters":9600,"station_id":"ce4bh192rcd13ifvqdc0","pricing_plan_id":"cebpf4jnsgd1na2vs0mg"},{"bike_id":"1e242d48-9324-42ec-aad7-ae17d33a202b","system_id":"levelo_inurba_marseille","lat":43.29249,"lon":5.40901,"is_reserved":false,"is_disabled":false,"rental_uris":{"android":"levelo://app?vid=1e242d48-9324-42ec-aad7-ae17d33a202b","ios":"levelo://app?vid=1e242d48-9324-42ec-aad7-ae17d33a202b"},"vehicle_type_id":"4","last_reported":1743714559,"current_range_meters":9600,"station_id":"ce4bh192rcd13ifvqdc0","pricing_plan_id":"cebpf4jnsgd1na2vs0mg"},{"bike_id":"fed90ee5-22d0-448d-8f12-f29b1855e7c7","system_id":"levelo_inurba_marseille","lat":43.29443,"lon":5.39753,"is_reserved":false,"is_disabled":false,"rental_uris":{"android":"levelo://app?vid=fed90ee5-22d0-448d-8f12-f29b1855e7c7","ios":"levelo://app?vid=fed90ee5-22d0-448d-8f12-f29b1855e7c7"},"vehicle_type_id":"4","last_reported":1743714559,"current_range_meters":9200,"station_id":"ce4bh3h2rcd13ifvqdo0","pricing_plan_id":"cebpf4jnsgd1na2vs0mg"},{"bike_id":"e3a29d38-a611-4b12-87ef-2fb8a21c41d5","system_id":"levelo_inurba_marseille","lat":43.229382,"lon":5.353889,"is_reserved":false,"is_disabled":false,"rental_uris":{"android":"levelo://app?vid=e3a29d38-a611-4b12-87ef-2fb8a21c41d5","ios":"levelo://app?vid=e3a29d38-a611-4b12-87ef-2fb8a21c41d5"},"vehicle_type_id":"4","last_reported":1743714559,"current_range_meters":9600,"station_id":"cpo3532slgdg3j2ikp40","pricing_plan_id":"cebpf4jnsgd1na2vs0mg"},{"bike_id":"efddeda7-6eb2-4c14-868d-fa0ce0b35ef3","system_id":"levelo_inurba_marseille","lat":43.31304,"lon":5.38249,"is_reserved":false,"is_disabled":false,"rental_uris":{"android":"levelo://app?vid=efddeda7-6eb2-4c14-868d-fa0ce0b35ef3","ios":"levelo://app?vid=efddeda7-6eb2-4c14-868d-fa0ce0b35ef3"},"vehicle_type_id":"4","last_reported":1743714559,"current_range_meters":9600,"station_id":"","pricing_plan_id":"cebpf4jnsgd1na2vs0mg"},{"bike_id":"4d021dc5-da23-461e-96b2-594066586ca8","system_id":"levelo_inurba_marseille","lat":43.27964,"lon":5.4092,"is_reserved":false,"is_disabled":false,"rental_uris":{"android":"levelo://app?vid=4d021dc5-da23-461e-96b2-594066586ca8","ios":"levelo://app?vid=4d021dc5-da23-461e-96b2-594066586ca8"},"vehicle_type_id":"4","last_reported":1743714559,"current_range_meters":9600,"station_id":"","pricing_plan_id":"cebpf4jnsgd1na2vs0mg"},{"bike_id":"6b9e6fc8-338e-44b0-9539-c4206b8d9896","system_id":"levelo_inurba_marseille","lat":43.304243,"lon":5.3889,"is_reserved":false,"is_disabled":false,"rental_uris":{"android":"levelo://app?vid=6b9e6fc8-338e-44b0-9539-c4206b8d9896","ios":"levelo://app?vid=6b9e6fc8-338e-44b0-9539-c4206b8d9896"},"vehicle_type_id":"4","last_reported":1743714559,"current_range_meters":9600,"station_id":"ce4bgk12rcd13ifvqbi0","pricing_plan_id":"cebpf4jnsgd1na2vs0mg"},{"bike_id":"ad0327db-a879-4ab6-b7d0-8ac31dfe6b82","system_id":"levelo_inurba_marseille","lat":43.31712,"lon":5.37754,"is_reserved":false,"is_disabled":false,"rental_uris":{"android":"levelo://app?vid=ad0327db-a879-4ab6-b7d0-8ac31dfe6b82","ios":"levelo://app?vid=ad0327db-a879-4ab6-b7d0-8ac31dfe6b82"},"vehicle_type_id":"4","last_reported":1743714559,"current_range_meters":9600,"station_id":"ce4bgth2rcd13ifvqch0","pricing_plan_id":"cebpf4jnsgd1na2vs0mg"},{"bike_id":"63c19073-a7de-46ed-a396-8639743b910e","system_id":"levelo_inurba_marseille","lat":43.23215,"lon":5.35553,"is_reserved":false,"is_disabled":false,"rental_uris":{"android":"levelo://app?vid=63c19073-a7de-46ed-a396-8639743b910e","ios":"levelo://app?vid=63c19073-a7de-46ed-a396-8639743b910e"},"vehicle_type_id":"4","last_reported":1743714559,"current_range_meters":9600,"station_id":"ce4bhu92rcd13ifvqi70","pricing_plan_id":"cebpf4jnsgd1na2vs0mg"},{"bike_id":"e1c4ecee-6faa-4175-802d-6c4439755824","system_id":"levelo_inurba_marseille","lat":43.27886,"lon":5.37998,"is_reserved":false,"is_disabled":false,"rental_uris":{"android":"levelo://app?vid=e1c4ecee-6faa-4175-802d-6c4439755824","ios":"levelo://app?vid=e1c4ecee-6faa-4175-802d-6c4439755824"},"vehicle_type_id":"4","last_reported":1743714559,"current_range_meters":9600,"station_id":"ce4bhf92rcd13ifvqf50","pricing_plan_id":"cebpf4jnsgd1na2vs0mg"},{"bike_id":"55a458b5-99f0-4a0e-bf15-969bb5b742d8","system_id":"levelo_inurba_marseille","lat":43.31652,"lon":5.3946,"is_reserved":false,"is_disabled":false,"rental_uris":{"android":"levelo://app?vid=55a458b5-99f0-4a0e-bf15-969bb5b742d8","ios":"levelo://app?vid=55a458b5-99f0-4a0e-bf15-969bb5b742d8"},"vehicle_type_id":"4","last_reported":1743714559,"current_range_meters":9600,"station_id":"","pricing_plan_id":"cebpf4jnsgd1na2vs0mg"},{"bike_id":"c43552b7-49b6-433e-8d81-6e718df98ce7","system_id":"levelo_inurba_marseille","lat":43.29043,"lon":5.39957,"is_reserved":false,"is_disabled":false,"rental_uris":{"android":"levelo://app?vid=c43552b7-49b6-433e-8d81-6e718df98ce7","ios":"levelo://app?vid=c43552b7-49b6-433e-8d81-6e718df98ce7"},"vehicle_type_id":"4","last_reported":1743714559,"current_range_meters":10000,"station_id":"ce4bh392rcd13ifvqdm0","pricing_plan_id":"cebpf4jnsgd1na2vs0mg"},{"bike_id":"58ec8dd0-b7ad-49af-9c97-0d6b1c735873","system_id":"levelo_inurba_marseille","lat":43.288348,"lon":5.39281,"is_reserved":false,"is_disabled":false,"rental_uris":{"android":"levelo://app?vid=58ec8dd0-b7ad-49af-9c97-0d6b1c735873","ios":"levelo://app?vid=58ec8dd0-b7ad-49af-9c97-0d6b1c735873"},"vehicle_type_id":"4","last_reported":1743714559,"current_range_meters":10000,"station_id":"ce4bh2p2rcd13ifvqdi0","pricing_plan_id":"cebpf4jnsgd1na2vs0mg"},{"bike_id":"4765d0fd-8821-454e-ac67-0e7d34b746ee","system_id":"levelo_inurba_marseille","lat":43.30324,"lon":5.40437,"is_reserved":false,"is_disabled":false,"rental_uris":{"android":"levelo://app?vid=4765d0fd-8821-454e-ac67-0e7d34b746ee","ios":"levelo://app?vid=4765d0fd-8821-454e-ac67-0e7d34b746ee"},"vehicle_type_id":"4","last_reported":1743714559,"current_range_meters":10000,"station_id":"ce4bh012rcd13ifvqd10","pricing_plan_id":"cebpf4jnsgd1na2vs0mg"},{"bike_id":"c8253e81-cb66-45de-ac0c-4a5e00d6005b","system_id":"levelo_inurba_marseille","lat":43.28271,"lon":5.35058,"is_reserved":false,"is_disabled":false,"rental_uris":{"android":"levelo://app?vid=c8253e81-cb66-45de-ac0c-4a5e00d6005b","ios":"levelo://app?vid=c8253e81-cb66-45de-ac0c-4a5e00d6005b"},"vehicle_type_id":"4","last_reported":1743714559,"current_range_meters":9600,"station_id":"ce4bhbp2rcd13ifvqerg","pricing_plan_id":"cebpf4jnsgd1na2vs0mg"},{"bike_id":"db2e7a57-3ca4-4f6d-b555-a0eb07155750","system_id":"levelo_inurba_marseille","lat":43.24696,"lon":5.38128,"is_reserved":false,"is_disabled":false,"rental_uris":{"android":"levelo://app?vid=db2e7a57-3ca4-4f6d-b555-a0eb07155750","ios":"levelo://app?vid=db2e7a57-3ca4-4f6d-b555-a0eb07155750"},"vehicle_type_id":"4","last_reported":1743714559,"current_range_meters":10000,"station_id":"","pricing_plan_id":"cebpf4jnsgd1na2vs0mg"},{"bike_id":"c4a45ad7-9db7-470d-ae0b-d274e54f9a26","system_id":"levelo_inurba_marseille","lat":43.29802,"lon":5.381,"is_reserved":false,"is_disabled":false,"rental_uris":{"android":"levelo://app?vid=c4a45ad7-9db7-470d-ae0b-d274e54f9a26","ios":"levelo://app?vid=c4a45ad7-9db7-470d-ae0b-d274e54f9a26"},"vehicle_type_id":"4","last_reported":1743714559,"current_range_meters":10000,"station_id":"ce4bgip2rcd13ifvqbb0","pricing_plan_id":"cebpf4jnsgd1na2vs0mg"},{"bike_id":"df0f0ab0-3f24-46af-8e7f-c4d35e259912","system_id":"levelo_inurba_marseille","lat":43.27373,"lon":5.36251,"is_reserved":false,"is_disabled":false,"rental_uris":{"android":"levelo://app?vid=df0f0ab0-3f24-46af-8e7f-c4d35e259912","ios":"levelo://app?vid=df0f0ab0-3f24-46af-8e7f-c4d35e259912"},"vehicle_type_id":"4","last_reported":1743714559,"current_range_meters":9600,"station_id":"ce4bhbh2rcd13ifvqeo0","pricing_plan_id":"cebpf4jnsgd1na2vs0mg"},{"bike_id":"b4ab96b8-b55f-442c-98bf-22ba91464e26","system_id":"levelo_inurba_marseille","lat":43.31692,"lon":5.42417,"is_reserved":false,"is_disabled":false,"rental_uris":{"android":"levelo://app?vid=b4ab96b8-b55f-442c-98bf-22ba91464e26","ios":"levelo://app?vid=b4ab96b8-b55f-442c-98bf-22ba91464e26"},"vehicle_type_id":"4","last_reported":1743714559,"current_range_meters":10000,"station_id":"ce4bhp92rcd13ifvqhbg","pricing_plan_id":"cebpf4jnsgd1na2vs0mg"},{"bike_id":"ea456591-cbdf-4719-9203-cd6c7bfe996b","system_id":"levelo_inurba_marseille","lat":43.28435,"lon":5.39203,"is_reserved":false,"is_disabled":false,"rental_uris":{"android":"levelo://app?vid=ea456591-cbdf-4719-9203-cd6c7bfe996b","ios":"levelo://app?vid=ea456591-cbdf-4719-9203-cd6c7bfe996b"},"vehicle_type_id":"4","last_reported":1743714559,"current_range_meters":10000,"station_id":"ce4bhoh2rcd13ifvqh5g","pricing_plan_id":"cebpf4jnsgd1na2vs0mg"},{"bike_id":"1516276c-f609-4b9c-98fe-e1495e380f18","system_id":"levelo_inurba_marseille","lat":43.31088,"lon":5.42422,"is_reserved":false,"is_disabled":false,"rental_uris":{"android":"levelo://app?vid=1516276c-f609-4b9c-98fe-e1495e380f18","ios":"levelo://app?vid=1516276c-f609-4b9c-98fe-e1495e380f18"},"vehicle_type_id":"4","last_reported":1743714559,"current_range_meters":9600,"station_id":"ce4bhp92rcd13ifvqhag","pricing_plan_id":"cebpf4jnsgd1na2vs0mg"},{"bike_id":"a688b4f6-cbd3-4540-9afd-68e12e85ba02","system_id":"levelo_inurba_marseille","lat":43.28369,"lon":5.38047,"is_reserved":false,"is_disabled":false,"rental_uris":{"android":"levelo://app?vid=a688b4f6-cbd3-4540-9afd-68e12e85ba02","ios":"levelo://app?vid=a688b4f6-cbd3-4540-9afd-68e12e85ba02"},"vehicle_type_id":"4","last_reported":1743714559,"current_range_meters":10800,"station_id":"ce4bh412rcd13ifvqdr0","pricing_plan_id":"cebpf4jnsgd1na2vs0mg"},{"bike_id":"4051f30a-011f-46c0-b3a0-56a037e31b17","system_id":"levelo_inurba_marseille","lat":43.283966,"lon":5.380909,"is_reserved":false,"is_disabled":false,"rental_uris":{"android":"levelo://app?vid=4051f30a-011f-46c0-b3a0-56a037e31b17","ios":"levelo://app?vid=4051f30a-011f-46c0-b3a0-56a037e31b17"},"vehicle_type_id":"4","last_reported":1743714559,"current_range_meters":10800,"station_id":"ce4bh192rcd13ifvqdc0","pricing_plan_id":"cebpf4jnsgd1na2vs0mg"},{"bike_id":"0abde5e2-74e1-4013-8059-a13bb6ad778b","system_id":"levelo_inurba_marseille","lat":43.271531,"lon":5.362866,"is_reserved":false,"is_disabled":false,"rental_uris":{"android":"levelo://app?vid=0abde5e2-74e1-4013-8059-a13bb6ad778b","ios":"levelo://app?vid=0abde5e2-74e1-4013-8059-a13bb6ad778b"},"vehicle_type_id":"4","last_reported":1743714559,"current_range_meters":10800,"station_id":"ce4bhg12rcd13ifvqf70","pricing_plan_id":"cebpf4jnsgd1na2vs0mg"},{"bike_id":"7400930a-fc94-4d00-971f-c064f208ab03","system_id":"levelo_inurba_marseille","lat":43.29625,"lon":5.40599,"is_reserved":false,"is_disabled":false,"rental_uris":{"android":"levelo://app?vid=7400930a-fc94-4d00-971f-c064f208ab03","ios":"levelo://app?vid=7400930a-fc94-4d00-971f-c064f208ab03"},"vehicle_type_id":"4","last_reported":1743714559,"current_range_meters":10000,"station_id":"ce4bh0h2rcd13ifvqd60","pricing_plan_id":"cebpf4jnsgd1na2vs0mg"},{"bike_id":"63139285-137c-4e8d-8e95-6c2a275f8333","system_id":"levelo_inurba_marseille","lat":43.32114,"lon":5.36754,"is_reserved":false,"is_disabled":false,"rental_uris":{"android":"levelo://app?vid=63139285-137c-4e8d-8e95-6c2a275f8333","ios":"levelo://app?vid=63139285-137c-4e8d-8e95-6c2a275f8333"},"vehicle_type_id":"4","last_reported":1743714559,"current_range_meters":10800,"station_id":"ce4bhrh2rcd13ifvqhug","pricing_plan_id":"cebpf4jnsgd1na2vs0mg"},{"bike_id":"069feb28-9c06-4535-8070-12f86469d30d","system_id":"levelo_inurba_marseille","lat":43.28435,"lon":5.34976,"is_reserved":false,"is_disabled":false,"rental_uris":{"android":"levelo://app?vid=069feb28-9c06-4535-8070-12f86469d30d","ios":"levelo://app?vid=069feb28-9c06-4535-8070-12f86469d30d"},"vehicle_type_id":"4","last_reported":1743714559,"current_range_meters":10800,"station_id":"ce4bhbh2rcd13ifvqepg","pricing_plan_id":"cebpf4jnsgd1na2vs0mg"},{"bike_id":"2371c819-1b42-4263-a224-dd1db83d67d0","system_id":"levelo_inurba_marseille","lat":43.2791,"lon":5.38009,"is_reserved":false,"is_disabled":false,"rental_uris":{"android":"levelo://app?vid=2371c819-1b42-4263-a224-dd1db83d67d0","ios":"levelo://app?vid=2371c819-1b42-4263-a224-dd1db83d67d0"},"vehicle_type_id":"4","last_reported":1743714559,"current_range_meters":10800,"station_id":"ce4bhf92rcd13ifvqf50","pricing_plan_id":"cebpf4jnsgd1na2vs0mg"},{"bike_id":"bc6ac74e-e94f-4f0e-ae0a-9a4cd80259ae","system_id":"levelo_inurba_marseille","lat":43.2694,"lon":5.40243,"is_reserved":false,"is_disabled":false,"rental_uris":{"android":"levelo://app?vid=bc6ac74e-e94f-4f0e-ae0a-9a4cd80259ae","ios":"levelo://app?vid=bc6ac74e-e94f-4f0e-ae0a-9a4cd80259ae"},"vehicle_type_id":"4","last_reported":1743714559,"current_range_meters":10800,"station_id":"cjm6bp8fraef2m0cb0m0","pricing_plan_id":"cebpf4jnsgd1na2vs0mg"},{"bike_id":"b6eaab54-9dca-4585-9f44-4866e79215d9","system_id":"levelo_inurba_marseille","lat":43.2893,"lon":5.36628,"is_reserved":false,"is_disabled":false,"rental_uris":{"android":"levelo://app?vid=b6eaab54-9dca-4585-9f44-4866e79215d9","ios":"levelo://app?vid=b6eaab54-9dca-4585-9f44-4866e79215d9"},"vehicle_type_id":"4","last_reported":1743714559,"current_range_meters":10800,"station_id":"ce4bhap2rcd13ifvqek0","pricing_plan_id":"cebpf4jnsgd1na2vs0mg"},{"bike_id":"561d0531-84a6-4234-8476-3c035e0e1017","system_id":"levelo_inurba_marseille","lat":43.28738,"lon":5.39951,"is_reserved":false,"is_disabled":false,"rental_uris":{"android":"levelo://app?vid=561d0531-84a6-4234-8476-3c035e0e1017","ios":"levelo://app?vid=561d0531-84a6-4234-8476-3c035e0e1017"},"vehicle_type_id":"4","last_reported":1743714559,"current_range_meters":11200,"station_id":"ce4bho92rcd13ifvqh3g","pricing_plan_id":"cebpf4jnsgd1na2vs0mg"},{"bike_id":"0b88ccf3-9ffa-4517-a262-a42fd565186e","system_id":"levelo_inurba_marseille","lat":43.28431,"lon":5.34969,"is_reserved":false,"is_disabled":false,"rental_uris":{"android":"levelo://app?vid=0b88ccf3-9ffa-4517-a262-a42fd565186e","ios":"levelo://app?vid=0b88ccf3-9ffa-4517-a262-a42fd565186e"},"vehicle_type_id":"4","last_reported":1743714559,"current_range_meters":11200,"station_id":"ce4bhbh2rcd13ifvqepg","pricing_plan_id":"cebpf4jnsgd1na2vs0mg"},{"bike_id":"da3649e0-2b6f-425e-ac75-d70497e5c37e","system_id":"levelo_inurba_marseille","lat":43.29641,"lon":5.40601,"is_reserved":false,"is_disabled":false,"rental_uris":{"android":"levelo://app?vid=da3649e0-2b6f-425e-ac75-d70497e5c37e","ios":"levelo://app?vid=da3649e0-2b6f-425e-ac75-d70497e5c37e"},"vehicle_type_id":"4","last_reported":1743714559,"current_range_meters":11200,"station_id":"ce4bh0h2rcd13ifvqd60","pricing_plan_id":"cebpf4jnsgd1na2vs0mg"},{"bike_id":"becd4d9c-f5b2-4018-aadd-5312c9b4ec50","system_id":"levelo_inurba_marseille","lat":43.23986,"lon":5.36607,"is_reserved":false,"is_disabled":false,"rental_uris":{"android":"levelo://app?vid=becd4d9c-f5b2-4018-aadd-5312c9b4ec50","ios":"levelo://app?vid=becd4d9c-f5b2-4018-aadd-5312c9b4ec50"},"vehicle_type_id":"4","last_reported":1743714559,"current_range_meters":11200,"station_id":"ce4bhi12rcd13ifvqfp0","pricing_plan_id":"cebpf4jnsgd1na2vs0mg"},{"bike_id":"42a62652-6ed6-4567-b9d6-bf7354a5754b","system_id":"levelo_inurba_marseille","lat":43.24389,"lon":5.37058,"is_reserved":false,"is_disabled":false,"rental_uris":{"android":"levelo://app?vid=42a62652-6ed6-4567-b9d6-bf7354a5754b","ios":"levelo://app?vid=42a62652-6ed6-4567-b9d6-bf7354a5754b"},"vehicle_type_id":"4","last_reported":1743714559,"current_range_meters":11200,"station_id":"ce4bhhh2rcd13ifvqfk0","pricing_plan_id":"cebpf4jnsgd1na2vs0mg"},{"bike_id":"3f5ebb30-dcf6-4b00-8b80-13aa84fc699f","system_id":"levelo_inurba_marseille","lat":43.30152,"lon":5.38085,"is_reserved":false,"is_disabled":false,"rental_uris":{"android":"levelo://app?vid=3f5ebb30-dcf6-4b00-8b80-13aa84fc699f","ios":"levelo://app?vid=3f5ebb30-dcf6-4b00-8b80-13aa84fc699f"},"vehicle_type_id":"4","last_reported":1743714559,"current_range_meters":11200,"station_id":"ce4bgjp2rcd13ifvqbh0","pricing_plan_id":"cebpf4jnsgd1na2vs0mg"},{"bike_id":"de31a44e-22d3-4bc1-9fe8-5f2cc42057d4","system_id":"levelo_inurba_marseille","lat":43.24388,"lon":5.37061,"is_reserved":false,"is_disabled":false,"rental_uris":{"android":"levelo://app?vid=de31a44e-22d3-4bc1-9fe8-5f2cc42057d4","ios":"levelo://app?vid=de31a44e-22d3-4bc1-9fe8-5f2cc42057d4"},"vehicle_type_id":"4","last_reported":1743714559,"current_range_meters":11200,"station_id":"ce4bhhh2rcd13ifvqfk0","pricing_plan_id":"cebpf4jnsgd1na2vs0mg"},{"bike_id":"5f46717b-05d1-4f34-a220-8087932d755b","system_id":"levelo_inurba_marseille","lat":43.30101,"lon":5.36951,"is_reserved":false,"is_disabled":false,"rental_uris":{"android":"levelo://app?vid=5f46717b-05d1-4f34-a220-8087932d755b","ios":"levelo://app?vid=5f46717b-05d1-4f34-a220-8087932d755b"},"vehicle_type_id":"4","last_reported":1743714559,"current_range_meters":11200,"station_id":"","pricing_plan_id":"cebpf4jnsgd1na2vs0mg"},{"bike_id":"98de9e78-c472-4a44-aea3-ca40a89f3a1b","system_id":"levelo_inurba_marseille","lat":43.3253,"lon":5.41454,"is_reserved":false,"is_disabled":false,"rental_uris":{"android":"levelo://app?vid=98de9e78-c472-4a44-aea3-ca40a89f3a1b","ios":"levelo://app?vid=98de9e78-c472-4a44-aea3-ca40a89f3a1b"},"vehicle_type_id":"4","last_reported":1743714559,"current_range_meters":11200,"station_id":"ce4bhq12rcd13ifvqhhg","pricing_plan_id":"cebpf4jnsgd1na2vs0mg"},{"bike_id":"2dc39108-6e9f-4ab8-a822-e50b93d7ae22","system_id":"levelo_inurba_marseille","lat":43.28687,"lon":5.38666,"is_reserved":false,"is_disabled":false,"rental_uris":{"android":"levelo://app?vid=2dc39108-6e9f-4ab8-a822-e50b93d7ae22","ios":"levelo://app?vid=2dc39108-6e9f-4ab8-a822-e50b93d7ae22"},"vehicle_type_id":"4","last_reported":1743714559,"current_range_meters":11200,"station_id":"ce4bh492rcd13ifvqdug","pricing_plan_id":"cebpf4jnsgd1na2vs0mg"},{"bike_id":"69c0db05-6ded-4dc6-9720-2452c83c1020","system_id":"levelo_inurba_marseille","lat":43.22943,"lon":5.35396,"is_reserved":false,"is_disabled":false,"rental_uris":{"android":"levelo://app?vid=69c0db05-6ded-4dc6-9720-2452c83c1020","ios":"levelo://app?vid=69c0db05-6ded-4dc6-9720-2452c83c1020"},"vehicle_type_id":"4","last_reported":1743714559,"current_range_meters":11600,"station_id":"cpo3532slgdg3j2ikp40","pricing_plan_id":"cebpf4jnsgd1na2vs0mg"},{"bike_id":"f320bcfd-d3a7-4746-b26f-e416beaa874d","system_id":"levelo_inurba_marseille","lat":43.31536,"lon":5.38047,"is_reserved":false,"is_disabled":false,"rental_uris":{"android":"levelo://app?vid=f320bcfd-d3a7-4746-b26f-e416beaa874d","ios":"levelo://app?vid=f320bcfd-d3a7-4746-b26f-e416beaa874d"},"vehicle_type_id":"4","last_reported":1743714559,"current_range_meters":11600,"station_id":"ce4bhsp2rcd13ifvqi50","pricing_plan_id":"cebpf4jnsgd1na2vs0mg"},{"bike_id":"a3929751-633a-4e5c-ae70-c2be5b95fdfe","system_id":"levelo_inurba_marseille","lat":43.29964,"lon":5.38503,"is_reserved":false,"is_disabled":true,"rental_uris":{"android":"levelo://app?vid=a3929751-633a-4e5c-ae70-c2be5b95fdfe","ios":"levelo://app?vid=a3929751-633a-4e5c-ae70-c2be5b95fdfe"},"vehicle_type_id":"4","last_reported":1743714559,"current_range_meters":11600,"station_id":"ce4bgj92rcd13ifvqbd0","pricing_plan_id":"cebpf4jnsgd1na2vs0mg"},{"bike_id":"a916a6ba-d076-42b0-a4ae-e67da4336aba","system_id":"levelo_inurba_marseille","lat":43.28862,"lon":5.35845,"is_reserved":false,"is_disabled":false,"rental_uris":{"android":"levelo://app?vid=a916a6ba-d076-42b0-a4ae-e67da4336aba","ios":"levelo://app?vid=a916a6ba-d076-42b0-a4ae-e67da4336aba"},"vehicle_type_id":"4","last_reported":1743714559,"current_range_meters":11600,"station_id":"ce4bhb12rcd13ifvqem0","pricing_plan_id":"cebpf4jnsgd1na2vs0mg"},{"bike_id":"4e68dd37-5c68-4401-9d3e-83a00e605018","system_id":"levelo_inurba_marseille","lat":43.30883,"lon":5.396532,"is_reserved":false,"is_disabled":false,"rental_uris":{"android":"levelo://app?vid=4e68dd37-5c68-4401-9d3e-83a00e605018","ios":"levelo://app?vid=4e68dd37-5c68-4401-9d3e-83a00e605018"},"vehicle_type_id":"4","last_reported":1743714559,"current_range_meters":11600,"station_id":"ce4bh012rcd13ifvqcv0","pricing_plan_id":"cebpf4jnsgd1na2vs0mg"},{"bike_id":"f7aeafde-4dc6-442c-8995-5a0b77ef5586","system_id":"levelo_inurba_marseille","lat":43.284429,"lon":5.392062,"is_reserved":false,"is_disabled":false,"rental_uris":{"android":"levelo://app?vid=f7aeafde-4dc6-442c-8995-5a0b77ef5586","ios":"levelo://app?vid=f7aeafde-4dc6-442c-8995-5a0b77ef5586"},"vehicle_type_id":"4","last_reported":1743714559,"current_range_meters":11200,"station_id":"ce4bgkp2rcd13ifvqbmg","pricing_plan_id":"cebpf4jnsgd1na2vs0mg"},{"bike_id":"a2cc56b1-ff5c-4d49-8794-6951d2d93f41","system_id":"levelo_inurba_marseille","lat":43.2396,"lon":5.36623,"is_reserved":false,"is_disabled":false,"rental_uris":{"android":"levelo://app?vid=a2cc56b1-ff5c-4d49-8794-6951d2d93f41","ios":"levelo://app?vid=a2cc56b1-ff5c-4d49-8794-6951d2d93f41"},"vehicle_type_id":"4","last_reported":1743714559,"current_range_meters":12000,"station_id":"ce4bhi12rcd13ifvqfp0","pricing_plan_id":"cebpf4jnsgd1na2vs0mg"},{"bike_id":"12a4927d-7630-458e-8378-d7c426acbf93","system_id":"levelo_inurba_marseille","lat":43.29414,"lon":5.38616,"is_reserved":false,"is_disabled":false,"rental_uris":{"android":"levelo://app?vid=12a4927d-7630-458e-8378-d7c426acbf93","ios":"levelo://app?vid=12a4927d-7630-458e-8378-d7c426acbf93"},"vehicle_type_id":"4","last_reported":1743714559,"current_range_meters":12000,"station_id":"ce4bh2h2rcd13ifvqdh0","pricing_plan_id":"cebpf4jnsgd1na2vs0mg"},{"bike_id":"239bf79c-fd08-4264-ade6-4c76653660d1","system_id":"levelo_inurba_marseille","lat":43.31485,"lon":5.37305,"is_reserved":false,"is_disabled":false,"rental_uris":{"android":"levelo://app?vid=239bf79c-fd08-4264-ade6-4c76653660d1","ios":"levelo://app?vid=239bf79c-fd08-4264-ade6-4c76653660d1"},"vehicle_type_id":"4","last_reported":1743714559,"current_range_meters":12000,"station_id":"ce4bgt12rcd13ifvqcd0","pricing_plan_id":"cebpf4jnsgd1na2vs0mg"},{"bike_id":"55371b69-a755-42fb-ad31-d824d2d23d1f","system_id":"levelo_inurba_marseille","lat":43.30324,"lon":5.40433,"is_reserved":false,"is_disabled":false,"rental_uris":{"android":"levelo://app?vid=55371b69-a755-42fb-ad31-d824d2d23d1f","ios":"levelo://app?vid=55371b69-a755-42fb-ad31-d824d2d23d1f"},"vehicle_type_id":"4","last_reported":1743714559,"current_range_meters":12000,"station_id":"ce4bh012rcd13ifvqd10","pricing_plan_id":"cebpf4jnsgd1na2vs0mg"},{"bike_id":"c2a968f0-2373-4ad7-a20a-ac59745900cc","system_id":"levelo_inurba_marseille","lat":43.25726,"lon":5.41115,"is_reserved":false,"is_disabled":false,"rental_uris":{"android":"levelo://app?vid=c2a968f0-2373-4ad7-a20a-ac59745900cc","ios":"levelo://app?vid=c2a968f0-2373-4ad7-a20a-ac59745900cc"},"vehicle_type_id":"4","last_reported":1743714559,"current_range_meters":12000,"station_id":"ce4bhkp2rcd13ifvqgd0","pricing_plan_id":"cebpf4jnsgd1na2vs0mg"},{"bike_id":"ff1301e1-0d63-44b3-bce2-273444a65096","system_id":"levelo_inurba_marseille","lat":43.29222,"lon":5.38441,"is_reserved":false,"is_disabled":false,"rental_uris":{"android":"levelo://app?vid=ff1301e1-0d63-44b3-bce2-273444a65096","ios":"levelo://app?vid=ff1301e1-0d63-44b3-bce2-273444a65096"},"vehicle_type_id":"4","last_reported":1743714559,"current_range_meters":12000,"station_id":"ce4bh692rcd13ifvqea0","pricing_plan_id":"cebpf4jnsgd1na2vs0mg"},{"bike_id":"998d479b-d8b9-466f-a388-673d59012d2a","system_id":"levelo_inurba_marseille","lat":43.2965,"lon":5.40581,"is_reserved":false,"is_disabled":false,"rental_uris":{"android":"levelo://app?vid=998d479b-d8b9-466f-a388-673d59012d2a","ios":"levelo://app?vid=998d479b-d8b9-466f-a388-673d59012d2a"},"vehicle_type_id":"4","last_reported":1743714559,"current_range_meters":12000,"station_id":"ce4bh0h2rcd13ifvqd60","pricing_plan_id":"cebpf4jnsgd1na2vs0mg"},{"bike_id":"a0d78dc5-0522-43b9-90e0-a641910d4a98","system_id":"levelo_inurba_marseille","lat":43.287177,"lon":5.379443,"is_reserved":false,"is_disabled":false,"rental_uris":{"android":"levelo://app?vid=a0d78dc5-0522-43b9-90e0-a641910d4a98","ios":"levelo://app?vid=a0d78dc5-0522-43b9-90e0-a641910d4a98"},"vehicle_type_id":"4","last_reported":1743714559,"current_range_meters":12400,"station_id":"ce4bh9p2rcd13ifvqec0","pricing_plan_id":"cebpf4jnsgd1na2vs0mg"},{"bike_id":"a1bb87c9-05c0-422e-b4ff-d4468859376f","system_id":"levelo_inurba_marseille","lat":43.28152,"lon":5.42645,"is_reserved":false,"is_disabled":false,"rental_uris":{"android":"levelo://app?vid=a1bb87c9-05c0-422e-b4ff-d4468859376f","ios":"levelo://app?vid=a1bb87c9-05c0-422e-b4ff-d4468859376f"},"vehicle_type_id":"4","last_reported":1743714559,"current_range_meters":12400,"station_id":"ce4bhnh2rcd13ifvqgug","pricing_plan_id":"cebpf4jnsgd1na2vs0mg"},{"bike_id":"199364de-c886-4885-9f07-0156b4652438","system_id":"levelo_inurba_marseille","lat":43.29929,"lon":5.36543,"is_reserved":false,"is_disabled":false,"rental_uris":{"android":"levelo://app?vid=199364de-c886-4885-9f07-0156b4652438","ios":"levelo://app?vid=199364de-c886-4885-9f07-0156b4652438"},"vehicle_type_id":"4","last_reported":1743714559,"current_range_meters":12400,"station_id":"ce4bgm92rcd13ifvqbr0","pricing_plan_id":"cebpf4jnsgd1na2vs0mg"},{"bike_id":"2907afc2-01ac-4aec-9b08-c3a75d8347bc","system_id":"levelo_inurba_marseille","lat":43.26222,"lon":5.40449,"is_reserved":false,"is_disabled":false,"rental_uris":{"android":"levelo://app?vid=2907afc2-01ac-4aec-9b08-c3a75d8347bc","ios":"levelo://app?vid=2907afc2-01ac-4aec-9b08-c3a75d8347bc"},"vehicle_type_id":"4","last_reported":1743714559,"current_range_meters":12400,"station_id":"ce4bhmh2rcd13ifvqgmg","pricing_plan_id":"cebpf4jnsgd1na2vs0mg"},{"bike_id":"0f30dc72-745c-4206-bc59-afb6cb600956","system_id":"levelo_inurba_marseille","lat":43.29907,"lon":5.48582,"is_reserved":false,"is_disabled":false,"rental_uris":{"android":"levelo://app?vid=0f30dc72-745c-4206-bc59-afb6cb600956","ios":"levelo://app?vid=0f30dc72-745c-4206-bc59-afb6cb600956"},"vehicle_type_id":"4","last_reported":1743714559,"current_range_meters":12400,"station_id":"","pricing_plan_id":"cebpf4jnsgd1na2vs0mg"},{"bike_id":"98c952e9-dab2-4620-82fc-82fe9fbeb329","system_id":"levelo_inurba_marseille","lat":43.29525,"lon":5.3855,"is_reserved":false,"is_disabled":false,"rental_uris":{"android":"levelo://app?vid=98c952e9-dab2-4620-82fc-82fe9fbeb329","ios":"levelo://app?vid=98c952e9-dab2-4620-82fc-82fe9fbeb329"},"vehicle_type_id":"4","last_reported":1743714559,"current_range_meters":12400,"station_id":"ce4bgih2rcd13ifvqba0","pricing_plan_id":"cebpf4jnsgd1na2vs0mg"},{"bike_id":"5930c02f-c576-489b-b748-5a6ea8daa80b","system_id":"levelo_inurba_marseille","lat":43.33618,"lon":5.41032,"is_reserved":false,"is_disabled":false,"rental_uris":{"android":"levelo://app?vid=5930c02f-c576-489b-b748-5a6ea8daa80b","ios":"levelo://app?vid=5930c02f-c576-489b-b748-5a6ea8daa80b"},"vehicle_type_id":"4","last_reported":1743714559,"current_range_meters":12000,"station_id":"ce4bhqh2rcd13ifvqhmg","pricing_plan_id":"cebpf4jnsgd1na2vs0mg"},{"bike_id":"d6d80562-1e3c-4a9a-ab45-0eed6d0473d0","system_id":"levelo_inurba_marseille","lat":43.29271,"lon":5.36834,"is_reserved":false,"is_disabled":false,"rental_uris":{"android":"levelo://app?vid=d6d80562-1e3c-4a9a-ab45-0eed6d0473d0","ios":"levelo://app?vid=d6d80562-1e3c-4a9a-ab45-0eed6d0473d0"},"vehicle_type_id":"4","last_reported":1743714559,"current_range_meters":12400,"station_id":"ce4bhbp2rcd13ifvqesg","pricing_plan_id":"cebpf4jnsgd1na2vs0mg"},{"bike_id":"d4f10a8c-e63e-4a04-940c-dcfa76aac3c2","system_id":"levelo_inurba_marseille","lat":43.28407,"lon":5.37521,"is_reserved":false,"is_disabled":false,"rental_uris":{"android":"levelo://app?vid=d4f10a8c-e63e-4a04-940c-dcfa76aac3c2","ios":"levelo://app?vid=d4f10a8c-e63e-4a04-940c-dcfa76aac3c2"},"vehicle_type_id":"4","last_reported":1743714559,"current_range_meters":12400,"station_id":"ce4bh412rcd13ifvqds0","pricing_plan_id":"cebpf4jnsgd1na2vs0mg"},{"bike_id":"f1e5f20d-e5bb-4349-9a72-f7ab8a004414","system_id":"levelo_inurba_marseille","lat":43.303232,"lon":5.404404,"is_reserved":false,"is_disabled":true,"rental_uris":{"android":"levelo://app?vid=f1e5f20d-e5bb-4349-9a72-f7ab8a004414","ios":"levelo://app?vid=f1e5f20d-e5bb-4349-9a72-f7ab8a004414"},"vehicle_type_id":"4","last_reported":1743714559,"current_range_meters":12400,"station_id":"ce4bh012rcd13ifvqd10","pricing_plan_id":"cebpf4jnsgd1na2vs0mg"},{"bike_id":"315a188f-34c4-4ccc-bf31-92868b8c117b","system_id":"levelo_inurba_marseille","lat":43.31312,"lon":5.39711,"is_reserved":false,"is_disabled":false,"rental_uris":{"android":"levelo://app?vid=315a188f-34c4-4ccc-bf31-92868b8c117b","ios":"levelo://app?vid=315a188f-34c4-4ccc-bf31-92868b8c117b"},"vehicle_type_id":"4","last_reported":1743714559,"current_range_meters":12400,"station_id":"ce4bgvp2rcd13ifvqcu0","pricing_plan_id":"cebpf4jnsgd1na2vs0mg"},{"bike_id":"0da307f0-a737-4f3f-8786-4dd451d57e79","system_id":"levelo_inurba_marseille","lat":43.30898,"lon":5.36715,"is_reserved":false,"is_disabled":false,"rental_uris":{"android":"levelo://app?vid=0da307f0-a737-4f3f-8786-4dd451d57e79","ios":"levelo://app?vid=0da307f0-a737-4f3f-8786-4dd451d57e79"},"vehicle_type_id":"4","last_reported":1743714559,"current_range_meters":12800,"station_id":"","pricing_plan_id":"cebpf4jnsgd1na2vs0mg"},{"bike_id":"58ca22fb-77b9-4789-b9d9-7865abdbae86","system_id":"levelo_inurba_marseille","lat":43.28344,"lon":5.38106,"is_reserved":false,"is_disabled":false,"rental_uris":{"android":"levelo://app?vid=58ca22fb-77b9-4789-b9d9-7865abdbae86","ios":"levelo://app?vid=58ca22fb-77b9-4789-b9d9-7865abdbae86"},"vehicle_type_id":"4","last_reported":1743714559,"current_range_meters":12800,"station_id":"ce4bh412rcd13ifvqdr0","pricing_plan_id":"cebpf4jnsgd1na2vs0mg"},{"bike_id":"9836091a-2d51-4392-b17d-be7ae041bb3a","system_id":"levelo_inurba_marseille","lat":43.29711,"lon":5.36598,"is_reserved":false,"is_disabled":false,"rental_uris":{"android":"levelo://app?vid=9836091a-2d51-4392-b17d-be7ae041bb3a","ios":"levelo://app?vid=9836091a-2d51-4392-b17d-be7ae041bb3a"},"vehicle_type_id":"4","last_reported":1743714559,"current_range_meters":12800,"station_id":"ce4bgn12rcd13ifvqbt0","pricing_plan_id":"cebpf4jnsgd1na2vs0mg"},{"bike_id":"ed034283-1492-4da7-9409-35bdead80f30","system_id":"levelo_inurba_marseille","lat":43.3015,"lon":5.38774,"is_reserved":false,"is_disabled":true,"rental_uris":{"android":"levelo://app?vid=ed034283-1492-4da7-9409-35bdead80f30","ios":"levelo://app?vid=ed034283-1492-4da7-9409-35bdead80f30"},"vehicle_type_id":"4","last_reported":1743714559,"current_range_meters":13600,"station_id":"ce4bghh2rcd13ifvqb60","pricing_plan_id":"cebpf4jnsgd1na2vs0mg"},{"bike_id":"19224d95-e048-4cbb-8884-43e0e6b3db9b","system_id":"levelo_inurba_marseille","lat":43.29886,"lon":5.39748,"is_reserved":false,"is_disabled":true,"rental_uris":{"android":"levelo://app?vid=19224d95-e048-4cbb-8884-43e0e6b3db9b","ios":"levelo://app?vid=19224d95-e048-4cbb-8884-43e0e6b3db9b"},"vehicle_type_id":"4","last_reported":1743714559,"current_range_meters":12800,"station_id":"ce4bh0h2rcd13ifvqd50","pricing_plan_id":"cebpf4jnsgd1na2vs0mg"},{"bike_id":"4463428e-f6c6-494a-931b-3e1bc5011a61","system_id":"levelo_inurba_marseille","lat":43.29271,"lon":5.38424,"is_reserved":false,"is_disabled":false,"rental_uris":{"android":"levelo://app?vid=4463428e-f6c6-494a-931b-3e1bc5011a61","ios":"levelo://app?vid=4463428e-f6c6-494a-931b-3e1bc5011a61"},"vehicle_type_id":"4","last_reported":1743714559,"current_range_meters":12800,"station_id":"ce4bh692rcd13ifvqea0","pricing_plan_id":"cebpf4jnsgd1na2vs0mg"},{"bike_id":"6cf70fc4-4381-427a-93cd-2a8bd8f2f2e6","system_id":"levelo_inurba_marseille","lat":43.28456,"lon":5.3588,"is_reserved":false,"is_disabled":false,"rental_uris":{"android":"levelo://app?vid=6cf70fc4-4381-427a-93cd-2a8bd8f2f2e6","ios":"levelo://app?vid=6cf70fc4-4381-427a-93cd-2a8bd8f2f2e6"},"vehicle_type_id":"4","last_reported":1743714559,"current_range_meters":12800,"station_id":"ce4bhah2rcd13ifvqei0","pricing_plan_id":"cebpf4jnsgd1na2vs0mg"},{"bike_id":"65c86302-8ef0-46f4-ab6e-bac7149a2865","system_id":"levelo_inurba_marseille","lat":43.32105,"lon":5.36793,"is_reserved":false,"is_disabled":false,"rental_uris":{"android":"levelo://app?vid=65c86302-8ef0-46f4-ab6e-bac7149a2865","ios":"levelo://app?vid=65c86302-8ef0-46f4-ab6e-bac7149a2865"},"vehicle_type_id":"4","last_reported":1743714559,"current_range_meters":12800,"station_id":"ce4bhrh2rcd13ifvqhug","pricing_plan_id":"cebpf4jnsgd1na2vs0mg"},{"bike_id":"74a13a18-430a-4f50-ba26-e7dfbad23482","system_id":"levelo_inurba_marseille","lat":43.23054,"lon":5.35481,"is_reserved":false,"is_disabled":false,"rental_uris":{"android":"levelo://app?vid=74a13a18-430a-4f50-ba26-e7dfbad23482","ios":"levelo://app?vid=74a13a18-430a-4f50-ba26-e7dfbad23482"},"vehicle_type_id":"4","last_reported":1743714559,"current_range_meters":12800,"station_id":"cpo3342slgdg3j2ifvpg","pricing_plan_id":"cebpf4jnsgd1na2vs0mg"},{"bike_id":"9396f31d-e485-4f45-a818-9888089b5bb6","system_id":"levelo_inurba_marseille","lat":43.23192,"lon":5.35565,"is_reserved":false,"is_disabled":false,"rental_uris":{"android":"levelo://app?vid=9396f31d-e485-4f45-a818-9888089b5bb6","ios":"levelo://app?vid=9396f31d-e485-4f45-a818-9888089b5bb6"},"vehicle_type_id":"4","last_reported":1743714559,"current_range_meters":12800,"station_id":"ce4bhu92rcd13ifvqi70","pricing_plan_id":"cebpf4jnsgd1na2vs0mg"},{"bike_id":"19c7466c-295f-467b-8b28-c6263362cd6e","system_id":"levelo_inurba_marseille","lat":43.30137,"lon":5.39851,"is_reserved":false,"is_disabled":false,"rental_uris":{"android":"levelo://app?vid=19c7466c-295f-467b-8b28-c6263362cd6e","ios":"levelo://app?vid=19c7466c-295f-467b-8b28-c6263362cd6e"},"vehicle_type_id":"4","last_reported":1743714559,"current_range_meters":13600,"station_id":"ce4bh0h2rcd13ifvqd40","pricing_plan_id":"cebpf4jnsgd1na2vs0mg"},{"bike_id":"3a0b0f90-790c-4160-b50c-b4d5547d0490","system_id":"levelo_inurba_marseille","lat":43.30389,"lon":5.42447,"is_reserved":false,"is_disabled":false,"rental_uris":{"android":"levelo://app?vid=3a0b0f90-790c-4160-b50c-b4d5547d0490","ios":"levelo://app?vid=3a0b0f90-790c-4160-b50c-b4d5547d0490"},"vehicle_type_id":"4","last_reported":1743714559,"current_range_meters":13600,"station_id":"ce4bghh2rcd13ifvqb60","pricing_plan_id":"cebpf4jnsgd1na2vs0mg"},{"bike_id":"2fec47fa-8d9a-4f32-889e-abe54dcffdf3","system_id":"levelo_inurba_marseille","lat":43.29964,"lon":5.37185,"is_reserved":false,"is_disabled":false,"rental_uris":{"android":"levelo://app?vid=2fec47fa-8d9a-4f32-889e-abe54dcffdf3","ios":"levelo://app?vid=2fec47fa-8d9a-4f32-889e-abe54dcffdf3"},"vehicle_type_id":"4","last_reported":1743714559,"current_range_meters":13600,"station_id":"ce4bgr92rcd13ifvqc7g","pricing_plan_id":"cebpf4jnsgd1na2vs0mg"},{"bike_id":"dff07cb4-c60f-4c0e-9b86-1576ff98ca28","system_id":"levelo_inurba_marseille","lat":43.2871,"lon":5.37391,"is_reserved":false,"is_disabled":false,"rental_uris":{"android":"levelo://app?vid=dff07cb4-c60f-4c0e-9b86-1576ff98ca28","ios":"levelo://app?vid=dff07cb4-c60f-4c0e-9b86-1576ff98ca28"},"vehicle_type_id":"4","last_reported":1743714559,"current_range_meters":13600,"station_id":"ce4bh3p2rcd13ifvqdq0","pricing_plan_id":"cebpf4jnsgd1na2vs0mg"},{"bike_id":"42fadadd-58be-41f7-96ef-7397eccf4964","system_id":"levelo_inurba_marseille","lat":43.29424,"lon":5.38617,"is_reserved":false,"is_disabled":false,"rental_uris":{"android":"levelo://app?vid=42fadadd-58be-41f7-96ef-7397eccf4964","ios":"levelo://app?vid=42fadadd-58be-41f7-96ef-7397eccf4964"},"vehicle_type_id":"4","last_reported":1743714559,"current_range_meters":13600,"station_id":"ce4bh2h2rcd13ifvqdh0","pricing_plan_id":"cebpf4jnsgd1na2vs0mg"},{"bike_id":"758c2355-846a-4f3d-bcd8-eac4b3145cd6","system_id":"levelo_inurba_marseille","lat":43.231924,"lon":5.355562,"is_reserved":false,"is_disabled":false,"rental_uris":{"android":"levelo://app?vid=758c2355-846a-4f3d-bcd8-eac4b3145cd6","ios":"levelo://app?vid=758c2355-846a-4f3d-bcd8-eac4b3145cd6"},"vehicle_type_id":"4","last_reported":1743714559,"current_range_meters":13600,"station_id":"ce4bhu92rcd13ifvqi70","pricing_plan_id":"cebpf4jnsgd1na2vs0mg"},{"bike_id":"266c3b32-3559-493d-8f0a-9a6f7ea354d8","system_id":"levelo_inurba_marseille","lat":43.29406,"lon":5.38635,"is_reserved":false,"is_disabled":false,"rental_uris":{"android":"levelo://app?vid=266c3b32-3559-493d-8f0a-9a6f7ea354d8","ios":"levelo://app?vid=266c3b32-3559-493d-8f0a-9a6f7ea354d8"},"vehicle_type_id":"4","last_reported":1743714559,"current_range_meters":13600,"station_id":"ce4bh2h2rcd13ifvqdh0","pricing_plan_id":"cebpf4jnsgd1na2vs0mg"},{"bike_id":"a646d772-6e34-41bf-84ed-e62af41bb05d","system_id":"levelo_inurba_marseille","lat":43.30242,"lon":5.40059,"is_reserved":false,"is_disabled":false,"rental_uris":{"android":"levelo://app?vid=a646d772-6e34-41bf-84ed-e62af41bb05d","ios":"levelo://app?vid=a646d772-6e34-41bf-84ed-e62af41bb05d"},"vehicle_type_id":"4","last_reported":1743714559,"current_range_meters":13600,"station_id":"ce4bgvh2rcd13ifvqcs0","pricing_plan_id":"cebpf4jnsgd1na2vs0mg"},{"bike_id":"66c2c0a7-7a5f-4c50-82a3-05307676e3ea","system_id":"levelo_inurba_marseille","lat":43.30312,"lon":5.36896,"is_reserved":false,"is_disabled":false,"rental_uris":{"android":"levelo://app?vid=66c2c0a7-7a5f-4c50-82a3-05307676e3ea","ios":"levelo://app?vid=66c2c0a7-7a5f-4c50-82a3-05307676e3ea"},"vehicle_type_id":"4","last_reported":1743714559,"current_range_meters":13600,"station_id":"ce4bgqh2rcd13ifvqc5g","pricing_plan_id":"cebpf4jnsgd1na2vs0mg"},{"bike_id":"4d24834d-fe19-450f-a44f-80f05a555ede","system_id":"levelo_inurba_marseille","lat":43.2988,"lon":5.388987,"is_reserved":false,"is_disabled":false,"rental_uris":{"android":"levelo://app?vid=4d24834d-fe19-450f-a44f-80f05a555ede","ios":"levelo://app?vid=4d24834d-fe19-450f-a44f-80f05a555ede"},"vehicle_type_id":"4","last_reported":1743714559,"current_range_meters":13600,"station_id":"ce4bh392rcd13ifvqdl0","pricing_plan_id":"cebpf4jnsgd1na2vs0mg"},{"bike_id":"6bca0a29-b040-49bc-b07b-918965c53d85","system_id":"levelo_inurba_marseille","lat":43.28942,"lon":5.36406,"is_reserved":false,"is_disabled":false,"rental_uris":{"android":"levelo://app?vid=6bca0a29-b040-49bc-b07b-918965c53d85","ios":"levelo://app?vid=6bca0a29-b040-49bc-b07b-918965c53d85"},"vehicle_type_id":"4","last_reported":1743714559,"current_range_meters":14000,"station_id":"ce4bhc92rcd13ifvqetg","pricing_plan_id":"cebpf4jnsgd1na2vs0mg"},{"bike_id":"8357a04c-a6ab-43c0-8732-2e79a23e3c2a","system_id":"levelo_inurba_marseille","lat":43.30791,"lon":5.43527,"is_reserved":false,"is_disabled":false,"rental_uris":{"android":"levelo://app?vid=8357a04c-a6ab-43c0-8732-2e79a23e3c2a","ios":"levelo://app?vid=8357a04c-a6ab-43c0-8732-2e79a23e3c2a"},"vehicle_type_id":"4","last_reported":1743714559,"current_range_meters":14000,"station_id":"ce4bhph2rcd13ifvqheg","pricing_plan_id":"cebpf4jnsgd1na2vs0mg"},{"bike_id":"81f4fa39-fcae-4eb6-936b-4c640b5dd88e","system_id":"levelo_inurba_marseille","lat":43.23975,"lon":5.36613,"is_reserved":false,"is_disabled":false,"rental_uris":{"android":"levelo://app?vid=81f4fa39-fcae-4eb6-936b-4c640b5dd88e","ios":"levelo://app?vid=81f4fa39-fcae-4eb6-936b-4c640b5dd88e"},"vehicle_type_id":"4","last_reported":1743714559,"current_range_meters":14000,"station_id":"ce4bhi12rcd13ifvqfp0","pricing_plan_id":"cebpf4jnsgd1na2vs0mg"},{"bike_id":"aab85d2a-da53-45c7-ae9c-554ffa706d4a","system_id":"levelo_inurba_marseille","lat":43.28443,"lon":5.37527,"is_reserved":false,"is_disabled":false,"rental_uris":{"android":"levelo://app?vid=aab85d2a-da53-45c7-ae9c-554ffa706d4a","ios":"levelo://app?vid=aab85d2a-da53-45c7-ae9c-554ffa706d4a"},"vehicle_type_id":"4","last_reported":1743714559,"current_range_meters":14000,"station_id":"","pricing_plan_id":"cebpf4jnsgd1na2vs0mg"},{"bike_id":"821620e4-ad6d-4bf4-9100-664ee25fd19f","system_id":"levelo_inurba_marseille","lat":43.29426,"lon":5.38623,"is_reserved":false,"is_disabled":false,"rental_uris":{"android":"levelo://app?vid=821620e4-ad6d-4bf4-9100-664ee25fd19f","ios":"levelo://app?vid=821620e4-ad6d-4bf4-9100-664ee25fd19f"},"vehicle_type_id":"4","last_reported":1743714559,"current_range_meters":14400,"station_id":"ce4bh2h2rcd13ifvqdh0","pricing_plan_id":"cebpf4jnsgd1na2vs0mg"},{"bike_id":"08b32033-615f-4597-a46a-be19d21c1531","system_id":"levelo_inurba_marseille","lat":43.30809,"lon":5.4352,"is_reserved":false,"is_disabled":false,"rental_uris":{"android":"levelo://app?vid=08b32033-615f-4597-a46a-be19d21c1531","ios":"levelo://app?vid=08b32033-615f-4597-a46a-be19d21c1531"},"vehicle_type_id":"4","last_reported":1743714559,"current_range_meters":14400,"station_id":"ce4bhph2rcd13ifvqheg","pricing_plan_id":"cebpf4jnsgd1na2vs0mg"},{"bike_id":"fb348b09-6abb-47a4-a266-91f2eeaee291","system_id":"levelo_inurba_marseille","lat":43.32087,"lon":5.36809,"is_reserved":false,"is_disabled":false,"rental_uris":{"android":"levelo://app?vid=fb348b09-6abb-47a4-a266-91f2eeaee291","ios":"levelo://app?vid=fb348b09-6abb-47a4-a266-91f2eeaee291"},"vehicle_type_id":"4","last_reported":1743714559,"current_range_meters":14400,"station_id":"ce4bhrh2rcd13ifvqhug","pricing_plan_id":"cebpf4jnsgd1na2vs0mg"},{"bike_id":"880a2ca1-013b-4838-92d2-98d3f54434e1","system_id":"levelo_inurba_marseille","lat":43.26787,"lon":5.39415,"is_reserved":false,"is_disabled":true,"rental_uris":{"android":"levelo://app?vid=880a2ca1-013b-4838-92d2-98d3f54434e1","ios":"levelo://app?vid=880a2ca1-013b-4838-92d2-98d3f54434e1"},"vehicle_type_id":"4","last_reported":1743714559,"current_range_meters":14400,"station_id":"ce4bhh12rcd13ifvqfg0","pricing_plan_id":"cebpf4jnsgd1na2vs0mg"},{"bike_id":"ee59221b-775a-4e53-86a1-6b0e5e8562c0","system_id":"levelo_inurba_marseille","lat":43.31326,"lon":5.39692,"is_reserved":false,"is_disabled":false,"rental_uris":{"android":"levelo://app?vid=ee59221b-775a-4e53-86a1-6b0e5e8562c0","ios":"levelo://app?vid=ee59221b-775a-4e53-86a1-6b0e5e8562c0"},"vehicle_type_id":"4","last_reported":1743714559,"current_range_meters":14400,"station_id":"ce4bgvp2rcd13ifvqcu0","pricing_plan_id":"cebpf4jnsgd1na2vs0mg"},{"bike_id":"c4e5b13a-dcda-49a8-8f79-7a1067389736","system_id":"levelo_inurba_marseille","lat":43.28362,"lon":5.38108,"is_reserved":false,"is_disabled":false,"rental_uris":{"android":"levelo://app?vid=c4e5b13a-dcda-49a8-8f79-7a1067389736","ios":"levelo://app?vid=c4e5b13a-dcda-49a8-8f79-7a1067389736"},"vehicle_type_id":"4","last_reported":1743714559,"current_range_meters":14800,"station_id":"ce4bh412rcd13ifvqdr0","pricing_plan_id":"cebpf4jnsgd1na2vs0mg"},{"bike_id":"bd1c6b46-4ab6-49fb-9282-e990dea0e8f6","system_id":"levelo_inurba_marseille","lat":43.31763,"lon":5.39016,"is_reserved":false,"is_disabled":false,"rental_uris":{"android":"levelo://app?vid=bd1c6b46-4ab6-49fb-9282-e990dea0e8f6","ios":"levelo://app?vid=bd1c6b46-4ab6-49fb-9282-e990dea0e8f6"},"vehicle_type_id":"4","last_reported":1743714559,"current_range_meters":14800,"station_id":"ce4bhqp2rcd13ifvqhng","pricing_plan_id":"cebpf4jnsgd1na2vs0mg"},{"bike_id":"f6cfc5dd-5a41-474a-9749-f8301aee1df0","system_id":"levelo_inurba_marseille","lat":43.31886,"lon":5.40733,"is_reserved":false,"is_disabled":false,"rental_uris":{"android":"levelo://app?vid=f6cfc5dd-5a41-474a-9749-f8301aee1df0","ios":"levelo://app?vid=f6cfc5dd-5a41-474a-9749-f8301aee1df0"},"vehicle_type_id":"4","last_reported":1743714559,"current_range_meters":14800,"station_id":"ce4bhq12rcd13ifvqhig","pricing_plan_id":"cebpf4jnsgd1na2vs0mg"},{"bike_id":"69d96eab-d655-4e71-80af-adf26a43bf2a","system_id":"levelo_inurba_marseille","lat":43.28309,"lon":5.38103,"is_reserved":false,"is_disabled":false,"rental_uris":{"android":"levelo://app?vid=69d96eab-d655-4e71-80af-adf26a43bf2a","ios":"levelo://app?vid=69d96eab-d655-4e71-80af-adf26a43bf2a"},"vehicle_type_id":"4","last_reported":1743714559,"current_range_meters":14800,"station_id":"ce4bh412rcd13ifvqdr0","pricing_plan_id":"cebpf4jnsgd1na2vs0mg"},{"bike_id":"6f265f94-717f-47cc-a3f0-d8fbcc3aef74","system_id":"levelo_inurba_marseille","lat":43.29557,"lon":5.38523,"is_reserved":false,"is_disabled":false,"rental_uris":{"android":"levelo://app?vid=6f265f94-717f-47cc-a3f0-d8fbcc3aef74","ios":"levelo://app?vid=6f265f94-717f-47cc-a3f0-d8fbcc3aef74"},"vehicle_type_id":"4","last_reported":1743714559,"current_range_meters":14800,"station_id":"ce4bgih2rcd13ifvqba0","pricing_plan_id":"cebpf4jnsgd1na2vs0mg"},{"bike_id":"23151f32-0c4a-4733-813a-f11164282482","system_id":"levelo_inurba_marseille","lat":43.30598,"lon":5.3722,"is_reserved":false,"is_disabled":false,"rental_uris":{"android":"levelo://app?vid=23151f32-0c4a-4733-813a-f11164282482","ios":"levelo://app?vid=23151f32-0c4a-4733-813a-f11164282482"},"vehicle_type_id":"4","last_reported":1743714559,"current_range_meters":14400,"station_id":"ce4bgqh2rcd13ifvqc4g","pricing_plan_id":"cebpf4jnsgd1na2vs0mg"},{"bike_id":"20880086-e9f3-4f88-a58d-d5598ff76a19","system_id":"levelo_inurba_marseille","lat":43.29546,"lon":5.42286,"is_reserved":false,"is_disabled":false,"rental_uris":{"android":"levelo://app?vid=20880086-e9f3-4f88-a58d-d5598ff76a19","ios":"levelo://app?vid=20880086-e9f3-4f88-a58d-d5598ff76a19"},"vehicle_type_id":"4","last_reported":1743714559,"current_range_meters":14800,"station_id":"ce4bhph2rcd13ifvqhdg","pricing_plan_id":"cebpf4jnsgd1na2vs0mg"},{"bike_id":"72fd48d9-88cb-4944-b105-1efff245f1ff","system_id":"levelo_inurba_marseille","lat":43.28451,"lon":5.39204,"is_reserved":false,"is_disabled":true,"rental_uris":{"android":"levelo://app?vid=72fd48d9-88cb-4944-b105-1efff245f1ff","ios":"levelo://app?vid=72fd48d9-88cb-4944-b105-1efff245f1ff"},"vehicle_type_id":"4","last_reported":1743714559,"current_range_meters":15200,"station_id":"ce4bhoh2rcd13ifvqh5g","pricing_plan_id":"cebpf4jnsgd1na2vs0mg"},{"bike_id":"93c4d539-5a26-452d-932b-a9b403a887d2","system_id":"levelo_inurba_marseille","lat":43.29924,"lon":5.3806,"is_reserved":false,"is_disabled":true,"rental_uris":{"android":"levelo://app?vid=93c4d539-5a26-452d-932b-a9b403a887d2","ios":"levelo://app?vid=93c4d539-5a26-452d-932b-a9b403a887d2"},"vehicle_type_id":"4","last_reported":1743714559,"current_range_meters":15200,"station_id":"","pricing_plan_id":"cebpf4jnsgd1na2vs0mg"},{"bike_id":"1b07f5d0-df62-4495-a42c-4a12cca8ef22","system_id":"levelo_inurba_marseille","lat":43.30232,"lon":5.40055,"is_reserved":false,"is_disabled":true,"rental_uris":{"android":"levelo://app?vid=1b07f5d0-df62-4495-a42c-4a12cca8ef22","ios":"levelo://app?vid=1b07f5d0-df62-4495-a42c-4a12cca8ef22"},"vehicle_type_id":"4","last_reported":1743714559,"current_range_meters":15200,"station_id":"ce4bgvh2rcd13ifvqcs0","pricing_plan_id":"cebpf4jnsgd1na2vs0mg"},