{"last_updated":1734275308,"ttl":60,"version":"2.2","data":{"bikes":[{"bike_id":"6cb06d5b-b9ac-4325-ba0a-17357eb9ec74","system_id":"levelo_inurba_marseille","lat":43.28272,"lon":5.35086,"is_reserved":false,"is_disabled":true,"rental_uris":{"android":"levelo://app?vid=6cb06d5b-b9ac-4325-ba0a-17357eb9ec74","ios":"levelo://app?vid=6cb06d5b-b9ac-4325-ba0a-17357eb9ec74"},"vehicle_type_id":"4","last_reported":1734275309,"current_range_meters":1200,"station_id":"ce4bhbp2rcd13ifvqerg","pricing_plan_id":"cebpf4jnsgd1na2vs0mg"},{"bike_id":"0636e940-9fa8-44b8-a321-e8d7b4ee4d10","system_id":"levelo_inurba_marseille","lat":43.28633,"lon":5.35093,"is_reserved":false,"is_disabled":false,"rental_uris":{"android":"levelo://app?vid=0636e940-9fa8-44b8-a321-e8d7b4ee4d10","ios":"levelo://app?vid=0636e940-9fa8-44b8-a321-e8d7b4ee4d10"},"vehicle_type_id":"4","last_reported":1734275309,"current_range_meters":29600,"station_id":"ce4bhch2rcd13ifvqeug","pricing_plan_id":"cebpf4jnsgd1na2vs0mg"},{"bike_id":"c850278e-359f-4e30-bd60-ac0df695735d","system_id":"levelo_inurba_marseille","lat":43.27068,"lon":5.42272,"is_reserved":false,"is_disabled":false,"rental_uris":{"android":"levelo://app?vid=c850278e-359f-4e30-bd60-ac0df695735d","ios":"levelo://app?vid=c850278e-359f-4e30-bd60-ac0df695735d"},"vehicle_type_id":"4","last_reported":1734275309,"current_range_meters":21600,"station_id":"ce4bhk92rcd13ifvqgb0","pricing_plan_id":"cebpf4jnsgd1na2vs0mg"},{"bike_id":"bdafa396-b47b-462d-8e8e-bc13dc69703d","system_id":"levelo_inurba_marseille","lat":43.28417,"lon":5.34986,"is_reserved":false,"is_disabled":false,"rental_uris":{"android":"levelo://app?vid=bdafa396-b47b-462d-8e8e-bc13dc69703d","ios":"levelo://app?vid=bdafa396-b47b-462d-8e8e-bc13dc69703d"},"vehicle_type_id":"4","last_reported":1734275309,"current_range_meters":32000,"station_id":"ce4bhbh2rcd13ifvqepg","pricing_plan_id":"cebpf4jnsgd1na2vs0mg"},{"bike_id":"935e41d2-dd91-4e5c-8c6a-8b5781b91614","system_id":"levelo_inurba_marseille","lat":43.23195,"lon":5.35558,"is_reserved":false,"is_disabled":true,"rental_uris":{"android":"levelo://app?vid=935e41d2-dd91-4e5c-8c6a-8b5781b91614","ios":"levelo://app?vid=935e41d2-dd91-4e5c-8c6a-8b5781b91614"},"vehicle_type_id":"4","last_reported":1734275309,"current_range_meters":0,"station_id":"ce4bhu92rcd13ifvqi70","pricing_plan_id":"cebpf4jnsgd1na2vs0mg"},{"bike_id":"ed9edba7-d3f1-4e95-8555-1252dbf70dce","system_id":"levelo_inurba_marseille","lat":43.2756,"lon":5.38458,"is_reserved":false,"is_disabled":true,"rental_uris":{"android":"levelo://app?vid=ed9edba7-d3f1-4e95-8555-1252dbf70dce","ios":"levelo://app?vid=ed9edba7-d3f1-4e95-8555-1252dbf70dce"},"vehicle_type_id":"4","last_reported":1734275309,"current_range_meters":35600,"station_id":"ce4bhh92rcd13ifvqfi0","pricing_plan_id":"cebpf4jnsgd1na2vs0mg"},{"bike_id":"7f43aae1-ba8d-4578-bc1c-4f39634db3e2","system_id":"levelo_inurba_marseille","lat":43.3147,"lon":5.37289,"is_reserved":false,"is_disabled":false,"rental_uris":{"android":"levelo://app?vid=7f43aae1-ba8d-4578-bc1c-4f39634db3e2","ios":"levelo://app?vid=7f43aae1-ba8d-4578-bc1c-4f39634db3e2"},"vehicle_type_id":"4","last_reported":1734275309,"current_range_meters":35600,"station_id":"ce4bgt12rcd13ifvqcd0","pricing_plan_id":"cebpf4jnsgd1na2vs0mg"},{"bike_id":"b9909b1b-7dc0-43e0-9eac-af3c1c280ed0","system_id":"levelo_inurba_marseille","lat":43.29026,"lon":5.35802,"is_reserved":false,"is_disabled":false,"rental_uris":{"android":"levelo://app?vid=b9909b1b-7dc0-43e0-9eac-af3c1c280ed0","ios":"levelo://app?vid=b9909b1b-7dc0-43e0-9eac-af3c1c280ed0"},"vehicle_type_id":"4","last_reported":1734275309,"current_range_meters":8000,"station_id":"","pricing_plan_id":"cebpf4jnsgd1na2vs0mg"},{"bike_id":"9e369b33-6c96-4e90-ba7c-c3f89e77f881","system_id":"levelo_inurba_marseille","lat":43.30547,"lon":5.36544,"is_reserved":false,"is_disabled":false,"rental_uris":{"android":"levelo://app?vid=9e369b33-6c96-4e90-ba7c-c3f89e77f881","ios":"levelo://app?vid=9e369b33-6c96-4e90-ba7c-c3f89e77f881"},"vehicle_type_id":"4","last_reported":1734275309,"current_range_meters":38000,"station_id":"ce4bgs12rcd13ifvqcag","pricing_plan_id":"cebpf4jnsgd1na2vs0mg"},{"bike_id":"146be659-241b-4bb8-8d24-309aec79ec08","system_id":"levelo_inurba_marseille","lat":43.30536,"lon":5.36525,"is_reserved":false,"is_disabled":false,"rental_uris":{"android":"levelo://app?vid=146be659-241b-4bb8-8d24-309aec79ec08","ios":"levelo://app?vid=146be659-241b-4bb8-8d24-309aec79ec08"},"vehicle_type_id":"4","last_reported":1734275309,"current_range_meters":38800,"station_id":"ce4bgs12rcd13ifvqcag","pricing_plan_id":"cebpf4jnsgd1na2vs0mg"},{"bike_id":"68318da2-404d-4277-bcad-71c1cc0f38c8","system_id":"levelo_inurba_marseille","lat":43.27207,"lon":5.3919,"is_reserved":false,"is_disabled":true,"rental_uris":{"android":"levelo://app?vid=68318da2-404d-4277-bcad-71c1cc0f38c8","ios":"levelo://app?vid=68318da2-404d-4277-bcad-71c1cc0f38c8"},"vehicle_type_id":"4","last_reported":1734275309,"current_range_meters":22000,"station_id":"ce4bhhp2rcd13ifvqfm0","pricing_plan_id":"cebpf4jnsgd1na2vs0mg"},{"bike_id":"d0832921-57b9-44fb-8f08-344f971a0f1d","system_id":"levelo_inurba_marseille","lat":43.29565,"lon":5.39966,"is_reserved":false,"is_disabled":false,"rental_uris":{"android":"levelo://app?vid=d0832921-57b9-44fb-8f08-344f971a0f1d","ios":"levelo://app?vid=d0832921-57b9-44fb-8f08-344f971a0f1d"},"vehicle_type_id":"4","last_reported":1734275309,"current_range_meters":10800,"station_id":"ce4bh312rcd13ifvqdj0","pricing_plan_id":"cebpf4jnsgd1na2vs0mg"},{"bike_id":"2aabb9e3-ae45-4b17-b10d-af50e235d80a","system_id":"levelo_inurba_marseille","lat":43.26787,"lon":5.39922,"is_reserved":false,"is_disabled":true,"rental_uris":{"android":"levelo://app?vid=2aabb9e3-ae45-4b17-b10d-af50e235d80a","ios":"levelo://app?vid=2aabb9e3-ae45-4b17-b10d-af50e235d80a"},"vehicle_type_id":"4","last_reported":1734275309,"current_range_meters":0,"station_id":"","pricing_plan_id":"cebpf4jnsgd1na2vs0mg"},{"bike_id":"9415801d-bb28-4e68-9ebc-eefff56b5360","system_id":"levelo_inurba_marseille","lat":43.34135,"lon":5.40913,"is_reserved":false,"is_disabled":false,"rental_uris":{"android":"levelo://app?vid=9415801d-bb28-4e68-9ebc-eefff56b5360","ios":"levelo://app?vid=9415801d-bb28-4e68-9ebc-eefff56b5360"},"vehicle_type_id":"4","last_reported":1734275309,"current_range_meters":27200,"station_id":"ce4bhqh2rcd13ifvqhlg","pricing_plan_id":"cebpf4jnsgd1na2vs0mg"},{"bike_id":"6a9763f3-53fa-41a6-8298-f336b4a2f537","system_id":"levelo_inurba_marseille","lat":43.29608,"lon":5.37724,"is_reserved":false,"is_disabled":false,"rental_uris":{"android":"levelo://app?vid=6a9763f3-53fa-41a6-8298-f336b4a2f537","ios":"levelo://app?vid=6a9763f3-53fa-41a6-8298-f336b4a2f537"},"vehicle_type_id":"4","last_reported":1734275309,"current_range_meters":37600,"station_id":"ce4bgi92rcd13ifvqb90","pricing_plan_id":"cebpf4jnsgd1na2vs0mg"},{"bike_id":"3595e955-9243-4ebf-a4ff-5df2907e8d74","system_id":"levelo_inurba_marseille","lat":43.32288,"lon":5.38274,"is_reserved":false,"is_disabled":false,"rental_uris":{"android":"levelo://app?vid=3595e955-9243-4ebf-a4ff-5df2907e8d74","ios":"levelo://app?vid=3595e955-9243-4ebf-a4ff-5df2907e8d74"},"vehicle_type_id":"4","last_reported":1734275309,"current_range_meters":38800,"station_id":"ce4bhr12rcd13ifvqhqg","pricing_plan_id":"cebpf4jnsgd1na2vs0mg"},{"bike_id":"0a5659c6-a4bc-4d63-8b0a-53752523a6ad","system_id":"levelo_inurba_marseille","lat":43.26523,"lon":5.37299,"is_reserved":true,"is_disabled":false,"rental_uris":{"android":"levelo://app?vid=0a5659c6-a4bc-4d63-8b0a-53752523a6ad","ios":"levelo://app?vid=0a5659c6-a4bc-4d63-8b0a-53752523a6ad"},"vehicle_type_id":"4","last_reported":1734275309,"current_range_meters":38800,"station_id":"ce4bhg12rcd13ifvqf70","pricing_plan_id":"cebpf4jnsgd1na2vs0mg"},{"bike_id":"749d6ca4-b789-40ab-8f3c-64751336a488","system_id":"levelo_inurba_marseille","lat":43.3016,"lon":5.38072,"is_reserved":false,"is_disabled":false,"rental_uris":{"android":"levelo://app?vid=749d6ca4-b789-40ab-8f3c-64751336a488","ios":"levelo://app?vid=749d6ca4-b789-40ab-8f3c-64751336a488"},"vehicle_type_id":"4","last_reported":1734275309,"current_range_meters":33600,"station_id":"ce4bgjp2rcd13ifvqbh0","pricing_plan_id":"cebpf4jnsgd1na2vs0mg"},{"bike_id":"089561b2-37a9-497d-a768-4313f9dd42c1","system_id":"levelo_inurba_marseille","lat":43.28146,"lon":5.42657,"is_reserved":false,"is_disabled":false,"rental_uris":{"android":"levelo://app?vid=089561b2-37a9-497d-a768-4313f9dd42c1","ios":"levelo://app?vid=089561b2-37a9-497d-a768-4313f9dd42c1"},"vehicle_type_id":"4","last_reported":1734275309,"current_range_meters":9200,"station_id":"ce4bhnh2rcd13ifvqgug","pricing_plan_id":"cebpf4jnsgd1na2vs0mg"},{"bike_id":"496b9119-850a-49b3-bf98-295bb079ca7c","system_id":"levelo_inurba_marseille","lat":43.28195,"lon":5.44587,"is_reserved":false,"is_disabled":false,"rental_uris":{"android":"levelo://app?vid=496b9119-850a-49b3-bf98-295bb079ca7c","ios":"levelo://app?vid=496b9119-850a-49b3-bf98-295bb079ca7c"},"vehicle_type_id":"4","last_reported":1734275309,"current_range_meters":3600,"station_id":"","pricing_plan_id":"cebpf4jnsgd1na2vs0mg"},{"bike_id":"f9184017-a6fc-4b0f-9490-0ff2d114cc3c","system_id":"levelo_inurba_marseille","lat":43.27072,"lon":5.42279,"is_reserved":false,"is_disabled":false,"rental_uris":{"android":"levelo://app?vid=f9184017-a6fc-4b0f-9490-0ff2d114cc3c","ios":"levelo://app?vid=f9184017-a6fc-4b0f-9490-0ff2d114cc3c"},"vehicle_type_id":"4","last_reported":1734275309,"current_range_meters":38400,"station_id":"ce4bhk92rcd13ifvqgb0","pricing_plan_id":"cebpf4jnsgd1na2vs0mg"},{"bike_id":"756759df-30bb-4fc0-b7b8-d22004f554c8","system_id":"levelo_inurba_marseille","lat":43.32342,"lon":5.40627,"is_reserved":false,"is_disabled":false,"rental_uris":{"android":"levelo://app?vid=756759df-30bb-4fc0-b7b8-d22004f554c8","ios":"levelo://app?vid=756759df-30bb-4fc0-b7b8-d22004f554c8"},"vehicle_type_id":"4","last_reported":1734275309,"current_range_meters":8400,"station_id":"ce4bhq92rcd13ifvqhjg","pricing_plan_id":"cebpf4jnsgd1na2vs0mg"},{"bike_id":"0136ded0-9000-4cf9-8475-f42d9301d47b","system_id":"levelo_inurba_marseille","lat":43.308,"lon":5.42574,"is_reserved":false,"is_disabled":false,"rental_uris":{"android":"levelo://app?vid=0136ded0-9000-4cf9-8475-f42d9301d47b","ios":"levelo://app?vid=0136ded0-9000-4cf9-8475-f42d9301d47b"},"vehicle_type_id":"4","last_reported":1734275309,"current_range_meters":6000,"station_id":"ce4bhph2rcd13ifvqheg","pricing_plan_id":"cebpf4jnsgd1na2vs0mg"},{"bike_id":"4deb15ef-079e-44d5-9289-1d9084b509a7","system_id":"levelo_inurba_marseille","lat":43.31232,"lon":5.36877,"is_reserved":false,"is_disabled":false,"rental_uris":{"android":"levelo://app?vid=4deb15ef-079e-44d5-9289-1d9084b509a7","ios":"levelo://app?vid=4deb15ef-079e-44d5-9289-1d9084b509a7"},"vehicle_type_id":"4","last_reported":1734275309,"current_range_meters":16800,"station_id":"ce4bgl92rcd13ifvqbq0","pricing_plan_id":"cebpf4jnsgd1na2vs0mg"},{"bike_id":"d5c89c1f-3bad-4af2-9449-e04c277a4696","system_id":"levelo_inurba_marseille","lat":43.29982,"lon":5.41318,"is_reserved":false,"is_disabled":true,"rental_uris":{"android":"levelo://app?vid=d5c89c1f-3bad-4af2-9449-e04c277a4696","ios":"levelo://app?vid=d5c89c1f-3bad-4af2-9449-e04c277a4696"},"vehicle_type_id":"4","last_reported":1734275309,"current_range_meters":38000,"station_id":"ce4bhp12rcd13ifvqh9g","pricing_plan_id":"cebpf4jnsgd1na2vs0mg"},{"bike_id":"00470025-0594-4fc8-bb13-03b023b393ad","system_id":"levelo_inurba_marseille","lat":43.23066,"lon":5.3549,"is_reserved":false,"is_disabled":false,"rental_uris":{"android":"levelo://app?vid=00470025-0594-4fc8-bb13-03b023b393ad","ios":"levelo://app?vid=00470025-0594-4fc8-bb13-03b023b393ad"},"vehicle_type_id":"4","last_reported":1734275309,"current_range_meters":32000,"station_id":"cpo3342slgdg3j2ifvpg","pricing_plan_id":"cebpf4jnsgd1na2vs0mg"},{"bike_id":"36316d83-efb2-4109-a171-74a64a44631e","system_id":"levelo_inurba_marseille","lat":43.246592,"lon":5.381623,"is_reserved":false,"is_disabled":false,"rental_uris":{"android":"levelo://app?vid=36316d83-efb2-4109-a171-74a64a44631e","ios":"levelo://app?vid=36316d83-efb2-4109-a171-74a64a44631e"},"vehicle_type_id":"4","last_reported":1734275309,"current_range_meters":17200,"station_id":"ce4bhih2rcd13ifvqfr0","pricing_plan_id":"cebpf4jnsgd1na2vs0mg"},{"bike_id":"5c9775a7-02b2-44aa-a547-cc3c0986f91a","system_id":"levelo_inurba_marseille","lat":43.28259,"lon":5.35085,"is_reserved":false,"is_disabled":false,"rental_uris":{"android":"levelo://app?vid=5c9775a7-02b2-44aa-a547-cc3c0986f91a","ios":"levelo://app?vid=5c9775a7-02b2-44aa-a547-cc3c0986f91a"},"vehicle_type_id":"4","last_reported":1734275309,"current_range_meters":20800,"station_id":"ce4bhbp2rcd13ifvqerg","pricing_plan_id":"cebpf4jnsgd1na2vs0mg"},{"bike_id":"be15b9e1-574c-45f1-b914-fc0b9a33b109","system_id":"levelo_inurba_marseille","lat":43.2505,"lon":5.41687,"is_reserved":false,"is_disabled":false,"rental_uris":{"android":"levelo://app?vid=be15b9e1-574c-45f1-b914-fc0b9a33b109","ios":"levelo://app?vid=be15b9e1-574c-45f1-b914-fc0b9a33b109"},"vehicle_type_id":"4","last_reported":1734275309,"current_range_meters":11600,"station_id":"","pricing_plan_id":"cebpf4jnsgd1na2vs0mg"},{"bike_id":"faeeed3d-e1ea-42b2-8154-c03c65ca9361","system_id":"levelo_inurba_marseille","lat":43.26221,"lon":5.37222,"is_reserved":false,"is_disabled":true,"rental_uris":{"android":"levelo://app?vid=faeeed3d-e1ea-42b2-8154-c03c65ca9361","ios":"levelo://app?vid=faeeed3d-e1ea-42b2-8154-c03c65ca9361"},"vehicle_type_id":"4","last_reported":1734275309,"current_range_meters":0,"station_id":"","pricing_plan_id":"cebpf4jnsgd1na2vs0mg"},{"bike_id":"4b241c9d-5589-45b9-b6c0-48b4eab39e73","system_id":"levelo_inurba_marseille","lat":43.26853,"lon":5.40956,"is_reserved":false,"is_disabled":false,"rental_uris":{"android":"levelo://app?vid=4b241c9d-5589-45b9-b6c0-48b4eab39e73","ios":"levelo://app?vid=4b241c9d-5589-45b9-b6c0-48b4eab39e73"},"vehicle_type_id":"4","last_reported":1734275309,"current_range_meters":18000,"station_id":"","pricing_plan_id":"cebpf4jnsgd1na2vs0mg"},{"bike_id":"5efe5aba-da92-49f9-8b00-b94af32f7da6","system_id":"levelo_inurba_marseille","lat":43.23963,"lon":5.3663,"is_reserved":false,"is_disabled":true,"rental_uris":{"android":"levelo://app?vid=5efe5aba-da92-49f9-8b00-b94af32f7da6","ios":"levelo://app?vid=5efe5aba-da92-49f9-8b00-b94af32f7da6"},"vehicle_type_id":"4","last_reported":1734275309,"current_range_meters":0,"station_id":"ce4bhi12rcd13ifvqfp0","pricing_plan_id":"cebpf4jnsgd1na2vs0mg"},{"bike_id":"97afb3b4-ef45-4200-8bad-872e3fcc2181","system_id":"levelo_inurba_marseille","lat":43.26557,"lon":5.37282,"is_reserved":true,"is_disabled":false,"rental_uris":{"android":"levelo://app?vid=97afb3b4-ef45-4200-8bad-872e3fcc2181","ios":"levelo://app?vid=97afb3b4-ef45-4200-8bad-872e3fcc2181"},"vehicle_type_id":"4","last_reported":1734275309,"current_range_meters":14800,"station_id":"ce4bhg12rcd13ifvqf70","pricing_plan_id":"cebpf4jnsgd1na2vs0mg"},{"bike_id":"6dcdcfb4-173a-4d80-b639-16b5e612ba99","system_id":"levelo_inurba_marseille","lat":43.25085,"lon":5.39529,"is_reserved":false,"is_disabled":false,"rental_uris":{"android":"levelo://app?vid=6dcdcfb4-173a-4d80-b639-16b5e612ba99","ios":"levelo://app?vid=6dcdcfb4-173a-4d80-b639-16b5e612ba99"},"vehicle_type_id":"4","last_reported":1734275309,"current_range_meters":16800,"station_id":"ce4bhm12rcd13ifvqgkg","pricing_plan_id":"cebpf4jnsgd1na2vs0mg"},{"bike_id":"d60d4fb5-3a4d-4f6f-85e0-405526e10399","system_id":"levelo_inurba_marseille","lat":43.28664,"lon":5.38671,"is_reserved":false,"is_disabled":false,"rental_uris":{"android":"levelo://app?vid=d60d4fb5-3a4d-4f6f-85e0-405526e10399","ios":"levelo://app?vid=d60d4fb5-3a4d-4f6f-85e0-405526e10399"},"vehicle_type_id":"4","last_reported":1734275309,"current_range_meters":36400,"station_id":"ce4bh492rcd13ifvqdug","pricing_plan_id":"cebpf4jnsgd1na2vs0mg"},{"bike_id":"e3ce1f04-3f88-431a-ab9f-947d6e2f270c","system_id":"levelo_inurba_marseille","lat":43.33733,"lon":5.3919,"is_reserved":false,"is_disabled":false,"rental_uris":{"android":"levelo://app?vid=e3ce1f04-3f88-431a-ab9f-947d6e2f270c","ios":"levelo://app?vid=e3ce1f04-3f88-431a-ab9f-947d6e2f270c"},"vehicle_type_id":"4","last_reported":1734275309,"current_range_meters":38800,"station_id":"ce4bhr92rcd13ifvqhsg","pricing_plan_id":"cebpf4jnsgd1na2vs0mg"},{"bike_id":"eb7ad09e-d990-4ff7-91a8-21c68cdc0d6d","system_id":"levelo_inurba_marseille","lat":43.31997,"lon":5.38156,"is_reserved":false,"is_disabled":false,"rental_uris":{"android":"levelo://app?vid=eb7ad09e-d990-4ff7-91a8-21c68cdc0d6d","ios":"levelo://app?vid=eb7ad09e-d990-4ff7-91a8-21c68cdc0d6d"},"vehicle_type_id":"4","last_reported":1734275309,"current_range_meters":36400,"station_id":"ce4bhr12rcd13ifvqhpg","pricing_plan_id":"cebpf4jnsgd1na2vs0mg"},{"bike_id":"2ccd7ea1-8322-49f2-8906-fd0b96e57668","system_id":"levelo_inurba_marseille","lat":43.2957,"lon":5.37505,"is_reserved":false,"is_disabled":true,"rental_uris":{"android":"levelo://app?vid=2ccd7ea1-8322-49f2-8906-fd0b96e57668","ios":"levelo://app?vid=2ccd7ea1-8322-49f2-8906-fd0b96e57668"},"vehicle_type_id":"4","last_reported":1734275309,"current_range_meters":0,"station_id":"ce4bgh92rcd13ifvqb50","pricing_plan_id":"cebpf4jnsgd1na2vs0mg"},{"bike_id":"e1f14668-b3cd-4486-857f-047dd0525de8","system_id":"levelo_inurba_marseille","lat":43.289365,"lon":5.36632,"is_reserved":false,"is_disabled":true,"rental_uris":{"android":"levelo://app?vid=e1f14668-b3cd-4486-857f-047dd0525de8","ios":"levelo://app?vid=e1f14668-b3cd-4486-857f-047dd0525de8"},"vehicle_type_id":"4","last_reported":1734275309,"current_range_meters":25600,"station_id":"ce4bhap2rcd13ifvqek0","pricing_plan_id":"cebpf4jnsgd1na2vs0mg"},{"bike_id":"2256d0c9-fd6c-49ff-b42c-53026216c040","system_id":"levelo_inurba_marseille","lat":43.2986,"lon":5.38386,"is_reserved":false,"is_disabled":true,"rental_uris":{"android":"levelo://app?vid=2256d0c9-fd6c-49ff-b42c-53026216c040","ios":"levelo://app?vid=2256d0c9-fd6c-49ff-b42c-53026216c040"},"vehicle_type_id":"4","last_reported":1734275309,"current_range_meters":27600,"station_id":"","pricing_plan_id":"cebpf4jnsgd1na2vs0mg"},{"bike_id":"edaea664-24e0-4d6c-aa7a-497f5c5f88f6","system_id":"levelo_inurba_marseille","lat":43.27008,"lon":5.39126,"is_reserved":false,"is_disabled":true,"rental_uris":{"android":"levelo://app?vid=edaea664-24e0-4d6c-aa7a-497f5c5f88f6","ios":"levelo://app?vid=edaea664-24e0-4d6c-aa7a-497f5c5f88f6"},"vehicle_type_id":"4","last_reported":1734275309,"current_range_meters":0,"station_id":"","pricing_plan_id":"cebpf4jnsgd1na2vs0mg"},{"bike_id":"3f1507c0-f041-4f99-afd9-6700b05fcc16","system_id":"levelo_inurba_marseille","lat":43.25112,"lon":5.40322,"is_reserved":false,"is_disabled":false,"rental_uris":{"android":"levelo://app?vid=3f1507c0-f041-4f99-afd9-6700b05fcc16","ios":"levelo://app?vid=3f1507c0-f041-4f99-afd9-6700b05fcc16"},"vehicle_type_id":"4","last_reported":1734275309,"current_range_meters":34800,"station_id":"ce4bhlh2rcd13ifvqgig","pricing_plan_id":"cebpf4jnsgd1na2vs0mg"},{"bike_id":"13d84f01-58c5-48b9-beb5-8b29d8e5d8bf","system_id":"levelo_inurba_marseille","lat":43.26034,"lon":5.37547,"is_reserved":false,"is_disabled":false,"rental_uris":{"android":"levelo://app?vid=13d84f01-58c5-48b9-beb5-8b29d8e5d8bf","ios":"levelo://app?vid=13d84f01-58c5-48b9-beb5-8b29d8e5d8bf"},"vehicle_type_id":"4","last_reported":1734275309,"current_range_meters":34000,"station_id":"ce4bhgh2rcd13ifvqfa0","pricing_plan_id":"cebpf4jnsgd1na2vs0mg"},{"bike_id":"5d983560-16d4-42f7-bac5-b9446176c435","system_id":"levelo_inurba_marseille","lat":43.23187,"lon":5.35566,"is_reserved":false,"is_disabled":false,"rental_uris":{"android":"levelo://app?vid=5d983560-16d4-42f7-bac5-b9446176c435","ios":"levelo://app?vid=5d983560-16d4-42f7-bac5-b9446176c435"},"vehicle_type_id":"4","last_reported":1734275309,"current_range_meters":36800,"station_id":"ce4bhu92rcd13ifvqi70","pricing_plan_id":"cebpf4jnsgd1na2vs0mg"},{"bike_id":"6337b4b6-5728-42e9-b5d6-3e125c08baf6","system_id":"levelo_inurba_marseille","lat":43.29554,"lon":5.37513,"is_reserved":false,"is_disabled":false,"rental_uris":{"android":"levelo://app?vid=6337b4b6-5728-42e9-b5d6-3e125c08baf6","ios":"levelo://app?vid=6337b4b6-5728-42e9-b5d6-3e125c08baf6"},"vehicle_type_id":"4","last_reported":1734275309,"current_range_meters":35200,"station_id":"ce4bgh92rcd13ifvqb50","pricing_plan_id":"cebpf4jnsgd1na2vs0mg"},{"bike_id":"9547db1a-85f7-4fec-8654-a519b8f47348","system_id":"levelo_inurba_marseille","lat":43.30165,"lon":5.36651,"is_reserved":false,"is_disabled":false,"rental_uris":{"android":"levelo://app?vid=9547db1a-85f7-4fec-8654-a519b8f47348","ios":"levelo://app?vid=9547db1a-85f7-4fec-8654-a519b8f47348"},"vehicle_type_id":"4","last_reported":1734275309,"current_range_meters":38000,"station_id":"ce4bgrh2rcd13ifvqc8g","pricing_plan_id":"cebpf4jnsgd1na2vs0mg"},{"bike_id":"50eb77ea-fe6d-4257-a6c7-9b7af911689e","system_id":"levelo_inurba_marseille","lat":43.27368,"lon":5.36265,"is_reserved":false,"is_disabled":false,"rental_uris":{"android":"levelo://app?vid=50eb77ea-fe6d-4257-a6c7-9b7af911689e","ios":"levelo://app?vid=50eb77ea-fe6d-4257-a6c7-9b7af911689e"},"vehicle_type_id":"4","last_reported":1734275309,"current_range_meters":20000,"station_id":"ce4bhbh2rcd13ifvqeo0","pricing_plan_id":"cebpf4jnsgd1na2vs0mg"},{"bike_id":"699ad19d-1780-4c00-9754-eb0737b27b7c","system_id":"levelo_inurba_marseille","lat":43.29553,"lon":5.42288,"is_reserved":false,"is_disabled":false,"rental_uris":{"android":"levelo://app?vid=699ad19d-1780-4c00-9754-eb0737b27b7c","ios":"levelo://app?vid=699ad19d-1780-4c00-9754-eb0737b27b7c"},"vehicle_type_id":"4","last_reported":1734275309,"current_range_meters":38400,"station_id":"ce4bhph2rcd13ifvqhdg","pricing_plan_id":"cebpf4jnsgd1na2vs0mg"},{"bike_id":"4d1225a3-c63a-49d2-b148-17c76b4d4c4d","system_id":"levelo_inurba_marseille","lat":43.26558,"lon":5.37284,"is_reserved":false,"is_disabled":false,"rental_uris":{"android":"levelo://app?vid=4d1225a3-c63a-49d2-b148-17c76b4d4c4d","ios":"levelo://app?vid=4d1225a3-c63a-49d2-b148-17c76b4d4c4d"},"vehicle_type_id":"4","last_reported":1734275309,"current_range_meters":18000,"station_id":"ce4bhg12rcd13ifvqf70","pricing_plan_id":"cebpf4jnsgd1na2vs0mg"},{"bike_id":"ba6abc17-2a1f-45c6-8711-b118d10bc680","system_id":"levelo_inurba_marseille","lat":43.2895,"lon":5.36392,"is_reserved":false,"is_disabled":false,"rental_uris":{"android":"levelo://app?vid=ba6abc17-2a1f-45c6-8711-b118d10bc680","ios":"levelo://app?vid=ba6abc17-2a1f-45c6-8711-b118d10bc680"},"vehicle_type_id":"4","last_reported":1734275309,"current_range_meters":38800,"station_id":"ce4bhc92rcd13ifvqetg","pricing_plan_id":"cebpf4jnsgd1na2vs0mg"},{"bike_id":"5424b849-efe9-41ca-a5bb-60034b566fc7","system_id":"levelo_inurba_marseille","lat":43.24659,"lon":5.38164,"is_reserved":false,"is_disabled":false,"rental_uris":{"android":"levelo://app?vid=5424b849-efe9-41ca-a5bb-60034b566fc7","ios":"levelo://app?vid=5424b849-efe9-41ca-a5bb-60034b566fc7"},"vehicle_type_id":"4","last_reported":1734275309,"current_range_meters":38800,"station_id":"ce4bhih2rcd13ifvqfr0","pricing_plan_id":"cebpf4jnsgd1na2vs0mg"},{"bike_id":"a248f6cc-82f3-4e75-a343-5582d9b4c2e1","system_id":"levelo_inurba_marseille","lat":43.31536,"lon":5.38062,"is_reserved":false,"is_disabled":false,"rental_uris":{"android":"levelo://app?vid=a248f6cc-82f3-4e75-a343-5582d9b4c2e1","ios":"levelo://app?vid=a248f6cc-82f3-4e75-a343-5582d9b4c2e1"},"vehicle_type_id":"4","last_reported":1734275309,"current_range_meters":26000,"station_id":"ce4bhsp2rcd13ifvqi50","pricing_plan_id":"cebpf4jnsgd1na2vs0mg"},{"bike_id":"5be78cc2-d386-42ea-a601-8ec47460ad21","system_id":"levelo_inurba_marseille","lat":43.24082,"lon":5.37745,"is_reserved":false,"is_disabled":false,"rental_uris":{"android":"levelo://app?vid=5be78cc2-d386-42ea-a601-8ec47460ad21","ios":"levelo://app?vid=5be78cc2-d386-42ea-a601-8ec47460ad21"},"vehicle_type_id":"4","last_reported":1734275309,"current_range_meters":36800,"station_id":"ce4bhnp2rcd13ifvqgvg","pricing_plan_id":"cebpf4jnsgd1na2vs0mg"},{"bike_id":"c5058238-5aba-4663-bea8-d083085b068b","system_id":"levelo_inurba_marseille","lat":43.27066,"lon":5.42278,"is_reserved":false,"is_disabled":false,"rental_uris":{"android":"levelo://app?vid=c5058238-5aba-4663-bea8-d083085b068b","ios":"levelo://app?vid=c5058238-5aba-4663-bea8-d083085b068b"},"vehicle_type_id":"4","last_reported":1734275309,"current_range_meters":24000,"station_id":"ce4bhk92rcd13ifvqgb0","pricing_plan_id":"cebpf4jnsgd1na2vs0mg"},{"bike_id":"5b7640df-1605-4b55-8ba5-12f459a56623","system_id":"levelo_inurba_marseille","lat":43.30431,"lon":5.38892,"is_reserved":false,"is_disabled":false,"rental_uris":{"android":"levelo://app?vid=5b7640df-1605-4b55-8ba5-12f459a56623","ios":"levelo://app?vid=5b7640df-1605-4b55-8ba5-12f459a56623"},"vehicle_type_id":"4","last_reported":1734275309,"current_range_meters":14800,"station_id":"ce4bgk12rcd13ifvqbi0","pricing_plan_id":"cebpf4jnsgd1na2vs0mg"},{"bike_id":"acbcde12-a713-467d-b7cd-6fb02320f61f","system_id":"levelo_inurba_marseille","lat":43.28461,"lon":5.38467,"is_reserved":false,"is_disabled":true,"rental_uris":{"android":"levelo://app?vid=acbcde12-a713-467d-b7cd-6fb02320f61f","ios":"levelo://app?vid=acbcde12-a713-467d-b7cd-6fb02320f61f"},"vehicle_type_id":"4","last_reported":1734275309,"current_range_meters":38800,"station_id":"ce4bh512rcd13ifvqe3g","pricing_plan_id":"cebpf4jnsgd1na2vs0mg"},{"bike_id":"6d8fccea-6a81-46a5-9710-130776032170","system_id":"levelo_inurba_marseille","lat":43.25824,"lon":5.39428,"is_reserved":false,"is_disabled":false,"rental_uris":{"android":"levelo://app?vid=6d8fccea-6a81-46a5-9710-130776032170","ios":"levelo://app?vid=6d8fccea-6a81-46a5-9710-130776032170"},"vehicle_type_id":"4","last_reported":1734275309,"current_range_meters":38000,"station_id":"ce4bhip2rcd13ifvqft0","pricing_plan_id":"cebpf4jnsgd1na2vs0mg"},{"bike_id":"99f7b208-ec64-4ab1-a477-8d501f7f7ec8","system_id":"levelo_inurba_marseille","lat":43.286,"lon":5.35114,"is_reserved":false,"is_disabled":false,"rental_uris":{"android":"levelo://app?vid=99f7b208-ec64-4ab1-a477-8d501f7f7ec8","ios":"levelo://app?vid=99f7b208-ec64-4ab1-a477-8d501f7f7ec8"},"vehicle_type_id":"4","last_reported":1734275309,"current_range_meters":14800,"station_id":"ce4bhch2rcd13ifvqeug","pricing_plan_id":"cebpf4jnsgd1na2vs0mg"},{"bike_id":"97680530-dc48-44d2-8ac4-8a0880b620b4","system_id":"levelo_inurba_marseille","lat":43.27307,"lon":5.3908,"is_reserved":false,"is_disabled":false,"rental_uris":{"android":"levelo://app?vid=97680530-dc48-44d2-8ac4-8a0880b620b4","ios":"levelo://app?vid=97680530-dc48-44d2-8ac4-8a0880b620b4"},"vehicle_type_id":"4","last_reported":1734275309,"current_range_meters":8400,"station_id":"ce4bhgp2rcd13ifvqfe0","pricing_plan_id":"cebpf4jnsgd1na2vs0mg"},{"bike_id":"7482f887-7952-4f02-a5dc-546e954acfc6","system_id":"levelo_inurba_marseille","lat":43.29417,"lon":5.38638,"is_reserved":false,"is_disabled":true,"rental_uris":{"android":"levelo://app?vid=7482f887-7952-4f02-a5dc-546e954acfc6","ios":"levelo://app?vid=7482f887-7952-4f02-a5dc-546e954acfc6"},"vehicle_type_id":"4","last_reported":1734275309,"current_range_meters":4000,"station_id":"ce4bh2h2rcd13ifvqdh0","pricing_plan_id":"cebpf4jnsgd1na2vs0mg"},{"bike_id":"63ef92dc-cb60-47c8-8a60-7997ff213a0a","system_id":"levelo_inurba_marseille","lat":43.28605,"lon":5.35111,"is_reserved":false,"is_disabled":false,"rental_uris":{"android":"levelo://app?vid=63ef92dc-cb60-47c8-8a60-7997ff213a0a","ios":"levelo://app?vid=63ef92dc-cb60-47c8-8a60-7997ff213a0a"},"vehicle_type_id":"4","last_reported":1734275309,"current_range_meters":17200,"station_id":"ce4bhch2rcd13ifvqeug","pricing_plan_id":"cebpf4jnsgd1na2vs0mg"},{"bike_id":"e819ae6a-d2ca-4fed-a607-5b91827a0819","system_id":"levelo_inurba_marseille","lat":43.23147,"lon":5.35528,"is_reserved":false,"is_disabled":false,"rental_uris":{"android":"levelo://app?vid=e819ae6a-d2ca-4fed-a607-5b91827a0819","ios":"levelo://app?vid=e819ae6a-d2ca-4fed-a607-5b91827a0819"},"vehicle_type_id":"4","last_reported":1734275309,"current_range_meters":30400,"station_id":"","pricing_plan_id":"cebpf4jnsgd1na2vs0mg"},{"bike_id":"c3bfecdf-9615-4d7f-833b-6813e072b57c","system_id":"levelo_inurba_marseille","lat":43.26203,"lon":5.37932,"is_reserved":false,"is_disabled":false,"rental_uris":{"android":"levelo://app?vid=c3bfecdf-9615-4d7f-833b-6813e072b57c","ios":"levelo://app?vid=c3bfecdf-9615-4d7f-833b-6813e072b57c"},"vehicle_type_id":"4","last_reported":1734275309,"current_range_meters":27600,"station_id":"ce4bhjp2rcd13ifvqg90","pricing_plan_id":"cebpf4jnsgd1na2vs0mg"},{"bike_id":"716823cd-0671-4dcd-8348-ef867558cbb5","system_id":"levelo_inurba_marseille","lat":43.3127,"lon":5.40171,"is_reserved":false,"is_disabled":false,"rental_uris":{"android":"levelo://app?vid=716823cd-0671-4dcd-8348-ef867558cbb5","ios":"levelo://app?vid=716823cd-0671-4dcd-8348-ef867558cbb5"},"vehicle_type_id":"4","last_reported":1734275309,"current_range_meters":36400,"station_id":"ce4bh092rcd13ifvqd30","pricing_plan_id":"cebpf4jnsgd1na2vs0mg"},{"bike_id":"9f2df41e-ff3f-43e8-a2d7-014b68a85aca","system_id":"levelo_inurba_marseille","lat":43.240729,"lon":5.37766,"is_reserved":false,"is_disabled":false,"rental_uris":{"android":"levelo://app?vid=9f2df41e-ff3f-43e8-a2d7-014b68a85aca","ios":"levelo://app?vid=9f2df41e-ff3f-43e8-a2d7-014b68a85aca"},"vehicle_type_id":"4","last_reported":1734275309,"current_range_meters":32800,"station_id":"ce4bhnp2rcd13ifvqgvg","pricing_plan_id":"cebpf4jnsgd1na2vs0mg"},{"bike_id":"91eaee8d-68d9-47fd-b74c-e16d17ba3fb2","system_id":"levelo_inurba_marseille","lat":43.31158,"lon":5.38728,"is_reserved":false,"is_disabled":false,"rental_uris":{"android":"levelo://app?vid=91eaee8d-68d9-47fd-b74c-e16d17ba3fb2","ios":"levelo://app?vid=91eaee8d-68d9-47fd-b74c-e16d17ba3fb2"},"vehicle_type_id":"4","last_reported":1734275309,"current_range_meters":10000,"station_id":"ce4bgv12rcd13ifvqcp0","pricing_plan_id":"cebpf4jnsgd1na2vs0mg"},{"bike_id":"de1cb814-ad87-48e4-8b3f-8e44b57b08f0","system_id":"levelo_inurba_marseille","lat":43.255,"lon":5.37652,"is_reserved":false,"is_disabled":false,"rental_uris":{"android":"levelo://app?vid=de1cb814-ad87-48e4-8b3f-8e44b57b08f0","ios":"levelo://app?vid=de1cb814-ad87-48e4-8b3f-8e44b57b08f0"},"vehicle_type_id":"4","last_reported":1734275309,"current_range_meters":10800,"station_id":"ce4bhh12rcd13ifvqff0","pricing_plan_id":"cebpf4jnsgd1na2vs0mg"},{"bike_id":"994bbbdd-28a3-4783-933e-04628d6b9262","system_id":"levelo_inurba_marseille","lat":43.2886,"lon":5.39332,"is_reserved":false,"is_disabled":true,"rental_uris":{"android":"levelo://app?vid=994bbbdd-28a3-4783-933e-04628d6b9262","ios":"levelo://app?vid=994bbbdd-28a3-4783-933e-04628d6b9262"},"vehicle_type_id":"4","last_reported":1734275309,"current_range_meters":36000,"station_id":"ce4bh2p2rcd13ifvqdi0","pricing_plan_id":"cebpf4jnsgd1na2vs0mg"},{"bike_id":"ae0bdd7b-187c-409c-b2b3-37aac32d4db3","system_id":"levelo_inurba_marseille","lat":43.32364,"lon":5.36768,"is_reserved":false,"is_disabled":false,"rental_uris":{"android":"levelo://app?vid=ae0bdd7b-187c-409c-b2b3-37aac32d4db3","ios":"levelo://app?vid=ae0bdd7b-187c-409c-b2b3-37aac32d4db3"},"vehicle_type_id":"4","last_reported":1734275309,"current_range_meters":35600,"station_id":"ce4bhsh2rcd13ifvqi2g","pricing_plan_id":"cebpf4jnsgd1na2vs0mg"},{"bike_id":"59b259af-328b-4a37-b1cb-eeec53772a2b","system_id":"levelo_inurba_marseille","lat":43.3052,"lon":5.36696,"is_reserved":false,"is_disabled":false,"rental_uris":{"android":"levelo://app?vid=59b259af-328b-4a37-b1cb-eeec53772a2b","ios":"levelo://app?vid=59b259af-328b-4a37-b1cb-eeec53772a2b"},"vehicle_type_id":"4","last_reported":1734275309,"current_range_meters":38800,"station_id":"ce4bgrp2rcd13ifvqc9g","pricing_plan_id":"cebpf4jnsgd1na2vs0mg"},{"bike_id":"7b971eaf-fcce-4584-919d-1ac236af429d","system_id":"levelo_inurba_marseille","lat":43.29843,"lon":5.3629,"is_reserved":false,"is_disabled":false,"rental_uris":{"android":"levelo://app?vid=7b971eaf-fcce-4584-919d-1ac236af429d","ios":"levelo://app?vid=7b971eaf-fcce-4584-919d-1ac236af429d"},"vehicle_type_id":"4","last_reported":1734275309,"current_range_meters":38800,"station_id":"ce4bgpp2rcd13ifvqc3g","pricing_plan_id":"cebpf4jnsgd1na2vs0mg"},{"bike_id":"9ad311dd-c450-4f09-933a-ef53d4559dc3","system_id":"levelo_inurba_marseille","lat":43.26986,"lon":5.39873,"is_reserved":false,"is_disabled":false,"rental_uris":{"android":"levelo://app?vid=9ad311dd-c450-4f09-933a-ef53d4559dc3","ios":"levelo://app?vid=9ad311dd-c450-4f09-933a-ef53d4559dc3"},"vehicle_type_id":"4","last_reported":1734275309,"current_range_meters":22400,"station_id":"","pricing_plan_id":"cebpf4jnsgd1na2vs0mg"},{"bike_id":"e2f5ec87-12cc-4bb7-b497-9077aa91a96e","system_id":"levelo_inurba_marseille","lat":43.304582,"lon":5.37902,"is_reserved":false,"is_disabled":false,"rental_uris":{"android":"levelo://app?vid=e2f5ec87-12cc-4bb7-b497-9077aa91a96e","ios":"levelo://app?vid=e2f5ec87-12cc-4bb7-b497-9077aa91a96e"},"vehicle_type_id":"4","last_reported":1734275309,"current_range_meters":26800,"station_id":"ce4bgup2rcd13ifvqcn0","pricing_plan_id":"cebpf4jnsgd1na2vs0mg"},{"bike_id":"37456efc-92e9-4863-91c7-bd4d94a41119","system_id":"levelo_inurba_marseille","lat":43.28495,"lon":5.40186,"is_reserved":false,"is_disabled":false,"rental_uris":{"android":"levelo://app?vid=37456efc-92e9-4863-91c7-bd4d94a41119","ios":"levelo://app?vid=37456efc-92e9-4863-91c7-bd4d94a41119"},"vehicle_type_id":"4","last_reported":1734275309,"current_range_meters":8400,"station_id":"","pricing_plan_id":"cebpf4jnsgd1na2vs0mg"},{"bike_id":"3b25d107-763f-452c-bff7-9c41a7a92142","system_id":"levelo_inurba_marseille","lat":43.29893,"lon":5.43678,"is_reserved":false,"is_disabled":false,"rental_uris":{"android":"levelo://app?vid=3b25d107-763f-452c-bff7-9c41a7a92142","ios":"levelo://app?vid=3b25d107-763f-452c-bff7-9c41a7a92142"},"vehicle_type_id":"4","last_reported":1734275309,"current_range_meters":14800,"station_id":"ce4bhpp2rcd13ifvqhfg","pricing_plan_id":"cebpf4jnsgd1na2vs0mg"},{"bike_id":"4e65a034-df43-445b-b411-96d0c9702f35","system_id":"levelo_inurba_marseille","lat":43.25585,"lon":5.38261,"is_reserved":false,"is_disabled":false,"rental_uris":{"android":"levelo://app?vid=4e65a034-df43-445b-b411-96d0c9702f35","ios":"levelo://app?vid=4e65a034-df43-445b-b411-96d0c9702f35"},"vehicle_type_id":"4","last_reported":1734275309,"current_range_meters":10800,"station_id":"ce4bhih2rcd13ifvqfs0","pricing_plan_id":"cebpf4jnsgd1na2vs0mg"},{"bike_id":"af67ac53-ba21-4ff0-8334-95679e9ff2cc","system_id":"levelo_inurba_marseille","lat":43.278805,"lon":5.388003,"is_reserved":false,"is_disabled":true,"rental_uris":{"android":"levelo://app?vid=af67ac53-ba21-4ff0-8334-95679e9ff2cc","ios":"levelo://app?vid=af67ac53-ba21-4ff0-8334-95679e9ff2cc"},"vehicle_type_id":"4","last_reported":1734275309,"current_range_meters":0,"station_id":"","pricing_plan_id":"cebpf4jnsgd1na2vs0mg"},{"bike_id":"b06ba60e-8ae5-4afa-9596-3b4b008791ef","system_id":"levelo_inurba_marseille","lat":43.26501,"lon":5.39543,"is_reserved":false,"is_disabled":false,"rental_uris":{"android":"levelo://app?vid=b06ba60e-8ae5-4afa-9596-3b4b008791ef","ios":"levelo://app?vid=b06ba60e-8ae5-4afa-9596-3b4b008791ef"},"vehicle_type_id":"4","last_reported":1734275309,"current_range_meters":38800,"station_id":"ce4bhi12rcd13ifvqfq0","pricing_plan_id":"cebpf4jnsgd1na2vs0mg"},{"bike_id":"2ee47aba-edd0-4d53-a17e-e6f65b10c35f","system_id":"levelo_inurba_marseille","lat":43.30101,"lon":5.39085,"is_reserved":false,"is_disabled":true,"rental_uris":{"android":"levelo://app?vid=2ee47aba-edd0-4d53-a17e-e6f65b10c35f","ios":"levelo://app?vid=2ee47aba-edd0-4d53-a17e-e6f65b10c35f"},"vehicle_type_id":"4","last_reported":1734275309,"current_range_meters":16800,"station_id":"ce4bh192rcd13ifvqdb0","pricing_plan_id":"cebpf4jnsgd1na2vs0mg"},{"bike_id":"5d695760-1f8b-4169-a0fb-9ff431a72fbd","system_id":"levelo_inurba_marseille","lat":43.29971,"lon":5.37171,"is_reserved":false,"is_disabled":false,"rental_uris":{"android":"levelo://app?vid=5d695760-1f8b-4169-a0fb-9ff431a72fbd","ios":"levelo://app?vid=5d695760-1f8b-4169-a0fb-9ff431a72fbd"},"vehicle_type_id":"4","last_reported":1734275309,"current_range_meters":30400,"station_id":"ce4bgr92rcd13ifvqc7g","pricing_plan_id":"cebpf4jnsgd1na2vs0mg"},{"bike_id":"28ffc97e-0e98-4b9c-83f2-99495ac32762","system_id":"levelo_inurba_marseille","lat":43.24805,"lon":5.37456,"is_reserved":false,"is_disabled":false,"rental_uris":{"android":"levelo://app?vid=28ffc97e-0e98-4b9c-83f2-99495ac32762","ios":"levelo://app?vid=28ffc97e-0e98-4b9c-83f2-99495ac32762"},"vehicle_type_id":"4","last_reported":1734275309,"current_range_meters":38400,"station_id":"ce4bhgh2rcd13ifvqfb0","pricing_plan_id":"cebpf4jnsgd1na2vs0mg"},{"bike_id":"fc43bfe3-9f6d-4964-8d03-4526a28744ff","system_id":"levelo_inurba_marseille","lat":43.23959,"lon":5.36632,"is_reserved":false,"is_disabled":false,"rental_uris":{"android":"levelo://app?vid=fc43bfe3-9f6d-4964-8d03-4526a28744ff","ios":"levelo://app?vid=fc43bfe3-9f6d-4964-8d03-4526a28744ff"},"vehicle_type_id":"4","last_reported":1734275309,"current_range_meters":38800,"station_id":"ce4bhi12rcd13ifvqfp0","pricing_plan_id":"cebpf4jnsgd1na2vs0mg"},{"bike_id":"cb7a8afa-07d0-4673-aecd-79851ac2b871","system_id":"levelo_inurba_marseille","lat":43.28149,"lon":5.4264,"is_reserved":false,"is_disabled":false,"rental_uris":{"android":"levelo://app?vid=cb7a8afa-07d0-4673-aecd-79851ac2b871","ios":"levelo://app?vid=cb7a8afa-07d0-4673-aecd-79851ac2b871"},"vehicle_type_id":"4","last_reported":1734275309,"current_range_meters":33200,"station_id":"ce4bhnh2rcd13ifvqgug","pricing_plan_id":"cebpf4jnsgd1na2vs0mg"},{"bike_id":"ad9e0e56-b232-4761-8766-3140462fc53b","system_id":"levelo_inurba_marseille","lat":43.26546,"lon":5.37296,"is_reserved":false,"is_disabled":true,"rental_uris":{"android":"levelo://app?vid=ad9e0e56-b232-4761-8766-3140462fc53b","ios":"levelo://app?vid=ad9e0e56-b232-4761-8766-3140462fc53b"},"vehicle_type_id":"4","last_reported":1734275309,"current_range_meters":26800,"station_id":"ce4bhg12rcd13ifvqf70","pricing_plan_id":"cebpf4jnsgd1na2vs0mg"},{"bike_id":"d65fcea9-51ba-41f0-86fd-e798dfdd6f09","system_id":"levelo_inurba_marseille","lat":43.28726,"lon":5.38285,"is_reserved":false,"is_disabled":true,"rental_uris":{"android":"levelo://app?vid=d65fcea9-51ba-41f0-86fd-e798dfdd6f09","ios":"levelo://app?vid=d65fcea9-51ba-41f0-86fd-e798dfdd6f09"},"vehicle_type_id":"4","last_reported":1734275309,"current_range_meters":0,"station_id":"","pricing_plan_id":"cebpf4jnsgd1na2vs0mg"},{"bike_id":"656d8740-9b85-4a93-86ce-9d32a0e761f7","system_id":"levelo_inurba_marseille","lat":43.31072,"lon":5.38353,"is_reserved":false,"is_disabled":true,"rental_uris":{"android":"levelo://app?vid=656d8740-9b85-4a93-86ce-9d32a0e761f7","ios":"levelo://app?vid=656d8740-9b85-4a93-86ce-9d32a0e761f7"},"vehicle_type_id":"4","last_reported":1734275309,"current_range_meters":25200,"station_id":"ce4bgv92rcd13ifvqcr0","pricing_plan_id":"cebpf4jnsgd1na2vs0mg"},{"bike_id":"30b09c14-5db6-4bdd-8ec0-8d8fd355bef3","system_id":"levelo_inurba_marseille","lat":43.29886,"lon":5.39739,"is_reserved":false,"is_disabled":true,"rental_uris":{"android":"levelo://app?vid=30b09c14-5db6-4bdd-8ec0-8d8fd355bef3","ios":"levelo://app?vid=30b09c14-5db6-4bdd-8ec0-8d8fd355bef3"},"vehicle_type_id":"4","last_reported":1734275309,"current_range_meters":1600,"station_id":"ce4bh0h2rcd13ifvqd50","pricing_plan_id":"cebpf4jnsgd1na2vs0mg"},{"bike_id":"f08c808c-af08-40b8-81c3-97739c995b77","system_id":"levelo_inurba_marseille","lat":43.30103,"lon":5.39891,"is_reserved":false,"is_disabled":true,"rental_uris":{"android":"levelo://app?vid=f08c808c-af08-40b8-81c3-97739c995b77","ios":"levelo://app?vid=f08c808c-af08-40b8-81c3-97739c995b77"},"vehicle_type_id":"4","last_reported":1734275309,"current_range_meters":28400,"station_id":"ce4bh0h2rcd13ifvqd40","pricing_plan_id":"cebpf4jnsgd1na2vs0mg"},{"bike_id":"86970bbe-b814-43c9-89a2-85f507f309fa","system_id":"levelo_inurba_marseille","lat":43.30545,"lon":5.38431,"is_reserved":false,"is_disabled":true,"rental_uris":{"android":"levelo://app?vid=86970bbe-b814-43c9-89a2-85f507f309fa","ios":"levelo://app?vid=86970bbe-b814-43c9-89a2-85f507f309fa"},"vehicle_type_id":"4","last_reported":1734275309,"current_range_meters":4000,"station_id":"ce4bgg92rcd13ifvqb30","pricing_plan_id":"cebpf4jnsgd1na2vs0mg"},{"bike_id":"96969163-05be-4d1c-a728-67794615bdfc","system_id":"levelo_inurba_marseille","lat":43.29004,"lon":5.38997,"is_reserved":false,"is_disabled":false,"rental_uris":{"android":"levelo://app?vid=96969163-05be-4d1c-a728-67794615bdfc","ios":"levelo://app?vid=96969163-05be-4d1c-a728-67794615bdfc"},"vehicle_type_id":"4","last_reported":1734275309,"current_range_meters":16000,"station_id":"","pricing_plan_id":"cebpf4jnsgd1na2vs0mg"},{"bike_id":"64203de9-e72b-4d66-9a84-7a315c7ed37f","system_id":"levelo_inurba_marseille","lat":43.29457,"lon":5.37434,"is_reserved":false,"is_disabled":true,"rental_uris":{"android":"levelo://app?vid=64203de9-e72b-4d66-9a84-7a315c7ed37f","ios":"levelo://app?vid=64203de9-e72b-4d66-9a84-7a315c7ed37f"},"vehicle_type_id":"4","last_reported":1734275309,"current_range_meters":0,"station_id":"","pricing_plan_id":"cebpf4jnsgd1na2vs0mg"},{"bike_id":"43a2fa1d-314c-4a4d-b7c9-aa2f198eb73b","system_id":"levelo_inurba_marseille","lat":43.30131,"lon":5.38781,"is_reserved":false,"is_disabled":true,"rental_uris":{"android":"levelo://app?vid=43a2fa1d-314c-4a4d-b7c9-aa2f198eb73b","ios":"levelo://app?vid=43a2fa1d-314c-4a4d-b7c9-aa2f198eb73b"},"vehicle_type_id":"4","last_reported":1734275309,"current_range_meters":30000,"station_id":"ce4bghh2rcd13ifvqb60","pricing_plan_id":"cebpf4jnsgd1na2vs0mg"},{"bike_id":"515c04cd-8708-4283-8c15-7d6f7e4a4290","system_id":"levelo_inurba_marseille","lat":43.28682,"lon":5.38657,"is_reserved":false,"is_disabled":true,"rental_uris":{"android":"levelo://app?vid=515c04cd-8708-4283-8c15-7d6f7e4a4290","ios":"levelo://app?vid=515c04cd-8708-4283-8c15-7d6f7e4a4290"},"vehicle_type_id":"4","last_reported":1734275309,"current_range_meters":38000,"station_id":"ce4bh492rcd13ifvqdug","pricing_plan_id":"cebpf4jnsgd1na2vs0mg"},{"bike_id":"87ba82eb-975a-468d-bd22-fb9252256bb3","system_id":"levelo_inurba_marseille","lat":43.30137,"lon":5.37425,"is_reserved":false,"is_disabled":false,"rental_uris":{"android":"levelo://app?vid=87ba82eb-975a-468d-bd22-fb9252256bb3","ios":"levelo://app?vid=87ba82eb-975a-468d-bd22-fb9252256bb3"},"vehicle_type_id":"4","last_reported":1734275309,"current_range_meters":25200,"station_id":"ce4bgs92rcd13ifvqcc0","pricing_plan_id":"cebpf4jnsgd1na2vs0mg"},{"bike_id":"a386390f-3974-4cf8-a525-cb453b8735bc","system_id":"levelo_inurba_marseille","lat":43.273197,"lon":5.390885,"is_reserved":false,"is_disabled":true,"rental_uris":{"android":"levelo://app?vid=a386390f-3974-4cf8-a525-cb453b8735bc","ios":"levelo://app?vid=a386390f-3974-4cf8-a525-cb453b8735bc"},"vehicle_type_id":"4","last_reported":1734275309,"current_range_meters":1600,"station_id":"ce4bhgp2rcd13ifvqfe0","pricing_plan_id":"cebpf4jnsgd1na2vs0mg"},{"bike_id":"e9c2da41-0cf3-4790-b1bd-5a8d9ecb7255","system_id":"levelo_inurba_marseille","lat":43.26206,"lon":5.37922,"is_reserved":false,"is_disabled":false,"rental_uris":{"android":"levelo://app?vid=e9c2da41-0cf3-4790-b1bd-5a8d9ecb7255","ios":"levelo://app?vid=e9c2da41-0cf3-4790-b1bd-5a8d9ecb7255"},"vehicle_type_id":"4","last_reported":1734275309,"current_range_meters":24800,"station_id":"ce4bhjp2rcd13ifvqg90","pricing_plan_id":"cebpf4jnsgd1na2vs0mg"},{"bike_id":"41a7a588-44a9-4b1c-8163-ee6ddb5bfea1","system_id":"levelo_inurba_marseille","lat":43.28619,"lon":5.35108,"is_reserved":false,"is_disabled":false,"rental_uris":{"android":"levelo://app?vid=41a7a588-44a9-4b1c-8163-ee6ddb5bfea1","ios":"levelo://app?vid=41a7a588-44a9-4b1c-8163-ee6ddb5bfea1"},"vehicle_type_id":"4","last_reported":1734275309,"current_range_meters":18000,"station_id":"ce4bhch2rcd13ifvqeug","pricing_plan_id":"cebpf4jnsgd1na2vs0mg"},{"bike_id":"f8566c37-2207-4ee1-ab40-335356e98c1d","system_id":"levelo_inurba_marseille","lat":43.30543,"lon":5.3671,"is_reserved":false,"is_disabled":false,"rental_uris":{"android":"levelo://app?vid=f8566c37-2207-4ee1-ab40-335356e98c1d","ios":"levelo://app?vid=f8566c37-2207-4ee1-ab40-335356e98c1d"},"vehicle_type_id":"4","last_reported":1734275309,"current_range_meters":22800,"station_id":"ce4bgrp2rcd13ifvqc9g","pricing_plan_id":"cebpf4jnsgd1na2vs0mg"},{"bike_id":"70c673d5-6066-4faf-b215-c0e7165e8d28","system_id":"levelo_inurba_marseille","lat":43.2605,"lon":5.39403,"is_reserved":false,"is_disabled":false,"rental_uris":{"android":"levelo://app?vid=70c673d5-6066-4faf-b215-c0e7165e8d28","ios":"levelo://app?vid=70c673d5-6066-4faf-b215-c0e7165e8d28"},"vehicle_type_id":"4","last_reported":1734275309,"current_range_meters":38800,"station_id":"ce4bhh92rcd13ifvqfj0","pricing_plan_id":"cebpf4jnsgd1na2vs0mg"},{"bike_id":"62f547f2-9db6-4920-88a7-271ba03ba5df","system_id":"levelo_inurba_marseille","lat":43.30537,"lon":5.36525,"is_reserved":false,"is_disabled":false,"rental_uris":{"android":"levelo://app?vid=62f547f2-9db6-4920-88a7-271ba03ba5df","ios":"levelo://app?vid=62f547f2-9db6-4920-88a7-271ba03ba5df"},"vehicle_type_id":"4","last_reported":1734275309,"current_range_meters":38800,"station_id":"ce4bgs12rcd13ifvqcag","pricing_plan_id":"cebpf4jnsgd1na2vs0mg"},{"bike_id":"0810675e-0ec1-421a-b95a-82de5ccce9b2","system_id":"levelo_inurba_marseille","lat":43.2419,"lon":5.39721,"is_reserved":false,"is_disabled":true,"rental_uris":{"android":"levelo://app?vid=0810675e-0ec1-421a-b95a-82de5ccce9b2","ios":"levelo://app?vid=0810675e-0ec1-421a-b95a-82de5ccce9b2"},"vehicle_type_id":"4","last_reported":1734275309,"current_range_meters":23200,"station_id":"ce4bhn12rcd13ifvqgpg","pricing_plan_id":"cebpf4jnsgd1na2vs0mg"},{"bike_id":"7103ecc3-737f-41cd-ba9e-e3a0072dca4c","system_id":"levelo_inurba_marseille","lat":43.2861,"lon":5.35106,"is_reserved":false,"is_disabled":false,"rental_uris":{"android":"levelo://app?vid=7103ecc3-737f-41cd-ba9e-e3a0072dca4c","ios":"levelo://app?vid=7103ecc3-737f-41cd-ba9e-e3a0072dca4c"},"vehicle_type_id":"4","last_reported":1734275309,"current_range_meters":7200,"station_id":"ce4bhch2rcd13ifvqeug","pricing_plan_id":"cebpf4jnsgd1na2vs0mg"},{"bike_id":"5be58190-a47b-42f1-b33f-eb787581a8bb","system_id":"levelo_inurba_marseille","lat":43.33603,"lon":5.41039,"is_reserved":false,"is_disabled":false,"rental_uris":{"android":"levelo://app?vid=5be58190-a47b-42f1-b33f-eb787581a8bb","ios":"levelo://app?vid=5be58190-a47b-42f1-b33f-eb787581a8bb"},"vehicle_type_id":"4","last_reported":1734275309,"current_range_meters":9600,"station_id":"ce4bhqh2rcd13ifvqhmg","pricing_plan_id":"cebpf4jnsgd1na2vs0mg"},{"bike_id":"6bc36b2e-0c9c-431e-95dc-c243c814c35f","system_id":"levelo_inurba_marseille","lat":43.28418,"lon":5.34995,"is_reserved":false,"is_disabled":false,"rental_uris":{"android":"levelo://app?vid=6bc36b2e-0c9c-431e-95dc-c243c814c35f","ios":"levelo://app?vid=6bc36b2e-0c9c-431e-95dc-c243c814c35f"},"vehicle_type_id":"4","last_reported":1734275309,"current_range_meters":38800,"station_id":"ce4bhbh2rcd13ifvqepg","pricing_plan_id":"cebpf4jnsgd1na2vs0mg"},{"bike_id":"a2554ed6-8b42-4938-a58c-2f7a6998af04","system_id":"levelo_inurba_marseille","lat":43.25582,"lon":5.38233,"is_reserved":false,"is_disabled":false,"rental_uris":{"android":"levelo://app?vid=a2554ed6-8b42-4938-a58c-2f7a6998af04","ios":"levelo://app?vid=a2554ed6-8b42-4938-a58c-2f7a6998af04"},"vehicle_type_id":"4","last_reported":1734275309,"current_range_meters":16000,"station_id":"ce4bhih2rcd13ifvqfs0","pricing_plan_id":"cebpf4jnsgd1na2vs0mg"},{"bike_id":"c9169d90-4952-4442-b216-225cffd88fbb","system_id":"levelo_inurba_marseille","lat":43.28715,"lon":5.4,"is_reserved":false,"is_disabled":true,"rental_uris":{"android":"levelo://app?vid=c9169d90-4952-4442-b216-225cffd88fbb","ios":"levelo://app?vid=c9169d90-4952-4442-b216-225cffd88fbb"},"vehicle_type_id":"4","last_reported":1734275309,"current_range_meters":0,"station_id":"ce4bho92rcd13ifvqh3g","pricing_plan_id":"cebpf4jnsgd1na2vs0mg"},{"bike_id":"90cf8849-0110-4e85-9ac0-45b528ded8db","system_id":"levelo_inurba_marseille","lat":43.28615,"lon":5.35112,"is_reserved":false,"is_disabled":false,"rental_uris":{"android":"levelo://app?vid=90cf8849-0110-4e85-9ac0-45b528ded8db","ios":"levelo://app?vid=90cf8849-0110-4e85-9ac0-45b528ded8db"},"vehicle_type_id":"4","last_reported":1734275309,"current_range_meters":24000,"station_id":"ce4bhch2rcd13ifvqeug","pricing_plan_id":"cebpf4jnsgd1na2vs0mg"},{"bike_id":"a401cc84-f66d-4e27-a647-d9ca3c682c99","system_id":"levelo_inurba_marseille","lat":43.289444,"lon":5.363944,"is_reserved":false,"is_disabled":false,"rental_uris":{"android":"levelo://app?vid=a401cc84-f66d-4e27-a647-d9ca3c682c99","ios":"levelo://app?vid=a401cc84-f66d-4e27-a647-d9ca3c682c99"},"vehicle_type_id":"4","last_reported":1734275309,"current_range_meters":30400,"station_id":"ce4bhc92rcd13ifvqetg","pricing_plan_id":"cebpf4jnsgd1na2vs0mg"},{"bike_id":"bf37b10a-3bcb-4794-8e7c-da1499eb1701","system_id":"levelo_inurba_marseille","lat":43.26548,"lon":5.42316,"is_reserved":false,"is_disabled":false,"rental_uris":{"android":"levelo://app?vid=bf37b10a-3bcb-4794-8e7c-da1499eb1701","ios":"levelo://app?vid=bf37b10a-3bcb-4794-8e7c-da1499eb1701"},"vehicle_type_id":"4","last_reported":1734275309,"current_range_meters":5600,"station_id":"","pricing_plan_id":"cebpf4jnsgd1na2vs0mg"},{"bike_id":"ff58609e-dd62-4cb4-b79b-31ea2eb9a72f","system_id":"levelo_inurba_marseille","lat":43.25492,"lon":5.37651,"is_reserved":false,"is_disabled":true,"rental_uris":{"android":"levelo://app?vid=ff58609e-dd62-4cb4-b79b-31ea2eb9a72f","ios":"levelo://app?vid=ff58609e-dd62-4cb4-b79b-31ea2eb9a72f"},"vehicle_type_id":"4","last_reported":1734275309,"current_range_meters":0,"station_id":"ce4bhh12rcd13ifvqff0","pricing_plan_id":"cebpf4jnsgd1na2vs0mg"},{"bike_id":"92676c9b-b9d3-47dc-b554-520b4e0b8a37","system_id":"levelo_inurba_marseille","lat":43.30585,"lon":5.36711,"is_reserved":false,"is_disabled":false,"rental_uris":{"android":"levelo://app?vid=92676c9b-b9d3-47dc-b554-520b4e0b8a37","ios":"levelo://app?vid=92676c9b-b9d3-47dc-b554-520b4e0b8a37"},"vehicle_type_id":"4","last_reported":1734275309,"current_range_meters":28000,"station_id":"ce4bgrp2rcd13ifvqc9g","pricing_plan_id":"cebpf4jnsgd1na2vs0mg"},{"bike_id":"3f725346-3826-4f51-9c8b-a39390652a1c","system_id":"levelo_inurba_marseille","lat":43.29573,"lon":5.37518,"is_reserved":false,"is_disabled":false,"rental_uris":{"android":"levelo://app?vid=3f725346-3826-4f51-9c8b-a39390652a1c","ios":"levelo://app?vid=3f725346-3826-4f51-9c8b-a39390652a1c"},"vehicle_type_id":"4","last_reported":1734275309,"current_range_meters":16000,"station_id":"ce4bgh92rcd13ifvqb50","pricing_plan_id":"cebpf4jnsgd1na2vs0mg"},{"bike_id":"83e5b1f9-e512-4755-8dfd-f85222a054ac","system_id":"levelo_inurba_marseille","lat":43.26838,"lon":5.39641,"is_reserved":false,"is_disabled":false,"rental_uris":{"android":"levelo://app?vid=83e5b1f9-e512-4755-8dfd-f85222a054ac","ios":"levelo://app?vid=83e5b1f9-e512-4755-8dfd-f85222a054ac"},"vehicle_type_id":"4","last_reported":1734275309,"current_range_meters":16800,"station_id":"","pricing_plan_id":"cebpf4jnsgd1na2vs0mg"},{"bike_id":"483537f0-0a97-4bc9-b6b9-3700316f5817","system_id":"levelo_inurba_marseille","lat":43.29539,"lon":5.3855,"is_reserved":false,"is_disabled":true,"rental_uris":{"android":"levelo://app?vid=483537f0-0a97-4bc9-b6b9-3700316f5817","ios":"levelo://app?vid=483537f0-0a97-4bc9-b6b9-3700316f5817"},"vehicle_type_id":"4","last_reported":1734275309,"current_range_meters":33600,"station_id":"ce4bgih2rcd13ifvqba0","pricing_plan_id":"cebpf4jnsgd1na2vs0mg"},{"bike_id":"5bf25042-eac1-445e-8db0-4beda992c848","system_id":"levelo_inurba_marseille","lat":43.25488,"lon":5.37654,"is_reserved":false,"is_disabled":false,"rental_uris":{"android":"levelo://app?vid=5bf25042-eac1-445e-8db0-4beda992c848","ios":"levelo://app?vid=5bf25042-eac1-445e-8db0-4beda992c848"},"vehicle_type_id":"4","last_reported":1734275309,"current_range_meters":36800,"station_id":"ce4bhh12rcd13ifvqff0","pricing_plan_id":"cebpf4jnsgd1na2vs0mg"},{"bike_id":"3a42de44-4710-42ca-8738-fe180b47d31a","system_id":"levelo_inurba_marseille","lat":43.29225,"lon":5.36066,"is_reserved":false,"is_disabled":false,"rental_uris":{"android":"levelo://app?vid=3a42de44-4710-42ca-8738-fe180b47d31a","ios":"levelo://app?vid=3a42de44-4710-42ca-8738-fe180b47d31a"},"vehicle_type_id":"4","last_reported":1734275309,"current_range_meters":34800,"station_id":"ce4bhbh2rcd13ifvqeqg","pricing_plan_id":"cebpf4jnsgd1na2vs0mg"},{"bike_id":"a1e87f39-a169-437c-996c-14d84743b37e","system_id":"levelo_inurba_marseille","lat":43.23062,"lon":5.3549,"is_reserved":false,"is_disabled":false,"rental_uris":{"android":"levelo://app?vid=a1e87f39-a169-437c-996c-14d84743b37e","ios":"levelo://app?vid=a1e87f39-a169-437c-996c-14d84743b37e"},"vehicle_type_id":"4","last_reported":1734275309,"current_range_meters":10000,"station_id":"cpo3342slgdg3j2ifvpg","pricing_plan_id":"cebpf4jnsgd1na2vs0mg"},{"bike_id":"c976cc60-0ee0-42e8-9f75-425d602f30ed","system_id":"levelo_inurba_marseille","lat":43.29747,"lon":5.39389,"is_reserved":false,"is_disabled":false,"rental_uris":{"android":"levelo://app?vid=c976cc60-0ee0-42e8-9f75-425d602f30ed","ios":"levelo://app?vid=c976cc60-0ee0-42e8-9f75-425d602f30ed"},"vehicle_type_id":"4","last_reported":1734275309,"current_range_meters":32000,"station_id":"chh1huq6cuj3fo74tm60","pricing_plan_id":"cebpf4jnsgd1na2vs0mg"},{"bike_id":"a34223f5-c6be-48ba-acdb-c689c88a699e","system_id":"levelo_inurba_marseille","lat":43.26201,"lon":5.37463,"is_reserved":false,"is_disabled":true,"rental_uris":{"android":"levelo://app?vid=a34223f5-c6be-48ba-acdb-c689c88a699e","ios":"levelo://app?vid=a34223f5-c6be-48ba-acdb-c689c88a699e"},"vehicle_type_id":"4","last_reported":1734275309,"current_range_meters":12800,"station_id":"ce4bhgp2rcd13ifvqfc0","pricing_plan_id":"cebpf4jnsgd1na2vs0mg"},{"bike_id":"e890a470-ecbd-458e-adb6-fdb1c767948f","system_id":"levelo_inurba_marseille","lat":43.28606,"lon":5.37065,"is_reserved":false,"is_disabled":false,"rental_uris":{"android":"levelo://app?vid=e890a470-ecbd-458e-adb6-fdb1c767948f","ios":"levelo://app?vid=e890a470-ecbd-458e-adb6-fdb1c767948f"},"vehicle_type_id":"4","last_reported":1734275309,"current_range_meters":33600,"station_id":"ce4bht12rcd13ifvqi60","pricing_plan_id":"cebpf4jnsgd1na2vs0mg"},{"bike_id":"fb75c4ba-469f-42b4-9241-bb8348b4b4dd","system_id":"levelo_inurba_marseille","lat":43.26201,"lon":5.37935,"is_reserved":false,"is_disabled":false,"rental_uris":{"android":"levelo://app?vid=fb75c4ba-469f-42b4-9241-bb8348b4b4dd","ios":"levelo://app?vid=fb75c4ba-469f-42b4-9241-bb8348b4b4dd"},"vehicle_type_id":"4","last_reported":1734275309,"current_range_meters":16800,"station_id":"ce4bhjp2rcd13ifvqg90","pricing_plan_id":"cebpf4jnsgd1na2vs0mg"},{"bike_id":"418176fc-9612-4956-8ca9-9916bd2da767","system_id":"levelo_inurba_marseille","lat":43.33016,"lon":5.39035,"is_reserved":false,"is_disabled":false,"rental_uris":{"android":"levelo://app?vid=418176fc-9612-4956-8ca9-9916bd2da767","ios":"levelo://app?vid=418176fc-9612-4956-8ca9-9916bd2da767"},"vehicle_type_id":"4","last_reported":1734275309,"current_range_meters":20000,"station_id":"ce4bhr92rcd13ifvqhrg","pricing_plan_id":"cebpf4jnsgd1na2vs0mg"},{"bike_id":"b4f28572-e9c3-4d89-a9c6-b22627fb6aff","system_id":"levelo_inurba_marseille","lat":43.32534,"lon":5.41465,"is_reserved":false,"is_disabled":false,"rental_uris":{"android":"levelo://app?vid=b4f28572-e9c3-4d89-a9c6-b22627fb6aff","ios":"levelo://app?vid=b4f28572-e9c3-4d89-a9c6-b22627fb6aff"},"vehicle_type_id":"4","last_reported":1734275309,"current_range_meters":18800,"station_id":"ce4bhq12rcd13ifvqhhg","pricing_plan_id":"cebpf4jnsgd1na2vs0mg"},{"bike_id":"1163fe21-74e4-40ab-a103-f1c29f2ea8b1","system_id":"levelo_inurba_marseille","lat":43.25859,"lon":5.39907,"is_reserved":false,"is_disabled":false,"rental_uris":{"android":"levelo://app?vid=1163fe21-74e4-40ab-a103-f1c29f2ea8b1","ios":"levelo://app?vid=1163fe21-74e4-40ab-a103-f1c29f2ea8b1"},"vehicle_type_id":"4","last_reported":1734275309,"current_range_meters":38800,"station_id":"ce4bhl92rcd13ifvqghg","pricing_plan_id":"cebpf4jnsgd1na2vs0mg"},{"bike_id":"f40c81bf-1386-45a3-afdd-47a3a6dfab13","system_id":"levelo_inurba_marseille","lat":43.26059,"lon":5.39401,"is_reserved":false,"is_disabled":false,"rental_uris":{"android":"levelo://app?vid=f40c81bf-1386-45a3-afdd-47a3a6dfab13","ios":"levelo://app?vid=f40c81bf-1386-45a3-afdd-47a3a6dfab13"},"vehicle_type_id":"4","last_reported":1734275309,"current_range_meters":21600,"station_id":"ce4bhh92rcd13ifvqfj0","pricing_plan_id":"cebpf4jnsgd1na2vs0mg"},{"bike_id":"3ceb8620-8a84-4dff-8047-301dc3087867","system_id":"levelo_inurba_marseille","lat":43.27671,"lon":5.38931,"is_reserved":false,"is_disabled":true,"rental_uris":{"android":"levelo://app?vid=3ceb8620-8a84-4dff-8047-301dc3087867","ios":"levelo://app?vid=3ceb8620-8a84-4dff-8047-301dc3087867"},"vehicle_type_id":"4","last_reported":1734275309,"current_range_meters":38400,"station_id":"ce4bhi12rcd13ifvqfo0","pricing_plan_id":"cebpf4jnsgd1na2vs0mg"},{"bike_id":"e89eef15-44c4-4f21-894d-47da38a7ea25","system_id":"levelo_inurba_marseille","lat":43.30134,"lon":5.37421,"is_reserved":false,"is_disabled":false,"rental_uris":{"android":"levelo://app?vid=e89eef15-44c4-4f21-894d-47da38a7ea25","ios":"levelo://app?vid=e89eef15-44c4-4f21-894d-47da38a7ea25"},"vehicle_type_id":"4","last_reported":1734275309,"current_range_meters":18000,"station_id":"ce4bgs92rcd13ifvqcc0","pricing_plan_id":"cebpf4jnsgd1na2vs0mg"},{"bike_id":"4e3eebec-f009-4887-809b-5f30495d5092","system_id":"levelo_inurba_marseille","lat":43.28699,"lon":5.37396,"is_reserved":false,"is_disabled":true,"rental_uris":{"android":"levelo://app?vid=4e3eebec-f009-4887-809b-5f30495d5092","ios":"levelo://app?vid=4e3eebec-f009-4887-809b-5f30495d5092"},"vehicle_type_id":"4","last_reported":1734275309,"current_range_meters":18800,"station_id":"ce4bh3p2rcd13ifvqdq0","pricing_plan_id":"cebpf4jnsgd1na2vs0mg"},{"bike_id":"eb1496f4-67ed-47fd-8660-60023378367f","system_id":"levelo_inurba_marseille","lat":43.294212,"lon":5.374322,"is_reserved":false,"is_disabled":true,"rental_uris":{"android":"levelo://app?vid=eb1496f4-67ed-47fd-8660-60023378367f","ios":"levelo://app?vid=eb1496f4-67ed-47fd-8660-60023378367f"},"vehicle_type_id":"4","last_reported":1734275309,"current_range_meters":0,"station_id":"","pricing_plan_id":"cebpf4jnsgd1na2vs0mg"},{"bike_id":"71adf873-8534-4b4c-88ad-a35b28cb9554","system_id":"levelo_inurba_marseille","lat":43.24736,"lon":5.41154,"is_reserved":false,"is_disabled":false,"rental_uris":{"android":"levelo://app?vid=71adf873-8534-4b4c-88ad-a35b28cb9554","ios":"levelo://app?vid=71adf873-8534-4b4c-88ad-a35b28cb9554"},"vehicle_type_id":"4","last_reported":1734275309,"current_range_meters":22000,"station_id":"","pricing_plan_id":"cebpf4jnsgd1na2vs0mg"},{"bike_id":"c0c3fc51-3be3-4932-a397-78224f09cbb8","system_id":"levelo_inurba_marseille","lat":43.31225,"lon":5.36874,"is_reserved":false,"is_disabled":false,"rental_uris":{"android":"levelo://app?vid=c0c3fc51-3be3-4932-a397-78224f09cbb8","ios":"levelo://app?vid=c0c3fc51-3be3-4932-a397-78224f09cbb8"},"vehicle_type_id":"4","last_reported":1734275309,"current_range_meters":28000,"station_id":"ce4bgl92rcd13ifvqbq0","pricing_plan_id":"cebpf4jnsgd1na2vs0mg"},{"bike_id":"388ebf45-a2a0-4ffe-9256-c3dd230ec0e1","system_id":"levelo_inurba_marseille","lat":43.28667,"lon":5.38658,"is_reserved":false,"is_disabled":false,"rental_uris":{"android":"levelo://app?vid=388ebf45-a2a0-4ffe-9256-c3dd230ec0e1","ios":"levelo://app?vid=388ebf45-a2a0-4ffe-9256-c3dd230ec0e1"},"vehicle_type_id":"4","last_reported":1734275309,"current_range_meters":17200,"station_id":"ce4bh492rcd13ifvqdug","pricing_plan_id":"cebpf4jnsgd1na2vs0mg"},{"bike_id":"071eec5c-8b96-4b3c-89aa-dad49fa44c6b","system_id":"levelo_inurba_marseille","lat":43.24998,"lon":5.38928,"is_reserved":false,"is_disabled":false,"rental_uris":{"android":"levelo://app?vid=071eec5c-8b96-4b3c-89aa-dad49fa44c6b","ios":"levelo://app?vid=071eec5c-8b96-4b3c-89aa-dad49fa44c6b"},"vehicle_type_id":"4","last_reported":1734275309,"current_range_meters":38800,"station_id":"ce4bhgp2rcd13ifvqfd0","pricing_plan_id":"cebpf4jnsgd1na2vs0mg"},{"bike_id":"e417af0d-29ea-459e-9bdd-15daa8ff17e0","system_id":"levelo_inurba_marseille","lat":43.2953,"lon":5.38562,"is_reserved":false,"is_disabled":true,"rental_uris":{"android":"levelo://app?vid=e417af0d-29ea-459e-9bdd-15daa8ff17e0","ios":"levelo://app?vid=e417af0d-29ea-459e-9bdd-15daa8ff17e0"},"vehicle_type_id":"4","last_reported":1734275309,"current_range_meters":37600,"station_id":"ce4bgih2rcd13ifvqba0","pricing_plan_id":"cebpf4jnsgd1na2vs0mg"},{"bike_id":"0a2adcfa-cbfd-49da-b009-7c02104a2588","system_id":"levelo_inurba_marseille","lat":43.27074,"lon":5.42281,"is_reserved":false,"is_disabled":true,"rental_uris":{"android":"levelo://app?vid=0a2adcfa-cbfd-49da-b009-7c02104a2588","ios":"levelo://app?vid=0a2adcfa-cbfd-49da-b009-7c02104a2588"},"vehicle_type_id":"4","last_reported":1734275309,"current_range_meters":0,"station_id":"ce4bhk92rcd13ifvqgb0","pricing_plan_id":"cebpf4jnsgd1na2vs0mg"},{"bike_id":"0df249be-7d40-48ad-8915-752593b717dd","system_id":"levelo_inurba_marseille","lat":43.23199,"lon":5.35565,"is_reserved":false,"is_disabled":false,"rental_uris":{"android":"levelo://app?vid=0df249be-7d40-48ad-8915-752593b717dd","ios":"levelo://app?vid=0df249be-7d40-48ad-8915-752593b717dd"},"vehicle_type_id":"4","last_reported":1734275309,"current_range_meters":28800,"station_id":"ce4bhu92rcd13ifvqi70","pricing_plan_id":"cebpf4jnsgd1na2vs0mg"},{"bike_id":"b99d6888-c39e-4637-8fac-1dc1b9a9e1de","system_id":"levelo_inurba_marseille","lat":43.25481,"lon":5.37657,"is_reserved":false,"is_disabled":false,"rental_uris":{"android":"levelo://app?vid=b99d6888-c39e-4637-8fac-1dc1b9a9e1de","ios":"levelo://app?vid=b99d6888-c39e-4637-8fac-1dc1b9a9e1de"},"vehicle_type_id":"4","last_reported":1734275309,"current_range_meters":8400,"station_id":"ce4bhh12rcd13ifvqff0","pricing_plan_id":"cebpf4jnsgd1na2vs0mg"},{"bike_id":"abdf81ec-e98d-4dee-9e25-ca8f28442f23","system_id":"levelo_inurba_marseille","lat":43.29737,"lon":5.40716,"is_reserved":false,"is_disabled":true,"rental_uris":{"android":"levelo://app?vid=abdf81ec-e98d-4dee-9e25-ca8f28442f23","ios":"levelo://app?vid=abdf81ec-e98d-4dee-9e25-ca8f28442f23"},"vehicle_type_id":"4","last_reported":1734275309,"current_range_meters":0,"station_id":"","pricing_plan_id":"cebpf4jnsgd1na2vs0mg"},{"bike_id":"c68db57d-783a-4064-a144-068182cc62b5","system_id":"levelo_inurba_marseille","lat":43.30274,"lon":5.37698,"is_reserved":false,"is_disabled":false,"rental_uris":{"android":"levelo://app?vid=c68db57d-783a-4064-a144-068182cc62b5","ios":"levelo://app?vid=c68db57d-783a-4064-a144-068182cc62b5"},"vehicle_type_id":"4","last_reported":1734275309,"current_range_meters":11600,"station_id":"ce4bguh2rcd13ifvqcj0","pricing_plan_id":"cebpf4jnsgd1na2vs0mg"},{"bike_id":"4a1bc0db-6a2c-4623-8864-d2d18510681f","system_id":"levelo_inurba_marseille","lat":43.23187,"lon":5.35554,"is_reserved":false,"is_disabled":false,"rental_uris":{"android":"levelo://app?vid=4a1bc0db-6a2c-4623-8864-d2d18510681f","ios":"levelo://app?vid=4a1bc0db-6a2c-4623-8864-d2d18510681f"},"vehicle_type_id":"4","last_reported":1734275309,"current_range_meters":16400,"station_id":"ce4bhu92rcd13ifvqi70","pricing_plan_id":"cebpf4jnsgd1na2vs0mg"},{"bike_id":"8015d203-b352-4fc0-b5f4-26e7d561872f","system_id":"levelo_inurba_marseille","lat":43.26554,"lon":5.37288,"is_reserved":false,"is_disabled":false,"rental_uris":{"android":"levelo://app?vid=8015d203-b352-4fc0-b5f4-26e7d561872f","ios":"levelo://app?vid=8015d203-b352-4fc0-b5f4-26e7d561872f"},"vehicle_type_id":"4","last_reported":1734275309,"current_range_meters":30400,"station_id":"ce4bhg12rcd13ifvqf70","pricing_plan_id":"cebpf4jnsgd1na2vs0mg"},{"bike_id":"d69bc675-7801-4e9e-986c-743536dec09d","system_id":"levelo_inurba_marseille","lat":43.27624,"lon":5.36119,"is_reserved":false,"is_disabled":false,"rental_uris":{"android":"levelo://app?vid=d69bc675-7801-4e9e-986c-743536dec09d","ios":"levelo://app?vid=d69bc675-7801-4e9e-986c-743536dec09d"},"vehicle_type_id":"4","last_reported":1734275309,"current_range_meters":30400,"station_id":"ce4bgj92rcd13ifvqbe0","pricing_plan_id":"cebpf4jnsgd1na2vs0mg"},{"bike_id":"a39cc1fe-b4af-4f67-bb99-68124b680dd7","system_id":"levelo_inurba_marseille","lat":43.33601,"lon":5.41013,"is_reserved":false,"is_disabled":false,"rental_uris":{"android":"levelo://app?vid=a39cc1fe-b4af-4f67-bb99-68124b680dd7","ios":"levelo://app?vid=a39cc1fe-b4af-4f67-bb99-68124b680dd7"},"vehicle_type_id":"4","last_reported":1734275309,"current_range_meters":5600,"station_id":"ce4bhqh2rcd13ifvqhmg","pricing_plan_id":"cebpf4jnsgd1na2vs0mg"},{"bike_id":"2b21e4b6-00ce-4121-9314-8498f3fbebe0","system_id":"levelo_inurba_marseille","lat":43.31492,"lon":5.37314,"is_reserved":false,"is_disabled":false,"rental_uris":{"android":"levelo://app?vid=2b21e4b6-00ce-4121-9314-8498f3fbebe0","ios":"levelo://app?vid=2b21e4b6-00ce-4121-9314-8498f3fbebe0"},"vehicle_type_id":"4","last_reported":1734275309,"current_range_meters":39200,"station_id":"ce4bgt12rcd13ifvqcd0","pricing_plan_id":"cebpf4jnsgd1na2vs0mg"},{"bike_id":"ecbfcd56-e2e9-411a-916b-327a5fa7e43b","system_id":"levelo_inurba_marseille","lat":43.29999,"lon":5.37386,"is_reserved":false,"is_disabled":false,"rental_uris":{"android":"levelo://app?vid=ecbfcd56-e2e9-411a-916b-327a5fa7e43b","ios":"levelo://app?vid=ecbfcd56-e2e9-411a-916b-327a5fa7e43b"},"vehicle_type_id":"4","last_reported":1734275309,"current_range_meters":24400,"station_id":"","pricing_plan_id":"cebpf4jnsgd1na2vs0mg"},{"bike_id":"f9058d8c-0917-4d9f-a0ce-f51dfd2def06","system_id":"levelo_inurba_marseille","lat":43.26804,"lon":5.40255,"is_reserved":false,"is_disabled":false,"rental_uris":{"android":"levelo://app?vid=f9058d8c-0917-4d9f-a0ce-f51dfd2def06","ios":"levelo://app?vid=f9058d8c-0917-4d9f-a0ce-f51dfd2def06"},"vehicle_type_id":"4","last_reported":1734275309,"current_range_meters":38400,"station_id":"ce501612rcd8frsf0b60","pricing_plan_id":"cebpf4jnsgd1na2vs0mg"},{"bike_id":"182ded38-f59a-4d9e-9467-0cfa584f0876","system_id":"levelo_inurba_marseille","lat":43.28101,"lon":5.37838,"is_reserved":false,"is_disabled":false,"rental_uris":{"android":"levelo://app?vid=182ded38-f59a-4d9e-9467-0cfa584f0876","ios":"levelo://app?vid=182ded38-f59a-4d9e-9467-0cfa584f0876"},"vehicle_type_id":"4","last_reported":1734275309,"current_range_meters":19200,"station_id":"ce4bha12rcd13ifvqee0","pricing_plan_id":"cebpf4jnsgd1na2vs0mg"},{"bike_id":"a170ba40-17b7-4bf6-90f8-c07a5cf55709","system_id":"levelo_inurba_marseille","lat":43.24647,"lon":5.38876,"is_reserved":false,"is_disabled":true,"rental_uris":{"android":"levelo://app?vid=a170ba40-17b7-4bf6-90f8-c07a5cf55709","ios":"levelo://app?vid=a170ba40-17b7-4bf6-90f8-c07a5cf55709"},"vehicle_type_id":"4","last_reported":1734275309,"current_range_meters":38000,"station_id":"ce4bhg12rcd13ifvqf60","pricing_plan_id":"cebpf4jnsgd1na2vs0mg"},{"bike_id":"b89cd02a-44c8-4fbb-83be-fee20ca926ec","system_id":"levelo_inurba_marseille","lat":43.25116,"lon":5.40329,"is_reserved":false,"is_disabled":false,"rental_uris":{"android":"levelo://app?vid=b89cd02a-44c8-4fbb-83be-fee20ca926ec","ios":"levelo://app?vid=b89cd02a-44c8-4fbb-83be-fee20ca926ec"},"vehicle_type_id":"4","last_reported":1734275309,"current_range_meters":38000,"station_id":"ce4bhlh2rcd13ifvqgig","pricing_plan_id":"cebpf4jnsgd1na2vs0mg"},{"bike_id":"27b317b7-ef3e-4fab-a731-0cb4771be0aa","system_id":"levelo_inurba_marseille","lat":43.23192,"lon":5.35557,"is_reserved":false,"is_disabled":false,"rental_uris":{"android":"levelo://app?vid=27b317b7-ef3e-4fab-a731-0cb4771be0aa","ios":"levelo://app?vid=27b317b7-ef3e-4fab-a731-0cb4771be0aa"},"vehicle_type_id":"4","last_reported":1734275309,"current_range_meters":28400,"station_id":"ce4bhu92rcd13ifvqi70","pricing_plan_id":"cebpf4jnsgd1na2vs0mg"},{"bike_id":"8dabc0b8-9e7a-41af-9246-18494513dd77","system_id":"levelo_inurba_marseille","lat":43.2847,"lon":5.38423,"is_reserved":false,"is_disabled":false,"rental_uris":{"android":"levelo://app?vid=8dabc0b8-9e7a-41af-9246-18494513dd77","ios":"levelo://app?vid=8dabc0b8-9e7a-41af-9246-18494513dd77"},"vehicle_type_id":"4","last_reported":1734275309,"current_range_meters":38800,"station_id":"ce4bh512rcd13ifvqe3g","pricing_plan_id":"cebpf4jnsgd1na2vs0mg"},{"bike_id":"9462b2a7-07e4-4988-a09e-5847dafa59c1","system_id":"levelo_inurba_marseille","lat":43.23968,"lon":5.36632,"is_reserved":false,"is_disabled":false,"rental_uris":{"android":"levelo://app?vid=9462b2a7-07e4-4988-a09e-5847dafa59c1","ios":"levelo://app?vid=9462b2a7-07e4-4988-a09e-5847dafa59c1"},"vehicle_type_id":"4","last_reported":1734275309,"current_range_meters":37600,"station_id":"ce4bhi12rcd13ifvqfp0","pricing_plan_id":"cebpf4jnsgd1na2vs0mg"},{"bike_id":"6bed8608-f67b-4ea9-9f04-59734b18ea67","system_id":"levelo_inurba_marseille","lat":43.30563,"lon":5.36583,"is_reserved":false,"is_disabled":false,"rental_uris":{"android":"levelo://app?vid=6bed8608-f67b-4ea9-9f04-59734b18ea67","ios":"levelo://app?vid=6bed8608-f67b-4ea9-9f04-59734b18ea67"},"vehicle_type_id":"4","last_reported":1734275309,"current_range_meters":6400,"station_id":"ce4bgs12rcd13ifvqcag","pricing_plan_id":"cebpf4jnsgd1na2vs0mg"},{"bike_id":"6eee5416-3e1c-4ebb-b2f9-894ea316c5d5","system_id":"levelo_inurba_marseille","lat":43.31761,"lon":5.3902,"is_reserved":false,"is_disabled":false,"rental_uris":{"android":"levelo://app?vid=6eee5416-3e1c-4ebb-b2f9-894ea316c5d5","ios":"levelo://app?vid=6eee5416-3e1c-4ebb-b2f9-894ea316c5d5"},"vehicle_type_id":"4","last_reported":1734275309,"current_range_meters":38400,"station_id":"ce4bhqp2rcd13ifvqhng","pricing_plan_id":"cebpf4jnsgd1na2vs0mg"},{"bike_id":"266f7fca-62d8-462d-83ba-67663ab9bbef","system_id":"levelo_inurba_marseille","lat":43.25108,"lon":5.40311,"is_reserved":false,"is_disabled":false,"rental_uris":{"android":"levelo://app?vid=266f7fca-62d8-462d-83ba-67663ab9bbef","ios":"levelo://app?vid=266f7fca-62d8-462d-83ba-67663ab9bbef"},"vehicle_type_id":"4","last_reported":1734275309,"current_range_meters":35200,"station_id":"ce4bhlh2rcd13ifvqgig","pricing_plan_id":"cebpf4jnsgd1na2vs0mg"},{"bike_id":"2add9805-6fe1-496b-95ec-c3450a7c4a57","system_id":"levelo_inurba_marseille","lat":43.30044,"lon":5.37428,"is_reserved":false,"is_disabled":true,"rental_uris":{"android":"levelo://app?vid=2add9805-6fe1-496b-95ec-c3450a7c4a57","ios":"levelo://app?vid=2add9805-6fe1-496b-95ec-c3450a7c4a57"},"vehicle_type_id":"4","last_reported":1734275309,"current_range_meters":0,"station_id":"","pricing_plan_id":"cebpf4jnsgd1na2vs0mg"},{"bike_id":"463de2c6-a372-4926-abb0-0c0a1c8b8662","system_id":"levelo_inurba_marseille","lat":43.28257,"lon":5.35083,"is_reserved":false,"is_disabled":false,"rental_uris":{"android":"levelo://app?vid=463de2c6-a372-4926-abb0-0c0a1c8b8662","ios":"levelo://app?vid=463de2c6-a372-4926-abb0-0c0a1c8b8662"},"vehicle_type_id":"4","last_reported":1734275309,"current_range_meters":39200,"station_id":"ce4bhbp2rcd13ifvqerg","pricing_plan_id":"cebpf4jnsgd1na2vs0mg"},{"bike_id":"57c15e22-00e1-4272-a435-63f16a8351e6","system_id":"levelo_inurba_marseille","lat":43.32993,"lon":5.39019,"is_reserved":false,"is_disabled":false,"rental_uris":{"android":"levelo://app?vid=57c15e22-00e1-4272-a435-63f16a8351e6","ios":"levelo://app?vid=57c15e22-00e1-4272-a435-63f16a8351e6"},"vehicle_type_id":"4","last_reported":1734275309,"current_range_meters":36800,"station_id":"ce4bhr92rcd13ifvqhrg","pricing_plan_id":"cebpf4jnsgd1na2vs0mg"},{"bike_id":"e6daa3b0-d355-4eb9-8e91-304a7094997b","system_id":"levelo_inurba_marseille","lat":43.29896,"lon":5.43668,"is_reserved":false,"is_disabled":false,"rental_uris":{"android":"levelo://app?vid=e6daa3b0-d355-4eb9-8e91-304a7094997b","ios":"levelo://app?vid=e6daa3b0-d355-4eb9-8e91-304a7094997b"},"vehicle_type_id":"4","last_reported":1734275309,"current_range_meters":14400,"station_id":"ce4bhpp2rcd13ifvqhfg","pricing_plan_id":"cebpf4jnsgd1na2vs0mg"},{"bike_id":"0c55f187-2e1c-4a02-b585-573fe7a0dd3e","system_id":"levelo_inurba_marseille","lat":43.28614,"lon":5.35107,"is_reserved":false,"is_disabled":false,"rental_uris":{"android":"levelo://app?vid=0c55f187-2e1c-4a02-b585-573fe7a0dd3e","ios":"levelo://app?vid=0c55f187-2e1c-4a02-b585-573fe7a0dd3e"},"vehicle_type_id":"4","last_reported":1734275309,"current_range_meters":33600,"station_id":"ce4bhch2rcd13ifvqeug","pricing_plan_id":"cebpf4jnsgd1na2vs0mg"},{"bike_id":"ae9f19a7-13fd-45a7-a2b8-065651f86f28","system_id":"levelo_inurba_marseille","lat":43.284801,"lon":5.384053,"is_reserved":false,"is_disabled":false,"rental_uris":{"android":"levelo://app?vid=ae9f19a7-13fd-45a7-a2b8-065651f86f28","ios":"levelo://app?vid=ae9f19a7-13fd-45a7-a2b8-065651f86f28"},"vehicle_type_id":"4","last_reported":1734275309,"current_range_meters":38800,"station_id":"ce4bh512rcd13ifvqe3g","pricing_plan_id":"cebpf4jnsgd1na2vs0mg"},{"bike_id":"884cd0c4-31c3-4d0a-8ee6-7fc84f28964e","system_id":"levelo_inurba_marseille","lat":43.28273,"lon":5.35077,"is_reserved":false,"is_disabled":false,"rental_uris":{"android":"levelo://app?vid=884cd0c4-31c3-4d0a-8ee6-7fc84f28964e","ios":"levelo://app?vid=884cd0c4-31c3-4d0a-8ee6-7fc84f28964e"},"vehicle_type_id":"4","last_reported":1734275309,"current_range_meters":30400,"station_id":"ce4bhbp2rcd13ifvqerg","pricing_plan_id":"cebpf4jnsgd1na2vs0mg"},{"bike_id":"63eaffe0-9361-4ff6-ab19-8007100ee7ae","system_id":"levelo_inurba_marseille","lat":43.24172,"lon":5.39728,"is_reserved":false,"is_disabled":false,"rental_uris":{"android":"levelo://app?vid=63eaffe0-9361-4ff6-ab19-8007100ee7ae","ios":"levelo://app?vid=63eaffe0-9361-4ff6-ab19-8007100ee7ae"},"vehicle_type_id":"4","last_reported":1734275309,"current_range_meters":36400,"station_id":"ce4bhn12rcd13ifvqgpg","pricing_plan_id":"cebpf4jnsgd1na2vs0mg"},{"bike_id":"604f4c53-7126-4c38-a496-1deeabae457e","system_id":"levelo_inurba_marseille","lat":43.24065,"lon":5.37766,"is_reserved":false,"is_disabled":false,"rental_uris":{"android":"levelo://app?vid=604f4c53-7126-4c38-a496-1deeabae457e","ios":"levelo://app?vid=604f4c53-7126-4c38-a496-1deeabae457e"},"vehicle_type_id":"4","last_reported":1734275309,"current_range_meters":37600,"station_id":"ce4bhnp2rcd13ifvqgvg","pricing_plan_id":"cebpf4jnsgd1na2vs0mg"},{"bike_id":"42a9fc7b-2157-484b-af45-9c4cfe567a80","system_id":"levelo_inurba_marseille","lat":43.25571,"lon":5.38243,"is_reserved":false,"is_disabled":false,"rental_uris":{"android":"levelo://app?vid=42a9fc7b-2157-484b-af45-9c4cfe567a80","ios":"levelo://app?vid=42a9fc7b-2157-484b-af45-9c4cfe567a80"},"vehicle_type_id":"4","last_reported":1734275309,"current_range_meters":38800,"station_id":"ce4bhih2rcd13ifvqfs0","pricing_plan_id":"cebpf4jnsgd1na2vs0mg"},{"bike_id":"9fdf14e4-10ed-4e7e-8c4d-bcab651469f2","system_id":"levelo_inurba_marseille","lat":43.29284,"lon":5.37458,"is_reserved":false,"is_disabled":false,"rental_uris":{"android":"levelo://app?vid=9fdf14e4-10ed-4e7e-8c4d-bcab651469f2","ios":"levelo://app?vid=9fdf14e4-10ed-4e7e-8c4d-bcab651469f2"},"vehicle_type_id":"4","last_reported":1734275309,"current_range_meters":13600,"station_id":"ce4bgi12rcd13ifvqb70","pricing_plan_id":"cebpf4jnsgd1na2vs0mg"},{"bike_id":"96ac2106-0829-446c-8de6-e42788e73c4d","system_id":"levelo_inurba_marseille","lat":43.27373,"lon":5.36267,"is_reserved":false,"is_disabled":false,"rental_uris":{"android":"levelo://app?vid=96ac2106-0829-446c-8de6-e42788e73c4d","ios":"levelo://app?vid=96ac2106-0829-446c-8de6-e42788e73c4d"},"vehicle_type_id":"4","last_reported":1734275309,"current_range_meters":38800,"station_id":"ce4bhbh2rcd13ifvqeo0","pricing_plan_id":"cebpf4jnsgd1na2vs0mg"},{"bike_id":"af5005fc-d058-4152-a2f0-a599ec2fe143","system_id":"levelo_inurba_marseille","lat":43.32289,"lon":5.38278,"is_reserved":false,"is_disabled":false,"rental_uris":{"android":"levelo://app?vid=af5005fc-d058-4152-a2f0-a599ec2fe143","ios":"levelo://app?vid=af5005fc-d058-4152-a2f0-a599ec2fe143"},"vehicle_type_id":"4","last_reported":1734275309,"current_range_meters":38800,"station_id":"ce4bhr12rcd13ifvqhqg","pricing_plan_id":"cebpf4jnsgd1na2vs0mg"},{"bike_id":"3650d84c-d2fd-4728-abeb-b9accdfa7210","system_id":"levelo_inurba_marseille","lat":43.30239,"lon":5.4007,"is_reserved":false,"is_disabled":true,"rental_uris":{"android":"levelo://app?vid=3650d84c-d2fd-4728-abeb-b9accdfa7210","ios":"levelo://app?vid=3650d84c-d2fd-4728-abeb-b9accdfa7210"},"vehicle_type_id":"4","last_reported":1734275309,"current_range_meters":21600,"station_id":"ce4bgvh2rcd13ifvqcs0","pricing_plan_id":"cebpf4jnsgd1na2vs0mg"},{"bike_id":"bfd65704-e67e-4a70-8396-93d37f430a3e","system_id":"levelo_inurba_marseille","lat":43.30809,"lon":5.38182,"is_reserved":false,"is_disabled":true,"rental_uris":{"android":"levelo://app?vid=bfd65704-e67e-4a70-8396-93d37f430a3e","ios":"levelo://app?vid=bfd65704-e67e-4a70-8396-93d37f430a3e"},"vehicle_type_id":"4","last_reported":1734275309,"current_range_meters":0,"station_id":"ce4bgt12rcd13ifvqce0","pricing_plan_id":"cebpf4jnsgd1na2vs0mg"},{"bike_id":"b78abdd0-5f07-43ee-acb2-0dd6a958058f","system_id":"levelo_inurba_marseille","lat":43.29948,"lon":5.37127,"is_reserved":false,"is_disabled":false,"rental_uris":{"android":"levelo://app?vid=b78abdd0-5f07-43ee-acb2-0dd6a958058f","ios":"levelo://app?vid=b78abdd0-5f07-43ee-acb2-0dd6a958058f"},"vehicle_type_id":"4","last_reported":1734275309,"current_range_meters":38800,"station_id":"","pricing_plan_id":"cebpf4jnsgd1na2vs0mg"},{"bike_id":"fd3cd50f-6bf4-41ac-821b-d14c90f4be7b","system_id":"levelo_inurba_marseille","lat":43.25107,"lon":5.40335,"is_reserved":false,"is_disabled":false,"rental_uris":{"android":"levelo://app?vid=fd3cd50f-6bf4-41ac-821b-d14c90f4be7b","ios":"levelo://app?vid=fd3cd50f-6bf4-41ac-821b-d14c90f4be7b"},"vehicle_type_id":"4","last_reported":1734275309,"current_range_meters":38000,"station_id":"ce4bhlh2rcd13ifvqgig","pricing_plan_id":"cebpf4jnsgd1na2vs0mg"},{"bike_id":"cee8f720-c7c4-42ff-883c-069941a8e1f2","system_id":"levelo_inurba_marseille","lat":43.28658,"lon":5.36349,"is_reserved":false,"is_disabled":false,"rental_uris":{"android":"levelo://app?vid=cee8f720-c7c4-42ff-883c-069941a8e1f2","ios":"levelo://app?vid=cee8f720-c7c4-42ff-883c-069941a8e1f2"},"vehicle_type_id":"4","last_reported":1734275309,"current_range_meters":6400,"station_id":"ce4bhah2rcd13ifvqej0","pricing_plan_id":"cebpf4jnsgd1na2vs0mg"},{"bike_id":"05ee7380-d861-454f-8fa5-57e28144ac31","system_id":"levelo_inurba_marseille","lat":43.30592,"lon":5.39362,"is_reserved":false,"is_disabled":false,"rental_uris":{"android":"levelo://app?vid=05ee7380-d861-454f-8fa5-57e28144ac31","ios":"levelo://app?vid=05ee7380-d861-454f-8fa5-57e28144ac31"},"vehicle_type_id":"4","last_reported":1734275309,"current_range_meters":19600,"station_id":"ce4bh0p2rcd13ifvqd80","pricing_plan_id":"cebpf4jnsgd1na2vs0mg"},{"bike_id":"76805181-b86b-42c5-9eb1-0613fe81a89e","system_id":"levelo_inurba_marseille","lat":43.232,"lon":5.35552,"is_reserved":false,"is_disabled":false,"rental_uris":{"android":"levelo://app?vid=76805181-b86b-42c5-9eb1-0613fe81a89e","ios":"levelo://app?vid=76805181-b86b-42c5-9eb1-0613fe81a89e"},"vehicle_type_id":"4","last_reported":1734275309,"current_range_meters":38800,"station_id":"ce4bhu92rcd13ifvqi70","pricing_plan_id":"cebpf4jnsgd1na2vs0mg"},{"bike_id":"9bf84596-16a1-4c5f-a66a-089d123a8630","system_id":"levelo_inurba_marseille","lat":43.28263,"lon":5.35073,"is_reserved":false,"is_disabled":false,"rental_uris":{"android":"levelo://app?vid=9bf84596-16a1-4c5f-a66a-089d123a8630","ios":"levelo://app?vid=9bf84596-16a1-4c5f-a66a-089d123a8630"},"vehicle_type_id":"4","last_reported":1734275309,"current_range_meters":38800,"station_id":"ce4bhbp2rcd13ifvqerg","pricing_plan_id":"cebpf4jnsgd1na2vs0mg"},{"bike_id":"6069fe6f-3d12-436c-ba1a-a6e9607abbd3","system_id":"levelo_inurba_marseille","lat":43.32551,"lon":5.41477,"is_reserved":false,"is_disabled":false,"rental_uris":{"android":"levelo://app?vid=6069fe6f-3d12-436c-ba1a-a6e9607abbd3","ios":"levelo://app?vid=6069fe6f-3d12-436c-ba1a-a6e9607abbd3"},"vehicle_type_id":"4","last_reported":1734275309,"current_range_meters":27200,"station_id":"ce4bhq12rcd13ifvqhhg","pricing_plan_id":"cebpf4jnsgd1na2vs0mg"},{"bike_id":"84acc636-018c-4df7-836e-71ecb7218dd4","system_id":"levelo_inurba_marseille","lat":43.29197,"lon":5.3581,"is_reserved":true,"is_disabled":false,"rental_uris":{"android":"levelo://app?vid=84acc636-018c-4df7-836e-71ecb7218dd4","ios":"levelo://app?vid=84acc636-018c-4df7-836e-71ecb7218dd4"},"vehicle_type_id":"4","last_reported":1734275309,"current_range_meters":29600,"station_id":"ce4bhb12rcd13ifvqel0","pricing_plan_id":"cebpf4jnsgd1na2vs0mg"},{"bike_id":"4d72d9bb-fe00-4be4-8f2a-52a2f5b7f0f1","system_id":"levelo_inurba_marseille","lat":43.28006,"lon":5.36942,"is_reserved":true,"is_disabled":false,"rental_uris":{"android":"levelo://app?vid=4d72d9bb-fe00-4be4-8f2a-52a2f5b7f0f1","ios":"levelo://app?vid=4d72d9bb-fe00-4be4-8f2a-52a2f5b7f0f1"},"vehicle_type_id":"4","last_reported":1734275309,"current_range_meters":39200,"station_id":"ce4bha12rcd13ifvqef0","pricing_plan_id":"cebpf4jnsgd1na2vs0mg"},{"bike_id":"6cb5f94f-eade-4b7c-b995-84c805be74f9","system_id":"levelo_inurba_marseille","lat":43.33779,"lon":5.37414,"is_reserved":false,"is_disabled":false,"rental_uris":{"android":"levelo://app?vid=6cb5f94f-eade-4b7c-b995-84c805be74f9","ios":"levelo://app?vid=6cb5f94f-eade-4b7c-b995-84c805be74f9"},"vehicle_type_id":"4","last_reported":1734275309,"current_range_meters":34800,"station_id":"","pricing_plan_id":"cebpf4jnsgd1na2vs0mg"},{"bike_id":"5cded315-570b-4c0b-b015-bac53bb71581","system_id":"levelo_inurba_marseille","lat":43.28563,"lon":5.38877,"is_reserved":false,"is_disabled":true,"rental_uris":{"android":"levelo://app?vid=5cded315-570b-4c0b-b015-bac53bb71581","ios":"levelo://app?vid=5cded315-570b-4c0b-b015-bac53bb71581"},"vehicle_type_id":"4","last_reported":1734275309,"current_range_meters":0,"station_id":"","pricing_plan_id":"cebpf4jnsgd1na2vs0mg"},{"bike_id":"c2e5394a-3e99-4662-8699-dbbc7ce50f3a","system_id":"levelo_inurba_marseille","lat":43.30211,"lon":5.39466,"is_reserved":false,"is_disabled":false,"rental_uris":{"android":"levelo://app?vid=c2e5394a-3e99-4662-8699-dbbc7ce50f3a","ios":"levelo://app?vid=c2e5394a-3e99-4662-8699-dbbc7ce50f3a"},"vehicle_type_id":"4","last_reported":1734275309,"current_range_meters":4400,"station_id":"ce4bh0p2rcd13ifvqd70","pricing_plan_id":"cebpf4jnsgd1na2vs0mg"},{"bike_id":"5698604e-aaa5-42b6-9f56-06778c2d2e5a","system_id":"levelo_inurba_marseille","lat":43.25116,"lon":5.40322,"is_reserved":false,"is_disabled":false,"rental_uris":{"android":"levelo://app?vid=5698604e-aaa5-42b6-9f56-06778c2d2e5a","ios":"levelo://app?vid=5698604e-aaa5-42b6-9f56-06778c2d2e5a"},"vehicle_type_id":"4","last_reported":1734275309,"current_range_meters":38800,"station_id":"ce4bhlh2rcd13ifvqgig","pricing_plan_id":"cebpf4jnsgd1na2vs0mg"},{"bike_id":"61059a51-39d7-4f0a-a098-bfd36e6d1bf2","system_id":"levelo_inurba_marseille","lat":43.31759,"lon":5.39017,"is_reserved":false,"is_disabled":false,"rental_uris":{"android":"levelo://app?vid=61059a51-39d7-4f0a-a098-bfd36e6d1bf2","ios":"levelo://app?vid=61059a51-39d7-4f0a-a098-bfd36e6d1bf2"},"vehicle_type_id":"4","last_reported":1734275309,"current_range_meters":37600,"station_id":"ce4bhqp2rcd13ifvqhng","pricing_plan_id":"cebpf4jnsgd1na2vs0mg"},{"bike_id":"a7330745-afce-4199-b514-14e9d1ac1107","system_id":"levelo_inurba_marseille","lat":43.2693,"lon":5.40252,"is_reserved":false,"is_disabled":false,"rental_uris":{"android":"levelo://app?vid=a7330745-afce-4199-b514-14e9d1ac1107","ios":"levelo://app?vid=a7330745-afce-4199-b514-14e9d1ac1107"},"vehicle_type_id":"4","last_reported":1734275309,"current_range_meters":13600,"station_id":"cjm6bp8fraef2m0cb0m0","pricing_plan_id":"cebpf4jnsgd1na2vs0mg"},{"bike_id":"be065884-a172-4974-b49b-b88dc9271958","system_id":"levelo_inurba_marseille","lat":43.24537,"lon":5.3952,"is_reserved":false,"is_disabled":false,"rental_uris":{"android":"levelo://app?vid=be065884-a172-4974-b49b-b88dc9271958","ios":"levelo://app?vid=be065884-a172-4974-b49b-b88dc9271958"},"vehicle_type_id":"4","last_reported":1734275309,"current_range_meters":29600,"station_id":"ce4bhlp2rcd13ifvqgjg","pricing_plan_id":"cebpf4jnsgd1na2vs0mg"},{"bike_id":"4a0ac162-8ef0-476e-844b-35b992cda30c","system_id":"levelo_inurba_marseille","lat":43.29834,"lon":5.36273,"is_reserved":false,"is_disabled":false,"rental_uris":{"android":"levelo://app?vid=4a0ac162-8ef0-476e-844b-35b992cda30c","ios":"levelo://app?vid=4a0ac162-8ef0-476e-844b-35b992cda30c"},"vehicle_type_id":"4","last_reported":1734275309,"current_range_meters":38800,"station_id":"ce4bgpp2rcd13ifvqc3g","pricing_plan_id":"cebpf4jnsgd1na2vs0mg"},{"bike_id":"ca59d865-1951-4846-a717-a349b9e50e7c","system_id":"levelo_inurba_marseille","lat":43.27628,"lon":5.3603,"is_reserved":false,"is_disabled":true,"rental_uris":{"android":"levelo://app?vid=ca59d865-1951-4846-a717-a349b9e50e7c","ios":"levelo://app?vid=ca59d865-1951-4846-a717-a349b9e50e7c"},"vehicle_type_id":"4","last_reported":1734275309,"current_range_meters":31200,"station_id":"","pricing_plan_id":"cebpf4jnsgd1na2vs0mg"},{"bike_id":"b9fd1ec1-c8e7-4f0e-affb-f503d2a58475","system_id":"levelo_inurba_marseille","lat":43.27377,"lon":5.36254,"is_reserved":false,"is_disabled":false,"rental_uris":{"android":"levelo://app?vid=b9fd1ec1-c8e7-4f0e-affb-f503d2a58475","ios":"levelo://app?vid=b9fd1ec1-c8e7-4f0e-affb-f503d2a58475"},"vehicle_type_id":"4","last_reported":1734275309,"current_range_meters":38800,"station_id":"ce4bhbh2rcd13ifvqeo0","pricing_plan_id":"cebpf4jnsgd1na2vs0mg"},{"bike_id":"639b4190-f89d-4271-a038-9a8b1b3547ff","system_id":"levelo_inurba_marseille","lat":43.29576,"lon":5.3674,"is_reserved":false,"is_disabled":false,"rental_uris":{"android":"levelo://app?vid=639b4190-f89d-4271-a038-9a8b1b3547ff","ios":"levelo://app?vid=639b4190-f89d-4271-a038-9a8b1b3547ff"},"vehicle_type_id":"4","last_reported":1734275309,"current_range_meters":6000,"station_id":"ce4bgph2rcd13ifvqc2g","pricing_plan_id":"cebpf4jnsgd1na2vs0mg"},{"bike_id":"283ec910-2b59-4ffd-bbff-9867d116f826","system_id":"levelo_inurba_marseille","lat":43.337444,"lon":5.374475,"is_reserved":false,"is_disabled":true,"rental_uris":{"android":"levelo://app?vid=283ec910-2b59-4ffd-bbff-9867d116f826","ios":"levelo://app?vid=283ec910-2b59-4ffd-bbff-9867d116f826"},"vehicle_type_id":"4","last_reported":1734275309,"current_range_meters":0,"station_id":"","pricing_plan_id":"cebpf4jnsgd1na2vs0mg"},{"bike_id":"44bb1ee1-6608-426b-ad9e-5efdc1a7eac0","system_id":"levelo_inurba_marseille","lat":43.33779,"lon":5.37437,"is_reserved":false,"is_disabled":false,"rental_uris":{"android":"levelo://app?vid=44bb1ee1-6608-426b-ad9e-5efdc1a7eac0","ios":"levelo://app?vid=44bb1ee1-6608-426b-ad9e-5efdc1a7eac0"},"vehicle_type_id":"4","last_reported":1734275309,"current_range_meters":20400,"station_id":"","pricing_plan_id":"cebpf4jnsgd1na2vs0mg"},{"bike_id":"bbffd889-750b-4762-ae94-78458d50ea91","system_id":"levelo_inurba_marseille","lat":43.33728,"lon":5.39186,"is_reserved":false,"is_disabled":false,"rental_uris":{"android":"levelo://app?vid=bbffd889-750b-4762-ae94-78458d50ea91","ios":"levelo://app?vid=bbffd889-750b-4762-ae94-78458d50ea91"},"vehicle_type_id":"4","last_reported":1734275309,"current_range_meters":38800,"station_id":"ce4bhr92rcd13ifvqhsg","pricing_plan_id":"cebpf4jnsgd1na2vs0mg"},{"bike_id":"7a355704-9e2d-475c-b9fc-45a5d7a3f942","system_id":"levelo_inurba_marseille","lat":43.30526,"lon":5.36534,"is_reserved":false,"is_disabled":false,"rental_uris":{"android":"levelo://app?vid=7a355704-9e2d-475c-b9fc-45a5d7a3f942","ios":"levelo://app?vid=7a355704-9e2d-475c-b9fc-45a5d7a3f942"},"vehicle_type_id":"4","last_reported":1734275309,"current_range_meters":38800,"station_id":"ce4bgs12rcd13ifvqcag","pricing_plan_id":"cebpf4jnsgd1na2vs0mg"},{"bike_id":"6af93c5c-2369-4249-9874-540f27f0edd3","system_id":"levelo_inurba_marseille","lat":43.33721,"lon":5.39176,"is_reserved":false,"is_disabled":false,"rental_uris":{"android":"levelo://app?vid=6af93c5c-2369-4249-9874-540f27f0edd3","ios":"levelo://app?vid=6af93c5c-2369-4249-9874-540f27f0edd3"},"vehicle_type_id":"4","last_reported":1734275309,"current_range_meters":8400,"station_id":"ce4bhr92rcd13ifvqhsg","pricing_plan_id":"cebpf4jnsgd1na2vs0mg"},{"bike_id":"4e99bf0b-18b5-4848-80f1-0b0419a2900d","system_id":"levelo_inurba_marseille","lat":43.24181,"lon":5.39733,"is_reserved":false,"is_disabled":false,"rental_uris":{"android":"levelo://app?vid=4e99bf0b-18b5-4848-80f1-0b0419a2900d","ios":"levelo://app?vid=4e99bf0b-18b5-4848-80f1-0b0419a2900d"},"vehicle_type_id":"4","last_reported":1734275309,"current_range_meters":19600,"station_id":"ce4bhn12rcd13ifvqgpg","pricing_plan_id":"cebpf4jnsgd1na2vs0mg"},{"bike_id":"7a6fbafa-c405-41ec-babd-da89473cb281","system_id":"levelo_inurba_marseille","lat":43.27489,"lon":5.42459,"is_reserved":false,"is_disabled":false,"rental_uris":{"android":"levelo://app?vid=7a6fbafa-c405-41ec-babd-da89473cb281","ios":"levelo://app?vid=7a6fbafa-c405-41ec-babd-da89473cb281"},"vehicle_type_id":"4","last_reported":1734275309,"current_range_meters":38800,"station_id":"ce4bhn92rcd13ifvqgrg","pricing_plan_id":"cebpf4jnsgd1na2vs0mg"},{"bike_id":"6e6a004b-462d-4b03-aeaa-2611256f0d89","system_id":"levelo_inurba_marseille","lat":43.28123,"lon":5.38934,"is_reserved":false,"is_disabled":true,"rental_uris":{"android":"levelo://app?vid=6e6a004b-462d-4b03-aeaa-2611256f0d89","ios":"levelo://app?vid=6e6a004b-462d-4b03-aeaa-2611256f0d89"},"vehicle_type_id":"4","last_reported":1734275309,"current_range_meters":0,"station_id":"","pricing_plan_id":"cebpf4jnsgd1na2vs0mg"},{"bike_id":"9fcc8d04-4bbb-4c91-8f22-6cfefd37673c","system_id":"levelo_inurba_marseille","lat":43.31759,"lon":5.39016,"is_reserved":false,"is_disabled":false,"rental_uris":{"android":"levelo://app?vid=9fcc8d04-4bbb-4c91-8f22-6cfefd37673c","ios":"levelo://app?vid=9fcc8d04-4bbb-4c91-8f22-6cfefd37673c"},"vehicle_type_id":"4","last_reported":1734275309,"current_range_meters":36400,"station_id":"ce4bhqp2rcd13ifvqhng","pricing_plan_id":"cebpf4jnsgd1na2vs0mg"},{"bike_id":"0b6fff2d-4538-4a2f-85a5-c0e9ae5054d9","system_id":"levelo_inurba_marseille","lat":43.28932,"lon":5.36635,"is_reserved":false,"is_disabled":false,"rental_uris":{"android":"levelo://app?vid=0b6fff2d-4538-4a2f-85a5-c0e9ae5054d9","ios":"levelo://app?vid=0b6fff2d-4538-4a2f-85a5-c0e9ae5054d9"},"vehicle_type_id":"4","last_reported":1734275309,"current_range_meters":38400,"station_id":"ce4bhap2rcd13ifvqek0","pricing_plan_id":"cebpf4jnsgd1na2vs0mg"},{"bike_id":"93d6b1bf-5659-4197-a9ce-7eb14b0e382c","system_id":"levelo_inurba_marseille","lat":43.26682,"lon":5.38274,"is_reserved":false,"is_disabled":false,"rental_uris":{"android":"levelo://app?vid=93d6b1bf-5659-4197-a9ce-7eb14b0e382c","ios":"levelo://app?vid=93d6b1bf-5659-4197-a9ce-7eb14b0e382c"},"vehicle_type_id":"4","last_reported":1734275309,"current_range_meters":20800,"station_id":"ce4bhg92rcd13ifvqf90","pricing_plan_id":"cebpf4jnsgd1na2vs0mg"},{"bike_id":"0519d039-9ac8-41e5-b419-e73b4ede24f9","system_id":"levelo_inurba_marseille","lat":43.33741,"lon":5.39173,"is_reserved":false,"is_disabled":false,"rental_uris":{"android":"levelo://app?vid=0519d039-9ac8-41e5-b419-e73b4ede24f9","ios":"levelo://app?vid=0519d039-9ac8-41e5-b419-e73b4ede24f9"},"vehicle_type_id":"4","last_reported":1734275309,"current_range_meters":38800,"station_id":"ce4bhr92rcd13ifvqhsg","pricing_plan_id":"cebpf4jnsgd1na2vs0mg"},{"bike_id":"74b0cdd2-0327-4bcb-9dee-27b8e92ecea0","system_id":"levelo_inurba_marseille","lat":43.30533,"lon":5.36698,"is_reserved":false,"is_disabled":false,"rental_uris":{"android":"levelo://app?vid=74b0cdd2-0327-4bcb-9dee-27b8e92ecea0","ios":"levelo://app?vid=74b0cdd2-0327-4bcb-9dee-27b8e92ecea0"},"vehicle_type_id":"4","last_reported":1734275309,"current_range_meters":38800,"station_id":"ce4bgrp2rcd13ifvqc9g","pricing_plan_id":"cebpf4jnsgd1na2vs0mg"},{"bike_id":"64ada842-a804-4c74-8175-763c6716c405","system_id":"levelo_inurba_marseille","lat":43.25082,"lon":5.39525,"is_reserved":false,"is_disabled":false,"rental_uris":{"android":"levelo://app?vid=64ada842-a804-4c74-8175-763c6716c405","ios":"levelo://app?vid=64ada842-a804-4c74-8175-763c6716c405"},"vehicle_type_id":"4","last_reported":1734275309,"current_range_meters":8800,"station_id":"ce4bhm12rcd13ifvqgkg","pricing_plan_id":"cebpf4jnsgd1na2vs0mg"},{"bike_id":"8fa27199-c6ac-4024-96cf-b08f739ca067","system_id":"levelo_inurba_marseille","lat":43.26807,"lon":5.40264,"is_reserved":false,"is_disabled":false,"rental_uris":{"android":"levelo://app?vid=8fa27199-c6ac-4024-96cf-b08f739ca067","ios":"levelo://app?vid=8fa27199-c6ac-4024-96cf-b08f739ca067"},"vehicle_type_id":"4","last_reported":1734275309,"current_range_meters":38800,"station_id":"ce501612rcd8frsf0b60","pricing_plan_id":"cebpf4jnsgd1na2vs0mg"},{"bike_id":"b702a21c-f678-4385-b220-8531e5e77391","system_id":"levelo_inurba_marseille","lat":43.32542,"lon":5.41425,"is_reserved":false,"is_disabled":false,"rental_uris":{"android":"levelo://app?vid=b702a21c-f678-4385-b220-8531e5e77391","ios":"levelo://app?vid=b702a21c-f678-4385-b220-8531e5e77391"},"vehicle_type_id":"4","last_reported":1734275309,"current_range_meters":20000,"station_id":"ce4bhq12rcd13ifvqhhg","pricing_plan_id":"cebpf4jnsgd1na2vs0mg"},{"bike_id":"1f2f9a54-365c-4ad0-b397-d988fb7d7f86","system_id":"levelo_inurba_marseille","lat":43.24649,"lon":5.38164,"is_reserved":false,"is_disabled":false,"rental_uris":{"android":"levelo://app?vid=1f2f9a54-365c-4ad0-b397-d988fb7d7f86","ios":"levelo://app?vid=1f2f9a54-365c-4ad0-b397-d988fb7d7f86"},"vehicle_type_id":"4","last_reported":1734275309,"current_range_meters":24800,"station_id":"ce4bhih2rcd13ifvqfr0","pricing_plan_id":"cebpf4jnsgd1na2vs0mg"},{"bike_id":"2e1726d5-ee4a-4573-b6df-0c5b1f003763","system_id":"levelo_inurba_marseille","lat":43.30584,"lon":5.36525,"is_reserved":false,"is_disabled":false,"rental_uris":{"android":"levelo://app?vid=2e1726d5-ee4a-4573-b6df-0c5b1f003763","ios":"levelo://app?vid=2e1726d5-ee4a-4573-b6df-0c5b1f003763"},"vehicle_type_id":"4","last_reported":1734275309,"current_range_meters":24800,"station_id":"ce4bgs12rcd13ifvqcag","pricing_plan_id":"cebpf4jnsgd1na2vs0mg"},{"bike_id":"291570c8-f67f-441f-aeb9-a56d94fa76fa","system_id":"levelo_inurba_marseille","lat":43.23191,"lon":5.35555,"is_reserved":false,"is_disabled":false,"rental_uris":{"android":"levelo://app?vid=291570c8-f67f-441f-aeb9-a56d94fa76fa","ios":"levelo://app?vid=291570c8-f67f-441f-aeb9-a56d94fa76fa"},"vehicle_type_id":"4","last_reported":1734275309,"current_range_meters":30000,"station_id":"ce4bhu92rcd13ifvqi70","pricing_plan_id":"cebpf4jnsgd1na2vs0mg"},{"bike_id":"5134ff8e-dad1-4e81-a7d1-9746294e8231","system_id":"levelo_inurba_marseille","lat":43.303314,"lon":5.392316,"is_reserved":false,"is_disabled":false,"rental_uris":{"android":"levelo://app?vid=5134ff8e-dad1-4e81-a7d1-9746294e8231","ios":"levelo://app?vid=5134ff8e-dad1-4e81-a7d1-9746294e8231"},"vehicle_type_id":"4","last_reported":1734275309,"current_range_meters":34800,"station_id":"ce4bgkh2rcd13ifvqbk0","pricing_plan_id":"cebpf4jnsgd1na2vs0mg"},{"bike_id":"07aaffff-6c5a-4390-a6e5-b91a437396ec","system_id":"levelo_inurba_marseille","lat":43.241663,"lon":5.363898,"is_reserved":false,"is_disabled":false,"rental_uris":{"android":"levelo://app?vid=07aaffff-6c5a-4390-a6e5-b91a437396ec","ios":"levelo://app?vid=07aaffff-6c5a-4390-a6e5-b91a437396ec"},"vehicle_type_id":"4","last_reported":1734275309,"current_range_meters":38000,"station_id":"cpo36qri1sfpv3e86is0","pricing_plan_id":"cebpf4jnsgd1na2vs0mg"},{"bike_id":"b1b540ca-acd2-4526-b318-dc755109f68f","system_id":"levelo_inurba_marseille","lat":43.24173,"lon":5.39729,"is_reserved":false,"is_disabled":false,"rental_uris":{"android":"levelo://app?vid=b1b540ca-acd2-4526-b318-dc755109f68f","ios":"levelo://app?vid=b1b540ca-acd2-4526-b318-dc755109f68f"},"vehicle_type_id":"4","last_reported":1734275309,"current_range_meters":25600,"station_id":"ce4bhn12rcd13ifvqgpg","pricing_plan_id":"cebpf4jnsgd1na2vs0mg"},{"bike_id":"124d4756-7cb6-4841-8372-4e0eb327ea7b","system_id":"levelo_inurba_marseille","lat":43.30188,"lon":5.3662,"is_reserved":false,"is_disabled":false,"rental_uris":{"android":"levelo://app?vid=124d4756-7cb6-4841-8372-4e0eb327ea7b","ios":"levelo://app?vid=124d4756-7cb6-4841-8372-4e0eb327ea7b"},"vehicle_type_id":"4","last_reported":1734275309,"current_range_meters":32000,"station_id":"ce4bgrh2rcd13ifvqc8g","pricing_plan_id":"cebpf4jnsgd1na2vs0mg"},{"bike_id":"191861ab-d1bf-437c-9b29-c60057a7eda0","system_id":"levelo_inurba_marseille","lat":43.2511,"lon":5.40324,"is_reserved":false,"is_disabled":false,"rental_uris":{"android":"levelo://app?vid=191861ab-d1bf-437c-9b29-c60057a7eda0","ios":"levelo://app?vid=191861ab-d1bf-437c-9b29-c60057a7eda0"},"vehicle_type_id":"4","last_reported":1734275309,"current_range_meters":32000,"station_id":"ce4bhlh2rcd13ifvqgig","pricing_plan_id":"cebpf4jnsgd1na2vs0mg"},{"bike_id":"da707e9b-42f9-43a0-a588-114d12a57b9f","system_id":"levelo_inurba_marseille","lat":43.28452,"lon":5.35891,"is_reserved":false,"is_disabled":false,"rental_uris":{"android":"levelo://app?vid=da707e9b-42f9-43a0-a588-114d12a57b9f","ios":"levelo://app?vid=da707e9b-42f9-43a0-a588-114d12a57b9f"},"vehicle_type_id":"4","last_reported":1734275309,"current_range_meters":5600,"station_id":"ce4bhah2rcd13ifvqei0","pricing_plan_id":"cebpf4jnsgd1na2vs0mg"},{"bike_id":"74cf5e46-18b1-4b7f-a920-8c0d142117d9","system_id":"levelo_inurba_marseille","lat":43.30146,"lon":5.37426,"is_reserved":false,"is_disabled":false,"rental_uris":{"android":"levelo://app?vid=74cf5e46-18b1-4b7f-a920-8c0d142117d9","ios":"levelo://app?vid=74cf5e46-18b1-4b7f-a920-8c0d142117d9"},"vehicle_type_id":"4","last_reported":1734275309,"current_range_meters":19600,"station_id":"ce4bgs92rcd13ifvqcc0","pricing_plan_id":"cebpf4jnsgd1na2vs0mg"},{"bike_id":"7e452f93-435b-483a-896d-9b2c4b4a5554","system_id":"levelo_inurba_marseille","lat":43.27981,"lon":5.38736,"is_reserved":false,"is_disabled":true,"rental_uris":{"android":"levelo://app?vid=7e452f93-435b-483a-896d-9b2c4b4a5554","ios":"levelo://app?vid=7e452f93-435b-483a-896d-9b2c4b4a5554"},"vehicle_type_id":"4","last_reported":1734275309,"current_range_meters":400,"station_id":"ce4bhg12rcd13ifvqf80","pricing_plan_id":"cebpf4jnsgd1na2vs0mg"},{"bike_id":"a0ea0680-6150-4b7b-a4a9-16a51637ff4e","system_id":"levelo_inurba_marseille","lat":43.28019,"lon":5.36945,"is_reserved":false,"is_disabled":false,"rental_uris":{"android":"levelo://app?vid=a0ea0680-6150-4b7b-a4a9-16a51637ff4e","ios":"levelo://app?vid=a0ea0680-6150-4b7b-a4a9-16a51637ff4e"},"vehicle_type_id":"4","last_reported":1734275309,"current_range_meters":39200,"station_id":"ce4bha12rcd13ifvqef0","pricing_plan_id":"cebpf4jnsgd1na2vs0mg"},{"bike_id":"2c66e731-c044-4057-ba99-38aa63e029be","system_id":"levelo_inurba_marseille","lat":43.27969,"lon":5.396,"is_reserved":false,"is_disabled":false,"rental_uris":{"android":"levelo://app?vid=2c66e731-c044-4057-ba99-38aa63e029be","ios":"levelo://app?vid=2c66e731-c044-4057-ba99-38aa63e029be"},"vehicle_type_id":"4","last_reported":1734275309,"current_range_meters":14000,"station_id":"","pricing_plan_id":"cebpf4jnsgd1na2vs0mg"},{"bike_id":"5fd40c9e-ee32-4ba2-bdd6-6747b8f4f215","system_id":"levelo_inurba_marseille","lat":43.29964,"lon":5.38497,"is_reserved":false,"is_disabled":true,"rental_uris":{"android":"levelo://app?vid=5fd40c9e-ee32-4ba2-bdd6-6747b8f4f215","ios":"levelo://app?vid=5fd40c9e-ee32-4ba2-bdd6-6747b8f4f215"},"vehicle_type_id":"4","last_reported":1734275309,"current_range_meters":800,"station_id":"ce4bgj92rcd13ifvqbd0","pricing_plan_id":"cebpf4jnsgd1na2vs0mg"},