{"last_updated":1744937447,"ttl":60,"version":"2.2","data":{"bikes":[{"bike_id":"96a51b39-1d3e-4aa3-a2cc-677352af30ff","system_id":"levelo_inurba_marseille","lat":43.21746,"lon":5.34569,"is_reserved":false,"is_disabled":false,"rental_uris":{"android":"levelo://app?vid=96a51b39-1d3e-4aa3-a2cc-677352af30ff","ios":"levelo://app?vid=96a51b39-1d3e-4aa3-a2cc-677352af30ff"},"vehicle_type_id":"4","last_reported":1744937447,"current_range_meters":2800,"station_id":"st_cvj6r9ubvosntc0bgbag","pricing_plan_id":"cebpf4jnsgd1na2vs0mg"},{"bike_id":"3b9a2161-8fe4-4803-95d9-9451e8d7c8ec","system_id":"levelo_inurba_marseille","lat":43.2811,"lon":5.3784,"is_reserved":false,"is_disabled":false,"rental_uris":{"android":"levelo://app?vid=3b9a2161-8fe4-4803-95d9-9451e8d7c8ec","ios":"levelo://app?vid=3b9a2161-8fe4-4803-95d9-9451e8d7c8ec"},"vehicle_type_id":"4","last_reported":1744937447,"current_range_meters":2800,"station_id":"ce4bha12rcd13ifvqee0","pricing_plan_id":"cebpf4jnsgd1na2vs0mg"},{"bike_id":"05a2bb3d-94f2-4bda-959c-8d69a7156959","system_id":"levelo_inurba_marseille","lat":43.28495,"lon":5.35814,"is_reserved":false,"is_disabled":false,"rental_uris":{"android":"levelo://app?vid=05a2bb3d-94f2-4bda-959c-8d69a7156959","ios":"levelo://app?vid=05a2bb3d-94f2-4bda-959c-8d69a7156959"},"vehicle_type_id":"4","last_reported":1744937447,"current_range_meters":2800,"station_id":"ce4bhah2rcd13ifvqei0","pricing_plan_id":"cebpf4jnsgd1na2vs0mg"},{"bike_id":"bb14c5bf-dbfb-47f4-9b4f-8a3a83a0ce1f","system_id":"levelo_inurba_marseille","lat":43.254788,"lon":5.375868,"is_reserved":false,"is_disabled":false,"rental_uris":{"android":"levelo://app?vid=bb14c5bf-dbfb-47f4-9b4f-8a3a83a0ce1f","ios":"levelo://app?vid=bb14c5bf-dbfb-47f4-9b4f-8a3a83a0ce1f"},"vehicle_type_id":"4","last_reported":1744937447,"current_range_meters":3200,"station_id":"","pricing_plan_id":"cebpf4jnsgd1na2vs0mg"},{"bike_id":"ae17149c-d3ca-4619-8f64-548cb5435abc","system_id":"levelo_inurba_marseille","lat":43.24806,"lon":5.37463,"is_reserved":false,"is_disabled":false,"rental_uris":{"android":"levelo://app?vid=ae17149c-d3ca-4619-8f64-548cb5435abc","ios":"levelo://app?vid=ae17149c-d3ca-4619-8f64-548cb5435abc"},"vehicle_type_id":"4","last_reported":1744937447,"current_range_meters":3600,"station_id":"ce4bhgh2rcd13ifvqfb0","pricing_plan_id":"cebpf4jnsgd1na2vs0mg"},{"bike_id":"33d45d8e-937b-4f19-bf54-20001f574233","system_id":"levelo_inurba_marseille","lat":43.24388,"lon":5.37075,"is_reserved":false,"is_disabled":false,"rental_uris":{"android":"levelo://app?vid=33d45d8e-937b-4f19-bf54-20001f574233","ios":"levelo://app?vid=33d45d8e-937b-4f19-bf54-20001f574233"},"vehicle_type_id":"4","last_reported":1744937447,"current_range_meters":3600,"station_id":"ce4bhhh2rcd13ifvqfk0","pricing_plan_id":"cebpf4jnsgd1na2vs0mg"},{"bike_id":"5969091c-3431-4fdb-a267-75928a912e19","system_id":"levelo_inurba_marseille","lat":43.27513,"lon":5.41302,"is_reserved":false,"is_disabled":false,"rental_uris":{"android":"levelo://app?vid=5969091c-3431-4fdb-a267-75928a912e19","ios":"levelo://app?vid=5969091c-3431-4fdb-a267-75928a912e19"},"vehicle_type_id":"4","last_reported":1744937447,"current_range_meters":4000,"station_id":"","pricing_plan_id":"cebpf4jnsgd1na2vs0mg"},{"bike_id":"692b9d0b-1a0d-44eb-b131-ded3f1cde8fa","system_id":"levelo_inurba_marseille","lat":43.288576,"lon":5.393227,"is_reserved":false,"is_disabled":false,"rental_uris":{"android":"levelo://app?vid=692b9d0b-1a0d-44eb-b131-ded3f1cde8fa","ios":"levelo://app?vid=692b9d0b-1a0d-44eb-b131-ded3f1cde8fa"},"vehicle_type_id":"4","last_reported":1744937447,"current_range_meters":4000,"station_id":"ce4bh2p2rcd13ifvqdi0","pricing_plan_id":"cebpf4jnsgd1na2vs0mg"},{"bike_id":"3c3e8e4c-b895-47db-a199-2a13a607a764","system_id":"levelo_inurba_marseille","lat":43.29704,"lon":5.36616,"is_reserved":false,"is_disabled":false,"rental_uris":{"android":"levelo://app?vid=3c3e8e4c-b895-47db-a199-2a13a607a764","ios":"levelo://app?vid=3c3e8e4c-b895-47db-a199-2a13a607a764"},"vehicle_type_id":"4","last_reported":1744937447,"current_range_meters":4400,"station_id":"ce4bgn12rcd13ifvqbt0","pricing_plan_id":"cebpf4jnsgd1na2vs0mg"},{"bike_id":"d6b74ab1-400a-4c65-a4c2-249116defa6e","system_id":"levelo_inurba_marseille","lat":43.29597,"lon":5.38099,"is_reserved":false,"is_disabled":false,"rental_uris":{"android":"levelo://app?vid=d6b74ab1-400a-4c65-a4c2-249116defa6e","ios":"levelo://app?vid=d6b74ab1-400a-4c65-a4c2-249116defa6e"},"vehicle_type_id":"4","last_reported":1744937447,"current_range_meters":4400,"station_id":"ce4bgl12rcd13ifvqbo0","pricing_plan_id":"cebpf4jnsgd1na2vs0mg"},{"bike_id":"78471c43-85b3-4f4f-9afc-a3bc5599ab7d","system_id":"levelo_inurba_marseille","lat":43.30303,"lon":5.38049,"is_reserved":false,"is_disabled":false,"rental_uris":{"android":"levelo://app?vid=78471c43-85b3-4f4f-9afc-a3bc5599ab7d","ios":"levelo://app?vid=78471c43-85b3-4f4f-9afc-a3bc5599ab7d"},"vehicle_type_id":"4","last_reported":1744937447,"current_range_meters":4400,"station_id":"","pricing_plan_id":"cebpf4jnsgd1na2vs0mg"},{"bike_id":"40051fb9-ef7b-4a5f-8f24-b86339f6e97c","system_id":"levelo_inurba_marseille","lat":43.29866,"lon":5.39726,"is_reserved":false,"is_disabled":false,"rental_uris":{"android":"levelo://app?vid=40051fb9-ef7b-4a5f-8f24-b86339f6e97c","ios":"levelo://app?vid=40051fb9-ef7b-4a5f-8f24-b86339f6e97c"},"vehicle_type_id":"4","last_reported":1744937447,"current_range_meters":5600,"station_id":"ce4bh0h2rcd13ifvqd50","pricing_plan_id":"cebpf4jnsgd1na2vs0mg"},{"bike_id":"29b83477-09e9-46ba-8bb7-e46a7d683f37","system_id":"levelo_inurba_marseille","lat":43.30885,"lon":5.39628,"is_reserved":false,"is_disabled":false,"rental_uris":{"android":"levelo://app?vid=29b83477-09e9-46ba-8bb7-e46a7d683f37","ios":"levelo://app?vid=29b83477-09e9-46ba-8bb7-e46a7d683f37"},"vehicle_type_id":"4","last_reported":1744937447,"current_range_meters":5600,"station_id":"ce4bh012rcd13ifvqcv0","pricing_plan_id":"cebpf4jnsgd1na2vs0mg"},{"bike_id":"409a79ab-dcd7-4c74-9be6-a03c63711a18","system_id":"levelo_inurba_marseille","lat":43.28152,"lon":5.42637,"is_reserved":false,"is_disabled":false,"rental_uris":{"android":"levelo://app?vid=409a79ab-dcd7-4c74-9be6-a03c63711a18","ios":"levelo://app?vid=409a79ab-dcd7-4c74-9be6-a03c63711a18"},"vehicle_type_id":"4","last_reported":1744937447,"current_range_meters":6000,"station_id":"ce4bhnh2rcd13ifvqgug","pricing_plan_id":"cebpf4jnsgd1na2vs0mg"},{"bike_id":"a1bd58e4-8e84-4096-8a2f-e7b497bcf64c","system_id":"levelo_inurba_marseille","lat":43.314854,"lon":5.373068,"is_reserved":false,"is_disabled":true,"rental_uris":{"android":"levelo://app?vid=a1bd58e4-8e84-4096-8a2f-e7b497bcf64c","ios":"levelo://app?vid=a1bd58e4-8e84-4096-8a2f-e7b497bcf64c"},"vehicle_type_id":"4","last_reported":1744937447,"current_range_meters":6000,"station_id":"ce4bgt12rcd13ifvqcd0","pricing_plan_id":"cebpf4jnsgd1na2vs0mg"},{"bike_id":"d356c79b-9952-4917-8c8b-b9dcbd13905a","system_id":"levelo_inurba_marseille","lat":43.2466,"lon":5.38153,"is_reserved":false,"is_disabled":false,"rental_uris":{"android":"levelo://app?vid=d356c79b-9952-4917-8c8b-b9dcbd13905a","ios":"levelo://app?vid=d356c79b-9952-4917-8c8b-b9dcbd13905a"},"vehicle_type_id":"4","last_reported":1744937447,"current_range_meters":6400,"station_id":"ce4bhih2rcd13ifvqfr0","pricing_plan_id":"cebpf4jnsgd1na2vs0mg"},{"bike_id":"af19ae59-4996-4279-8341-1452cd55c5a8","system_id":"levelo_inurba_marseille","lat":43.24669,"lon":5.38128,"is_reserved":false,"is_disabled":false,"rental_uris":{"android":"levelo://app?vid=af19ae59-4996-4279-8341-1452cd55c5a8","ios":"levelo://app?vid=af19ae59-4996-4279-8341-1452cd55c5a8"},"vehicle_type_id":"4","last_reported":1744937447,"current_range_meters":6400,"station_id":"ce4bhih2rcd13ifvqfr0","pricing_plan_id":"cebpf4jnsgd1na2vs0mg"},{"bike_id":"593f200f-acc6-4515-9b2c-377663e6c433","system_id":"levelo_inurba_marseille","lat":43.21755,"lon":5.34615,"is_reserved":false,"is_disabled":false,"rental_uris":{"android":"levelo://app?vid=593f200f-acc6-4515-9b2c-377663e6c433","ios":"levelo://app?vid=593f200f-acc6-4515-9b2c-377663e6c433"},"vehicle_type_id":"4","last_reported":1744937447,"current_range_meters":6400,"station_id":"st_cvj6r9ubvosntc0bgbag","pricing_plan_id":"cebpf4jnsgd1na2vs0mg"},{"bike_id":"4b33f286-5cd5-4322-a997-29c53282b349","system_id":"levelo_inurba_marseille","lat":43.271763,"lon":5.409877,"is_reserved":false,"is_disabled":false,"rental_uris":{"android":"levelo://app?vid=4b33f286-5cd5-4322-a997-29c53282b349","ios":"levelo://app?vid=4b33f286-5cd5-4322-a997-29c53282b349"},"vehicle_type_id":"4","last_reported":1744937447,"current_range_meters":6400,"station_id":"ce4bhl12rcd13ifvqgf0","pricing_plan_id":"cebpf4jnsgd1na2vs0mg"},{"bike_id":"c9b3ee47-754d-45be-b373-f7e6f894d809","system_id":"levelo_inurba_marseille","lat":43.31292,"lon":5.37528,"is_reserved":false,"is_disabled":false,"rental_uris":{"android":"levelo://app?vid=c9b3ee47-754d-45be-b373-f7e6f894d809","ios":"levelo://app?vid=c9b3ee47-754d-45be-b373-f7e6f894d809"},"vehicle_type_id":"4","last_reported":1744937447,"current_range_meters":6800,"station_id":"","pricing_plan_id":"cebpf4jnsgd1na2vs0mg"},{"bike_id":"36008c60-2405-4009-b654-83b1fdc2104f","system_id":"levelo_inurba_marseille","lat":43.27882,"lon":5.3801,"is_reserved":false,"is_disabled":false,"rental_uris":{"android":"levelo://app?vid=36008c60-2405-4009-b654-83b1fdc2104f","ios":"levelo://app?vid=36008c60-2405-4009-b654-83b1fdc2104f"},"vehicle_type_id":"4","last_reported":1744937447,"current_range_meters":6800,"station_id":"ce4bhf92rcd13ifvqf50","pricing_plan_id":"cebpf4jnsgd1na2vs0mg"},{"bike_id":"b104b93d-3486-4201-976f-3dc4f542d5a3","system_id":"levelo_inurba_marseille","lat":43.30131,"lon":5.398758,"is_reserved":false,"is_disabled":false,"rental_uris":{"android":"levelo://app?vid=b104b93d-3486-4201-976f-3dc4f542d5a3","ios":"levelo://app?vid=b104b93d-3486-4201-976f-3dc4f542d5a3"},"vehicle_type_id":"4","last_reported":1744937447,"current_range_meters":6800,"station_id":"ce4bh0h2rcd13ifvqd40","pricing_plan_id":"cebpf4jnsgd1na2vs0mg"},{"bike_id":"5a823c1a-a364-413c-88db-eae8f63eb564","system_id":"levelo_inurba_marseille","lat":43.30441,"lon":5.38884,"is_reserved":false,"is_disabled":false,"rental_uris":{"android":"levelo://app?vid=5a823c1a-a364-413c-88db-eae8f63eb564","ios":"levelo://app?vid=5a823c1a-a364-413c-88db-eae8f63eb564"},"vehicle_type_id":"4","last_reported":1744937447,"current_range_meters":7200,"station_id":"ce4bgk12rcd13ifvqbi0","pricing_plan_id":"cebpf4jnsgd1na2vs0mg"},{"bike_id":"07dd6a7c-2ab4-4e0a-8438-0e7bda262b59","system_id":"levelo_inurba_marseille","lat":43.29314,"lon":5.37173,"is_reserved":false,"is_disabled":true,"rental_uris":{"android":"levelo://app?vid=07dd6a7c-2ab4-4e0a-8438-0e7bda262b59","ios":"levelo://app?vid=07dd6a7c-2ab4-4e0a-8438-0e7bda262b59"},"vehicle_type_id":"4","last_reported":1744937447,"current_range_meters":7200,"station_id":"ce4bgh92rcd13ifvqb40","pricing_plan_id":"cebpf4jnsgd1na2vs0mg"},{"bike_id":"df9b757d-c8c0-444d-9fc6-09bf61d6c670","system_id":"levelo_inurba_marseille","lat":43.30559,"lon":5.3934,"is_reserved":false,"is_disabled":false,"rental_uris":{"android":"levelo://app?vid=df9b757d-c8c0-444d-9fc6-09bf61d6c670","ios":"levelo://app?vid=df9b757d-c8c0-444d-9fc6-09bf61d6c670"},"vehicle_type_id":"4","last_reported":1744937447,"current_range_meters":7200,"station_id":"","pricing_plan_id":"cebpf4jnsgd1na2vs0mg"},{"bike_id":"a31a49f5-1f5d-4e17-b115-f2a47d4c28a1","system_id":"levelo_inurba_marseille","lat":43.304653,"lon":5.379045,"is_reserved":false,"is_disabled":false,"rental_uris":{"android":"levelo://app?vid=a31a49f5-1f5d-4e17-b115-f2a47d4c28a1","ios":"levelo://app?vid=a31a49f5-1f5d-4e17-b115-f2a47d4c28a1"},"vehicle_type_id":"4","last_reported":1744937447,"current_range_meters":7200,"station_id":"ce4bgup2rcd13ifvqcn0","pricing_plan_id":"cebpf4jnsgd1na2vs0mg"},{"bike_id":"e40d4c45-6000-49ee-bd46-f10efd494e66","system_id":"levelo_inurba_marseille","lat":43.30593,"lon":5.3935,"is_reserved":false,"is_disabled":false,"rental_uris":{"android":"levelo://app?vid=e40d4c45-6000-49ee-bd46-f10efd494e66","ios":"levelo://app?vid=e40d4c45-6000-49ee-bd46-f10efd494e66"},"vehicle_type_id":"4","last_reported":1744937447,"current_range_meters":7200,"station_id":"ce4bh0p2rcd13ifvqd80","pricing_plan_id":"cebpf4jnsgd1na2vs0mg"},{"bike_id":"f57acb1a-2d22-481f-9311-39903e65c833","system_id":"levelo_inurba_marseille","lat":43.24673,"lon":5.3818,"is_reserved":false,"is_disabled":false,"rental_uris":{"android":"levelo://app?vid=f57acb1a-2d22-481f-9311-39903e65c833","ios":"levelo://app?vid=f57acb1a-2d22-481f-9311-39903e65c833"},"vehicle_type_id":"4","last_reported":1744937447,"current_range_meters":7200,"station_id":"ce4bhih2rcd13ifvqfr0","pricing_plan_id":"cebpf4jnsgd1na2vs0mg"},{"bike_id":"1bdba7a7-a82e-4252-906c-80db6beb180e","system_id":"levelo_inurba_marseille","lat":43.337904,"lon":5.374696,"is_reserved":false,"is_disabled":false,"rental_uris":{"android":"levelo://app?vid=1bdba7a7-a82e-4252-906c-80db6beb180e","ios":"levelo://app?vid=1bdba7a7-a82e-4252-906c-80db6beb180e"},"vehicle_type_id":"4","last_reported":1744937447,"current_range_meters":8000,"station_id":"","pricing_plan_id":"cebpf4jnsgd1na2vs0mg"},{"bike_id":"2a297b53-e6c9-4a44-8832-a1535085da75","system_id":"levelo_inurba_marseille","lat":43.31999,"lon":5.38162,"is_reserved":false,"is_disabled":true,"rental_uris":{"android":"levelo://app?vid=2a297b53-e6c9-4a44-8832-a1535085da75","ios":"levelo://app?vid=2a297b53-e6c9-4a44-8832-a1535085da75"},"vehicle_type_id":"4","last_reported":1744937447,"current_range_meters":8000,"station_id":"ce4bhr12rcd13ifvqhpg","pricing_plan_id":"cebpf4jnsgd1na2vs0mg"},{"bike_id":"b066ca97-ba3e-4e64-b79a-c11d1ef9416d","system_id":"levelo_inurba_marseille","lat":43.25582,"lon":5.38233,"is_reserved":false,"is_disabled":false,"rental_uris":{"android":"levelo://app?vid=b066ca97-ba3e-4e64-b79a-c11d1ef9416d","ios":"levelo://app?vid=b066ca97-ba3e-4e64-b79a-c11d1ef9416d"},"vehicle_type_id":"4","last_reported":1744937447,"current_range_meters":8000,"station_id":"ce4bhih2rcd13ifvqfs0","pricing_plan_id":"cebpf4jnsgd1na2vs0mg"},{"bike_id":"a040678a-c24a-4d52-ae62-db51ac43bc85","system_id":"levelo_inurba_marseille","lat":43.30793,"lon":5.37663,"is_reserved":false,"is_disabled":false,"rental_uris":{"android":"levelo://app?vid=a040678a-c24a-4d52-ae62-db51ac43bc85","ios":"levelo://app?vid=a040678a-c24a-4d52-ae62-db51ac43bc85"},"vehicle_type_id":"4","last_reported":1744937447,"current_range_meters":8000,"station_id":"ce4bgv92rcd13ifvqcq0","pricing_plan_id":"cebpf4jnsgd1na2vs0mg"},{"bike_id":"ce90eeb4-f81d-4b80-9b35-94fd4698915f","system_id":"levelo_inurba_marseille","lat":43.28412,"lon":5.34982,"is_reserved":false,"is_disabled":false,"rental_uris":{"android":"levelo://app?vid=ce90eeb4-f81d-4b80-9b35-94fd4698915f","ios":"levelo://app?vid=ce90eeb4-f81d-4b80-9b35-94fd4698915f"},"vehicle_type_id":"4","last_reported":1744937447,"current_range_meters":8000,"station_id":"ce4bhbh2rcd13ifvqepg","pricing_plan_id":"cebpf4jnsgd1na2vs0mg"},{"bike_id":"b3268e56-1b51-4987-acf2-e723d35766f2","system_id":"levelo_inurba_marseille","lat":43.28856,"lon":5.35838,"is_reserved":false,"is_disabled":false,"rental_uris":{"android":"levelo://app?vid=b3268e56-1b51-4987-acf2-e723d35766f2","ios":"levelo://app?vid=b3268e56-1b51-4987-acf2-e723d35766f2"},"vehicle_type_id":"4","last_reported":1744937447,"current_range_meters":8000,"station_id":"","pricing_plan_id":"cebpf4jnsgd1na2vs0mg"},{"bike_id":"6cbacff6-34bf-4bb2-a21f-2161bb295a70","system_id":"levelo_inurba_marseille","lat":43.298787,"lon":5.397361,"is_reserved":false,"is_disabled":false,"rental_uris":{"android":"levelo://app?vid=6cbacff6-34bf-4bb2-a21f-2161bb295a70","ios":"levelo://app?vid=6cbacff6-34bf-4bb2-a21f-2161bb295a70"},"vehicle_type_id":"4","last_reported":1744937447,"current_range_meters":8000,"station_id":"ce4bh0h2rcd13ifvqd50","pricing_plan_id":"cebpf4jnsgd1na2vs0mg"},{"bike_id":"6a52c25e-e42a-4237-a980-f6f82f2e061e","system_id":"levelo_inurba_marseille","lat":43.21186,"lon":5.35067,"is_reserved":false,"is_disabled":false,"rental_uris":{"android":"levelo://app?vid=6a52c25e-e42a-4237-a980-f6f82f2e061e","ios":"levelo://app?vid=6a52c25e-e42a-4237-a980-f6f82f2e061e"},"vehicle_type_id":"4","last_reported":1744937447,"current_range_meters":8400,"station_id":"st_cvj6sg6p6f1abm77japg","pricing_plan_id":"cebpf4jnsgd1na2vs0mg"},{"bike_id":"4ebbc7f8-fc72-4da5-b611-0baac0637024","system_id":"levelo_inurba_marseille","lat":43.26559,"lon":5.39011,"is_reserved":false,"is_disabled":false,"rental_uris":{"android":"levelo://app?vid=4ebbc7f8-fc72-4da5-b611-0baac0637024","ios":"levelo://app?vid=4ebbc7f8-fc72-4da5-b611-0baac0637024"},"vehicle_type_id":"4","last_reported":1744937447,"current_range_meters":8400,"station_id":"ce4bhe12rcd13ifvqf30","pricing_plan_id":"cebpf4jnsgd1na2vs0mg"},{"bike_id":"2df22311-bac1-4b8f-abff-11893969de63","system_id":"levelo_inurba_marseille","lat":43.31081,"lon":5.37821,"is_reserved":false,"is_disabled":false,"rental_uris":{"android":"levelo://app?vid=2df22311-bac1-4b8f-abff-11893969de63","ios":"levelo://app?vid=2df22311-bac1-4b8f-abff-11893969de63"},"vehicle_type_id":"4","last_reported":1744937447,"current_range_meters":8400,"station_id":"","pricing_plan_id":"cebpf4jnsgd1na2vs0mg"},{"bike_id":"09e29c8d-0531-4ea0-befd-5427ca701da3","system_id":"levelo_inurba_marseille","lat":43.30594,"lon":5.37223,"is_reserved":false,"is_disabled":true,"rental_uris":{"android":"levelo://app?vid=09e29c8d-0531-4ea0-befd-5427ca701da3","ios":"levelo://app?vid=09e29c8d-0531-4ea0-befd-5427ca701da3"},"vehicle_type_id":"4","last_reported":1744937447,"current_range_meters":8400,"station_id":"ce4bgqh2rcd13ifvqc4g","pricing_plan_id":"cebpf4jnsgd1na2vs0mg"},{"bike_id":"8ee49884-4076-402b-bdc6-b1b75f8b478d","system_id":"levelo_inurba_marseille","lat":43.27913,"lon":5.39593,"is_reserved":false,"is_disabled":false,"rental_uris":{"android":"levelo://app?vid=8ee49884-4076-402b-bdc6-b1b75f8b478d","ios":"levelo://app?vid=8ee49884-4076-402b-bdc6-b1b75f8b478d"},"vehicle_type_id":"4","last_reported":1744937447,"current_range_meters":8400,"station_id":"ce4bhf92rcd13ifvqf40","pricing_plan_id":"cebpf4jnsgd1na2vs0mg"},{"bike_id":"2c6772a1-022c-4b90-87c8-b7d5937c07aa","system_id":"levelo_inurba_marseille","lat":43.28408,"lon":5.3752,"is_reserved":false,"is_disabled":false,"rental_uris":{"android":"levelo://app?vid=2c6772a1-022c-4b90-87c8-b7d5937c07aa","ios":"levelo://app?vid=2c6772a1-022c-4b90-87c8-b7d5937c07aa"},"vehicle_type_id":"4","last_reported":1744937447,"current_range_meters":8400,"station_id":"ce4bh412rcd13ifvqds0","pricing_plan_id":"cebpf4jnsgd1na2vs0mg"},{"bike_id":"88d80ac6-3462-4b2a-a1e1-3f7da1acd3d3","system_id":"levelo_inurba_marseille","lat":43.31166,"lon":5.38682,"is_reserved":false,"is_disabled":true,"rental_uris":{"android":"levelo://app?vid=88d80ac6-3462-4b2a-a1e1-3f7da1acd3d3","ios":"levelo://app?vid=88d80ac6-3462-4b2a-a1e1-3f7da1acd3d3"},"vehicle_type_id":"4","last_reported":1744937447,"current_range_meters":8400,"station_id":"ce4bgv12rcd13ifvqcp0","pricing_plan_id":"cebpf4jnsgd1na2vs0mg"},{"bike_id":"8ee7ae49-7b6d-4b48-9fb1-547fbea007bb","system_id":"levelo_inurba_marseille","lat":43.27922,"lon":5.39601,"is_reserved":false,"is_disabled":false,"rental_uris":{"android":"levelo://app?vid=8ee7ae49-7b6d-4b48-9fb1-547fbea007bb","ios":"levelo://app?vid=8ee7ae49-7b6d-4b48-9fb1-547fbea007bb"},"vehicle_type_id":"4","last_reported":1744937447,"current_range_meters":8400,"station_id":"ce4bhf92rcd13ifvqf40","pricing_plan_id":"cebpf4jnsgd1na2vs0mg"},{"bike_id":"6a42fdd6-075d-4748-811a-29f5845c8920","system_id":"levelo_inurba_marseille","lat":43.21745,"lon":5.34622,"is_reserved":false,"is_disabled":false,"rental_uris":{"android":"levelo://app?vid=6a42fdd6-075d-4748-811a-29f5845c8920","ios":"levelo://app?vid=6a42fdd6-075d-4748-811a-29f5845c8920"},"vehicle_type_id":"4","last_reported":1744937447,"current_range_meters":8800,"station_id":"st_cvj6r9ubvosntc0bgbag","pricing_plan_id":"cebpf4jnsgd1na2vs0mg"},{"bike_id":"3bc3d76f-1833-497a-9e99-0112edc341e2","system_id":"levelo_inurba_marseille","lat":43.30195,"lon":5.36607,"is_reserved":false,"is_disabled":false,"rental_uris":{"android":"levelo://app?vid=3bc3d76f-1833-497a-9e99-0112edc341e2","ios":"levelo://app?vid=3bc3d76f-1833-497a-9e99-0112edc341e2"},"vehicle_type_id":"4","last_reported":1744937447,"current_range_meters":8800,"station_id":"ce4bgrh2rcd13ifvqc8g","pricing_plan_id":"cebpf4jnsgd1na2vs0mg"},{"bike_id":"d03355fa-c7f9-4104-958e-81d7994c7f64","system_id":"levelo_inurba_marseille","lat":43.28154,"lon":5.4267,"is_reserved":false,"is_disabled":false,"rental_uris":{"android":"levelo://app?vid=d03355fa-c7f9-4104-958e-81d7994c7f64","ios":"levelo://app?vid=d03355fa-c7f9-4104-958e-81d7994c7f64"},"vehicle_type_id":"4","last_reported":1744937447,"current_range_meters":8800,"station_id":"ce4bhnh2rcd13ifvqgug","pricing_plan_id":"cebpf4jnsgd1na2vs0mg"},{"bike_id":"a3a24346-e005-4910-9903-20098507011e","system_id":"levelo_inurba_marseille","lat":43.29709,"lon":5.3659,"is_reserved":false,"is_disabled":false,"rental_uris":{"android":"levelo://app?vid=a3a24346-e005-4910-9903-20098507011e","ios":"levelo://app?vid=a3a24346-e005-4910-9903-20098507011e"},"vehicle_type_id":"4","last_reported":1744937447,"current_range_meters":8800,"station_id":"ce4bgn12rcd13ifvqbt0","pricing_plan_id":"cebpf4jnsgd1na2vs0mg"},{"bike_id":"8033c8a6-9666-4125-9e17-3e7eaf5cf07f","system_id":"levelo_inurba_marseille","lat":43.25578,"lon":5.38226,"is_reserved":false,"is_disabled":false,"rental_uris":{"android":"levelo://app?vid=8033c8a6-9666-4125-9e17-3e7eaf5cf07f","ios":"levelo://app?vid=8033c8a6-9666-4125-9e17-3e7eaf5cf07f"},"vehicle_type_id":"4","last_reported":1744937447,"current_range_meters":8800,"station_id":"ce4bhih2rcd13ifvqfs0","pricing_plan_id":"cebpf4jnsgd1na2vs0mg"},{"bike_id":"001a10ed-a7d7-4d8a-abb2-f7c03c8ff11f","system_id":"levelo_inurba_marseille","lat":43.26242,"lon":5.40412,"is_reserved":false,"is_disabled":false,"rental_uris":{"android":"levelo://app?vid=001a10ed-a7d7-4d8a-abb2-f7c03c8ff11f","ios":"levelo://app?vid=001a10ed-a7d7-4d8a-abb2-f7c03c8ff11f"},"vehicle_type_id":"4","last_reported":1744937447,"current_range_meters":8800,"station_id":"ce4bhmh2rcd13ifvqgmg","pricing_plan_id":"cebpf4jnsgd1na2vs0mg"},{"bike_id":"0a0b0a73-2b27-49fb-801a-3111dcebfbac","system_id":"levelo_inurba_marseille","lat":43.27489,"lon":5.42473,"is_reserved":false,"is_disabled":false,"rental_uris":{"android":"levelo://app?vid=0a0b0a73-2b27-49fb-801a-3111dcebfbac","ios":"levelo://app?vid=0a0b0a73-2b27-49fb-801a-3111dcebfbac"},"vehicle_type_id":"4","last_reported":1744937447,"current_range_meters":8800,"station_id":"ce4bhn92rcd13ifvqgrg","pricing_plan_id":"cebpf4jnsgd1na2vs0mg"},{"bike_id":"08545b9c-147f-4096-92e8-2af1c560447d","system_id":"levelo_inurba_marseille","lat":43.274919,"lon":5.424511,"is_reserved":false,"is_disabled":false,"rental_uris":{"android":"levelo://app?vid=08545b9c-147f-4096-92e8-2af1c560447d","ios":"levelo://app?vid=08545b9c-147f-4096-92e8-2af1c560447d"},"vehicle_type_id":"4","last_reported":1744937447,"current_range_meters":8800,"station_id":"ce4bhn92rcd13ifvqgrg","pricing_plan_id":"cebpf4jnsgd1na2vs0mg"},{"bike_id":"e4dd25b2-5182-454b-8ba4-58c5235d0cf2","system_id":"levelo_inurba_marseille","lat":43.310882,"lon":5.383444,"is_reserved":false,"is_disabled":false,"rental_uris":{"android":"levelo://app?vid=e4dd25b2-5182-454b-8ba4-58c5235d0cf2","ios":"levelo://app?vid=e4dd25b2-5182-454b-8ba4-58c5235d0cf2"},"vehicle_type_id":"4","last_reported":1744937447,"current_range_meters":8800,"station_id":"ce4bgv92rcd13ifvqcr0","pricing_plan_id":"cebpf4jnsgd1na2vs0mg"},{"bike_id":"706174a5-b367-48cd-8f47-742f4f05c9f3","system_id":"levelo_inurba_marseille","lat":43.319659,"lon":5.371106,"is_reserved":false,"is_disabled":false,"rental_uris":{"android":"levelo://app?vid=706174a5-b367-48cd-8f47-742f4f05c9f3","ios":"levelo://app?vid=706174a5-b367-48cd-8f47-742f4f05c9f3"},"vehicle_type_id":"4","last_reported":1744937447,"current_range_meters":8800,"station_id":"","pricing_plan_id":"cebpf4jnsgd1na2vs0mg"},{"bike_id":"a7a61861-d7ec-4293-a443-2039bd621d98","system_id":"levelo_inurba_marseille","lat":43.28464,"lon":5.38548,"is_reserved":false,"is_disabled":false,"rental_uris":{"android":"levelo://app?vid=a7a61861-d7ec-4293-a443-2039bd621d98","ios":"levelo://app?vid=a7a61861-d7ec-4293-a443-2039bd621d98"},"vehicle_type_id":"4","last_reported":1744937447,"current_range_meters":9200,"station_id":"ce4bh8p2rcd13ifvqeb0","pricing_plan_id":"cebpf4jnsgd1na2vs0mg"},{"bike_id":"585714ba-7cde-4313-a328-20a1e5862f2f","system_id":"levelo_inurba_marseille","lat":43.2466,"lon":5.38143,"is_reserved":false,"is_disabled":false,"rental_uris":{"android":"levelo://app?vid=585714ba-7cde-4313-a328-20a1e5862f2f","ios":"levelo://app?vid=585714ba-7cde-4313-a328-20a1e5862f2f"},"vehicle_type_id":"4","last_reported":1744937447,"current_range_meters":9200,"station_id":"ce4bhih2rcd13ifvqfr0","pricing_plan_id":"cebpf4jnsgd1na2vs0mg"},{"bike_id":"e3061286-add2-4bc6-a803-66a4d7d63e42","system_id":"levelo_inurba_marseille","lat":43.28667,"lon":5.35049,"is_reserved":false,"is_disabled":false,"rental_uris":{"android":"levelo://app?vid=e3061286-add2-4bc6-a803-66a4d7d63e42","ios":"levelo://app?vid=e3061286-add2-4bc6-a803-66a4d7d63e42"},"vehicle_type_id":"4","last_reported":1744937447,"current_range_meters":9200,"station_id":"","pricing_plan_id":"cebpf4jnsgd1na2vs0mg"},{"bike_id":"54e3e55b-7492-48eb-a4a3-6f203a41345e","system_id":"levelo_inurba_marseille","lat":43.30701,"lon":5.38072,"is_reserved":false,"is_disabled":false,"rental_uris":{"android":"levelo://app?vid=54e3e55b-7492-48eb-a4a3-6f203a41345e","ios":"levelo://app?vid=54e3e55b-7492-48eb-a4a3-6f203a41345e"},"vehicle_type_id":"4","last_reported":1744937447,"current_range_meters":9200,"station_id":"","pricing_plan_id":"cebpf4jnsgd1na2vs0mg"},{"bike_id":"938a90e1-d240-42f9-a08d-d5f66f810f54","system_id":"levelo_inurba_marseille","lat":43.283316,"lon":5.398183,"is_reserved":false,"is_disabled":false,"rental_uris":{"android":"levelo://app?vid=938a90e1-d240-42f9-a08d-d5f66f810f54","ios":"levelo://app?vid=938a90e1-d240-42f9-a08d-d5f66f810f54"},"vehicle_type_id":"4","last_reported":1744937447,"current_range_meters":9200,"station_id":"","pricing_plan_id":"cebpf4jnsgd1na2vs0mg"},{"bike_id":"7b96111b-7974-4fe6-9610-4556870a2e07","system_id":"levelo_inurba_marseille","lat":43.24329,"lon":5.37053,"is_reserved":false,"is_disabled":false,"rental_uris":{"android":"levelo://app?vid=7b96111b-7974-4fe6-9610-4556870a2e07","ios":"levelo://app?vid=7b96111b-7974-4fe6-9610-4556870a2e07"},"vehicle_type_id":"4","last_reported":1744937447,"current_range_meters":9200,"station_id":"ce4bhhh2rcd13ifvqfk0","pricing_plan_id":"cebpf4jnsgd1na2vs0mg"},{"bike_id":"1953ad5e-5f56-46f9-9358-ca08c41f1be4","system_id":"levelo_inurba_marseille","lat":43.31326,"lon":5.39703,"is_reserved":false,"is_disabled":false,"rental_uris":{"android":"levelo://app?vid=1953ad5e-5f56-46f9-9358-ca08c41f1be4","ios":"levelo://app?vid=1953ad5e-5f56-46f9-9358-ca08c41f1be4"},"vehicle_type_id":"4","last_reported":1744937447,"current_range_meters":9200,"station_id":"ce4bgvp2rcd13ifvqcu0","pricing_plan_id":"cebpf4jnsgd1na2vs0mg"},{"bike_id":"46ba751f-76b4-4074-9380-a6582fffb0d5","system_id":"levelo_inurba_marseille","lat":43.31069,"lon":5.38375,"is_reserved":false,"is_disabled":false,"rental_uris":{"android":"levelo://app?vid=46ba751f-76b4-4074-9380-a6582fffb0d5","ios":"levelo://app?vid=46ba751f-76b4-4074-9380-a6582fffb0d5"},"vehicle_type_id":"4","last_reported":1744937447,"current_range_meters":9200,"station_id":"ce4bgv92rcd13ifvqcr0","pricing_plan_id":"cebpf4jnsgd1na2vs0mg"},{"bike_id":"21092c07-6713-4bda-93a0-0d1eb9144b1f","system_id":"levelo_inurba_marseille","lat":43.231858,"lon":5.399865,"is_reserved":false,"is_disabled":false,"rental_uris":{"android":"levelo://app?vid=21092c07-6713-4bda-93a0-0d1eb9144b1f","ios":"levelo://app?vid=21092c07-6713-4bda-93a0-0d1eb9144b1f"},"vehicle_type_id":"4","last_reported":1744937447,"current_range_meters":9200,"station_id":"ce4bhn12rcd13ifvqgqg","pricing_plan_id":"cebpf4jnsgd1na2vs0mg"},{"bike_id":"8802955e-fc0c-42a1-b76b-5c7a86239033","system_id":"levelo_inurba_marseille","lat":43.304905,"lon":5.39032,"is_reserved":false,"is_disabled":false,"rental_uris":{"android":"levelo://app?vid=8802955e-fc0c-42a1-b76b-5c7a86239033","ios":"levelo://app?vid=8802955e-fc0c-42a1-b76b-5c7a86239033"},"vehicle_type_id":"4","last_reported":1744937447,"current_range_meters":9200,"station_id":"","pricing_plan_id":"cebpf4jnsgd1na2vs0mg"},{"bike_id":"47609ccd-53e0-4078-82db-70f12f07ba72","system_id":"levelo_inurba_marseille","lat":43.29197,"lon":5.3583,"is_reserved":false,"is_disabled":false,"rental_uris":{"android":"levelo://app?vid=47609ccd-53e0-4078-82db-70f12f07ba72","ios":"levelo://app?vid=47609ccd-53e0-4078-82db-70f12f07ba72"},"vehicle_type_id":"4","last_reported":1744937447,"current_range_meters":9600,"station_id":"ce4bhb12rcd13ifvqel0","pricing_plan_id":"cebpf4jnsgd1na2vs0mg"},{"bike_id":"93e30f6e-3d43-4dfb-9b14-b8e21a68396d","system_id":"levelo_inurba_marseille","lat":43.30655,"lon":5.40071,"is_reserved":false,"is_disabled":false,"rental_uris":{"android":"levelo://app?vid=93e30f6e-3d43-4dfb-9b14-b8e21a68396d","ios":"levelo://app?vid=93e30f6e-3d43-4dfb-9b14-b8e21a68396d"},"vehicle_type_id":"4","last_reported":1744937447,"current_range_meters":9600,"station_id":"ce4bh112rcd13ifvqda0","pricing_plan_id":"cebpf4jnsgd1na2vs0mg"},{"bike_id":"72823705-7f07-4adb-897d-e1709234e554","system_id":"levelo_inurba_marseille","lat":43.23182,"lon":5.39987,"is_reserved":false,"is_disabled":false,"rental_uris":{"android":"levelo://app?vid=72823705-7f07-4adb-897d-e1709234e554","ios":"levelo://app?vid=72823705-7f07-4adb-897d-e1709234e554"},"vehicle_type_id":"4","last_reported":1744937447,"current_range_meters":9600,"station_id":"ce4bhn12rcd13ifvqgqg","pricing_plan_id":"cebpf4jnsgd1na2vs0mg"},{"bike_id":"d6b89e0f-fd39-4f5a-ab85-38cab83279d2","system_id":"levelo_inurba_marseille","lat":43.30788,"lon":5.38159,"is_reserved":false,"is_disabled":false,"rental_uris":{"android":"levelo://app?vid=d6b89e0f-fd39-4f5a-ab85-38cab83279d2","ios":"levelo://app?vid=d6b89e0f-fd39-4f5a-ab85-38cab83279d2"},"vehicle_type_id":"4","last_reported":1744937447,"current_range_meters":9600,"station_id":"ce4bgt12rcd13ifvqce0","pricing_plan_id":"cebpf4jnsgd1na2vs0mg"},{"bike_id":"c2049a01-ad51-4cee-8597-b7ce16e48643","system_id":"levelo_inurba_marseille","lat":43.28153,"lon":5.42638,"is_reserved":false,"is_disabled":false,"rental_uris":{"android":"levelo://app?vid=c2049a01-ad51-4cee-8597-b7ce16e48643","ios":"levelo://app?vid=c2049a01-ad51-4cee-8597-b7ce16e48643"},"vehicle_type_id":"4","last_reported":1744937447,"current_range_meters":9600,"station_id":"ce4bhnh2rcd13ifvqgug","pricing_plan_id":"cebpf4jnsgd1na2vs0mg"},{"bike_id":"3c48e7f2-e65c-445b-bcbf-0861396083f8","system_id":"levelo_inurba_marseille","lat":43.21725,"lon":5.34551,"is_reserved":false,"is_disabled":false,"rental_uris":{"android":"levelo://app?vid=3c48e7f2-e65c-445b-bcbf-0861396083f8","ios":"levelo://app?vid=3c48e7f2-e65c-445b-bcbf-0861396083f8"},"vehicle_type_id":"4","last_reported":1744937447,"current_range_meters":9600,"station_id":"st_cvj6r9ubvosntc0bgbag","pricing_plan_id":"cebpf4jnsgd1na2vs0mg"},{"bike_id":"7a309602-af8f-4ea4-8e53-e755bdc0b888","system_id":"levelo_inurba_marseille","lat":43.29196,"lon":5.35828,"is_reserved":false,"is_disabled":false,"rental_uris":{"android":"levelo://app?vid=7a309602-af8f-4ea4-8e53-e755bdc0b888","ios":"levelo://app?vid=7a309602-af8f-4ea4-8e53-e755bdc0b888"},"vehicle_type_id":"4","last_reported":1744937447,"current_range_meters":9600,"station_id":"ce4bhb12rcd13ifvqel0","pricing_plan_id":"cebpf4jnsgd1na2vs0mg"},{"bike_id":"1a98f9bd-3aaa-40b8-94f2-2458f2b1376a","system_id":"levelo_inurba_marseille","lat":43.2926,"lon":5.4092,"is_reserved":false,"is_disabled":false,"rental_uris":{"android":"levelo://app?vid=1a98f9bd-3aaa-40b8-94f2-2458f2b1376a","ios":"levelo://app?vid=1a98f9bd-3aaa-40b8-94f2-2458f2b1376a"},"vehicle_type_id":"4","last_reported":1744937447,"current_range_meters":10000,"station_id":"ce4bh192rcd13ifvqdc0","pricing_plan_id":"cebpf4jnsgd1na2vs0mg"},{"bike_id":"ff935f1c-246d-4e07-a399-40ad7e059de5","system_id":"levelo_inurba_marseille","lat":43.25494,"lon":5.37641,"is_reserved":false,"is_disabled":true,"rental_uris":{"android":"levelo://app?vid=ff935f1c-246d-4e07-a399-40ad7e059de5","ios":"levelo://app?vid=ff935f1c-246d-4e07-a399-40ad7e059de5"},"vehicle_type_id":"4","last_reported":1744937447,"current_range_meters":10000,"station_id":"ce4bhh12rcd13ifvqff0","pricing_plan_id":"cebpf4jnsgd1na2vs0mg"},{"bike_id":"2e3d1586-39b9-4f2e-a808-4f2fbc6116b5","system_id":"levelo_inurba_marseille","lat":43.28401,"lon":5.37528,"is_reserved":false,"is_disabled":false,"rental_uris":{"android":"levelo://app?vid=2e3d1586-39b9-4f2e-a808-4f2fbc6116b5","ios":"levelo://app?vid=2e3d1586-39b9-4f2e-a808-4f2fbc6116b5"},"vehicle_type_id":"4","last_reported":1744937447,"current_range_meters":10000,"station_id":"ce4bh412rcd13ifvqds0","pricing_plan_id":"cebpf4jnsgd1na2vs0mg"},{"bike_id":"c5ad34a5-de23-413d-9e8b-ec61ed7009c1","system_id":"levelo_inurba_marseille","lat":43.28626,"lon":5.35078,"is_reserved":false,"is_disabled":false,"rental_uris":{"android":"levelo://app?vid=c5ad34a5-de23-413d-9e8b-ec61ed7009c1","ios":"levelo://app?vid=c5ad34a5-de23-413d-9e8b-ec61ed7009c1"},"vehicle_type_id":"4","last_reported":1744937447,"current_range_meters":10000,"station_id":"ce4bhch2rcd13ifvqeug","pricing_plan_id":"cebpf4jnsgd1na2vs0mg"},{"bike_id":"51def45e-0e29-43bb-96c6-d78113afa6e6","system_id":"levelo_inurba_marseille","lat":43.30649,"lon":5.40081,"is_reserved":false,"is_disabled":false,"rental_uris":{"android":"levelo://app?vid=51def45e-0e29-43bb-96c6-d78113afa6e6","ios":"levelo://app?vid=51def45e-0e29-43bb-96c6-d78113afa6e6"},"vehicle_type_id":"4","last_reported":1744937447,"current_range_meters":10000,"station_id":"ce4bh112rcd13ifvqda0","pricing_plan_id":"cebpf4jnsgd1na2vs0mg"},{"bike_id":"e520561a-6372-4db5-9539-80ac9a458dbb","system_id":"levelo_inurba_marseille","lat":43.28701,"lon":5.39978,"is_reserved":false,"is_disabled":false,"rental_uris":{"android":"levelo://app?vid=e520561a-6372-4db5-9539-80ac9a458dbb","ios":"levelo://app?vid=e520561a-6372-4db5-9539-80ac9a458dbb"},"vehicle_type_id":"4","last_reported":1744937447,"current_range_meters":10800,"station_id":"ce4bho92rcd13ifvqh3g","pricing_plan_id":"cebpf4jnsgd1na2vs0mg"},{"bike_id":"5b42146a-9b65-4576-b6b1-ae6f85373419","system_id":"levelo_inurba_marseille","lat":43.29193,"lon":5.35804,"is_reserved":false,"is_disabled":false,"rental_uris":{"android":"levelo://app?vid=5b42146a-9b65-4576-b6b1-ae6f85373419","ios":"levelo://app?vid=5b42146a-9b65-4576-b6b1-ae6f85373419"},"vehicle_type_id":"4","last_reported":1744937447,"current_range_meters":10800,"station_id":"ce4bhb12rcd13ifvqel0","pricing_plan_id":"cebpf4jnsgd1na2vs0mg"},{"bike_id":"fe7c7689-3731-4056-8d49-6381cc08a48b","system_id":"levelo_inurba_marseille","lat":43.29975,"lon":5.38491,"is_reserved":false,"is_disabled":true,"rental_uris":{"android":"levelo://app?vid=fe7c7689-3731-4056-8d49-6381cc08a48b","ios":"levelo://app?vid=fe7c7689-3731-4056-8d49-6381cc08a48b"},"vehicle_type_id":"4","last_reported":1744937447,"current_range_meters":10800,"station_id":"ce4bgj92rcd13ifvqbd0","pricing_plan_id":"cebpf4jnsgd1na2vs0mg"},{"bike_id":"cbf29fce-b821-4cbd-8ecd-022dab6930e8","system_id":"levelo_inurba_marseille","lat":43.28414,"lon":5.37514,"is_reserved":false,"is_disabled":false,"rental_uris":{"android":"levelo://app?vid=cbf29fce-b821-4cbd-8ecd-022dab6930e8","ios":"levelo://app?vid=cbf29fce-b821-4cbd-8ecd-022dab6930e8"},"vehicle_type_id":"4","last_reported":1744937447,"current_range_meters":10800,"station_id":"ce4bh412rcd13ifvqds0","pricing_plan_id":"cebpf4jnsgd1na2vs0mg"},{"bike_id":"ec8c9ac7-1e95-4171-97f3-226ce1e3c951","system_id":"levelo_inurba_marseille","lat":43.321202,"lon":5.367643,"is_reserved":false,"is_disabled":false,"rental_uris":{"android":"levelo://app?vid=ec8c9ac7-1e95-4171-97f3-226ce1e3c951","ios":"levelo://app?vid=ec8c9ac7-1e95-4171-97f3-226ce1e3c951"},"vehicle_type_id":"4","last_reported":1744937447,"current_range_meters":11200,"station_id":"ce4bhrh2rcd13ifvqhug","pricing_plan_id":"cebpf4jnsgd1na2vs0mg"},{"bike_id":"4a17a27b-4979-4133-9ae1-996785f8fee4","system_id":"levelo_inurba_marseille","lat":43.23063,"lon":5.3549,"is_reserved":false,"is_disabled":false,"rental_uris":{"android":"levelo://app?vid=4a17a27b-4979-4133-9ae1-996785f8fee4","ios":"levelo://app?vid=4a17a27b-4979-4133-9ae1-996785f8fee4"},"vehicle_type_id":"4","last_reported":1744937447,"current_range_meters":11200,"station_id":"cpo3342slgdg3j2ifvpg","pricing_plan_id":"cebpf4jnsgd1na2vs0mg"},{"bike_id":"ef7b2127-b01e-4dd6-83c3-864de2b44dff","system_id":"levelo_inurba_marseille","lat":43.24664,"lon":5.38187,"is_reserved":false,"is_disabled":false,"rental_uris":{"android":"levelo://app?vid=ef7b2127-b01e-4dd6-83c3-864de2b44dff","ios":"levelo://app?vid=ef7b2127-b01e-4dd6-83c3-864de2b44dff"},"vehicle_type_id":"4","last_reported":1744937447,"current_range_meters":11200,"station_id":"ce4bhih2rcd13ifvqfr0","pricing_plan_id":"cebpf4jnsgd1na2vs0mg"},{"bike_id":"f348c235-69d5-41ec-b5f7-0a83dab5339a","system_id":"levelo_inurba_marseille","lat":43.29013,"lon":5.35602,"is_reserved":false,"is_disabled":true,"rental_uris":{"android":"levelo://app?vid=f348c235-69d5-41ec-b5f7-0a83dab5339a","ios":"levelo://app?vid=f348c235-69d5-41ec-b5f7-0a83dab5339a"},"vehicle_type_id":"4","last_reported":1744937447,"current_range_meters":11200,"station_id":"ce4bhb92rcd13ifvqen0","pricing_plan_id":"cebpf4jnsgd1na2vs0mg"},{"bike_id":"04657881-18eb-45ab-8fbd-9926a7c863cf","system_id":"levelo_inurba_marseille","lat":43.28623,"lon":5.35081,"is_reserved":false,"is_disabled":false,"rental_uris":{"android":"levelo://app?vid=04657881-18eb-45ab-8fbd-9926a7c863cf","ios":"levelo://app?vid=04657881-18eb-45ab-8fbd-9926a7c863cf"},"vehicle_type_id":"4","last_reported":1744937447,"current_range_meters":11200,"station_id":"ce4bhch2rcd13ifvqeug","pricing_plan_id":"cebpf4jnsgd1na2vs0mg"},{"bike_id":"98da1440-ddaf-41c4-ae43-8bc3e685a3bb","system_id":"levelo_inurba_marseille","lat":43.28407,"lon":5.34982,"is_reserved":false,"is_disabled":false,"rental_uris":{"android":"levelo://app?vid=98da1440-ddaf-41c4-ae43-8bc3e685a3bb","ios":"levelo://app?vid=98da1440-ddaf-41c4-ae43-8bc3e685a3bb"},"vehicle_type_id":"4","last_reported":1744937447,"current_range_meters":11600,"station_id":"ce4bhbh2rcd13ifvqepg","pricing_plan_id":"cebpf4jnsgd1na2vs0mg"},{"bike_id":"173d39b4-7a97-4693-9385-db8bda0fe199","system_id":"levelo_inurba_marseille","lat":43.21746,"lon":5.34599,"is_reserved":false,"is_disabled":false,"rental_uris":{"android":"levelo://app?vid=173d39b4-7a97-4693-9385-db8bda0fe199","ios":"levelo://app?vid=173d39b4-7a97-4693-9385-db8bda0fe199"},"vehicle_type_id":"4","last_reported":1744937447,"current_range_meters":11600,"station_id":"st_cvj6r9ubvosntc0bgbag","pricing_plan_id":"cebpf4jnsgd1na2vs0mg"},{"bike_id":"64a47f4a-f4e2-4e1b-949e-3e6cf7bc5e72","system_id":"levelo_inurba_marseille","lat":43.271943,"lon":5.409901,"is_reserved":false,"is_disabled":true,"rental_uris":{"android":"levelo://app?vid=64a47f4a-f4e2-4e1b-949e-3e6cf7bc5e72","ios":"levelo://app?vid=64a47f4a-f4e2-4e1b-949e-3e6cf7bc5e72"},"vehicle_type_id":"4","last_reported":1744937447,"current_range_meters":11600,"station_id":"ce4bhl12rcd13ifvqgf0","pricing_plan_id":"cebpf4jnsgd1na2vs0mg"},{"bike_id":"41fb0398-f2fe-4abb-ae37-a38f47615ea9","system_id":"levelo_inurba_marseille","lat":43.32363,"lon":5.367669,"is_reserved":false,"is_disabled":false,"rental_uris":{"android":"levelo://app?vid=41fb0398-f2fe-4abb-ae37-a38f47615ea9","ios":"levelo://app?vid=41fb0398-f2fe-4abb-ae37-a38f47615ea9"},"vehicle_type_id":"4","last_reported":1744937447,"current_range_meters":11600,"station_id":"ce4bhsh2rcd13ifvqi2g","pricing_plan_id":"cebpf4jnsgd1na2vs0mg"},{"bike_id":"adde4d5e-a6c8-47d4-bad6-4ab17d17ade1","system_id":"levelo_inurba_marseille","lat":43.279651,"lon":5.387295,"is_reserved":false,"is_disabled":false,"rental_uris":{"android":"levelo://app?vid=adde4d5e-a6c8-47d4-bad6-4ab17d17ade1","ios":"levelo://app?vid=adde4d5e-a6c8-47d4-bad6-4ab17d17ade1"},"vehicle_type_id":"4","last_reported":1744937447,"current_range_meters":11600,"station_id":"ce4bhg12rcd13ifvqf80","pricing_plan_id":"cebpf4jnsgd1na2vs0mg"},{"bike_id":"ae0e1566-e631-4bc5-9aed-0ebca70f0554","system_id":"levelo_inurba_marseille","lat":43.286245,"lon":5.350996,"is_reserved":false,"is_disabled":false,"rental_uris":{"android":"levelo://app?vid=ae0e1566-e631-4bc5-9aed-0ebca70f0554","ios":"levelo://app?vid=ae0e1566-e631-4bc5-9aed-0ebca70f0554"},"vehicle_type_id":"4","last_reported":1744937447,"current_range_meters":11600,"station_id":"ce4bhch2rcd13ifvqeug","pricing_plan_id":"cebpf4jnsgd1na2vs0mg"},{"bike_id":"d7e9d8be-e49c-45a8-80f8-1f65bfb83645","system_id":"levelo_inurba_marseille","lat":43.23586,"lon":5.40352,"is_reserved":false,"is_disabled":false,"rental_uris":{"android":"levelo://app?vid=d7e9d8be-e49c-45a8-80f8-1f65bfb83645","ios":"levelo://app?vid=d7e9d8be-e49c-45a8-80f8-1f65bfb83645"},"vehicle_type_id":"4","last_reported":1744937447,"current_range_meters":11600,"station_id":"","pricing_plan_id":"cebpf4jnsgd1na2vs0mg"},{"bike_id":"7e19d3d8-b4d8-4f4b-a2c3-14e968445fac","system_id":"levelo_inurba_marseille","lat":43.23181,"lon":5.39991,"is_reserved":false,"is_disabled":false,"rental_uris":{"android":"levelo://app?vid=7e19d3d8-b4d8-4f4b-a2c3-14e968445fac","ios":"levelo://app?vid=7e19d3d8-b4d8-4f4b-a2c3-14e968445fac"},"vehicle_type_id":"4","last_reported":1744937447,"current_range_meters":12000,"station_id":"ce4bhn12rcd13ifvqgqg","pricing_plan_id":"cebpf4jnsgd1na2vs0mg"},{"bike_id":"1149d159-4fc9-44d2-ae4f-a73b54b03835","system_id":"levelo_inurba_marseille","lat":43.28703,"lon":5.37387,"is_reserved":false,"is_disabled":false,"rental_uris":{"android":"levelo://app?vid=1149d159-4fc9-44d2-ae4f-a73b54b03835","ios":"levelo://app?vid=1149d159-4fc9-44d2-ae4f-a73b54b03835"},"vehicle_type_id":"4","last_reported":1744937447,"current_range_meters":12000,"station_id":"ce4bh3p2rcd13ifvqdq0","pricing_plan_id":"cebpf4jnsgd1na2vs0mg"},{"bike_id":"5fddd535-ab4d-402f-9080-0ad0b96c0735","system_id":"levelo_inurba_marseille","lat":43.309398,"lon":5.36742,"is_reserved":false,"is_disabled":false,"rental_uris":{"android":"levelo://app?vid=5fddd535-ab4d-402f-9080-0ad0b96c0735","ios":"levelo://app?vid=5fddd535-ab4d-402f-9080-0ad0b96c0735"},"vehicle_type_id":"4","last_reported":1744937447,"current_range_meters":12000,"station_id":"","pricing_plan_id":"cebpf4jnsgd1na2vs0mg"},{"bike_id":"633aa362-611c-4af7-b8d7-3ca322d5f5ea","system_id":"levelo_inurba_marseille","lat":43.24688,"lon":5.38159,"is_reserved":false,"is_disabled":false,"rental_uris":{"android":"levelo://app?vid=633aa362-611c-4af7-b8d7-3ca322d5f5ea","ios":"levelo://app?vid=633aa362-611c-4af7-b8d7-3ca322d5f5ea"},"vehicle_type_id":"4","last_reported":1744937447,"current_range_meters":12000,"station_id":"","pricing_plan_id":"cebpf4jnsgd1na2vs0mg"},{"bike_id":"5c991962-d5a0-46ab-b8d3-7e26135894a2","system_id":"levelo_inurba_marseille","lat":43.26003,"lon":5.37564,"is_reserved":false,"is_disabled":true,"rental_uris":{"android":"levelo://app?vid=5c991962-d5a0-46ab-b8d3-7e26135894a2","ios":"levelo://app?vid=5c991962-d5a0-46ab-b8d3-7e26135894a2"},"vehicle_type_id":"4","last_reported":1744937447,"current_range_meters":12400,"station_id":"ce4bhgh2rcd13ifvqfa0","pricing_plan_id":"cebpf4jnsgd1na2vs0mg"},{"bike_id":"e14c265e-eca3-4791-a3e7-f534121ae166","system_id":"levelo_inurba_marseille","lat":43.2294,"lon":5.35366,"is_reserved":false,"is_disabled":false,"rental_uris":{"android":"levelo://app?vid=e14c265e-eca3-4791-a3e7-f534121ae166","ios":"levelo://app?vid=e14c265e-eca3-4791-a3e7-f534121ae166"},"vehicle_type_id":"4","last_reported":1744937447,"current_range_meters":12400,"station_id":"cpo3532slgdg3j2ikp40","pricing_plan_id":"cebpf4jnsgd1na2vs0mg"},{"bike_id":"f690738c-7184-40d0-8e24-653d6c176a31","system_id":"levelo_inurba_marseille","lat":43.295505,"lon":5.422835,"is_reserved":false,"is_disabled":false,"rental_uris":{"android":"levelo://app?vid=f690738c-7184-40d0-8e24-653d6c176a31","ios":"levelo://app?vid=f690738c-7184-40d0-8e24-653d6c176a31"},"vehicle_type_id":"4","last_reported":1744937447,"current_range_meters":12400,"station_id":"ce4bhph2rcd13ifvqhdg","pricing_plan_id":"cebpf4jnsgd1na2vs0mg"},{"bike_id":"352e8922-0e4e-41fc-b51a-6d72248561b5","system_id":"levelo_inurba_marseille","lat":43.29713,"lon":5.36604,"is_reserved":false,"is_disabled":false,"rental_uris":{"android":"levelo://app?vid=352e8922-0e4e-41fc-b51a-6d72248561b5","ios":"levelo://app?vid=352e8922-0e4e-41fc-b51a-6d72248561b5"},"vehicle_type_id":"4","last_reported":1744937447,"current_range_meters":12800,"station_id":"ce4bgn12rcd13ifvqbt0","pricing_plan_id":"cebpf4jnsgd1na2vs0mg"},{"bike_id":"559306d4-8b23-4192-b8d5-28a38ab3887f","system_id":"levelo_inurba_marseille","lat":43.299316,"lon":5.365451,"is_reserved":false,"is_disabled":false,"rental_uris":{"android":"levelo://app?vid=559306d4-8b23-4192-b8d5-28a38ab3887f","ios":"levelo://app?vid=559306d4-8b23-4192-b8d5-28a38ab3887f"},"vehicle_type_id":"4","last_reported":1744937447,"current_range_meters":12800,"station_id":"ce4bgm92rcd13ifvqbr0","pricing_plan_id":"cebpf4jnsgd1na2vs0mg"},{"bike_id":"a8acab35-e8ef-4d3d-a4b5-67d71ab7687d","system_id":"levelo_inurba_marseille","lat":43.23963,"lon":5.36634,"is_reserved":false,"is_disabled":false,"rental_uris":{"android":"levelo://app?vid=a8acab35-e8ef-4d3d-a4b5-67d71ab7687d","ios":"levelo://app?vid=a8acab35-e8ef-4d3d-a4b5-67d71ab7687d"},"vehicle_type_id":"4","last_reported":1744937447,"current_range_meters":12800,"station_id":"ce4bhi12rcd13ifvqfp0","pricing_plan_id":"cebpf4jnsgd1na2vs0mg"},{"bike_id":"0e1fb191-e3b5-4084-98e6-2a5ee82426fc","system_id":"levelo_inurba_marseille","lat":43.31174,"lon":5.38694,"is_reserved":false,"is_disabled":false,"rental_uris":{"android":"levelo://app?vid=0e1fb191-e3b5-4084-98e6-2a5ee82426fc","ios":"levelo://app?vid=0e1fb191-e3b5-4084-98e6-2a5ee82426fc"},"vehicle_type_id":"4","last_reported":1744937447,"current_range_meters":12800,"station_id":"ce4bgv12rcd13ifvqcp0","pricing_plan_id":"cebpf4jnsgd1na2vs0mg"},{"bike_id":"1a71cbd7-63e5-47b7-b0fb-4c950b2368b3","system_id":"levelo_inurba_marseille","lat":43.30883,"lon":5.39636,"is_reserved":false,"is_disabled":false,"rental_uris":{"android":"levelo://app?vid=1a71cbd7-63e5-47b7-b0fb-4c950b2368b3","ios":"levelo://app?vid=1a71cbd7-63e5-47b7-b0fb-4c950b2368b3"},"vehicle_type_id":"4","last_reported":1744937447,"current_range_meters":13600,"station_id":"ce4bh012rcd13ifvqcv0","pricing_plan_id":"cebpf4jnsgd1na2vs0mg"},{"bike_id":"94db8460-8919-43c5-b6c2-b1d73dbe3d16","system_id":"levelo_inurba_marseille","lat":43.2623,"lon":5.40455,"is_reserved":false,"is_disabled":false,"rental_uris":{"android":"levelo://app?vid=94db8460-8919-43c5-b6c2-b1d73dbe3d16","ios":"levelo://app?vid=94db8460-8919-43c5-b6c2-b1d73dbe3d16"},"vehicle_type_id":"4","last_reported":1744937447,"current_range_meters":13600,"station_id":"ce4bhmh2rcd13ifvqgmg","pricing_plan_id":"cebpf4jnsgd1na2vs0mg"},{"bike_id":"0fb1a105-b046-4c66-baab-c2dec6ff86a2","system_id":"levelo_inurba_marseille","lat":43.28646,"lon":5.37015,"is_reserved":false,"is_disabled":false,"rental_uris":{"android":"levelo://app?vid=0fb1a105-b046-4c66-baab-c2dec6ff86a2","ios":"levelo://app?vid=0fb1a105-b046-4c66-baab-c2dec6ff86a2"},"vehicle_type_id":"4","last_reported":1744937447,"current_range_meters":13600,"station_id":"ce4bht12rcd13ifvqi60","pricing_plan_id":"cebpf4jnsgd1na2vs0mg"},{"bike_id":"e3dc88ef-8bac-4d7f-8d28-5ccb26305c61","system_id":"levelo_inurba_marseille","lat":43.26567,"lon":5.38974,"is_reserved":false,"is_disabled":false,"rental_uris":{"android":"levelo://app?vid=e3dc88ef-8bac-4d7f-8d28-5ccb26305c61","ios":"levelo://app?vid=e3dc88ef-8bac-4d7f-8d28-5ccb26305c61"},"vehicle_type_id":"4","last_reported":1744937447,"current_range_meters":13600,"station_id":"ce4bhe12rcd13ifvqf30","pricing_plan_id":"cebpf4jnsgd1na2vs0mg"},{"bike_id":"9a20f8b0-b7e7-49bc-8309-75a96a103c15","system_id":"levelo_inurba_marseille","lat":43.24063,"lon":5.37753,"is_reserved":false,"is_disabled":false,"rental_uris":{"android":"levelo://app?vid=9a20f8b0-b7e7-49bc-8309-75a96a103c15","ios":"levelo://app?vid=9a20f8b0-b7e7-49bc-8309-75a96a103c15"},"vehicle_type_id":"4","last_reported":1744937447,"current_range_meters":13600,"station_id":"ce4bhnp2rcd13ifvqgvg","pricing_plan_id":"cebpf4jnsgd1na2vs0mg"},{"bike_id":"2daa1a4a-afb7-470b-9fac-d2f8da0290d5","system_id":"levelo_inurba_marseille","lat":43.25574,"lon":5.3823,"is_reserved":false,"is_disabled":false,"rental_uris":{"android":"levelo://app?vid=2daa1a4a-afb7-470b-9fac-d2f8da0290d5","ios":"levelo://app?vid=2daa1a4a-afb7-470b-9fac-d2f8da0290d5"},"vehicle_type_id":"4","last_reported":1744937447,"current_range_meters":14400,"station_id":"ce4bhih2rcd13ifvqfs0","pricing_plan_id":"cebpf4jnsgd1na2vs0mg"},{"bike_id":"1210dc72-37b8-49f7-b249-6faa54daba28","system_id":"levelo_inurba_marseille","lat":43.32369,"lon":5.36765,"is_reserved":false,"is_disabled":false,"rental_uris":{"android":"levelo://app?vid=1210dc72-37b8-49f7-b249-6faa54daba28","ios":"levelo://app?vid=1210dc72-37b8-49f7-b249-6faa54daba28"},"vehicle_type_id":"4","last_reported":1744937447,"current_range_meters":14000,"station_id":"ce4bhsh2rcd13ifvqi2g","pricing_plan_id":"cebpf4jnsgd1na2vs0mg"},{"bike_id":"b05102a8-8877-412e-aa52-3e7e2e12ebc2","system_id":"levelo_inurba_marseille","lat":43.27941,"lon":5.41048,"is_reserved":false,"is_disabled":false,"rental_uris":{"android":"levelo://app?vid=b05102a8-8877-412e-aa52-3e7e2e12ebc2","ios":"levelo://app?vid=b05102a8-8877-412e-aa52-3e7e2e12ebc2"},"vehicle_type_id":"4","last_reported":1744937447,"current_range_meters":14000,"station_id":"ce4bhnp2rcd13ifvqh0g","pricing_plan_id":"cebpf4jnsgd1na2vs0mg"},{"bike_id":"29b58797-325c-4a73-9291-9071debf4717","system_id":"levelo_inurba_marseille","lat":43.31069,"lon":5.38351,"is_reserved":false,"is_disabled":false,"rental_uris":{"android":"levelo://app?vid=29b58797-325c-4a73-9291-9071debf4717","ios":"levelo://app?vid=29b58797-325c-4a73-9291-9071debf4717"},"vehicle_type_id":"4","last_reported":1744937447,"current_range_meters":14000,"station_id":"ce4bgv92rcd13ifvqcr0","pricing_plan_id":"cebpf4jnsgd1na2vs0mg"},{"bike_id":"23669a23-4f21-4d97-b2d3-d6a953fccb4f","system_id":"levelo_inurba_marseille","lat":43.28715,"lon":5.40007,"is_reserved":false,"is_disabled":false,"rental_uris":{"android":"levelo://app?vid=23669a23-4f21-4d97-b2d3-d6a953fccb4f","ios":"levelo://app?vid=23669a23-4f21-4d97-b2d3-d6a953fccb4f"},"vehicle_type_id":"4","last_reported":1744937447,"current_range_meters":14400,"station_id":"ce4bho92rcd13ifvqh3g","pricing_plan_id":"cebpf4jnsgd1na2vs0mg"},{"bike_id":"6e151f25-a734-4932-95ad-add7114cc351","system_id":"levelo_inurba_marseille","lat":43.31269,"lon":5.40177,"is_reserved":false,"is_disabled":false,"rental_uris":{"android":"levelo://app?vid=6e151f25-a734-4932-95ad-add7114cc351","ios":"levelo://app?vid=6e151f25-a734-4932-95ad-add7114cc351"},"vehicle_type_id":"4","last_reported":1744937447,"current_range_meters":14000,"station_id":"ce4bh092rcd13ifvqd30","pricing_plan_id":"cebpf4jnsgd1na2vs0mg"},{"bike_id":"383e77ed-c3ce-4784-bc3e-fcd4452b48f8","system_id":"levelo_inurba_marseille","lat":43.309282,"lon":5.368328,"is_reserved":false,"is_disabled":false,"rental_uris":{"android":"levelo://app?vid=383e77ed-c3ce-4784-bc3e-fcd4452b48f8","ios":"levelo://app?vid=383e77ed-c3ce-4784-bc3e-fcd4452b48f8"},"vehicle_type_id":"4","last_reported":1744937447,"current_range_meters":14400,"station_id":"ce4bgn92rcd13ifvqbvg","pricing_plan_id":"cebpf4jnsgd1na2vs0mg"},{"bike_id":"22fabcf5-95dd-455d-93b5-f6b2277dc77e","system_id":"levelo_inurba_marseille","lat":43.30915,"lon":5.40153,"is_reserved":false,"is_disabled":false,"rental_uris":{"android":"levelo://app?vid=22fabcf5-95dd-455d-93b5-f6b2277dc77e","ios":"levelo://app?vid=22fabcf5-95dd-455d-93b5-f6b2277dc77e"},"vehicle_type_id":"4","last_reported":1744937447,"current_range_meters":14400,"station_id":"ce4bgvp2rcd13ifvqct0","pricing_plan_id":"cebpf4jnsgd1na2vs0mg"},{"bike_id":"c41facca-8ed6-4772-99bb-68f11d75fa62","system_id":"levelo_inurba_marseille","lat":43.28431,"lon":5.37497,"is_reserved":false,"is_disabled":false,"rental_uris":{"android":"levelo://app?vid=c41facca-8ed6-4772-99bb-68f11d75fa62","ios":"levelo://app?vid=c41facca-8ed6-4772-99bb-68f11d75fa62"},"vehicle_type_id":"4","last_reported":1744937447,"current_range_meters":14800,"station_id":"ce4bh412rcd13ifvqds0","pricing_plan_id":"cebpf4jnsgd1na2vs0mg"},{"bike_id":"0b73279b-3544-425f-8ea6-2a11b8dc5e95","system_id":"levelo_inurba_marseille","lat":43.31324,"lon":5.39687,"is_reserved":false,"is_disabled":false,"rental_uris":{"android":"levelo://app?vid=0b73279b-3544-425f-8ea6-2a11b8dc5e95","ios":"levelo://app?vid=0b73279b-3544-425f-8ea6-2a11b8dc5e95"},"vehicle_type_id":"4","last_reported":1744937447,"current_range_meters":14800,"station_id":"ce4bgvp2rcd13ifvqcu0","pricing_plan_id":"cebpf4jnsgd1na2vs0mg"},{"bike_id":"9ccc1250-0ff6-4acc-bd2f-67431ef76582","system_id":"levelo_inurba_marseille","lat":43.28406,"lon":5.34965,"is_reserved":false,"is_disabled":false,"rental_uris":{"android":"levelo://app?vid=9ccc1250-0ff6-4acc-bd2f-67431ef76582","ios":"levelo://app?vid=9ccc1250-0ff6-4acc-bd2f-67431ef76582"},"vehicle_type_id":"4","last_reported":1744937447,"current_range_meters":14800,"station_id":"ce4bhbh2rcd13ifvqepg","pricing_plan_id":"cebpf4jnsgd1na2vs0mg"},{"bike_id":"9ad09100-fcdf-4aca-a195-c19b7bea1185","system_id":"levelo_inurba_marseille","lat":43.28849,"lon":5.39306,"is_reserved":false,"is_disabled":false,"rental_uris":{"android":"levelo://app?vid=9ad09100-fcdf-4aca-a195-c19b7bea1185","ios":"levelo://app?vid=9ad09100-fcdf-4aca-a195-c19b7bea1185"},"vehicle_type_id":"4","last_reported":1744937447,"current_range_meters":14400,"station_id":"ce4bh2p2rcd13ifvqdi0","pricing_plan_id":"cebpf4jnsgd1na2vs0mg"},{"bike_id":"bbb1c662-cc65-4c72-8489-de78d2f0f12f","system_id":"levelo_inurba_marseille","lat":43.23058,"lon":5.35492,"is_reserved":false,"is_disabled":false,"rental_uris":{"android":"levelo://app?vid=bbb1c662-cc65-4c72-8489-de78d2f0f12f","ios":"levelo://app?vid=bbb1c662-cc65-4c72-8489-de78d2f0f12f"},"vehicle_type_id":"4","last_reported":1744937447,"current_range_meters":15200,"station_id":"cpo3342slgdg3j2ifvpg","pricing_plan_id":"cebpf4jnsgd1na2vs0mg"},{"bike_id":"e39978a1-60d4-434d-bc36-806e34da6e2a","system_id":"levelo_inurba_marseille","lat":43.30783,"lon":5.37662,"is_reserved":false,"is_disabled":false,"rental_uris":{"android":"levelo://app?vid=e39978a1-60d4-434d-bc36-806e34da6e2a","ios":"levelo://app?vid=e39978a1-60d4-434d-bc36-806e34da6e2a"},"vehicle_type_id":"4","last_reported":1744937447,"current_range_meters":15200,"station_id":"ce4bgv92rcd13ifvqcq0","pricing_plan_id":"cebpf4jnsgd1na2vs0mg"},{"bike_id":"84b15054-c469-4e19-b47b-0110b77d7ebb","system_id":"levelo_inurba_marseille","lat":43.31079,"lon":5.38339,"is_reserved":false,"is_disabled":false,"rental_uris":{"android":"levelo://app?vid=84b15054-c469-4e19-b47b-0110b77d7ebb","ios":"levelo://app?vid=84b15054-c469-4e19-b47b-0110b77d7ebb"},"vehicle_type_id":"4","last_reported":1744937447,"current_range_meters":15200,"station_id":"ce4bgr92rcd13ifvqc7g","pricing_plan_id":"cebpf4jnsgd1na2vs0mg"},{"bike_id":"d6711515-02ed-475f-8e58-7a9dbed862b2","system_id":"levelo_inurba_marseille","lat":43.30596,"lon":5.37221,"is_reserved":false,"is_disabled":false,"rental_uris":{"android":"levelo://app?vid=d6711515-02ed-475f-8e58-7a9dbed862b2","ios":"levelo://app?vid=d6711515-02ed-475f-8e58-7a9dbed862b2"},"vehicle_type_id":"4","last_reported":1744937447,"current_range_meters":15200,"station_id":"ce4bgqh2rcd13ifvqc4g","pricing_plan_id":"cebpf4jnsgd1na2vs0mg"},{"bike_id":"007ee9c7-c769-4de9-a218-517ff098b9cd","system_id":"levelo_inurba_marseille","lat":43.314505,"lon":5.373787,"is_reserved":false,"is_disabled":false,"rental_uris":{"android":"levelo://app?vid=007ee9c7-c769-4de9-a218-517ff098b9cd","ios":"levelo://app?vid=007ee9c7-c769-4de9-a218-517ff098b9cd"},"vehicle_type_id":"4","last_reported":1744937447,"current_range_meters":15200,"station_id":"","pricing_plan_id":"cebpf4jnsgd1na2vs0mg"},{"bike_id":"9716c346-45d1-4a6e-b8f0-9432d5290713","system_id":"levelo_inurba_marseille","lat":43.29933,"lon":5.36546,"is_reserved":false,"is_disabled":false,"rental_uris":{"android":"levelo://app?vid=9716c346-45d1-4a6e-b8f0-9432d5290713","ios":"levelo://app?vid=9716c346-45d1-4a6e-b8f0-9432d5290713"},"vehicle_type_id":"4","last_reported":1744937447,"current_range_meters":15200,"station_id":"ce4bgm92rcd13ifvqbr0","pricing_plan_id":"cebpf4jnsgd1na2vs0mg"},{"bike_id":"f8fc12fd-017f-4762-9135-8b3c5a08cdaf","system_id":"levelo_inurba_marseille","lat":43.31066,"lon":5.38355,"is_reserved":false,"is_disabled":false,"rental_uris":{"android":"levelo://app?vid=f8fc12fd-017f-4762-9135-8b3c5a08cdaf","ios":"levelo://app?vid=f8fc12fd-017f-4762-9135-8b3c5a08cdaf"},"vehicle_type_id":"4","last_reported":1744937447,"current_range_meters":15200,"station_id":"ce4bgv92rcd13ifvqcr0","pricing_plan_id":"cebpf4jnsgd1na2vs0mg"},{"bike_id":"a0ddb0a5-f7f0-4281-aa27-9e82747cc573","system_id":"levelo_inurba_marseille","lat":43.33754,"lon":5.37491,"is_reserved":false,"is_disabled":false,"rental_uris":{"android":"levelo://app?vid=a0ddb0a5-f7f0-4281-aa27-9e82747cc573","ios":"levelo://app?vid=a0ddb0a5-f7f0-4281-aa27-9e82747cc573"},"vehicle_type_id":"4","last_reported":1744937447,"current_range_meters":15200,"station_id":"","pricing_plan_id":"cebpf4jnsgd1na2vs0mg"},{"bike_id":"9fe6b68c-b08e-4d81-8c7d-760938ace4d6","system_id":"levelo_inurba_marseille","lat":43.29242,"lon":5.3607,"is_reserved":false,"is_disabled":false,"rental_uris":{"android":"levelo://app?vid=9fe6b68c-b08e-4d81-8c7d-760938ace4d6","ios":"levelo://app?vid=9fe6b68c-b08e-4d81-8c7d-760938ace4d6"},"vehicle_type_id":"4","last_reported":1744937447,"current_range_meters":16000,"station_id":"ce4bhbh2rcd13ifvqeqg","pricing_plan_id":"cebpf4jnsgd1na2vs0mg"},{"bike_id":"bd492354-2d79-4427-82ee-84e4a12dea30","system_id":"levelo_inurba_marseille","lat":43.21198,"lon":5.35093,"is_reserved":false,"is_disabled":false,"rental_uris":{"android":"levelo://app?vid=bd492354-2d79-4427-82ee-84e4a12dea30","ios":"levelo://app?vid=bd492354-2d79-4427-82ee-84e4a12dea30"},"vehicle_type_id":"4","last_reported":1744937447,"current_range_meters":16000,"station_id":"st_cvj6sg6p6f1abm77japg","pricing_plan_id":"cebpf4jnsgd1na2vs0mg"},{"bike_id":"f67c914a-531e-4ad5-b41c-cc8fccfce3a3","system_id":"levelo_inurba_marseille","lat":43.26061,"lon":5.39371,"is_reserved":false,"is_disabled":false,"rental_uris":{"android":"levelo://app?vid=f67c914a-531e-4ad5-b41c-cc8fccfce3a3","ios":"levelo://app?vid=f67c914a-531e-4ad5-b41c-cc8fccfce3a3"},"vehicle_type_id":"4","last_reported":1744937447,"current_range_meters":16000,"station_id":"ce4bhh92rcd13ifvqfj0","pricing_plan_id":"cebpf4jnsgd1na2vs0mg"},{"bike_id":"1f6bf825-3638-4ddb-b2d1-d906c9b90cb2","system_id":"levelo_inurba_marseille","lat":43.30417,"lon":5.39744,"is_reserved":false,"is_disabled":false,"rental_uris":{"android":"levelo://app?vid=1f6bf825-3638-4ddb-b2d1-d906c9b90cb2","ios":"levelo://app?vid=1f6bf825-3638-4ddb-b2d1-d906c9b90cb2"},"vehicle_type_id":"4","last_reported":1744937447,"current_range_meters":16000,"station_id":"ce4bh092rcd13ifvqd20","pricing_plan_id":"cebpf4jnsgd1na2vs0mg"},{"bike_id":"7ed91d22-3d5b-4254-83bf-64eb2a7d5481","system_id":"levelo_inurba_marseille","lat":43.22512,"lon":5.34785,"is_reserved":false,"is_disabled":false,"rental_uris":{"android":"levelo://app?vid=7ed91d22-3d5b-4254-83bf-64eb2a7d5481","ios":"levelo://app?vid=7ed91d22-3d5b-4254-83bf-64eb2a7d5481"},"vehicle_type_id":"4","last_reported":1744937447,"current_range_meters":16000,"station_id":"","pricing_plan_id":"cebpf4jnsgd1na2vs0mg"},{"bike_id":"5fd427a5-6d1b-4a63-94f7-bfeb5b5af034","system_id":"levelo_inurba_marseille","lat":43.28712,"lon":5.379402,"is_reserved":false,"is_disabled":false,"rental_uris":{"android":"levelo://app?vid=5fd427a5-6d1b-4a63-94f7-bfeb5b5af034","ios":"levelo://app?vid=5fd427a5-6d1b-4a63-94f7-bfeb5b5af034"},"vehicle_type_id":"4","last_reported":1744937447,"current_range_meters":16000,"station_id":"ce4bh9p2rcd13ifvqec0","pricing_plan_id":"cebpf4jnsgd1na2vs0mg"},{"bike_id":"f788a860-374b-4e57-9e75-ba93b9846e17","system_id":"levelo_inurba_marseille","lat":43.297197,"lon":5.36591,"is_reserved":false,"is_disabled":false,"rental_uris":{"android":"levelo://app?vid=f788a860-374b-4e57-9e75-ba93b9846e17","ios":"levelo://app?vid=f788a860-374b-4e57-9e75-ba93b9846e17"},"vehicle_type_id":"4","last_reported":1744937447,"current_range_meters":16000,"station_id":"ce4bgn12rcd13ifvqbt0","pricing_plan_id":"cebpf4jnsgd1na2vs0mg"},{"bike_id":"680048e0-c4ac-464e-a379-4a244a13a054","system_id":"levelo_inurba_marseille","lat":43.28697,"lon":5.39983,"is_reserved":false,"is_disabled":false,"rental_uris":{"android":"levelo://app?vid=680048e0-c4ac-464e-a379-4a244a13a054","ios":"levelo://app?vid=680048e0-c4ac-464e-a379-4a244a13a054"},"vehicle_type_id":"4","last_reported":1744937447,"current_range_meters":16000,"station_id":"ce4bho92rcd13ifvqh3g","pricing_plan_id":"cebpf4jnsgd1na2vs0mg"},{"bike_id":"0ffafc47-74ff-4ddc-86e8-6f4cf8df5cd2","system_id":"levelo_inurba_marseille","lat":43.22962,"lon":5.35307,"is_reserved":false,"is_disabled":false,"rental_uris":{"android":"levelo://app?vid=0ffafc47-74ff-4ddc-86e8-6f4cf8df5cd2","ios":"levelo://app?vid=0ffafc47-74ff-4ddc-86e8-6f4cf8df5cd2"},"vehicle_type_id":"4","last_reported":1744937447,"current_range_meters":16000,"station_id":"cpo3532slgdg3j2ikp40","pricing_plan_id":"cebpf4jnsgd1na2vs0mg"},{"bike_id":"076355f1-ba05-4b14-94f8-7678f1392346","system_id":"levelo_inurba_marseille","lat":43.28415,"lon":5.3499,"is_reserved":false,"is_disabled":false,"rental_uris":{"android":"levelo://app?vid=076355f1-ba05-4b14-94f8-7678f1392346","ios":"levelo://app?vid=076355f1-ba05-4b14-94f8-7678f1392346"},"vehicle_type_id":"4","last_reported":1744937447,"current_range_meters":16000,"station_id":"ce4bhbh2rcd13ifvqepg","pricing_plan_id":"cebpf4jnsgd1na2vs0mg"},{"bike_id":"135f0758-d03d-42f1-a2d6-49e93dc7a634","system_id":"levelo_inurba_marseille","lat":43.298439,"lon":5.362778,"is_reserved":false,"is_disabled":false,"rental_uris":{"android":"levelo://app?vid=135f0758-d03d-42f1-a2d6-49e93dc7a634","ios":"levelo://app?vid=135f0758-d03d-42f1-a2d6-49e93dc7a634"},"vehicle_type_id":"4","last_reported":1744937447,"current_range_meters":16000,"station_id":"ce4bgpp2rcd13ifvqc3g","pricing_plan_id":"cebpf4jnsgd1na2vs0mg"},{"bike_id":"e3b9c86b-9e49-41d1-83da-e803d37c2cf4","system_id":"levelo_inurba_marseille","lat":43.30136,"lon":5.38778,"is_reserved":false,"is_disabled":true,"rental_uris":{"android":"levelo://app?vid=e3b9c86b-9e49-41d1-83da-e803d37c2cf4","ios":"levelo://app?vid=e3b9c86b-9e49-41d1-83da-e803d37c2cf4"},"vehicle_type_id":"4","last_reported":1744937447,"current_range_meters":16400,"station_id":"ce4bghh2rcd13ifvqb60","pricing_plan_id":"cebpf4jnsgd1na2vs0mg"},{"bike_id":"2b895cd1-63f9-4659-bbff-adf8a75ae1db","system_id":"levelo_inurba_marseille","lat":43.25859,"lon":5.39905,"is_reserved":false,"is_disabled":false,"rental_uris":{"android":"levelo://app?vid=2b895cd1-63f9-4659-bbff-adf8a75ae1db","ios":"levelo://app?vid=2b895cd1-63f9-4659-bbff-adf8a75ae1db"},"vehicle_type_id":"4","last_reported":1744937447,"current_range_meters":16400,"station_id":"ce4bhl92rcd13ifvqghg","pricing_plan_id":"cebpf4jnsgd1na2vs0mg"},{"bike_id":"51f32d2c-1879-464c-acba-93c57bc66ab6","system_id":"levelo_inurba_marseille","lat":43.29036,"lon":5.35877,"is_reserved":false,"is_disabled":true,"rental_uris":{"android":"levelo://app?vid=51f32d2c-1879-464c-acba-93c57bc66ab6","ios":"levelo://app?vid=51f32d2c-1879-464c-acba-93c57bc66ab6"},"vehicle_type_id":"4","last_reported":1744937447,"current_range_meters":16400,"station_id":"ce4bha92rcd13ifvqeg0","pricing_plan_id":"cebpf4jnsgd1na2vs0mg"},{"bike_id":"4cdeb94d-6b8c-4d5b-a59f-49def5ff14db","system_id":"levelo_inurba_marseille","lat":43.27492,"lon":5.42466,"is_reserved":false,"is_disabled":false,"rental_uris":{"android":"levelo://app?vid=4cdeb94d-6b8c-4d5b-a59f-49def5ff14db","ios":"levelo://app?vid=4cdeb94d-6b8c-4d5b-a59f-49def5ff14db"},"vehicle_type_id":"4","last_reported":1744937447,"current_range_meters":16400,"station_id":"ce4bhn92rcd13ifvqgrg","pricing_plan_id":"cebpf4jnsgd1na2vs0mg"},{"bike_id":"e323efaa-773b-4812-915d-cd7c52228b35","system_id":"levelo_inurba_marseille","lat":43.30445,"lon":5.40199,"is_reserved":false,"is_disabled":false,"rental_uris":{"android":"levelo://app?vid=e323efaa-773b-4812-915d-cd7c52228b35","ios":"levelo://app?vid=e323efaa-773b-4812-915d-cd7c52228b35"},"vehicle_type_id":"4","last_reported":1744937447,"current_range_meters":16400,"station_id":"","pricing_plan_id":"cebpf4jnsgd1na2vs0mg"},{"bike_id":"934a8fc0-98f8-4aaf-a145-d485dee937c7","system_id":"levelo_inurba_marseille","lat":43.32346,"lon":5.36745,"is_reserved":false,"is_disabled":false,"rental_uris":{"android":"levelo://app?vid=934a8fc0-98f8-4aaf-a145-d485dee937c7","ios":"levelo://app?vid=934a8fc0-98f8-4aaf-a145-d485dee937c7"},"vehicle_type_id":"4","last_reported":1744937447,"current_range_meters":16400,"station_id":"ce4bhsh2rcd13ifvqi2g","pricing_plan_id":"cebpf4jnsgd1na2vs0mg"},{"bike_id":"8f05c592-8cc0-48b3-abca-ba24955823de","system_id":"levelo_inurba_marseille","lat":43.29916,"lon":5.40327,"is_reserved":false,"is_disabled":false,"rental_uris":{"android":"levelo://app?vid=8f05c592-8cc0-48b3-abca-ba24955823de","ios":"levelo://app?vid=8f05c592-8cc0-48b3-abca-ba24955823de"},"vehicle_type_id":"4","last_reported":1744937447,"current_range_meters":16400,"station_id":"","pricing_plan_id":"cebpf4jnsgd1na2vs0mg"},{"bike_id":"32f253b2-7256-44fb-b26e-4c3d91068786","system_id":"levelo_inurba_marseille","lat":43.29215,"lon":5.43954,"is_reserved":false,"is_disabled":false,"rental_uris":{"android":"levelo://app?vid=32f253b2-7256-44fb-b26e-4c3d91068786","ios":"levelo://app?vid=32f253b2-7256-44fb-b26e-4c3d91068786"},"vehicle_type_id":"4","last_reported":1744937447,"current_range_meters":16800,"station_id":"","pricing_plan_id":"cebpf4jnsgd1na2vs0mg"},{"bike_id":"049be1b6-8659-4f3c-88bc-6323e7c1fc19","system_id":"levelo_inurba_marseille","lat":43.246677,"lon":5.38157,"is_reserved":false,"is_disabled":false,"rental_uris":{"android":"levelo://app?vid=049be1b6-8659-4f3c-88bc-6323e7c1fc19","ios":"levelo://app?vid=049be1b6-8659-4f3c-88bc-6323e7c1fc19"},"vehicle_type_id":"4","last_reported":1744937447,"current_range_meters":16800,"station_id":"ce4bhih2rcd13ifvqfr0","pricing_plan_id":"cebpf4jnsgd1na2vs0mg"},{"bike_id":"00845e1e-292e-4db5-9c9b-86ee55be5fc2","system_id":"levelo_inurba_marseille","lat":43.28726,"lon":5.36082,"is_reserved":false,"is_disabled":false,"rental_uris":{"android":"levelo://app?vid=00845e1e-292e-4db5-9c9b-86ee55be5fc2","ios":"levelo://app?vid=00845e1e-292e-4db5-9c9b-86ee55be5fc2"},"vehicle_type_id":"4","last_reported":1744937447,"current_range_meters":16800,"station_id":"cki0cbj6b192h4jlfktg","pricing_plan_id":"cebpf4jnsgd1na2vs0mg"},{"bike_id":"d9417c87-c8fd-43cc-8c17-a2348b433e5a","system_id":"levelo_inurba_marseille","lat":43.30952,"lon":5.37174,"is_reserved":false,"is_disabled":false,"rental_uris":{"android":"levelo://app?vid=d9417c87-c8fd-43cc-8c17-a2348b433e5a","ios":"levelo://app?vid=d9417c87-c8fd-43cc-8c17-a2348b433e5a"},"vehicle_type_id":"4","last_reported":1744937447,"current_range_meters":16800,"station_id":"ce4bguh2rcd13ifvqckg","pricing_plan_id":"cebpf4jnsgd1na2vs0mg"},{"bike_id":"ef6e9c6f-8f69-4fcf-9727-b556a001e5bc","system_id":"levelo_inurba_marseille","lat":43.29551,"lon":5.4229,"is_reserved":false,"is_disabled":false,"rental_uris":{"android":"levelo://app?vid=ef6e9c6f-8f69-4fcf-9727-b556a001e5bc","ios":"levelo://app?vid=ef6e9c6f-8f69-4fcf-9727-b556a001e5bc"},"vehicle_type_id":"4","last_reported":1744937447,"current_range_meters":16800,"station_id":"ce4bhph2rcd13ifvqhdg","pricing_plan_id":"cebpf4jnsgd1na2vs0mg"},{"bike_id":"33efbe4e-e642-4271-be29-4926b421ca5b","system_id":"levelo_inurba_marseille","lat":43.241626,"lon":5.36396,"is_reserved":false,"is_disabled":false,"rental_uris":{"android":"levelo://app?vid=33efbe4e-e642-4271-be29-4926b421ca5b","ios":"levelo://app?vid=33efbe4e-e642-4271-be29-4926b421ca5b"},"vehicle_type_id":"4","last_reported":1744937447,"current_range_meters":16800,"station_id":"cpo36qri1sfpv3e86is0","pricing_plan_id":"cebpf4jnsgd1na2vs0mg"},{"bike_id":"7eb8853e-3665-40f5-8308-1299f0674652","system_id":"levelo_inurba_marseille","lat":43.30367,"lon":5.42469,"is_reserved":false,"is_disabled":false,"rental_uris":{"android":"levelo://app?vid=7eb8853e-3665-40f5-8308-1299f0674652","ios":"levelo://app?vid=7eb8853e-3665-40f5-8308-1299f0674652"},"vehicle_type_id":"4","last_reported":1744937447,"current_range_meters":16800,"station_id":"ce4bhoh2rcd13ifvqh6g","pricing_plan_id":"cebpf4jnsgd1na2vs0mg"},{"bike_id":"e4b35dc3-1b44-4be5-945c-f23bf47f80d2","system_id":"levelo_inurba_marseille","lat":43.2989,"lon":5.39743,"is_reserved":false,"is_disabled":false,"rental_uris":{"android":"levelo://app?vid=e4b35dc3-1b44-4be5-945c-f23bf47f80d2","ios":"levelo://app?vid=e4b35dc3-1b44-4be5-945c-f23bf47f80d2"},"vehicle_type_id":"4","last_reported":1744937447,"current_range_meters":16800,"station_id":"ce4bh0h2rcd13ifvqd50","pricing_plan_id":"cebpf4jnsgd1na2vs0mg"},{"bike_id":"d0c391d8-8b9b-440c-b68b-1528bb943556","system_id":"levelo_inurba_marseille","lat":43.28409,"lon":5.35004,"is_reserved":false,"is_disabled":false,"rental_uris":{"android":"levelo://app?vid=d0c391d8-8b9b-440c-b68b-1528bb943556","ios":"levelo://app?vid=d0c391d8-8b9b-440c-b68b-1528bb943556"},"vehicle_type_id":"4","last_reported":1744937447,"current_range_meters":17200,"station_id":"ce4bhbh2rcd13ifvqepg","pricing_plan_id":"cebpf4jnsgd1na2vs0mg"},{"bike_id":"b1ef82b0-7a77-4486-8ec7-83765358e14a","system_id":"levelo_inurba_marseille","lat":43.29013,"lon":5.38614,"is_reserved":false,"is_disabled":true,"rental_uris":{"android":"levelo://app?vid=b1ef82b0-7a77-4486-8ec7-83765358e14a","ios":"levelo://app?vid=b1ef82b0-7a77-4486-8ec7-83765358e14a"},"vehicle_type_id":"4","last_reported":1744937447,"current_range_meters":17200,"station_id":"ce4bh4p2rcd13ifvqe0g","pricing_plan_id":"cebpf4jnsgd1na2vs0mg"},{"bike_id":"68342d9f-f0b6-47e7-b690-b27078e67a77","system_id":"levelo_inurba_marseille","lat":43.241575,"lon":5.364065,"is_reserved":false,"is_disabled":false,"rental_uris":{"android":"levelo://app?vid=68342d9f-f0b6-47e7-b690-b27078e67a77","ios":"levelo://app?vid=68342d9f-f0b6-47e7-b690-b27078e67a77"},"vehicle_type_id":"4","last_reported":1744937447,"current_range_meters":17200,"station_id":"cpo36qri1sfpv3e86is0","pricing_plan_id":"cebpf4jnsgd1na2vs0mg"},{"bike_id":"ecf1b2ce-6838-4d42-ab1f-fc94cebd3b05","system_id":"levelo_inurba_marseille","lat":43.32367,"lon":5.38895,"is_reserved":false,"is_disabled":false,"rental_uris":{"android":"levelo://app?vid=ecf1b2ce-6838-4d42-ab1f-fc94cebd3b05","ios":"levelo://app?vid=ecf1b2ce-6838-4d42-ab1f-fc94cebd3b05"},"vehicle_type_id":"4","last_reported":1744937447,"current_range_meters":17200,"station_id":"ce4bhqp2rcd13ifvqhog","pricing_plan_id":"cebpf4jnsgd1na2vs0mg"},{"bike_id":"ae6f6bc3-b076-4713-869e-a7f6201bc7ea","system_id":"levelo_inurba_marseille","lat":43.24814,"lon":5.37453,"is_reserved":false,"is_disabled":false,"rental_uris":{"android":"levelo://app?vid=ae6f6bc3-b076-4713-869e-a7f6201bc7ea","ios":"levelo://app?vid=ae6f6bc3-b076-4713-869e-a7f6201bc7ea"},"vehicle_type_id":"4","last_reported":1744937447,"current_range_meters":17200,"station_id":"ce4bhgh2rcd13ifvqfb0","pricing_plan_id":"cebpf4jnsgd1na2vs0mg"},{"bike_id":"85ac49b9-718c-4937-ab2a-8e998e69b6ca","system_id":"levelo_inurba_marseille","lat":43.24386,"lon":5.37056,"is_reserved":false,"is_disabled":false,"rental_uris":{"android":"levelo://app?vid=85ac49b9-718c-4937-ab2a-8e998e69b6ca","ios":"levelo://app?vid=85ac49b9-718c-4937-ab2a-8e998e69b6ca"},"vehicle_type_id":"4","last_reported":1744937447,"current_range_meters":17200,"station_id":"ce4bhhh2rcd13ifvqfk0","pricing_plan_id":"cebpf4jnsgd1na2vs0mg"},{"bike_id":"f9d3fbe6-73e5-424e-af02-f446d5b07152","system_id":"levelo_inurba_marseille","lat":43.21738,"lon":5.34604,"is_reserved":false,"is_disabled":false,"rental_uris":{"android":"levelo://app?vid=f9d3fbe6-73e5-424e-af02-f446d5b07152","ios":"levelo://app?vid=f9d3fbe6-73e5-424e-af02-f446d5b07152"},"vehicle_type_id":"4","last_reported":1744937447,"current_range_meters":17200,"station_id":"st_cvj6r9ubvosntc0bgbag","pricing_plan_id":"cebpf4jnsgd1na2vs0mg"},{"bike_id":"ddb81e49-3ca3-408e-bb7e-97e32c56d0f7","system_id":"levelo_inurba_marseille","lat":43.279018,"lon":5.380048,"is_reserved":false,"is_disabled":false,"rental_uris":{"android":"levelo://app?vid=ddb81e49-3ca3-408e-bb7e-97e32c56d0f7","ios":"levelo://app?vid=ddb81e49-3ca3-408e-bb7e-97e32c56d0f7"},"vehicle_type_id":"4","last_reported":1744937447,"current_range_meters":17200,"station_id":"ce4bhf92rcd13ifvqf50","pricing_plan_id":"cebpf4jnsgd1na2vs0mg"},{"bike_id":"1fb144bd-dbb4-489a-89db-cb0239e2536a","system_id":"levelo_inurba_marseille","lat":43.27943,"lon":5.41036,"is_reserved":false,"is_disabled":false,"rental_uris":{"android":"levelo://app?vid=1fb144bd-dbb4-489a-89db-cb0239e2536a","ios":"levelo://app?vid=1fb144bd-dbb4-489a-89db-cb0239e2536a"},"vehicle_type_id":"4","last_reported":1744937447,"current_range_meters":17200,"station_id":"ce4bhnp2rcd13ifvqh0g","pricing_plan_id":"cebpf4jnsgd1na2vs0mg"},{"bike_id":"db092bab-860c-4e5b-840d-945206939097","system_id":"levelo_inurba_marseille","lat":43.26552,"lon":5.37301,"is_reserved":false,"is_disabled":false,"rental_uris":{"android":"levelo://app?vid=db092bab-860c-4e5b-840d-945206939097","ios":"levelo://app?vid=db092bab-860c-4e5b-840d-945206939097"},"vehicle_type_id":"4","last_reported":1744937447,"current_range_meters":17600,"station_id":"ce4bhg12rcd13ifvqf70","pricing_plan_id":"cebpf4jnsgd1na2vs0mg"},{"bike_id":"4b4180fc-6219-4c7b-8aef-e055424f8c01","system_id":"levelo_inurba_marseille","lat":43.2845,"lon":5.35889,"is_reserved":false,"is_disabled":false,"rental_uris":{"android":"levelo://app?vid=4b4180fc-6219-4c7b-8aef-e055424f8c01","ios":"levelo://app?vid=4b4180fc-6219-4c7b-8aef-e055424f8c01"},"vehicle_type_id":"4","last_reported":1744937447,"current_range_meters":17600,"station_id":"ce4bhah2rcd13ifvqei0","pricing_plan_id":"cebpf4jnsgd1na2vs0mg"},{"bike_id":"3efba3c6-091f-42f0-a6b1-6019d320c613","system_id":"levelo_inurba_marseille","lat":43.304154,"lon":5.397528,"is_reserved":false,"is_disabled":true,"rental_uris":{"android":"levelo://app?vid=3efba3c6-091f-42f0-a6b1-6019d320c613","ios":"levelo://app?vid=3efba3c6-091f-42f0-a6b1-6019d320c613"},"vehicle_type_id":"4","last_reported":1744937447,"current_range_meters":17600,"station_id":"ce4bh092rcd13ifvqd20","pricing_plan_id":"cebpf4jnsgd1na2vs0mg"},{"bike_id":"86145933-15c9-4b95-aa63-b53bce1dbf22","system_id":"levelo_inurba_marseille","lat":43.298913,"lon":5.397355,"is_reserved":false,"is_disabled":false,"rental_uris":{"android":"levelo://app?vid=86145933-15c9-4b95-aa63-b53bce1dbf22","ios":"levelo://app?vid=86145933-15c9-4b95-aa63-b53bce1dbf22"},"vehicle_type_id":"4","last_reported":1744937447,"current_range_meters":17600,"station_id":"ce4bh0h2rcd13ifvqd50","pricing_plan_id":"cebpf4jnsgd1na2vs0mg"},{"bike_id":"f11c1877-2531-4187-8a4e-82f9bf9c66d8","system_id":"levelo_inurba_marseille","lat":43.25006,"lon":5.38908,"is_reserved":false,"is_disabled":false,"rental_uris":{"android":"levelo://app?vid=f11c1877-2531-4187-8a4e-82f9bf9c66d8","ios":"levelo://app?vid=f11c1877-2531-4187-8a4e-82f9bf9c66d8"},"vehicle_type_id":"4","last_reported":1744937447,"current_range_meters":17600,"station_id":"ce4bhgp2rcd13ifvqfd0","pricing_plan_id":"cebpf4jnsgd1na2vs0mg"},{"bike_id":"789c3822-56ca-4769-bcd4-8845bdea2fda","system_id":"levelo_inurba_marseille","lat":43.24163,"lon":5.36393,"is_reserved":false,"is_disabled":false,"rental_uris":{"android":"levelo://app?vid=789c3822-56ca-4769-bcd4-8845bdea2fda","ios":"levelo://app?vid=789c3822-56ca-4769-bcd4-8845bdea2fda"},"vehicle_type_id":"4","last_reported":1744937447,"current_range_meters":17600,"station_id":"cpo36qri1sfpv3e86is0","pricing_plan_id":"cebpf4jnsgd1na2vs0mg"},{"bike_id":"5fba1097-d266-4f11-ba7e-0f0b630b3da9","system_id":"levelo_inurba_marseille","lat":43.307982,"lon":5.435188,"is_reserved":false,"is_disabled":false,"rental_uris":{"android":"levelo://app?vid=5fba1097-d266-4f11-ba7e-0f0b630b3da9","ios":"levelo://app?vid=5fba1097-d266-4f11-ba7e-0f0b630b3da9"},"vehicle_type_id":"4","last_reported":1744937447,"current_range_meters":17600,"station_id":"ce4bhph2rcd13ifvqheg","pricing_plan_id":"cebpf4jnsgd1na2vs0mg"},{"bike_id":"b90acf1e-92f2-45e3-a0be-5f20323ea3d1","system_id":"levelo_inurba_marseille","lat":43.23195,"lon":5.39966,"is_reserved":false,"is_disabled":false,"rental_uris":{"android":"levelo://app?vid=b90acf1e-92f2-45e3-a0be-5f20323ea3d1","ios":"levelo://app?vid=b90acf1e-92f2-45e3-a0be-5f20323ea3d1"},"vehicle_type_id":"4","last_reported":1744937447,"current_range_meters":17600,"station_id":"ce4bhn12rcd13ifvqgqg","pricing_plan_id":"cebpf4jnsgd1na2vs0mg"},{"bike_id":"be9e9722-9e77-4792-8ddc-03b11fd5e7f3","system_id":"levelo_inurba_marseille","lat":43.30925,"lon":5.40138,"is_reserved":false,"is_disabled":false,"rental_uris":{"android":"levelo://app?vid=be9e9722-9e77-4792-8ddc-03b11fd5e7f3","ios":"levelo://app?vid=be9e9722-9e77-4792-8ddc-03b11fd5e7f3"},"vehicle_type_id":"4","last_reported":1744937447,"current_range_meters":17600,"station_id":"ce4bgvp2rcd13ifvqct0","pricing_plan_id":"cebpf4jnsgd1na2vs0mg"},{"bike_id":"5e6be620-a3d0-49c3-9ff0-b85332cde817","system_id":"levelo_inurba_marseille","lat":43.23195,"lon":5.35545,"is_reserved":false,"is_disabled":false,"rental_uris":{"android":"levelo://app?vid=5e6be620-a3d0-49c3-9ff0-b85332cde817","ios":"levelo://app?vid=5e6be620-a3d0-49c3-9ff0-b85332cde817"},"vehicle_type_id":"4","last_reported":1744937447,"current_range_meters":17600,"station_id":"ce4bhu92rcd13ifvqi70","pricing_plan_id":"cebpf4jnsgd1na2vs0mg"},{"bike_id":"54c18ae4-fb9e-4f9c-8e98-a792665bc160","system_id":"levelo_inurba_marseille","lat":43.32096,"lon":5.36793,"is_reserved":false,"is_disabled":false,"rental_uris":{"android":"levelo://app?vid=54c18ae4-fb9e-4f9c-8e98-a792665bc160","ios":"levelo://app?vid=54c18ae4-fb9e-4f9c-8e98-a792665bc160"},"vehicle_type_id":"4","last_reported":1744937447,"current_range_meters":17600,"station_id":"ce4bhrh2rcd13ifvqhug","pricing_plan_id":"cebpf4jnsgd1na2vs0mg"},{"bike_id":"ecd9b5fe-4b17-4d30-a270-9ff21e0a9ad2","system_id":"levelo_inurba_marseille","lat":43.24163,"lon":5.36406,"is_reserved":false,"is_disabled":false,"rental_uris":{"android":"levelo://app?vid=ecd9b5fe-4b17-4d30-a270-9ff21e0a9ad2","ios":"levelo://app?vid=ecd9b5fe-4b17-4d30-a270-9ff21e0a9ad2"},"vehicle_type_id":"4","last_reported":1744937447,"current_range_meters":17600,"station_id":"cpo36qri1sfpv3e86is0","pricing_plan_id":"cebpf4jnsgd1na2vs0mg"},{"bike_id":"b2bd7081-d131-4051-86ff-d4f53479cdc0","system_id":"levelo_inurba_marseille","lat":43.31083,"lon":5.38345,"is_reserved":false,"is_disabled":false,"rental_uris":{"android":"levelo://app?vid=b2bd7081-d131-4051-86ff-d4f53479cdc0","ios":"levelo://app?vid=b2bd7081-d131-4051-86ff-d4f53479cdc0"},"vehicle_type_id":"4","last_reported":1744937447,"current_range_meters":18000,"station_id":"ce4bho92rcd13ifvqh3g","pricing_plan_id":"cebpf4jnsgd1na2vs0mg"},{"bike_id":"19481d9b-6a00-4a11-8cb7-677b61ea5d1e","system_id":"levelo_inurba_marseille","lat":43.28154,"lon":5.42639,"is_reserved":false,"is_disabled":false,"rental_uris":{"android":"levelo://app?vid=19481d9b-6a00-4a11-8cb7-677b61ea5d1e","ios":"levelo://app?vid=19481d9b-6a00-4a11-8cb7-677b61ea5d1e"},"vehicle_type_id":"4","last_reported":1744937447,"current_range_meters":18000,"station_id":"ce4bhnh2rcd13ifvqgug","pricing_plan_id":"cebpf4jnsgd1na2vs0mg"},{"bike_id":"07006dad-1eac-4c5b-8e9f-977d282a6f86","system_id":"levelo_inurba_marseille","lat":43.307342,"lon":5.42434,"is_reserved":false,"is_disabled":false,"rental_uris":{"android":"levelo://app?vid=07006dad-1eac-4c5b-8e9f-977d282a6f86","ios":"levelo://app?vid=07006dad-1eac-4c5b-8e9f-977d282a6f86"},"vehicle_type_id":"4","last_reported":1744937447,"current_range_meters":18000,"station_id":"st_cvj6ca6bvosntc0bfgr0","pricing_plan_id":"cebpf4jnsgd1na2vs0mg"},{"bike_id":"cf7c3680-f452-4084-8e92-20f914fb6ae3","system_id":"levelo_inurba_marseille","lat":43.23962,"lon":5.3663,"is_reserved":false,"is_disabled":false,"rental_uris":{"android":"levelo://app?vid=cf7c3680-f452-4084-8e92-20f914fb6ae3","ios":"levelo://app?vid=cf7c3680-f452-4084-8e92-20f914fb6ae3"},"vehicle_type_id":"4","last_reported":1744937447,"current_range_meters":18000,"station_id":"ce4bhi12rcd13ifvqfp0","pricing_plan_id":"cebpf4jnsgd1na2vs0mg"},{"bike_id":"6632b523-de87-4e05-b378-3e50446f70a6","system_id":"levelo_inurba_marseille","lat":43.28453,"lon":5.35913,"is_reserved":false,"is_disabled":false,"rental_uris":{"android":"levelo://app?vid=6632b523-de87-4e05-b378-3e50446f70a6","ios":"levelo://app?vid=6632b523-de87-4e05-b378-3e50446f70a6"},"vehicle_type_id":"4","last_reported":1744937447,"current_range_meters":18000,"station_id":"ce4bhah2rcd13ifvqei0","pricing_plan_id":"cebpf4jnsgd1na2vs0mg"},{"bike_id":"d0dc4d00-ee87-4e75-8b2e-787c2027c4a4","system_id":"levelo_inurba_marseille","lat":43.27952,"lon":5.41041,"is_reserved":false,"is_disabled":false,"rental_uris":{"android":"levelo://app?vid=d0dc4d00-ee87-4e75-8b2e-787c2027c4a4","ios":"levelo://app?vid=d0dc4d00-ee87-4e75-8b2e-787c2027c4a4"},"vehicle_type_id":"4","last_reported":1744937447,"current_range_meters":18000,"station_id":"ce4bhnp2rcd13ifvqh0g","pricing_plan_id":"cebpf4jnsgd1na2vs0mg"},{"bike_id":"8ceebc97-9c9d-492f-9325-378667f80c24","system_id":"levelo_inurba_marseille","lat":43.3089,"lon":5.39641,"is_reserved":false,"is_disabled":false,"rental_uris":{"android":"levelo://app?vid=8ceebc97-9c9d-492f-9325-378667f80c24","ios":"levelo://app?vid=8ceebc97-9c9d-492f-9325-378667f80c24"},"vehicle_type_id":"4","last_reported":1744937447,"current_range_meters":18000,"station_id":"ce4bh012rcd13ifvqcv0","pricing_plan_id":"cebpf4jnsgd1na2vs0mg"},{"bike_id":"10cfbb86-05a3-4eb1-80bd-ff55386c7d4b","system_id":"levelo_inurba_marseille","lat":43.31225,"lon":5.38625,"is_reserved":false,"is_disabled":false,"rental_uris":{"android":"levelo://app?vid=10cfbb86-05a3-4eb1-80bd-ff55386c7d4b","ios":"levelo://app?vid=10cfbb86-05a3-4eb1-80bd-ff55386c7d4b"},"vehicle_type_id":"4","last_reported":1744937447,"current_range_meters":18800,"station_id":"","pricing_plan_id":"cebpf4jnsgd1na2vs0mg"},{"bike_id":"d8ed359f-b119-41a5-a7c7-15f875d7a3f7","system_id":"levelo_inurba_marseille","lat":43.32345,"lon":5.40628,"is_reserved":false,"is_disabled":false,"rental_uris":{"android":"levelo://app?vid=d8ed359f-b119-41a5-a7c7-15f875d7a3f7","ios":"levelo://app?vid=d8ed359f-b119-41a5-a7c7-15f875d7a3f7"},"vehicle_type_id":"4","last_reported":1744937447,"current_range_meters":18800,"station_id":"ce4bhq92rcd13ifvqhjg","pricing_plan_id":"cebpf4jnsgd1na2vs0mg"},{"bike_id":"9e6be64f-f795-43d2-bb10-c23f47531980","system_id":"levelo_inurba_marseille","lat":43.24421,"lon":5.37104,"is_reserved":false,"is_disabled":false,"rental_uris":{"android":"levelo://app?vid=9e6be64f-f795-43d2-bb10-c23f47531980","ios":"levelo://app?vid=9e6be64f-f795-43d2-bb10-c23f47531980"},"vehicle_type_id":"4","last_reported":1744937447,"current_range_meters":18800,"station_id":"ce4bhhh2rcd13ifvqfk0","pricing_plan_id":"cebpf4jnsgd1na2vs0mg"},{"bike_id":"9f45b2bf-53d1-4e39-9a64-fb391bdbd395","system_id":"levelo_inurba_marseille","lat":43.33722,"lon":5.39187,"is_reserved":false,"is_disabled":false,"rental_uris":{"android":"levelo://app?vid=9f45b2bf-53d1-4e39-9a64-fb391bdbd395","ios":"levelo://app?vid=9f45b2bf-53d1-4e39-9a64-fb391bdbd395"},"vehicle_type_id":"4","last_reported":1744937447,"current_range_meters":18800,"station_id":"ce4bhr92rcd13ifvqhsg","pricing_plan_id":"cebpf4jnsgd1na2vs0mg"},{"bike_id":"06c69cbf-f6a8-4497-b97f-4ec81764e0ec","system_id":"levelo_inurba_marseille","lat":43.25581,"lon":5.38227,"is_reserved":false,"is_disabled":false,"rental_uris":{"android":"levelo://app?vid=06c69cbf-f6a8-4497-b97f-4ec81764e0ec","ios":"levelo://app?vid=06c69cbf-f6a8-4497-b97f-4ec81764e0ec"},"vehicle_type_id":"4","last_reported":1744937447,"current_range_meters":18800,"station_id":"ce4bhih2rcd13ifvqfs0","pricing_plan_id":"cebpf4jnsgd1na2vs0mg"},{"bike_id":"36b90cff-40d2-47e2-985b-e09410752cc5","system_id":"levelo_inurba_marseille","lat":43.29903,"lon":5.43647,"is_reserved":false,"is_disabled":false,"rental_uris":{"android":"levelo://app?vid=36b90cff-40d2-47e2-985b-e09410752cc5","ios":"levelo://app?vid=36b90cff-40d2-47e2-985b-e09410752cc5"},"vehicle_type_id":"4","last_reported":1744937447,"current_range_meters":19200,"station_id":"ce4bhpp2rcd13ifvqhfg","pricing_plan_id":"cebpf4jnsgd1na2vs0mg"},{"bike_id":"91aa591a-3e56-4092-a295-ecb6aebe69eb","system_id":"levelo_inurba_marseille","lat":43.225,"lon":5.34788,"is_reserved":false,"is_disabled":false,"rental_uris":{"android":"levelo://app?vid=91aa591a-3e56-4092-a295-ecb6aebe69eb","ios":"levelo://app?vid=91aa591a-3e56-4092-a295-ecb6aebe69eb"},"vehicle_type_id":"4","last_reported":1744937447,"current_range_meters":19200,"station_id":"st_cvj5dfep6f1abm77gieg","pricing_plan_id":"cebpf4jnsgd1na2vs0mg"},{"bike_id":"5db7c5ab-73d5-47e4-9713-3ef31de4325c","system_id":"levelo_inurba_marseille","lat":43.30802,"lon":5.37338,"is_reserved":false,"is_disabled":false,"rental_uris":{"android":"levelo://app?vid=5db7c5ab-73d5-47e4-9713-3ef31de4325c","ios":"levelo://app?vid=5db7c5ab-73d5-47e4-9713-3ef31de4325c"},"vehicle_type_id":"4","last_reported":1744937447,"current_range_meters":19200,"station_id":"","pricing_plan_id":"cebpf4jnsgd1na2vs0mg"},{"bike_id":"cfe9931d-56cb-4982-ab24-0e4a7ddfbc18","system_id":"levelo_inurba_marseille","lat":43.29569,"lon":5.39982,"is_reserved":false,"is_disabled":false,"rental_uris":{"android":"levelo://app?vid=cfe9931d-56cb-4982-ab24-0e4a7ddfbc18","ios":"levelo://app?vid=cfe9931d-56cb-4982-ab24-0e4a7ddfbc18"},"vehicle_type_id":"4","last_reported":1744937447,"current_range_meters":19200,"station_id":"ce4bh312rcd13ifvqdj0","pricing_plan_id":"cebpf4jnsgd1na2vs0mg"},{"bike_id":"4c05fc04-5a3e-4846-ae6c-06609c17f5be","system_id":"levelo_inurba_marseille","lat":43.262208,"lon":5.404654,"is_reserved":false,"is_disabled":false,"rental_uris":{"android":"levelo://app?vid=4c05fc04-5a3e-4846-ae6c-06609c17f5be","ios":"levelo://app?vid=4c05fc04-5a3e-4846-ae6c-06609c17f5be"},"vehicle_type_id":"4","last_reported":1744937447,"current_range_meters":19200,"station_id":"ce4bhmh2rcd13ifvqgmg","pricing_plan_id":"cebpf4jnsgd1na2vs0mg"},{"bike_id":"f1d513e7-93f2-472b-b840-4c42490aad95","system_id":"levelo_inurba_marseille","lat":43.24167,"lon":5.36385,"is_reserved":false,"is_disabled":false,"rental_uris":{"android":"levelo://app?vid=f1d513e7-93f2-472b-b840-4c42490aad95","ios":"levelo://app?vid=f1d513e7-93f2-472b-b840-4c42490aad95"},"vehicle_type_id":"4","last_reported":1744937447,"current_range_meters":19200,"station_id":"cpo36qri1sfpv3e86is0","pricing_plan_id":"cebpf4jnsgd1na2vs0mg"},{"bike_id":"879b9ba4-eb53-4d80-bff1-22ddb928d84b","system_id":"levelo_inurba_marseille","lat":43.310677,"lon":5.383507,"is_reserved":false,"is_disabled":false,"rental_uris":{"android":"levelo://app?vid=879b9ba4-eb53-4d80-bff1-22ddb928d84b","ios":"levelo://app?vid=879b9ba4-eb53-4d80-bff1-22ddb928d84b"},"vehicle_type_id":"4","last_reported":1744937447,"current_range_meters":19600,"station_id":"ce4bgv92rcd13ifvqcr0","pricing_plan_id":"cebpf4jnsgd1na2vs0mg"},{"bike_id":"044f6785-0e94-4d33-b79a-26d70dd9d306","system_id":"levelo_inurba_marseille","lat":43.258602,"lon":5.399115,"is_reserved":false,"is_disabled":true,"rental_uris":{"android":"levelo://app?vid=044f6785-0e94-4d33-b79a-26d70dd9d306","ios":"levelo://app?vid=044f6785-0e94-4d33-b79a-26d70dd9d306"},"vehicle_type_id":"4","last_reported":1744937447,"current_range_meters":19600,"station_id":"ce4bhl92rcd13ifvqghg","pricing_plan_id":"cebpf4jnsgd1na2vs0mg"},{"bike_id":"8c0a37b2-5aa9-4e6f-bd79-ed42efd2198c","system_id":"levelo_inurba_marseille","lat":43.29706,"lon":5.366,"is_reserved":false,"is_disabled":false,"rental_uris":{"android":"levelo://app?vid=8c0a37b2-5aa9-4e6f-bd79-ed42efd2198c","ios":"levelo://app?vid=8c0a37b2-5aa9-4e6f-bd79-ed42efd2198c"},"vehicle_type_id":"4","last_reported":1744937447,"current_range_meters":19600,"station_id":"ce4bgn12rcd13ifvqbt0","pricing_plan_id":"cebpf4jnsgd1na2vs0mg"},{"bike_id":"dcd6d42e-cf8f-462d-b624-3871b56a7776","system_id":"levelo_inurba_marseille","lat":43.303123,"lon":5.392052,"is_reserved":false,"is_disabled":false,"rental_uris":{"android":"levelo://app?vid=dcd6d42e-cf8f-462d-b624-3871b56a7776","ios":"levelo://app?vid=dcd6d42e-cf8f-462d-b624-3871b56a7776"},"vehicle_type_id":"4","last_reported":1744937447,"current_range_meters":19600,"station_id":"ce4bgkh2rcd13ifvqbk0","pricing_plan_id":"cebpf4jnsgd1na2vs0mg"},{"bike_id":"aea2afb6-112e-4c3a-968a-5eb5aa77e9be","system_id":"levelo_inurba_marseille","lat":43.21192,"lon":5.35075,"is_reserved":false,"is_disabled":false,"rental_uris":{"android":"levelo://app?vid=aea2afb6-112e-4c3a-968a-5eb5aa77e9be","ios":"levelo://app?vid=aea2afb6-112e-4c3a-968a-5eb5aa77e9be"},"vehicle_type_id":"4","last_reported":1744937447,"current_range_meters":19600,"station_id":"st_cvj6sg6p6f1abm77japg","pricing_plan_id":"cebpf4jnsgd1na2vs0mg"},{"bike_id":"82a001e1-327f-4a58-b355-bcf2e1a86bf6","system_id":"levelo_inurba_marseille","lat":43.30898,"lon":5.36707,"is_reserved":false,"is_disabled":false,"rental_uris":{"android":"levelo://app?vid=82a001e1-327f-4a58-b355-bcf2e1a86bf6","ios":"levelo://app?vid=82a001e1-327f-4a58-b355-bcf2e1a86bf6"},"vehicle_type_id":"4","last_reported":1744937447,"current_range_meters":19600,"station_id":"","pricing_plan_id":"cebpf4jnsgd1na2vs0mg"},{"bike_id":"5d80cf18-fe68-4090-8b13-e2d798e7e5c7","system_id":"levelo_inurba_marseille","lat":43.31353,"lon":5.3848,"is_reserved":false,"is_disabled":false,"rental_uris":{"android":"levelo://app?vid=5d80cf18-fe68-4090-8b13-e2d798e7e5c7","ios":"levelo://app?vid=5d80cf18-fe68-4090-8b13-e2d798e7e5c7"},"vehicle_type_id":"4","last_reported":1744937447,"current_range_meters":19600,"station_id":"ce4bgt92rcd13ifvqcf0","pricing_plan_id":"cebpf4jnsgd1na2vs0mg"},{"bike_id":"c6af8e20-0757-49a7-9e90-4ab9254669fc","system_id":"levelo_inurba_marseille","lat":43.257175,"lon":5.411185,"is_reserved":false,"is_disabled":false,"rental_uris":{"android":"levelo://app?vid=c6af8e20-0757-49a7-9e90-4ab9254669fc","ios":"levelo://app?vid=c6af8e20-0757-49a7-9e90-4ab9254669fc"},"vehicle_type_id":"4","last_reported":1744937447,"current_range_meters":19600,"station_id":"ce4bhi12rcd13ifvqfp0","pricing_plan_id":"cebpf4jnsgd1na2vs0mg"},{"bike_id":"9eb6738d-486c-4d0a-88f4-70b8d81983d1","system_id":"levelo_inurba_marseille","lat":43.21741,"lon":5.34573,"is_reserved":false,"is_disabled":false,"rental_uris":{"android":"levelo://app?vid=9eb6738d-486c-4d0a-88f4-70b8d81983d1","ios":"levelo://app?vid=9eb6738d-486c-4d0a-88f4-70b8d81983d1"},"vehicle_type_id":"4","last_reported":1744937447,"current_range_meters":19600,"station_id":"st_cvj6r9ubvosntc0bgbag","pricing_plan_id":"cebpf4jnsgd1na2vs0mg"},{"bike_id":"80bac1fe-218c-4068-937c-4aa733df023f","system_id":"levelo_inurba_marseille","lat":43.28649,"lon":5.37004,"is_reserved":false,"is_disabled":false,"rental_uris":{"android":"levelo://app?vid=80bac1fe-218c-4068-937c-4aa733df023f","ios":"levelo://app?vid=80bac1fe-218c-4068-937c-4aa733df023f"},"vehicle_type_id":"4","last_reported":1744937447,"current_range_meters":19600,"station_id":"","pricing_plan_id":"cebpf4jnsgd1na2vs0mg"},{"bike_id":"666c452f-bc61-4405-8374-62677582612f","system_id":"levelo_inurba_marseille","lat":43.258677,"lon":5.388894,"is_reserved":false,"is_disabled":false,"rental_uris":{"android":"levelo://app?vid=666c452f-bc61-4405-8374-62677582612f","ios":"levelo://app?vid=666c452f-bc61-4405-8374-62677582612f"},"vehicle_type_id":"4","last_reported":1744937447,"current_range_meters":20000,"station_id":"","pricing_plan_id":"cebpf4jnsgd1na2vs0mg"},{"bike_id":"d05b7cc4-f88b-4d02-ae6c-c344f22c0e5c","system_id":"levelo_inurba_marseille","lat":43.29782,"lon":5.36533,"is_reserved":false,"is_disabled":false,"rental_uris":{"android":"levelo://app?vid=d05b7cc4-f88b-4d02-ae6c-c344f22c0e5c","ios":"levelo://app?vid=d05b7cc4-f88b-4d02-ae6c-c344f22c0e5c"},"vehicle_type_id":"4","last_reported":1744937447,"current_range_meters":20400,"station_id":"","pricing_plan_id":"cebpf4jnsgd1na2vs0mg"},{"bike_id":"d157ca1f-3630-4bcf-b371-a82d919c64e9","system_id":"levelo_inurba_marseille","lat":43.29263,"lon":5.37626,"is_reserved":false,"is_disabled":false,"rental_uris":{"android":"levelo://app?vid=d157ca1f-3630-4bcf-b371-a82d919c64e9","ios":"levelo://app?vid=d157ca1f-3630-4bcf-b371-a82d919c64e9"},"vehicle_type_id":"4","last_reported":1744937447,"current_range_meters":20400,"station_id":"ce4bgi12rcd13ifvqb80","pricing_plan_id":"cebpf4jnsgd1na2vs0mg"},{"bike_id":"6211aec8-84e1-429a-9c5e-37e175564678","system_id":"levelo_inurba_marseille","lat":43.28279,"lon":5.35055,"is_reserved":false,"is_disabled":false,"rental_uris":{"android":"levelo://app?vid=6211aec8-84e1-429a-9c5e-37e175564678","ios":"levelo://app?vid=6211aec8-84e1-429a-9c5e-37e175564678"},"vehicle_type_id":"4","last_reported":1744937447,"current_range_meters":20400,"station_id":"ce4bhbp2rcd13ifvqerg","pricing_plan_id":"cebpf4jnsgd1na2vs0mg"},{"bike_id":"3bd36c81-7b6e-4b98-af81-cd557b5544b8","system_id":"levelo_inurba_marseille","lat":43.28712,"lon":5.39996,"is_reserved":false,"is_disabled":false,"rental_uris":{"android":"levelo://app?vid=3bd36c81-7b6e-4b98-af81-cd557b5544b8","ios":"levelo://app?vid=3bd36c81-7b6e-4b98-af81-cd557b5544b8"},"vehicle_type_id":"4","last_reported":1744937447,"current_range_meters":20400,"station_id":"ce4bho92rcd13ifvqh3g","pricing_plan_id":"cebpf4jnsgd1na2vs0mg"},{"bike_id":"17de6571-3c1c-4621-995b-d445cb9c6f14","system_id":"levelo_inurba_marseille","lat":43.211921,"lon":5.350745,"is_reserved":false,"is_disabled":false,"rental_uris":{"android":"levelo://app?vid=17de6571-3c1c-4621-995b-d445cb9c6f14","ios":"levelo://app?vid=17de6571-3c1c-4621-995b-d445cb9c6f14"},"vehicle_type_id":"4","last_reported":1744937447,"current_range_meters":20400,"station_id":"st_cvj6sg6p6f1abm77japg","pricing_plan_id":"cebpf4jnsgd1na2vs0mg"},{"bike_id":"ead9f013-8e5b-4b8f-85c4-4282ad4a7cae","system_id":"levelo_inurba_marseille","lat":43.24387,"lon":5.37048,"is_reserved":false,"is_disabled":false,"rental_uris":{"android":"levelo://app?vid=ead9f013-8e5b-4b8f-85c4-4282ad4a7cae","ios":"levelo://app?vid=ead9f013-8e5b-4b8f-85c4-4282ad4a7cae"},"vehicle_type_id":"4","last_reported":1744937447,"current_range_meters":20400,"station_id":"ce4bhhh2rcd13ifvqfk0","pricing_plan_id":"cebpf4jnsgd1na2vs0mg"},{"bike_id":"3f9a0c49-8158-4638-8e14-9618b70eab3f","system_id":"levelo_inurba_marseille","lat":43.31268,"lon":5.4017,"is_reserved":false,"is_disabled":false,"rental_uris":{"android":"levelo://app?vid=3f9a0c49-8158-4638-8e14-9618b70eab3f","ios":"levelo://app?vid=3f9a0c49-8158-4638-8e14-9618b70eab3f"},"vehicle_type_id":"4","last_reported":1744937447,"current_range_meters":20400,"station_id":"ce4bh092rcd13ifvqd30","pricing_plan_id":"cebpf4jnsgd1na2vs0mg"},{"bike_id":"53c4391a-d33d-4603-b682-dab099f3d035","system_id":"levelo_inurba_marseille","lat":43.3112,"lon":5.37761,"is_reserved":false,"is_disabled":false,"rental_uris":{"android":"levelo://app?vid=53c4391a-d33d-4603-b682-dab099f3d035","ios":"levelo://app?vid=53c4391a-d33d-4603-b682-dab099f3d035"},"vehicle_type_id":"4","last_reported":1744937447,"current_range_meters":20400,"station_id":"ce4bgt92rcd13ifvqcg0","pricing_plan_id":"cebpf4jnsgd1na2vs0mg"},{"bike_id":"db286569-c37d-4f44-9a16-ebfb7df0f0ce","system_id":"levelo_inurba_marseille","lat":43.29598,"lon":5.38084,"is_reserved":false,"is_disabled":false,"rental_uris":{"android":"levelo://app?vid=db286569-c37d-4f44-9a16-ebfb7df0f0ce","ios":"levelo://app?vid=db286569-c37d-4f44-9a16-ebfb7df0f0ce"},"vehicle_type_id":"4","last_reported":1744937447,"current_range_meters":20400,"station_id":"ce4bgl12rcd13ifvqbo0","pricing_plan_id":"cebpf4jnsgd1na2vs0mg"},{"bike_id":"f7aa9c71-a8bf-4e0f-a09a-b87dba5b97f4","system_id":"levelo_inurba_marseille","lat":43.27904,"lon":5.38012,"is_reserved":false,"is_disabled":false,"rental_uris":{"android":"levelo://app?vid=f7aa9c71-a8bf-4e0f-a09a-b87dba5b97f4","ios":"levelo://app?vid=f7aa9c71-a8bf-4e0f-a09a-b87dba5b97f4"},"vehicle_type_id":"4","last_reported":1744937447,"current_range_meters":20800,"station_id":"ce4bhf92rcd13ifvqf50","pricing_plan_id":"cebpf4jnsgd1na2vs0mg"},{"bike_id":"056beed3-732b-4c15-871c-8c4749c0b234","system_id":"levelo_inurba_marseille","lat":43.26566,"lon":5.39005,"is_reserved":false,"is_disabled":false,"rental_uris":{"android":"levelo://app?vid=056beed3-732b-4c15-871c-8c4749c0b234","ios":"levelo://app?vid=056beed3-732b-4c15-871c-8c4749c0b234"},"vehicle_type_id":"4","last_reported":1744937447,"current_range_meters":20800,"station_id":"ce4bhe12rcd13ifvqf30","pricing_plan_id":"cebpf4jnsgd1na2vs0mg"},{"bike_id":"01f937ff-3ede-4dd5-8c40-e7899ba0cfc5","system_id":"levelo_inurba_marseille","lat":43.34137,"lon":5.40902,"is_reserved":false,"is_disabled":false,"rental_uris":{"android":"levelo://app?vid=01f937ff-3ede-4dd5-8c40-e7899ba0cfc5","ios":"levelo://app?vid=01f937ff-3ede-4dd5-8c40-e7899ba0cfc5"},"vehicle_type_id":"4","last_reported":1744937447,"current_range_meters":22400,"station_id":"ce4bhqh2rcd13ifvqhlg","pricing_plan_id":"cebpf4jnsgd1na2vs0mg"},{"bike_id":"23f34c93-3c23-4198-9804-58821c48b076","system_id":"levelo_inurba_marseille","lat":43.30889,"lon":5.3964,"is_reserved":false,"is_disabled":false,"rental_uris":{"android":"levelo://app?vid=23f34c93-3c23-4198-9804-58821c48b076","ios":"levelo://app?vid=23f34c93-3c23-4198-9804-58821c48b076"},"vehicle_type_id":"4","last_reported":1744937447,"current_range_meters":20800,"station_id":"ce4bh012rcd13ifvqcv0","pricing_plan_id":"cebpf4jnsgd1na2vs0mg"},{"bike_id":"eb0220de-5641-4549-8ce6-f907772fde4d","system_id":"levelo_inurba_marseille","lat":43.26549,"lon":5.37322,"is_reserved":false,"is_disabled":true,"rental_uris":{"android":"levelo://app?vid=eb0220de-5641-4549-8ce6-f907772fde4d","ios":"levelo://app?vid=eb0220de-5641-4549-8ce6-f907772fde4d"},"vehicle_type_id":"4","last_reported":1744937447,"current_range_meters":21600,"station_id":"ce4bhg12rcd13ifvqf70","pricing_plan_id":"cebpf4jnsgd1na2vs0mg"},{"bike_id":"e2fb8f13-893e-42f2-bc76-7e47ec81fcbb","system_id":"levelo_inurba_marseille","lat":43.24178,"lon":5.39727,"is_reserved":false,"is_disabled":false,"rental_uris":{"android":"levelo://app?vid=e2fb8f13-893e-42f2-bc76-7e47ec81fcbb","ios":"levelo://app?vid=e2fb8f13-893e-42f2-bc76-7e47ec81fcbb"},"vehicle_type_id":"4","last_reported":1744937447,"current_range_meters":21600,"station_id":"ce4bhn12rcd13ifvqgpg","pricing_plan_id":"cebpf4jnsgd1na2vs0mg"},{"bike_id":"ed2bf1b7-dfe0-4af6-810a-6554c76886fe","system_id":"levelo_inurba_marseille","lat":43.28416,"lon":5.37508,"is_reserved":false,"is_disabled":false,"rental_uris":{"android":"levelo://app?vid=ed2bf1b7-dfe0-4af6-810a-6554c76886fe","ios":"levelo://app?vid=ed2bf1b7-dfe0-4af6-810a-6554c76886fe"},"vehicle_type_id":"4","last_reported":1744937447,"current_range_meters":21600,"station_id":"ce4bh412rcd13ifvqds0","pricing_plan_id":"cebpf4jnsgd1na2vs0mg"},{"bike_id":"59fb67f4-6c3a-4e9e-8d45-b45109a059e2","system_id":"levelo_inurba_marseille","lat":43.30942,"lon":5.40145,"is_reserved":false,"is_disabled":false,"rental_uris":{"android":"levelo://app?vid=59fb67f4-6c3a-4e9e-8d45-b45109a059e2","ios":"levelo://app?vid=59fb67f4-6c3a-4e9e-8d45-b45109a059e2"},