{"last_updated":1704208046,"ttl":30,"version":"2.2","data":{"bikes":[{"bike_id":"be2bef07-e5f5-4da7-aa6d-bbf75c5cfae8","system_id":"levelo_inurba_marseille","lat":43.313505,"lon":5.367205,"is_reserved":false,"is_disabled":false,"rental_uris":{"android":"levelo://app?vid=be2bef07-e5f5-4da7-aa6d-bbf75c5cfae8","ios":"levelo://app?vid=be2bef07-e5f5-4da7-aa6d-bbf75c5cfae8"},"vehicle_type_id":"4","last_reported":1704208046,"current_range_meters":26000,"station_id":"ce4bgr92rcd13ifvqc6g","pricing_plan_id":"free"},{"bike_id":"2732dea8-6485-45ff-9bb5-f8f4b244a1a2","system_id":"levelo_inurba_marseille","lat":43.31341,"lon":5.367098,"is_reserved":false,"is_disabled":false,"rental_uris":{"android":"levelo://app?vid=2732dea8-6485-45ff-9bb5-f8f4b244a1a2","ios":"levelo://app?vid=2732dea8-6485-45ff-9bb5-f8f4b244a1a2"},"vehicle_type_id":"4","last_reported":1704208046,"current_range_meters":14000,"station_id":"ce4bgr92rcd13ifvqc6g","pricing_plan_id":"free"},{"bike_id":"50ffb39d-c405-4192-ba10-8fe04060eef3","system_id":"levelo_inurba_marseille","lat":43.31341,"lon":5.367098,"is_reserved":false,"is_disabled":false,"rental_uris":{"android":"levelo://app?vid=50ffb39d-c405-4192-ba10-8fe04060eef3","ios":"levelo://app?vid=50ffb39d-c405-4192-ba10-8fe04060eef3"},"vehicle_type_id":"4","last_reported":1704208046,"current_range_meters":32000,"station_id":"ce4bgr92rcd13ifvqc6g","pricing_plan_id":"free"},{"bike_id":"4ca3c03b-77c4-4cab-a5ac-9bdadef7281d","system_id":"levelo_inurba_marseille","lat":43.31341,"lon":5.367098,"is_reserved":false,"is_disabled":false,"rental_uris":{"android":"levelo://app?vid=4ca3c03b-77c4-4cab-a5ac-9bdadef7281d","ios":"levelo://app?vid=4ca3c03b-77c4-4cab-a5ac-9bdadef7281d"},"vehicle_type_id":"4","last_reported":1704208046,"current_range_meters":12800,"station_id":"ce4bgr92rcd13ifvqc6g","pricing_plan_id":"free"},{"bike_id":"35565607-172d-4dea-a0a2-86b98321545b","system_id":"levelo_inurba_marseille","lat":43.312239,"lon":5.368562,"is_reserved":false,"is_disabled":false,"rental_uris":{"android":"levelo://app?vid=35565607-172d-4dea-a0a2-86b98321545b","ios":"levelo://app?vid=35565607-172d-4dea-a0a2-86b98321545b"},"vehicle_type_id":"4","last_reported":1704208046,"current_range_meters":18400,"station_id":"ce4bgl92rcd13ifvqbq0","pricing_plan_id":"free"},{"bike_id":"ab65979a-b67f-4fcc-9ce8-e9b5f3c8c97e","system_id":"levelo_inurba_marseille","lat":43.312239,"lon":5.368562,"is_reserved":false,"is_disabled":false,"rental_uris":{"android":"levelo://app?vid=ab65979a-b67f-4fcc-9ce8-e9b5f3c8c97e","ios":"levelo://app?vid=ab65979a-b67f-4fcc-9ce8-e9b5f3c8c97e"},"vehicle_type_id":"4","last_reported":1704208046,"current_range_meters":32000,"station_id":"ce4bgl92rcd13ifvqbq0","pricing_plan_id":"free"},{"bike_id":"6e8160c9-a3e9-405d-970b-f9a8ed2693f1","system_id":"levelo_inurba_marseille","lat":43.31219,"lon":5.368587,"is_reserved":false,"is_disabled":false,"rental_uris":{"android":"levelo://app?vid=6e8160c9-a3e9-405d-970b-f9a8ed2693f1","ios":"levelo://app?vid=6e8160c9-a3e9-405d-970b-f9a8ed2693f1"},"vehicle_type_id":"4","last_reported":1704208046,"current_range_meters":19200,"station_id":"","pricing_plan_id":"free"},{"bike_id":"e966bc4f-41e1-4b70-8969-bfe669428563","system_id":"levelo_inurba_marseille","lat":43.312239,"lon":5.368562,"is_reserved":false,"is_disabled":false,"rental_uris":{"android":"levelo://app?vid=e966bc4f-41e1-4b70-8969-bfe669428563","ios":"levelo://app?vid=e966bc4f-41e1-4b70-8969-bfe669428563"},"vehicle_type_id":"4","last_reported":1704208046,"current_range_meters":18400,"station_id":"ce4bgl92rcd13ifvqbq0","pricing_plan_id":"free"},{"bike_id":"cdadc7f0-1516-4f7d-b892-5513f1ce26fd","system_id":"levelo_inurba_marseille","lat":43.312239,"lon":5.368562,"is_reserved":false,"is_disabled":false,"rental_uris":{"android":"levelo://app?vid=cdadc7f0-1516-4f7d-b892-5513f1ce26fd","ios":"levelo://app?vid=cdadc7f0-1516-4f7d-b892-5513f1ce26fd"},"vehicle_type_id":"4","last_reported":1704208046,"current_range_meters":26000,"station_id":"ce4bgl92rcd13ifvqbq0","pricing_plan_id":"free"},{"bike_id":"de148717-95f8-4dbe-96be-5dd135e16fa8","system_id":"levelo_inurba_marseille","lat":43.309076,"lon":5.368465,"is_reserved":false,"is_disabled":false,"rental_uris":{"android":"levelo://app?vid=de148717-95f8-4dbe-96be-5dd135e16fa8","ios":"levelo://app?vid=de148717-95f8-4dbe-96be-5dd135e16fa8"},"vehicle_type_id":"4","last_reported":1704208046,"current_range_meters":28800,"station_id":"ce4bgn92rcd13ifvqbvg","pricing_plan_id":"free"},{"bike_id":"f2ae8644-daa5-4d5b-ad82-0538b9ed9103","system_id":"levelo_inurba_marseille","lat":43.309045,"lon":5.368625,"is_reserved":false,"is_disabled":false,"rental_uris":{"android":"levelo://app?vid=f2ae8644-daa5-4d5b-ad82-0538b9ed9103","ios":"levelo://app?vid=f2ae8644-daa5-4d5b-ad82-0538b9ed9103"},"vehicle_type_id":"4","last_reported":1704208046,"current_range_meters":31600,"station_id":"ce4bgn92rcd13ifvqbvg","pricing_plan_id":"free"},{"bike_id":"7382b5da-0d10-40ed-aa01-bea75a98967a","system_id":"levelo_inurba_marseille","lat":43.309039,"lon":5.371797,"is_reserved":false,"is_disabled":false,"rental_uris":{"android":"levelo://app?vid=7382b5da-0d10-40ed-aa01-bea75a98967a","ios":"levelo://app?vid=7382b5da-0d10-40ed-aa01-bea75a98967a"},"vehicle_type_id":"4","last_reported":1704208046,"current_range_meters":28800,"station_id":"ce4bguh2rcd13ifvqckg","pricing_plan_id":"free"},{"bike_id":"c9ede421-c4d2-4e58-9aba-6a2bc59f30e3","system_id":"levelo_inurba_marseille","lat":43.309039,"lon":5.371797,"is_reserved":false,"is_disabled":false,"rental_uris":{"android":"levelo://app?vid=c9ede421-c4d2-4e58-9aba-6a2bc59f30e3","ios":"levelo://app?vid=c9ede421-c4d2-4e58-9aba-6a2bc59f30e3"},"vehicle_type_id":"4","last_reported":1704208046,"current_range_meters":24000,"station_id":"ce4bguh2rcd13ifvqckg","pricing_plan_id":"free"},{"bike_id":"fd335f6a-d87a-4625-8af4-cd6eac3360f3","system_id":"levelo_inurba_marseille","lat":43.309039,"lon":5.371797,"is_reserved":false,"is_disabled":false,"rental_uris":{"android":"levelo://app?vid=fd335f6a-d87a-4625-8af4-cd6eac3360f3","ios":"levelo://app?vid=fd335f6a-d87a-4625-8af4-cd6eac3360f3"},"vehicle_type_id":"4","last_reported":1704208046,"current_range_meters":22400,"station_id":"ce4bguh2rcd13ifvqckg","pricing_plan_id":"free"},{"bike_id":"01a815ad-bef9-4183-b398-27314af7a673","system_id":"levelo_inurba_marseille","lat":43.305368,"lon":5.367343,"is_reserved":false,"is_disabled":false,"rental_uris":{"android":"levelo://app?vid=01a815ad-bef9-4183-b398-27314af7a673","ios":"levelo://app?vid=01a815ad-bef9-4183-b398-27314af7a673"},"vehicle_type_id":"4","last_reported":1704208046,"current_range_meters":27200,"station_id":"ce4bgrp2rcd13ifvqc9g","pricing_plan_id":"free"},{"bike_id":"4ee27fea-d3d6-46a7-8ff3-703e3115c654","system_id":"levelo_inurba_marseille","lat":43.305368,"lon":5.367343,"is_reserved":false,"is_disabled":false,"rental_uris":{"android":"levelo://app?vid=4ee27fea-d3d6-46a7-8ff3-703e3115c654","ios":"levelo://app?vid=4ee27fea-d3d6-46a7-8ff3-703e3115c654"},"vehicle_type_id":"4","last_reported":1704208046,"current_range_meters":24000,"station_id":"ce4bgrp2rcd13ifvqc9g","pricing_plan_id":"free"},{"bike_id":"d423e74d-e063-41b7-a2a0-c9c50a10abfa","system_id":"levelo_inurba_marseille","lat":43.305368,"lon":5.367343,"is_reserved":false,"is_disabled":false,"rental_uris":{"android":"levelo://app?vid=d423e74d-e063-41b7-a2a0-c9c50a10abfa","ios":"levelo://app?vid=d423e74d-e063-41b7-a2a0-c9c50a10abfa"},"vehicle_type_id":"4","last_reported":1704208046,"current_range_meters":27600,"station_id":"ce4bgrp2rcd13ifvqc9g","pricing_plan_id":"free"},{"bike_id":"b4bc4763-766b-4e29-b2b4-9f35a05de3c2","system_id":"levelo_inurba_marseille","lat":43.305368,"lon":5.367343,"is_reserved":false,"is_disabled":false,"rental_uris":{"android":"levelo://app?vid=b4bc4763-766b-4e29-b2b4-9f35a05de3c2","ios":"levelo://app?vid=b4bc4763-766b-4e29-b2b4-9f35a05de3c2"},"vehicle_type_id":"4","last_reported":1704208046,"current_range_meters":20400,"station_id":"ce4bgrp2rcd13ifvqc9g","pricing_plan_id":"free"},{"bike_id":"9365ead4-2654-4c17-9775-a29b9e22e4a0","system_id":"levelo_inurba_marseille","lat":43.305368,"lon":5.367343,"is_reserved":false,"is_disabled":false,"rental_uris":{"android":"levelo://app?vid=9365ead4-2654-4c17-9775-a29b9e22e4a0","ios":"levelo://app?vid=9365ead4-2654-4c17-9775-a29b9e22e4a0"},"vehicle_type_id":"4","last_reported":1704208046,"current_range_meters":26400,"station_id":"ce4bgrp2rcd13ifvqc9g","pricing_plan_id":"free"},{"bike_id":"02bdf85f-9059-4e46-8d68-827eb201a907","system_id":"levelo_inurba_marseille","lat":43.305706,"lon":5.365654,"is_reserved":false,"is_disabled":false,"rental_uris":{"android":"levelo://app?vid=02bdf85f-9059-4e46-8d68-827eb201a907","ios":"levelo://app?vid=02bdf85f-9059-4e46-8d68-827eb201a907"},"vehicle_type_id":"4","last_reported":1704208046,"current_range_meters":24800,"station_id":"ce4bgs12rcd13ifvqcag","pricing_plan_id":"free"},{"bike_id":"c380e3d7-0e28-46ba-9e58-8a3ec14cfaa1","system_id":"levelo_inurba_marseille","lat":43.305706,"lon":5.365654,"is_reserved":false,"is_disabled":false,"rental_uris":{"android":"levelo://app?vid=c380e3d7-0e28-46ba-9e58-8a3ec14cfaa1","ios":"levelo://app?vid=c380e3d7-0e28-46ba-9e58-8a3ec14cfaa1"},"vehicle_type_id":"4","last_reported":1704208046,"current_range_meters":30000,"station_id":"ce4bgs12rcd13ifvqcag","pricing_plan_id":"free"},{"bike_id":"26e17563-4b80-419d-9e7d-ca16490e0a2e","system_id":"levelo_inurba_marseille","lat":43.305307,"lon":5.366995,"is_reserved":false,"is_disabled":false,"rental_uris":{"android":"levelo://app?vid=26e17563-4b80-419d-9e7d-ca16490e0a2e","ios":"levelo://app?vid=26e17563-4b80-419d-9e7d-ca16490e0a2e"},"vehicle_type_id":"4","last_reported":1704208046,"current_range_meters":15600,"station_id":"","pricing_plan_id":"free"},{"bike_id":"c4c87d16-1ff9-483a-ac48-f15332517507","system_id":"levelo_inurba_marseille","lat":43.305706,"lon":5.365654,"is_reserved":false,"is_disabled":false,"rental_uris":{"android":"levelo://app?vid=c4c87d16-1ff9-483a-ac48-f15332517507","ios":"levelo://app?vid=c4c87d16-1ff9-483a-ac48-f15332517507"},"vehicle_type_id":"4","last_reported":1704208046,"current_range_meters":27600,"station_id":"ce4bgs12rcd13ifvqcag","pricing_plan_id":"free"},{"bike_id":"25382dfb-df7f-4309-a44b-9d96cec9518e","system_id":"levelo_inurba_marseille","lat":43.305706,"lon":5.365654,"is_reserved":false,"is_disabled":false,"rental_uris":{"android":"levelo://app?vid=25382dfb-df7f-4309-a44b-9d96cec9518e","ios":"levelo://app?vid=25382dfb-df7f-4309-a44b-9d96cec9518e"},"vehicle_type_id":"4","last_reported":1704208046,"current_range_meters":20000,"station_id":"ce4bgs12rcd13ifvqcag","pricing_plan_id":"free"},{"bike_id":"d5e76b06-c978-42e3-8007-74d419b2457f","system_id":"levelo_inurba_marseille","lat":43.305714,"lon":5.365633,"is_reserved":false,"is_disabled":false,"rental_uris":{"android":"levelo://app?vid=d5e76b06-c978-42e3-8007-74d419b2457f","ios":"levelo://app?vid=d5e76b06-c978-42e3-8007-74d419b2457f"},"vehicle_type_id":"4","last_reported":1704208046,"current_range_meters":25600,"station_id":"ce4bgs12rcd13ifvqcag","pricing_plan_id":"free"},{"bike_id":"edd189bd-e63f-4880-b785-c1463635efa6","system_id":"levelo_inurba_marseille","lat":43.305706,"lon":5.365654,"is_reserved":false,"is_disabled":false,"rental_uris":{"android":"levelo://app?vid=edd189bd-e63f-4880-b785-c1463635efa6","ios":"levelo://app?vid=edd189bd-e63f-4880-b785-c1463635efa6"},"vehicle_type_id":"4","last_reported":1704208046,"current_range_meters":25200,"station_id":"ce4bgs12rcd13ifvqcag","pricing_plan_id":"free"},{"bike_id":"b30c0912-cae2-483b-a693-19578ecaab16","system_id":"levelo_inurba_marseille","lat":43.305706,"lon":5.365654,"is_reserved":false,"is_disabled":false,"rental_uris":{"android":"levelo://app?vid=b30c0912-cae2-483b-a693-19578ecaab16","ios":"levelo://app?vid=b30c0912-cae2-483b-a693-19578ecaab16"},"vehicle_type_id":"4","last_reported":1704208046,"current_range_meters":1200,"station_id":"ce4bgs12rcd13ifvqcag","pricing_plan_id":"free"},{"bike_id":"ac25c690-f8be-438c-a426-5ca9bd06b85e","system_id":"levelo_inurba_marseille","lat":43.305706,"lon":5.365654,"is_reserved":false,"is_disabled":false,"rental_uris":{"android":"levelo://app?vid=ac25c690-f8be-438c-a426-5ca9bd06b85e","ios":"levelo://app?vid=ac25c690-f8be-438c-a426-5ca9bd06b85e"},"vehicle_type_id":"4","last_reported":1704208046,"current_range_meters":30400,"station_id":"ce4bgs12rcd13ifvqcag","pricing_plan_id":"free"},{"bike_id":"66606ac8-e12d-4a05-b5a5-b1f3b85138d5","system_id":"levelo_inurba_marseille","lat":43.305706,"lon":5.365654,"is_reserved":false,"is_disabled":false,"rental_uris":{"android":"levelo://app?vid=66606ac8-e12d-4a05-b5a5-b1f3b85138d5","ios":"levelo://app?vid=66606ac8-e12d-4a05-b5a5-b1f3b85138d5"},"vehicle_type_id":"4","last_reported":1704208046,"current_range_meters":30000,"station_id":"ce4bgs12rcd13ifvqcag","pricing_plan_id":"free"},{"bike_id":"2bc5ab94-3834-40b7-bad5-e65f766c86dc","system_id":"levelo_inurba_marseille","lat":43.311131,"lon":5.377651,"is_reserved":false,"is_disabled":false,"rental_uris":{"android":"levelo://app?vid=2bc5ab94-3834-40b7-bad5-e65f766c86dc","ios":"levelo://app?vid=2bc5ab94-3834-40b7-bad5-e65f766c86dc"},"vehicle_type_id":"4","last_reported":1704208046,"current_range_meters":16800,"station_id":"ce4bgt92rcd13ifvqcg0","pricing_plan_id":"free"},{"bike_id":"25af9e1c-886c-4f64-92f2-5ca68e46ae4a","system_id":"levelo_inurba_marseille","lat":43.31722,"lon":5.37668,"is_reserved":false,"is_disabled":false,"rental_uris":{"android":"levelo://app?vid=25af9e1c-886c-4f64-92f2-5ca68e46ae4a","ios":"levelo://app?vid=25af9e1c-886c-4f64-92f2-5ca68e46ae4a"},"vehicle_type_id":"4","last_reported":1704208046,"current_range_meters":14000,"station_id":"","pricing_plan_id":"free"},{"bike_id":"b7ff084e-c3f5-4ef2-a806-7f1e557d33c4","system_id":"levelo_inurba_marseille","lat":43.303046,"lon":5.368981,"is_reserved":false,"is_disabled":false,"rental_uris":{"android":"levelo://app?vid=b7ff084e-c3f5-4ef2-a806-7f1e557d33c4","ios":"levelo://app?vid=b7ff084e-c3f5-4ef2-a806-7f1e557d33c4"},"vehicle_type_id":"4","last_reported":1704208046,"current_range_meters":28400,"station_id":"ce4bgqh2rcd13ifvqc5g","pricing_plan_id":"free"},{"bike_id":"c7b84929-b4e6-451e-81d4-26c2964e0c40","system_id":"levelo_inurba_marseille","lat":43.31001,"lon":5.38172,"is_reserved":false,"is_disabled":false,"rental_uris":{"android":"levelo://app?vid=c7b84929-b4e6-451e-81d4-26c2964e0c40","ios":"levelo://app?vid=c7b84929-b4e6-451e-81d4-26c2964e0c40"},"vehicle_type_id":"4","last_reported":1704208046,"current_range_meters":28000,"station_id":"","pricing_plan_id":"free"},{"bike_id":"66705700-5432-42e3-8baf-8fa2adb21ae7","system_id":"levelo_inurba_marseille","lat":43.304606,"lon":5.379026,"is_reserved":false,"is_disabled":false,"rental_uris":{"android":"levelo://app?vid=66705700-5432-42e3-8baf-8fa2adb21ae7","ios":"levelo://app?vid=66705700-5432-42e3-8baf-8fa2adb21ae7"},"vehicle_type_id":"4","last_reported":1704208046,"current_range_meters":27600,"station_id":"ce4bgup2rcd13ifvqcn0","pricing_plan_id":"free"},{"bike_id":"5377074b-30e2-4d67-825b-9deb3b1dbed3","system_id":"levelo_inurba_marseille","lat":43.304708,"lon":5.379039,"is_reserved":false,"is_disabled":false,"rental_uris":{"android":"levelo://app?vid=5377074b-30e2-4d67-825b-9deb3b1dbed3","ios":"levelo://app?vid=5377074b-30e2-4d67-825b-9deb3b1dbed3"},"vehicle_type_id":"4","last_reported":1704208046,"current_range_meters":10800,"station_id":"","pricing_plan_id":"free"},{"bike_id":"c92d47b1-5eb1-4b43-8fbe-9245908a3bdc","system_id":"levelo_inurba_marseille","lat":43.304606,"lon":5.379026,"is_reserved":false,"is_disabled":false,"rental_uris":{"android":"levelo://app?vid=c92d47b1-5eb1-4b43-8fbe-9245908a3bdc","ios":"levelo://app?vid=c92d47b1-5eb1-4b43-8fbe-9245908a3bdc"},"vehicle_type_id":"4","last_reported":1704208046,"current_range_meters":30400,"station_id":"ce4bgup2rcd13ifvqcn0","pricing_plan_id":"free"},{"bike_id":"575d9d6a-2088-4e2f-94e1-a2124d0537d8","system_id":"levelo_inurba_marseille","lat":43.304606,"lon":5.379026,"is_reserved":false,"is_disabled":false,"rental_uris":{"android":"levelo://app?vid=575d9d6a-2088-4e2f-94e1-a2124d0537d8","ios":"levelo://app?vid=575d9d6a-2088-4e2f-94e1-a2124d0537d8"},"vehicle_type_id":"4","last_reported":1704208046,"current_range_meters":31600,"station_id":"ce4bgup2rcd13ifvqcn0","pricing_plan_id":"free"},{"bike_id":"22c522dc-a80b-4206-9f4f-800ae9e694b5","system_id":"levelo_inurba_marseille","lat":43.304606,"lon":5.379026,"is_reserved":false,"is_disabled":false,"rental_uris":{"android":"levelo://app?vid=22c522dc-a80b-4206-9f4f-800ae9e694b5","ios":"levelo://app?vid=22c522dc-a80b-4206-9f4f-800ae9e694b5"},"vehicle_type_id":"4","last_reported":1704208046,"current_range_meters":32000,"station_id":"ce4bgup2rcd13ifvqcn0","pricing_plan_id":"free"},{"bike_id":"b4a59691-f36a-4bae-86e4-76735a9bb097","system_id":"levelo_inurba_marseille","lat":43.304606,"lon":5.379026,"is_reserved":false,"is_disabled":false,"rental_uris":{"android":"levelo://app?vid=b4a59691-f36a-4bae-86e4-76735a9bb097","ios":"levelo://app?vid=b4a59691-f36a-4bae-86e4-76735a9bb097"},"vehicle_type_id":"4","last_reported":1704208046,"current_range_meters":24000,"station_id":"ce4bgup2rcd13ifvqcn0","pricing_plan_id":"free"},{"bike_id":"50d90ae5-350d-4640-abe4-a015a28f35bf","system_id":"levelo_inurba_marseille","lat":43.301429,"lon":5.37413,"is_reserved":false,"is_disabled":false,"rental_uris":{"android":"levelo://app?vid=50d90ae5-350d-4640-abe4-a015a28f35bf","ios":"levelo://app?vid=50d90ae5-350d-4640-abe4-a015a28f35bf"},"vehicle_type_id":"4","last_reported":1704208046,"current_range_meters":12800,"station_id":"ce4bgs92rcd13ifvqcc0","pricing_plan_id":"free"},{"bike_id":"2cc9b7e4-06d1-4c51-a576-c2f751e2f1c3","system_id":"levelo_inurba_marseille","lat":43.30143,"lon":5.37413,"is_reserved":false,"is_disabled":false,"rental_uris":{"android":"levelo://app?vid=2cc9b7e4-06d1-4c51-a576-c2f751e2f1c3","ios":"levelo://app?vid=2cc9b7e4-06d1-4c51-a576-c2f751e2f1c3"},"vehicle_type_id":"4","last_reported":1704208046,"current_range_meters":31600,"station_id":"ce4bgs92rcd13ifvqcc0","pricing_plan_id":"free"},{"bike_id":"38ac6406-cd13-4e4a-92a1-4167d35da948","system_id":"levelo_inurba_marseille","lat":43.30143,"lon":5.37413,"is_reserved":false,"is_disabled":false,"rental_uris":{"android":"levelo://app?vid=38ac6406-cd13-4e4a-92a1-4167d35da948","ios":"levelo://app?vid=38ac6406-cd13-4e4a-92a1-4167d35da948"},"vehicle_type_id":"4","last_reported":1704208046,"current_range_meters":24000,"station_id":"ce4bgs92rcd13ifvqcc0","pricing_plan_id":"free"},{"bike_id":"072f1425-6373-4b0f-891a-99a6505137ee","system_id":"levelo_inurba_marseille","lat":43.319935,"lon":5.381699,"is_reserved":false,"is_disabled":false,"rental_uris":{"android":"levelo://app?vid=072f1425-6373-4b0f-891a-99a6505137ee","ios":"levelo://app?vid=072f1425-6373-4b0f-891a-99a6505137ee"},"vehicle_type_id":"4","last_reported":1704208046,"current_range_meters":25600,"station_id":"ce4bhr12rcd13ifvqhpg","pricing_plan_id":"free"},{"bike_id":"17504bde-947a-4cd6-98b3-9a4c66aca99b","system_id":"levelo_inurba_marseille","lat":43.313827,"lon":5.385007,"is_reserved":false,"is_disabled":false,"rental_uris":{"android":"levelo://app?vid=17504bde-947a-4cd6-98b3-9a4c66aca99b","ios":"levelo://app?vid=17504bde-947a-4cd6-98b3-9a4c66aca99b"},"vehicle_type_id":"4","last_reported":1704208046,"current_range_meters":20800,"station_id":"ce4bgt92rcd13ifvqcf0","pricing_plan_id":"free"},{"bike_id":"51f410c6-3f1c-44f7-89d7-d9f7d1eb75dc","system_id":"levelo_inurba_marseille","lat":43.299222,"lon":5.365554,"is_reserved":false,"is_disabled":false,"rental_uris":{"android":"levelo://app?vid=51f410c6-3f1c-44f7-89d7-d9f7d1eb75dc","ios":"levelo://app?vid=51f410c6-3f1c-44f7-89d7-d9f7d1eb75dc"},"vehicle_type_id":"4","last_reported":1704208046,"current_range_meters":16400,"station_id":"ce4bgm92rcd13ifvqbr0","pricing_plan_id":"free"},{"bike_id":"3db01ef7-208b-4752-a79f-ae3283015eb8","system_id":"levelo_inurba_marseille","lat":43.313291,"lon":5.396838,"is_reserved":false,"is_disabled":false,"rental_uris":{"android":"levelo://app?vid=3db01ef7-208b-4752-a79f-ae3283015eb8","ios":"levelo://app?vid=3db01ef7-208b-4752-a79f-ae3283015eb8"},"vehicle_type_id":"4","last_reported":1704208046,"current_range_meters":21600,"station_id":"ce4bgvp2rcd13ifvqcu0","pricing_plan_id":"free"},{"bike_id":"732844ed-a881-441a-a447-1f232222d6ca","system_id":"levelo_inurba_marseille","lat":43.299243,"lon":5.374807,"is_reserved":false,"is_disabled":false,"rental_uris":{"android":"levelo://app?vid=732844ed-a881-441a-a447-1f232222d6ca","ios":"levelo://app?vid=732844ed-a881-441a-a447-1f232222d6ca"},"vehicle_type_id":"4","last_reported":1704208046,"current_range_meters":19600,"station_id":"ce4bgjh2rcd13ifvqbg0","pricing_plan_id":"free"},{"bike_id":"f5822aaf-782d-4f3c-8e2d-1e15c3cdc52b","system_id":"levelo_inurba_marseille","lat":43.298433,"lon":5.362774,"is_reserved":false,"is_disabled":false,"rental_uris":{"android":"levelo://app?vid=f5822aaf-782d-4f3c-8e2d-1e15c3cdc52b","ios":"levelo://app?vid=f5822aaf-782d-4f3c-8e2d-1e15c3cdc52b"},"vehicle_type_id":"4","last_reported":1704208046,"current_range_meters":14800,"station_id":"ce4bgpp2rcd13ifvqc3g","pricing_plan_id":"free"},{"bike_id":"c35c625a-c7b8-448d-8336-20db87ceabe6","system_id":"levelo_inurba_marseille","lat":43.299243,"lon":5.37481,"is_reserved":false,"is_disabled":false,"rental_uris":{"android":"levelo://app?vid=c35c625a-c7b8-448d-8336-20db87ceabe6","ios":"levelo://app?vid=c35c625a-c7b8-448d-8336-20db87ceabe6"},"vehicle_type_id":"4","last_reported":1704208046,"current_range_meters":22000,"station_id":"ce4bgjh2rcd13ifvqbg0","pricing_plan_id":"free"},{"bike_id":"ed520a22-6e1b-49cc-addc-11a96053082c","system_id":"levelo_inurba_marseille","lat":43.322872,"lon":5.382756,"is_reserved":false,"is_disabled":false,"rental_uris":{"android":"levelo://app?vid=ed520a22-6e1b-49cc-addc-11a96053082c","ios":"levelo://app?vid=ed520a22-6e1b-49cc-addc-11a96053082c"},"vehicle_type_id":"4","last_reported":1704208046,"current_range_meters":6400,"station_id":"ce4bhr12rcd13ifvqhqg","pricing_plan_id":"free"},{"bike_id":"8752a032-5a63-4551-8b69-590b5f45408e","system_id":"levelo_inurba_marseille","lat":43.322872,"lon":5.382756,"is_reserved":false,"is_disabled":false,"rental_uris":{"android":"levelo://app?vid=8752a032-5a63-4551-8b69-590b5f45408e","ios":"levelo://app?vid=8752a032-5a63-4551-8b69-590b5f45408e"},"vehicle_type_id":"4","last_reported":1704208046,"current_range_meters":24800,"station_id":"ce4bhr12rcd13ifvqhqg","pricing_plan_id":"free"},{"bike_id":"5429cb05-7dd0-469e-897f-27631ab55b12","system_id":"levelo_inurba_marseille","lat":43.297774,"lon":5.370875,"is_reserved":false,"is_disabled":false,"rental_uris":{"android":"levelo://app?vid=5429cb05-7dd0-469e-897f-27631ab55b12","ios":"levelo://app?vid=5429cb05-7dd0-469e-897f-27631ab55b12"},"vehicle_type_id":"4","last_reported":1704208046,"current_range_meters":14800,"station_id":"ce4bgop2rcd13ifvqc1g","pricing_plan_id":"free"},{"bike_id":"0a99af18-dfe6-49d4-bc90-0038ead01ebf","system_id":"levelo_inurba_marseille","lat":43.328371,"lon":5.366909,"is_reserved":false,"is_disabled":false,"rental_uris":{"android":"levelo://app?vid=0a99af18-dfe6-49d4-bc90-0038ead01ebf","ios":"levelo://app?vid=0a99af18-dfe6-49d4-bc90-0038ead01ebf"},"vehicle_type_id":"4","last_reported":1704208046,"current_range_meters":22400,"station_id":"ce4bhs92rcd13ifvqi0g","pricing_plan_id":"free"},{"bike_id":"37032972-5ad6-47be-aaa6-597e83fbb6ec","system_id":"levelo_inurba_marseille","lat":43.297163,"lon":5.365866,"is_reserved":false,"is_disabled":false,"rental_uris":{"android":"levelo://app?vid=37032972-5ad6-47be-aaa6-597e83fbb6ec","ios":"levelo://app?vid=37032972-5ad6-47be-aaa6-597e83fbb6ec"},"vehicle_type_id":"4","last_reported":1704208046,"current_range_meters":20000,"station_id":"ce4bgn12rcd13ifvqbt0","pricing_plan_id":"free"},{"bike_id":"370cccf7-c9ba-46c2-819b-c8e8cacc4c21","system_id":"levelo_inurba_marseille","lat":43.3277,"lon":5.37458,"is_reserved":false,"is_disabled":false,"rental_uris":{"android":"levelo://app?vid=370cccf7-c9ba-46c2-819b-c8e8cacc4c21","ios":"levelo://app?vid=370cccf7-c9ba-46c2-819b-c8e8cacc4c21"},"vehicle_type_id":"4","last_reported":1704208046,"current_range_meters":8400,"station_id":"","pricing_plan_id":"free"},{"bike_id":"ae878ce9-dfc8-45b2-ba0f-b20c676ee979","system_id":"levelo_inurba_marseille","lat":43.309589,"lon":5.390258,"is_reserved":false,"is_disabled":false,"rental_uris":{"android":"levelo://app?vid=ae878ce9-dfc8-45b2-ba0f-b20c676ee979","ios":"levelo://app?vid=ae878ce9-dfc8-45b2-ba0f-b20c676ee979"},"vehicle_type_id":"4","last_reported":1704208046,"current_range_meters":24800,"station_id":"ce4bgup2rcd13ifvqco0","pricing_plan_id":"free"},{"bike_id":"9c20f023-4c8b-48bf-8feb-fee2957ae73b","system_id":"levelo_inurba_marseille","lat":43.296921,"lon":5.376579,"is_reserved":false,"is_disabled":false,"rental_uris":{"android":"levelo://app?vid=9c20f023-4c8b-48bf-8feb-fee2957ae73b","ios":"levelo://app?vid=9c20f023-4c8b-48bf-8feb-fee2957ae73b"},"vehicle_type_id":"4","last_reported":1704208046,"current_range_meters":23600,"station_id":"ce4bgkh2rcd13ifvqbl0","pricing_plan_id":"free"},{"bike_id":"ce910bb1-2fd5-4258-b1a7-5d77cdfbfb05","system_id":"levelo_inurba_marseille","lat":43.317557,"lon":5.390173,"is_reserved":false,"is_disabled":false,"rental_uris":{"android":"levelo://app?vid=ce910bb1-2fd5-4258-b1a7-5d77cdfbfb05","ios":"levelo://app?vid=ce910bb1-2fd5-4258-b1a7-5d77cdfbfb05"},"vehicle_type_id":"4","last_reported":1704208046,"current_range_meters":20800,"station_id":"ce4bhqp2rcd13ifvqhng","pricing_plan_id":"free"},{"bike_id":"3a9ad704-8c94-4993-9110-39e894518d01","system_id":"levelo_inurba_marseille","lat":43.298037,"lon":5.381066,"is_reserved":false,"is_disabled":false,"rental_uris":{"android":"levelo://app?vid=3a9ad704-8c94-4993-9110-39e894518d01","ios":"levelo://app?vid=3a9ad704-8c94-4993-9110-39e894518d01"},"vehicle_type_id":"4","last_reported":1704208046,"current_range_meters":32000,"station_id":"ce4bgip2rcd13ifvqbb0","pricing_plan_id":"free"},{"bike_id":"9cd9ff9e-0f43-4c94-a914-8c2ed52e48ab","system_id":"levelo_inurba_marseille","lat":43.298037,"lon":5.381066,"is_reserved":false,"is_disabled":false,"rental_uris":{"android":"levelo://app?vid=9cd9ff9e-0f43-4c94-a914-8c2ed52e48ab","ios":"levelo://app?vid=9cd9ff9e-0f43-4c94-a914-8c2ed52e48ab"},"vehicle_type_id":"4","last_reported":1704208046,"current_range_meters":31200,"station_id":"ce4bgip2rcd13ifvqbb0","pricing_plan_id":"free"},{"bike_id":"7a23badb-675e-464f-a0c9-6bb541c473c1","system_id":"levelo_inurba_marseille","lat":43.295748,"lon":5.37522,"is_reserved":false,"is_disabled":false,"rental_uris":{"android":"levelo://app?vid=7a23badb-675e-464f-a0c9-6bb541c473c1","ios":"levelo://app?vid=7a23badb-675e-464f-a0c9-6bb541c473c1"},"vehicle_type_id":"4","last_reported":1704208046,"current_range_meters":22800,"station_id":"ce4bgh92rcd13ifvqb50","pricing_plan_id":"free"},{"bike_id":"c38c8588-8521-43f8-8932-1b733341e90b","system_id":"levelo_inurba_marseille","lat":43.298037,"lon":5.381066,"is_reserved":false,"is_disabled":false,"rental_uris":{"android":"levelo://app?vid=c38c8588-8521-43f8-8932-1b733341e90b","ios":"levelo://app?vid=c38c8588-8521-43f8-8932-1b733341e90b"},"vehicle_type_id":"4","last_reported":1704208046,"current_range_meters":24000,"station_id":"ce4bgip2rcd13ifvqbb0","pricing_plan_id":"free"},{"bike_id":"5f1b32fc-206a-45b4-8f37-84150ce7b19e","system_id":"levelo_inurba_marseille","lat":43.295748,"lon":5.37522,"is_reserved":false,"is_disabled":false,"rental_uris":{"android":"levelo://app?vid=5f1b32fc-206a-45b4-8f37-84150ce7b19e","ios":"levelo://app?vid=5f1b32fc-206a-45b4-8f37-84150ce7b19e"},"vehicle_type_id":"4","last_reported":1704208046,"current_range_meters":17600,"station_id":"ce4bgh92rcd13ifvqb50","pricing_plan_id":"free"},{"bike_id":"d60802d6-4f47-444a-b234-883690eec05b","system_id":"levelo_inurba_marseille","lat":43.33062,"lon":5.3627,"is_reserved":false,"is_disabled":false,"rental_uris":{"android":"levelo://app?vid=d60802d6-4f47-444a-b234-883690eec05b","ios":"levelo://app?vid=d60802d6-4f47-444a-b234-883690eec05b"},"vehicle_type_id":"4","last_reported":1704208046,"current_range_meters":15200,"station_id":"","pricing_plan_id":"free"},{"bike_id":"a566ef5c-a391-4d47-9431-421d8eace496","system_id":"levelo_inurba_marseille","lat":43.295748,"lon":5.37522,"is_reserved":false,"is_disabled":false,"rental_uris":{"android":"levelo://app?vid=a566ef5c-a391-4d47-9431-421d8eace496","ios":"levelo://app?vid=a566ef5c-a391-4d47-9431-421d8eace496"},"vehicle_type_id":"4","last_reported":1704208046,"current_range_meters":0,"station_id":"ce4bgh92rcd13ifvqb50","pricing_plan_id":"free"},{"bike_id":"9b7683db-182e-47ce-b344-b3e4ae660ac9","system_id":"levelo_inurba_marseille","lat":43.295748,"lon":5.37522,"is_reserved":false,"is_disabled":false,"rental_uris":{"android":"levelo://app?vid=9b7683db-182e-47ce-b344-b3e4ae660ac9","ios":"levelo://app?vid=9b7683db-182e-47ce-b344-b3e4ae660ac9"},"vehicle_type_id":"4","last_reported":1704208046,"current_range_meters":5200,"station_id":"ce4bgh92rcd13ifvqb50","pricing_plan_id":"free"},{"bike_id":"f67b4ce4-0c9c-4cd2-b119-b472dfee5204","system_id":"levelo_inurba_marseille","lat":43.29538,"lon":5.375,"is_reserved":false,"is_disabled":false,"rental_uris":{"android":"levelo://app?vid=f67b4ce4-0c9c-4cd2-b119-b472dfee5204","ios":"levelo://app?vid=f67b4ce4-0c9c-4cd2-b119-b472dfee5204"},"vehicle_type_id":"4","last_reported":1704208046,"current_range_meters":21600,"station_id":"ce4bgi92rcd13ifvqb90","pricing_plan_id":"free"},{"bike_id":"7119845d-00aa-4d9f-be8c-fc97d41f1380","system_id":"levelo_inurba_marseille","lat":43.297594,"lon":5.381134,"is_reserved":false,"is_disabled":false,"rental_uris":{"android":"levelo://app?vid=7119845d-00aa-4d9f-be8c-fc97d41f1380","ios":"levelo://app?vid=7119845d-00aa-4d9f-be8c-fc97d41f1380"},"vehicle_type_id":"4","last_reported":1704208046,"current_range_meters":4000,"station_id":"ce4bgip2rcd13ifvqbb0","pricing_plan_id":"free"},{"bike_id":"8b47739e-43e0-4869-9b62-42d0c05d90bb","system_id":"levelo_inurba_marseille","lat":43.295279,"lon":5.375048,"is_reserved":false,"is_disabled":false,"rental_uris":{"android":"levelo://app?vid=8b47739e-43e0-4869-9b62-42d0c05d90bb","ios":"levelo://app?vid=8b47739e-43e0-4869-9b62-42d0c05d90bb"},"vehicle_type_id":"4","last_reported":1704208046,"current_range_meters":6000,"station_id":"ce4bgkp2rcd13ifvqbmg","pricing_plan_id":"free"},{"bike_id":"48fae279-6438-4e6f-9d1e-be80d8213868","system_id":"levelo_inurba_marseille","lat":43.295279,"lon":5.375048,"is_reserved":false,"is_disabled":false,"rental_uris":{"android":"levelo://app?vid=48fae279-6438-4e6f-9d1e-be80d8213868","ios":"levelo://app?vid=48fae279-6438-4e6f-9d1e-be80d8213868"},"vehicle_type_id":"4","last_reported":1704208046,"current_range_meters":27600,"station_id":"ce4bgkp2rcd13ifvqbmg","pricing_plan_id":"free"},{"bike_id":"fbe6b379-6851-4cb5-af5e-b86c66f1f3bf","system_id":"levelo_inurba_marseille","lat":43.292749,"lon":5.368402,"is_reserved":false,"is_disabled":false,"rental_uris":{"android":"levelo://app?vid=fbe6b379-6851-4cb5-af5e-b86c66f1f3bf","ios":"levelo://app?vid=fbe6b379-6851-4cb5-af5e-b86c66f1f3bf"},"vehicle_type_id":"4","last_reported":1704208046,"current_range_meters":20400,"station_id":"ce4bhbp2rcd13ifvqesg","pricing_plan_id":"free"},{"bike_id":"29cf3f17-f3bd-4803-bea5-9cdfd119cfda","system_id":"levelo_inurba_marseille","lat":43.293249,"lon":5.371578,"is_reserved":false,"is_disabled":false,"rental_uris":{"android":"levelo://app?vid=29cf3f17-f3bd-4803-bea5-9cdfd119cfda","ios":"levelo://app?vid=29cf3f17-f3bd-4803-bea5-9cdfd119cfda"},"vehicle_type_id":"4","last_reported":1704208046,"current_range_meters":25600,"station_id":"ce4bgh92rcd13ifvqb40","pricing_plan_id":"free"},{"bike_id":"447ed22f-e4ea-4eee-a942-a82396610423","system_id":"levelo_inurba_marseille","lat":43.293249,"lon":5.371578,"is_reserved":false,"is_disabled":false,"rental_uris":{"android":"levelo://app?vid=447ed22f-e4ea-4eee-a942-a82396610423","ios":"levelo://app?vid=447ed22f-e4ea-4eee-a942-a82396610423"},"vehicle_type_id":"4","last_reported":1704208046,"current_range_meters":17600,"station_id":"ce4bgh92rcd13ifvqb40","pricing_plan_id":"free"},{"bike_id":"49454bc2-d252-42cd-8ccc-4c1abfa3dde3","system_id":"levelo_inurba_marseille","lat":43.305994,"lon":5.393687,"is_reserved":false,"is_disabled":false,"rental_uris":{"android":"levelo://app?vid=49454bc2-d252-42cd-8ccc-4c1abfa3dde3","ios":"levelo://app?vid=49454bc2-d252-42cd-8ccc-4c1abfa3dde3"},"vehicle_type_id":"4","last_reported":1704208046,"current_range_meters":14400,"station_id":"ce4bh0p2rcd13ifvqd80","pricing_plan_id":"free"},{"bike_id":"49b2051c-dee0-4ec5-8510-790a9d2c2160","system_id":"levelo_inurba_marseille","lat":43.2936,"lon":5.37835,"is_reserved":false,"is_disabled":false,"rental_uris":{"android":"levelo://app?vid=49b2051c-dee0-4ec5-8510-790a9d2c2160","ios":"levelo://app?vid=49b2051c-dee0-4ec5-8510-790a9d2c2160"},"vehicle_type_id":"4","last_reported":1704208046,"current_range_meters":20000,"station_id":"ce4bgjh2rcd13ifvqbf0","pricing_plan_id":"free"},{"bike_id":"1a1481de-040b-486d-8984-45afdbe85ebb","system_id":"levelo_inurba_marseille","lat":43.29253,"lon":5.3739,"is_reserved":false,"is_disabled":false,"rental_uris":{"android":"levelo://app?vid=1a1481de-040b-486d-8984-45afdbe85ebb","ios":"levelo://app?vid=1a1481de-040b-486d-8984-45afdbe85ebb"},"vehicle_type_id":"4","last_reported":1704208046,"current_range_meters":15600,"station_id":"","pricing_plan_id":"free"},{"bike_id":"36c08c9d-6813-4509-8e7e-0e6d513714cd","system_id":"levelo_inurba_marseille","lat":43.292311,"lon":5.360731,"is_reserved":false,"is_disabled":false,"rental_uris":{"android":"levelo://app?vid=36c08c9d-6813-4509-8e7e-0e6d513714cd","ios":"levelo://app?vid=36c08c9d-6813-4509-8e7e-0e6d513714cd"},"vehicle_type_id":"4","last_reported":1704208046,"current_range_meters":28000,"station_id":"ce4bhbh2rcd13ifvqeqg","pricing_plan_id":"free"},{"bike_id":"d91718ba-7f73-4d60-8224-10a0b676efc8","system_id":"levelo_inurba_marseille","lat":43.292311,"lon":5.360731,"is_reserved":false,"is_disabled":false,"rental_uris":{"android":"levelo://app?vid=d91718ba-7f73-4d60-8224-10a0b676efc8","ios":"levelo://app?vid=d91718ba-7f73-4d60-8224-10a0b676efc8"},"vehicle_type_id":"4","last_reported":1704208046,"current_range_meters":18400,"station_id":"ce4bhbh2rcd13ifvqeqg","pricing_plan_id":"free"},{"bike_id":"f4cec07f-16dd-4612-82b0-9b0b850dded3","system_id":"levelo_inurba_marseille","lat":43.29263,"lon":5.37623,"is_reserved":false,"is_disabled":false,"rental_uris":{"android":"levelo://app?vid=f4cec07f-16dd-4612-82b0-9b0b850dded3","ios":"levelo://app?vid=f4cec07f-16dd-4612-82b0-9b0b850dded3"},"vehicle_type_id":"4","last_reported":1704208046,"current_range_meters":21600,"station_id":"ce4bgi12rcd13ifvqb70","pricing_plan_id":"free"},{"bike_id":"47552c9b-6657-4b1d-83fc-0c0aaabb12df","system_id":"levelo_inurba_marseille","lat":43.291671,"lon":5.371575,"is_reserved":false,"is_disabled":false,"rental_uris":{"android":"levelo://app?vid=47552c9b-6657-4b1d-83fc-0c0aaabb12df","ios":"levelo://app?vid=47552c9b-6657-4b1d-83fc-0c0aaabb12df"},"vehicle_type_id":"4","last_reported":1704208046,"current_range_meters":26800,"station_id":"ce4bha92rcd13ifvqeh0","pricing_plan_id":"free"},{"bike_id":"6a81b50f-ae4b-4c12-a481-44b003323491","system_id":"levelo_inurba_marseille","lat":43.31304,"lon":5.39681,"is_reserved":false,"is_disabled":false,"rental_uris":{"android":"levelo://app?vid=6a81b50f-ae4b-4c12-a481-44b003323491","ios":"levelo://app?vid=6a81b50f-ae4b-4c12-a481-44b003323491"},"vehicle_type_id":"4","last_reported":1704208046,"current_range_meters":18000,"station_id":"ce4bgvp2rcd13ifvqcu0","pricing_plan_id":"free"},{"bike_id":"90101bf7-672b-4ab7-ac8f-8f7490ba9bc8","system_id":"levelo_inurba_marseille","lat":43.313291,"lon":5.396838,"is_reserved":false,"is_disabled":false,"rental_uris":{"android":"levelo://app?vid=90101bf7-672b-4ab7-ac8f-8f7490ba9bc8","ios":"levelo://app?vid=90101bf7-672b-4ab7-ac8f-8f7490ba9bc8"},"vehicle_type_id":"4","last_reported":1704208046,"current_range_meters":24800,"station_id":"ce4bgvp2rcd13ifvqcu0","pricing_plan_id":"free"},{"bike_id":"aa6f7121-5afa-4275-9cd9-26c383aea6dc","system_id":"levelo_inurba_marseille","lat":43.313291,"lon":5.396838,"is_reserved":false,"is_disabled":false,"rental_uris":{"android":"levelo://app?vid=aa6f7121-5afa-4275-9cd9-26c383aea6dc","ios":"levelo://app?vid=aa6f7121-5afa-4275-9cd9-26c383aea6dc"},"vehicle_type_id":"4","last_reported":1704208046,"current_range_meters":3600,"station_id":"ce4bgvp2rcd13ifvqcu0","pricing_plan_id":"free"},{"bike_id":"e9727f4e-b2e9-4344-8d95-fefccd64ec6a","system_id":"levelo_inurba_marseille","lat":43.291994,"lon":5.357886,"is_reserved":false,"is_disabled":false,"rental_uris":{"android":"levelo://app?vid=e9727f4e-b2e9-4344-8d95-fefccd64ec6a","ios":"levelo://app?vid=e9727f4e-b2e9-4344-8d95-fefccd64ec6a"},"vehicle_type_id":"4","last_reported":1704208046,"current_range_meters":3200,"station_id":"ce4bhb12rcd13ifvqel0","pricing_plan_id":"free"},{"bike_id":"52bf8a55-5443-4c21-b045-2d454b6e703e","system_id":"levelo_inurba_marseille","lat":43.313291,"lon":5.396838,"is_reserved":false,"is_disabled":false,"rental_uris":{"android":"levelo://app?vid=52bf8a55-5443-4c21-b045-2d454b6e703e","ios":"levelo://app?vid=52bf8a55-5443-4c21-b045-2d454b6e703e"},"vehicle_type_id":"4","last_reported":1704208046,"current_range_meters":24400,"station_id":"ce4bgvp2rcd13ifvqcu0","pricing_plan_id":"free"},{"bike_id":"83d61f9d-917d-4b17-b8b2-6782dc60ea3a","system_id":"levelo_inurba_marseille","lat":43.309038,"lon":5.396546,"is_reserved":false,"is_disabled":false,"rental_uris":{"android":"levelo://app?vid=83d61f9d-917d-4b17-b8b2-6782dc60ea3a","ios":"levelo://app?vid=83d61f9d-917d-4b17-b8b2-6782dc60ea3a"},"vehicle_type_id":"4","last_reported":1704208046,"current_range_meters":26400,"station_id":"ce4bh012rcd13ifvqcv0","pricing_plan_id":"free"},{"bike_id":"c1958faa-c1e3-43c8-93e4-7c49d8d276c8","system_id":"levelo_inurba_marseille","lat":43.309047,"lon":5.396551,"is_reserved":false,"is_disabled":false,"rental_uris":{"android":"levelo://app?vid=c1958faa-c1e3-43c8-93e4-7c49d8d276c8","ios":"levelo://app?vid=c1958faa-c1e3-43c8-93e4-7c49d8d276c8"},"vehicle_type_id":"4","last_reported":1704208046,"current_range_meters":28000,"station_id":"ce4bh012rcd13ifvqcv0","pricing_plan_id":"free"},{"bike_id":"32a6d0de-e654-48ee-b196-b5e879cccc84","system_id":"levelo_inurba_marseille","lat":43.290327,"lon":5.375711,"is_reserved":false,"is_disabled":false,"rental_uris":{"android":"levelo://app?vid=32a6d0de-e654-48ee-b196-b5e879cccc84","ios":"levelo://app?vid=32a6d0de-e654-48ee-b196-b5e879cccc84"},"vehicle_type_id":"4","last_reported":1704208046,"current_range_meters":30000,"station_id":"ce4bh692rcd13ifvqe90","pricing_plan_id":"free"},{"bike_id":"4cd446bf-3c7c-461a-b50f-ba6f7435e4eb","system_id":"levelo_inurba_marseille","lat":43.294153,"lon":5.386305,"is_reserved":false,"is_disabled":false,"rental_uris":{"android":"levelo://app?vid=4cd446bf-3c7c-461a-b50f-ba6f7435e4eb","ios":"levelo://app?vid=4cd446bf-3c7c-461a-b50f-ba6f7435e4eb"},"vehicle_type_id":"4","last_reported":1704208046,"current_range_meters":16800,"station_id":"ce4bh2h2rcd13ifvqdh0","pricing_plan_id":"free"},{"bike_id":"d979afad-22aa-4117-a229-4975964beb6f","system_id":"levelo_inurba_marseille","lat":43.294162,"lon":5.386292,"is_reserved":false,"is_disabled":false,"rental_uris":{"android":"levelo://app?vid=d979afad-22aa-4117-a229-4975964beb6f","ios":"levelo://app?vid=d979afad-22aa-4117-a229-4975964beb6f"},"vehicle_type_id":"4","last_reported":1704208046,"current_range_meters":18800,"station_id":"ce4bh2h2rcd13ifvqdh0","pricing_plan_id":"free"},{"bike_id":"81e0c791-88c3-4f45-b3b4-86f9de893257","system_id":"levelo_inurba_marseille","lat":43.289184,"lon":5.366408,"is_reserved":false,"is_disabled":false,"rental_uris":{"android":"levelo://app?vid=81e0c791-88c3-4f45-b3b4-86f9de893257","ios":"levelo://app?vid=81e0c791-88c3-4f45-b3b4-86f9de893257"},"vehicle_type_id":"4","last_reported":1704208046,"current_range_meters":28800,"station_id":"ce4bhap2rcd13ifvqek0","pricing_plan_id":"free"},{"bike_id":"2e31cbd6-c2e3-4ab2-8e7d-14915c0700b9","system_id":"levelo_inurba_marseille","lat":43.304274,"lon":5.397513,"is_reserved":false,"is_disabled":false,"rental_uris":{"android":"levelo://app?vid=2e31cbd6-c2e3-4ab2-8e7d-14915c0700b9","ios":"levelo://app?vid=2e31cbd6-c2e3-4ab2-8e7d-14915c0700b9"},"vehicle_type_id":"4","last_reported":1704208046,"current_range_meters":27600,"station_id":"ce4bh092rcd13ifvqd20","pricing_plan_id":"free"},{"bike_id":"416a2a94-34a4-4a9f-be37-57ab200de93c","system_id":"levelo_inurba_marseille","lat":43.304296,"lon":5.397513,"is_reserved":false,"is_disabled":false,"rental_uris":{"android":"levelo://app?vid=416a2a94-34a4-4a9f-be37-57ab200de93c","ios":"levelo://app?vid=416a2a94-34a4-4a9f-be37-57ab200de93c"},"vehicle_type_id":"4","last_reported":1704208046,"current_range_meters":800,"station_id":"ce4bh092rcd13ifvqd20","pricing_plan_id":"free"},{"bike_id":"b489017c-d79d-4d5b-8fd2-bc1b03ae222f","system_id":"levelo_inurba_marseille","lat":43.289743,"lon":5.378304,"is_reserved":false,"is_disabled":false,"rental_uris":{"android":"levelo://app?vid=b489017c-d79d-4d5b-8fd2-bc1b03ae222f","ios":"levelo://app?vid=b489017c-d79d-4d5b-8fd2-bc1b03ae222f"},"vehicle_type_id":"4","last_reported":1704208046,"current_range_meters":14800,"station_id":"ce4bh9p2rcd13ifvqed0","pricing_plan_id":"free"},{"bike_id":"f643ca78-b614-47da-b9cb-87a0f3133bc5","system_id":"levelo_inurba_marseille","lat":43.295169,"lon":5.390426,"is_reserved":false,"is_disabled":false,"rental_uris":{"android":"levelo://app?vid=f643ca78-b614-47da-b9cb-87a0f3133bc5","ios":"levelo://app?vid=f643ca78-b614-47da-b9cb-87a0f3133bc5"},"vehicle_type_id":"4","last_reported":1704208046,"current_range_meters":25600,"station_id":"ce4bh3p2rcd13ifvqdp0","pricing_plan_id":"free"},{"bike_id":"26fcc41f-7ec0-44af-9f05-97eaa302e035","system_id":"levelo_inurba_marseille","lat":43.2901,"lon":5.381269,"is_reserved":false,"is_disabled":false,"rental_uris":{"android":"levelo://app?vid=26fcc41f-7ec0-44af-9f05-97eaa302e035","ios":"levelo://app?vid=26fcc41f-7ec0-44af-9f05-97eaa302e035"},"vehicle_type_id":"4","last_reported":1704208046,"current_range_meters":25600,"station_id":"ce4bh4p2rcd13ifvqe1g","pricing_plan_id":"free"},{"bike_id":"dc04173c-0dd1-4399-9a19-ab9853c742c0","system_id":"levelo_inurba_marseille","lat":43.312609,"lon":5.401662,"is_reserved":false,"is_disabled":false,"rental_uris":{"android":"levelo://app?vid=dc04173c-0dd1-4399-9a19-ab9853c742c0","ios":"levelo://app?vid=dc04173c-0dd1-4399-9a19-ab9853c742c0"},"vehicle_type_id":"4","last_reported":1704208046,"current_range_meters":23200,"station_id":"ce4bh092rcd13ifvqd30","pricing_plan_id":"free"},{"bike_id":"a9ee2fb2-8396-4dab-9c06-c4c2c84018e5","system_id":"levelo_inurba_marseille","lat":43.309371,"lon":5.401449,"is_reserved":false,"is_disabled":false,"rental_uris":{"android":"levelo://app?vid=a9ee2fb2-8396-4dab-9c06-c4c2c84018e5","ios":"levelo://app?vid=a9ee2fb2-8396-4dab-9c06-c4c2c84018e5"},"vehicle_type_id":"4","last_reported":1704208046,"current_range_meters":21200,"station_id":"ce4bgvp2rcd13ifvqct0","pricing_plan_id":"free"},{"bike_id":"7bff5d96-c9da-413f-9076-7fbeec946e12","system_id":"levelo_inurba_marseille","lat":43.33757,"lon":5.37467,"is_reserved":false,"is_disabled":false,"rental_uris":{"android":"levelo://app?vid=7bff5d96-c9da-413f-9076-7fbeec946e12","ios":"levelo://app?vid=7bff5d96-c9da-413f-9076-7fbeec946e12"},"vehicle_type_id":"4","last_reported":1704208046,"current_range_meters":26800,"station_id":"","pricing_plan_id":"free"},{"bike_id":"1c86c5a0-cffc-4faa-94a1-6cf5f93206ea","system_id":"levelo_inurba_marseille","lat":43.337605,"lon":5.374572,"is_reserved":false,"is_disabled":false,"rental_uris":{"android":"levelo://app?vid=1c86c5a0-cffc-4faa-94a1-6cf5f93206ea","ios":"levelo://app?vid=1c86c5a0-cffc-4faa-94a1-6cf5f93206ea"},"vehicle_type_id":"4","last_reported":1704208046,"current_range_meters":6000,"station_id":"","pricing_plan_id":"free"},{"bike_id":"63604460-6e15-435a-9e7e-e6b89521009a","system_id":"levelo_inurba_marseille","lat":43.306412,"lon":5.401035,"is_reserved":false,"is_disabled":false,"rental_uris":{"android":"levelo://app?vid=63604460-6e15-435a-9e7e-e6b89521009a","ios":"levelo://app?vid=63604460-6e15-435a-9e7e-e6b89521009a"},"vehicle_type_id":"4","last_reported":1704208046,"current_range_meters":29200,"station_id":"ce4bh112rcd13ifvqda0","pricing_plan_id":"free"},{"bike_id":"46bcbd8a-0b5f-4b89-aac9-34812a85cd49","system_id":"levelo_inurba_marseille","lat":43.337681,"lon":5.374847,"is_reserved":false,"is_disabled":false,"rental_uris":{"android":"levelo://app?vid=46bcbd8a-0b5f-4b89-aac9-34812a85cd49","ios":"levelo://app?vid=46bcbd8a-0b5f-4b89-aac9-34812a85cd49"},"vehicle_type_id":"4","last_reported":1704208046,"current_range_meters":14800,"station_id":"","pricing_plan_id":"free"},{"bike_id":"d2a577d1-a6a2-4763-b001-85bd56c47c89","system_id":"levelo_inurba_marseille","lat":43.30142,"lon":5.39856,"is_reserved":false,"is_disabled":false,"rental_uris":{"android":"levelo://app?vid=d2a577d1-a6a2-4763-b001-85bd56c47c89","ios":"levelo://app?vid=d2a577d1-a6a2-4763-b001-85bd56c47c89"},"vehicle_type_id":"4","last_reported":1704208046,"current_range_meters":25200,"station_id":"ce4bh0h2rcd13ifvqd40","pricing_plan_id":"free"},{"bike_id":"19c543fa-c434-40c5-a6f2-037d9b3b28bb","system_id":"levelo_inurba_marseille","lat":43.301117,"lon":5.398795,"is_reserved":false,"is_disabled":false,"rental_uris":{"android":"levelo://app?vid=19c543fa-c434-40c5-a6f2-037d9b3b28bb","ios":"levelo://app?vid=19c543fa-c434-40c5-a6f2-037d9b3b28bb"},"vehicle_type_id":"4","last_reported":1704208046,"current_range_meters":14800,"station_id":"ce4bh0h2rcd13ifvqd40","pricing_plan_id":"free"},{"bike_id":"d5ee1345-cf8f-4e70-85b8-6d9086a6f89e","system_id":"levelo_inurba_marseille","lat":43.301117,"lon":5.398795,"is_reserved":false,"is_disabled":false,"rental_uris":{"android":"levelo://app?vid=d5ee1345-cf8f-4e70-85b8-6d9086a6f89e","ios":"levelo://app?vid=d5ee1345-cf8f-4e70-85b8-6d9086a6f89e"},"vehicle_type_id":"4","last_reported":1704208046,"current_range_meters":26400,"station_id":"ce4bh0h2rcd13ifvqd40","pricing_plan_id":"free"},{"bike_id":"48648c20-0baa-4183-a292-a62cef42eb01","system_id":"levelo_inurba_marseille","lat":43.28727,"lon":5.36078,"is_reserved":false,"is_disabled":false,"rental_uris":{"android":"levelo://app?vid=48648c20-0baa-4183-a292-a62cef42eb01","ios":"levelo://app?vid=48648c20-0baa-4183-a292-a62cef42eb01"},"vehicle_type_id":"4","last_reported":1704208046,"current_range_meters":25600,"station_id":"cki0cbj6b192h4jlfktg","pricing_plan_id":"free"},{"bike_id":"813fe313-9c4c-406c-a1f4-f633c07a42fe","system_id":"levelo_inurba_marseille","lat":43.286961,"lon":5.373785,"is_reserved":false,"is_disabled":false,"rental_uris":{"android":"levelo://app?vid=813fe313-9c4c-406c-a1f4-f633c07a42fe","ios":"levelo://app?vid=813fe313-9c4c-406c-a1f4-f633c07a42fe"},"vehicle_type_id":"4","last_reported":1704208046,"current_range_meters":9200,"station_id":"ce4bh3p2rcd13ifvqdq0","pricing_plan_id":"free"},{"bike_id":"9cbe1082-755b-4a2c-91e6-0b25958c96fe","system_id":"levelo_inurba_marseille","lat":43.302759,"lon":5.400793,"is_reserved":false,"is_disabled":false,"rental_uris":{"android":"levelo://app?vid=9cbe1082-755b-4a2c-91e6-0b25958c96fe","ios":"levelo://app?vid=9cbe1082-755b-4a2c-91e6-0b25958c96fe"},"vehicle_type_id":"4","last_reported":1704208046,"current_range_meters":8000,"station_id":"ce4bgvh2rcd13ifvqcs0","pricing_plan_id":"free"},{"bike_id":"083753fd-4022-4fac-a06e-4bd2a91229b3","system_id":"levelo_inurba_marseille","lat":43.286039,"lon":5.370679,"is_reserved":false,"is_disabled":false,"rental_uris":{"android":"levelo://app?vid=083753fd-4022-4fac-a06e-4bd2a91229b3","ios":"levelo://app?vid=083753fd-4022-4fac-a06e-4bd2a91229b3"},"vehicle_type_id":"4","last_reported":1704208046,"current_range_meters":7600,"station_id":"ce4bht12rcd13ifvqi60","pricing_plan_id":"free"},{"bike_id":"f04c0197-8bb7-4d15-ac5b-e74e1042e935","system_id":"levelo_inurba_marseille","lat":43.286039,"lon":5.370679,"is_reserved":false,"is_disabled":false,"rental_uris":{"android":"levelo://app?vid=f04c0197-8bb7-4d15-ac5b-e74e1042e935","ios":"levelo://app?vid=f04c0197-8bb7-4d15-ac5b-e74e1042e935"},"vehicle_type_id":"4","last_reported":1704208046,"current_range_meters":28800,"station_id":"ce4bht12rcd13ifvqi60","pricing_plan_id":"free"},{"bike_id":"40579999-f28a-4f53-8fc1-32606a609e63","system_id":"levelo_inurba_marseille","lat":43.286039,"lon":5.370679,"is_reserved":false,"is_disabled":false,"rental_uris":{"android":"levelo://app?vid=40579999-f28a-4f53-8fc1-32606a609e63","ios":"levelo://app?vid=40579999-f28a-4f53-8fc1-32606a609e63"},"vehicle_type_id":"4","last_reported":1704208046,"current_range_meters":31200,"station_id":"ce4bht12rcd13ifvqi60","pricing_plan_id":"free"},{"bike_id":"102b8121-ee53-408e-8829-c9b9fc6aef90","system_id":"levelo_inurba_marseille","lat":43.286039,"lon":5.370679,"is_reserved":false,"is_disabled":false,"rental_uris":{"android":"levelo://app?vid=102b8121-ee53-408e-8829-c9b9fc6aef90","ios":"levelo://app?vid=102b8121-ee53-408e-8829-c9b9fc6aef90"},"vehicle_type_id":"4","last_reported":1704208046,"current_range_meters":13600,"station_id":"ce4bht12rcd13ifvqi60","pricing_plan_id":"free"},{"bike_id":"8dd26f48-10c6-41d0-b714-22e81ce0128b","system_id":"levelo_inurba_marseille","lat":43.287185,"lon":5.379373,"is_reserved":false,"is_disabled":false,"rental_uris":{"android":"levelo://app?vid=8dd26f48-10c6-41d0-b714-22e81ce0128b","ios":"levelo://app?vid=8dd26f48-10c6-41d0-b714-22e81ce0128b"},"vehicle_type_id":"4","last_reported":1704208046,"current_range_meters":8400,"station_id":"ce4bh9p2rcd13ifvqec0","pricing_plan_id":"free"},{"bike_id":"9b0c9e9e-977c-43ca-8676-217c423ef706","system_id":"levelo_inurba_marseille","lat":43.31692,"lon":5.40464,"is_reserved":false,"is_disabled":false,"rental_uris":{"android":"levelo://app?vid=9b0c9e9e-977c-43ca-8676-217c423ef706","ios":"levelo://app?vid=9b0c9e9e-977c-43ca-8676-217c423ef706"},"vehicle_type_id":"4","last_reported":1704208046,"current_range_meters":27600,"station_id":"ce4bh012rcd13ifvqd00","pricing_plan_id":"free"},{"bike_id":"fe9d9231-9266-42cd-b245-ed8ea3c0bdbb","system_id":"levelo_inurba_marseille","lat":43.31689,"lon":5.4047,"is_reserved":false,"is_disabled":false,"rental_uris":{"android":"levelo://app?vid=fe9d9231-9266-42cd-b245-ed8ea3c0bdbb","ios":"levelo://app?vid=fe9d9231-9266-42cd-b245-ed8ea3c0bdbb"},"vehicle_type_id":"4","last_reported":1704208046,"current_range_meters":19600,"station_id":"ce4bh012rcd13ifvqd00","pricing_plan_id":"free"},{"bike_id":"5eef2557-3717-4951-a74f-012f1030abc7","system_id":"levelo_inurba_marseille","lat":43.291994,"lon":5.392907,"is_reserved":false,"is_disabled":false,"rental_uris":{"android":"levelo://app?vid=5eef2557-3717-4951-a74f-012f1030abc7","ios":"levelo://app?vid=5eef2557-3717-4951-a74f-012f1030abc7"},"vehicle_type_id":"4","last_reported":1704208046,"current_range_meters":26800,"station_id":"ce4bh192rcd13ifvqdd0","pricing_plan_id":"free"},{"bike_id":"28a1798a-fecb-4d54-8e44-d77349ec245d","system_id":"levelo_inurba_marseille","lat":43.284538,"lon":5.358657,"is_reserved":false,"is_disabled":false,"rental_uris":{"android":"levelo://app?vid=28a1798a-fecb-4d54-8e44-d77349ec245d","ios":"levelo://app?vid=28a1798a-fecb-4d54-8e44-d77349ec245d"},"vehicle_type_id":"4","last_reported":1704208046,"current_range_meters":19600,"station_id":"ce4bhah2rcd13ifvqei0","pricing_plan_id":"free"},{"bike_id":"384831b2-6bff-41cc-a3f3-3f9df0001631","system_id":"levelo_inurba_marseille","lat":43.285848,"lon":5.350787,"is_reserved":false,"is_disabled":false,"rental_uris":{"android":"levelo://app?vid=384831b2-6bff-41cc-a3f3-3f9df0001631","ios":"levelo://app?vid=384831b2-6bff-41cc-a3f3-3f9df0001631"},"vehicle_type_id":"4","last_reported":1704208046,"current_range_meters":12000,"station_id":"ce4bhch2rcd13ifvqeug","pricing_plan_id":"free"},{"bike_id":"48e908df-9ca7-4c39-be98-5f1da33c5b54","system_id":"levelo_inurba_marseille","lat":43.285848,"lon":5.350787,"is_reserved":false,"is_disabled":false,"rental_uris":{"android":"levelo://app?vid=48e908df-9ca7-4c39-be98-5f1da33c5b54","ios":"levelo://app?vid=48e908df-9ca7-4c39-be98-5f1da33c5b54"},"vehicle_type_id":"4","last_reported":1704208046,"current_range_meters":3200,"station_id":"ce4bhch2rcd13ifvqeug","pricing_plan_id":"free"},{"bike_id":"969f0058-8d79-40b1-970f-6b20dd6e2076","system_id":"levelo_inurba_marseille","lat":43.283998,"lon":5.375062,"is_reserved":false,"is_disabled":false,"rental_uris":{"android":"levelo://app?vid=969f0058-8d79-40b1-970f-6b20dd6e2076","ios":"levelo://app?vid=969f0058-8d79-40b1-970f-6b20dd6e2076"},"vehicle_type_id":"4","last_reported":1704208046,"current_range_meters":800,"station_id":"ce4bh412rcd13ifvqds0","pricing_plan_id":"free"},{"bike_id":"f2d79eb0-ba73-4189-af1a-fc16374aadf5","system_id":"levelo_inurba_marseille","lat":43.283998,"lon":5.375062,"is_reserved":false,"is_disabled":false,"rental_uris":{"android":"levelo://app?vid=f2d79eb0-ba73-4189-af1a-fc16374aadf5","ios":"levelo://app?vid=f2d79eb0-ba73-4189-af1a-fc16374aadf5"},"vehicle_type_id":"4","last_reported":1704208046,"current_range_meters":16400,"station_id":"ce4bh412rcd13ifvqds0","pricing_plan_id":"free"},{"bike_id":"ad0b54f6-a0d7-48f1-973a-d58d6337d191","system_id":"levelo_inurba_marseille","lat":43.34202,"lon":5.36936,"is_reserved":false,"is_disabled":false,"rental_uris":{"android":"levelo://app?vid=ad0b54f6-a0d7-48f1-973a-d58d6337d191","ios":"levelo://app?vid=ad0b54f6-a0d7-48f1-973a-d58d6337d191"},"vehicle_type_id":"4","last_reported":1704208046,"current_range_meters":25600,"station_id":"","pricing_plan_id":"free"},{"bike_id":"07b0f9d7-1a85-4fc0-aa1a-1d5860169b97","system_id":"levelo_inurba_marseille","lat":43.284462,"lon":5.392121,"is_reserved":false,"is_disabled":false,"rental_uris":{"android":"levelo://app?vid=07b0f9d7-1a85-4fc0-aa1a-1d5860169b97","ios":"levelo://app?vid=07b0f9d7-1a85-4fc0-aa1a-1d5860169b97"},"vehicle_type_id":"4","last_reported":1704208046,"current_range_meters":16800,"station_id":"ce4bhoh2rcd13ifvqh5g","pricing_plan_id":"free"},{"bike_id":"89112d64-ccbf-4364-afe6-d1338820fb67","system_id":"levelo_inurba_marseille","lat":43.319179,"lon":5.407725,"is_reserved":false,"is_disabled":false,"rental_uris":{"android":"levelo://app?vid=89112d64-ccbf-4364-afe6-d1338820fb67","ios":"levelo://app?vid=89112d64-ccbf-4364-afe6-d1338820fb67"},"vehicle_type_id":"4","last_reported":1704208046,"current_range_meters":29200,"station_id":"ce4bhq12rcd13ifvqhig","pricing_plan_id":"free"},{"bike_id":"64bacc72-9edb-4a5e-abb0-652670371019","system_id":"levelo_inurba_marseille","lat":43.319179,"lon":5.407725,"is_reserved":false,"is_disabled":false,"rental_uris":{"android":"levelo://app?vid=64bacc72-9edb-4a5e-abb0-652670371019","ios":"levelo://app?vid=64bacc72-9edb-4a5e-abb0-652670371019"},"vehicle_type_id":"4","last_reported":1704208046,"current_range_meters":27600,"station_id":"ce4bhq12rcd13ifvqhig","pricing_plan_id":"free"},{"bike_id":"3a34192a-8b34-47a6-8d79-245a33690514","system_id":"levelo_inurba_marseille","lat":43.33717,"lon":5.391857,"is_reserved":false,"is_disabled":false,"rental_uris":{"android":"levelo://app?vid=3a34192a-8b34-47a6-8d79-245a33690514","ios":"levelo://app?vid=3a34192a-8b34-47a6-8d79-245a33690514"},"vehicle_type_id":"4","last_reported":1704208046,"current_range_meters":30400,"station_id":"ce4bhr92rcd13ifvqhsg","pricing_plan_id":"free"},{"bike_id":"1860c054-e673-4084-804e-8832a59aeb53","system_id":"levelo_inurba_marseille","lat":43.33727,"lon":5.3918,"is_reserved":false,"is_disabled":false,"rental_uris":{"android":"levelo://app?vid=1860c054-e673-4084-804e-8832a59aeb53","ios":"levelo://app?vid=1860c054-e673-4084-804e-8832a59aeb53"},"vehicle_type_id":"4","last_reported":1704208046,"current_range_meters":23200,"station_id":"ce4bhr92rcd13ifvqhsg","pricing_plan_id":"free"},{"bike_id":"a7d651a4-9a6e-4e25-986d-041c84ad4762","system_id":"levelo_inurba_marseille","lat":43.284219,"lon":5.3497,"is_reserved":false,"is_disabled":false,"rental_uris":{"android":"levelo://app?vid=a7d651a4-9a6e-4e25-986d-041c84ad4762","ios":"levelo://app?vid=a7d651a4-9a6e-4e25-986d-041c84ad4762"},"vehicle_type_id":"4","last_reported":1704208046,"current_range_meters":2000,"station_id":"ce4bhbh2rcd13ifvqepg","pricing_plan_id":"free"},{"bike_id":"3330ce8a-2713-44dc-a850-638dd63c9cb5","system_id":"levelo_inurba_marseille","lat":43.284219,"lon":5.3497,"is_reserved":false,"is_disabled":false,"rental_uris":{"android":"levelo://app?vid=3330ce8a-2713-44dc-a850-638dd63c9cb5","ios":"levelo://app?vid=3330ce8a-2713-44dc-a850-638dd63c9cb5"},"vehicle_type_id":"4","last_reported":1704208046,"current_range_meters":0,"station_id":"ce4bhbh2rcd13ifvqepg","pricing_plan_id":"free"},{"bike_id":"eaf14b65-e352-49f3-b344-b436c637c073","system_id":"levelo_inurba_marseille","lat":43.284219,"lon":5.3497,"is_reserved":false,"is_disabled":false,"rental_uris":{"android":"levelo://app?vid=eaf14b65-e352-49f3-b344-b436c637c073","ios":"levelo://app?vid=eaf14b65-e352-49f3-b344-b436c637c073"},"vehicle_type_id":"4","last_reported":1704208046,"current_range_meters":0,"station_id":"ce4bhbh2rcd13ifvqepg","pricing_plan_id":"free"},{"bike_id":"2885da6c-3a9a-443d-931e-9f62fb5ce7c7","system_id":"levelo_inurba_marseille","lat":43.2827,"lon":5.350705,"is_reserved":false,"is_disabled":false,"rental_uris":{"android":"levelo://app?vid=2885da6c-3a9a-443d-931e-9f62fb5ce7c7","ios":"levelo://app?vid=2885da6c-3a9a-443d-931e-9f62fb5ce7c7"},"vehicle_type_id":"4","last_reported":1704208046,"current_range_meters":30400,"station_id":"ce4bhbp2rcd13ifvqerg","pricing_plan_id":"free"},{"bike_id":"8833d874-0aea-4418-bba5-dc4eccdaff99","system_id":"levelo_inurba_marseille","lat":43.282744,"lon":5.350533,"is_reserved":false,"is_disabled":false,"rental_uris":{"android":"levelo://app?vid=8833d874-0aea-4418-bba5-dc4eccdaff99","ios":"levelo://app?vid=8833d874-0aea-4418-bba5-dc4eccdaff99"},"vehicle_type_id":"4","last_reported":1704208046,"current_range_meters":7600,"station_id":"ce4bhbp2rcd13ifvqerg","pricing_plan_id":"free"},{"bike_id":"a78edcf2-cf09-413d-b077-ee19e86a25c0","system_id":"levelo_inurba_marseille","lat":43.282744,"lon":5.350533,"is_reserved":false,"is_disabled":false,"rental_uris":{"android":"levelo://app?vid=a78edcf2-cf09-413d-b077-ee19e86a25c0","ios":"levelo://app?vid=a78edcf2-cf09-413d-b077-ee19e86a25c0"},"vehicle_type_id":"4","last_reported":1704208046,"current_range_meters":26800,"station_id":"ce4bhbp2rcd13ifvqerg","pricing_plan_id":"free"},{"bike_id":"b5c367c7-a93c-4a23-a968-5824dcc00de1","system_id":"levelo_inurba_marseille","lat":43.282744,"lon":5.350533,"is_reserved":false,"is_disabled":false,"rental_uris":{"android":"levelo://app?vid=b5c367c7-a93c-4a23-a968-5824dcc00de1","ios":"levelo://app?vid=b5c367c7-a93c-4a23-a968-5824dcc00de1"},"vehicle_type_id":"4","last_reported":1704208046,"current_range_meters":2800,"station_id":"ce4bhbp2rcd13ifvqerg","pricing_plan_id":"free"},{"bike_id":"0ca22e72-f567-4508-9f62-7167043e0544","system_id":"levelo_inurba_marseille","lat":43.283502,"lon":5.386471,"is_reserved":false,"is_disabled":false,"rental_uris":{"android":"levelo://app?vid=0ca22e72-f567-4508-9f62-7167043e0544","ios":"levelo://app?vid=0ca22e72-f567-4508-9f62-7167043e0544"},"vehicle_type_id":"4","last_reported":1704208046,"current_range_meters":17200,"station_id":"ce4bh492rcd13ifvqdvg","pricing_plan_id":"free"},{"bike_id":"56c1105d-9bac-4e47-9c92-44289fbbbde2","system_id":"levelo_inurba_marseille","lat":43.280382,"lon":5.369291,"is_reserved":false,"is_disabled":false,"rental_uris":{"android":"levelo://app?vid=56c1105d-9bac-4e47-9c92-44289fbbbde2","ios":"levelo://app?vid=56c1105d-9bac-4e47-9c92-44289fbbbde2"},"vehicle_type_id":"4","last_reported":1704208046,"current_range_meters":11200,"station_id":"ce4bha12rcd13ifvqef0","pricing_plan_id":"free"},{"bike_id":"713ff1ca-a31f-47c7-b83d-d1ac239637cb","system_id":"levelo_inurba_marseille","lat":43.281044,"lon":5.378308,"is_reserved":false,"is_disabled":false,"rental_uris":{"android":"levelo://app?vid=713ff1ca-a31f-47c7-b83d-d1ac239637cb","ios":"levelo://app?vid=713ff1ca-a31f-47c7-b83d-d1ac239637cb"},"vehicle_type_id":"4","last_reported":1704208046,"current_range_meters":20000,"station_id":"ce4bha12rcd13ifvqee0","pricing_plan_id":"free"},{"bike_id":"5d36baff-fe7f-4966-b992-5a067f0d38cd","system_id":"levelo_inurba_marseille","lat":43.29041,"lon":5.399634,"is_reserved":false,"is_disabled":false,"rental_uris":{"android":"levelo://app?vid=5d36baff-fe7f-4966-b992-5a067f0d38cd","ios":"levelo://app?vid=5d36baff-fe7f-4966-b992-5a067f0d38cd"},"vehicle_type_id":"4","last_reported":1704208046,"current_range_meters":28000,"station_id":"ce4bh392rcd13ifvqdm0","pricing_plan_id":"free"},{"bike_id":"85d37e19-9234-4aa4-a690-979f722f71d3","system_id":"levelo_inurba_marseille","lat":43.281044,"lon":5.378308,"is_reserved":false,"is_disabled":false,"rental_uris":{"android":"levelo://app?vid=85d37e19-9234-4aa4-a690-979f722f71d3","ios":"levelo://app?vid=85d37e19-9234-4aa4-a690-979f722f71d3"},"vehicle_type_id":"4","last_reported":1704208046,"current_range_meters":25200,"station_id":"ce4bha12rcd13ifvqee0","pricing_plan_id":"free"},{"bike_id":"241fb648-a1f3-4e07-bcad-f3d37c8e5218","system_id":"levelo_inurba_marseille","lat":43.281044,"lon":5.378308,"is_reserved":false,"is_disabled":false,"rental_uris":{"android":"levelo://app?vid=241fb648-a1f3-4e07-bcad-f3d37c8e5218","ios":"levelo://app?vid=241fb648-a1f3-4e07-bcad-f3d37c8e5218"},"vehicle_type_id":"4","last_reported":1704208046,"current_range_meters":16400,"station_id":"ce4bha12rcd13ifvqee0","pricing_plan_id":"free"},{"bike_id":"66136cee-8770-4b71-9918-2e1c29bed12e","system_id":"levelo_inurba_marseille","lat":43.296263,"lon":5.40601,"is_reserved":false,"is_disabled":false,"rental_uris":{"android":"levelo://app?vid=66136cee-8770-4b71-9918-2e1c29bed12e","ios":"levelo://app?vid=66136cee-8770-4b71-9918-2e1c29bed12e"},"vehicle_type_id":"4","last_reported":1704208046,"current_range_meters":29200,"station_id":"ce4bh0h2rcd13ifvqd60","pricing_plan_id":"free"},{"bike_id":"d7a6fce4-5f88-406f-a6f9-c84226277240","system_id":"levelo_inurba_marseille","lat":43.284462,"lon":5.392121,"is_reserved":false,"is_disabled":false,"rental_uris":{"android":"levelo://app?vid=d7a6fce4-5f88-406f-a6f9-c84226277240","ios":"levelo://app?vid=d7a6fce4-5f88-406f-a6f9-c84226277240"},"vehicle_type_id":"4","last_reported":1704208046,"current_range_meters":24000,"station_id":"ce4bhoh2rcd13ifvqh5g","pricing_plan_id":"free"},{"bike_id":"7871ae4f-93f2-45c4-8d9f-380c191a8888","system_id":"levelo_inurba_marseille","lat":43.285742,"lon":5.395004,"is_reserved":false,"is_disabled":false,"rental_uris":{"android":"levelo://app?vid=7871ae4f-93f2-45c4-8d9f-380c191a8888","ios":"levelo://app?vid=7871ae4f-93f2-45c4-8d9f-380c191a8888"},"vehicle_type_id":"4","last_reported":1704208046,"current_range_meters":23200,"station_id":"ce4bh292rcd13ifvqdg0","pricing_plan_id":"free"},{"bike_id":"63ef493a-db4b-4496-ad1b-ba396f3c1336","system_id":"levelo_inurba_marseille","lat":43.336134,"lon":5.410341,"is_reserved":false,"is_disabled":false,"rental_uris":{"android":"levelo://app?vid=63ef493a-db4b-4496-ad1b-ba396f3c1336","ios":"levelo://app?vid=63ef493a-db4b-4496-ad1b-ba396f3c1336"},"vehicle_type_id":"4","last_reported":1704208046,"current_range_meters":27200,"station_id":"ce4bhqh2rcd13ifvqhmg","pricing_plan_id":"free"},{"bike_id":"b2d47e27-8ad4-40f8-94a5-51558d9c1ca6","system_id":"levelo_inurba_marseille","lat":43.304227,"lon":5.412847,"is_reserved":false,"is_disabled":false,"rental_uris":{"android":"levelo://app?vid=b2d47e27-8ad4-40f8-94a5-51558d9c1ca6","ios":"levelo://app?vid=b2d47e27-8ad4-40f8-94a5-51558d9c1ca6"},"vehicle_type_id":"4","last_reported":1704208046,"current_range_meters":22400,"station_id":"ce4bhop2rcd13ifvqh8g","pricing_plan_id":"free"},{"bike_id":"fcf5eff5-55a0-4afa-9285-6bf588544984","system_id":"levelo_inurba_marseille","lat":43.304188,"lon":5.412904,"is_reserved":false,"is_disabled":false,"rental_uris":{"android":"levelo://app?vid=fcf5eff5-55a0-4afa-9285-6bf588544984","ios":"levelo://app?vid=fcf5eff5-55a0-4afa-9285-6bf588544984"},"vehicle_type_id":"4","last_reported":1704208046,"current_range_meters":23600,"station_id":"ce4bhop2rcd13ifvqh8g","pricing_plan_id":"free"},{"bike_id":"8571ddf1-8157-46ba-b747-ea46713afd05","system_id":"levelo_inurba_marseille","lat":43.292791,"lon":5.406519,"is_reserved":false,"is_disabled":false,"rental_uris":{"android":"levelo://app?vid=8571ddf1-8157-46ba-b747-ea46713afd05","ios":"levelo://app?vid=8571ddf1-8157-46ba-b747-ea46713afd05"},"vehicle_type_id":"4","last_reported":1704208046,"current_range_meters":0,"station_id":"","pricing_plan_id":"free"},{"bike_id":"45120a21-f343-45ce-8fb6-e06904f75898","system_id":"levelo_inurba_marseille","lat":43.320045,"lon":5.415046,"is_reserved":false,"is_disabled":false,"rental_uris":{"android":"levelo://app?vid=45120a21-f343-45ce-8fb6-e06904f75898","ios":"levelo://app?vid=45120a21-f343-45ce-8fb6-e06904f75898"},"vehicle_type_id":"4","last_reported":1704208046,"current_range_meters":31200,"station_id":"ce4bhq92rcd13ifvqhkg","pricing_plan_id":"free"},{"bike_id":"e9e342a5-71f4-448a-a0e1-6ff4791eca67","system_id":"levelo_inurba_marseille","lat":43.320045,"lon":5.415046,"is_reserved":false,"is_disabled":false,"rental_uris":{"android":"levelo://app?vid=e9e342a5-71f4-448a-a0e1-6ff4791eca67","ios":"levelo://app?vid=e9e342a5-71f4-448a-a0e1-6ff4791eca67"},"vehicle_type_id":"4","last_reported":1704208046,"current_range_meters":31200,"station_id":"ce4bhq92rcd13ifvqhkg","pricing_plan_id":"free"},{"bike_id":"0cd954a7-bb0c-4e1a-9a17-c2092833f305","system_id":"levelo_inurba_marseille","lat":43.292569,"lon":5.409107,"is_reserved":false,"is_disabled":false,"rental_uris":{"android":"levelo://app?vid=0cd954a7-bb0c-4e1a-9a17-c2092833f305","ios":"levelo://app?vid=0cd954a7-bb0c-4e1a-9a17-c2092833f305"},"vehicle_type_id":"4","last_reported":1704208046,"current_range_meters":19600,"station_id":"ce4bh192rcd13ifvqdc0","pricing_plan_id":"free"},{"bike_id":"28a3be69-201f-4a78-b660-684b3e4a2a16","system_id":"levelo_inurba_marseille","lat":43.292569,"lon":5.409107,"is_reserved":false,"is_disabled":false,"rental_uris":{"android":"levelo://app?vid=28a3be69-201f-4a78-b660-684b3e4a2a16","ios":"levelo://app?vid=28a3be69-201f-4a78-b660-684b3e4a2a16"},"vehicle_type_id":"4","last_reported":1704208046,"current_range_meters":30800,"station_id":"ce4bh192rcd13ifvqdc0","pricing_plan_id":"free"},{"bike_id":"493c529d-4816-4d54-82ca-cf1d3517820d","system_id":"levelo_inurba_marseille","lat":43.325233,"lon":5.414318,"is_reserved":false,"is_disabled":false,"rental_uris":{"android":"levelo://app?vid=493c529d-4816-4d54-82ca-cf1d3517820d","ios":"levelo://app?vid=493c529d-4816-4d54-82ca-cf1d3517820d"},"vehicle_type_id":"4","last_reported":1704208046,"current_range_meters":28400,"station_id":"ce4bhq12rcd13ifvqhhg","pricing_plan_id":"free"},{"bike_id":"93965c1d-cbd8-4a4c-953d-b0143e662572","system_id":"levelo_inurba_marseille","lat":43.303837,"lon":5.418724,"is_reserved":false,"is_disabled":false,"rental_uris":{"android":"levelo://app?vid=93965c1d-cbd8-4a4c-953d-b0143e662572","ios":"levelo://app?vid=93965c1d-cbd8-4a4c-953d-b0143e662572"},"vehicle_type_id":"4","last_reported":1704208046,"current_range_meters":30000,"station_id":"ce4bhop2rcd13ifvqh7g","pricing_plan_id":"free"},{"bike_id":"b13ce715-afe3-4955-a7e8-d85c9743f75a","system_id":"levelo_inurba_marseille","lat":43.303837,"lon":5.418724,"is_reserved":false,"is_disabled":false,"rental_uris":{"android":"levelo://app?vid=b13ce715-afe3-4955-a7e8-d85c9743f75a","ios":"levelo://app?vid=b13ce715-afe3-4955-a7e8-d85c9743f75a"},"vehicle_type_id":"4","last_reported":1704208046,"current_range_meters":14400,"station_id":"ce4bhop2rcd13ifvqh7g","pricing_plan_id":"free"},{"bike_id":"cd951221-ae7b-4416-ac8a-54fcd01a0002","system_id":"levelo_inurba_marseille","lat":43.278401,"lon":5.392152,"is_reserved":false,"is_disabled":false,"rental_uris":{"android":"levelo://app?vid=cd951221-ae7b-4416-ac8a-54fcd01a0002","ios":"levelo://app?vid=cd951221-ae7b-4416-ac8a-54fcd01a0002"},"vehicle_type_id":"4","last_reported":1704208046,"current_range_meters":5600,"station_id":"ce4bhjp2rcd13ifvqga0","pricing_plan_id":"free"},{"bike_id":"c20858e7-3841-41cc-b337-1d8790e2f344","system_id":"levelo_inurba_marseille","lat":43.278399,"lon":5.392139,"is_reserved":false,"is_disabled":false,"rental_uris":{"android":"levelo://app?vid=c20858e7-3841-41cc-b337-1d8790e2f344","ios":"levelo://app?vid=c20858e7-3841-41cc-b337-1d8790e2f344"},"vehicle_type_id":"4","last_reported":1704208046,"current_range_meters":22800,"station_id":"ce4bhjp2rcd13ifvqga0","pricing_plan_id":"free"},{"bike_id":"bc44e5c2-859a-4f52-8034-f1d0fbf34f94","system_id":"levelo_inurba_marseille","lat":43.273609,"lon":5.362708,"is_reserved":false,"is_disabled":false,"rental_uris":{"android":"levelo://app?vid=bc44e5c2-859a-4f52-8034-f1d0fbf34f94","ios":"levelo://app?vid=bc44e5c2-859a-4f52-8034-f1d0fbf34f94"},"vehicle_type_id":"4","last_reported":1704208046,"current_range_meters":26000,"station_id":"ce4bhbh2rcd13ifvqeo0","pricing_plan_id":"free"},{"bike_id":"a444d6e2-8b2f-4c06-a832-f8458cd681a6","system_id":"levelo_inurba_marseille","lat":43.336134,"lon":5.410341,"is_reserved":false,"is_disabled":false,"rental_uris":{"android":"levelo://app?vid=a444d6e2-8b2f-4c06-a832-f8458cd681a6","ios":"levelo://app?vid=a444d6e2-8b2f-4c06-a832-f8458cd681a6"},"vehicle_type_id":"4","last_reported":1704208046,"current_range_meters":28000,"station_id":"ce4bhqh2rcd13ifvqhmg","pricing_plan_id":"free"},{"bike_id":"01c24f12-38a5-422c-98a2-037960a32b2d","system_id":"levelo_inurba_marseille","lat":43.279952,"lon":5.400085,"is_reserved":false,"is_disabled":false,"rental_uris":{"android":"levelo://app?vid=01c24f12-38a5-422c-98a2-037960a32b2d","ios":"levelo://app?vid=01c24f12-38a5-422c-98a2-037960a32b2d"},"vehicle_type_id":"4","last_reported":1704208046,"current_range_meters":17600,"station_id":"ce4bho92rcd13ifvqh4g","pricing_plan_id":"free"},{"bike_id":"32b9db94-93b7-4d91-8862-3d544993f8c0","system_id":"levelo_inurba_marseille","lat":43.279975,"lon":5.40009,"is_reserved":false,"is_disabled":false,"rental_uris":{"android":"levelo://app?vid=32b9db94-93b7-4d91-8862-3d544993f8c0","ios":"levelo://app?vid=32b9db94-93b7-4d91-8862-3d544993f8c0"},"vehicle_type_id":"4","last_reported":1704208046,"current_range_meters":19600,"station_id":"ce4bho92rcd13ifvqh4g","pricing_plan_id":"free"},{"bike_id":"b9e8a940-d070-4c2a-9fb1-ccc839ece1b8","system_id":"levelo_inurba_marseille","lat":43.279952,"lon":5.400085,"is_reserved":false,"is_disabled":false,"rental_uris":{"android":"levelo://app?vid=b9e8a940-d070-4c2a-9fb1-ccc839ece1b8","ios":"levelo://app?vid=b9e8a940-d070-4c2a-9fb1-ccc839ece1b8"},"vehicle_type_id":"4","last_reported":1704208046,"current_range_meters":22800,"station_id":"ce4bho92rcd13ifvqh4g","pricing_plan_id":"free"},{"bike_id":"69452f3b-b641-4092-90d1-5fae53c45d43","system_id":"levelo_inurba_marseille","lat":43.279975,"lon":5.40009,"is_reserved":false,"is_disabled":false,"rental_uris":{"android":"levelo://app?vid=69452f3b-b641-4092-90d1-5fae53c45d43","ios":"levelo://app?vid=69452f3b-b641-4092-90d1-5fae53c45d43"},"vehicle_type_id":"4","last_reported":1704208046,"current_range_meters":29600,"station_id":"ce4bho92rcd13ifvqh4g","pricing_plan_id":"free"},{"bike_id":"b2e64161-bed0-442d-9e12-361d365ea82c","system_id":"levelo_inurba_marseille","lat":43.279952,"lon":5.400085,"is_reserved":false,"is_disabled":false,"rental_uris":{"android":"levelo://app?vid=b2e64161-bed0-442d-9e12-361d365ea82c","ios":"levelo://app?vid=b2e64161-bed0-442d-9e12-361d365ea82c"},"vehicle_type_id":"4","last_reported":1704208046,"current_range_meters":31600,"station_id":"ce4bho92rcd13ifvqh4g","pricing_plan_id":"free"},{"bike_id":"6291ac24-ae51-48d0-9eff-a09f28b49d99","system_id":"levelo_inurba_marseille","lat":43.279952,"lon":5.400085,"is_reserved":false,"is_disabled":false,"rental_uris":{"android":"levelo://app?vid=6291ac24-ae51-48d0-9eff-a09f28b49d99","ios":"levelo://app?vid=6291ac24-ae51-48d0-9eff-a09f28b49d99"},"vehicle_type_id":"4","last_reported":1704208046,"current_range_meters":19200,"station_id":"ce4bho92rcd13ifvqh4g","pricing_plan_id":"free"},{"bike_id":"4760841b-4fd7-4b7d-aef3-782de75b0909","system_id":"levelo_inurba_marseille","lat":43.317121,"lon":5.423936,"is_reserved":false,"is_disabled":false,"rental_uris":{"android":"levelo://app?vid=4760841b-4fd7-4b7d-aef3-782de75b0909","ios":"levelo://app?vid=4760841b-4fd7-4b7d-aef3-782de75b0909"},"vehicle_type_id":"4","last_reported":1704208046,"current_range_meters":21600,"station_id":"ce4bhp92rcd13ifvqhbg","pricing_plan_id":"free"},{"bike_id":"5e3452d0-bbc8-463b-8852-ec98e809d5a0","system_id":"levelo_inurba_marseille","lat":43.317121,"lon":5.423936,"is_reserved":false,"is_disabled":false,"rental_uris":{"android":"levelo://app?vid=5e3452d0-bbc8-463b-8852-ec98e809d5a0","ios":"levelo://app?vid=5e3452d0-bbc8-463b-8852-ec98e809d5a0"},"vehicle_type_id":"4","last_reported":1704208046,"current_range_meters":31600,"station_id":"ce4bhp92rcd13ifvqhbg","pricing_plan_id":"free"},{"bike_id":"c2f050c8-5829-4d0e-9d3b-560f9daeb30d","system_id":"levelo_inurba_marseille","lat":43.310822,"lon":5.424276,"is_reserved":false,"is_disabled":false,"rental_uris":{"android":"levelo://app?vid=c2f050c8-5829-4d0e-9d3b-560f9daeb30d","ios":"levelo://app?vid=c2f050c8-5829-4d0e-9d3b-560f9daeb30d"},"vehicle_type_id":"4","last_reported":1704208046,"current_range_meters":31200,"station_id":"ce4bhp92rcd13ifvqhag","pricing_plan_id":"free"},{"bike_id":"0d84d16a-32f8-4d6b-bf55-738b15288709","system_id":"levelo_inurba_marseille","lat":43.31081,"lon":5.42431,"is_reserved":false,"is_disabled":false,"rental_uris":{"android":"levelo://app?vid=0d84d16a-32f8-4d6b-bf55-738b15288709","ios":"levelo://app?vid=0d84d16a-32f8-4d6b-bf55-738b15288709"},"vehicle_type_id":"4","last_reported":1704208046,"current_range_meters":12000,"station_id":"ce4bhp92rcd13ifvqhag","pricing_plan_id":"free"},{"bike_id":"f3e351f0-7ca3-497e-a450-69da3118abd7","system_id":"levelo_inurba_marseille","lat":43.317147,"lon":5.424069,"is_reserved":false,"is_disabled":false,"rental_uris":{"android":"levelo://app?vid=f3e351f0-7ca3-497e-a450-69da3118abd7","ios":"levelo://app?vid=f3e351f0-7ca3-497e-a450-69da3118abd7"},"vehicle_type_id":"4","last_reported":1704208046,"current_range_meters":24400,"station_id":"ce4bhp92rcd13ifvqhbg","pricing_plan_id":"free"},{"bike_id":"631dbf73-7707-4210-bb68-6471796fccb3","system_id":"levelo_inurba_marseille","lat":43.31085,"lon":5.42433,"is_reserved":false,"is_disabled":false,"rental_uris":{"android":"levelo://app?vid=631dbf73-7707-4210-bb68-6471796fccb3","ios":"levelo://app?vid=631dbf73-7707-4210-bb68-6471796fccb3"},"vehicle_type_id":"4","last_reported":1704208046,"current_range_meters":31200,"station_id":"ce4bhp92rcd13ifvqhag","pricing_plan_id":"free"},{"bike_id":"65179593-0d97-4074-9fea-cfecd33adb90","system_id":"levelo_inurba_marseille","lat":43.31084,"lon":5.42433,"is_reserved":false,"is_disabled":false,"rental_uris":{"android":"levelo://app?vid=65179593-0d97-4074-9fea-cfecd33adb90","ios":"levelo://app?vid=65179593-0d97-4074-9fea-cfecd33adb90"},"vehicle_type_id":"4","last_reported":1704208046,"current_range_meters":16400,"station_id":"ce4bhp92rcd13ifvqhag","pricing_plan_id":"free"},{"bike_id":"36f25244-c073-431e-af5c-31e26c6f0289","system_id":"levelo_inurba_marseille","lat":43.310857,"lon":5.424416,"is_reserved":false,"is_disabled":false,"rental_uris":{"android":"levelo://app?vid=36f25244-c073-431e-af5c-31e26c6f0289","ios":"levelo://app?vid=36f25244-c073-431e-af5c-31e26c6f0289"},"vehicle_type_id":"4","last_reported":1704208046,"current_range_meters":28800,"station_id":"ce4bhp92rcd13ifvqhag","pricing_plan_id":"free"},{"bike_id":"27069f3d-7d0a-4623-9f37-1f04f341a2d7","system_id":"levelo_inurba_marseille","lat":43.31083,"lon":5.42442,"is_reserved":false,"is_disabled":false,"rental_uris":{"android":"levelo://app?vid=27069f3d-7d0a-4623-9f37-1f04f341a2d7","ios":"levelo://app?vid=27069f3d-7d0a-4623-9f37-1f04f341a2d7"},"vehicle_type_id":"4","last_reported":1704208046,"current_range_meters":16400,"station_id":"ce4bhp92rcd13ifvqhag","pricing_plan_id":"free"},{"bike_id":"47f8cb60-186e-4e83-96aa-050d47af2974","system_id":"levelo_inurba_marseille","lat":43.34137,"lon":5.409076,"is_reserved":false,"is_disabled":false,"rental_uris":{"android":"levelo://app?vid=47f8cb60-186e-4e83-96aa-050d47af2974","ios":"levelo://app?vid=47f8cb60-186e-4e83-96aa-050d47af2974"},"vehicle_type_id":"4","last_reported":1704208046,"current_range_meters":12000,"station_id":"ce4bhqh2rcd13ifvqhlg","pricing_plan_id":"free"},{"bike_id":"d7a0f436-4a10-430d-9dfa-fb613b9a9e9c","system_id":"levelo_inurba_marseille","lat":43.340804,"lon":5.410219,"is_reserved":false,"is_disabled":false,"rental_uris":{"android":"levelo://app?vid=d7a0f436-4a10-430d-9dfa-fb613b9a9e9c","ios":"levelo://app?vid=d7a0f436-4a10-430d-9dfa-fb613b9a9e9c"},"vehicle_type_id":"4","last_reported":1704208046,"current_range_meters":19600,"station_id":"ce4bhqh2rcd13ifvqhlg","pricing_plan_id":"free"},{"bike_id":"51caf35f-ddac-48d6-88fc-e2db35cd6ba8","system_id":"levelo_inurba_marseille","lat":43.273129,"lon":5.390725,"is_reserved":false,"is_disabled":false,"rental_uris":{"android":"levelo://app?vid=51caf35f-ddac-48d6-88fc-e2db35cd6ba8","ios":"levelo://app?vid=51caf35f-ddac-48d6-88fc-e2db35cd6ba8"},"vehicle_type_id":"4","last_reported":1704208046,"current_range_meters":12800,"station_id":"ce4bhgp2rcd13ifvqfe0","pricing_plan_id":"free"},{"bike_id":"d6f95a70-c9ed-433f-92b8-5e4ba4dca2e4","system_id":"levelo_inurba_marseille","lat":43.274099,"lon":5.394019,"is_reserved":false,"is_disabled":false,"rental_uris":{"android":"levelo://app?vid=d6f95a70-c9ed-433f-92b8-5e4ba4dca2e4","ios":"levelo://app?vid=d6f95a70-c9ed-433f-92b8-5e4ba4dca2e4"},"vehicle_type_id":"4","last_reported":1704208046,"current_range_meters":30800,"station_id":"ce4bhdp2rcd13ifvqf20","pricing_plan_id":"free"},{"bike_id":"63ffe5be-fdc6-454d-8bdc-d4e9ccf37b71","system_id":"levelo_inurba_marseille","lat":43.27428,"lon":5.39418,"is_reserved":false,"is_disabled":false,"rental_uris":{"android":"levelo://app?vid=63ffe5be-fdc6-454d-8bdc-d4e9ccf37b71","ios":"levelo://app?vid=63ffe5be-fdc6-454d-8bdc-d4e9ccf37b71"},"vehicle_type_id":"4","last_reported":1704208046,"current_range_meters":11600,"station_id":"ce4bhdp2rcd13ifvqf20","pricing_plan_id":"free"},{"bike_id":"31abf2eb-8311-4da7-a93e-c03e0a1f1482","system_id":"levelo_inurba_marseille","lat":43.274103,"lon":5.394016,"is_reserved":false,"is_disabled":false,"rental_uris":{"android":"levelo://app?vid=31abf2eb-8311-4da7-a93e-c03e0a1f1482","ios":"levelo://app?vid=31abf2eb-8311-4da7-a93e-c03e0a1f1482"},"vehicle_type_id":"4","last_reported":1704208046,"current_range_meters":28400,"station_id":"ce4bhdp2rcd13ifvqf20","pricing_plan_id":"free"},{"bike_id":"d97f32bb-ebf7-4775-aba0-4259227bf342","system_id":"levelo_inurba_marseille","lat":43.295523,"lon":5.422926,"is_reserved":false,"is_disabled":false,"rental_uris":{"android":"levelo://app?vid=d97f32bb-ebf7-4775-aba0-4259227bf342","ios":"levelo://app?vid=d97f32bb-ebf7-4775-aba0-4259227bf342"},"vehicle_type_id":"4","last_reported":1704208046,"current_range_meters":30000,"station_id":"ce4bhph2rcd13ifvqhdg","pricing_plan_id":"free"},{"bike_id":"5030ab16-1636-46c2-8778-0bca815c209b","system_id":"levelo_inurba_marseille","lat":43.272116,"lon":5.391747,"is_reserved":false,"is_disabled":false,"rental_uris":{"android":"levelo://app?vid=5030ab16-1636-46c2-8778-0bca815c209b","ios":"levelo://app?vid=5030ab16-1636-46c2-8778-0bca815c209b"},"vehicle_type_id":"4","last_reported":1704208046,"current_range_meters":8000,"station_id":"ce4bhhp2rcd13ifvqfm0","pricing_plan_id":"free"},{"bike_id":"aa5f56cb-8ab9-4a2e-a412-48f9ab65de73","system_id":"levelo_inurba_marseille","lat":43.269467,"lon":5.386439,"is_reserved":false,"is_disabled":false,"rental_uris":{"android":"levelo://app?vid=aa5f56cb-8ab9-4a2e-a412-48f9ab65de73","ios":"levelo://app?vid=aa5f56cb-8ab9-4a2e-a412-48f9ab65de73"},"vehicle_type_id":"4","last_reported":1704208046,"current_range_meters":17600,"station_id":"ce4bhh92rcd13ifvqfh0","pricing_plan_id":"free"},{"bike_id":"485bebeb-92c6-4212-b32c-f56f49c8129b","system_id":"levelo_inurba_marseille","lat":43.269467,"lon":5.386439,"is_reserved":false,"is_disabled":false,"rental_uris":{"android":"levelo://app?vid=485bebeb-92c6-4212-b32c-f56f49c8129b","ios":"levelo://app?vid=485bebeb-92c6-4212-b32c-f56f49c8129b"},"vehicle_type_id":"4","last_reported":1704208046,"current_range_meters":26800,"station_id":"ce4bhh92rcd13ifvqfh0","pricing_plan_id":"free"},{"bike_id":"9861d4dc-7691-46e1-9fe6-37b13b528549","system_id":"levelo_inurba_marseille","lat":43.269467,"lon":5.386439,"is_reserved":false,"is_disabled":false,"rental_uris":{"android":"levelo://app?vid=9861d4dc-7691-46e1-9fe6-37b13b528549","ios":"levelo://app?vid=9861d4dc-7691-46e1-9fe6-37b13b528549"},"vehicle_type_id":"4","last_reported":1704208046,"current_range_meters":27600,"station_id":"ce4bhh92rcd13ifvqfh0","pricing_plan_id":"free"},{"bike_id":"7e432e9d-55d3-4fba-822f-e80ea86465d8","system_id":"levelo_inurba_marseille","lat":43.269319,"lon":5.389397,"is_reserved":false,"is_disabled":false,"rental_uris":{"android":"levelo://app?vid=7e432e9d-55d3-4fba-822f-e80ea86465d8","ios":"levelo://app?vid=7e432e9d-55d3-4fba-822f-e80ea86465d8"},"vehicle_type_id":"4","last_reported":1704208046,"current_range_meters":25200,"station_id":"ce4bhhh2rcd13ifvqfl0","pricing_plan_id":"free"},{"bike_id":"6beee4bc-9e90-4161-be63-15ce7dd5d717","system_id":"levelo_inurba_marseille","lat":43.26684,"lon":5.38266,"is_reserved":false,"is_disabled":false,"rental_uris":{"android":"levelo://app?vid=6beee4bc-9e90-4161-be63-15ce7dd5d717","ios":"levelo://app?vid=6beee4bc-9e90-4161-be63-15ce7dd5d717"},"vehicle_type_id":"4","last_reported":1704208046,"current_range_meters":31200,"station_id":"ce4bhg92rcd13ifvqf90","pricing_plan_id":"free"},{"bike_id":"5c3ff558-bdff-4a53-a387-7ee7228a9144","system_id":"levelo_inurba_marseille","lat":43.26681,"lon":5.382694,"is_reserved":false,"is_disabled":false,"rental_uris":{"android":"levelo://app?vid=5c3ff558-bdff-4a53-a387-7ee7228a9144","ios":"levelo://app?vid=5c3ff558-bdff-4a53-a387-7ee7228a9144"},"vehicle_type_id":"4","last_reported":1704208046,"current_range_meters":32000,"station_id":"ce4bhg92rcd13ifvqf90","pricing_plan_id":"free"},{"bike_id":"2c9b8f30-e007-4d80-b81d-c49d909fc04d","system_id":"levelo_inurba_marseille","lat":43.2656,"lon":5.3728,"is_reserved":false,"is_disabled":false,"rental_uris":{"android":"levelo://app?vid=2c9b8f30-e007-4d80-b81d-c49d909fc04d","ios":"levelo://app?vid=2c9b8f30-e007-4d80-b81d-c49d909fc04d"},"vehicle_type_id":"4","last_reported":1704208046,"current_range_meters":16800,"station_id":"ce4bhg12rcd13ifvqf70","pricing_plan_id":"free"},{"bike_id":"5a669397-3d7e-4ea5-ac52-98ad619398b4","system_id":"levelo_inurba_marseille","lat":43.2668,"lon":5.38266,"is_reserved":false,"is_disabled":false,"rental_uris":{"android":"levelo://app?vid=5a669397-3d7e-4ea5-ac52-98ad619398b4","ios":"levelo://app?vid=5a669397-3d7e-4ea5-ac52-98ad619398b4"},"vehicle_type_id":"4","last_reported":1704208046,"current_range_meters":31200,"station_id":"ce4bhg92rcd13ifvqf90","pricing_plan_id":"free"},{"bike_id":"8e6cbcf7-c4be-4889-bc29-dae010c820e1","system_id":"levelo_inurba_marseille","lat":43.265597,"lon":5.372963,"is_reserved":false,"is_disabled":false,"rental_uris":{"android":"levelo://app?vid=8e6cbcf7-c4be-4889-bc29-dae010c820e1","ios":"levelo://app?vid=8e6cbcf7-c4be-4889-bc29-dae010c820e1"},"vehicle_type_id":"4","last_reported":1704208046,"current_range_meters":25200,"station_id":"ce4bhg12rcd13ifvqf70","pricing_plan_id":"free"},{"bike_id":"53beda1f-c4ee-4912-b9a0-6a11c2007eb2","system_id":"levelo_inurba_marseille","lat":43.26559,"lon":5.37288,"is_reserved":false,"is_disabled":false,"rental_uris":{"android":"levelo://app?vid=53beda1f-c4ee-4912-b9a0-6a11c2007eb2","ios":"levelo://app?vid=53beda1f-c4ee-4912-b9a0-6a11c2007eb2"},"vehicle_type_id":"4","last_reported":1704208046,"current_range_meters":8000,"station_id":"ce4bhg12rcd13ifvqf70","pricing_plan_id":"free"},{"bike_id":"34ff520e-3dce-4f9f-91f3-64d97398e7af","system_id":"levelo_inurba_marseille","lat":43.26679,"lon":5.38269,"is_reserved":false,"is_disabled":false,"rental_uris":{"android":"levelo://app?vid=34ff520e-3dce-4f9f-91f3-64d97398e7af","ios":"levelo://app?vid=34ff520e-3dce-4f9f-91f3-64d97398e7af"},"vehicle_type_id":"4","last_reported":1704208046,"current_range_meters":31200,"station_id":"ce4bhg92rcd13ifvqf90","pricing_plan_id":"free"},{"bike_id":"db91a8c2-2ceb-4d2d-be12-fdd6eea6cc92","system_id":"levelo_inurba_marseille","lat":43.26678,"lon":5.38264,"is_reserved":false,"is_disabled":false,"rental_uris":{"android":"levelo://app?vid=db91a8c2-2ceb-4d2d-be12-fdd6eea6cc92","ios":"levelo://app?vid=db91a8c2-2ceb-4d2d-be12-fdd6eea6cc92"},"vehicle_type_id":"4","last_reported":1704208046,"current_range_meters":24800,"station_id":"ce4bhg92rcd13ifvqf90","pricing_plan_id":"free"},{"bike_id":"e7eddb2f-e2c9-47ad-b39a-faa09ae6cda1","system_id":"levelo_inurba_marseille","lat":43.26557,"lon":5.3729,"is_reserved":false,"is_disabled":false,"rental_uris":{"android":"levelo://app?vid=e7eddb2f-e2c9-47ad-b39a-faa09ae6cda1","ios":"levelo://app?vid=e7eddb2f-e2c9-47ad-b39a-faa09ae6cda1"},"vehicle_type_id":"4","last_reported":1704208046,"current_range_meters":31200,"station_id":"ce4bhg12rcd13ifvqf70","pricing_plan_id":"free"},{"bike_id":"cd6f2f3e-9585-43f5-b881-381b3bdf7910","system_id":"levelo_inurba_marseille","lat":43.26556,"lon":5.37289,"is_reserved":false,"is_disabled":false,"rental_uris":{"android":"levelo://app?vid=cd6f2f3e-9585-43f5-b881-381b3bdf7910","ios":"levelo://app?vid=cd6f2f3e-9585-43f5-b881-381b3bdf7910"},"vehicle_type_id":"4","last_reported":1704208046,"current_range_meters":30000,"station_id":"ce4bhg12rcd13ifvqf70","pricing_plan_id":"free"},{"bike_id":"7c3c75f3-2f79-4900-bc2d-1b5579762775","system_id":"levelo_inurba_marseille","lat":43.265714,"lon":5.372891,"is_reserved":false,"is_disabled":false,"rental_uris":{"android":"levelo://app?vid=7c3c75f3-2f79-4900-bc2d-1b5579762775","ios":"levelo://app?vid=7c3c75f3-2f79-4900-bc2d-1b5579762775"},"vehicle_type_id":"4","last_reported":1704208046,"current_range_meters":31200,"station_id":"ce4bhg12rcd13ifvqf70","pricing_plan_id":"free"},{"bike_id":"e14bc4a6-c07b-47be-b599-c1b9be32a9dc","system_id":"levelo_inurba_marseille","lat":43.265714,"lon":5.372891,"is_reserved":false,"is_disabled":false,"rental_uris":{"android":"levelo://app?vid=e14bc4a6-c07b-47be-b599-c1b9be32a9dc","ios":"levelo://app?vid=e14bc4a6-c07b-47be-b599-c1b9be32a9dc"},"vehicle_type_id":"4","last_reported":1704208046,"current_range_meters":31200,"station_id":"ce4bhg12rcd13ifvqf70","pricing_plan_id":"free"},{"bike_id":"2166b04b-f1a7-45ce-98ff-0c701103b92e","system_id":"levelo_inurba_marseille","lat":43.265547,"lon":5.372866,"is_reserved":false,"is_disabled":false,"rental_uris":{"android":"levelo://app?vid=2166b04b-f1a7-45ce-98ff-0c701103b92e","ios":"levelo://app?vid=2166b04b-f1a7-45ce-98ff-0c701103b92e"},"vehicle_type_id":"4","last_reported":1704208046,"current_range_meters":30800,"station_id":"ce4bhg12rcd13ifvqf70","pricing_plan_id":"free"},{"bike_id":"cce0e60c-e2c2-456a-96ca-f0a93fb4d8bd","system_id":"levelo_inurba_marseille","lat":43.26681,"lon":5.382694,"is_reserved":false,"is_disabled":false,"rental_uris":{"android":"levelo://app?vid=cce0e60c-e2c2-456a-96ca-f0a93fb4d8bd","ios":"levelo://app?vid=cce0e60c-e2c2-456a-96ca-f0a93fb4d8bd"},"vehicle_type_id":"4","last_reported":1704208046,"current_range_meters":31200,"station_id":"ce4bhg92rcd13ifvqf90","pricing_plan_id":"free"},{"bike_id":"0ad653b2-b3f3-407a-b5c6-cadc5064e792","system_id":"levelo_inurba_marseille","lat":43.265532,"lon":5.372868,"is_reserved":false,"is_disabled":false,"rental_uris":{"android":"levelo://app?vid=0ad653b2-b3f3-407a-b5c6-cadc5064e792","ios":"levelo://app?vid=0ad653b2-b3f3-407a-b5c6-cadc5064e792"},"vehicle_type_id":"4","last_reported":1704208046,"current_range_meters":23600,"station_id":"","pricing_plan_id":"free"},{"bike_id":"750eb00c-8da8-4b99-a015-b301f061e2e4","system_id":"levelo_inurba_marseille","lat":43.26552,"lon":5.37284,"is_reserved":false,"is_disabled":false,"rental_uris":{"android":"levelo://app?vid=750eb00c-8da8-4b99-a015-b301f061e2e4","ios":"levelo://app?vid=750eb00c-8da8-4b99-a015-b301f061e2e4"},"vehicle_type_id":"4","last_reported":1704208046,"current_range_meters":800,"station_id":"ce4bhg12rcd13ifvqf70","pricing_plan_id":"free"},{"bike_id":"311ad92f-d5ba-419f-bfdd-b31627b40f3c","system_id":"levelo_inurba_marseille","lat":43.2655,"lon":5.37287,"is_reserved":false,"is_disabled":false,"rental_uris":{"android":"levelo://app?vid=311ad92f-d5ba-419f-bfdd-b31627b40f3c","ios":"levelo://app?vid=311ad92f-d5ba-419f-bfdd-b31627b40f3c"},"vehicle_type_id":"4","last_reported":1704208046,"current_range_meters":21200,"station_id":"ce4bhg12rcd13ifvqf70","pricing_plan_id":"free"},{"bike_id":"6d56746b-555d-485f-9bc0-520c69e5e465","system_id":"levelo_inurba_marseille","lat":43.27991,"lon":5.41657,"is_reserved":false,"is_disabled":false,"rental_uris":{"android":"levelo://app?vid=6d56746b-555d-485f-9bc0-520c69e5e465","ios":"levelo://app?vid=6d56746b-555d-485f-9bc0-520c69e5e465"},"vehicle_type_id":"4","last_reported":1704208046,"current_range_meters":31200,"station_id":"ce4bho12rcd13ifvqh1g","pricing_plan_id":"free"},{"bike_id":"eb71eee8-9296-480a-a031-8d136b3bb877","system_id":"levelo_inurba_marseille","lat":43.27996,"lon":5.416624,"is_reserved":false,"is_disabled":false,"rental_uris":{"android":"levelo://app?vid=eb71eee8-9296-480a-a031-8d136b3bb877","ios":"levelo://app?vid=eb71eee8-9296-480a-a031-8d136b3bb877"},"vehicle_type_id":"4","last_reported":1704208046,"current_range_meters":31200,"station_id":"ce4bho12rcd13ifvqh1g","pricing_plan_id":"free"},{"bike_id":"7552dc67-1782-4263-8825-10c5b00b31be","system_id":"levelo_inurba_marseille","lat":43.27993,"lon":5.41667,"is_reserved":false,"is_disabled":false,"rental_uris":{"android":"levelo://app?vid=7552dc67-1782-4263-8825-10c5b00b31be","ios":"levelo://app?vid=7552dc67-1782-4263-8825-10c5b00b31be"},"vehicle_type_id":"4","last_reported":1704208046,"current_range_meters":28800,"station_id":"ce4bho12rcd13ifvqh1g","pricing_plan_id":"free"},{"bike_id":"232278ef-ebe5-4972-9ad5-51eea9bb58e0","system_id":"levelo_inurba_marseille","lat":43.267966,"lon":5.393976,"is_reserved":false,"is_disabled":false,"rental_uris":{"android":"levelo://app?vid=232278ef-ebe5-4972-9ad5-51eea9bb58e0","ios":"levelo://app?vid=232278ef-ebe5-4972-9ad5-51eea9bb58e0"},"vehicle_type_id":"4","last_reported":1704208046,"current_range_meters":30000,"station_id":"ce4bhh12rcd13ifvqfg0","pricing_plan_id":"free"},{"bike_id":"6c07c2d1-b6a4-455c-bccb-f97ecba2c0ea","system_id":"levelo_inurba_marseille","lat":43.265714,"lon":5.372891,"is_reserved":false,"is_disabled":false,"rental_uris":{"android":"levelo://app?vid=6c07c2d1-b6a4-455c-bccb-f97ecba2c0ea","ios":"levelo://app?vid=6c07c2d1-b6a4-455c-bccb-f97ecba2c0ea"},"vehicle_type_id":"4","last_reported":1704208046,"current_range_meters":29200,"station_id":"ce4bhg12rcd13ifvqf70","pricing_plan_id":"free"},{"bike_id":"ebdf9fdc-46a2-4015-84f8-3397b3d6f947","system_id":"levelo_inurba_marseille","lat":43.265714,"lon":5.372891,"is_reserved":false,"is_disabled":false,"rental_uris":{"android":"levelo://app?vid=ebdf9fdc-46a2-4015-84f8-3397b3d6f947","ios":"levelo://app?vid=ebdf9fdc-46a2-4015-84f8-3397b3d6f947"},"vehicle_type_id":"4","last_reported":1704208046,"current_range_meters":28400,"station_id":"ce4bhg12rcd13ifvqf70","pricing_plan_id":"free"},{"bike_id":"bf84978e-67d6-46d5-8bac-a545cce4ccf4","system_id":"levelo_inurba_marseille","lat":43.267966,"lon":5.393976,"is_reserved":false,"is_disabled":false,"rental_uris":{"android":"levelo://app?vid=bf84978e-67d6-46d5-8bac-a545cce4ccf4","ios":"levelo://app?vid=bf84978e-67d6-46d5-8bac-a545cce4ccf4"},"vehicle_type_id":"4","last_reported":1704208046,"current_range_meters":17600,"station_id":"ce4bhh12rcd13ifvqfg0","pricing_plan_id":"free"},{"bike_id":"4e7b82a4-f271-4a72-bdbd-460d1cfbd58d","system_id":"levelo_inurba_marseille","lat":43.27181,"lon":5.404997,"is_reserved":false,"is_disabled":false,"rental_uris":{"android":"levelo://app?vid=4e7b82a4-f271-4a72-bdbd-460d1cfbd58d","ios":"levelo://app?vid=4e7b82a4-f271-4a72-bdbd-460d1cfbd58d"},"vehicle_type_id":"4","last_reported":1704208046,"current_range_meters":5200,"station_id":"","pricing_plan_id":"free"},{"bike_id":"460910cc-aef6-4f7e-be46-c5e79eaea7ec","system_id":"levelo_inurba_marseille","lat":43.308051,"lon":5.43527,"is_reserved":false,"is_disabled":false,"rental_uris":{"android":"levelo://app?vid=460910cc-aef6-4f7e-be46-c5e79eaea7ec","ios":"levelo://app?vid=460910cc-aef6-4f7e-be46-c5e79eaea7ec"},"vehicle_type_id":"4","last_reported":1704208046,"current_range_meters":14400,"station_id":"ce4bhph2rcd13ifvqheg","pricing_plan_id":"free"},{"bike_id":"5c05b849-2463-4263-b883-be7f7993b67d","system_id":"levelo_inurba_marseille","lat":43.265569,"lon":5.390047,"is_reserved":false,"is_disabled":false,"rental_uris":{"android":"levelo://app?vid=5c05b849-2463-4263-b883-be7f7993b67d","ios":"levelo://app?vid=5c05b849-2463-4263-b883-be7f7993b67d"},"vehicle_type_id":"4","last_reported":1704208046,"current_range_meters":16400,"station_id":"ce4bhe12rcd13ifvqf30","pricing_plan_id":"free"},{"bike_id":"4f4c60e9-6d3a-4510-b456-be92ff6ee5c0","system_id":"levelo_inurba_marseille","lat":43.265569,"lon":5.390047,"is_reserved":false,"is_disabled":false,"rental_uris":{"android":"levelo://app?vid=4f4c60e9-6d3a-4510-b456-be92ff6ee5c0","ios":"levelo://app?vid=4f4c60e9-6d3a-4510-b456-be92ff6ee5c0"},"vehicle_type_id":"4","last_reported":1704208046,"current_range_meters":31200,"station_id":"ce4bhe12rcd13ifvqf30","pricing_plan_id":"free"},{"bike_id":"4acdea58-b679-4180-9812-65bb718e8387","system_id":"levelo_inurba_marseille","lat":43.308051,"lon":5.43527,"is_reserved":false,"is_disabled":false,"rental_uris":{"android":"levelo://app?vid=4acdea58-b679-4180-9812-65bb718e8387","ios":"levelo://app?vid=4acdea58-b679-4180-9812-65bb718e8387"},"vehicle_type_id":"4","last_reported":1704208046,"current_range_meters":32000,"station_id":"ce4bhph2rcd13ifvqheg","pricing_plan_id":"free"},{"bike_id":"17e32eb9-de06-4f75-b15a-91442d8f4bc2","system_id":"levelo_inurba_marseille","lat":43.265569,"lon":5.390047,"is_reserved":false,"is_disabled":false,"rental_uris":{"android":"levelo://app?vid=17e32eb9-de06-4f75-b15a-91442d8f4bc2","ios":"levelo://app?vid=17e32eb9-de06-4f75-b15a-91442d8f4bc2"},"vehicle_type_id":"4","last_reported":1704208046,"current_range_meters":27600,"station_id":"ce4bhe12rcd13ifvqf30","pricing_plan_id":"free"},{"bike_id":"dac5ea74-92f7-462e-b536-31f322bb01c0","system_id":"levelo_inurba_marseille","lat":43.331893,"lon":5.431791,"is_reserved":false,"is_disabled":false,"rental_uris":{"android":"levelo://app?vid=dac5ea74-92f7-462e-b536-31f322bb01c0","ios":"levelo://app?vid=dac5ea74-92f7-462e-b536-31f322bb01c0"},"vehicle_type_id":"4","last_reported":1704208046,"current_range_meters":3200,"station_id":"","pricing_plan_id":"free"},{"bike_id":"90caed8c-e7e5-4b84-9fca-db1586be06cd","system_id":"levelo_inurba_marseille","lat":43.261782,"lon":5.374515,"is_reserved":false,"is_disabled":false,"rental_uris":{"android":"levelo://app?vid=90caed8c-e7e5-4b84-9fca-db1586be06cd","ios":"levelo://app?vid=90caed8c-e7e5-4b84-9fca-db1586be06cd"},"vehicle_type_id":"4","last_reported":1704208046,"current_range_meters":22400,"station_id":"ce4bhgp2rcd13ifvqfc0","pricing_plan_id":"free"},{"bike_id":"dcd9bc56-0cfe-4607-ab5b-34a443076388","system_id":"levelo_inurba_marseille","lat":43.261782,"lon":5.374515,"is_reserved":false,"is_disabled":false,"rental_uris":{"android":"levelo://app?vid=dcd9bc56-0cfe-4607-ab5b-34a443076388","ios":"levelo://app?vid=dcd9bc56-0cfe-4607-ab5b-34a443076388"},"vehicle_type_id":"4","last_reported":1704208046,"current_range_meters":14400,"station_id":"ce4bhgp2rcd13ifvqfc0","pricing_plan_id":"free"},{"bike_id":"57aa4e80-760d-4e3c-a199-3d58309f5f3c","system_id":"levelo_inurba_marseille","lat":43.261782,"lon":5.374515,"is_reserved":false,"is_disabled":false,"rental_uris":{"android":"levelo://app?vid=57aa4e80-760d-4e3c-a199-3d58309f5f3c","ios":"levelo://app?vid=57aa4e80-760d-4e3c-a199-3d58309f5f3c"},"vehicle_type_id":"4","last_reported":1704208046,"current_range_meters":32000,"station_id":"ce4bhgp2rcd13ifvqfc0","pricing_plan_id":"free"},{"bike_id":"019c7a05-8505-48d8-8bae-87ff678ffcde","system_id":"levelo_inurba_marseille","lat":43.261782,"lon":5.374515,"is_reserved":false,"is_disabled":false,"rental_uris":{"android":"levelo://app?vid=019c7a05-8505-48d8-8bae-87ff678ffcde","ios":"levelo://app?vid=019c7a05-8505-48d8-8bae-87ff678ffcde"},"vehicle_type_id":"4","last_reported":1704208046,"current_range_meters":28800,"station_id":"ce4bhgp2rcd13ifvqfc0","pricing_plan_id":"free"},{"bike_id":"dc321a6b-990e-4f28-aca5-76079bcc643a","system_id":"levelo_inurba_marseille","lat":43.317104,"lon":5.436818,"is_reserved":false,"is_disabled":false,"rental_uris":{"android":"levelo://app?vid=dc321a6b-990e-4f28-aca5-76079bcc643a","ios":"levelo://app?vid=dc321a6b-990e-4f28-aca5-76079bcc643a"},"vehicle_type_id":"4","last_reported":1704208046,"current_range_meters":16800,"station_id":"ce4bhp92rcd13ifvqhcg","pricing_plan_id":"free"},{"bike_id":"85727023-a47b-40b0-834e-afaf01bc7c02","system_id":"levelo_inurba_marseille","lat":43.317104,"lon":5.436818,"is_reserved":false,"is_disabled":false,"rental_uris":{"android":"levelo://app?vid=85727023-a47b-40b0-834e-afaf01bc7c02","ios":"levelo://app?vid=85727023-a47b-40b0-834e-afaf01bc7c02"},"vehicle_type_id":"4","last_reported":1704208046,"current_range_meters":4400,"station_id":"ce4bhp92rcd13ifvqhcg","pricing_plan_id":"free"},{"bike_id":"89d863c2-4116-4425-b997-95b0c8b3fa36","system_id":"levelo_inurba_marseille","lat":43.31718,"lon":5.43705,"is_reserved":false,"is_disabled":false,"rental_uris":{"android":"levelo://app?vid=89d863c2-4116-4425-b997-95b0c8b3fa36","ios":"levelo://app?vid=89d863c2-4116-4425-b997-95b0c8b3fa36"},"vehicle_type_id":"4","last_reported":1704208046,"current_range_meters":18000,"station_id":"ce4bhp92rcd13ifvqhcg","pricing_plan_id":"free"},{"bike_id":"2e758f88-95d0-4920-a144-f661fe30c570","system_id":"levelo_inurba_marseille","lat":43.267959,"lon":5.402685,"is_reserved":false,"is_disabled":false,"rental_uris":{"android":"levelo://app?vid=2e758f88-95d0-4920-a144-f661fe30c570","ios":"levelo://app?vid=2e758f88-95d0-4920-a144-f661fe30c570"},"vehicle_type_id":"4","last_reported":1704208046,"current_range_meters":25600,"station_id":"ce501612rcd8frsf0b60","pricing_plan_id":"free"},{"bike_id":"561232c7-db97-4857-969f-2ad8276e1366","system_id":"levelo_inurba_marseille","lat":43.292724,"lon":5.401131,"is_reserved":false,"is_disabled":false,"rental_uris":{"android":"levelo://app?vid=561232c7-db97-4857-969f-2ad8276e1366","ios":"levelo://app?vid=561232c7-db97-4857-969f-2ad8276e1366"},"vehicle_type_id":"4","last_reported":1704208046,"current_range_meters":2400,"station_id":"ce4bh312rcd13ifvqdk0","pricing_plan_id":"free"},{"bike_id":"5d5cd4a8-d4f3-4f08-b05b-27c3df5c9b54","system_id":"levelo_inurba_marseille","lat":43.2651,"lon":5.39469,"is_reserved":false,"is_disabled":false,"rental_uris":{"android":"levelo://app?vid=5d5cd4a8-d4f3-4f08-b05b-27c3df5c9b54","ios":"levelo://app?vid=5d5cd4a8-d4f3-4f08-b05b-27c3df5c9b54"},"vehicle_type_id":"4","last_reported":1704208046,"current_range_meters":20000,"station_id":"ce4bhi12rcd13ifvqfq0","pricing_plan_id":"free"},