{"last_updated":1773862844,"ttl":60,"version":"2.2","data":{"bikes":[{"bike_id":"9dc44536-acfb-4062-b142-f86cdbccbd82","system_id":"levelo_inurba_marseille","lat":43.25359,"lon":5.42167,"is_reserved":false,"is_disabled":false,"rental_uris":{"android":"levelo://app?vid=9dc44536-acfb-4062-b142-f86cdbccbd82","ios":"levelo://app?vid=9dc44536-acfb-4062-b142-f86cdbccbd82"},"vehicle_type_id":"4","last_reported":1773862845,"current_range_meters":2800,"station_id":"st_d2m65c5bi1j21697t3ng","pricing_plan_id":"cebpf4jnsgd1na2vs0mg"},{"bike_id":"d1e94812-6879-40ef-95d9-a5391f767197","system_id":"levelo_inurba_marseille","lat":43.29201,"lon":5.35782,"is_reserved":false,"is_disabled":false,"rental_uris":{"android":"levelo://app?vid=d1e94812-6879-40ef-95d9-a5391f767197","ios":"levelo://app?vid=d1e94812-6879-40ef-95d9-a5391f767197"},"vehicle_type_id":"4","last_reported":1773862845,"current_range_meters":2800,"station_id":"ce4bhb12rcd13ifvqel0","pricing_plan_id":"cebpf4jnsgd1na2vs0mg"},{"bike_id":"46ef4082-49ce-4ed5-b6b7-83f6eed5d90f","system_id":"levelo_inurba_marseille","lat":43.25338,"lon":5.42159,"is_reserved":false,"is_disabled":false,"rental_uris":{"android":"levelo://app?vid=46ef4082-49ce-4ed5-b6b7-83f6eed5d90f","ios":"levelo://app?vid=46ef4082-49ce-4ed5-b6b7-83f6eed5d90f"},"vehicle_type_id":"4","last_reported":1773862845,"current_range_meters":2800,"station_id":"st_d2m65c5bi1j21697t3ng","pricing_plan_id":"cebpf4jnsgd1na2vs0mg"},{"bike_id":"3d612d84-311a-48e8-a6f0-086dd9863d34","system_id":"levelo_inurba_marseille","lat":43.26782,"lon":5.39415,"is_reserved":false,"is_disabled":false,"rental_uris":{"android":"levelo://app?vid=3d612d84-311a-48e8-a6f0-086dd9863d34","ios":"levelo://app?vid=3d612d84-311a-48e8-a6f0-086dd9863d34"},"vehicle_type_id":"4","last_reported":1773862845,"current_range_meters":2800,"station_id":"ce4bhh12rcd13ifvqfg0","pricing_plan_id":"cebpf4jnsgd1na2vs0mg"},{"bike_id":"d1815d35-1cb0-4563-b2e9-c8af65692de0","system_id":"levelo_inurba_marseille","lat":43.314893,"lon":5.372963,"is_reserved":false,"is_disabled":false,"rental_uris":{"android":"levelo://app?vid=d1815d35-1cb0-4563-b2e9-c8af65692de0","ios":"levelo://app?vid=d1815d35-1cb0-4563-b2e9-c8af65692de0"},"vehicle_type_id":"4","last_reported":1773862845,"current_range_meters":2800,"station_id":"ce4bgt12rcd13ifvqcd0","pricing_plan_id":"cebpf4jnsgd1na2vs0mg"},{"bike_id":"4e4ba8f7-60dc-4959-9a01-6da668abb084","system_id":"levelo_inurba_marseille","lat":43.21187,"lon":5.35082,"is_reserved":false,"is_disabled":false,"rental_uris":{"android":"levelo://app?vid=4e4ba8f7-60dc-4959-9a01-6da668abb084","ios":"levelo://app?vid=4e4ba8f7-60dc-4959-9a01-6da668abb084"},"vehicle_type_id":"4","last_reported":1773862845,"current_range_meters":2800,"station_id":"st_cvj6sg6p6f1abm77japg","pricing_plan_id":"cebpf4jnsgd1na2vs0mg"},{"bike_id":"fae98e9a-2ca7-4fb7-8b98-a4d3430a57f0","system_id":"levelo_inurba_marseille","lat":43.31014,"lon":5.39372,"is_reserved":false,"is_disabled":false,"rental_uris":{"android":"levelo://app?vid=fae98e9a-2ca7-4fb7-8b98-a4d3430a57f0","ios":"levelo://app?vid=fae98e9a-2ca7-4fb7-8b98-a4d3430a57f0"},"vehicle_type_id":"4","last_reported":1773862845,"current_range_meters":2800,"station_id":"","pricing_plan_id":"cebpf4jnsgd1na2vs0mg"},{"bike_id":"aca0bfed-1401-456a-bb59-d2e656e0d7c4","system_id":"levelo_inurba_marseille","lat":43.2927,"lon":5.38433,"is_reserved":false,"is_disabled":false,"rental_uris":{"android":"levelo://app?vid=aca0bfed-1401-456a-bb59-d2e656e0d7c4","ios":"levelo://app?vid=aca0bfed-1401-456a-bb59-d2e656e0d7c4"},"vehicle_type_id":"4","last_reported":1773862845,"current_range_meters":2800,"station_id":"ce4bh692rcd13ifvqea0","pricing_plan_id":"cebpf4jnsgd1na2vs0mg"},{"bike_id":"6e81f52d-f411-4630-af5d-b7eb5c1eeaf7","system_id":"levelo_inurba_marseille","lat":43.3042,"lon":5.41284,"is_reserved":false,"is_disabled":false,"rental_uris":{"android":"levelo://app?vid=6e81f52d-f411-4630-af5d-b7eb5c1eeaf7","ios":"levelo://app?vid=6e81f52d-f411-4630-af5d-b7eb5c1eeaf7"},"vehicle_type_id":"4","last_reported":1773862845,"current_range_meters":2800,"station_id":"ce4bhop2rcd13ifvqh8g","pricing_plan_id":"cebpf4jnsgd1na2vs0mg"},{"bike_id":"278b8c85-4f62-4a9f-b3cd-a772131ca316","system_id":"levelo_inurba_marseille","lat":43.27998,"lon":5.40013,"is_reserved":false,"is_disabled":false,"rental_uris":{"android":"levelo://app?vid=278b8c85-4f62-4a9f-b3cd-a772131ca316","ios":"levelo://app?vid=278b8c85-4f62-4a9f-b3cd-a772131ca316"},"vehicle_type_id":"4","last_reported":1773862845,"current_range_meters":2800,"station_id":"ce4bho92rcd13ifvqh4g","pricing_plan_id":"cebpf4jnsgd1na2vs0mg"},{"bike_id":"8f143a65-bec5-4ad2-b44d-c1cad1a39fc2","system_id":"levelo_inurba_marseille","lat":43.29799,"lon":5.39343,"is_reserved":false,"is_disabled":false,"rental_uris":{"android":"levelo://app?vid=8f143a65-bec5-4ad2-b44d-c1cad1a39fc2","ios":"levelo://app?vid=8f143a65-bec5-4ad2-b44d-c1cad1a39fc2"},"vehicle_type_id":"4","last_reported":1773862845,"current_range_meters":2800,"station_id":"chh1huq6cuj3fo74tm60","pricing_plan_id":"cebpf4jnsgd1na2vs0mg"},{"bike_id":"6996fd49-585c-45c7-a430-98aa0a5c7977","system_id":"levelo_inurba_marseille","lat":43.28154,"lon":5.42643,"is_reserved":false,"is_disabled":false,"rental_uris":{"android":"levelo://app?vid=6996fd49-585c-45c7-a430-98aa0a5c7977","ios":"levelo://app?vid=6996fd49-585c-45c7-a430-98aa0a5c7977"},"vehicle_type_id":"4","last_reported":1773862845,"current_range_meters":2800,"station_id":"ce4bhnh2rcd13ifvqgug","pricing_plan_id":"cebpf4jnsgd1na2vs0mg"},{"bike_id":"03524ff5-52db-40b1-b2a7-d4e346bf9739","system_id":"levelo_inurba_marseille","lat":43.27562,"lon":5.38431,"is_reserved":false,"is_disabled":false,"rental_uris":{"android":"levelo://app?vid=03524ff5-52db-40b1-b2a7-d4e346bf9739","ios":"levelo://app?vid=03524ff5-52db-40b1-b2a7-d4e346bf9739"},"vehicle_type_id":"4","last_reported":1773862845,"current_range_meters":2800,"station_id":"ce4bhh92rcd13ifvqfi0","pricing_plan_id":"cebpf4jnsgd1na2vs0mg"},{"bike_id":"a1cfb408-da52-4413-a934-9b5c4a9189a4","system_id":"levelo_inurba_marseille","lat":43.29584,"lon":5.37524,"is_reserved":false,"is_disabled":false,"rental_uris":{"android":"levelo://app?vid=a1cfb408-da52-4413-a934-9b5c4a9189a4","ios":"levelo://app?vid=a1cfb408-da52-4413-a934-9b5c4a9189a4"},"vehicle_type_id":"4","last_reported":1773862845,"current_range_meters":2800,"station_id":"ce4bgh92rcd13ifvqb50","pricing_plan_id":"cebpf4jnsgd1na2vs0mg"},{"bike_id":"1fb19db4-5d4f-41f0-9ea9-386e0f28c193","system_id":"levelo_inurba_marseille","lat":43.29534,"lon":5.38541,"is_reserved":false,"is_disabled":false,"rental_uris":{"android":"levelo://app?vid=1fb19db4-5d4f-41f0-9ea9-386e0f28c193","ios":"levelo://app?vid=1fb19db4-5d4f-41f0-9ea9-386e0f28c193"},"vehicle_type_id":"4","last_reported":1773862845,"current_range_meters":2800,"station_id":"ce4bgih2rcd13ifvqba0","pricing_plan_id":"cebpf4jnsgd1na2vs0mg"},{"bike_id":"9ef9fd3b-08e1-41bf-bbd1-087477917b48","system_id":"levelo_inurba_marseille","lat":43.31207,"lon":5.36879,"is_reserved":false,"is_disabled":false,"rental_uris":{"android":"levelo://app?vid=9ef9fd3b-08e1-41bf-bbd1-087477917b48","ios":"levelo://app?vid=9ef9fd3b-08e1-41bf-bbd1-087477917b48"},"vehicle_type_id":"4","last_reported":1773862845,"current_range_meters":3200,"station_id":"ce4bgl92rcd13ifvqbq0","pricing_plan_id":"cebpf4jnsgd1na2vs0mg"},{"bike_id":"f6095c6c-d723-460c-9ae5-b884f5bce620","system_id":"levelo_inurba_marseille","lat":43.27996,"lon":5.4002,"is_reserved":false,"is_disabled":false,"rental_uris":{"android":"levelo://app?vid=f6095c6c-d723-460c-9ae5-b884f5bce620","ios":"levelo://app?vid=f6095c6c-d723-460c-9ae5-b884f5bce620"},"vehicle_type_id":"4","last_reported":1773862845,"current_range_meters":3200,"station_id":"ce4bho92rcd13ifvqh4g","pricing_plan_id":"cebpf4jnsgd1na2vs0mg"},{"bike_id":"2134a193-4b3a-4038-a280-1a0ba6458570","system_id":"levelo_inurba_marseille","lat":43.29801,"lon":5.42121,"is_reserved":false,"is_disabled":false,"rental_uris":{"android":"levelo://app?vid=2134a193-4b3a-4038-a280-1a0ba6458570","ios":"levelo://app?vid=2134a193-4b3a-4038-a280-1a0ba6458570"},"vehicle_type_id":"4","last_reported":1773862845,"current_range_meters":3200,"station_id":"","pricing_plan_id":"cebpf4jnsgd1na2vs0mg"},{"bike_id":"953941a9-3563-489d-aba9-d6cd35a24b9e","system_id":"levelo_inurba_marseille","lat":43.29092,"lon":5.38149,"is_reserved":false,"is_disabled":false,"rental_uris":{"android":"levelo://app?vid=953941a9-3563-489d-aba9-d6cd35a24b9e","ios":"levelo://app?vid=953941a9-3563-489d-aba9-d6cd35a24b9e"},"vehicle_type_id":"4","last_reported":1773862845,"current_range_meters":3200,"station_id":"ce4bh512rcd13ifvqe2g","pricing_plan_id":"cebpf4jnsgd1na2vs0mg"},{"bike_id":"d4e74b6d-3b72-4b49-91d0-43821ae82615","system_id":"levelo_inurba_marseille","lat":43.29162,"lon":5.3826,"is_reserved":false,"is_disabled":false,"rental_uris":{"android":"levelo://app?vid=d4e74b6d-3b72-4b49-91d0-43821ae82615","ios":"levelo://app?vid=d4e74b6d-3b72-4b49-91d0-43821ae82615"},"vehicle_type_id":"4","last_reported":1773862845,"current_range_meters":3200,"station_id":"ce4bhg12rcd13ifvqf80","pricing_plan_id":"cebpf4jnsgd1na2vs0mg"},{"bike_id":"ed915b20-a18d-42c2-a82e-dd4e83193e35","system_id":"levelo_inurba_marseille","lat":43.30693,"lon":5.40617,"is_reserved":false,"is_disabled":false,"rental_uris":{"android":"levelo://app?vid=ed915b20-a18d-42c2-a82e-dd4e83193e35","ios":"levelo://app?vid=ed915b20-a18d-42c2-a82e-dd4e83193e35"},"vehicle_type_id":"4","last_reported":1773862845,"current_range_meters":3200,"station_id":"","pricing_plan_id":"cebpf4jnsgd1na2vs0mg"},{"bike_id":"da7d37ec-c0a7-463b-871a-a6455786b271","system_id":"levelo_inurba_marseille","lat":43.28852,"lon":5.35863,"is_reserved":false,"is_disabled":false,"rental_uris":{"android":"levelo://app?vid=da7d37ec-c0a7-463b-871a-a6455786b271","ios":"levelo://app?vid=da7d37ec-c0a7-463b-871a-a6455786b271"},"vehicle_type_id":"4","last_reported":1773862845,"current_range_meters":3200,"station_id":"ce4bhb12rcd13ifvqem0","pricing_plan_id":"cebpf4jnsgd1na2vs0mg"},{"bike_id":"292abd82-4146-466f-9e34-79bd05209e5a","system_id":"levelo_inurba_marseille","lat":43.29949,"lon":5.38521,"is_reserved":false,"is_disabled":false,"rental_uris":{"android":"levelo://app?vid=292abd82-4146-466f-9e34-79bd05209e5a","ios":"levelo://app?vid=292abd82-4146-466f-9e34-79bd05209e5a"},"vehicle_type_id":"4","last_reported":1773862845,"current_range_meters":3200,"station_id":"ce4bgj92rcd13ifvqbd0","pricing_plan_id":"cebpf4jnsgd1na2vs0mg"},{"bike_id":"60d2ea08-2b7e-44e7-8315-9304b8a5f88f","system_id":"levelo_inurba_marseille","lat":43.31711,"lon":5.42404,"is_reserved":false,"is_disabled":true,"rental_uris":{"android":"levelo://app?vid=60d2ea08-2b7e-44e7-8315-9304b8a5f88f","ios":"levelo://app?vid=60d2ea08-2b7e-44e7-8315-9304b8a5f88f"},"vehicle_type_id":"4","last_reported":1773862845,"current_range_meters":3200,"station_id":"ce4bhp92rcd13ifvqhbg","pricing_plan_id":"cebpf4jnsgd1na2vs0mg"},{"bike_id":"bf249f81-2ef0-45f9-a595-8436dd14fe0c","system_id":"levelo_inurba_marseille","lat":43.3211,"lon":5.36763,"is_reserved":false,"is_disabled":false,"rental_uris":{"android":"levelo://app?vid=bf249f81-2ef0-45f9-a595-8436dd14fe0c","ios":"levelo://app?vid=bf249f81-2ef0-45f9-a595-8436dd14fe0c"},"vehicle_type_id":"4","last_reported":1773862845,"current_range_meters":3200,"station_id":"ce4bhrh2rcd13ifvqhug","pricing_plan_id":"cebpf4jnsgd1na2vs0mg"},{"bike_id":"3464d554-b763-4344-9691-af0456a9341f","system_id":"levelo_inurba_marseille","lat":43.29873,"lon":5.39728,"is_reserved":false,"is_disabled":false,"rental_uris":{"android":"levelo://app?vid=3464d554-b763-4344-9691-af0456a9341f","ios":"levelo://app?vid=3464d554-b763-4344-9691-af0456a9341f"},"vehicle_type_id":"4","last_reported":1773862845,"current_range_meters":3200,"station_id":"ce4bh0h2rcd13ifvqd50","pricing_plan_id":"cebpf4jnsgd1na2vs0mg"},{"bike_id":"e49c1003-ddcc-4fc7-a290-e18291ee7214","system_id":"levelo_inurba_marseille","lat":43.29011,"lon":5.3812,"is_reserved":false,"is_disabled":false,"rental_uris":{"android":"levelo://app?vid=e49c1003-ddcc-4fc7-a290-e18291ee7214","ios":"levelo://app?vid=e49c1003-ddcc-4fc7-a290-e18291ee7214"},"vehicle_type_id":"4","last_reported":1773862845,"current_range_meters":3200,"station_id":"ce4bh4p2rcd13ifvqe1g","pricing_plan_id":"cebpf4jnsgd1na2vs0mg"},{"bike_id":"7e9f0f40-d9a2-47d0-b1f8-bf384b3f5fa7","system_id":"levelo_inurba_marseille","lat":43.29268,"lon":5.38441,"is_reserved":false,"is_disabled":false,"rental_uris":{"android":"levelo://app?vid=7e9f0f40-d9a2-47d0-b1f8-bf384b3f5fa7","ios":"levelo://app?vid=7e9f0f40-d9a2-47d0-b1f8-bf384b3f5fa7"},"vehicle_type_id":"4","last_reported":1773862845,"current_range_meters":3200,"station_id":"ce4bh692rcd13ifvqea0","pricing_plan_id":"cebpf4jnsgd1na2vs0mg"},{"bike_id":"ab2125f0-f477-425b-9c9a-e4231f7f002b","system_id":"levelo_inurba_marseille","lat":43.21713,"lon":5.34618,"is_reserved":false,"is_disabled":true,"rental_uris":{"android":"levelo://app?vid=ab2125f0-f477-425b-9c9a-e4231f7f002b","ios":"levelo://app?vid=ab2125f0-f477-425b-9c9a-e4231f7f002b"},"vehicle_type_id":"4","last_reported":1773862845,"current_range_meters":3200,"station_id":"st_cvj6r9ubvosntc0bgbag","pricing_plan_id":"cebpf4jnsgd1na2vs0mg"},{"bike_id":"6f6766ac-225c-4deb-ba72-6e4eef0dab31","system_id":"levelo_inurba_marseille","lat":43.29247,"lon":5.38387,"is_reserved":false,"is_disabled":false,"rental_uris":{"android":"levelo://app?vid=6f6766ac-225c-4deb-ba72-6e4eef0dab31","ios":"levelo://app?vid=6f6766ac-225c-4deb-ba72-6e4eef0dab31"},"vehicle_type_id":"4","last_reported":1773862845,"current_range_meters":3200,"station_id":"ce4bh692rcd13ifvqea0","pricing_plan_id":"cebpf4jnsgd1na2vs0mg"},{"bike_id":"53d5a6f2-d53f-487c-9fee-e56ff0f2a1a5","system_id":"levelo_inurba_marseille","lat":43.23381,"lon":5.41241,"is_reserved":false,"is_disabled":false,"rental_uris":{"android":"levelo://app?vid=53d5a6f2-d53f-487c-9fee-e56ff0f2a1a5","ios":"levelo://app?vid=53d5a6f2-d53f-487c-9fee-e56ff0f2a1a5"},"vehicle_type_id":"4","last_reported":1773862845,"current_range_meters":3200,"station_id":"","pricing_plan_id":"cebpf4jnsgd1na2vs0mg"},{"bike_id":"77f82e91-30b6-4c8c-a0ef-dfcf78d748db","system_id":"levelo_inurba_marseille","lat":43.28857,"lon":5.42537,"is_reserved":false,"is_disabled":false,"rental_uris":{"android":"levelo://app?vid=77f82e91-30b6-4c8c-a0ef-dfcf78d748db","ios":"levelo://app?vid=77f82e91-30b6-4c8c-a0ef-dfcf78d748db"},"vehicle_type_id":"4","last_reported":1773862845,"current_range_meters":3600,"station_id":"","pricing_plan_id":"cebpf4jnsgd1na2vs0mg"},{"bike_id":"da64f321-4c8e-43eb-a870-1154e8ce4baf","system_id":"levelo_inurba_marseille","lat":43.28985,"lon":5.3783,"is_reserved":false,"is_disabled":false,"rental_uris":{"android":"levelo://app?vid=da64f321-4c8e-43eb-a870-1154e8ce4baf","ios":"levelo://app?vid=da64f321-4c8e-43eb-a870-1154e8ce4baf"},"vehicle_type_id":"4","last_reported":1773862845,"current_range_meters":3600,"station_id":"ce4bh9p2rcd13ifvqed0","pricing_plan_id":"cebpf4jnsgd1na2vs0mg"},{"bike_id":"5b43f348-3bc6-40a9-a9c0-ff6d20b532a0","system_id":"levelo_inurba_marseille","lat":43.31332,"lon":5.39681,"is_reserved":false,"is_disabled":false,"rental_uris":{"android":"levelo://app?vid=5b43f348-3bc6-40a9-a9c0-ff6d20b532a0","ios":"levelo://app?vid=5b43f348-3bc6-40a9-a9c0-ff6d20b532a0"},"vehicle_type_id":"4","last_reported":1773862845,"current_range_meters":3600,"station_id":"ce4bgvp2rcd13ifvqcu0","pricing_plan_id":"cebpf4jnsgd1na2vs0mg"},{"bike_id":"458f604b-e062-47bf-ac14-a001a31d10d8","system_id":"levelo_inurba_marseille","lat":43.28473,"lon":5.4838,"is_reserved":false,"is_disabled":false,"rental_uris":{"android":"levelo://app?vid=458f604b-e062-47bf-ac14-a001a31d10d8","ios":"levelo://app?vid=458f604b-e062-47bf-ac14-a001a31d10d8"},"vehicle_type_id":"4","last_reported":1773862845,"current_range_meters":3600,"station_id":"","pricing_plan_id":"cebpf4jnsgd1na2vs0mg"},{"bike_id":"6192c4a9-d4b2-466d-8680-4c5903d88ffc","system_id":"levelo_inurba_marseille","lat":43.23896,"lon":5.39631,"is_reserved":false,"is_disabled":false,"rental_uris":{"android":"levelo://app?vid=6192c4a9-d4b2-466d-8680-4c5903d88ffc","ios":"levelo://app?vid=6192c4a9-d4b2-466d-8680-4c5903d88ffc"},"vehicle_type_id":"4","last_reported":1773862845,"current_range_meters":3600,"station_id":"","pricing_plan_id":"cebpf4jnsgd1na2vs0mg"},{"bike_id":"01eaa32e-1702-4288-9ef4-adb775f51620","system_id":"levelo_inurba_marseille","lat":43.31238,"lon":5.41339,"is_reserved":false,"is_disabled":false,"rental_uris":{"android":"levelo://app?vid=01eaa32e-1702-4288-9ef4-adb775f51620","ios":"levelo://app?vid=01eaa32e-1702-4288-9ef4-adb775f51620"},"vehicle_type_id":"4","last_reported":1773862845,"current_range_meters":3600,"station_id":"","pricing_plan_id":"cebpf4jnsgd1na2vs0mg"},{"bike_id":"4eca5809-5573-477a-b5b4-ab8f5c84ba9d","system_id":"levelo_inurba_marseille","lat":43.28689,"lon":5.37389,"is_reserved":false,"is_disabled":false,"rental_uris":{"android":"levelo://app?vid=4eca5809-5573-477a-b5b4-ab8f5c84ba9d","ios":"levelo://app?vid=4eca5809-5573-477a-b5b4-ab8f5c84ba9d"},"vehicle_type_id":"4","last_reported":1773862845,"current_range_meters":3600,"station_id":"ce4bh3p2rcd13ifvqdq0","pricing_plan_id":"cebpf4jnsgd1na2vs0mg"},{"bike_id":"3d49ca8b-8392-4da6-b6c1-920304e727a7","system_id":"levelo_inurba_marseille","lat":43.29743,"lon":5.42785,"is_reserved":false,"is_disabled":false,"rental_uris":{"android":"levelo://app?vid=3d49ca8b-8392-4da6-b6c1-920304e727a7","ios":"levelo://app?vid=3d49ca8b-8392-4da6-b6c1-920304e727a7"},"vehicle_type_id":"4","last_reported":1773862845,"current_range_meters":3600,"station_id":"st_d3md5207bmas73dh9klg","pricing_plan_id":"cebpf4jnsgd1na2vs0mg"},{"bike_id":"d7e8d77f-bad8-482f-b62c-ab7a3f141468","system_id":"levelo_inurba_marseille","lat":43.2857,"lon":5.39496,"is_reserved":false,"is_disabled":false,"rental_uris":{"android":"levelo://app?vid=d7e8d77f-bad8-482f-b62c-ab7a3f141468","ios":"levelo://app?vid=d7e8d77f-bad8-482f-b62c-ab7a3f141468"},"vehicle_type_id":"4","last_reported":1773862845,"current_range_meters":3600,"station_id":"ce4bh292rcd13ifvqdg0","pricing_plan_id":"cebpf4jnsgd1na2vs0mg"},{"bike_id":"7c7e89f9-15b3-4b74-aecb-ac585eb4b596","system_id":"levelo_inurba_marseille","lat":43.29169,"lon":5.37166,"is_reserved":false,"is_disabled":false,"rental_uris":{"android":"levelo://app?vid=7c7e89f9-15b3-4b74-aecb-ac585eb4b596","ios":"levelo://app?vid=7c7e89f9-15b3-4b74-aecb-ac585eb4b596"},"vehicle_type_id":"4","last_reported":1773862845,"current_range_meters":3600,"station_id":"ce4bha92rcd13ifvqeh0","pricing_plan_id":"cebpf4jnsgd1na2vs0mg"},{"bike_id":"64e4942c-04ec-475a-8745-de522dcf5faa","system_id":"levelo_inurba_marseille","lat":43.22939,"lon":5.35376,"is_reserved":false,"is_disabled":false,"rental_uris":{"android":"levelo://app?vid=64e4942c-04ec-475a-8745-de522dcf5faa","ios":"levelo://app?vid=64e4942c-04ec-475a-8745-de522dcf5faa"},"vehicle_type_id":"4","last_reported":1773862845,"current_range_meters":3600,"station_id":"cpo3532slgdg3j2ikp40","pricing_plan_id":"cebpf4jnsgd1na2vs0mg"},{"bike_id":"3b8fc0a9-8bd6-41ef-96a0-cba07b3ca62f","system_id":"levelo_inurba_marseille","lat":43.30888,"lon":5.39659,"is_reserved":false,"is_disabled":false,"rental_uris":{"android":"levelo://app?vid=3b8fc0a9-8bd6-41ef-96a0-cba07b3ca62f","ios":"levelo://app?vid=3b8fc0a9-8bd6-41ef-96a0-cba07b3ca62f"},"vehicle_type_id":"4","last_reported":1773862845,"current_range_meters":3600,"station_id":"ce4bh012rcd13ifvqcv0","pricing_plan_id":"cebpf4jnsgd1na2vs0mg"},{"bike_id":"f4d948e3-7fb1-4065-859b-2465982902c7","system_id":"levelo_inurba_marseille","lat":43.2885,"lon":5.3585,"is_reserved":false,"is_disabled":false,"rental_uris":{"android":"levelo://app?vid=f4d948e3-7fb1-4065-859b-2465982902c7","ios":"levelo://app?vid=f4d948e3-7fb1-4065-859b-2465982902c7"},"vehicle_type_id":"4","last_reported":1773862845,"current_range_meters":3600,"station_id":"ce4bhb12rcd13ifvqem0","pricing_plan_id":"cebpf4jnsgd1na2vs0mg"},{"bike_id":"96dac97a-0c76-4079-a74f-d3b50e0ff04c","system_id":"levelo_inurba_marseille","lat":43.21187,"lon":5.35069,"is_reserved":false,"is_disabled":false,"rental_uris":{"android":"levelo://app?vid=96dac97a-0c76-4079-a74f-d3b50e0ff04c","ios":"levelo://app?vid=96dac97a-0c76-4079-a74f-d3b50e0ff04c"},"vehicle_type_id":"4","last_reported":1773862845,"current_range_meters":3600,"station_id":"st_cvj6sg6p6f1abm77japg","pricing_plan_id":"cebpf4jnsgd1na2vs0mg"},{"bike_id":"9bdae63d-a547-45f9-a346-85f15cbc4b58","system_id":"levelo_inurba_marseille","lat":43.29078,"lon":5.37167,"is_reserved":false,"is_disabled":false,"rental_uris":{"android":"levelo://app?vid=9bdae63d-a547-45f9-a346-85f15cbc4b58","ios":"levelo://app?vid=9bdae63d-a547-45f9-a346-85f15cbc4b58"},"vehicle_type_id":"4","last_reported":1773862845,"current_range_meters":3600,"station_id":"ce4bh5p2rcd13ifvqe4g","pricing_plan_id":"cebpf4jnsgd1na2vs0mg"},{"bike_id":"3283b0e0-723b-4314-95cc-381df1215e03","system_id":"levelo_inurba_marseille","lat":43.308004,"lon":5.376592,"is_reserved":false,"is_disabled":false,"rental_uris":{"android":"levelo://app?vid=3283b0e0-723b-4314-95cc-381df1215e03","ios":"levelo://app?vid=3283b0e0-723b-4314-95cc-381df1215e03"},"vehicle_type_id":"4","last_reported":1773862845,"current_range_meters":3600,"station_id":"ce4bgv92rcd13ifvqcq0","pricing_plan_id":"cebpf4jnsgd1na2vs0mg"},{"bike_id":"f9434668-ad55-4022-83ed-723c7a56a05e","system_id":"levelo_inurba_marseille","lat":43.29254,"lon":5.40912,"is_reserved":false,"is_disabled":false,"rental_uris":{"android":"levelo://app?vid=f9434668-ad55-4022-83ed-723c7a56a05e","ios":"levelo://app?vid=f9434668-ad55-4022-83ed-723c7a56a05e"},"vehicle_type_id":"4","last_reported":1773862845,"current_range_meters":3600,"station_id":"ce4bh192rcd13ifvqdc0","pricing_plan_id":"cebpf4jnsgd1na2vs0mg"},{"bike_id":"8768933a-b532-4e9e-b3fc-c350cc7179f1","system_id":"levelo_inurba_marseille","lat":43.29861,"lon":5.39711,"is_reserved":false,"is_disabled":false,"rental_uris":{"android":"levelo://app?vid=8768933a-b532-4e9e-b3fc-c350cc7179f1","ios":"levelo://app?vid=8768933a-b532-4e9e-b3fc-c350cc7179f1"},"vehicle_type_id":"4","last_reported":1773862845,"current_range_meters":3600,"station_id":"ce4bh0h2rcd13ifvqd50","pricing_plan_id":"cebpf4jnsgd1na2vs0mg"},{"bike_id":"0940c0ab-3cca-4660-9974-509b4f5e9818","system_id":"levelo_inurba_marseille","lat":43.28937,"lon":5.39533,"is_reserved":false,"is_disabled":false,"rental_uris":{"android":"levelo://app?vid=0940c0ab-3cca-4660-9974-509b4f5e9818","ios":"levelo://app?vid=0940c0ab-3cca-4660-9974-509b4f5e9818"},"vehicle_type_id":"4","last_reported":1773862845,"current_range_meters":3600,"station_id":"","pricing_plan_id":"cebpf4jnsgd1na2vs0mg"},{"bike_id":"ff4d60f5-767c-4ae3-b27e-dfea0c87e749","system_id":"levelo_inurba_marseille","lat":43.22933,"lon":5.35376,"is_reserved":false,"is_disabled":false,"rental_uris":{"android":"levelo://app?vid=ff4d60f5-767c-4ae3-b27e-dfea0c87e749","ios":"levelo://app?vid=ff4d60f5-767c-4ae3-b27e-dfea0c87e749"},"vehicle_type_id":"4","last_reported":1773862845,"current_range_meters":3600,"station_id":"cpo3532slgdg3j2ikp40","pricing_plan_id":"cebpf4jnsgd1na2vs0mg"},{"bike_id":"c2c7c530-5d90-493e-bc68-4654d00e1dc7","system_id":"levelo_inurba_marseille","lat":43.25217,"lon":5.4064,"is_reserved":false,"is_disabled":false,"rental_uris":{"android":"levelo://app?vid=c2c7c530-5d90-493e-bc68-4654d00e1dc7","ios":"levelo://app?vid=c2c7c530-5d90-493e-bc68-4654d00e1dc7"},"vehicle_type_id":"4","last_reported":1773862845,"current_range_meters":3600,"station_id":"","pricing_plan_id":"cebpf4jnsgd1na2vs0mg"},{"bike_id":"50de3b6b-38f5-44ec-a80e-69668f01c515","system_id":"levelo_inurba_marseille","lat":43.29748,"lon":5.42786,"is_reserved":false,"is_disabled":false,"rental_uris":{"android":"levelo://app?vid=50de3b6b-38f5-44ec-a80e-69668f01c515","ios":"levelo://app?vid=50de3b6b-38f5-44ec-a80e-69668f01c515"},"vehicle_type_id":"4","last_reported":1773862845,"current_range_meters":4000,"station_id":"st_d3md5207bmas73dh9klg","pricing_plan_id":"cebpf4jnsgd1na2vs0mg"},{"bike_id":"126d992d-f903-45fe-afab-1bfd648fdd80","system_id":"levelo_inurba_marseille","lat":43.29346,"lon":5.37843,"is_reserved":false,"is_disabled":false,"rental_uris":{"android":"levelo://app?vid=126d992d-f903-45fe-afab-1bfd648fdd80","ios":"levelo://app?vid=126d992d-f903-45fe-afab-1bfd648fdd80"},"vehicle_type_id":"4","last_reported":1773862845,"current_range_meters":4000,"station_id":"ce4bgjh2rcd13ifvqbf0","pricing_plan_id":"cebpf4jnsgd1na2vs0mg"},{"bike_id":"7e372e61-a4a4-4320-b78e-0115edf72ed5","system_id":"levelo_inurba_marseille","lat":43.24143,"lon":5.36397,"is_reserved":false,"is_disabled":true,"rental_uris":{"android":"levelo://app?vid=7e372e61-a4a4-4320-b78e-0115edf72ed5","ios":"levelo://app?vid=7e372e61-a4a4-4320-b78e-0115edf72ed5"},"vehicle_type_id":"4","last_reported":1773862845,"current_range_meters":4000,"station_id":"cpo36qri1sfpv3e86is0","pricing_plan_id":"cebpf4jnsgd1na2vs0mg"},{"bike_id":"b437d34c-9e4f-4e62-8d55-5ec69acee024","system_id":"levelo_inurba_marseille","lat":43.29357,"lon":5.39659,"is_reserved":false,"is_disabled":false,"rental_uris":{"android":"levelo://app?vid=b437d34c-9e4f-4e62-8d55-5ec69acee024","ios":"levelo://app?vid=b437d34c-9e4f-4e62-8d55-5ec69acee024"},"vehicle_type_id":"4","last_reported":1773862845,"current_range_meters":4000,"station_id":"","pricing_plan_id":"cebpf4jnsgd1na2vs0mg"},{"bike_id":"fde3eb8c-80ac-4c89-a0f3-ed3c3b176529","system_id":"levelo_inurba_marseille","lat":43.29968,"lon":5.38453,"is_reserved":false,"is_disabled":false,"rental_uris":{"android":"levelo://app?vid=fde3eb8c-80ac-4c89-a0f3-ed3c3b176529","ios":"levelo://app?vid=fde3eb8c-80ac-4c89-a0f3-ed3c3b176529"},"vehicle_type_id":"4","last_reported":1773862845,"current_range_meters":4000,"station_id":"ce4bgj92rcd13ifvqbd0","pricing_plan_id":"cebpf4jnsgd1na2vs0mg"},{"bike_id":"f098d9b7-2e86-49b7-b795-e3b7e2e73676","system_id":"levelo_inurba_marseille","lat":43.30128,"lon":5.37171,"is_reserved":false,"is_disabled":false,"rental_uris":{"android":"levelo://app?vid=f098d9b7-2e86-49b7-b795-e3b7e2e73676","ios":"levelo://app?vid=f098d9b7-2e86-49b7-b795-e3b7e2e73676"},"vehicle_type_id":"4","last_reported":1773862845,"current_range_meters":4000,"station_id":"","pricing_plan_id":"cebpf4jnsgd1na2vs0mg"},{"bike_id":"2874775b-146e-45de-9a13-98bbe699d55d","system_id":"levelo_inurba_marseille","lat":43.24623,"lon":5.43149,"is_reserved":false,"is_disabled":true,"rental_uris":{"android":"levelo://app?vid=2874775b-146e-45de-9a13-98bbe699d55d","ios":"levelo://app?vid=2874775b-146e-45de-9a13-98bbe699d55d"},"vehicle_type_id":"4","last_reported":1773862845,"current_range_meters":4000,"station_id":"","pricing_plan_id":"cebpf4jnsgd1na2vs0mg"},{"bike_id":"b9f2e5d5-d6ac-4c0d-86f2-4fe1a54ef3b3","system_id":"levelo_inurba_marseille","lat":43.32114,"lon":5.36771,"is_reserved":false,"is_disabled":false,"rental_uris":{"android":"levelo://app?vid=b9f2e5d5-d6ac-4c0d-86f2-4fe1a54ef3b3","ios":"levelo://app?vid=b9f2e5d5-d6ac-4c0d-86f2-4fe1a54ef3b3"},"vehicle_type_id":"4","last_reported":1773862845,"current_range_meters":4000,"station_id":"ce4bhrh2rcd13ifvqhug","pricing_plan_id":"cebpf4jnsgd1na2vs0mg"},{"bike_id":"ba3a93e9-0ab6-4e6f-87e7-88a20529a0ea","system_id":"levelo_inurba_marseille","lat":43.31441,"lon":5.39286,"is_reserved":false,"is_disabled":false,"rental_uris":{"android":"levelo://app?vid=ba3a93e9-0ab6-4e6f-87e7-88a20529a0ea","ios":"levelo://app?vid=ba3a93e9-0ab6-4e6f-87e7-88a20529a0ea"},"vehicle_type_id":"4","last_reported":1773862845,"current_range_meters":4000,"station_id":"","pricing_plan_id":"cebpf4jnsgd1na2vs0mg"},{"bike_id":"588eaf95-45b6-4d0d-907c-6e488968a74e","system_id":"levelo_inurba_marseille","lat":43.31333,"lon":5.3972,"is_reserved":false,"is_disabled":false,"rental_uris":{"android":"levelo://app?vid=588eaf95-45b6-4d0d-907c-6e488968a74e","ios":"levelo://app?vid=588eaf95-45b6-4d0d-907c-6e488968a74e"},"vehicle_type_id":"4","last_reported":1773862845,"current_range_meters":4000,"station_id":"ce4bgvp2rcd13ifvqcu0","pricing_plan_id":"cebpf4jnsgd1na2vs0mg"},{"bike_id":"962cf687-1766-4156-9249-f2a9c2642346","system_id":"levelo_inurba_marseille","lat":43.2846,"lon":5.35904,"is_reserved":false,"is_disabled":false,"rental_uris":{"android":"levelo://app?vid=962cf687-1766-4156-9249-f2a9c2642346","ios":"levelo://app?vid=962cf687-1766-4156-9249-f2a9c2642346"},"vehicle_type_id":"4","last_reported":1773862845,"current_range_meters":4400,"station_id":"ce4bhah2rcd13ifvqei0","pricing_plan_id":"cebpf4jnsgd1na2vs0mg"},{"bike_id":"d9f68a66-aa52-464b-923f-9c77324e6b43","system_id":"levelo_inurba_marseille","lat":43.27556,"lon":5.3845,"is_reserved":false,"is_disabled":false,"rental_uris":{"android":"levelo://app?vid=d9f68a66-aa52-464b-923f-9c77324e6b43","ios":"levelo://app?vid=d9f68a66-aa52-464b-923f-9c77324e6b43"},"vehicle_type_id":"4","last_reported":1773862845,"current_range_meters":4400,"station_id":"ce4bhh92rcd13ifvqfi0","pricing_plan_id":"cebpf4jnsgd1na2vs0mg"},{"bike_id":"b703c509-0a53-4f14-907b-c60fb0017c10","system_id":"levelo_inurba_marseille","lat":43.3105,"lon":5.37168,"is_reserved":false,"is_disabled":false,"rental_uris":{"android":"levelo://app?vid=b703c509-0a53-4f14-907b-c60fb0017c10","ios":"levelo://app?vid=b703c509-0a53-4f14-907b-c60fb0017c10"},"vehicle_type_id":"4","last_reported":1773862845,"current_range_meters":4400,"station_id":"st_d4kl2rp97mjs73e7tdfg","pricing_plan_id":"cebpf4jnsgd1na2vs0mg"},{"bike_id":"8ed47ace-087e-4c20-a736-3ef2370c8f79","system_id":"levelo_inurba_marseille","lat":43.28411,"lon":5.37508,"is_reserved":false,"is_disabled":false,"rental_uris":{"android":"levelo://app?vid=8ed47ace-087e-4c20-a736-3ef2370c8f79","ios":"levelo://app?vid=8ed47ace-087e-4c20-a736-3ef2370c8f79"},"vehicle_type_id":"4","last_reported":1773862845,"current_range_meters":4400,"station_id":"ce4bh412rcd13ifvqds0","pricing_plan_id":"cebpf4jnsgd1na2vs0mg"},{"bike_id":"39863ba5-e511-4688-b999-1e5d79272b89","system_id":"levelo_inurba_marseille","lat":43.29785,"lon":5.3811,"is_reserved":false,"is_disabled":false,"rental_uris":{"android":"levelo://app?vid=39863ba5-e511-4688-b999-1e5d79272b89","ios":"levelo://app?vid=39863ba5-e511-4688-b999-1e5d79272b89"},"vehicle_type_id":"4","last_reported":1773862845,"current_range_meters":4400,"station_id":"ce4bgip2rcd13ifvqbb0","pricing_plan_id":"cebpf4jnsgd1na2vs0mg"},{"bike_id":"b9b43263-e840-413d-8493-e4c1b2c2860b","system_id":"levelo_inurba_marseille","lat":43.30785,"lon":5.37639,"is_reserved":false,"is_disabled":false,"rental_uris":{"android":"levelo://app?vid=b9b43263-e840-413d-8493-e4c1b2c2860b","ios":"levelo://app?vid=b9b43263-e840-413d-8493-e4c1b2c2860b"},"vehicle_type_id":"4","last_reported":1773862845,"current_range_meters":4400,"station_id":"ce4bgv92rcd13ifvqcq0","pricing_plan_id":"cebpf4jnsgd1na2vs0mg"},{"bike_id":"e19bbcec-af9d-483d-ac29-18df3b9c0ab9","system_id":"levelo_inurba_marseille","lat":43.2847,"lon":5.484,"is_reserved":false,"is_disabled":false,"rental_uris":{"android":"levelo://app?vid=e19bbcec-af9d-483d-ac29-18df3b9c0ab9","ios":"levelo://app?vid=e19bbcec-af9d-483d-ac29-18df3b9c0ab9"},"vehicle_type_id":"4","last_reported":1773862845,"current_range_meters":4400,"station_id":"st_d3svhcjqgbts73a3dn0g","pricing_plan_id":"cebpf4jnsgd1na2vs0mg"},{"bike_id":"f7cad0dd-4929-454b-8848-7575c69435e1","system_id":"levelo_inurba_marseille","lat":43.25852,"lon":5.39932,"is_reserved":false,"is_disabled":true,"rental_uris":{"android":"levelo://app?vid=f7cad0dd-4929-454b-8848-7575c69435e1","ios":"levelo://app?vid=f7cad0dd-4929-454b-8848-7575c69435e1"},"vehicle_type_id":"4","last_reported":1773862845,"current_range_meters":4400,"station_id":"ce4bhl92rcd13ifvqghg","pricing_plan_id":"cebpf4jnsgd1na2vs0mg"},{"bike_id":"f1157430-cc99-47be-b36c-b2ae02678b63","system_id":"levelo_inurba_marseille","lat":43.29802,"lon":5.40398,"is_reserved":false,"is_disabled":false,"rental_uris":{"android":"levelo://app?vid=f1157430-cc99-47be-b36c-b2ae02678b63","ios":"levelo://app?vid=f1157430-cc99-47be-b36c-b2ae02678b63"},"vehicle_type_id":"4","last_reported":1773862845,"current_range_meters":4400,"station_id":"ce4bh112rcd13ifvqd90","pricing_plan_id":"cebpf4jnsgd1na2vs0mg"},{"bike_id":"daa4d2c5-b151-4bf6-bf3d-4d2c43839aea","system_id":"levelo_inurba_marseille","lat":43.27558,"lon":5.38425,"is_reserved":false,"is_disabled":false,"rental_uris":{"android":"levelo://app?vid=daa4d2c5-b151-4bf6-bf3d-4d2c43839aea","ios":"levelo://app?vid=daa4d2c5-b151-4bf6-bf3d-4d2c43839aea"},"vehicle_type_id":"4","last_reported":1773862845,"current_range_meters":4400,"station_id":"ce4bhh92rcd13ifvqfi0","pricing_plan_id":"cebpf4jnsgd1na2vs0mg"},{"bike_id":"efa56788-fd95-4d6e-84ce-b31b80bc3dea","system_id":"levelo_inurba_marseille","lat":43.29295,"lon":5.37467,"is_reserved":false,"is_disabled":true,"rental_uris":{"android":"levelo://app?vid=efa56788-fd95-4d6e-84ce-b31b80bc3dea","ios":"levelo://app?vid=efa56788-fd95-4d6e-84ce-b31b80bc3dea"},"vehicle_type_id":"4","last_reported":1773862845,"current_range_meters":4400,"station_id":"ce4bgi12rcd13ifvqb70","pricing_plan_id":"cebpf4jnsgd1na2vs0mg"},{"bike_id":"7f141dcd-887a-4746-a44a-688e104041f4","system_id":"levelo_inurba_marseille","lat":43.24165,"lon":5.36398,"is_reserved":false,"is_disabled":false,"rental_uris":{"android":"levelo://app?vid=7f141dcd-887a-4746-a44a-688e104041f4","ios":"levelo://app?vid=7f141dcd-887a-4746-a44a-688e104041f4"},"vehicle_type_id":"4","last_reported":1773862845,"current_range_meters":4400,"station_id":"cpo36qri1sfpv3e86is0","pricing_plan_id":"cebpf4jnsgd1na2vs0mg"},{"bike_id":"f852e62a-4ab8-41a5-be60-69600f906e2f","system_id":"levelo_inurba_marseille","lat":43.28375,"lon":5.38642,"is_reserved":false,"is_disabled":false,"rental_uris":{"android":"levelo://app?vid=f852e62a-4ab8-41a5-be60-69600f906e2f","ios":"levelo://app?vid=f852e62a-4ab8-41a5-be60-69600f906e2f"},"vehicle_type_id":"4","last_reported":1773862845,"current_range_meters":4400,"station_id":"ce4bh492rcd13ifvqdvg","pricing_plan_id":"cebpf4jnsgd1na2vs0mg"},{"bike_id":"e9956dd9-8196-48fb-86c4-d968c6ac26b9","system_id":"levelo_inurba_marseille","lat":43.29527,"lon":5.42286,"is_reserved":false,"is_disabled":false,"rental_uris":{"android":"levelo://app?vid=e9956dd9-8196-48fb-86c4-d968c6ac26b9","ios":"levelo://app?vid=e9956dd9-8196-48fb-86c4-d968c6ac26b9"},"vehicle_type_id":"4","last_reported":1773862845,"current_range_meters":4400,"station_id":"ce4bhph2rcd13ifvqhdg","pricing_plan_id":"cebpf4jnsgd1na2vs0mg"},{"bike_id":"40b4c9a9-7a66-4906-8741-41c41b4ee56b","system_id":"levelo_inurba_marseille","lat":43.27088,"lon":5.4228,"is_reserved":false,"is_disabled":true,"rental_uris":{"android":"levelo://app?vid=40b4c9a9-7a66-4906-8741-41c41b4ee56b","ios":"levelo://app?vid=40b4c9a9-7a66-4906-8741-41c41b4ee56b"},"vehicle_type_id":"4","last_reported":1773862845,"current_range_meters":4400,"station_id":"ce4bhk92rcd13ifvqgb0","pricing_plan_id":"cebpf4jnsgd1na2vs0mg"},{"bike_id":"e60ad613-509e-4820-b901-100935e7c089","system_id":"levelo_inurba_marseille","lat":43.30594,"lon":5.37236,"is_reserved":false,"is_disabled":false,"rental_uris":{"android":"levelo://app?vid=e60ad613-509e-4820-b901-100935e7c089","ios":"levelo://app?vid=e60ad613-509e-4820-b901-100935e7c089"},"vehicle_type_id":"4","last_reported":1773862845,"current_range_meters":4400,"station_id":"ce4bgqh2rcd13ifvqc4g","pricing_plan_id":"cebpf4jnsgd1na2vs0mg"},{"bike_id":"d44c1a9c-785a-4af2-9cdf-c1cf47bed6bd","system_id":"levelo_inurba_marseille","lat":43.28955,"lon":5.36634,"is_reserved":false,"is_disabled":false,"rental_uris":{"android":"levelo://app?vid=d44c1a9c-785a-4af2-9cdf-c1cf47bed6bd","ios":"levelo://app?vid=d44c1a9c-785a-4af2-9cdf-c1cf47bed6bd"},"vehicle_type_id":"4","last_reported":1773862845,"current_range_meters":4400,"station_id":"ce4bhap2rcd13ifvqek0","pricing_plan_id":"cebpf4jnsgd1na2vs0mg"},{"bike_id":"cb2c175e-fc1a-43c7-8316-e12b1c668a27","system_id":"levelo_inurba_marseille","lat":43.30535,"lon":5.36705,"is_reserved":false,"is_disabled":true,"rental_uris":{"android":"levelo://app?vid=cb2c175e-fc1a-43c7-8316-e12b1c668a27","ios":"levelo://app?vid=cb2c175e-fc1a-43c7-8316-e12b1c668a27"},"vehicle_type_id":"4","last_reported":1773862845,"current_range_meters":4800,"station_id":"ce4bgrp2rcd13ifvqc9g","pricing_plan_id":"cebpf4jnsgd1na2vs0mg"},{"bike_id":"fe84594a-cdc2-4e5f-83a2-4d80f9f5966d","system_id":"levelo_inurba_marseille","lat":43.29003,"lon":5.35616,"is_reserved":false,"is_disabled":true,"rental_uris":{"android":"levelo://app?vid=fe84594a-cdc2-4e5f-83a2-4d80f9f5966d","ios":"levelo://app?vid=fe84594a-cdc2-4e5f-83a2-4d80f9f5966d"},"vehicle_type_id":"4","last_reported":1773862845,"current_range_meters":4800,"station_id":"ce4bhb92rcd13ifvqen0","pricing_plan_id":"cebpf4jnsgd1na2vs0mg"},{"bike_id":"a8ab54b1-7789-4df6-8176-c2a2b6ceda65","system_id":"levelo_inurba_marseille","lat":43.25332,"lon":5.42149,"is_reserved":false,"is_disabled":false,"rental_uris":{"android":"levelo://app?vid=a8ab54b1-7789-4df6-8176-c2a2b6ceda65","ios":"levelo://app?vid=a8ab54b1-7789-4df6-8176-c2a2b6ceda65"},"vehicle_type_id":"4","last_reported":1773862845,"current_range_meters":4800,"station_id":"st_d2m65c5bi1j21697t3ng","pricing_plan_id":"cebpf4jnsgd1na2vs0mg"},{"bike_id":"e563383a-8a89-4304-b11f-18268886193e","system_id":"levelo_inurba_marseille","lat":43.25558,"lon":5.38212,"is_reserved":false,"is_disabled":false,"rental_uris":{"android":"levelo://app?vid=e563383a-8a89-4304-b11f-18268886193e","ios":"levelo://app?vid=e563383a-8a89-4304-b11f-18268886193e"},"vehicle_type_id":"4","last_reported":1773862845,"current_range_meters":4800,"station_id":"ce4bhih2rcd13ifvqfs0","pricing_plan_id":"cebpf4jnsgd1na2vs0mg"},{"bike_id":"5a4233fd-58eb-4b4a-8b13-3ab257b6245d","system_id":"levelo_inurba_marseille","lat":43.27803,"lon":5.40678,"is_reserved":false,"is_disabled":false,"rental_uris":{"android":"levelo://app?vid=5a4233fd-58eb-4b4a-8b13-3ab257b6245d","ios":"levelo://app?vid=5a4233fd-58eb-4b4a-8b13-3ab257b6245d"},"vehicle_type_id":"4","last_reported":1773862845,"current_range_meters":4800,"station_id":"ce4bhnh2rcd13ifvqgtg","pricing_plan_id":"cebpf4jnsgd1na2vs0mg"},{"bike_id":"e1282d04-f7b7-4606-b775-ed192685a5f4","system_id":"levelo_inurba_marseille","lat":43.24168,"lon":5.39701,"is_reserved":false,"is_disabled":true,"rental_uris":{"android":"levelo://app?vid=e1282d04-f7b7-4606-b775-ed192685a5f4","ios":"levelo://app?vid=e1282d04-f7b7-4606-b775-ed192685a5f4"},"vehicle_type_id":"4","last_reported":1773862845,"current_range_meters":4800,"station_id":"ce4bhn12rcd13ifvqgpg","pricing_plan_id":"cebpf4jnsgd1na2vs0mg"},{"bike_id":"7c27bbc1-43c8-4af1-8a34-48b79713d044","system_id":"levelo_inurba_marseille","lat":43.21227,"lon":5.35067,"is_reserved":false,"is_disabled":false,"rental_uris":{"android":"levelo://app?vid=7c27bbc1-43c8-4af1-8a34-48b79713d044","ios":"levelo://app?vid=7c27bbc1-43c8-4af1-8a34-48b79713d044"},"vehicle_type_id":"4","last_reported":1773862845,"current_range_meters":4800,"station_id":"","pricing_plan_id":"cebpf4jnsgd1na2vs0mg"},{"bike_id":"7fc82852-58fc-4b7a-bbbd-8a38707d5a18","system_id":"levelo_inurba_marseille","lat":43.29267,"lon":5.3843,"is_reserved":false,"is_disabled":false,"rental_uris":{"android":"levelo://app?vid=7fc82852-58fc-4b7a-bbbd-8a38707d5a18","ios":"levelo://app?vid=7fc82852-58fc-4b7a-bbbd-8a38707d5a18"},"vehicle_type_id":"4","last_reported":1773862845,"current_range_meters":4800,"station_id":"ce4bh692rcd13ifvqea0","pricing_plan_id":"cebpf4jnsgd1na2vs0mg"},{"bike_id":"032692c2-e8ca-40e7-9c05-3713e043006b","system_id":"levelo_inurba_marseille","lat":43.23895,"lon":5.37456,"is_reserved":false,"is_disabled":false,"rental_uris":{"android":"levelo://app?vid=032692c2-e8ca-40e7-9c05-3713e043006b","ios":"levelo://app?vid=032692c2-e8ca-40e7-9c05-3713e043006b"},"vehicle_type_id":"4","last_reported":1773862845,"current_range_meters":4800,"station_id":"st_d6sm7csbq4hs73f8fpjg","pricing_plan_id":"cebpf4jnsgd1na2vs0mg"},{"bike_id":"411c49cf-ed19-4546-b337-b30c00021e24","system_id":"levelo_inurba_marseille","lat":43.29173,"lon":5.35794,"is_reserved":false,"is_disabled":false,"rental_uris":{"android":"levelo://app?vid=411c49cf-ed19-4546-b337-b30c00021e24","ios":"levelo://app?vid=411c49cf-ed19-4546-b337-b30c00021e24"},"vehicle_type_id":"4","last_reported":1773862845,"current_range_meters":4800,"station_id":"ce4bhb12rcd13ifvqel0","pricing_plan_id":"cebpf4jnsgd1na2vs0mg"},{"bike_id":"fe5c801f-68be-46bc-a966-92199c3574ea","system_id":"levelo_inurba_marseille","lat":43.28149,"lon":5.42647,"is_reserved":false,"is_disabled":false,"rental_uris":{"android":"levelo://app?vid=fe5c801f-68be-46bc-a966-92199c3574ea","ios":"levelo://app?vid=fe5c801f-68be-46bc-a966-92199c3574ea"},"vehicle_type_id":"4","last_reported":1773862845,"current_range_meters":4800,"station_id":"ce4bhnh2rcd13ifvqgug","pricing_plan_id":"cebpf4jnsgd1na2vs0mg"},{"bike_id":"3feb4c73-6e63-47f9-927f-446525b49f72","system_id":"levelo_inurba_marseille","lat":43.31896,"lon":5.36807,"is_reserved":false,"is_disabled":false,"rental_uris":{"android":"levelo://app?vid=3feb4c73-6e63-47f9-927f-446525b49f72","ios":"levelo://app?vid=3feb4c73-6e63-47f9-927f-446525b49f72"},"vehicle_type_id":"4","last_reported":1773862845,"current_range_meters":4800,"station_id":"st_d6o2h0d0559c73evc1b0","pricing_plan_id":"cebpf4jnsgd1na2vs0mg"},{"bike_id":"f8a00c49-c93d-41ce-9f11-d81257ca6394","system_id":"levelo_inurba_marseille","lat":43.22922,"lon":5.35372,"is_reserved":false,"is_disabled":false,"rental_uris":{"android":"levelo://app?vid=f8a00c49-c93d-41ce-9f11-d81257ca6394","ios":"levelo://app?vid=f8a00c49-c93d-41ce-9f11-d81257ca6394"},"vehicle_type_id":"4","last_reported":1773862845,"current_range_meters":4800,"station_id":"cpo3532slgdg3j2ikp40","pricing_plan_id":"cebpf4jnsgd1na2vs0mg"},{"bike_id":"ed37ab3c-a027-471e-ae7c-de65cbdd85f3","system_id":"levelo_inurba_marseille","lat":43.29312,"lon":5.37181,"is_reserved":false,"is_disabled":false,"rental_uris":{"android":"levelo://app?vid=ed37ab3c-a027-471e-ae7c-de65cbdd85f3","ios":"levelo://app?vid=ed37ab3c-a027-471e-ae7c-de65cbdd85f3"},"vehicle_type_id":"4","last_reported":1773862845,"current_range_meters":4800,"station_id":"ce4bgh92rcd13ifvqb40","pricing_plan_id":"cebpf4jnsgd1na2vs0mg"},{"bike_id":"56dcc4fe-ac28-400c-a63f-b562d8415172","system_id":"levelo_inurba_marseille","lat":43.31163,"lon":5.38698,"is_reserved":false,"is_disabled":false,"rental_uris":{"android":"levelo://app?vid=56dcc4fe-ac28-400c-a63f-b562d8415172","ios":"levelo://app?vid=56dcc4fe-ac28-400c-a63f-b562d8415172"},"vehicle_type_id":"4","last_reported":1773862845,"current_range_meters":5600,"station_id":"ce4bgv12rcd13ifvqcp0","pricing_plan_id":"cebpf4jnsgd1na2vs0mg"},{"bike_id":"88697e8b-01fd-4696-bab5-73747ef3d57e","system_id":"levelo_inurba_marseille","lat":43.21756,"lon":5.34628,"is_reserved":false,"is_disabled":false,"rental_uris":{"android":"levelo://app?vid=88697e8b-01fd-4696-bab5-73747ef3d57e","ios":"levelo://app?vid=88697e8b-01fd-4696-bab5-73747ef3d57e"},"vehicle_type_id":"4","last_reported":1773862845,"current_range_meters":5600,"station_id":"st_cvj6r9ubvosntc0bgbag","pricing_plan_id":"cebpf4jnsgd1na2vs0mg"},{"bike_id":"6456aee6-6651-4414-9b25-7d3561cff494","system_id":"levelo_inurba_marseille","lat":43.29041,"lon":5.35921,"is_reserved":false,"is_disabled":false,"rental_uris":{"android":"levelo://app?vid=6456aee6-6651-4414-9b25-7d3561cff494","ios":"levelo://app?vid=6456aee6-6651-4414-9b25-7d3561cff494"},"vehicle_type_id":"4","last_reported":1773862845,"current_range_meters":5600,"station_id":"ce4bha92rcd13ifvqeg0","pricing_plan_id":"cebpf4jnsgd1na2vs0mg"},{"bike_id":"b6f89c1d-9d87-487c-842f-47d7637847b1","system_id":"levelo_inurba_marseille","lat":43.27562,"lon":5.38423,"is_reserved":false,"is_disabled":false,"rental_uris":{"android":"levelo://app?vid=b6f89c1d-9d87-487c-842f-47d7637847b1","ios":"levelo://app?vid=b6f89c1d-9d87-487c-842f-47d7637847b1"},"vehicle_type_id":"4","last_reported":1773862845,"current_range_meters":5600,"station_id":"ce4bhh92rcd13ifvqfi0","pricing_plan_id":"cebpf4jnsgd1na2vs0mg"},{"bike_id":"23e67bc3-c6df-471a-b481-46b83c355ff4","system_id":"levelo_inurba_marseille","lat":43.28414,"lon":5.37496,"is_reserved":false,"is_disabled":false,"rental_uris":{"android":"levelo://app?vid=23e67bc3-c6df-471a-b481-46b83c355ff4","ios":"levelo://app?vid=23e67bc3-c6df-471a-b481-46b83c355ff4"},"vehicle_type_id":"4","last_reported":1773862845,"current_range_meters":5600,"station_id":"ce4bh412rcd13ifvqds0","pricing_plan_id":"cebpf4jnsgd1na2vs0mg"},{"bike_id":"70f98469-d2c0-43f4-9102-c6ad6fb97bca","system_id":"levelo_inurba_marseille","lat":43.21739,"lon":5.34588,"is_reserved":false,"is_disabled":false,"rental_uris":{"android":"levelo://app?vid=70f98469-d2c0-43f4-9102-c6ad6fb97bca","ios":"levelo://app?vid=70f98469-d2c0-43f4-9102-c6ad6fb97bca"},"vehicle_type_id":"4","last_reported":1773862845,"current_range_meters":5600,"station_id":"st_cvj6r9ubvosntc0bgbag","pricing_plan_id":"cebpf4jnsgd1na2vs0mg"},{"bike_id":"d921a034-91f6-444c-9a4f-31bbc308387e","system_id":"levelo_inurba_marseille","lat":43.2841,"lon":5.37514,"is_reserved":false,"is_disabled":false,"rental_uris":{"android":"levelo://app?vid=d921a034-91f6-444c-9a4f-31bbc308387e","ios":"levelo://app?vid=d921a034-91f6-444c-9a4f-31bbc308387e"},"vehicle_type_id":"4","last_reported":1773862845,"current_range_meters":5600,"station_id":"ce4bh412rcd13ifvqds0","pricing_plan_id":"cebpf4jnsgd1na2vs0mg"},{"bike_id":"998452df-0edc-4d34-89de-6fb63967106a","system_id":"levelo_inurba_marseille","lat":43.2872,"lon":5.36087,"is_reserved":false,"is_disabled":false,"rental_uris":{"android":"levelo://app?vid=998452df-0edc-4d34-89de-6fb63967106a","ios":"levelo://app?vid=998452df-0edc-4d34-89de-6fb63967106a"},"vehicle_type_id":"4","last_reported":1773862845,"current_range_meters":5600,"station_id":"cki0cbj6b192h4jlfktg","pricing_plan_id":"cebpf4jnsgd1na2vs0mg"},{"bike_id":"f7315d1e-73c8-4876-9e17-aedad5ed61d7","system_id":"levelo_inurba_marseille","lat":43.31121,"lon":5.38638,"is_reserved":false,"is_disabled":false,"rental_uris":{"android":"levelo://app?vid=f7315d1e-73c8-4876-9e17-aedad5ed61d7","ios":"levelo://app?vid=f7315d1e-73c8-4876-9e17-aedad5ed61d7"},"vehicle_type_id":"4","last_reported":1773862845,"current_range_meters":5600,"station_id":"","pricing_plan_id":"cebpf4jnsgd1na2vs0mg"},{"bike_id":"34055039-8545-4d43-80d6-26e8f4a0761a","system_id":"levelo_inurba_marseille","lat":43.3009,"lon":5.39068,"is_reserved":false,"is_disabled":false,"rental_uris":{"android":"levelo://app?vid=34055039-8545-4d43-80d6-26e8f4a0761a","ios":"levelo://app?vid=34055039-8545-4d43-80d6-26e8f4a0761a"},"vehicle_type_id":"4","last_reported":1773862845,"current_range_meters":5600,"station_id":"ce4bh192rcd13ifvqdb0","pricing_plan_id":"cebpf4jnsgd1na2vs0mg"},{"bike_id":"383333ab-900a-4d8e-9e5f-5f8443133843","system_id":"levelo_inurba_marseille","lat":43.23978,"lon":5.36646,"is_reserved":false,"is_disabled":true,"rental_uris":{"android":"levelo://app?vid=383333ab-900a-4d8e-9e5f-5f8443133843","ios":"levelo://app?vid=383333ab-900a-4d8e-9e5f-5f8443133843"},"vehicle_type_id":"4","last_reported":1773862845,"current_range_meters":5600,"station_id":"ce4bhi12rcd13ifvqfp0","pricing_plan_id":"cebpf4jnsgd1na2vs0mg"},{"bike_id":"00bf5a0a-3d38-483a-b835-6c86c7b5be85","system_id":"levelo_inurba_marseille","lat":43.29973,"lon":5.38494,"is_reserved":false,"is_disabled":false,"rental_uris":{"android":"levelo://app?vid=00bf5a0a-3d38-483a-b835-6c86c7b5be85","ios":"levelo://app?vid=00bf5a0a-3d38-483a-b835-6c86c7b5be85"},"vehicle_type_id":"4","last_reported":1773862845,"current_range_meters":5600,"station_id":"ce4bgj92rcd13ifvqbd0","pricing_plan_id":"cebpf4jnsgd1na2vs0mg"},{"bike_id":"50e0584e-4dc0-49b6-950a-79953725031f","system_id":"levelo_inurba_marseille","lat":43.23051,"lon":5.35484,"is_reserved":false,"is_disabled":false,"rental_uris":{"android":"levelo://app?vid=50e0584e-4dc0-49b6-950a-79953725031f","ios":"levelo://app?vid=50e0584e-4dc0-49b6-950a-79953725031f"},"vehicle_type_id":"4","last_reported":1773862845,"current_range_meters":5600,"station_id":"cpo3342slgdg3j2ifvpg","pricing_plan_id":"cebpf4jnsgd1na2vs0mg"},{"bike_id":"f3fd5565-e9b9-4a6a-8913-055f655653b3","system_id":"levelo_inurba_marseille","lat":43.29881,"lon":5.38902,"is_reserved":false,"is_disabled":false,"rental_uris":{"android":"levelo://app?vid=f3fd5565-e9b9-4a6a-8913-055f655653b3","ios":"levelo://app?vid=f3fd5565-e9b9-4a6a-8913-055f655653b3"},"vehicle_type_id":"4","last_reported":1773862845,"current_range_meters":5600,"station_id":"ce4bh392rcd13ifvqdl0","pricing_plan_id":"cebpf4jnsgd1na2vs0mg"},{"bike_id":"2706db3b-3f01-4b6b-a1e9-42e6bda22571","system_id":"levelo_inurba_marseille","lat":43.26206,"lon":5.37289,"is_reserved":false,"is_disabled":false,"rental_uris":{"android":"levelo://app?vid=2706db3b-3f01-4b6b-a1e9-42e6bda22571","ios":"levelo://app?vid=2706db3b-3f01-4b6b-a1e9-42e6bda22571"},"vehicle_type_id":"4","last_reported":1773862845,"current_range_meters":5600,"station_id":"","pricing_plan_id":"cebpf4jnsgd1na2vs0mg"},{"bike_id":"58357ec9-bb31-4121-b1ec-7afaba9486a7","system_id":"levelo_inurba_marseille","lat":43.27372,"lon":5.36262,"is_reserved":false,"is_disabled":false,"rental_uris":{"android":"levelo://app?vid=58357ec9-bb31-4121-b1ec-7afaba9486a7","ios":"levelo://app?vid=58357ec9-bb31-4121-b1ec-7afaba9486a7"},"vehicle_type_id":"4","last_reported":1773862845,"current_range_meters":6000,"station_id":"ce4bhbh2rcd13ifvqeo0","pricing_plan_id":"cebpf4jnsgd1na2vs0mg"},{"bike_id":"2f513ce6-9ea9-4ee4-837d-b9ec74892722","system_id":"levelo_inurba_marseille","lat":43.29267,"lon":5.38429,"is_reserved":false,"is_disabled":false,"rental_uris":{"android":"levelo://app?vid=2f513ce6-9ea9-4ee4-837d-b9ec74892722","ios":"levelo://app?vid=2f513ce6-9ea9-4ee4-837d-b9ec74892722"},"vehicle_type_id":"4","last_reported":1773862845,"current_range_meters":6000,"station_id":"ce4bh692rcd13ifvqea0","pricing_plan_id":"cebpf4jnsgd1na2vs0mg"},{"bike_id":"074f3418-3568-43bb-b077-3701399a7837","system_id":"levelo_inurba_marseille","lat":43.28074,"lon":5.39663,"is_reserved":false,"is_disabled":false,"rental_uris":{"android":"levelo://app?vid=074f3418-3568-43bb-b077-3701399a7837","ios":"levelo://app?vid=074f3418-3568-43bb-b077-3701399a7837"},"vehicle_type_id":"4","last_reported":1773862845,"current_range_meters":6000,"station_id":"ce4bho12rcd13ifvqh2g","pricing_plan_id":"cebpf4jnsgd1na2vs0mg"},{"bike_id":"154549e6-dff1-4f11-be74-c07768345a95","system_id":"levelo_inurba_marseille","lat":43.33025,"lon":5.3904,"is_reserved":false,"is_disabled":false,"rental_uris":{"android":"levelo://app?vid=154549e6-dff1-4f11-be74-c07768345a95","ios":"levelo://app?vid=154549e6-dff1-4f11-be74-c07768345a95"},"vehicle_type_id":"4","last_reported":1773862845,"current_range_meters":6000,"station_id":"ce4bhr92rcd13ifvqhrg","pricing_plan_id":"cebpf4jnsgd1na2vs0mg"},{"bike_id":"66d486a5-6375-4dfe-91e5-8be8f7e4d32f","system_id":"levelo_inurba_marseille","lat":43.29531,"lon":5.38542,"is_reserved":false,"is_disabled":false,"rental_uris":{"android":"levelo://app?vid=66d486a5-6375-4dfe-91e5-8be8f7e4d32f","ios":"levelo://app?vid=66d486a5-6375-4dfe-91e5-8be8f7e4d32f"},"vehicle_type_id":"4","last_reported":1773862845,"current_range_meters":6000,"station_id":"ce4bgih2rcd13ifvqba0","pricing_plan_id":"cebpf4jnsgd1na2vs0mg"},{"bike_id":"d4aa785a-125f-43c6-9322-1d69d4d6a815","system_id":"levelo_inurba_marseille","lat":43.25584,"lon":5.38233,"is_reserved":false,"is_disabled":false,"rental_uris":{"android":"levelo://app?vid=d4aa785a-125f-43c6-9322-1d69d4d6a815","ios":"levelo://app?vid=d4aa785a-125f-43c6-9322-1d69d4d6a815"},"vehicle_type_id":"4","last_reported":1773862845,"current_range_meters":6000,"station_id":"ce4bhih2rcd13ifvqfs0","pricing_plan_id":"cebpf4jnsgd1na2vs0mg"},{"bike_id":"02cd15fa-9f1a-4da0-9238-627ffb4afb73","system_id":"levelo_inurba_marseille","lat":43.30924,"lon":5.40144,"is_reserved":false,"is_disabled":false,"rental_uris":{"android":"levelo://app?vid=02cd15fa-9f1a-4da0-9238-627ffb4afb73","ios":"levelo://app?vid=02cd15fa-9f1a-4da0-9238-627ffb4afb73"},"vehicle_type_id":"4","last_reported":1773862845,"current_range_meters":6000,"station_id":"ce4bgvp2rcd13ifvqct0","pricing_plan_id":"cebpf4jnsgd1na2vs0mg"},{"bike_id":"7c245f6b-63fb-4c36-8493-afb8fd5288f8","system_id":"levelo_inurba_marseille","lat":43.31195,"lon":5.39107,"is_reserved":false,"is_disabled":false,"rental_uris":{"android":"levelo://app?vid=7c245f6b-63fb-4c36-8493-afb8fd5288f8","ios":"levelo://app?vid=7c245f6b-63fb-4c36-8493-afb8fd5288f8"},"vehicle_type_id":"4","last_reported":1773862845,"current_range_meters":6000,"station_id":"","pricing_plan_id":"cebpf4jnsgd1na2vs0mg"},{"bike_id":"47bd96db-d8a1-4527-8c89-4abd84c91665","system_id":"levelo_inurba_marseille","lat":43.28453,"lon":5.35884,"is_reserved":false,"is_disabled":false,"rental_uris":{"android":"levelo://app?vid=47bd96db-d8a1-4527-8c89-4abd84c91665","ios":"levelo://app?vid=47bd96db-d8a1-4527-8c89-4abd84c91665"},"vehicle_type_id":"4","last_reported":1773862845,"current_range_meters":6000,"station_id":"ce4bhah2rcd13ifvqei0","pricing_plan_id":"cebpf4jnsgd1na2vs0mg"},{"bike_id":"3e48724c-334c-40bb-829b-2745d06c127b","system_id":"levelo_inurba_marseille","lat":43.309614,"lon":5.390344,"is_reserved":false,"is_disabled":false,"rental_uris":{"android":"levelo://app?vid=3e48724c-334c-40bb-829b-2745d06c127b","ios":"levelo://app?vid=3e48724c-334c-40bb-829b-2745d06c127b"},"vehicle_type_id":"4","last_reported":1773862845,"current_range_meters":6000,"station_id":"ce4bgup2rcd13ifvqco0","pricing_plan_id":"cebpf4jnsgd1na2vs0mg"},{"bike_id":"6b395937-1b99-482a-a545-63bad39d2d89","system_id":"levelo_inurba_marseille","lat":43.29757,"lon":5.381,"is_reserved":false,"is_disabled":false,"rental_uris":{"android":"levelo://app?vid=6b395937-1b99-482a-a545-63bad39d2d89","ios":"levelo://app?vid=6b395937-1b99-482a-a545-63bad39d2d89"},"vehicle_type_id":"4","last_reported":1773862845,"current_range_meters":6000,"station_id":"","pricing_plan_id":"cebpf4jnsgd1na2vs0mg"},{"bike_id":"d6b81e77-cff9-4f92-bc86-926eba087768","system_id":"levelo_inurba_marseille","lat":43.2953,"lon":5.37499,"is_reserved":false,"is_disabled":false,"rental_uris":{"android":"levelo://app?vid=d6b81e77-cff9-4f92-bc86-926eba087768","ios":"levelo://app?vid=d6b81e77-cff9-4f92-bc86-926eba087768"},"vehicle_type_id":"4","last_reported":1773862845,"current_range_meters":6000,"station_id":"ce4bgkp2rcd13ifvqbmg","pricing_plan_id":"cebpf4jnsgd1na2vs0mg"},{"bike_id":"f8f49e98-05ed-4889-9345-c4007eb9de13","system_id":"levelo_inurba_marseille","lat":43.30656,"lon":5.40071,"is_reserved":false,"is_disabled":false,"rental_uris":{"android":"levelo://app?vid=f8f49e98-05ed-4889-9345-c4007eb9de13","ios":"levelo://app?vid=f8f49e98-05ed-4889-9345-c4007eb9de13"},"vehicle_type_id":"4","last_reported":1773862845,"current_range_meters":6400,"station_id":"ce4bh112rcd13ifvqda0","pricing_plan_id":"cebpf4jnsgd1na2vs0mg"},{"bike_id":"5032ee4c-643b-4fa7-8a5c-8d5e764831f6","system_id":"levelo_inurba_marseille","lat":43.21744,"lon":5.34608,"is_reserved":false,"is_disabled":false,"rental_uris":{"android":"levelo://app?vid=5032ee4c-643b-4fa7-8a5c-8d5e764831f6","ios":"levelo://app?vid=5032ee4c-643b-4fa7-8a5c-8d5e764831f6"},"vehicle_type_id":"4","last_reported":1773862845,"current_range_meters":6400,"station_id":"st_cvj6r9ubvosntc0bgbag","pricing_plan_id":"cebpf4jnsgd1na2vs0mg"},{"bike_id":"e28e9028-fb45-4434-9ef5-492e447993e4","system_id":"levelo_inurba_marseille","lat":43.30138,"lon":5.37415,"is_reserved":false,"is_disabled":false,"rental_uris":{"android":"levelo://app?vid=e28e9028-fb45-4434-9ef5-492e447993e4","ios":"levelo://app?vid=e28e9028-fb45-4434-9ef5-492e447993e4"},"vehicle_type_id":"4","last_reported":1773862845,"current_range_meters":6400,"station_id":"ce4bgs92rcd13ifvqcc0","pricing_plan_id":"cebpf4jnsgd1na2vs0mg"},{"bike_id":"94b88152-8fdd-4f8d-b76b-9c3921a57772","system_id":"levelo_inurba_marseille","lat":43.29625,"lon":5.37719,"is_reserved":false,"is_disabled":false,"rental_uris":{"android":"levelo://app?vid=94b88152-8fdd-4f8d-b76b-9c3921a57772","ios":"levelo://app?vid=94b88152-8fdd-4f8d-b76b-9c3921a57772"},"vehicle_type_id":"4","last_reported":1773862845,"current_range_meters":6400,"station_id":"ce4bgi92rcd13ifvqb90","pricing_plan_id":"cebpf4jnsgd1na2vs0mg"},{"bike_id":"165937d6-ce2b-40b6-a5d1-075f8ecca5d0","system_id":"levelo_inurba_marseille","lat":43.299012,"lon":5.374615,"is_reserved":false,"is_disabled":false,"rental_uris":{"android":"levelo://app?vid=165937d6-ce2b-40b6-a5d1-075f8ecca5d0","ios":"levelo://app?vid=165937d6-ce2b-40b6-a5d1-075f8ecca5d0"},"vehicle_type_id":"4","last_reported":1773862845,"current_range_meters":6400,"station_id":"ce4bgjh2rcd13ifvqbg0","pricing_plan_id":"cebpf4jnsgd1na2vs0mg"},{"bike_id":"3c1936f5-b26d-49a9-b2f4-e35f040f724a","system_id":"levelo_inurba_marseille","lat":43.28697,"lon":5.37422,"is_reserved":false,"is_disabled":false,"rental_uris":{"android":"levelo://app?vid=3c1936f5-b26d-49a9-b2f4-e35f040f724a","ios":"levelo://app?vid=3c1936f5-b26d-49a9-b2f4-e35f040f724a"},"vehicle_type_id":"4","last_reported":1773862845,"current_range_meters":6400,"station_id":"ce4bh3p2rcd13ifvqdq0","pricing_plan_id":"cebpf4jnsgd1na2vs0mg"},{"bike_id":"15d16198-178f-4581-9c99-d0f097b847d4","system_id":"levelo_inurba_marseille","lat":43.2866,"lon":5.4424,"is_reserved":false,"is_disabled":false,"rental_uris":{"android":"levelo://app?vid=15d16198-178f-4581-9c99-d0f097b847d4","ios":"levelo://app?vid=15d16198-178f-4581-9c99-d0f097b847d4"},"vehicle_type_id":"4","last_reported":1773862845,"current_range_meters":6400,"station_id":"","pricing_plan_id":"cebpf4jnsgd1na2vs0mg"},{"bike_id":"e2a98eaa-25b8-4479-b80e-51461339885e","system_id":"levelo_inurba_marseille","lat":43.23783,"lon":5.36633,"is_reserved":false,"is_disabled":false,"rental_uris":{"android":"levelo://app?vid=e2a98eaa-25b8-4479-b80e-51461339885e","ios":"levelo://app?vid=e2a98eaa-25b8-4479-b80e-51461339885e"},"vehicle_type_id":"4","last_reported":1773862845,"current_range_meters":6400,"station_id":"st_d3nk18o9ro0c73en2l3g","pricing_plan_id":"cebpf4jnsgd1na2vs0mg"},{"bike_id":"779b8a3c-1846-46b5-9cab-bf0ec2b1118f","system_id":"levelo_inurba_marseille","lat":43.28451,"lon":5.48402,"is_reserved":false,"is_disabled":false,"rental_uris":{"android":"levelo://app?vid=779b8a3c-1846-46b5-9cab-bf0ec2b1118f","ios":"levelo://app?vid=779b8a3c-1846-46b5-9cab-bf0ec2b1118f"},"vehicle_type_id":"4","last_reported":1773862845,"current_range_meters":6400,"station_id":"st_d3svhcjqgbts73a3dn0g","pricing_plan_id":"cebpf4jnsgd1na2vs0mg"},{"bike_id":"91472141-3427-4a3c-8d44-aa322d033af6","system_id":"levelo_inurba_marseille","lat":43.28938,"lon":5.38382,"is_reserved":false,"is_disabled":false,"rental_uris":{"android":"levelo://app?vid=91472141-3427-4a3c-8d44-aa322d033af6","ios":"levelo://app?vid=91472141-3427-4a3c-8d44-aa322d033af6"},"vehicle_type_id":"4","last_reported":1773862845,"current_range_meters":6400,"station_id":"ce4bh612rcd13ifvqe6g","pricing_plan_id":"cebpf4jnsgd1na2vs0mg"},{"bike_id":"761d37d3-db89-4d13-9748-49c3d92df949","system_id":"levelo_inurba_marseille","lat":43.24804,"lon":5.37449,"is_reserved":false,"is_disabled":false,"rental_uris":{"android":"levelo://app?vid=761d37d3-db89-4d13-9748-49c3d92df949","ios":"levelo://app?vid=761d37d3-db89-4d13-9748-49c3d92df949"},"vehicle_type_id":"4","last_reported":1773862845,"current_range_meters":6800,"station_id":"ce4bhgh2rcd13ifvqfb0","pricing_plan_id":"cebpf4jnsgd1na2vs0mg"},{"bike_id":"310c306c-2bdc-4015-9f37-e24f2fc18325","system_id":"levelo_inurba_marseille","lat":43.29684,"lon":5.36595,"is_reserved":false,"is_disabled":false,"rental_uris":{"android":"levelo://app?vid=310c306c-2bdc-4015-9f37-e24f2fc18325","ios":"levelo://app?vid=310c306c-2bdc-4015-9f37-e24f2fc18325"},"vehicle_type_id":"4","last_reported":1773862845,"current_range_meters":6800,"station_id":"ce4bgn12rcd13ifvqbt0","pricing_plan_id":"cebpf4jnsgd1na2vs0mg"},{"bike_id":"b4e54967-4eb4-45f5-a80e-01baddc6b232","system_id":"levelo_inurba_marseille","lat":43.29269,"lon":5.40138,"is_reserved":false,"is_disabled":true,"rental_uris":{"android":"levelo://app?vid=b4e54967-4eb4-45f5-a80e-01baddc6b232","ios":"levelo://app?vid=b4e54967-4eb4-45f5-a80e-01baddc6b232"},"vehicle_type_id":"4","last_reported":1773862845,"current_range_meters":6800,"station_id":"ce4bh312rcd13ifvqdk0","pricing_plan_id":"cebpf4jnsgd1na2vs0mg"},{"bike_id":"82304c29-4882-4609-8ac8-14cd6fc2d3aa","system_id":"levelo_inurba_marseille","lat":43.30289,"lon":5.37719,"is_reserved":false,"is_disabled":false,"rental_uris":{"android":"levelo://app?vid=82304c29-4882-4609-8ac8-14cd6fc2d3aa","ios":"levelo://app?vid=82304c29-4882-4609-8ac8-14cd6fc2d3aa"},"vehicle_type_id":"4","last_reported":1773862845,"current_range_meters":6800,"station_id":"ce4bguh2rcd13ifvqcj0","pricing_plan_id":"cebpf4jnsgd1na2vs0mg"},{"bike_id":"af3a9a52-e66c-4d6a-a71d-39ea70e05d98","system_id":"levelo_inurba_marseille","lat":43.25578,"lon":5.38228,"is_reserved":false,"is_disabled":false,"rental_uris":{"android":"levelo://app?vid=af3a9a52-e66c-4d6a-a71d-39ea70e05d98","ios":"levelo://app?vid=af3a9a52-e66c-4d6a-a71d-39ea70e05d98"},"vehicle_type_id":"4","last_reported":1773862845,"current_range_meters":6800,"station_id":"ce4bhih2rcd13ifvqfs0","pricing_plan_id":"cebpf4jnsgd1na2vs0mg"},{"bike_id":"1eeb8fd8-3c0c-40ec-bab7-6b173acf9405","system_id":"levelo_inurba_marseille","lat":43.22945,"lon":5.35364,"is_reserved":false,"is_disabled":false,"rental_uris":{"android":"levelo://app?vid=1eeb8fd8-3c0c-40ec-bab7-6b173acf9405","ios":"levelo://app?vid=1eeb8fd8-3c0c-40ec-bab7-6b173acf9405"},"vehicle_type_id":"4","last_reported":1773862845,"current_range_meters":6800,"station_id":"cpo3532slgdg3j2ikp40","pricing_plan_id":"cebpf4jnsgd1na2vs0mg"},{"bike_id":"b1678298-3f5b-4e9b-bb34-63fa7c9d9c9c","system_id":"levelo_inurba_marseille","lat":43.28473,"lon":5.48389,"is_reserved":false,"is_disabled":false,"rental_uris":{"android":"levelo://app?vid=b1678298-3f5b-4e9b-bb34-63fa7c9d9c9c","ios":"levelo://app?vid=b1678298-3f5b-4e9b-bb34-63fa7c9d9c9c"},"vehicle_type_id":"4","last_reported":1773862845,"current_range_meters":6800,"station_id":"","pricing_plan_id":"cebpf4jnsgd1na2vs0mg"},{"bike_id":"d86f7f17-c40c-40d2-9445-70d30fa0ef64","system_id":"levelo_inurba_marseille","lat":43.21738,"lon":5.34619,"is_reserved":false,"is_disabled":true,"rental_uris":{"android":"levelo://app?vid=d86f7f17-c40c-40d2-9445-70d30fa0ef64","ios":"levelo://app?vid=d86f7f17-c40c-40d2-9445-70d30fa0ef64"},"vehicle_type_id":"4","last_reported":1773862845,"current_range_meters":6800,"station_id":"st_cvj6r9ubvosntc0bgbag","pricing_plan_id":"cebpf4jnsgd1na2vs0mg"},{"bike_id":"314a79eb-3b85-4ad3-93cb-d44c45467ba8","system_id":"levelo_inurba_marseille","lat":43.24803,"lon":5.37459,"is_reserved":false,"is_disabled":false,"rental_uris":{"android":"levelo://app?vid=314a79eb-3b85-4ad3-93cb-d44c45467ba8","ios":"levelo://app?vid=314a79eb-3b85-4ad3-93cb-d44c45467ba8"},"vehicle_type_id":"4","last_reported":1773862845,"current_range_meters":6800,"station_id":"ce4bhgh2rcd13ifvqfb0","pricing_plan_id":"cebpf4jnsgd1na2vs0mg"},{"bike_id":"c864a019-81a7-4cbc-adb6-e2e79c211ab9","system_id":"levelo_inurba_marseille","lat":43.30612,"lon":5.37228,"is_reserved":false,"is_disabled":false,"rental_uris":{"android":"levelo://app?vid=c864a019-81a7-4cbc-adb6-e2e79c211ab9","ios":"levelo://app?vid=c864a019-81a7-4cbc-adb6-e2e79c211ab9"},"vehicle_type_id":"4","last_reported":1773862845,"current_range_meters":6800,"station_id":"ce4bgqh2rcd13ifvqc4g","pricing_plan_id":"cebpf4jnsgd1na2vs0mg"},{"bike_id":"9d99e656-43f9-4521-b575-035a903587ec","system_id":"levelo_inurba_marseille","lat":43.28579,"lon":5.39498,"is_reserved":false,"is_disabled":true,"rental_uris":{"android":"levelo://app?vid=9d99e656-43f9-4521-b575-035a903587ec","ios":"levelo://app?vid=9d99e656-43f9-4521-b575-035a903587ec"},"vehicle_type_id":"4","last_reported":1773862845,"current_range_meters":6800,"station_id":"ce4bh292rcd13ifvqdg0","pricing_plan_id":"cebpf4jnsgd1na2vs0mg"},{"bike_id":"0a7689c5-49a7-40b4-8f79-83024edaab9a","system_id":"levelo_inurba_marseille","lat":43.28563,"lon":5.3949,"is_reserved":false,"is_disabled":false,"rental_uris":{"android":"levelo://app?vid=0a7689c5-49a7-40b4-8f79-83024edaab9a","ios":"levelo://app?vid=0a7689c5-49a7-40b4-8f79-83024edaab9a"},"vehicle_type_id":"4","last_reported":1773862845,"current_range_meters":6800,"station_id":"ce4bh292rcd13ifvqdg0","pricing_plan_id":"cebpf4jnsgd1na2vs0mg"},{"bike_id":"4f03ad8a-551b-452a-933c-cb3d3a86555a","system_id":"levelo_inurba_marseille","lat":43.31752,"lon":5.39024,"is_reserved":false,"is_disabled":false,"rental_uris":{"android":"levelo://app?vid=4f03ad8a-551b-452a-933c-cb3d3a86555a","ios":"levelo://app?vid=4f03ad8a-551b-452a-933c-cb3d3a86555a"},"vehicle_type_id":"4","last_reported":1773862845,"current_range_meters":6800,"station_id":"ce4bhqp2rcd13ifvqhng","pricing_plan_id":"cebpf4jnsgd1na2vs0mg"},{"bike_id":"0a9f2b93-3661-4aea-a43a-73544dfa8209","system_id":"levelo_inurba_marseille","lat":43.2872,"lon":5.36094,"is_reserved":false,"is_disabled":false,"rental_uris":{"android":"levelo://app?vid=0a9f2b93-3661-4aea-a43a-73544dfa8209","ios":"levelo://app?vid=0a9f2b93-3661-4aea-a43a-73544dfa8209"},"vehicle_type_id":"4","last_reported":1773862845,"current_range_meters":6800,"station_id":"cki0cbj6b192h4jlfktg","pricing_plan_id":"cebpf4jnsgd1na2vs0mg"},{"bike_id":"a9d31829-7e0d-482f-af05-97ddd320ae16","system_id":"levelo_inurba_marseille","lat":43.29763,"lon":5.42799,"is_reserved":false,"is_disabled":true,"rental_uris":{"android":"levelo://app?vid=a9d31829-7e0d-482f-af05-97ddd320ae16","ios":"levelo://app?vid=a9d31829-7e0d-482f-af05-97ddd320ae16"},"vehicle_type_id":"4","last_reported":1773862845,"current_range_meters":6800,"station_id":"st_d3md5207bmas73dh9klg","pricing_plan_id":"cebpf4jnsgd1na2vs0mg"},{"bike_id":"04a672df-c3bb-4c7f-bb76-8e3d4b80c3af","system_id":"levelo_inurba_marseille","lat":43.284064,"lon":5.37511,"is_reserved":false,"is_disabled":false,"rental_uris":{"android":"levelo://app?vid=04a672df-c3bb-4c7f-bb76-8e3d4b80c3af","ios":"levelo://app?vid=04a672df-c3bb-4c7f-bb76-8e3d4b80c3af"},"vehicle_type_id":"4","last_reported":1773862845,"current_range_meters":6800,"station_id":"ce4bh412rcd13ifvqds0","pricing_plan_id":"cebpf4jnsgd1na2vs0mg"},{"bike_id":"e107cb22-a13d-4c03-93ce-8114e06b9a0f","system_id":"levelo_inurba_marseille","lat":43.28497,"lon":5.48395,"is_reserved":false,"is_disabled":false,"rental_uris":{"android":"levelo://app?vid=e107cb22-a13d-4c03-93ce-8114e06b9a0f","ios":"levelo://app?vid=e107cb22-a13d-4c03-93ce-8114e06b9a0f"},"vehicle_type_id":"4","last_reported":1773862845,"current_range_meters":6800,"station_id":"","pricing_plan_id":"cebpf4jnsgd1na2vs0mg"},{"bike_id":"ee206628-58d2-4e13-b61f-f55e529e633b","system_id":"levelo_inurba_marseille","lat":43.29536,"lon":5.38559,"is_reserved":false,"is_disabled":false,"rental_uris":{"android":"levelo://app?vid=ee206628-58d2-4e13-b61f-f55e529e633b","ios":"levelo://app?vid=ee206628-58d2-4e13-b61f-f55e529e633b"},"vehicle_type_id":"4","last_reported":1773862845,"current_range_meters":6800,"station_id":"ce4bgih2rcd13ifvqba0","pricing_plan_id":"cebpf4jnsgd1na2vs0mg"},{"bike_id":"998cdaaf-73ad-4922-a749-e363c1f99118","system_id":"levelo_inurba_marseille","lat":43.297598,"lon":5.427768,"is_reserved":false,"is_disabled":false,"rental_uris":{"android":"levelo://app?vid=998cdaaf-73ad-4922-a749-e363c1f99118","ios":"levelo://app?vid=998cdaaf-73ad-4922-a749-e363c1f99118"},"vehicle_type_id":"4","last_reported":1773862845,"current_range_meters":6800,"station_id":"st_d3md5207bmas73dh9klg","pricing_plan_id":"cebpf4jnsgd1na2vs0mg"},{"bike_id":"31e5fe70-8cb7-4014-8225-8ae6146674ce","system_id":"levelo_inurba_marseille","lat":43.27574,"lon":5.3844,"is_reserved":false,"is_disabled":false,"rental_uris":{"android":"levelo://app?vid=31e5fe70-8cb7-4014-8225-8ae6146674ce","ios":"levelo://app?vid=31e5fe70-8cb7-4014-8225-8ae6146674ce"},"vehicle_type_id":"4","last_reported":1773862845,"current_range_meters":7200,"station_id":"ce4bhh92rcd13ifvqfi0","pricing_plan_id":"cebpf4jnsgd1na2vs0mg"},{"bike_id":"ddd699fd-bc61-436c-af3c-691ad0f5c900","system_id":"levelo_inurba_marseille","lat":43.26907,"lon":5.40249,"is_reserved":false,"is_disabled":false,"rental_uris":{"android":"levelo://app?vid=ddd699fd-bc61-436c-af3c-691ad0f5c900","ios":"levelo://app?vid=ddd699fd-bc61-436c-af3c-691ad0f5c900"},"vehicle_type_id":"4","last_reported":1773862845,"current_range_meters":7200,"station_id":"cjm6bp8fraef2m0cb0m0","pricing_plan_id":"cebpf4jnsgd1na2vs0mg"},{"bike_id":"a8c51388-9cb7-40d8-9f83-0c1bff1683d1","system_id":"levelo_inurba_marseille","lat":43.29527,"lon":5.39017,"is_reserved":false,"is_disabled":false,"rental_uris":{"android":"levelo://app?vid=a8c51388-9cb7-40d8-9f83-0c1bff1683d1","ios":"levelo://app?vid=a8c51388-9cb7-40d8-9f83-0c1bff1683d1"},"vehicle_type_id":"4","last_reported":1773862845,"current_range_meters":7200,"station_id":"ce4bh3p2rcd13ifvqdp0","pricing_plan_id":"cebpf4jnsgd1na2vs0mg"},{"bike_id":"d0b1f448-6af4-4ef1-a755-e03baf4488aa","system_id":"levelo_inurba_marseille","lat":43.29249,"lon":5.35756,"is_reserved":false,"is_disabled":false,"rental_uris":{"android":"levelo://app?vid=d0b1f448-6af4-4ef1-a755-e03baf4488aa","ios":"levelo://app?vid=d0b1f448-6af4-4ef1-a755-e03baf4488aa"},"vehicle_type_id":"4","last_reported":1773862845,"current_range_meters":7200,"station_id":"","pricing_plan_id":"cebpf4jnsgd1na2vs0mg"},{"bike_id":"ed16ab64-9c0f-4050-80fd-94e1f15913c3","system_id":"levelo_inurba_marseille","lat":43.25063,"lon":5.40498,"is_reserved":false,"is_disabled":false,"rental_uris":{"android":"levelo://app?vid=ed16ab64-9c0f-4050-80fd-94e1f15913c3","ios":"levelo://app?vid=ed16ab64-9c0f-4050-80fd-94e1f15913c3"},"vehicle_type_id":"4","last_reported":1773862845,"current_range_meters":7200,"station_id":"","pricing_plan_id":"cebpf4jnsgd1na2vs0mg"},{"bike_id":"cafac4ee-eb60-4e1b-87db-d0adfc00b40d","system_id":"levelo_inurba_marseille","lat":43.33532,"lon":5.37448,"is_reserved":false,"is_disabled":false,"rental_uris":{"android":"levelo://app?vid=cafac4ee-eb60-4e1b-87db-d0adfc00b40d","ios":"levelo://app?vid=cafac4ee-eb60-4e1b-87db-d0adfc00b40d"},"vehicle_type_id":"4","last_reported":1773862845,"current_range_meters":7200,"station_id":"st_d46tts09ee8s73dlu43g","pricing_plan_id":"cebpf4jnsgd1na2vs0mg"},{"bike_id":"dc4b4bfa-bb92-4389-9db7-7fc0f392d0ba","system_id":"levelo_inurba_marseille","lat":43.28998,"lon":5.35606,"is_reserved":false,"is_disabled":false,"rental_uris":{"android":"levelo://app?vid=dc4b4bfa-bb92-4389-9db7-7fc0f392d0ba","ios":"levelo://app?vid=dc4b4bfa-bb92-4389-9db7-7fc0f392d0ba"},"vehicle_type_id":"4","last_reported":1773862845,"current_range_meters":7200,"station_id":"ce4bhb92rcd13ifvqen0","pricing_plan_id":"cebpf4jnsgd1na2vs0mg"},{"bike_id":"7c7fc7a8-9712-4e78-a310-80458f55e1a3","system_id":"levelo_inurba_marseille","lat":43.29091,"lon":5.38153,"is_reserved":false,"is_disabled":false,"rental_uris":{"android":"levelo://app?vid=7c7fc7a8-9712-4e78-a310-80458f55e1a3","ios":"levelo://app?vid=7c7fc7a8-9712-4e78-a310-80458f55e1a3"},"vehicle_type_id":"4","last_reported":1773862845,"current_range_meters":7200,"station_id":"ce4bh512rcd13ifvqe2g","pricing_plan_id":"cebpf4jnsgd1na2vs0mg"},{"bike_id":"447b11a1-21b5-4523-80dc-ebe593853403","system_id":"levelo_inurba_marseille","lat":43.29206,"lon":5.4267,"is_reserved":false,"is_disabled":false,"rental_uris":{"android":"levelo://app?vid=447b11a1-21b5-4523-80dc-ebe593853403","ios":"levelo://app?vid=447b11a1-21b5-4523-80dc-ebe593853403"},"vehicle_type_id":"4","last_reported":1773862845,"current_range_meters":7200,"station_id":"","pricing_plan_id":"cebpf4jnsgd1na2vs0mg"},{"bike_id":"3ff5f587-2947-4011-9a04-420132efce93","system_id":"levelo_inurba_marseille","lat":43.30121,"lon":5.43118,"is_reserved":false,"is_disabled":false,"rental_uris":{"android":"levelo://app?vid=3ff5f587-2947-4011-9a04-420132efce93","ios":"levelo://app?vid=3ff5f587-2947-4011-9a04-420132efce93"},"vehicle_type_id":"4","last_reported":1773862845,"current_range_meters":7200,"station_id":"st_d3js3co5814s73ftftug","pricing_plan_id":"cebpf4jnsgd1na2vs0mg"},{"bike_id":"7f525873-ae6b-4fe8-b726-8084d0eb387b","system_id":"levelo_inurba_marseille","lat":43.28343,"lon":5.38106,"is_reserved":false,"is_disabled":false,"rental_uris":{"android":"levelo://app?vid=7f525873-ae6b-4fe8-b726-8084d0eb387b","ios":"levelo://app?vid=7f525873-ae6b-4fe8-b726-8084d0eb387b"},"vehicle_type_id":"4","last_reported":1773862845,"current_range_meters":7200,"station_id":"ce4bh412rcd13ifvqdr0","pricing_plan_id":"cebpf4jnsgd1na2vs0mg"},{"bike_id":"48d767bb-eb87-41ba-92f1-14b6b02431a2","system_id":"levelo_inurba_marseille","lat":43.28729,"lon":5.36077,"is_reserved":false,"is_disabled":false,"rental_uris":{"android":"levelo://app?vid=48d767bb-eb87-41ba-92f1-14b6b02431a2","ios":"levelo://app?vid=48d767bb-eb87-41ba-92f1-14b6b02431a2"},"vehicle_type_id":"4","last_reported":1773862845,"current_range_meters":8000,"station_id":"cki0cbj6b192h4jlfktg","pricing_plan_id":"cebpf4jnsgd1na2vs0mg"},{"bike_id":"1c51670a-46e5-4a0c-9d9c-3c2806d077a8","system_id":"levelo_inurba_marseille","lat":43.29039,"lon":5.38201,"is_reserved":false,"is_disabled":true,"rental_uris":{"android":"levelo://app?vid=1c51670a-46e5-4a0c-9d9c-3c2806d077a8","ios":"levelo://app?vid=1c51670a-46e5-4a0c-9d9c-3c2806d077a8"},"vehicle_type_id":"4","last_reported":1773862845,"current_range_meters":8000,"station_id":"","pricing_plan_id":"cebpf4jnsgd1na2vs0mg"},{"bike_id":"0c568fbf-621d-4cc8-ade7-4b24ab6705de","system_id":"levelo_inurba_marseille","lat":43.21744,"lon":5.34591,"is_reserved":false,"is_disabled":false,"rental_uris":{"android":"levelo://app?vid=0c568fbf-621d-4cc8-ade7-4b24ab6705de","ios":"levelo://app?vid=0c568fbf-621d-4cc8-ade7-4b24ab6705de"},"vehicle_type_id":"4","last_reported":1773862845,"current_range_meters":8000,"station_id":"st_cvj6r9ubvosntc0bgbag","pricing_plan_id":"cebpf4jnsgd1na2vs0mg"},{"bike_id":"cc4917af-1d93-4de8-82bb-592695b87d0d","system_id":"levelo_inurba_marseille","lat":43.30661,"lon":5.40069,"is_reserved":false,"is_disabled":false,"rental_uris":{"android":"levelo://app?vid=cc4917af-1d93-4de8-82bb-592695b87d0d","ios":"levelo://app?vid=cc4917af-1d93-4de8-82bb-592695b87d0d"},"vehicle_type_id":"4","last_reported":1773862845,"current_range_meters":8000,"station_id":"ce4bh112rcd13ifvqda0","pricing_plan_id":"cebpf4jnsgd1na2vs0mg"},{"bike_id":"bd60a6ec-18d4-4476-ab1b-f354043c4b72","system_id":"levelo_inurba_marseille","lat":43.29791,"lon":5.42675,"is_reserved":false,"is_disabled":false,"rental_uris":{"android":"levelo://app?vid=bd60a6ec-18d4-4476-ab1b-f354043c4b72","ios":"levelo://app?vid=bd60a6ec-18d4-4476-ab1b-f354043c4b72"},"vehicle_type_id":"4","last_reported":1773862845,"current_range_meters":8000,"station_id":"","pricing_plan_id":"cebpf4jnsgd1na2vs0mg"},{"bike_id":"2cd6d2c4-9839-4b08-8d75-805c4c2214dc","system_id":"levelo_inurba_marseille","lat":43.23047,"lon":5.35497,"is_reserved":false,"is_disabled":false,"rental_uris":{"android":"levelo://app?vid=2cd6d2c4-9839-4b08-8d75-805c4c2214dc","ios":"levelo://app?vid=2cd6d2c4-9839-4b08-8d75-805c4c2214dc"},"vehicle_type_id":"4","last_reported":1773862845,"current_range_meters":8000,"station_id":"cpo3342slgdg3j2ifvpg","pricing_plan_id":"cebpf4jnsgd1na2vs0mg"},{"bike_id":"bc4c9f9a-a072-4c69-974c-37b868f9defc","system_id":"levelo_inurba_marseille","lat":43.29264,"lon":5.40912,"is_reserved":false,"is_disabled":false,"rental_uris":{"android":"levelo://app?vid=bc4c9f9a-a072-4c69-974c-37b868f9defc","ios":"levelo://app?vid=bc4c9f9a-a072-4c69-974c-37b868f9defc"},"vehicle_type_id":"4","last_reported":1773862845,"current_range_meters":8000,"station_id":"ce4bh192rcd13ifvqdc0","pricing_plan_id":"cebpf4jnsgd1na2vs0mg"},{"bike_id":"6a5395a4-a487-4073-83f0-9bc9b9c961e9","system_id":"levelo_inurba_marseille","lat":43.29854,"lon":5.39748,"is_reserved":false,"is_disabled":false,"rental_uris":{"android":"levelo://app?vid=6a5395a4-a487-4073-83f0-9bc9b9c961e9","ios":"levelo://app?vid=6a5395a4-a487-4073-83f0-9bc9b9c961e9"},"vehicle_type_id":"4","last_reported":1773862845,"current_range_meters":8000,"station_id":"ce4bh0h2rcd13ifvqd50","pricing_plan_id":"cebpf4jnsgd1na2vs0mg"},{"bike_id":"35654e12-233a-4410-9b0d-c7a68cd6bff0","system_id":"levelo_inurba_marseille","lat":43.25076,"lon":5.39512,"is_reserved":false,"is_disabled":false,"rental_uris":{"android":"levelo://app?vid=35654e12-233a-4410-9b0d-c7a68cd6bff0","ios":"levelo://app?vid=35654e12-233a-4410-9b0d-c7a68cd6bff0"},"vehicle_type_id":"4","last_reported":1773862845,"current_range_meters":8000,"station_id":"ce4bhm12rcd13ifvqgkg","pricing_plan_id":"cebpf4jnsgd1na2vs0mg"},{"bike_id":"90e06dc1-4034-4aa0-b2a4-e14e93cda8f6","system_id":"levelo_inurba_marseille","lat":43.28453,"lon":5.35891,"is_reserved":false,"is_disabled":false,"rental_uris":{"android":"levelo://app?vid=90e06dc1-4034-4aa0-b2a4-e14e93cda8f6","ios":"levelo://app?vid=90e06dc1-4034-4aa0-b2a4-e14e93cda8f6"},"vehicle_type_id":"4","last_reported":1773862845,"current_range_meters":8000,"station_id":"ce4bhah2rcd13ifvqei0","pricing_plan_id":"cebpf4jnsgd1na2vs0mg"},{"bike_id":"bb83a2d1-c85e-4796-a6c7-5c08b1153044","system_id":"levelo_inurba_marseille","lat":43.30642,"lon":5.40087,"is_reserved":false,"is_disabled":false,"rental_uris":{"android":"levelo://app?vid=bb83a2d1-c85e-4796-a6c7-5c08b1153044","ios":"levelo://app?vid=bb83a2d1-c85e-4796-a6c7-5c08b1153044"},"vehicle_type_id":"4","last_reported":1773862845,"current_range_meters":8000,"station_id":"ce4bh112rcd13ifvqda0","pricing_plan_id":"cebpf4jnsgd1na2vs0mg"},{"bike_id":"5173eb01-1501-409d-8735-5cd4a7564229","system_id":"levelo_inurba_marseille","lat":43.31791,"lon":5.44615,"is_reserved":false,"is_disabled":false,"rental_uris":{"android":"levelo://app?vid=5173eb01-1501-409d-8735-5cd4a7564229","ios":"levelo://app?vid=5173eb01-1501-409d-8735-5cd4a7564229"},"vehicle_type_id":"4","last_reported":1773862845,"current_range_meters":8000,"station_id":"","pricing_plan_id":"cebpf4jnsgd1na2vs0mg"},{"bike_id":"9bf9f333-c85f-4fb8-becd-b5a189837058","system_id":"levelo_inurba_marseille","lat":43.29289,"lon":5.37192,"is_reserved":false,"is_disabled":false,"rental_uris":{"android":"levelo://app?vid=9bf9f333-c85f-4fb8-becd-b5a189837058","ios":"levelo://app?vid=9bf9f333-c85f-4fb8-becd-b5a189837058"},"vehicle_type_id":"4","last_reported":1773862845,"current_range_meters":8000,"station_id":"ce4bgh92rcd13ifvqb40","pricing_plan_id":"cebpf4jnsgd1na2vs0mg"},{"bike_id":"d4d74bf8-4bbf-4533-a8d2-35bf48e3fd26","system_id":"levelo_inurba_marseille","lat":43.28153,"lon":5.4265,"is_reserved":false,"is_disabled":false,"rental_uris":{"android":"levelo://app?vid=d4d74bf8-4bbf-4533-a8d2-35bf48e3fd26","ios":"levelo://app?vid=d4d74bf8-4bbf-4533-a8d2-35bf48e3fd26"},"vehicle_type_id":"4","last_reported":1773862845,"current_range_meters":8000,"station_id":"ce4bhnh2rcd13ifvqgug","pricing_plan_id":"cebpf4jnsgd1na2vs0mg"},{"bike_id":"c5b4f8a5-5a6c-40ba-9197-52b134bfa2c4","system_id":"levelo_inurba_marseille","lat":43.3043,"lon":5.38981,"is_reserved":false,"is_disabled":false,"rental_uris":{"android":"levelo://app?vid=c5b4f8a5-5a6c-40ba-9197-52b134bfa2c4","ios":"levelo://app?vid=c5b4f8a5-5a6c-40ba-9197-52b134bfa2c4"},"vehicle_type_id":"4","last_reported":1773862845,"current_range_meters":8000,"station_id":"","pricing_plan_id":"cebpf4jnsgd1na2vs0mg"},{"bike_id":"cb3029c7-0149-4f9c-8dc1-4f0e046356bf","system_id":"levelo_inurba_marseille","lat":43.29851,"lon":5.3974,"is_reserved":false,"is_disabled":false,"rental_uris":{"android":"levelo://app?vid=cb3029c7-0149-4f9c-8dc1-4f0e046356bf","ios":"levelo://app?vid=cb3029c7-0149-4f9c-8dc1-4f0e046356bf"},"vehicle_type_id":"4","last_reported":1773862845,"current_range_meters":8000,"station_id":"ce4bh0h2rcd13ifvqd50","pricing_plan_id":"cebpf4jnsgd1na2vs0mg"},{"bike_id":"fad8e96d-acb2-4874-9608-7180f6b034b8","system_id":"levelo_inurba_marseille","lat":43.29156,"lon":5.40811,"is_reserved":false,"is_disabled":false,"rental_uris":{"android":"levelo://app?vid=fad8e96d-acb2-4874-9608-7180f6b034b8","ios":"levelo://app?vid=fad8e96d-acb2-4874-9608-7180f6b034b8"},"vehicle_type_id":"4","last_reported":1773862845,"current_range_meters":8000,"station_id":"","pricing_plan_id":"cebpf4jnsgd1na2vs0mg"},{"bike_id":"df328e25-1611-43bf-a2a1-3abfc13c8928","system_id":"levelo_inurba_marseille","lat":43.24817,"lon":5.37451,"is_reserved":false,"is_disabled":false,"rental_uris":{"android":"levelo://app?vid=df328e25-1611-43bf-a2a1-3abfc13c8928","ios":"levelo://app?vid=df328e25-1611-43bf-a2a1-3abfc13c8928"},"vehicle_type_id":"4","last_reported":1773862845,"current_range_meters":8000,"station_id":"ce4bhgh2rcd13ifvqfb0","pricing_plan_id":"cebpf4jnsgd1na2vs0mg"},{"bike_id":"78550e31-cac3-41b7-9cdb-ada276a0fa08","system_id":"levelo_inurba_marseille","lat":43.27479,"lon":5.408,"is_reserved":false,"is_disabled":false,"rental_uris":{"android":"levelo://app?vid=78550e31-cac3-41b7-9cdb-ada276a0fa08","ios":"levelo://app?vid=78550e31-cac3-41b7-9cdb-ada276a0fa08"},"vehicle_type_id":"4","last_reported":1773862845,"current_range_meters":8000,"station_id":"","pricing_plan_id":"cebpf4jnsgd1na2vs0mg"},{"bike_id":"b51425a2-b294-4b12-a06b-78afda0873c2","system_id":"levelo_inurba_marseille","lat":43.29838,"lon":5.4026,"is_reserved":false,"is_disabled":false,"rental_uris":{"android":"levelo://app?vid=b51425a2-b294-4b12-a06b-78afda0873c2","ios":"levelo://app?vid=b51425a2-b294-4b12-a06b-78afda0873c2"},"vehicle_type_id":"4","last_reported":1773862845,"current_range_meters":8000,"station_id":"","pricing_plan_id":"cebpf4jnsgd1na2vs0mg"},{"bike_id":"4399b5c4-ec23-4c97-9ca4-d50add2fc82a","system_id":"levelo_inurba_marseille","lat":43.31101,"lon":5.37752,"is_reserved":false,"is_disabled":false,"rental_uris":{"android":"levelo://app?vid=4399b5c4-ec23-4c97-9ca4-d50add2fc82a","ios":"levelo://app?vid=4399b5c4-ec23-4c97-9ca4-d50add2fc82a"},"vehicle_type_id":"4","last_reported":1773862845,"current_range_meters":8000,"station_id":"ce4bgt92rcd13ifvqcg0","pricing_plan_id":"cebpf4jnsgd1na2vs0mg"},{"bike_id":"f6e1f41e-d0c5-479e-908f-ba03096ad3b2","system_id":"levelo_inurba_marseille","lat":43.29877,"lon":5.38902,"is_reserved":false,"is_disabled":false,"rental_uris":{"android":"levelo://app?vid=f6e1f41e-d0c5-479e-908f-ba03096ad3b2","ios":"levelo://app?vid=f6e1f41e-d0c5-479e-908f-ba03096ad3b2"},"vehicle_type_id":"4","last_reported":1773862845,"current_range_meters":8000,"station_id":"ce4bh392rcd13ifvqdl0","pricing_plan_id":"cebpf4jnsgd1na2vs0mg"},{"bike_id":"4b8acc46-f892-45ae-9cf2-e1494cb35d37","system_id":"levelo_inurba_marseille","lat":43.24798,"lon":5.37455,"is_reserved":false,"is_disabled":false,"rental_uris":{"android":"levelo://app?vid=4b8acc46-f892-45ae-9cf2-e1494cb35d37","ios":"levelo://app?vid=4b8acc46-f892-45ae-9cf2-e1494cb35d37"},"vehicle_type_id":"4","last_reported":1773862845,"current_range_meters":8000,"station_id":"ce4bhgh2rcd13ifvqfb0","pricing_plan_id":"cebpf4jnsgd1na2vs0mg"},{"bike_id":"d532de73-31b0-408e-96ce-6676e6435a22","system_id":"levelo_inurba_marseille","lat":43.21178,"lon":5.35061,"is_reserved":false,"is_disabled":false,"rental_uris":{"android":"levelo://app?vid=d532de73-31b0-408e-96ce-6676e6435a22","ios":"levelo://app?vid=d532de73-31b0-408e-96ce-6676e6435a22"},"vehicle_type_id":"4","last_reported":1773862845,"current_range_meters":8400,"station_id":"st_cvj6sg6p6f1abm77japg","pricing_plan_id":"cebpf4jnsgd1na2vs0mg"},{"bike_id":"10557b8a-bfb4-4bae-91ed-df4a9f68a822","system_id":"levelo_inurba_marseille","lat":43.27901,"lon":5.38021,"is_reserved":false,"is_disabled":false,"rental_uris":{"android":"levelo://app?vid=10557b8a-bfb4-4bae-91ed-df4a9f68a822","ios":"levelo://app?vid=10557b8a-bfb4-4bae-91ed-df4a9f68a822"},"vehicle_type_id":"4","last_reported":1773862845,"current_range_meters":8400,"station_id":"ce4bhf92rcd13ifvqf50","pricing_plan_id":"cebpf4jnsgd1na2vs0mg"},{"bike_id":"f4641026-c280-48a2-a1e3-f569c834b610","system_id":"levelo_inurba_marseille","lat":43.29722,"lon":5.37687,"is_reserved":false,"is_disabled":false,"rental_uris":{"android":"levelo://app?vid=f4641026-c280-48a2-a1e3-f569c834b610","ios":"levelo://app?vid=f4641026-c280-48a2-a1e3-f569c834b610"},"vehicle_type_id":"4","last_reported":1773862845,"current_range_meters":8400,"station_id":"ce4bgkh2rcd13ifvqbl0","pricing_plan_id":"cebpf4jnsgd1na2vs0mg"},{"bike_id":"a918d57a-c48c-4085-ac42-61882623bc55","system_id":"levelo_inurba_marseille","lat":43.24445,"lon":5.42527,"is_reserved":false,"is_disabled":false,"rental_uris":{"android":"levelo://app?vid=a918d57a-c48c-4085-ac42-61882623bc55","ios":"levelo://app?vid=a918d57a-c48c-4085-ac42-61882623bc55"},"vehicle_type_id":"4","last_reported":1773862845,"current_range_meters":8400,"station_id":"st_d4a3vfp97mjs738cd8kg","pricing_plan_id":"cebpf4jnsgd1na2vs0mg"},{"bike_id":"94f8f466-8e71-4f87-978f-df55f1bc6e54","system_id":"levelo_inurba_marseille","lat":43.21205,"lon":5.35073,"is_reserved":false,"is_disabled":false,"rental_uris":{"android":"levelo://app?vid=94f8f466-8e71-4f87-978f-df55f1bc6e54","ios":"levelo://app?vid=94f8f466-8e71-4f87-978f-df55f1bc6e54"},"vehicle_type_id":"4","last_reported":1773862845,"current_range_meters":8400,"station_id":"st_cvj6sg6p6f1abm77japg","pricing_plan_id":"cebpf4jnsgd1na2vs0mg"},{"bike_id":"14088a16-fdc3-4ddc-a629-193ccf4601c3","system_id":"levelo_inurba_marseille","lat":43.24454,"lon":5.4253,"is_reserved":false,"is_disabled":false,"rental_uris":{"android":"levelo://app?vid=14088a16-fdc3-4ddc-a629-193ccf4601c3","ios":"levelo://app?vid=14088a16-fdc3-4ddc-a629-193ccf4601c3"},"vehicle_type_id":"4","last_reported":1773862845,"current_range_meters":8400,"station_id":"st_d4a3vfp97mjs738cd8kg","pricing_plan_id":"cebpf4jnsgd1na2vs0mg"},{"bike_id":"2eb8a2e4-cd6b-46b6-928f-2e57ce56523d","system_id":"levelo_inurba_marseille","lat":43.27978,"lon":5.41677,"is_reserved":false,"is_disabled":false,"rental_uris":{"android":"levelo://app?vid=2eb8a2e4-cd6b-46b6-928f-2e57ce56523d","ios":"levelo://app?vid=2eb8a2e4-cd6b-46b6-928f-2e57ce56523d"},"vehicle_type_id":"4","last_reported":1773862845,"current_range_meters":8400,"station_id":"ce4bho12rcd13ifvqh1g","pricing_plan_id":"cebpf4jnsgd1na2vs0mg"},{"bike_id":"c37d7dba-1b35-4836-9628-3a7bf03ac96f","system_id":"levelo_inurba_marseille","lat":43.2338,"lon":5.41234,"is_reserved":false,"is_disabled":false,"rental_uris":{"android":"levelo://app?vid=c37d7dba-1b35-4836-9628-3a7bf03ac96f","ios":"levelo://app?vid=c37d7dba-1b35-4836-9628-3a7bf03ac96f"},"vehicle_type_id":"4","last_reported":1773862845,"current_range_meters":8400,"station_id":"","pricing_plan_id":"cebpf4jnsgd1na2vs0mg"},{"bike_id":"96591046-ee45-4d30-a3d2-a892bdadb425","system_id":"levelo_inurba_marseille","lat":43.2495,"lon":5.40489,"is_reserved":false,"is_disabled":false,"rental_uris":{"android":"levelo://app?vid=96591046-ee45-4d30-a3d2-a892bdadb425","ios":"levelo://app?vid=96591046-ee45-4d30-a3d2-a892bdadb425"},"vehicle_type_id":"4","last_reported":1773862845,"current_range_meters":8400,"station_id":"st_d2ngiaodas8pm72gd1h0","pricing_plan_id":"cebpf4jnsgd1na2vs0mg"},{"bike_id":"13ad50bf-7f2f-4ad1-a82f-209db682ff58","system_id":"levelo_inurba_marseille","lat":43.2655,"lon":5.39041,"is_reserved":false,"is_disabled":true,"rental_uris":{"android":"levelo://app?vid=13ad50bf-7f2f-4ad1-a82f-209db682ff58","ios":"levelo://app?vid=13ad50bf-7f2f-4ad1-a82f-209db682ff58"},"vehicle_type_id":"4","last_reported":1773862845,"current_range_meters":8400,"station_id":"ce4bhe12rcd13ifvqf30","pricing_plan_id":"cebpf4jnsgd1na2vs0mg"},{"bike_id":"6d78410b-e535-49b2-baac-710971bb53c0","system_id":"levelo_inurba_marseille","lat":43.29249,"lon":5.38462,"is_reserved":false,"is_disabled":false,"rental_uris":{"android":"levelo://app?vid=6d78410b-e535-49b2-baac-710971bb53c0","ios":"levelo://app?vid=6d78410b-e535-49b2-baac-710971bb53c0"},"vehicle_type_id":"4","last_reported":1773862845,"current_range_meters":8400,"station_id":"ce4bh692rcd13ifvqea0","pricing_plan_id":"cebpf4jnsgd1na2vs0mg"},{"bike_id":"5258b8f7-7935-4dcc-b600-c370374531d4","system_id":"levelo_inurba_marseille","lat":43.2318,"lon":5.39948,"is_reserved":false,"is_disabled":false,"rental_uris":{"android":"levelo://app?vid=5258b8f7-7935-4dcc-b600-c370374531d4","ios":"levelo://app?vid=5258b8f7-7935-4dcc-b600-c370374531d4"},"vehicle_type_id":"4","last_reported":1773862845,"current_range_meters":8400,"station_id":"ce4bhn12rcd13ifvqgqg","pricing_plan_id":"cebpf4jnsgd1na2vs0mg"},{"bike_id":"681ff368-7a0f-416f-bf18-3b2ceada0118","system_id":"levelo_inurba_marseille","lat":43.28852,"lon":5.35848,"is_reserved":false,"is_disabled":false,"rental_uris":{"android":"levelo://app?vid=681ff368-7a0f-416f-bf18-3b2ceada0118","ios":"levelo://app?vid=681ff368-7a0f-416f-bf18-3b2ceada0118"},"vehicle_type_id":"4","last_reported":1773862845,"current_range_meters":8400,"station_id":"ce4bhb12rcd13ifvqem0","pricing_plan_id":"cebpf4jnsgd1na2vs0mg"},{"bike_id":"caf5e45c-f3f2-43eb-99a6-b11ec33451e8","system_id":"levelo_inurba_marseille","lat":43.23965,"lon":5.3664,"is_reserved":false,"is_disabled":false,"rental_uris":{"android":"levelo://app?vid=caf5e45c-f3f2-43eb-99a6-b11ec33451e8","ios":"levelo://app?vid=caf5e45c-f3f2-43eb-99a6-b11ec33451e8"},"vehicle_type_id":"4","last_reported":1773862845,"current_range_meters":8400,"station_id":"ce4bhi12rcd13ifvqfp0","pricing_plan_id":"cebpf4jnsgd1na2vs0mg"},{"bike_id":"88db41f5-96f3-4155-a4d0-ecc56f594edb","system_id":"levelo_inurba_marseille","lat":43.22931,"lon":5.35372,"is_reserved":false,"is_disabled":false,"rental_uris":{"android":"levelo://app?vid=88db41f5-96f3-4155-a4d0-ecc56f594edb","ios":"levelo://app?vid=88db41f5-96f3-4155-a4d0-ecc56f594edb"},"vehicle_type_id":"4","last_reported":1773862845,"current_range_meters":8400,"station_id":"cpo3532slgdg3j2ikp40","pricing_plan_id":"cebpf4jnsgd1na2vs0mg"},{"bike_id":"c71d653d-969c-445e-97ca-3dcef61e7ad4","system_id":"levelo_inurba_marseille","lat":43.29204,"lon":5.39317,"is_reserved":false,"is_disabled":false,"rental_uris":{"android":"levelo://app?vid=c71d653d-969c-445e-97ca-3dcef61e7ad4","ios":"levelo://app?vid=c71d653d-969c-445e-97ca-3dcef61e7ad4"},"vehicle_type_id":"4","last_reported":1773862845,"current_range_meters":8400,"station_id":"ce4bh192rcd13ifvqdd0","pricing_plan_id":"cebpf4jnsgd1na2vs0mg"},{"bike_id":"73e44213-1cd8-4593-a09e-a9c4a914a5d2","system_id":"levelo_inurba_marseille","lat":43.28469,"lon":5.48407,"is_reserved":false,"is_disabled":false,"rental_uris":{"android":"levelo://app?vid=73e44213-1cd8-4593-a09e-a9c4a914a5d2","ios":"levelo://app?vid=73e44213-1cd8-4593-a09e-a9c4a914a5d2"},"vehicle_type_id":"4","last_reported":1773862845,"current_range_meters":8400,"station_id":"","pricing_plan_id":"cebpf4jnsgd1na2vs0mg"},{"bike_id":"5152c739-51ed-4e4f-b51d-3b9fa0989259","system_id":"levelo_inurba_marseille","lat":43.29092,"lon":5.38122,"is_reserved":false,"is_disabled":false,"rental_uris":{"android":"levelo://app?vid=5152c739-51ed-4e4f-b51d-3b9fa0989259","ios":"levelo://app?vid=5152c739-51ed-4e4f-b51d-3b9fa0989259"},"vehicle_type_id":"4","last_reported":1773862845,"current_range_meters":8400,"station_id":"ce4bh512rcd13ifvqe2g","pricing_plan_id":"cebpf4jnsgd1na2vs0mg"},{"bike_id":"78c86868-a79f-4f2a-bb9a-961b0f22d36b","system_id":"levelo_inurba_marseille","lat":43.29973,"lon":5.38637,"is_reserved":false,"is_disabled":false,"rental_uris":{"android":"levelo://app?vid=78c86868-a79f-4f2a-bb9a-961b0f22d36b","ios":"levelo://app?vid=78c86868-a79f-4f2a-bb9a-961b0f22d36b"},"vehicle_type_id":"4","last_reported":1773862845,"current_range_meters":8400,"station_id":"","pricing_plan_id":"cebpf4jnsgd1na2vs0mg"},{"bike_id":"0f0f3f3e-0b16-46b6-a723-9cf6c82a3bfc","system_id":"levelo_inurba_marseille","lat":43.27506,"lon":5.41592,"is_reserved":false,"is_disabled":false,"rental_uris":{"android":"levelo://app?vid=0f0f3f3e-0b16-46b6-a723-9cf6c82a3bfc","ios":"levelo://app?vid=0f0f3f3e-0b16-46b6-a723-9cf6c82a3bfc"},"vehicle_type_id":"4","last_reported":1773862845,"current_range_meters":8400,"station_id":"st_d6im8g6chgec73a5pndg","pricing_plan_id":"cebpf4jnsgd1na2vs0mg"},{"bike_id":"5671440c-19fc-480b-8cdb-b024a111e462","system_id":"levelo_inurba_marseille","lat":43.23782,"lon":5.41446,"is_reserved":false,"is_disabled":false,"rental_uris":{"android":"levelo://app?vid=5671440c-19fc-480b-8cdb-b024a111e462","ios":"levelo://app?vid=5671440c-19fc-480b-8cdb-b024a111e462"},"vehicle_type_id":"4","last_reported":1773862845,"current_range_meters":8400,"station_id":"","pricing_plan_id":"cebpf4jnsgd1na2vs0mg"},{"bike_id":"08d4e4c7-9769-4f62-92ab-7c4813c743a0","system_id":"levelo_inurba_marseille","lat":43.28977,"lon":5.37841,"is_reserved":false,"is_disabled":false,"rental_uris":{"android":"levelo://app?vid=08d4e4c7-9769-4f62-92ab-7c4813c743a0","ios":"levelo://app?vid=08d4e4c7-9769-4f62-92ab-7c4813c743a0"},"vehicle_type_id":"4","last_reported":1773862845,"current_range_meters":8400,"station_id":"ce4bh9p2rcd13ifvqed0","pricing_plan_id":"cebpf4jnsgd1na2vs0mg"},{"bike_id":"55614024-db25-486b-99e8-ed28b6d6957b","system_id":"levelo_inurba_marseille","lat":43.29128,"lon":5.39962,"is_reserved":false,"is_disabled":false,"rental_uris":{"android":"levelo://app?vid=55614024-db25-486b-99e8-ed28b6d6957b","ios":"levelo://app?vid=55614024-db25-486b-99e8-ed28b6d6957b"},"vehicle_type_id":"4","last_reported":1773862845,"current_range_meters":8400,"station_id":"","pricing_plan_id":"cebpf4jnsgd1na2vs0mg"},{"bike_id":"0c506fac-9822-4d55-93b9-ec283cf22639","system_id":"levelo_inurba_marseille","lat":43.26878,"lon":5.40489,"is_reserved":false,"is_disabled":false,"rental_uris":{"android":"levelo://app?vid=0c506fac-9822-4d55-93b9-ec283cf22639","ios":"levelo://app?vid=0c506fac-9822-4d55-93b9-ec283cf22639"},"vehicle_type_id":"4","last_reported":1773862845,"current_range_meters":8400,"station_id":"","pricing_plan_id":"cebpf4jnsgd1na2vs0mg"},{"bike_id":"73f837ed-a9fd-4493-88eb-dc7eaed2e228","system_id":"levelo_inurba_marseille","lat":43.29236,"lon":5.37641,"is_reserved":false,"is_disabled":false,"rental_uris":{"android":"levelo://app?vid=73f837ed-a9fd-4493-88eb-dc7eaed2e228","ios":"levelo://app?vid=73f837ed-a9fd-4493-88eb-dc7eaed2e228"},"vehicle_type_id":"4","last_reported":1773862845,"current_range_meters":8800,"station_id":"ce4bgi12rcd13ifvqb80","pricing_plan_id":"cebpf4jnsgd1na2vs0mg"},{"bike_id":"0c478432-417d-46f5-be7a-fac72897b591","system_id":"levelo_inurba_marseille","lat":43.29269,"lon":5.38432,"is_reserved":false,"is_disabled":false,"rental_uris":{"android":"levelo://app?vid=0c478432-417d-46f5-be7a-fac72897b591","ios":"levelo://app?vid=0c478432-417d-46f5-be7a-fac72897b591"},"vehicle_type_id":"4","last_reported":1773862845,"current_range_meters":8800,"station_id":"ce4bh692rcd13ifvqea0","pricing_plan_id":"cebpf4jnsgd1na2vs0mg"},{"bike_id":"4603d8e6-1bdb-4e77-a999-dd174df795dd","system_id":"levelo_inurba_marseille","lat":43.21765,"lon":5.34635,"is_reserved":false,"is_disabled":false,"rental_uris":{"android":"levelo://app?vid=4603d8e6-1bdb-4e77-a999-dd174df795dd","ios":"levelo://app?vid=4603d8e6-1bdb-4e77-a999-dd174df795dd"},"vehicle_type_id":"4","last_reported":1773862845,"current_range_meters":8800,"station_id":"st_cvj6r9ubvosntc0bgbag","pricing_plan_id":"cebpf4jnsgd1na2vs0mg"},{"bike_id":"24dc1ce5-2db6-421b-869a-69d6f082b300","system_id":"levelo_inurba_marseille","lat":43.29786,"lon":5.36268,"is_reserved":false,"is_disabled":false,"rental_uris":{"android":"levelo://app?vid=24dc1ce5-2db6-421b-869a-69d6f082b300","ios":"levelo://app?vid=24dc1ce5-2db6-421b-869a-69d6f082b300"},"vehicle_type_id":"4","last_reported":1773862845,"current_range_meters":8800,"station_id":"","pricing_plan_id":"cebpf4jnsgd1na2vs0mg"},{"bike_id":"6431cf72-6fc6-4491-9628-8ef9dcbfd76c","system_id":"levelo_inurba_marseille","lat":43.29527,"lon":5.38538,"is_reserved":false,"is_disabled":false,"rental_uris":{"android":"levelo://app?vid=6431cf72-6fc6-4491-9628-8ef9dcbfd76c","ios":"levelo://app?vid=6431cf72-6fc6-4491-9628-8ef9dcbfd76c"},"vehicle_type_id":"4","last_reported":1773862845,"current_range_meters":8800,"station_id":"ce4bgih2rcd13ifvqba0","pricing_plan_id":"cebpf4jnsgd1na2vs0mg"},{"bike_id":"f988513f-66d9-48b8-8052-ea23679cb366","system_id":"levelo_inurba_marseille","lat":43.31196,"lon":5.36896,"is_reserved":false,"is_disabled":false,"rental_uris":{"android":"levelo://app?vid=f988513f-66d9-48b8-8052-ea23679cb366","ios":"levelo://app?vid=f988513f-66d9-48b8-8052-ea23679cb366"},"vehicle_type_id":"4","last_reported":1773862845,"current_range_meters":8800,"station_id":"ce4bgl92rcd13ifvqbq0","pricing_plan_id":"cebpf4jnsgd1na2vs0mg"},{"bike_id":"3903529a-97cf-43f8-9c3a-f35f9c9bbdf2","system_id":"levelo_inurba_marseille","lat":43.313552,"lon":5.367146,"is_reserved":false,"is_disabled":true,"rental_uris":{"android":"levelo://app?vid=3903529a-97cf-43f8-9c3a-f35f9c9bbdf2","ios":"levelo://app?vid=3903529a-97cf-43f8-9c3a-f35f9c9bbdf2"},"vehicle_type_id":"4","last_reported":1773862845,"current_range_meters":8800,"station_id":"ce4bgr92rcd13ifvqc6g","pricing_plan_id":"cebpf4jnsgd1na2vs0mg"},{"bike_id":"1fdbd032-af28-4158-a02e-01bb107fd2a7","system_id":"levelo_inurba_marseille","lat":43.337444,"lon":5.374475,"is_reserved":false,"is_disabled":false,"rental_uris":{"android":"levelo://app?vid=1fdbd032-af28-4158-a02e-01bb107fd2a7","ios":"levelo://app?vid=1fdbd032-af28-4158-a02e-01bb107fd2a7"},"vehicle_type_id":"4","last_reported":1773862845,"current_range_meters":8800,"station_id":"","pricing_plan_id":"cebpf4jnsgd1na2vs0mg"},{"bike_id":"f7e79517-161a-451a-8a95-bb710b1b4d21","system_id":"levelo_inurba_marseille","lat":43.29848,"lon":5.37899,"is_reserved":false,"is_disabled":true,"rental_uris":{"android":"levelo://app?vid=f7e79517-161a-451a-8a95-bb710b1b4d21","ios":"levelo://app?vid=f7e79517-161a-451a-8a95-bb710b1b4d21"},"vehicle_type_id":"4","last_reported":1773862845,"current_range_meters":8800,"station_id":"","pricing_plan_id":"cebpf4jnsgd1na2vs0mg"},{"bike_id":"e96aa17b-a380-4269-aa15-f0a6d9e3febf","system_id":"levelo_inurba_marseille","lat":43.21708,"lon":5.34628,"is_reserved":false,"is_disabled":false,"rental_uris":{"android":"levelo://app?vid=e96aa17b-a380-4269-aa15-f0a6d9e3febf","ios":"levelo://app?vid=e96aa17b-a380-4269-aa15-f0a6d9e3febf"},"vehicle_type_id":"4","last_reported":1773862845,"current_range_meters":8800,"station_id":"st_cvj6r9ubvosntc0bgbag","pricing_plan_id":"cebpf4jnsgd1na2vs0mg"},{"bike_id":"712599e5-d2fe-4e3b-b444-ee5ad93347b9","system_id":"levelo_inurba_marseille","lat":43.29973,"lon":5.38498,"is_reserved":false,"is_disabled":false,"rental_uris":{"android":"levelo://app?vid=712599e5-d2fe-4e3b-b444-ee5ad93347b9","ios":"levelo://app?vid=712599e5-d2fe-4e3b-b444-ee5ad93347b9"},"vehicle_type_id":"4","last_reported":1773862845,"current_range_meters":8800,"station_id":"ce4bgj92rcd13ifvqbd0","pricing_plan_id":"cebpf4jnsgd1na2vs0mg"},{"bike_id":"8c29270d-5d11-446e-a3f0-f5c56ae9c816","system_id":"levelo_inurba_marseille","lat":43.27553,"lon":5.43316,"is_reserved":false,"is_disabled":false,"rental_uris":{"android":"levelo://app?vid=8c29270d-5d11-446e-a3f0-f5c56ae9c816","ios":"levelo://app?vid=8c29270d-5d11-446e-a3f0-f5c56ae9c816"},"vehicle_type_id":"4","last_reported":1773862845,"current_range_meters":8800,"station_id":"","pricing_plan_id":"cebpf4jnsgd1na2vs0mg"},{"bike_id":"58aca171-836c-4f92-b6a2-cd9f8b97cb39","system_id":"levelo_inurba_marseille","lat":43.28381,"lon":5.3865,"is_reserved":false,"is_disabled":false,"rental_uris":{"android":"levelo://app?vid=58aca171-836c-4f92-b6a2-cd9f8b97cb39","ios":"levelo://app?vid=58aca171-836c-4f92-b6a2-cd9f8b97cb39"},"vehicle_type_id":"4","last_reported":1773862845,"current_range_meters":8800,"station_id":"ce4bh492rcd13ifvqdvg","pricing_plan_id":"cebpf4jnsgd1na2vs0mg"},{"bike_id":"82a088c5-78ab-4aa2-979b-482fe1691333","system_id":"levelo_inurba_marseille","lat":43.31119,"lon":5.37753,"is_reserved":false,"is_disabled":false,"rental_uris":{"android":"levelo://app?vid=82a088c5-78ab-4aa2-979b-482fe1691333","ios":"levelo://app?vid=82a088c5-78ab-4aa2-979b-482fe1691333"},