{"last_updated":1742929673,"ttl":60,"version":"2.2","data":{"bikes":[{"bike_id":"87aedd70-b5a7-41d9-924f-7b8be80be320","system_id":"levelo_inurba_marseille","lat":43.26192,"lon":5.37461,"is_reserved":false,"is_disabled":true,"rental_uris":{"android":"levelo://app?vid=87aedd70-b5a7-41d9-924f-7b8be80be320","ios":"levelo://app?vid=87aedd70-b5a7-41d9-924f-7b8be80be320"},"vehicle_type_id":"4","last_reported":1742929673,"current_range_meters":2800,"station_id":"ce4bhgp2rcd13ifvqfc0","pricing_plan_id":"cebpf4jnsgd1na2vs0mg"},{"bike_id":"4d06d5fb-0d75-4f60-a956-296f93e9e222","system_id":"levelo_inurba_marseille","lat":43.28038,"lon":5.36951,"is_reserved":false,"is_disabled":false,"rental_uris":{"android":"levelo://app?vid=4d06d5fb-0d75-4f60-a956-296f93e9e222","ios":"levelo://app?vid=4d06d5fb-0d75-4f60-a956-296f93e9e222"},"vehicle_type_id":"4","last_reported":1742929673,"current_range_meters":2800,"station_id":"ce4bha12rcd13ifvqef0","pricing_plan_id":"cebpf4jnsgd1na2vs0mg"},{"bike_id":"e80fa70a-ee7c-4f92-9a2e-9df11d0bcb56","system_id":"levelo_inurba_marseille","lat":43.29257,"lon":5.38431,"is_reserved":false,"is_disabled":false,"rental_uris":{"android":"levelo://app?vid=e80fa70a-ee7c-4f92-9a2e-9df11d0bcb56","ios":"levelo://app?vid=e80fa70a-ee7c-4f92-9a2e-9df11d0bcb56"},"vehicle_type_id":"4","last_reported":1742929673,"current_range_meters":2800,"station_id":"ce4bh692rcd13ifvqea0","pricing_plan_id":"cebpf4jnsgd1na2vs0mg"},{"bike_id":"286daffd-13bd-4314-8a31-44c50f7b3ab4","system_id":"levelo_inurba_marseille","lat":43.29435,"lon":5.38625,"is_reserved":false,"is_disabled":false,"rental_uris":{"android":"levelo://app?vid=286daffd-13bd-4314-8a31-44c50f7b3ab4","ios":"levelo://app?vid=286daffd-13bd-4314-8a31-44c50f7b3ab4"},"vehicle_type_id":"4","last_reported":1742929673,"current_range_meters":2800,"station_id":"ce4bh2h2rcd13ifvqdh0","pricing_plan_id":"cebpf4jnsgd1na2vs0mg"},{"bike_id":"71da04cd-734a-4a71-8e8c-11f3a64d4a64","system_id":"levelo_inurba_marseille","lat":43.2894,"lon":5.36639,"is_reserved":false,"is_disabled":false,"rental_uris":{"android":"levelo://app?vid=71da04cd-734a-4a71-8e8c-11f3a64d4a64","ios":"levelo://app?vid=71da04cd-734a-4a71-8e8c-11f3a64d4a64"},"vehicle_type_id":"4","last_reported":1742929673,"current_range_meters":2800,"station_id":"ce4bhap2rcd13ifvqek0","pricing_plan_id":"cebpf4jnsgd1na2vs0mg"},{"bike_id":"1fe3e6ff-b41e-4942-b385-5e4eaa64c665","system_id":"levelo_inurba_marseille","lat":43.31078,"lon":5.37769,"is_reserved":false,"is_disabled":false,"rental_uris":{"android":"levelo://app?vid=1fe3e6ff-b41e-4942-b385-5e4eaa64c665","ios":"levelo://app?vid=1fe3e6ff-b41e-4942-b385-5e4eaa64c665"},"vehicle_type_id":"4","last_reported":1742929673,"current_range_meters":2800,"station_id":"ce4bgt92rcd13ifvqcg0","pricing_plan_id":"cebpf4jnsgd1na2vs0mg"},{"bike_id":"fbc03f13-ce2a-4967-a8ac-ca5c09aa19a0","system_id":"levelo_inurba_marseille","lat":43.29956,"lon":5.38499,"is_reserved":false,"is_disabled":false,"rental_uris":{"android":"levelo://app?vid=fbc03f13-ce2a-4967-a8ac-ca5c09aa19a0","ios":"levelo://app?vid=fbc03f13-ce2a-4967-a8ac-ca5c09aa19a0"},"vehicle_type_id":"4","last_reported":1742929673,"current_range_meters":2800,"station_id":"ce4bgj92rcd13ifvqbd0","pricing_plan_id":"cebpf4jnsgd1na2vs0mg"},{"bike_id":"2ab10bb2-fab8-4382-ac8c-48722f421824","system_id":"levelo_inurba_marseille","lat":43.2717,"lon":5.40992,"is_reserved":false,"is_disabled":false,"rental_uris":{"android":"levelo://app?vid=2ab10bb2-fab8-4382-ac8c-48722f421824","ios":"levelo://app?vid=2ab10bb2-fab8-4382-ac8c-48722f421824"},"vehicle_type_id":"4","last_reported":1742929673,"current_range_meters":4000,"station_id":"ce4bhl12rcd13ifvqgf0","pricing_plan_id":"cebpf4jnsgd1na2vs0mg"},{"bike_id":"66543b71-66c9-48b5-ac9a-cf074c612429","system_id":"levelo_inurba_marseille","lat":43.3099,"lon":5.39627,"is_reserved":false,"is_disabled":false,"rental_uris":{"android":"levelo://app?vid=66543b71-66c9-48b5-ac9a-cf074c612429","ios":"levelo://app?vid=66543b71-66c9-48b5-ac9a-cf074c612429"},"vehicle_type_id":"4","last_reported":1742929673,"current_range_meters":2800,"station_id":"","pricing_plan_id":"cebpf4jnsgd1na2vs0mg"},{"bike_id":"52f3bad5-884f-4229-a383-e0ecc7844259","system_id":"levelo_inurba_marseille","lat":43.27993,"lon":5.4001,"is_reserved":false,"is_disabled":false,"rental_uris":{"android":"levelo://app?vid=52f3bad5-884f-4229-a383-e0ecc7844259","ios":"levelo://app?vid=52f3bad5-884f-4229-a383-e0ecc7844259"},"vehicle_type_id":"4","last_reported":1742929673,"current_range_meters":3200,"station_id":"ce4bho92rcd13ifvqh4g","pricing_plan_id":"cebpf4jnsgd1na2vs0mg"},{"bike_id":"be295973-b64b-4612-a980-85ed6abce5b1","system_id":"levelo_inurba_marseille","lat":43.30417,"lon":5.39715,"is_reserved":false,"is_disabled":true,"rental_uris":{"android":"levelo://app?vid=be295973-b64b-4612-a980-85ed6abce5b1","ios":"levelo://app?vid=be295973-b64b-4612-a980-85ed6abce5b1"},"vehicle_type_id":"4","last_reported":1742929673,"current_range_meters":3200,"station_id":"ce4bh092rcd13ifvqd20","pricing_plan_id":"cebpf4jnsgd1na2vs0mg"},{"bike_id":"278040da-a0f7-414d-830f-ac2fc8621dd6","system_id":"levelo_inurba_marseille","lat":43.30087,"lon":5.3908,"is_reserved":false,"is_disabled":false,"rental_uris":{"android":"levelo://app?vid=278040da-a0f7-414d-830f-ac2fc8621dd6","ios":"levelo://app?vid=278040da-a0f7-414d-830f-ac2fc8621dd6"},"vehicle_type_id":"4","last_reported":1742929673,"current_range_meters":3200,"station_id":"ce4bh192rcd13ifvqdb0","pricing_plan_id":"cebpf4jnsgd1na2vs0mg"},{"bike_id":"02e7d389-8b34-4630-a8cb-2de1e893a55e","system_id":"levelo_inurba_marseille","lat":43.28937,"lon":5.38393,"is_reserved":false,"is_disabled":false,"rental_uris":{"android":"levelo://app?vid=02e7d389-8b34-4630-a8cb-2de1e893a55e","ios":"levelo://app?vid=02e7d389-8b34-4630-a8cb-2de1e893a55e"},"vehicle_type_id":"4","last_reported":1742929673,"current_range_meters":3200,"station_id":"ce4bh612rcd13ifvqe6g","pricing_plan_id":"cebpf4jnsgd1na2vs0mg"},{"bike_id":"c674abf4-d5b2-45b5-99ee-1dd3f5179b2d","system_id":"levelo_inurba_marseille","lat":43.29683,"lon":5.36201,"is_reserved":false,"is_disabled":false,"rental_uris":{"android":"levelo://app?vid=c674abf4-d5b2-45b5-99ee-1dd3f5179b2d","ios":"levelo://app?vid=c674abf4-d5b2-45b5-99ee-1dd3f5179b2d"},"vehicle_type_id":"4","last_reported":1742929673,"current_range_meters":3200,"station_id":"","pricing_plan_id":"cebpf4jnsgd1na2vs0mg"},{"bike_id":"c16252cf-6ddf-4100-b226-755a6f175d86","system_id":"levelo_inurba_marseille","lat":43.298489,"lon":5.362875,"is_reserved":false,"is_disabled":false,"rental_uris":{"android":"levelo://app?vid=c16252cf-6ddf-4100-b226-755a6f175d86","ios":"levelo://app?vid=c16252cf-6ddf-4100-b226-755a6f175d86"},"vehicle_type_id":"4","last_reported":1742929673,"current_range_meters":3200,"station_id":"ce4bgpp2rcd13ifvqc3g","pricing_plan_id":"cebpf4jnsgd1na2vs0mg"},{"bike_id":"e46be815-7a6c-40ef-9480-8114cde7f5e6","system_id":"levelo_inurba_marseille","lat":43.30095,"lon":5.39077,"is_reserved":false,"is_disabled":false,"rental_uris":{"android":"levelo://app?vid=e46be815-7a6c-40ef-9480-8114cde7f5e6","ios":"levelo://app?vid=e46be815-7a6c-40ef-9480-8114cde7f5e6"},"vehicle_type_id":"4","last_reported":1742929673,"current_range_meters":3200,"station_id":"ce4bh192rcd13ifvqdb0","pricing_plan_id":"cebpf4jnsgd1na2vs0mg"},{"bike_id":"a87e61cb-848c-4873-91f9-ddff8ddfcedc","system_id":"levelo_inurba_marseille","lat":43.29623,"lon":5.37724,"is_reserved":false,"is_disabled":false,"rental_uris":{"android":"levelo://app?vid=a87e61cb-848c-4873-91f9-ddff8ddfcedc","ios":"levelo://app?vid=a87e61cb-848c-4873-91f9-ddff8ddfcedc"},"vehicle_type_id":"4","last_reported":1742929673,"current_range_meters":8800,"station_id":"ce4bgi92rcd13ifvqb90","pricing_plan_id":"cebpf4jnsgd1na2vs0mg"},{"bike_id":"e613635b-17f9-4fb4-9fe6-5197ef6975fa","system_id":"levelo_inurba_marseille","lat":43.31486,"lon":5.37311,"is_reserved":false,"is_disabled":false,"rental_uris":{"android":"levelo://app?vid=e613635b-17f9-4fb4-9fe6-5197ef6975fa","ios":"levelo://app?vid=e613635b-17f9-4fb4-9fe6-5197ef6975fa"},"vehicle_type_id":"4","last_reported":1742929673,"current_range_meters":3200,"station_id":"ce4bgt12rcd13ifvqcd0","pricing_plan_id":"cebpf4jnsgd1na2vs0mg"},{"bike_id":"3192ed8a-7fbc-4c6e-a9e1-acc0999fbbe8","system_id":"levelo_inurba_marseille","lat":43.28443,"lon":5.39192,"is_reserved":false,"is_disabled":false,"rental_uris":{"android":"levelo://app?vid=3192ed8a-7fbc-4c6e-a9e1-acc0999fbbe8","ios":"levelo://app?vid=3192ed8a-7fbc-4c6e-a9e1-acc0999fbbe8"},"vehicle_type_id":"4","last_reported":1742929673,"current_range_meters":3600,"station_id":"ce4bhoh2rcd13ifvqh5g","pricing_plan_id":"cebpf4jnsgd1na2vs0mg"},{"bike_id":"09a1fc4b-0b86-49cd-aa6b-3dfe537e356f","system_id":"levelo_inurba_marseille","lat":43.248169,"lon":5.37478,"is_reserved":false,"is_disabled":false,"rental_uris":{"android":"levelo://app?vid=09a1fc4b-0b86-49cd-aa6b-3dfe537e356f","ios":"levelo://app?vid=09a1fc4b-0b86-49cd-aa6b-3dfe537e356f"},"vehicle_type_id":"4","last_reported":1742929673,"current_range_meters":3600,"station_id":"ce4bhgh2rcd13ifvqfb0","pricing_plan_id":"cebpf4jnsgd1na2vs0mg"},{"bike_id":"94496519-8f53-4f45-858d-bcb13d65a29a","system_id":"levelo_inurba_marseille","lat":43.27835,"lon":5.39213,"is_reserved":false,"is_disabled":false,"rental_uris":{"android":"levelo://app?vid=94496519-8f53-4f45-858d-bcb13d65a29a","ios":"levelo://app?vid=94496519-8f53-4f45-858d-bcb13d65a29a"},"vehicle_type_id":"4","last_reported":1742929673,"current_range_meters":3600,"station_id":"ce4bhjp2rcd13ifvqga0","pricing_plan_id":"cebpf4jnsgd1na2vs0mg"},{"bike_id":"6be6c0fd-25be-4d5c-aa8a-e3e8692871fa","system_id":"levelo_inurba_marseille","lat":43.29418,"lon":5.38642,"is_reserved":false,"is_disabled":false,"rental_uris":{"android":"levelo://app?vid=6be6c0fd-25be-4d5c-aa8a-e3e8692871fa","ios":"levelo://app?vid=6be6c0fd-25be-4d5c-aa8a-e3e8692871fa"},"vehicle_type_id":"4","last_reported":1742929673,"current_range_meters":3600,"station_id":"ce4bh2h2rcd13ifvqdh0","pricing_plan_id":"cebpf4jnsgd1na2vs0mg"},{"bike_id":"97b5cdbd-3f67-48f4-8198-6f50d6230275","system_id":"levelo_inurba_marseille","lat":43.29264,"lon":5.38434,"is_reserved":false,"is_disabled":false,"rental_uris":{"android":"levelo://app?vid=97b5cdbd-3f67-48f4-8198-6f50d6230275","ios":"levelo://app?vid=97b5cdbd-3f67-48f4-8198-6f50d6230275"},"vehicle_type_id":"4","last_reported":1742929673,"current_range_meters":3600,"station_id":"ce4bh692rcd13ifvqea0","pricing_plan_id":"cebpf4jnsgd1na2vs0mg"},{"bike_id":"28517d63-fb99-4e7f-b564-20137b943b4f","system_id":"levelo_inurba_marseille","lat":43.29585,"lon":5.39978,"is_reserved":false,"is_disabled":false,"rental_uris":{"android":"levelo://app?vid=28517d63-fb99-4e7f-b564-20137b943b4f","ios":"levelo://app?vid=28517d63-fb99-4e7f-b564-20137b943b4f"},"vehicle_type_id":"4","last_reported":1742929673,"current_range_meters":3600,"station_id":"ce4bh312rcd13ifvqdj0","pricing_plan_id":"cebpf4jnsgd1na2vs0mg"},{"bike_id":"68301b5e-dc51-40d5-b104-24f9993c4eb2","system_id":"levelo_inurba_marseille","lat":43.29044,"lon":5.38645,"is_reserved":false,"is_disabled":false,"rental_uris":{"android":"levelo://app?vid=68301b5e-dc51-40d5-b104-24f9993c4eb2","ios":"levelo://app?vid=68301b5e-dc51-40d5-b104-24f9993c4eb2"},"vehicle_type_id":"4","last_reported":1742929673,"current_range_meters":3600,"station_id":"ce4bh4p2rcd13ifvqe0g","pricing_plan_id":"cebpf4jnsgd1na2vs0mg"},{"bike_id":"cf165fed-bb4c-40af-be73-561a4e304262","system_id":"levelo_inurba_marseille","lat":43.26944,"lon":5.38917,"is_reserved":false,"is_disabled":false,"rental_uris":{"android":"levelo://app?vid=cf165fed-bb4c-40af-be73-561a4e304262","ios":"levelo://app?vid=cf165fed-bb4c-40af-be73-561a4e304262"},"vehicle_type_id":"4","last_reported":1742929673,"current_range_meters":3600,"station_id":"ce4bhhh2rcd13ifvqfl0","pricing_plan_id":"cebpf4jnsgd1na2vs0mg"},{"bike_id":"a82057f0-7920-4d0a-9215-12173812fe01","system_id":"levelo_inurba_marseille","lat":43.30931,"lon":5.4015,"is_reserved":false,"is_disabled":false,"rental_uris":{"android":"levelo://app?vid=a82057f0-7920-4d0a-9215-12173812fe01","ios":"levelo://app?vid=a82057f0-7920-4d0a-9215-12173812fe01"},"vehicle_type_id":"4","last_reported":1742929673,"current_range_meters":3600,"station_id":"ce4bh0p2rcd13ifvqd70","pricing_plan_id":"cebpf4jnsgd1na2vs0mg"},{"bike_id":"93ce4c86-aa2f-4d42-999e-2f0bba121e6a","system_id":"levelo_inurba_marseille","lat":43.29416,"lon":5.38628,"is_reserved":false,"is_disabled":false,"rental_uris":{"android":"levelo://app?vid=93ce4c86-aa2f-4d42-999e-2f0bba121e6a","ios":"levelo://app?vid=93ce4c86-aa2f-4d42-999e-2f0bba121e6a"},"vehicle_type_id":"4","last_reported":1742929673,"current_range_meters":3600,"station_id":"ce4bh2h2rcd13ifvqdh0","pricing_plan_id":"cebpf4jnsgd1na2vs0mg"},{"bike_id":"0570a9a6-b9f0-47d0-bdf1-df039b21914d","system_id":"levelo_inurba_marseille","lat":43.32363,"lon":5.38892,"is_reserved":false,"is_disabled":false,"rental_uris":{"android":"levelo://app?vid=0570a9a6-b9f0-47d0-bdf1-df039b21914d","ios":"levelo://app?vid=0570a9a6-b9f0-47d0-bdf1-df039b21914d"},"vehicle_type_id":"4","last_reported":1742929673,"current_range_meters":3600,"station_id":"ce4bhqp2rcd13ifvqhog","pricing_plan_id":"cebpf4jnsgd1na2vs0mg"},{"bike_id":"1ba49e2c-f24e-4a98-af5e-08353f7f4bb2","system_id":"levelo_inurba_marseille","lat":43.30148,"lon":5.38785,"is_reserved":false,"is_disabled":false,"rental_uris":{"android":"levelo://app?vid=1ba49e2c-f24e-4a98-af5e-08353f7f4bb2","ios":"levelo://app?vid=1ba49e2c-f24e-4a98-af5e-08353f7f4bb2"},"vehicle_type_id":"4","last_reported":1742929673,"current_range_meters":4000,"station_id":"ce4bghh2rcd13ifvqb60","pricing_plan_id":"cebpf4jnsgd1na2vs0mg"},{"bike_id":"a882a4c0-241f-4103-b4ae-df5c85894758","system_id":"levelo_inurba_marseille","lat":43.29529,"lon":5.37502,"is_reserved":false,"is_disabled":false,"rental_uris":{"android":"levelo://app?vid=a882a4c0-241f-4103-b4ae-df5c85894758","ios":"levelo://app?vid=a882a4c0-241f-4103-b4ae-df5c85894758"},"vehicle_type_id":"4","last_reported":1742929673,"current_range_meters":4000,"station_id":"ce4bgkp2rcd13ifvqbmg","pricing_plan_id":"cebpf4jnsgd1na2vs0mg"},{"bike_id":"ec9bd42e-e82c-4fec-94e4-08d21521faaf","system_id":"levelo_inurba_marseille","lat":43.23058,"lon":5.35491,"is_reserved":false,"is_disabled":false,"rental_uris":{"android":"levelo://app?vid=ec9bd42e-e82c-4fec-94e4-08d21521faaf","ios":"levelo://app?vid=ec9bd42e-e82c-4fec-94e4-08d21521faaf"},"vehicle_type_id":"4","last_reported":1742929673,"current_range_meters":4000,"station_id":"cpo3342slgdg3j2ifvpg","pricing_plan_id":"cebpf4jnsgd1na2vs0mg"},{"bike_id":"10ae1ac3-b460-4f57-82e4-851d6370442b","system_id":"levelo_inurba_marseille","lat":43.29266,"lon":5.37637,"is_reserved":false,"is_disabled":false,"rental_uris":{"android":"levelo://app?vid=10ae1ac3-b460-4f57-82e4-851d6370442b","ios":"levelo://app?vid=10ae1ac3-b460-4f57-82e4-851d6370442b"},"vehicle_type_id":"4","last_reported":1742929673,"current_range_meters":4000,"station_id":"ce4bgi12rcd13ifvqb80","pricing_plan_id":"cebpf4jnsgd1na2vs0mg"},{"bike_id":"0181446a-4c19-48e6-a3f5-555dc5681aa7","system_id":"levelo_inurba_marseille","lat":43.28679,"lon":5.38688,"is_reserved":false,"is_disabled":false,"rental_uris":{"android":"levelo://app?vid=0181446a-4c19-48e6-a3f5-555dc5681aa7","ios":"levelo://app?vid=0181446a-4c19-48e6-a3f5-555dc5681aa7"},"vehicle_type_id":"4","last_reported":1742929673,"current_range_meters":4000,"station_id":"ce4bh492rcd13ifvqdug","pricing_plan_id":"cebpf4jnsgd1na2vs0mg"},{"bike_id":"4c44323f-8e85-4775-89d0-b891e75ca84c","system_id":"levelo_inurba_marseille","lat":43.29062,"lon":5.35909,"is_reserved":false,"is_disabled":false,"rental_uris":{"android":"levelo://app?vid=4c44323f-8e85-4775-89d0-b891e75ca84c","ios":"levelo://app?vid=4c44323f-8e85-4775-89d0-b891e75ca84c"},"vehicle_type_id":"4","last_reported":1742929673,"current_range_meters":4000,"station_id":"ce4bha92rcd13ifvqeg0","pricing_plan_id":"cebpf4jnsgd1na2vs0mg"},{"bike_id":"d179e8fc-3582-4cfe-8d29-5c92c0509b08","system_id":"levelo_inurba_marseille","lat":43.25584,"lon":5.38238,"is_reserved":false,"is_disabled":false,"rental_uris":{"android":"levelo://app?vid=d179e8fc-3582-4cfe-8d29-5c92c0509b08","ios":"levelo://app?vid=d179e8fc-3582-4cfe-8d29-5c92c0509b08"},"vehicle_type_id":"4","last_reported":1742929673,"current_range_meters":4000,"station_id":"ce4bhih2rcd13ifvqfs0","pricing_plan_id":"cebpf4jnsgd1na2vs0mg"},{"bike_id":"8637c886-d11d-4904-bfba-856b6aae2576","system_id":"levelo_inurba_marseille","lat":43.28026,"lon":5.36955,"is_reserved":false,"is_disabled":false,"rental_uris":{"android":"levelo://app?vid=8637c886-d11d-4904-bfba-856b6aae2576","ios":"levelo://app?vid=8637c886-d11d-4904-bfba-856b6aae2576"},"vehicle_type_id":"4","last_reported":1742929673,"current_range_meters":4000,"station_id":"ce4bha12rcd13ifvqef0","pricing_plan_id":"cebpf4jnsgd1na2vs0mg"},{"bike_id":"d9b8da01-ed16-4313-a2a3-60f437d654b1","system_id":"levelo_inurba_marseille","lat":43.28649,"lon":5.36351,"is_reserved":false,"is_disabled":false,"rental_uris":{"android":"levelo://app?vid=d9b8da01-ed16-4313-a2a3-60f437d654b1","ios":"levelo://app?vid=d9b8da01-ed16-4313-a2a3-60f437d654b1"},"vehicle_type_id":"4","last_reported":1742929673,"current_range_meters":4000,"station_id":"ce4bhah2rcd13ifvqej0","pricing_plan_id":"cebpf4jnsgd1na2vs0mg"},{"bike_id":"8f4ad29a-a683-4197-8525-c4b321d88b12","system_id":"levelo_inurba_marseille","lat":43.29713,"lon":5.37711,"is_reserved":false,"is_disabled":false,"rental_uris":{"android":"levelo://app?vid=8f4ad29a-a683-4197-8525-c4b321d88b12","ios":"levelo://app?vid=8f4ad29a-a683-4197-8525-c4b321d88b12"},"vehicle_type_id":"4","last_reported":1742929673,"current_range_meters":4000,"station_id":"ce4bgkh2rcd13ifvqbl0","pricing_plan_id":"cebpf4jnsgd1na2vs0mg"},{"bike_id":"a42748bd-faf1-453d-af91-9e1c590bc957","system_id":"levelo_inurba_marseille","lat":43.28441,"lon":5.39192,"is_reserved":false,"is_disabled":false,"rental_uris":{"android":"levelo://app?vid=a42748bd-faf1-453d-af91-9e1c590bc957","ios":"levelo://app?vid=a42748bd-faf1-453d-af91-9e1c590bc957"},"vehicle_type_id":"4","last_reported":1742929673,"current_range_meters":4000,"station_id":"ce4bhoh2rcd13ifvqh5g","pricing_plan_id":"cebpf4jnsgd1na2vs0mg"},{"bike_id":"82c41712-0657-4eb9-8b0d-29313b2a80fd","system_id":"levelo_inurba_marseille","lat":43.295775,"lon":5.367648,"is_reserved":false,"is_disabled":false,"rental_uris":{"android":"levelo://app?vid=82c41712-0657-4eb9-8b0d-29313b2a80fd","ios":"levelo://app?vid=82c41712-0657-4eb9-8b0d-29313b2a80fd"},"vehicle_type_id":"4","last_reported":1742929673,"current_range_meters":4400,"station_id":"ce4bgnh2rcd13ifvqc0g","pricing_plan_id":"cebpf4jnsgd1na2vs0mg"},{"bike_id":"cad739e8-49b3-4621-82fd-47e170c86da3","system_id":"levelo_inurba_marseille","lat":43.29804,"lon":5.38085,"is_reserved":false,"is_disabled":false,"rental_uris":{"android":"levelo://app?vid=cad739e8-49b3-4621-82fd-47e170c86da3","ios":"levelo://app?vid=cad739e8-49b3-4621-82fd-47e170c86da3"},"vehicle_type_id":"4","last_reported":1742929673,"current_range_meters":4400,"station_id":"ce4bgip2rcd13ifvqbb0","pricing_plan_id":"cebpf4jnsgd1na2vs0mg"},{"bike_id":"bbeb21a4-d6fd-4cdf-9ab5-2e33dcbd6c52","system_id":"levelo_inurba_marseille","lat":43.29904,"lon":5.43653,"is_reserved":false,"is_disabled":false,"rental_uris":{"android":"levelo://app?vid=bbeb21a4-d6fd-4cdf-9ab5-2e33dcbd6c52","ios":"levelo://app?vid=bbeb21a4-d6fd-4cdf-9ab5-2e33dcbd6c52"},"vehicle_type_id":"4","last_reported":1742929673,"current_range_meters":4400,"station_id":"ce4bhpp2rcd13ifvqhfg","pricing_plan_id":"cebpf4jnsgd1na2vs0mg"},{"bike_id":"d8a0f261-f25c-4d6e-aabd-5fb8973dd1a2","system_id":"levelo_inurba_marseille","lat":43.30251,"lon":5.40059,"is_reserved":false,"is_disabled":false,"rental_uris":{"android":"levelo://app?vid=d8a0f261-f25c-4d6e-aabd-5fb8973dd1a2","ios":"levelo://app?vid=d8a0f261-f25c-4d6e-aabd-5fb8973dd1a2"},"vehicle_type_id":"4","last_reported":1742929673,"current_range_meters":4000,"station_id":"ce4bgvh2rcd13ifvqcs0","pricing_plan_id":"cebpf4jnsgd1na2vs0mg"},{"bike_id":"9ad081dd-accd-4dab-b252-44021c8f1b43","system_id":"levelo_inurba_marseille","lat":43.27385,"lon":5.36269,"is_reserved":false,"is_disabled":false,"rental_uris":{"android":"levelo://app?vid=9ad081dd-accd-4dab-b252-44021c8f1b43","ios":"levelo://app?vid=9ad081dd-accd-4dab-b252-44021c8f1b43"},"vehicle_type_id":"4","last_reported":1742929673,"current_range_meters":4400,"station_id":"ce4bhbh2rcd13ifvqeo0","pricing_plan_id":"cebpf4jnsgd1na2vs0mg"},{"bike_id":"b7596823-060f-4008-ae5f-d1cbdc2b311d","system_id":"levelo_inurba_marseille","lat":43.28709,"lon":5.3999,"is_reserved":false,"is_disabled":false,"rental_uris":{"android":"levelo://app?vid=b7596823-060f-4008-ae5f-d1cbdc2b311d","ios":"levelo://app?vid=b7596823-060f-4008-ae5f-d1cbdc2b311d"},"vehicle_type_id":"4","last_reported":1742929673,"current_range_meters":4400,"station_id":"ce4bho92rcd13ifvqh3g","pricing_plan_id":"cebpf4jnsgd1na2vs0mg"},{"bike_id":"0b309a98-716b-4e3e-9d0c-e202efaa050b","system_id":"levelo_inurba_marseille","lat":43.29527,"lon":5.39065,"is_reserved":false,"is_disabled":false,"rental_uris":{"android":"levelo://app?vid=0b309a98-716b-4e3e-9d0c-e202efaa050b","ios":"levelo://app?vid=0b309a98-716b-4e3e-9d0c-e202efaa050b"},"vehicle_type_id":"4","last_reported":1742929673,"current_range_meters":4400,"station_id":"ce4bh3p2rcd13ifvqdp0","pricing_plan_id":"cebpf4jnsgd1na2vs0mg"},{"bike_id":"fcef15ab-644c-45f0-b3e2-ebae40a9bba5","system_id":"levelo_inurba_marseille","lat":43.24654,"lon":5.38899,"is_reserved":false,"is_disabled":false,"rental_uris":{"android":"levelo://app?vid=fcef15ab-644c-45f0-b3e2-ebae40a9bba5","ios":"levelo://app?vid=fcef15ab-644c-45f0-b3e2-ebae40a9bba5"},"vehicle_type_id":"4","last_reported":1742929673,"current_range_meters":4400,"station_id":"ce4bhg12rcd13ifvqf60","pricing_plan_id":"cebpf4jnsgd1na2vs0mg"},{"bike_id":"5c0afacc-e3d9-4363-8f10-2a19150221ac","system_id":"levelo_inurba_marseille","lat":43.29379,"lon":5.37433,"is_reserved":false,"is_disabled":false,"rental_uris":{"android":"levelo://app?vid=5c0afacc-e3d9-4363-8f10-2a19150221ac","ios":"levelo://app?vid=5c0afacc-e3d9-4363-8f10-2a19150221ac"},"vehicle_type_id":"4","last_reported":1742929673,"current_range_meters":4800,"station_id":"","pricing_plan_id":"cebpf4jnsgd1na2vs0mg"},{"bike_id":"0e3f547e-3a1b-4dc9-bffb-99b13a213daa","system_id":"levelo_inurba_marseille","lat":43.30151,"lon":5.39901,"is_reserved":false,"is_disabled":false,"rental_uris":{"android":"levelo://app?vid=0e3f547e-3a1b-4dc9-bffb-99b13a213daa","ios":"levelo://app?vid=0e3f547e-3a1b-4dc9-bffb-99b13a213daa"},"vehicle_type_id":"4","last_reported":1742929673,"current_range_meters":4800,"station_id":"ce4bh0h2rcd13ifvqd40","pricing_plan_id":"cebpf4jnsgd1na2vs0mg"},{"bike_id":"a74cdeab-f896-49a2-9e69-1a408c582e96","system_id":"levelo_inurba_marseille","lat":43.27813,"lon":5.40729,"is_reserved":false,"is_disabled":false,"rental_uris":{"android":"levelo://app?vid=a74cdeab-f896-49a2-9e69-1a408c582e96","ios":"levelo://app?vid=a74cdeab-f896-49a2-9e69-1a408c582e96"},"vehicle_type_id":"4","last_reported":1742929673,"current_range_meters":4800,"station_id":"ce4bhnh2rcd13ifvqgtg","pricing_plan_id":"cebpf4jnsgd1na2vs0mg"},{"bike_id":"fbfecbb6-5794-4d9a-9176-1810e4b4a7ef","system_id":"levelo_inurba_marseille","lat":43.23067,"lon":5.35494,"is_reserved":false,"is_disabled":false,"rental_uris":{"android":"levelo://app?vid=fbfecbb6-5794-4d9a-9176-1810e4b4a7ef","ios":"levelo://app?vid=fbfecbb6-5794-4d9a-9176-1810e4b4a7ef"},"vehicle_type_id":"4","last_reported":1742929673,"current_range_meters":4800,"station_id":"cpo3342slgdg3j2ifvpg","pricing_plan_id":"cebpf4jnsgd1na2vs0mg"},{"bike_id":"cdea5329-3d6a-4226-bf6a-e8365fca5e97","system_id":"levelo_inurba_marseille","lat":43.28838,"lon":5.3585,"is_reserved":false,"is_disabled":false,"rental_uris":{"android":"levelo://app?vid=cdea5329-3d6a-4226-bf6a-e8365fca5e97","ios":"levelo://app?vid=cdea5329-3d6a-4226-bf6a-e8365fca5e97"},"vehicle_type_id":"4","last_reported":1742929673,"current_range_meters":4800,"station_id":"ce4bhb12rcd13ifvqem0","pricing_plan_id":"cebpf4jnsgd1na2vs0mg"},{"bike_id":"943904f8-2ace-4be5-a19f-887b0bd689e8","system_id":"levelo_inurba_marseille","lat":43.29897,"lon":5.43669,"is_reserved":false,"is_disabled":false,"rental_uris":{"android":"levelo://app?vid=943904f8-2ace-4be5-a19f-887b0bd689e8","ios":"levelo://app?vid=943904f8-2ace-4be5-a19f-887b0bd689e8"},"vehicle_type_id":"4","last_reported":1742929673,"current_range_meters":4800,"station_id":"ce4bhpp2rcd13ifvqhfg","pricing_plan_id":"cebpf4jnsgd1na2vs0mg"},{"bike_id":"f4f4530e-6dad-49f8-b1ff-1dfbbcac8ffc","system_id":"levelo_inurba_marseille","lat":43.29255,"lon":5.38445,"is_reserved":false,"is_disabled":false,"rental_uris":{"android":"levelo://app?vid=f4f4530e-6dad-49f8-b1ff-1dfbbcac8ffc","ios":"levelo://app?vid=f4f4530e-6dad-49f8-b1ff-1dfbbcac8ffc"},"vehicle_type_id":"4","last_reported":1742929673,"current_range_meters":4800,"station_id":"ce4bh692rcd13ifvqea0","pricing_plan_id":"cebpf4jnsgd1na2vs0mg"},{"bike_id":"6438e7c5-28dc-4074-8364-4ad0326b7080","system_id":"levelo_inurba_marseille","lat":43.29023,"lon":5.38627,"is_reserved":false,"is_disabled":false,"rental_uris":{"android":"levelo://app?vid=6438e7c5-28dc-4074-8364-4ad0326b7080","ios":"levelo://app?vid=6438e7c5-28dc-4074-8364-4ad0326b7080"},"vehicle_type_id":"4","last_reported":1742929673,"current_range_meters":4800,"station_id":"ce4bh4p2rcd13ifvqe0g","pricing_plan_id":"cebpf4jnsgd1na2vs0mg"},{"bike_id":"5eb0e2f0-8111-4362-8b3d-f072323b11aa","system_id":"levelo_inurba_marseille","lat":43.28613,"lon":5.37063,"is_reserved":false,"is_disabled":false,"rental_uris":{"android":"levelo://app?vid=5eb0e2f0-8111-4362-8b3d-f072323b11aa","ios":"levelo://app?vid=5eb0e2f0-8111-4362-8b3d-f072323b11aa"},"vehicle_type_id":"4","last_reported":1742929673,"current_range_meters":5600,"station_id":"ce4bht12rcd13ifvqi60","pricing_plan_id":"cebpf4jnsgd1na2vs0mg"},{"bike_id":"8552d831-a1aa-4c41-b1cf-41a2db1c247f","system_id":"levelo_inurba_marseille","lat":43.29577,"lon":5.38543,"is_reserved":false,"is_disabled":false,"rental_uris":{"android":"levelo://app?vid=8552d831-a1aa-4c41-b1cf-41a2db1c247f","ios":"levelo://app?vid=8552d831-a1aa-4c41-b1cf-41a2db1c247f"},"vehicle_type_id":"4","last_reported":1742929673,"current_range_meters":5600,"station_id":"","pricing_plan_id":"cebpf4jnsgd1na2vs0mg"},{"bike_id":"4b82f9a6-2f12-42e5-86cc-35d0acf12b8e","system_id":"levelo_inurba_marseille","lat":43.25111,"lon":5.395,"is_reserved":false,"is_disabled":false,"rental_uris":{"android":"levelo://app?vid=4b82f9a6-2f12-42e5-86cc-35d0acf12b8e","ios":"levelo://app?vid=4b82f9a6-2f12-42e5-86cc-35d0acf12b8e"},"vehicle_type_id":"4","last_reported":1742929673,"current_range_meters":5600,"station_id":"ce4bhm12rcd13ifvqgkg","pricing_plan_id":"cebpf4jnsgd1na2vs0mg"},{"bike_id":"e4ea63b5-aa58-441c-9fb8-1c0ca03a99e5","system_id":"levelo_inurba_marseille","lat":43.30423,"lon":5.41311,"is_reserved":false,"is_disabled":false,"rental_uris":{"android":"levelo://app?vid=e4ea63b5-aa58-441c-9fb8-1c0ca03a99e5","ios":"levelo://app?vid=e4ea63b5-aa58-441c-9fb8-1c0ca03a99e5"},"vehicle_type_id":"4","last_reported":1742929673,"current_range_meters":5600,"station_id":"ce4bhop2rcd13ifvqh8g","pricing_plan_id":"cebpf4jnsgd1na2vs0mg"},{"bike_id":"41eb1090-333d-4f24-892e-0d8e3add41d2","system_id":"levelo_inurba_marseille","lat":43.301331,"lon":5.388023,"is_reserved":false,"is_disabled":false,"rental_uris":{"android":"levelo://app?vid=41eb1090-333d-4f24-892e-0d8e3add41d2","ios":"levelo://app?vid=41eb1090-333d-4f24-892e-0d8e3add41d2"},"vehicle_type_id":"4","last_reported":1742929673,"current_range_meters":5600,"station_id":"ce4bghh2rcd13ifvqb60","pricing_plan_id":"cebpf4jnsgd1na2vs0mg"},{"bike_id":"cf30ba2d-9dd5-4d8d-b3a7-9af496f3ef85","system_id":"levelo_inurba_marseille","lat":43.289226,"lon":5.381897,"is_reserved":false,"is_disabled":false,"rental_uris":{"android":"levelo://app?vid=cf30ba2d-9dd5-4d8d-b3a7-9af496f3ef85","ios":"levelo://app?vid=cf30ba2d-9dd5-4d8d-b3a7-9af496f3ef85"},"vehicle_type_id":"4","last_reported":1742929673,"current_range_meters":5600,"station_id":"ce4bh4p2rcd13ifvqe1g","pricing_plan_id":"cebpf4jnsgd1na2vs0mg"},{"bike_id":"9b3df4af-6091-4feb-b2d9-618f1a0a9915","system_id":"levelo_inurba_marseille","lat":43.23201,"lon":5.35549,"is_reserved":false,"is_disabled":false,"rental_uris":{"android":"levelo://app?vid=9b3df4af-6091-4feb-b2d9-618f1a0a9915","ios":"levelo://app?vid=9b3df4af-6091-4feb-b2d9-618f1a0a9915"},"vehicle_type_id":"4","last_reported":1742929673,"current_range_meters":5600,"station_id":"ce4bhu92rcd13ifvqi70","pricing_plan_id":"cebpf4jnsgd1na2vs0mg"},{"bike_id":"70002fb4-e1a6-4559-8ca1-b5fd373355de","system_id":"levelo_inurba_marseille","lat":43.33022,"lon":5.39037,"is_reserved":false,"is_disabled":false,"rental_uris":{"android":"levelo://app?vid=70002fb4-e1a6-4559-8ca1-b5fd373355de","ios":"levelo://app?vid=70002fb4-e1a6-4559-8ca1-b5fd373355de"},"vehicle_type_id":"4","last_reported":1742929673,"current_range_meters":5600,"station_id":"ce4bhr92rcd13ifvqhrg","pricing_plan_id":"cebpf4jnsgd1na2vs0mg"},{"bike_id":"d5a95a71-bdcf-4c76-90bb-f92bfc4a3cc3","system_id":"levelo_inurba_marseille","lat":43.21885,"lon":5.41974,"is_reserved":false,"is_disabled":false,"rental_uris":{"android":"levelo://app?vid=d5a95a71-bdcf-4c76-90bb-f92bfc4a3cc3","ios":"levelo://app?vid=d5a95a71-bdcf-4c76-90bb-f92bfc4a3cc3"},"vehicle_type_id":"4","last_reported":1742929673,"current_range_meters":5600,"station_id":"","pricing_plan_id":"cebpf4jnsgd1na2vs0mg"},{"bike_id":"3d260342-37c6-4f87-9337-5a228b65d01b","system_id":"levelo_inurba_marseille","lat":43.2991,"lon":5.38131,"is_reserved":false,"is_disabled":false,"rental_uris":{"android":"levelo://app?vid=3d260342-37c6-4f87-9337-5a228b65d01b","ios":"levelo://app?vid=3d260342-37c6-4f87-9337-5a228b65d01b"},"vehicle_type_id":"4","last_reported":1742929673,"current_range_meters":5600,"station_id":"ce4bgj12rcd13ifvqbc0","pricing_plan_id":"cebpf4jnsgd1na2vs0mg"},{"bike_id":"275dd732-3e7e-4d2b-8b11-a396ae8122d0","system_id":"levelo_inurba_marseille","lat":43.31713,"lon":5.43687,"is_reserved":false,"is_disabled":false,"rental_uris":{"android":"levelo://app?vid=275dd732-3e7e-4d2b-8b11-a396ae8122d0","ios":"levelo://app?vid=275dd732-3e7e-4d2b-8b11-a396ae8122d0"},"vehicle_type_id":"4","last_reported":1742929673,"current_range_meters":6000,"station_id":"ce4bhp92rcd13ifvqhcg","pricing_plan_id":"cebpf4jnsgd1na2vs0mg"},{"bike_id":"78855946-f1ec-4dd3-b1cb-78a4f8659240","system_id":"levelo_inurba_marseille","lat":43.295319,"lon":5.390376,"is_reserved":false,"is_disabled":true,"rental_uris":{"android":"levelo://app?vid=78855946-f1ec-4dd3-b1cb-78a4f8659240","ios":"levelo://app?vid=78855946-f1ec-4dd3-b1cb-78a4f8659240"},"vehicle_type_id":"4","last_reported":1742929673,"current_range_meters":6000,"station_id":"ce4bh3p2rcd13ifvqdp0","pricing_plan_id":"cebpf4jnsgd1na2vs0mg"},{"bike_id":"9fe4eac4-b195-4a0b-95c1-118d248cbee1","system_id":"levelo_inurba_marseille","lat":43.308014,"lon":5.381439,"is_reserved":false,"is_disabled":false,"rental_uris":{"android":"levelo://app?vid=9fe4eac4-b195-4a0b-95c1-118d248cbee1","ios":"levelo://app?vid=9fe4eac4-b195-4a0b-95c1-118d248cbee1"},"vehicle_type_id":"4","last_reported":1742929673,"current_range_meters":6000,"station_id":"ce4bgi12rcd13ifvqb70","pricing_plan_id":"cebpf4jnsgd1na2vs0mg"},{"bike_id":"69cae312-ca8c-4ddf-a945-cb9acdf08ab6","system_id":"levelo_inurba_marseille","lat":43.28446,"lon":5.3919,"is_reserved":false,"is_disabled":false,"rental_uris":{"android":"levelo://app?vid=69cae312-ca8c-4ddf-a945-cb9acdf08ab6","ios":"levelo://app?vid=69cae312-ca8c-4ddf-a945-cb9acdf08ab6"},"vehicle_type_id":"4","last_reported":1742929673,"current_range_meters":6000,"station_id":"ce4bhoh2rcd13ifvqh5g","pricing_plan_id":"cebpf4jnsgd1na2vs0mg"},{"bike_id":"df686c0e-db22-4a10-9650-505f2134a2df","system_id":"levelo_inurba_marseille","lat":43.24804,"lon":5.37457,"is_reserved":false,"is_disabled":false,"rental_uris":{"android":"levelo://app?vid=df686c0e-db22-4a10-9650-505f2134a2df","ios":"levelo://app?vid=df686c0e-db22-4a10-9650-505f2134a2df"},"vehicle_type_id":"4","last_reported":1742929673,"current_range_meters":6000,"station_id":"ce4bhgh2rcd13ifvqfb0","pricing_plan_id":"cebpf4jnsgd1na2vs0mg"},{"bike_id":"135f955b-16ac-47e7-a715-961b9f462491","system_id":"levelo_inurba_marseille","lat":43.31533,"lon":5.38038,"is_reserved":false,"is_disabled":false,"rental_uris":{"android":"levelo://app?vid=135f955b-16ac-47e7-a715-961b9f462491","ios":"levelo://app?vid=135f955b-16ac-47e7-a715-961b9f462491"},"vehicle_type_id":"4","last_reported":1742929673,"current_range_meters":5600,"station_id":"ce4bhsp2rcd13ifvqi50","pricing_plan_id":"cebpf4jnsgd1na2vs0mg"},{"bike_id":"97628240-20aa-4514-9f2c-ca25406bfabb","system_id":"levelo_inurba_marseille","lat":43.26681,"lon":5.38259,"is_reserved":false,"is_disabled":false,"rental_uris":{"android":"levelo://app?vid=97628240-20aa-4514-9f2c-ca25406bfabb","ios":"levelo://app?vid=97628240-20aa-4514-9f2c-ca25406bfabb"},"vehicle_type_id":"4","last_reported":1742929673,"current_range_meters":6000,"station_id":"ce4bhg92rcd13ifvqf90","pricing_plan_id":"cebpf4jnsgd1na2vs0mg"},{"bike_id":"2e6ea320-e415-4e49-9024-2e42b3c24462","system_id":"levelo_inurba_marseille","lat":43.337214,"lon":5.391877,"is_reserved":false,"is_disabled":false,"rental_uris":{"android":"levelo://app?vid=2e6ea320-e415-4e49-9024-2e42b3c24462","ios":"levelo://app?vid=2e6ea320-e415-4e49-9024-2e42b3c24462"},"vehicle_type_id":"4","last_reported":1742929673,"current_range_meters":6000,"station_id":"ce4bhr92rcd13ifvqhsg","pricing_plan_id":"cebpf4jnsgd1na2vs0mg"},{"bike_id":"9e8969c8-d667-4862-bdcb-b0a2ed56959b","system_id":"levelo_inurba_marseille","lat":43.29886,"lon":5.38906,"is_reserved":false,"is_disabled":false,"rental_uris":{"android":"levelo://app?vid=9e8969c8-d667-4862-bdcb-b0a2ed56959b","ios":"levelo://app?vid=9e8969c8-d667-4862-bdcb-b0a2ed56959b"},"vehicle_type_id":"4","last_reported":1742929673,"current_range_meters":6000,"station_id":"ce4bh392rcd13ifvqdl0","pricing_plan_id":"cebpf4jnsgd1na2vs0mg"},{"bike_id":"e10ad9e2-b598-4509-964e-a991f2f44178","system_id":"levelo_inurba_marseille","lat":43.29275,"lon":5.36844,"is_reserved":false,"is_disabled":false,"rental_uris":{"android":"levelo://app?vid=e10ad9e2-b598-4509-964e-a991f2f44178","ios":"levelo://app?vid=e10ad9e2-b598-4509-964e-a991f2f44178"},"vehicle_type_id":"4","last_reported":1742929673,"current_range_meters":6000,"station_id":"ce4bhbp2rcd13ifvqesg","pricing_plan_id":"cebpf4jnsgd1na2vs0mg"},{"bike_id":"ecb42ffe-a31e-4210-9fcc-a29d223e03d4","system_id":"levelo_inurba_marseille","lat":43.23199,"lon":5.35558,"is_reserved":false,"is_disabled":false,"rental_uris":{"android":"levelo://app?vid=ecb42ffe-a31e-4210-9fcc-a29d223e03d4","ios":"levelo://app?vid=ecb42ffe-a31e-4210-9fcc-a29d223e03d4"},"vehicle_type_id":"4","last_reported":1742929673,"current_range_meters":6400,"station_id":"ce4bhu92rcd13ifvqi70","pricing_plan_id":"cebpf4jnsgd1na2vs0mg"},{"bike_id":"2462aff4-312c-46a9-ae18-d864ef42c20c","system_id":"levelo_inurba_marseille","lat":43.24166,"lon":5.36405,"is_reserved":false,"is_disabled":false,"rental_uris":{"android":"levelo://app?vid=2462aff4-312c-46a9-ae18-d864ef42c20c","ios":"levelo://app?vid=2462aff4-312c-46a9-ae18-d864ef42c20c"},"vehicle_type_id":"4","last_reported":1742929673,"current_range_meters":6400,"station_id":"cpo36qri1sfpv3e86is0","pricing_plan_id":"cebpf4jnsgd1na2vs0mg"},{"bike_id":"0799628e-ae5e-4352-9b49-dc5e016977f0","system_id":"levelo_inurba_marseille","lat":43.27566,"lon":5.38423,"is_reserved":false,"is_disabled":false,"rental_uris":{"android":"levelo://app?vid=0799628e-ae5e-4352-9b49-dc5e016977f0","ios":"levelo://app?vid=0799628e-ae5e-4352-9b49-dc5e016977f0"},"vehicle_type_id":"4","last_reported":1742929673,"current_range_meters":6400,"station_id":"ce4bhh92rcd13ifvqfi0","pricing_plan_id":"cebpf4jnsgd1na2vs0mg"},{"bike_id":"497957ac-f634-47bb-825f-bbffb781347d","system_id":"levelo_inurba_marseille","lat":43.30883,"lon":5.39661,"is_reserved":false,"is_disabled":false,"rental_uris":{"android":"levelo://app?vid=497957ac-f634-47bb-825f-bbffb781347d","ios":"levelo://app?vid=497957ac-f634-47bb-825f-bbffb781347d"},"vehicle_type_id":"4","last_reported":1742929673,"current_range_meters":6400,"station_id":"ce4bh012rcd13ifvqcv0","pricing_plan_id":"cebpf4jnsgd1na2vs0mg"},{"bike_id":"a5516228-2c65-4ab1-8174-cbfa24336356","system_id":"levelo_inurba_marseille","lat":43.28151,"lon":5.42664,"is_reserved":false,"is_disabled":false,"rental_uris":{"android":"levelo://app?vid=a5516228-2c65-4ab1-8174-cbfa24336356","ios":"levelo://app?vid=a5516228-2c65-4ab1-8174-cbfa24336356"},"vehicle_type_id":"4","last_reported":1742929673,"current_range_meters":6400,"station_id":"ce4bhnh2rcd13ifvqgug","pricing_plan_id":"cebpf4jnsgd1na2vs0mg"},{"bike_id":"1cdb5e5f-6bda-4e07-b645-0554ed59cc39","system_id":"levelo_inurba_marseille","lat":43.25829,"lon":5.39415,"is_reserved":false,"is_disabled":false,"rental_uris":{"android":"levelo://app?vid=1cdb5e5f-6bda-4e07-b645-0554ed59cc39","ios":"levelo://app?vid=1cdb5e5f-6bda-4e07-b645-0554ed59cc39"},"vehicle_type_id":"4","last_reported":1742929673,"current_range_meters":6400,"station_id":"ce4bhip2rcd13ifvqft0","pricing_plan_id":"cebpf4jnsgd1na2vs0mg"},{"bike_id":"70b00c19-2cbb-4b1c-a658-5c5fb2f0b860","system_id":"levelo_inurba_marseille","lat":43.2795,"lon":5.4106,"is_reserved":false,"is_disabled":false,"rental_uris":{"android":"levelo://app?vid=70b00c19-2cbb-4b1c-a658-5c5fb2f0b860","ios":"levelo://app?vid=70b00c19-2cbb-4b1c-a658-5c5fb2f0b860"},"vehicle_type_id":"4","last_reported":1742929673,"current_range_meters":6400,"station_id":"ce4bhnp2rcd13ifvqh0g","pricing_plan_id":"cebpf4jnsgd1na2vs0mg"},{"bike_id":"6387d21a-d5db-4733-812e-1611811eb225","system_id":"levelo_inurba_marseille","lat":43.26574,"lon":5.39015,"is_reserved":false,"is_disabled":false,"rental_uris":{"android":"levelo://app?vid=6387d21a-d5db-4733-812e-1611811eb225","ios":"levelo://app?vid=6387d21a-d5db-4733-812e-1611811eb225"},"vehicle_type_id":"4","last_reported":1742929673,"current_range_meters":6400,"station_id":"ce4bhe12rcd13ifvqf30","pricing_plan_id":"cebpf4jnsgd1na2vs0mg"},{"bike_id":"434b16a6-cc39-4a3f-92ae-8e67b8c02de3","system_id":"levelo_inurba_marseille","lat":43.29701,"lon":5.36599,"is_reserved":false,"is_disabled":false,"rental_uris":{"android":"levelo://app?vid=434b16a6-cc39-4a3f-92ae-8e67b8c02de3","ios":"levelo://app?vid=434b16a6-cc39-4a3f-92ae-8e67b8c02de3"},"vehicle_type_id":"4","last_reported":1742929673,"current_range_meters":6400,"station_id":"ce4bhq12rcd13ifvqhig","pricing_plan_id":"cebpf4jnsgd1na2vs0mg"},{"bike_id":"b9f50063-c498-4746-a2af-200019a13082","system_id":"levelo_inurba_marseille","lat":43.2408,"lon":5.37758,"is_reserved":false,"is_disabled":false,"rental_uris":{"android":"levelo://app?vid=b9f50063-c498-4746-a2af-200019a13082","ios":"levelo://app?vid=b9f50063-c498-4746-a2af-200019a13082"},"vehicle_type_id":"4","last_reported":1742929673,"current_range_meters":6000,"station_id":"ce4bhnp2rcd13ifvqgvg","pricing_plan_id":"cebpf4jnsgd1na2vs0mg"},{"bike_id":"3513a6f0-dbc9-4f37-8b52-79603521c288","system_id":"levelo_inurba_marseille","lat":43.23075,"lon":5.35494,"is_reserved":false,"is_disabled":false,"rental_uris":{"android":"levelo://app?vid=3513a6f0-dbc9-4f37-8b52-79603521c288","ios":"levelo://app?vid=3513a6f0-dbc9-4f37-8b52-79603521c288"},"vehicle_type_id":"4","last_reported":1742929673,"current_range_meters":6400,"station_id":"cpo3342slgdg3j2ifvpg","pricing_plan_id":"cebpf4jnsgd1na2vs0mg"},{"bike_id":"cd810a82-c22c-4dbe-a832-3f0b0589f2f8","system_id":"levelo_inurba_marseille","lat":43.29611,"lon":5.3811,"is_reserved":false,"is_disabled":false,"rental_uris":{"android":"levelo://app?vid=cd810a82-c22c-4dbe-a832-3f0b0589f2f8","ios":"levelo://app?vid=cd810a82-c22c-4dbe-a832-3f0b0589f2f8"},"vehicle_type_id":"4","last_reported":1742929673,"current_range_meters":6400,"station_id":"ce4bgl12rcd13ifvqbo0","pricing_plan_id":"cebpf4jnsgd1na2vs0mg"},{"bike_id":"54b2eb2e-f099-4f46-9067-448b807e02c4","system_id":"levelo_inurba_marseille","lat":43.29042,"lon":5.356,"is_reserved":false,"is_disabled":false,"rental_uris":{"android":"levelo://app?vid=54b2eb2e-f099-4f46-9067-448b807e02c4","ios":"levelo://app?vid=54b2eb2e-f099-4f46-9067-448b807e02c4"},"vehicle_type_id":"4","last_reported":1742929673,"current_range_meters":6400,"station_id":"","pricing_plan_id":"cebpf4jnsgd1na2vs0mg"},{"bike_id":"7bc4af12-1a1b-460f-bbc1-b9fd3ed7c140","system_id":"levelo_inurba_marseille","lat":43.283473,"lon":5.378618,"is_reserved":false,"is_disabled":false,"rental_uris":{"android":"levelo://app?vid=7bc4af12-1a1b-460f-bbc1-b9fd3ed7c140","ios":"levelo://app?vid=7bc4af12-1a1b-460f-bbc1-b9fd3ed7c140"},"vehicle_type_id":"4","last_reported":1742929673,"current_range_meters":6800,"station_id":"ce4bha12rcd13ifvqee0","pricing_plan_id":"cebpf4jnsgd1na2vs0mg"},{"bike_id":"d350e7fd-7f35-4d26-ac3d-e43ecfe10b96","system_id":"levelo_inurba_marseille","lat":43.29422,"lon":5.38633,"is_reserved":false,"is_disabled":false,"rental_uris":{"android":"levelo://app?vid=d350e7fd-7f35-4d26-ac3d-e43ecfe10b96","ios":"levelo://app?vid=d350e7fd-7f35-4d26-ac3d-e43ecfe10b96"},"vehicle_type_id":"4","last_reported":1742929673,"current_range_meters":6800,"station_id":"ce4bh2h2rcd13ifvqdh0","pricing_plan_id":"cebpf4jnsgd1na2vs0mg"},{"bike_id":"40c9879f-9142-4245-a7bc-60f5721fd202","system_id":"levelo_inurba_marseille","lat":43.25721,"lon":5.41113,"is_reserved":false,"is_disabled":false,"rental_uris":{"android":"levelo://app?vid=40c9879f-9142-4245-a7bc-60f5721fd202","ios":"levelo://app?vid=40c9879f-9142-4245-a7bc-60f5721fd202"},"vehicle_type_id":"4","last_reported":1742929673,"current_range_meters":6800,"station_id":"ce4bhkp2rcd13ifvqgd0","pricing_plan_id":"cebpf4jnsgd1na2vs0mg"},{"bike_id":"bb365cad-3dc7-4ebc-aa87-7f6c9b0fca6a","system_id":"levelo_inurba_marseille","lat":43.27211,"lon":5.39178,"is_reserved":false,"is_disabled":false,"rental_uris":{"android":"levelo://app?vid=bb365cad-3dc7-4ebc-aa87-7f6c9b0fca6a","ios":"levelo://app?vid=bb365cad-3dc7-4ebc-aa87-7f6c9b0fca6a"},"vehicle_type_id":"4","last_reported":1742929673,"current_range_meters":6800,"station_id":"ce4bhhp2rcd13ifvqfm0","pricing_plan_id":"cebpf4jnsgd1na2vs0mg"},{"bike_id":"660eae1a-31fa-4bb7-a4bf-f1a2afd0c5cf","system_id":"levelo_inurba_marseille","lat":43.27813,"lon":5.40719,"is_reserved":false,"is_disabled":false,"rental_uris":{"android":"levelo://app?vid=660eae1a-31fa-4bb7-a4bf-f1a2afd0c5cf","ios":"levelo://app?vid=660eae1a-31fa-4bb7-a4bf-f1a2afd0c5cf"},"vehicle_type_id":"4","last_reported":1742929673,"current_range_meters":6800,"station_id":"ce4bhnh2rcd13ifvqgtg","pricing_plan_id":"cebpf4jnsgd1na2vs0mg"},{"bike_id":"5eb00e60-b5d9-4a65-9bba-344db36c1e04","system_id":"levelo_inurba_marseille","lat":43.25816,"lon":5.3943,"is_reserved":false,"is_disabled":false,"rental_uris":{"android":"levelo://app?vid=5eb00e60-b5d9-4a65-9bba-344db36c1e04","ios":"levelo://app?vid=5eb00e60-b5d9-4a65-9bba-344db36c1e04"},"vehicle_type_id":"4","last_reported":1742929673,"current_range_meters":6800,"station_id":"ce4bhip2rcd13ifvqft0","pricing_plan_id":"cebpf4jnsgd1na2vs0mg"},{"bike_id":"fa274ff9-69fe-4526-95df-4488798878a1","system_id":"levelo_inurba_marseille","lat":43.30258,"lon":5.40077,"is_reserved":false,"is_disabled":false,"rental_uris":{"android":"levelo://app?vid=fa274ff9-69fe-4526-95df-4488798878a1","ios":"levelo://app?vid=fa274ff9-69fe-4526-95df-4488798878a1"},"vehicle_type_id":"4","last_reported":1742929673,"current_range_meters":6800,"station_id":"ce4bgvh2rcd13ifvqcs0","pricing_plan_id":"cebpf4jnsgd1na2vs0mg"},{"bike_id":"2ce58767-def4-47a3-8b4f-db4629674f23","system_id":"levelo_inurba_marseille","lat":43.30152,"lon":5.39889,"is_reserved":false,"is_disabled":false,"rental_uris":{"android":"levelo://app?vid=2ce58767-def4-47a3-8b4f-db4629674f23","ios":"levelo://app?vid=2ce58767-def4-47a3-8b4f-db4629674f23"},"vehicle_type_id":"4","last_reported":1742929673,"current_range_meters":6800,"station_id":"ce4bh0h2rcd13ifvqd40","pricing_plan_id":"cebpf4jnsgd1na2vs0mg"},{"bike_id":"305ee52b-4afa-4996-a506-e2be5600efaf","system_id":"levelo_inurba_marseille","lat":43.29973,"lon":5.38485,"is_reserved":false,"is_disabled":false,"rental_uris":{"android":"levelo://app?vid=305ee52b-4afa-4996-a506-e2be5600efaf","ios":"levelo://app?vid=305ee52b-4afa-4996-a506-e2be5600efaf"},"vehicle_type_id":"4","last_reported":1742929673,"current_range_meters":6800,"station_id":"ce4bgj92rcd13ifvqbd0","pricing_plan_id":"cebpf4jnsgd1na2vs0mg"},{"bike_id":"df5dd5b8-1cca-4763-95e7-6a2684e36d77","system_id":"levelo_inurba_marseille","lat":43.29198,"lon":5.39328,"is_reserved":false,"is_disabled":false,"rental_uris":{"android":"levelo://app?vid=df5dd5b8-1cca-4763-95e7-6a2684e36d77","ios":"levelo://app?vid=df5dd5b8-1cca-4763-95e7-6a2684e36d77"},"vehicle_type_id":"4","last_reported":1742929673,"current_range_meters":6800,"station_id":"ce4bh192rcd13ifvqdd0","pricing_plan_id":"cebpf4jnsgd1na2vs0mg"},{"bike_id":"30d2fbca-239f-49cd-b89b-17b0ba382ee0","system_id":"levelo_inurba_marseille","lat":43.24067,"lon":5.3775,"is_reserved":false,"is_disabled":false,"rental_uris":{"android":"levelo://app?vid=30d2fbca-239f-49cd-b89b-17b0ba382ee0","ios":"levelo://app?vid=30d2fbca-239f-49cd-b89b-17b0ba382ee0"},"vehicle_type_id":"4","last_reported":1742929673,"current_range_meters":6800,"station_id":"ce4bhnp2rcd13ifvqgvg","pricing_plan_id":"cebpf4jnsgd1na2vs0mg"},{"bike_id":"528f6166-a98c-4263-81ac-c87e5a136a45","system_id":"levelo_inurba_marseille","lat":43.29423,"lon":5.38641,"is_reserved":false,"is_disabled":false,"rental_uris":{"android":"levelo://app?vid=528f6166-a98c-4263-81ac-c87e5a136a45","ios":"levelo://app?vid=528f6166-a98c-4263-81ac-c87e5a136a45"},"vehicle_type_id":"4","last_reported":1742929673,"current_range_meters":6800,"station_id":"ce4bh2h2rcd13ifvqdh0","pricing_plan_id":"cebpf4jnsgd1na2vs0mg"},{"bike_id":"bc5ee50c-0ee0-4b06-9aa0-2ff083787a62","system_id":"levelo_inurba_marseille","lat":43.31714,"lon":5.43712,"is_reserved":false,"is_disabled":false,"rental_uris":{"android":"levelo://app?vid=bc5ee50c-0ee0-4b06-9aa0-2ff083787a62","ios":"levelo://app?vid=bc5ee50c-0ee0-4b06-9aa0-2ff083787a62"},"vehicle_type_id":"4","last_reported":1742929673,"current_range_meters":6800,"station_id":"ce4bhp92rcd13ifvqhcg","pricing_plan_id":"cebpf4jnsgd1na2vs0mg"},{"bike_id":"76d1f9d3-650e-4b8c-bbca-63555d1fa50b","system_id":"levelo_inurba_marseille","lat":43.28297,"lon":5.43234,"is_reserved":false,"is_disabled":false,"rental_uris":{"android":"levelo://app?vid=76d1f9d3-650e-4b8c-bbca-63555d1fa50b","ios":"levelo://app?vid=76d1f9d3-650e-4b8c-bbca-63555d1fa50b"},"vehicle_type_id":"4","last_reported":1742929673,"current_range_meters":6800,"station_id":"","pricing_plan_id":"cebpf4jnsgd1na2vs0mg"},{"bike_id":"782fb27f-b0f1-443c-a38a-53e143c3228c","system_id":"levelo_inurba_marseille","lat":43.29423,"lon":5.38621,"is_reserved":false,"is_disabled":false,"rental_uris":{"android":"levelo://app?vid=782fb27f-b0f1-443c-a38a-53e143c3228c","ios":"levelo://app?vid=782fb27f-b0f1-443c-a38a-53e143c3228c"},"vehicle_type_id":"4","last_reported":1742929673,"current_range_meters":6800,"station_id":"ce4bh2h2rcd13ifvqdh0","pricing_plan_id":"cebpf4jnsgd1na2vs0mg"},{"bike_id":"69484590-7135-4b1f-a9ea-7b1433bc2e1f","system_id":"levelo_inurba_marseille","lat":43.28398,"lon":5.3752,"is_reserved":false,"is_disabled":false,"rental_uris":{"android":"levelo://app?vid=69484590-7135-4b1f-a9ea-7b1433bc2e1f","ios":"levelo://app?vid=69484590-7135-4b1f-a9ea-7b1433bc2e1f"},"vehicle_type_id":"4","last_reported":1742929673,"current_range_meters":6800,"station_id":"ce4bh412rcd13ifvqds0","pricing_plan_id":"cebpf4jnsgd1na2vs0mg"},{"bike_id":"ddf6cb6f-e318-4ef7-9a4d-5581365f4cae","system_id":"levelo_inurba_marseille","lat":43.28026,"lon":5.36942,"is_reserved":false,"is_disabled":false,"rental_uris":{"android":"levelo://app?vid=ddf6cb6f-e318-4ef7-9a4d-5581365f4cae","ios":"levelo://app?vid=ddf6cb6f-e318-4ef7-9a4d-5581365f4cae"},"vehicle_type_id":"4","last_reported":1742929673,"current_range_meters":7200,"station_id":"ce4bha12rcd13ifvqef0","pricing_plan_id":"cebpf4jnsgd1na2vs0mg"},{"bike_id":"6937d169-8a54-415e-8f5a-5a8907abb661","system_id":"levelo_inurba_marseille","lat":43.29788,"lon":5.37108,"is_reserved":false,"is_disabled":false,"rental_uris":{"android":"levelo://app?vid=6937d169-8a54-415e-8f5a-5a8907abb661","ios":"levelo://app?vid=6937d169-8a54-415e-8f5a-5a8907abb661"},"vehicle_type_id":"4","last_reported":1742929673,"current_range_meters":7200,"station_id":"ce4bgop2rcd13ifvqc1g","pricing_plan_id":"cebpf4jnsgd1na2vs0mg"},{"bike_id":"88c923a9-1fe3-4b1e-b22d-650cb740f06a","system_id":"levelo_inurba_marseille","lat":43.29608,"lon":5.37725,"is_reserved":false,"is_disabled":false,"rental_uris":{"android":"levelo://app?vid=88c923a9-1fe3-4b1e-b22d-650cb740f06a","ios":"levelo://app?vid=88c923a9-1fe3-4b1e-b22d-650cb740f06a"},"vehicle_type_id":"4","last_reported":1742929673,"current_range_meters":7200,"station_id":"ce4bgi92rcd13ifvqb90","pricing_plan_id":"cebpf4jnsgd1na2vs0mg"},{"bike_id":"5ebe5120-74f7-4178-9974-c52090176f15","system_id":"levelo_inurba_marseille","lat":43.28158,"lon":5.42674,"is_reserved":false,"is_disabled":false,"rental_uris":{"android":"levelo://app?vid=5ebe5120-74f7-4178-9974-c52090176f15","ios":"levelo://app?vid=5ebe5120-74f7-4178-9974-c52090176f15"},"vehicle_type_id":"4","last_reported":1742929673,"current_range_meters":7200,"station_id":"ce4bhnh2rcd13ifvqgug","pricing_plan_id":"cebpf4jnsgd1na2vs0mg"},{"bike_id":"4746610d-a523-4f15-b836-a8a83c6dcd00","system_id":"levelo_inurba_marseille","lat":43.28455,"lon":5.35899,"is_reserved":false,"is_disabled":false,"rental_uris":{"android":"levelo://app?vid=4746610d-a523-4f15-b836-a8a83c6dcd00","ios":"levelo://app?vid=4746610d-a523-4f15-b836-a8a83c6dcd00"},"vehicle_type_id":"4","last_reported":1742929673,"current_range_meters":7200,"station_id":"ce4bhah2rcd13ifvqei0","pricing_plan_id":"cebpf4jnsgd1na2vs0mg"},{"bike_id":"6f95cc39-f0d3-4613-ab07-ad639f2d2ed1","system_id":"levelo_inurba_marseille","lat":43.29417,"lon":5.38633,"is_reserved":false,"is_disabled":false,"rental_uris":{"android":"levelo://app?vid=6f95cc39-f0d3-4613-ab07-ad639f2d2ed1","ios":"levelo://app?vid=6f95cc39-f0d3-4613-ab07-ad639f2d2ed1"},"vehicle_type_id":"4","last_reported":1742929673,"current_range_meters":7200,"station_id":"ce4bh2h2rcd13ifvqdh0","pricing_plan_id":"cebpf4jnsgd1na2vs0mg"},{"bike_id":"c88a216c-dc96-4fc3-b56f-d056b7fae7cb","system_id":"levelo_inurba_marseille","lat":43.23186,"lon":5.35573,"is_reserved":false,"is_disabled":false,"rental_uris":{"android":"levelo://app?vid=c88a216c-dc96-4fc3-b56f-d056b7fae7cb","ios":"levelo://app?vid=c88a216c-dc96-4fc3-b56f-d056b7fae7cb"},"vehicle_type_id":"4","last_reported":1742929673,"current_range_meters":7200,"station_id":"ce4bhu92rcd13ifvqi70","pricing_plan_id":"cebpf4jnsgd1na2vs0mg"},{"bike_id":"e3e58b7d-a745-42d7-bf54-3a94925681f1","system_id":"levelo_inurba_marseille","lat":43.23213,"lon":5.35537,"is_reserved":false,"is_disabled":false,"rental_uris":{"android":"levelo://app?vid=e3e58b7d-a745-42d7-bf54-3a94925681f1","ios":"levelo://app?vid=e3e58b7d-a745-42d7-bf54-3a94925681f1"},"vehicle_type_id":"4","last_reported":1742929673,"current_range_meters":7200,"station_id":"ce4bhu92rcd13ifvqi70","pricing_plan_id":"cebpf4jnsgd1na2vs0mg"},{"bike_id":"e06fd3a0-02a6-413f-81de-817b7da619bd","system_id":"levelo_inurba_marseille","lat":43.31286,"lon":5.40159,"is_reserved":false,"is_disabled":false,"rental_uris":{"android":"levelo://app?vid=e06fd3a0-02a6-413f-81de-817b7da619bd","ios":"levelo://app?vid=e06fd3a0-02a6-413f-81de-817b7da619bd"},"vehicle_type_id":"4","last_reported":1742929673,"current_range_meters":7200,"station_id":"ce4bh092rcd13ifvqd30","pricing_plan_id":"cebpf4jnsgd1na2vs0mg"},{"bike_id":"38dd6460-2fd5-4e0a-989a-8b89477e782f","system_id":"levelo_inurba_marseille","lat":43.29025,"lon":5.38598,"is_reserved":false,"is_disabled":false,"rental_uris":{"android":"levelo://app?vid=38dd6460-2fd5-4e0a-989a-8b89477e782f","ios":"levelo://app?vid=38dd6460-2fd5-4e0a-989a-8b89477e782f"},"vehicle_type_id":"4","last_reported":1742929673,"current_range_meters":7200,"station_id":"ce4bh4p2rcd13ifvqe0g","pricing_plan_id":"cebpf4jnsgd1na2vs0mg"},{"bike_id":"074d40f0-a778-4a8a-8652-fc32fab1cded","system_id":"levelo_inurba_marseille","lat":43.2899,"lon":5.3784,"is_reserved":false,"is_disabled":false,"rental_uris":{"android":"levelo://app?vid=074d40f0-a778-4a8a-8652-fc32fab1cded","ios":"levelo://app?vid=074d40f0-a778-4a8a-8652-fc32fab1cded"},"vehicle_type_id":"4","last_reported":1742929673,"current_range_meters":8000,"station_id":"ce4bh9p2rcd13ifvqed0","pricing_plan_id":"cebpf4jnsgd1na2vs0mg"},{"bike_id":"a0d4632a-7a87-4031-aeeb-061ca0feaca6","system_id":"levelo_inurba_marseille","lat":43.239597,"lon":5.366334,"is_reserved":false,"is_disabled":false,"rental_uris":{"android":"levelo://app?vid=a0d4632a-7a87-4031-aeeb-061ca0feaca6","ios":"levelo://app?vid=a0d4632a-7a87-4031-aeeb-061ca0feaca6"},"vehicle_type_id":"4","last_reported":1742929673,"current_range_meters":8000,"station_id":"ce4bhi12rcd13ifvqfp0","pricing_plan_id":"cebpf4jnsgd1na2vs0mg"},{"bike_id":"15e3e5eb-d835-4728-a546-750b58ac5259","system_id":"levelo_inurba_marseille","lat":43.31772,"lon":5.38993,"is_reserved":false,"is_disabled":false,"rental_uris":{"android":"levelo://app?vid=15e3e5eb-d835-4728-a546-750b58ac5259","ios":"levelo://app?vid=15e3e5eb-d835-4728-a546-750b58ac5259"},"vehicle_type_id":"4","last_reported":1742929673,"current_range_meters":8000,"station_id":"ce4bhqp2rcd13ifvqhng","pricing_plan_id":"cebpf4jnsgd1na2vs0mg"},{"bike_id":"36be7c6f-2bc6-4fb1-803e-edd67bc95d18","system_id":"levelo_inurba_marseille","lat":43.29511,"lon":5.394,"is_reserved":false,"is_disabled":false,"rental_uris":{"android":"levelo://app?vid=36be7c6f-2bc6-4fb1-803e-edd67bc95d18","ios":"levelo://app?vid=36be7c6f-2bc6-4fb1-803e-edd67bc95d18"},"vehicle_type_id":"4","last_reported":1742929673,"current_range_meters":8000,"station_id":"ce4bh292rcd13ifvqdf0","pricing_plan_id":"cebpf4jnsgd1na2vs0mg"},{"bike_id":"c28932a0-1d46-4fdf-8a30-865c10785be7","system_id":"levelo_inurba_marseille","lat":43.28417,"lon":5.37514,"is_reserved":false,"is_disabled":false,"rental_uris":{"android":"levelo://app?vid=c28932a0-1d46-4fdf-8a30-865c10785be7","ios":"levelo://app?vid=c28932a0-1d46-4fdf-8a30-865c10785be7"},"vehicle_type_id":"4","last_reported":1742929673,"current_range_meters":8000,"station_id":"ce4bh412rcd13ifvqds0","pricing_plan_id":"cebpf4jnsgd1na2vs0mg"},{"bike_id":"9e1900ad-e046-4f32-a94e-e5e6f986be4d","system_id":"levelo_inurba_marseille","lat":43.2481,"lon":5.37455,"is_reserved":false,"is_disabled":false,"rental_uris":{"android":"levelo://app?vid=9e1900ad-e046-4f32-a94e-e5e6f986be4d","ios":"levelo://app?vid=9e1900ad-e046-4f32-a94e-e5e6f986be4d"},"vehicle_type_id":"4","last_reported":1742929673,"current_range_meters":8000,"station_id":"ce4bhgh2rcd13ifvqfb0","pricing_plan_id":"cebpf4jnsgd1na2vs0mg"},{"bike_id":"20eae09a-04ab-4f67-b938-c4ecbf731ee3","system_id":"levelo_inurba_marseille","lat":43.2657,"lon":5.39036,"is_reserved":false,"is_disabled":false,"rental_uris":{"android":"levelo://app?vid=20eae09a-04ab-4f67-b938-c4ecbf731ee3","ios":"levelo://app?vid=20eae09a-04ab-4f67-b938-c4ecbf731ee3"},"vehicle_type_id":"4","last_reported":1742929673,"current_range_meters":8000,"station_id":"ce4bhe12rcd13ifvqf30","pricing_plan_id":"cebpf4jnsgd1na2vs0mg"},{"bike_id":"463a4df3-df32-4854-9380-c2e9927dee65","system_id":"levelo_inurba_marseille","lat":43.32364,"lon":5.38885,"is_reserved":false,"is_disabled":false,"rental_uris":{"android":"levelo://app?vid=463a4df3-df32-4854-9380-c2e9927dee65","ios":"levelo://app?vid=463a4df3-df32-4854-9380-c2e9927dee65"},"vehicle_type_id":"4","last_reported":1742929673,"current_range_meters":8000,"station_id":"ce4bhqp2rcd13ifvqhog","pricing_plan_id":"cebpf4jnsgd1na2vs0mg"},{"bike_id":"7dd5e58f-a9fa-43c4-a328-accf44f1ba8f","system_id":"levelo_inurba_marseille","lat":43.29554,"lon":5.37464,"is_reserved":false,"is_disabled":false,"rental_uris":{"android":"levelo://app?vid=7dd5e58f-a9fa-43c4-a328-accf44f1ba8f","ios":"levelo://app?vid=7dd5e58f-a9fa-43c4-a328-accf44f1ba8f"},"vehicle_type_id":"4","last_reported":1742929673,"current_range_meters":8000,"station_id":"ce4bgkp2rcd13ifvqbmg","pricing_plan_id":"cebpf4jnsgd1na2vs0mg"},{"bike_id":"999e290c-da27-4690-b043-7dd87a5d4e73","system_id":"levelo_inurba_marseille","lat":43.30947,"lon":5.39026,"is_reserved":false,"is_disabled":false,"rental_uris":{"android":"levelo://app?vid=999e290c-da27-4690-b043-7dd87a5d4e73","ios":"levelo://app?vid=999e290c-da27-4690-b043-7dd87a5d4e73"},"vehicle_type_id":"4","last_reported":1742929673,"current_range_meters":8000,"station_id":"ce4bgup2rcd13ifvqco0","pricing_plan_id":"cebpf4jnsgd1na2vs0mg"},{"bike_id":"ef43d9bd-e531-4a59-b8a9-fdc80b41fa34","system_id":"levelo_inurba_marseille","lat":43.31278,"lon":5.40155,"is_reserved":false,"is_disabled":true,"rental_uris":{"android":"levelo://app?vid=ef43d9bd-e531-4a59-b8a9-fdc80b41fa34","ios":"levelo://app?vid=ef43d9bd-e531-4a59-b8a9-fdc80b41fa34"},"vehicle_type_id":"4","last_reported":1742929673,"current_range_meters":8000,"station_id":"ce4bh092rcd13ifvqd30","pricing_plan_id":"cebpf4jnsgd1na2vs0mg"},{"bike_id":"b7d700cc-e80e-461a-a5b3-d22a71e707a9","system_id":"levelo_inurba_marseille","lat":43.29423,"lon":5.38618,"is_reserved":false,"is_disabled":false,"rental_uris":{"android":"levelo://app?vid=b7d700cc-e80e-461a-a5b3-d22a71e707a9","ios":"levelo://app?vid=b7d700cc-e80e-461a-a5b3-d22a71e707a9"},"vehicle_type_id":"4","last_reported":1742929673,"current_range_meters":8000,"station_id":"ce4bh2h2rcd13ifvqdh0","pricing_plan_id":"cebpf4jnsgd1na2vs0mg"},{"bike_id":"f12dd853-7331-4da6-ba11-86dcca7ca435","system_id":"levelo_inurba_marseille","lat":43.29977,"lon":5.38493,"is_reserved":false,"is_disabled":false,"rental_uris":{"android":"levelo://app?vid=f12dd853-7331-4da6-ba11-86dcca7ca435","ios":"levelo://app?vid=f12dd853-7331-4da6-ba11-86dcca7ca435"},"vehicle_type_id":"4","last_reported":1742929673,"current_range_meters":8000,"station_id":"ce4bgj92rcd13ifvqbd0","pricing_plan_id":"cebpf4jnsgd1na2vs0mg"},{"bike_id":"956fc08e-5d98-46b2-bb5a-fa8747509ed6","system_id":"levelo_inurba_marseille","lat":43.31996,"lon":5.38151,"is_reserved":false,"is_disabled":false,"rental_uris":{"android":"levelo://app?vid=956fc08e-5d98-46b2-bb5a-fa8747509ed6","ios":"levelo://app?vid=956fc08e-5d98-46b2-bb5a-fa8747509ed6"},"vehicle_type_id":"4","last_reported":1742929673,"current_range_meters":8000,"station_id":"ce4bhr12rcd13ifvqhpg","pricing_plan_id":"cebpf4jnsgd1na2vs0mg"},{"bike_id":"6c40bd81-af13-42e4-8827-fa8af6ebc8cc","system_id":"levelo_inurba_marseille","lat":43.24814,"lon":5.37449,"is_reserved":false,"is_disabled":false,"rental_uris":{"android":"levelo://app?vid=6c40bd81-af13-42e4-8827-fa8af6ebc8cc","ios":"levelo://app?vid=6c40bd81-af13-42e4-8827-fa8af6ebc8cc"},"vehicle_type_id":"4","last_reported":1742929673,"current_range_meters":8000,"station_id":"ce4bhgh2rcd13ifvqfb0","pricing_plan_id":"cebpf4jnsgd1na2vs0mg"},{"bike_id":"63e8dafc-3749-4a42-ab44-2e79325ba0f1","system_id":"levelo_inurba_marseille","lat":43.25081,"lon":5.39532,"is_reserved":false,"is_disabled":false,"rental_uris":{"android":"levelo://app?vid=63e8dafc-3749-4a42-ab44-2e79325ba0f1","ios":"levelo://app?vid=63e8dafc-3749-4a42-ab44-2e79325ba0f1"},"vehicle_type_id":"4","last_reported":1742929673,"current_range_meters":8000,"station_id":"ce4bhm12rcd13ifvqgkg","pricing_plan_id":"cebpf4jnsgd1na2vs0mg"},{"bike_id":"38e476a3-7fa7-42ff-bc10-2fcb40220abd","system_id":"levelo_inurba_marseille","lat":43.23194,"lon":5.35552,"is_reserved":false,"is_disabled":false,"rental_uris":{"android":"levelo://app?vid=38e476a3-7fa7-42ff-bc10-2fcb40220abd","ios":"levelo://app?vid=38e476a3-7fa7-42ff-bc10-2fcb40220abd"},"vehicle_type_id":"4","last_reported":1742929673,"current_range_meters":8000,"station_id":"ce4bhu92rcd13ifvqi70","pricing_plan_id":"cebpf4jnsgd1na2vs0mg"},{"bike_id":"67ae56a4-71da-4a44-95ac-59dbc232e37b","system_id":"levelo_inurba_marseille","lat":43.23179,"lon":5.39995,"is_reserved":false,"is_disabled":false,"rental_uris":{"android":"levelo://app?vid=67ae56a4-71da-4a44-95ac-59dbc232e37b","ios":"levelo://app?vid=67ae56a4-71da-4a44-95ac-59dbc232e37b"},"vehicle_type_id":"4","last_reported":1742929673,"current_range_meters":8000,"station_id":"ce4bhn12rcd13ifvqgqg","pricing_plan_id":"cebpf4jnsgd1na2vs0mg"},{"bike_id":"8ec019a6-2f06-4921-82a0-415f60f06efd","system_id":"levelo_inurba_marseille","lat":43.25583,"lon":5.38249,"is_reserved":false,"is_disabled":false,"rental_uris":{"android":"levelo://app?vid=8ec019a6-2f06-4921-82a0-415f60f06efd","ios":"levelo://app?vid=8ec019a6-2f06-4921-82a0-415f60f06efd"},"vehicle_type_id":"4","last_reported":1742929673,"current_range_meters":8000,"station_id":"ce4bhih2rcd13ifvqfs0","pricing_plan_id":"cebpf4jnsgd1na2vs0mg"},{"bike_id":"2a00e69f-e8f0-4293-a71f-9f6c011d4f23","system_id":"levelo_inurba_marseille","lat":43.25037,"lon":5.38934,"is_reserved":false,"is_disabled":false,"rental_uris":{"android":"levelo://app?vid=2a00e69f-e8f0-4293-a71f-9f6c011d4f23","ios":"levelo://app?vid=2a00e69f-e8f0-4293-a71f-9f6c011d4f23"},"vehicle_type_id":"4","last_reported":1742929673,"current_range_meters":8400,"station_id":"ce4bhgp2rcd13ifvqfd0","pricing_plan_id":"cebpf4jnsgd1na2vs0mg"},{"bike_id":"2cc197ce-ad02-490a-9ecc-bfbecc425518","system_id":"levelo_inurba_marseille","lat":43.26058,"lon":5.394,"is_reserved":false,"is_disabled":false,"rental_uris":{"android":"levelo://app?vid=2cc197ce-ad02-490a-9ecc-bfbecc425518","ios":"levelo://app?vid=2cc197ce-ad02-490a-9ecc-bfbecc425518"},"vehicle_type_id":"4","last_reported":1742929673,"current_range_meters":8400,"station_id":"ce4bhh92rcd13ifvqfj0","pricing_plan_id":"cebpf4jnsgd1na2vs0mg"},{"bike_id":"c9578b47-9857-4396-852d-050cd99a85f0","system_id":"levelo_inurba_marseille","lat":43.24681,"lon":5.38193,"is_reserved":false,"is_disabled":false,"rental_uris":{"android":"levelo://app?vid=c9578b47-9857-4396-852d-050cd99a85f0","ios":"levelo://app?vid=c9578b47-9857-4396-852d-050cd99a85f0"},"vehicle_type_id":"4","last_reported":1742929673,"current_range_meters":8400,"station_id":"ce4bhih2rcd13ifvqfr0","pricing_plan_id":"cebpf4jnsgd1na2vs0mg"},{"bike_id":"b99aacd3-f128-4a64-822e-fbde27686a8b","system_id":"levelo_inurba_marseille","lat":43.298,"lon":5.381156,"is_reserved":false,"is_disabled":false,"rental_uris":{"android":"levelo://app?vid=b99aacd3-f128-4a64-822e-fbde27686a8b","ios":"levelo://app?vid=b99aacd3-f128-4a64-822e-fbde27686a8b"},"vehicle_type_id":"4","last_reported":1742929673,"current_range_meters":8400,"station_id":"ce4bgip2rcd13ifvqbb0","pricing_plan_id":"cebpf4jnsgd1na2vs0mg"},{"bike_id":"13f9cf46-f8d2-49ab-9b75-c3b09f430495","system_id":"levelo_inurba_marseille","lat":43.29447,"lon":5.39762,"is_reserved":false,"is_disabled":false,"rental_uris":{"android":"levelo://app?vid=13f9cf46-f8d2-49ab-9b75-c3b09f430495","ios":"levelo://app?vid=13f9cf46-f8d2-49ab-9b75-c3b09f430495"},"vehicle_type_id":"4","last_reported":1742929673,"current_range_meters":8400,"station_id":"ce4bh3h2rcd13ifvqdo0","pricing_plan_id":"cebpf4jnsgd1na2vs0mg"},{"bike_id":"737b3711-1b92-493c-8220-60bf91bb8d63","system_id":"levelo_inurba_marseille","lat":43.31325,"lon":5.37478,"is_reserved":false,"is_disabled":false,"rental_uris":{"android":"levelo://app?vid=737b3711-1b92-493c-8220-60bf91bb8d63","ios":"levelo://app?vid=737b3711-1b92-493c-8220-60bf91bb8d63"},"vehicle_type_id":"4","last_reported":1742929673,"current_range_meters":8400,"station_id":"","pricing_plan_id":"cebpf4jnsgd1na2vs0mg"},{"bike_id":"d0ce6a4c-8c1a-4117-b620-bb8816808dbc","system_id":"levelo_inurba_marseille","lat":43.23963,"lon":5.36634,"is_reserved":false,"is_disabled":false,"rental_uris":{"android":"levelo://app?vid=d0ce6a4c-8c1a-4117-b620-bb8816808dbc","ios":"levelo://app?vid=d0ce6a4c-8c1a-4117-b620-bb8816808dbc"},"vehicle_type_id":"4","last_reported":1742929673,"current_range_meters":8400,"station_id":"ce4bhi12rcd13ifvqfp0","pricing_plan_id":"cebpf4jnsgd1na2vs0mg"},{"bike_id":"bea7b3e6-b0f6-428b-98d3-61630b930d30","system_id":"levelo_inurba_marseille","lat":43.26035,"lon":5.37564,"is_reserved":false,"is_disabled":false,"rental_uris":{"android":"levelo://app?vid=bea7b3e6-b0f6-428b-98d3-61630b930d30","ios":"levelo://app?vid=bea7b3e6-b0f6-428b-98d3-61630b930d30"},"vehicle_type_id":"4","last_reported":1742929673,"current_range_meters":8400,"station_id":"ce4bhgh2rcd13ifvqfa0","pricing_plan_id":"cebpf4jnsgd1na2vs0mg"},{"bike_id":"d4023076-dc74-43cc-968d-c2da59ef9933","system_id":"levelo_inurba_marseille","lat":43.3054,"lon":5.36722,"is_reserved":false,"is_disabled":false,"rental_uris":{"android":"levelo://app?vid=d4023076-dc74-43cc-968d-c2da59ef9933","ios":"levelo://app?vid=d4023076-dc74-43cc-968d-c2da59ef9933"},"vehicle_type_id":"4","last_reported":1742929673,"current_range_meters":8400,"station_id":"ce4bgrp2rcd13ifvqc9g","pricing_plan_id":"cebpf4jnsgd1na2vs0mg"},{"bike_id":"a0fe04e4-bf5a-429e-9eaa-0e341089841c","system_id":"levelo_inurba_marseille","lat":43.24385,"lon":5.37068,"is_reserved":false,"is_disabled":false,"rental_uris":{"android":"levelo://app?vid=a0fe04e4-bf5a-429e-9eaa-0e341089841c","ios":"levelo://app?vid=a0fe04e4-bf5a-429e-9eaa-0e341089841c"},"vehicle_type_id":"4","last_reported":1742929673,"current_range_meters":8400,"station_id":"ce4bhhh2rcd13ifvqfk0","pricing_plan_id":"cebpf4jnsgd1na2vs0mg"},{"bike_id":"8c5e09de-c9ee-4ecd-8bf7-a9da954099c1","system_id":"levelo_inurba_marseille","lat":43.27994,"lon":5.40015,"is_reserved":false,"is_disabled":false,"rental_uris":{"android":"levelo://app?vid=8c5e09de-c9ee-4ecd-8bf7-a9da954099c1","ios":"levelo://app?vid=8c5e09de-c9ee-4ecd-8bf7-a9da954099c1"},"vehicle_type_id":"4","last_reported":1742929673,"current_range_meters":8400,"station_id":"ce4bho92rcd13ifvqh4g","pricing_plan_id":"cebpf4jnsgd1na2vs0mg"},{"bike_id":"49a71eae-97a4-4387-a640-bdd9c48bb459","system_id":"levelo_inurba_marseille","lat":43.29602,"lon":5.37717,"is_reserved":false,"is_disabled":false,"rental_uris":{"android":"levelo://app?vid=49a71eae-97a4-4387-a640-bdd9c48bb459","ios":"levelo://app?vid=49a71eae-97a4-4387-a640-bdd9c48bb459"},"vehicle_type_id":"4","last_reported":1742929673,"current_range_meters":8400,"station_id":"ce4bgi92rcd13ifvqb90","pricing_plan_id":"cebpf4jnsgd1na2vs0mg"},{"bike_id":"5d859d4c-abd7-4cdc-8348-050906a6a271","system_id":"levelo_inurba_marseille","lat":43.23181,"lon":5.3998,"is_reserved":false,"is_disabled":false,"rental_uris":{"android":"levelo://app?vid=5d859d4c-abd7-4cdc-8348-050906a6a271","ios":"levelo://app?vid=5d859d4c-abd7-4cdc-8348-050906a6a271"},"vehicle_type_id":"4","last_reported":1742929673,"current_range_meters":8000,"station_id":"ce4bhn12rcd13ifvqgqg","pricing_plan_id":"cebpf4jnsgd1na2vs0mg"},{"bike_id":"c353c957-fbb8-408a-9097-46c8d6b68074","system_id":"levelo_inurba_marseille","lat":43.24198,"lon":5.39721,"is_reserved":false,"is_disabled":false,"rental_uris":{"android":"levelo://app?vid=c353c957-fbb8-408a-9097-46c8d6b68074","ios":"levelo://app?vid=c353c957-fbb8-408a-9097-46c8d6b68074"},"vehicle_type_id":"4","last_reported":1742929673,"current_range_meters":8400,"station_id":"ce4bhn12rcd13ifvqgpg","pricing_plan_id":"cebpf4jnsgd1na2vs0mg"},{"bike_id":"b139ad69-4570-465e-8346-ddb3ccb71509","system_id":"levelo_inurba_marseille","lat":43.29071,"lon":5.37168,"is_reserved":false,"is_disabled":false,"rental_uris":{"android":"levelo://app?vid=b139ad69-4570-465e-8346-ddb3ccb71509","ios":"levelo://app?vid=b139ad69-4570-465e-8346-ddb3ccb71509"},"vehicle_type_id":"4","last_reported":1742929673,"current_range_meters":8400,"station_id":"ce4bh5p2rcd13ifvqe4g","pricing_plan_id":"cebpf4jnsgd1na2vs0mg"},{"bike_id":"5614eff7-b739-4c57-813e-58e57e72fd90","system_id":"levelo_inurba_marseille","lat":43.292995,"lon":5.401551,"is_reserved":false,"is_disabled":false,"rental_uris":{"android":"levelo://app?vid=5614eff7-b739-4c57-813e-58e57e72fd90","ios":"levelo://app?vid=5614eff7-b739-4c57-813e-58e57e72fd90"},"vehicle_type_id":"4","last_reported":1742929673,"current_range_meters":12800,"station_id":"ce4bh312rcd13ifvqdk0","pricing_plan_id":"cebpf4jnsgd1na2vs0mg"},{"bike_id":"baa5490f-75ed-4a89-b20d-d28fd6ff3a39","system_id":"levelo_inurba_marseille","lat":43.31716,"lon":5.437093,"is_reserved":false,"is_disabled":false,"rental_uris":{"android":"levelo://app?vid=baa5490f-75ed-4a89-b20d-d28fd6ff3a39","ios":"levelo://app?vid=baa5490f-75ed-4a89-b20d-d28fd6ff3a39"},"vehicle_type_id":"4","last_reported":1742929673,"current_range_meters":8400,"station_id":"ce4bhp92rcd13ifvqhcg","pricing_plan_id":"cebpf4jnsgd1na2vs0mg"},{"bike_id":"2a99ecb7-4bf0-4c00-89bb-11ff019b8a6d","system_id":"levelo_inurba_marseille","lat":43.22958,"lon":5.35412,"is_reserved":false,"is_disabled":false,"rental_uris":{"android":"levelo://app?vid=2a99ecb7-4bf0-4c00-89bb-11ff019b8a6d","ios":"levelo://app?vid=2a99ecb7-4bf0-4c00-89bb-11ff019b8a6d"},"vehicle_type_id":"4","last_reported":1742929673,"current_range_meters":8800,"station_id":"cpo3532slgdg3j2ikp40","pricing_plan_id":"cebpf4jnsgd1na2vs0mg"},{"bike_id":"e3f76d45-4904-44a7-aac2-e04832e991bb","system_id":"levelo_inurba_marseille","lat":43.29978,"lon":5.4134,"is_reserved":false,"is_disabled":true,"rental_uris":{"android":"levelo://app?vid=e3f76d45-4904-44a7-aac2-e04832e991bb","ios":"levelo://app?vid=e3f76d45-4904-44a7-aac2-e04832e991bb"},"vehicle_type_id":"4","last_reported":1742929673,"current_range_meters":8800,"station_id":"ce4bhp12rcd13ifvqh9g","pricing_plan_id":"cebpf4jnsgd1na2vs0mg"},{"bike_id":"6692ac61-c769-49ed-82dd-b663b5b1a88e","system_id":"levelo_inurba_marseille","lat":43.31463,"lon":5.37397,"is_reserved":false,"is_disabled":false,"rental_uris":{"android":"levelo://app?vid=6692ac61-c769-49ed-82dd-b663b5b1a88e","ios":"levelo://app?vid=6692ac61-c769-49ed-82dd-b663b5b1a88e"},"vehicle_type_id":"4","last_reported":1742929673,"current_range_meters":8800,"station_id":"","pricing_plan_id":"cebpf4jnsgd1na2vs0mg"},{"bike_id":"23319c9c-6084-452c-8914-24ef4de71cf4","system_id":"levelo_inurba_marseille","lat":43.29963,"lon":5.38496,"is_reserved":false,"is_disabled":false,"rental_uris":{"android":"levelo://app?vid=23319c9c-6084-452c-8914-24ef4de71cf4","ios":"levelo://app?vid=23319c9c-6084-452c-8914-24ef4de71cf4"},"vehicle_type_id":"4","last_reported":1742929673,"current_range_meters":8800,"station_id":"ce4bgj92rcd13ifvqbd0","pricing_plan_id":"cebpf4jnsgd1na2vs0mg"},{"bike_id":"1a3c5e1e-498d-4bf5-b5bd-2116c210ebf5","system_id":"levelo_inurba_marseille","lat":43.24431,"lon":5.37086,"is_reserved":false,"is_disabled":false,"rental_uris":{"android":"levelo://app?vid=1a3c5e1e-498d-4bf5-b5bd-2116c210ebf5","ios":"levelo://app?vid=1a3c5e1e-498d-4bf5-b5bd-2116c210ebf5"},"vehicle_type_id":"4","last_reported":1742929673,"current_range_meters":8800,"station_id":"ce4bhhh2rcd13ifvqfk0","pricing_plan_id":"cebpf4jnsgd1na2vs0mg"},{"bike_id":"99ce04c5-a451-494d-b777-98ddd6277382","system_id":"levelo_inurba_marseille","lat":43.31115,"lon":5.37776,"is_reserved":false,"is_disabled":false,"rental_uris":{"android":"levelo://app?vid=99ce04c5-a451-494d-b777-98ddd6277382","ios":"levelo://app?vid=99ce04c5-a451-494d-b777-98ddd6277382"},"vehicle_type_id":"4","last_reported":1742929673,"current_range_meters":11200,"station_id":"ce4bgt92rcd13ifvqcg0","pricing_plan_id":"cebpf4jnsgd1na2vs0mg"},{"bike_id":"bcb3b049-9082-4b15-b33f-bbf0ab846232","system_id":"levelo_inurba_marseille","lat":43.27985,"lon":5.41662,"is_reserved":false,"is_disabled":false,"rental_uris":{"android":"levelo://app?vid=bcb3b049-9082-4b15-b33f-bbf0ab846232","ios":"levelo://app?vid=bcb3b049-9082-4b15-b33f-bbf0ab846232"},"vehicle_type_id":"4","last_reported":1742929673,"current_range_meters":8800,"station_id":"ce4bho12rcd13ifvqh1g","pricing_plan_id":"cebpf4jnsgd1na2vs0mg"},{"bike_id":"5947461e-f1d9-4b8a-a16b-079c1e611686","system_id":"levelo_inurba_marseille","lat":43.28265,"lon":5.35061,"is_reserved":false,"is_disabled":false,"rental_uris":{"android":"levelo://app?vid=5947461e-f1d9-4b8a-a16b-079c1e611686","ios":"levelo://app?vid=5947461e-f1d9-4b8a-a16b-079c1e611686"},"vehicle_type_id":"4","last_reported":1742929673,"current_range_meters":8800,"station_id":"ce4bhbp2rcd13ifvqerg","pricing_plan_id":"cebpf4jnsgd1na2vs0mg"},{"bike_id":"b6fd1ec3-47b2-486f-8b84-f71e2b87ecef","system_id":"levelo_inurba_marseille","lat":43.31078,"lon":5.42444,"is_reserved":false,"is_disabled":true,"rental_uris":{"android":"levelo://app?vid=b6fd1ec3-47b2-486f-8b84-f71e2b87ecef","ios":"levelo://app?vid=b6fd1ec3-47b2-486f-8b84-f71e2b87ecef"},"vehicle_type_id":"4","last_reported":1742929673,"current_range_meters":8800,"station_id":"ce4bhp92rcd13ifvqhag","pricing_plan_id":"cebpf4jnsgd1na2vs0mg"},{"bike_id":"8f208df7-81e0-45c5-bd98-a49c85a38fa2","system_id":"levelo_inurba_marseille","lat":43.30305,"lon":5.36921,"is_reserved":false,"is_disabled":false,"rental_uris":{"android":"levelo://app?vid=8f208df7-81e0-45c5-bd98-a49c85a38fa2","ios":"levelo://app?vid=8f208df7-81e0-45c5-bd98-a49c85a38fa2"},"vehicle_type_id":"4","last_reported":1742929673,"current_range_meters":8800,"station_id":"ce4bgqh2rcd13ifvqc5g","pricing_plan_id":"cebpf4jnsgd1na2vs0mg"},{"bike_id":"6e59aff7-3c3a-4c10-a2d3-7167cd927d07","system_id":"levelo_inurba_marseille","lat":43.29533,"lon":5.38538,"is_reserved":false,"is_disabled":false,"rental_uris":{"android":"levelo://app?vid=6e59aff7-3c3a-4c10-a2d3-7167cd927d07","ios":"levelo://app?vid=6e59aff7-3c3a-4c10-a2d3-7167cd927d07"},"vehicle_type_id":"4","last_reported":1742929673,"current_range_meters":8800,"station_id":"ce4bgih2rcd13ifvqba0","pricing_plan_id":"cebpf4jnsgd1na2vs0mg"},{"bike_id":"4c8c6174-794c-4225-aa51-8a7a304903b9","system_id":"levelo_inurba_marseille","lat":43.31764,"lon":5.39023,"is_reserved":false,"is_disabled":false,"rental_uris":{"android":"levelo://app?vid=4c8c6174-794c-4225-aa51-8a7a304903b9","ios":"levelo://app?vid=4c8c6174-794c-4225-aa51-8a7a304903b9"},"vehicle_type_id":"4","last_reported":1742929673,"current_range_meters":9200,"station_id":"ce4bhqp2rcd13ifvqhng","pricing_plan_id":"cebpf4jnsgd1na2vs0mg"},{"bike_id":"f294d69a-8637-46e9-95b8-3d82151d6376","system_id":"levelo_inurba_marseille","lat":43.27978,"lon":5.41677,"is_reserved":false,"is_disabled":true,"rental_uris":{"android":"levelo://app?vid=f294d69a-8637-46e9-95b8-3d82151d6376","ios":"levelo://app?vid=f294d69a-8637-46e9-95b8-3d82151d6376"},"vehicle_type_id":"4","last_reported":1742929673,"current_range_meters":9200,"station_id":"ce4bho12rcd13ifvqh1g","pricing_plan_id":"cebpf4jnsgd1na2vs0mg"},{"bike_id":"94d4f272-2e5a-41ff-a6d7-41ac1b84f564","system_id":"levelo_inurba_marseille","lat":43.26567,"lon":5.38997,"is_reserved":false,"is_disabled":false,"rental_uris":{"android":"levelo://app?vid=94d4f272-2e5a-41ff-a6d7-41ac1b84f564","ios":"levelo://app?vid=94d4f272-2e5a-41ff-a6d7-41ac1b84f564"},"vehicle_type_id":"4","last_reported":1742929673,"current_range_meters":9200,"station_id":"ce4bhe12rcd13ifvqf30","pricing_plan_id":"cebpf4jnsgd1na2vs0mg"},{"bike_id":"803769cd-26de-4942-9776-f636eafa5951","system_id":"levelo_inurba_marseille","lat":43.29307,"lon":5.37464,"is_reserved":false,"is_disabled":false,"rental_uris":{"android":"levelo://app?vid=803769cd-26de-4942-9776-f636eafa5951","ios":"levelo://app?vid=803769cd-26de-4942-9776-f636eafa5951"},"vehicle_type_id":"4","last_reported":1742929673,"current_range_meters":9200,"station_id":"ce4bgi12rcd13ifvqb70","pricing_plan_id":"cebpf4jnsgd1na2vs0mg"},{"bike_id":"2f3e2a92-1301-4a27-8eaa-7b0ea525530e","system_id":"levelo_inurba_marseille","lat":43.31704,"lon":5.4369,"is_reserved":false,"is_disabled":false,"rental_uris":{"android":"levelo://app?vid=2f3e2a92-1301-4a27-8eaa-7b0ea525530e","ios":"levelo://app?vid=2f3e2a92-1301-4a27-8eaa-7b0ea525530e"},"vehicle_type_id":"4","last_reported":1742929673,"current_range_meters":9200,"station_id":"ce4bhp92rcd13ifvqhcg","pricing_plan_id":"cebpf4jnsgd1na2vs0mg"},{"bike_id":"ada4ba7b-2dc8-47ef-a5a8-9dc4e4bd1916","system_id":"levelo_inurba_marseille","lat":43.29783,"lon":5.37747,"is_reserved":false,"is_disabled":false,"rental_uris":{"android":"levelo://app?vid=ada4ba7b-2dc8-47ef-a5a8-9dc4e4bd1916","ios":"levelo://app?vid=ada4ba7b-2dc8-47ef-a5a8-9dc4e4bd1916"},"vehicle_type_id":"4","last_reported":1742929673,"current_range_meters":9200,"station_id":"","pricing_plan_id":"cebpf4jnsgd1na2vs0mg"},{"bike_id":"b5e2e953-2e08-406c-830e-c34ba2cf86f9","system_id":"levelo_inurba_marseille","lat":43.27814,"lon":5.40717,"is_reserved":false,"is_disabled":false,"rental_uris":{"android":"levelo://app?vid=b5e2e953-2e08-406c-830e-c34ba2cf86f9","ios":"levelo://app?vid=b5e2e953-2e08-406c-830e-c34ba2cf86f9"},"vehicle_type_id":"4","last_reported":1742929673,"current_range_meters":9200,"station_id":"ce4bhnh2rcd13ifvqgtg","pricing_plan_id":"cebpf4jnsgd1na2vs0mg"},{"bike_id":"896d5863-1ac5-46eb-b4be-2c9a5b236c8f","system_id":"levelo_inurba_marseille","lat":43.28441,"lon":5.39161,"is_reserved":false,"is_disabled":false,"rental_uris":{"android":"levelo://app?vid=896d5863-1ac5-46eb-b4be-2c9a5b236c8f","ios":"levelo://app?vid=896d5863-1ac5-46eb-b4be-2c9a5b236c8f"},"vehicle_type_id":"4","last_reported":1742929673,"current_range_meters":9200,"station_id":"ce4bhoh2rcd13ifvqh5g","pricing_plan_id":"cebpf4jnsgd1na2vs0mg"},{"bike_id":"6726ef5b-fce2-4691-9286-33b3cd43646f","system_id":"levelo_inurba_marseille","lat":43.2756,"lon":5.38426,"is_reserved":false,"is_disabled":false,"rental_uris":{"android":"levelo://app?vid=6726ef5b-fce2-4691-9286-33b3cd43646f","ios":"levelo://app?vid=6726ef5b-fce2-4691-9286-33b3cd43646f"},"vehicle_type_id":"4","last_reported":1742929673,"current_range_meters":9200,"station_id":"ce4bhh92rcd13ifvqfi0","pricing_plan_id":"cebpf4jnsgd1na2vs0mg"},{"bike_id":"8fb77201-a472-4e13-96d9-9a8cb04a70bd","system_id":"levelo_inurba_marseille","lat":43.27817,"lon":5.40723,"is_reserved":false,"is_disabled":false,"rental_uris":{"android":"levelo://app?vid=8fb77201-a472-4e13-96d9-9a8cb04a70bd","ios":"levelo://app?vid=8fb77201-a472-4e13-96d9-9a8cb04a70bd"},"vehicle_type_id":"4","last_reported":1742929673,"current_range_meters":9200,"station_id":"ce4bhnh2rcd13ifvqgtg","pricing_plan_id":"cebpf4jnsgd1na2vs0mg"},{"bike_id":"8565837e-29da-44bb-ab54-85df892dc6d1","system_id":"levelo_inurba_marseille","lat":43.24073,"lon":5.37783,"is_reserved":false,"is_disabled":false,"rental_uris":{"android":"levelo://app?vid=8565837e-29da-44bb-ab54-85df892dc6d1","ios":"levelo://app?vid=8565837e-29da-44bb-ab54-85df892dc6d1"},"vehicle_type_id":"4","last_reported":1742929673,"current_range_meters":9200,"station_id":"ce4bhnp2rcd13ifvqgvg","pricing_plan_id":"cebpf4jnsgd1na2vs0mg"},{"bike_id":"5c4ff4a0-721e-4676-8aa9-8212e6aee240","system_id":"levelo_inurba_marseille","lat":43.28448,"lon":5.39207,"is_reserved":false,"is_disabled":false,"rental_uris":{"android":"levelo://app?vid=5c4ff4a0-721e-4676-8aa9-8212e6aee240","ios":"levelo://app?vid=5c4ff4a0-721e-4676-8aa9-8212e6aee240"},"vehicle_type_id":"4","last_reported":1742929673,"current_range_meters":9200,"station_id":"ce4bhoh2rcd13ifvqh5g","pricing_plan_id":"cebpf4jnsgd1na2vs0mg"},{"bike_id":"350ac6df-f4ea-4328-82d3-2cee40539cc7","system_id":"levelo_inurba_marseille","lat":43.30135,"lon":5.38791,"is_reserved":false,"is_disabled":false,"rental_uris":{"android":"levelo://app?vid=350ac6df-f4ea-4328-82d3-2cee40539cc7","ios":"levelo://app?vid=350ac6df-f4ea-4328-82d3-2cee40539cc7"},"vehicle_type_id":"4","last_reported":1742929673,"current_range_meters":9200,"station_id":"ce4bghh2rcd13ifvqb60","pricing_plan_id":"cebpf4jnsgd1na2vs0mg"},{"bike_id":"af0f79b8-3b88-4cba-b911-8a381a445a2c","system_id":"levelo_inurba_marseille","lat":43.30788,"lon":5.3764,"is_reserved":false,"is_disabled":false,"rental_uris":{"android":"levelo://app?vid=af0f79b8-3b88-4cba-b911-8a381a445a2c","ios":"levelo://app?vid=af0f79b8-3b88-4cba-b911-8a381a445a2c"},"vehicle_type_id":"4","last_reported":1742929673,"current_range_meters":9200,"station_id":"ce4bgv92rcd13ifvqcq0","pricing_plan_id":"cebpf4jnsgd1na2vs0mg"},{"bike_id":"c05b7168-433b-4d3e-9ba1-a7905898db78","system_id":"levelo_inurba_marseille","lat":43.29808,"lon":5.38099,"is_reserved":false,"is_disabled":false,"rental_uris":{"android":"levelo://app?vid=c05b7168-433b-4d3e-9ba1-a7905898db78","ios":"levelo://app?vid=c05b7168-433b-4d3e-9ba1-a7905898db78"},"vehicle_type_id":"4","last_reported":1742929673,"current_range_meters":9200,"station_id":"ce4bgip2rcd13ifvqbb0","pricing_plan_id":"cebpf4jnsgd1na2vs0mg"},{"bike_id":"89e75ed9-7f20-48f7-ad37-e0033e47c633","system_id":"levelo_inurba_marseille","lat":43.24665,"lon":5.38901,"is_reserved":false,"is_disabled":false,"rental_uris":{"android":"levelo://app?vid=89e75ed9-7f20-48f7-ad37-e0033e47c633","ios":"levelo://app?vid=89e75ed9-7f20-48f7-ad37-e0033e47c633"},"vehicle_type_id":"4","last_reported":1742929673,"current_range_meters":9200,"station_id":"ce4bhg12rcd13ifvqf60","pricing_plan_id":"cebpf4jnsgd1na2vs0mg"},{"bike_id":"31b5a92e-112c-434f-88fd-16521bf69aeb","system_id":"levelo_inurba_marseille","lat":43.30173,"lon":5.36623,"is_reserved":false,"is_disabled":false,"rental_uris":{"android":"levelo://app?vid=31b5a92e-112c-434f-88fd-16521bf69aeb","ios":"levelo://app?vid=31b5a92e-112c-434f-88fd-16521bf69aeb"},"vehicle_type_id":"4","last_reported":1742929673,"current_range_meters":9200,"station_id":"ce4bgrh2rcd13ifvqc8g","pricing_plan_id":"cebpf4jnsgd1na2vs0mg"},{"bike_id":"225cbe9d-4f8e-432e-b5e7-cd7e14da2d62","system_id":"levelo_inurba_marseille","lat":43.28163,"lon":5.42671,"is_reserved":false,"is_disabled":false,"rental_uris":{"android":"levelo://app?vid=225cbe9d-4f8e-432e-b5e7-cd7e14da2d62","ios":"levelo://app?vid=225cbe9d-4f8e-432e-b5e7-cd7e14da2d62"},"vehicle_type_id":"4","last_reported":1742929673,"current_range_meters":9600,"station_id":"ce4bhnh2rcd13ifvqgug","pricing_plan_id":"cebpf4jnsgd1na2vs0mg"},{"bike_id":"d45a2f6c-957b-46cd-bd89-ee8e58d1536e","system_id":"levelo_inurba_marseille","lat":43.27754,"lon":5.40792,"is_reserved":false,"is_disabled":false,"rental_uris":{"android":"levelo://app?vid=d45a2f6c-957b-46cd-bd89-ee8e58d1536e","ios":"levelo://app?vid=d45a2f6c-957b-46cd-bd89-ee8e58d1536e"},"vehicle_type_id":"4","last_reported":1742929673,"current_range_meters":9600,"station_id":"","pricing_plan_id":"cebpf4jnsgd1na2vs0mg"},{"bike_id":"36162e15-addf-4d02-a9be-c4c1ed610cde","system_id":"levelo_inurba_marseille","lat":43.28103,"lon":5.3784,"is_reserved":false,"is_disabled":false,"rental_uris":{"android":"levelo://app?vid=36162e15-addf-4d02-a9be-c4c1ed610cde","ios":"levelo://app?vid=36162e15-addf-4d02-a9be-c4c1ed610cde"},"vehicle_type_id":"4","last_reported":1742929673,"current_range_meters":9600,"station_id":"ce4bha12rcd13ifvqee0","pricing_plan_id":"cebpf4jnsgd1na2vs0mg"},{"bike_id":"d0ee8d20-19be-4028-b608-7045ab34de7b","system_id":"levelo_inurba_marseille","lat":43.29033,"lon":5.3863,"is_reserved":false,"is_disabled":false,"rental_uris":{"android":"levelo://app?vid=d0ee8d20-19be-4028-b608-7045ab34de7b","ios":"levelo://app?vid=d0ee8d20-19be-4028-b608-7045ab34de7b"},"vehicle_type_id":"4","last_reported":1742929673,"current_range_meters":9600,"station_id":"ce4bh4p2rcd13ifvqe0g","pricing_plan_id":"cebpf4jnsgd1na2vs0mg"},{"bike_id":"29a71c71-9348-4517-b583-74ea2a66fe7d","system_id":"levelo_inurba_marseille","lat":43.27946,"lon":5.41047,"is_reserved":false,"is_disabled":false,"rental_uris":{"android":"levelo://app?vid=29a71c71-9348-4517-b583-74ea2a66fe7d","ios":"levelo://app?vid=29a71c71-9348-4517-b583-74ea2a66fe7d"},"vehicle_type_id":"4","last_reported":1742929673,"current_range_meters":9600,"station_id":"ce4bhnp2rcd13ifvqh0g","pricing_plan_id":"cebpf4jnsgd1na2vs0mg"},{"bike_id":"74406c35-ee35-437d-be26-2d7711378046","system_id":"levelo_inurba_marseille","lat":43.32355,"lon":5.36704,"is_reserved":false,"is_disabled":false,"rental_uris":{"android":"levelo://app?vid=74406c35-ee35-437d-be26-2d7711378046","ios":"levelo://app?vid=74406c35-ee35-437d-be26-2d7711378046"},"vehicle_type_id":"4","last_reported":1742929673,"current_range_meters":9600,"station_id":"","pricing_plan_id":"cebpf4jnsgd1na2vs0mg"},{"bike_id":"bfcb793a-58dc-4587-be6a-54ec465a7648","system_id":"levelo_inurba_marseille","lat":43.30416,"lon":5.41292,"is_reserved":false,"is_disabled":false,"rental_uris":{"android":"levelo://app?vid=bfcb793a-58dc-4587-be6a-54ec465a7648","ios":"levelo://app?vid=bfcb793a-58dc-4587-be6a-54ec465a7648"},"vehicle_type_id":"4","last_reported":1742929673,"current_range_meters":9600,"station_id":"ce4bhop2rcd13ifvqh8g","pricing_plan_id":"cebpf4jnsgd1na2vs0mg"},{"bike_id":"540ecedd-5340-4aff-a52b-d3ecfb37293a","system_id":"levelo_inurba_marseille","lat":43.26058,"lon":5.39417,"is_reserved":false,"is_disabled":false,"rental_uris":{"android":"levelo://app?vid=540ecedd-5340-4aff-a52b-d3ecfb37293a","ios":"levelo://app?vid=540ecedd-5340-4aff-a52b-d3ecfb37293a"},"vehicle_type_id":"4","last_reported":1742929673,"current_range_meters":9600,"station_id":"ce4bhh92rcd13ifvqfj0","pricing_plan_id":"cebpf4jnsgd1na2vs0mg"},{"bike_id":"79ba703f-4a97-4a31-b28a-b4a22c00e430","system_id":"levelo_inurba_marseille","lat":43.23175,"lon":5.3999,"is_reserved":false,"is_disabled":false,"rental_uris":{"android":"levelo://app?vid=79ba703f-4a97-4a31-b28a-b4a22c00e430","ios":"levelo://app?vid=79ba703f-4a97-4a31-b28a-b4a22c00e430"},"vehicle_type_id":"4","last_reported":1742929673,"current_range_meters":9200,"station_id":"ce4bhn12rcd13ifvqgqg","pricing_plan_id":"cebpf4jnsgd1na2vs0mg"},{"bike_id":"f3371853-40bf-4a23-bed4-87c9715e98c9","system_id":"levelo_inurba_marseille","lat":43.26809,"lon":5.40271,"is_reserved":false,"is_disabled":false,"rental_uris":{"android":"levelo://app?vid=f3371853-40bf-4a23-bed4-87c9715e98c9","ios":"levelo://app?vid=f3371853-40bf-4a23-bed4-87c9715e98c9"},"vehicle_type_id":"4","last_reported":1742929673,"current_range_meters":9600,"station_id":"ce501612rcd8frsf0b60","pricing_plan_id":"cebpf4jnsgd1na2vs0mg"},{"bike_id":"f9c2d6f4-4513-4b26-a173-3b2adf92e672","system_id":"levelo_inurba_marseille","lat":43.30138,"lon":5.39106,"is_reserved":false,"is_disabled":false,"rental_uris":{"android":"levelo://app?vid=f9c2d6f4-4513-4b26-a173-3b2adf92e672","ios":"levelo://app?vid=f9c2d6f4-4513-4b26-a173-3b2adf92e672"},"vehicle_type_id":"4","last_reported":1742929673,"current_range_meters":9600,"station_id":"ce4bh192rcd13ifvqdb0","pricing_plan_id":"cebpf4jnsgd1na2vs0mg"},{"bike_id":"a36af006-e489-4f01-8ba4-0bb9b506e528","system_id":"levelo_inurba_marseille","lat":43.29409,"lon":5.38632,"is_reserved":false,"is_disabled":false,"rental_uris":{"android":"levelo://app?vid=a36af006-e489-4f01-8ba4-0bb9b506e528","ios":"levelo://app?vid=a36af006-e489-4f01-8ba4-0bb9b506e528"},"vehicle_type_id":"4","last_reported":1742929673,"current_range_meters":9600,"station_id":"ce4bh2h2rcd13ifvqdh0","pricing_plan_id":"cebpf4jnsgd1na2vs0mg"},{"bike_id":"342f19f0-681f-4097-b14f-f905cbb3bfb3","system_id":"levelo_inurba_marseille","lat":43.27375,"lon":5.362553,"is_reserved":false,"is_disabled":false,"rental_uris":{"android":"levelo://app?vid=342f19f0-681f-4097-b14f-f905cbb3bfb3","ios":"levelo://app?vid=342f19f0-681f-4097-b14f-f905cbb3bfb3"},"vehicle_type_id":"4","last_reported":1742929673,"current_range_meters":9600,"station_id":"ce4bhbh2rcd13ifvqeo0","pricing_plan_id":"cebpf4jnsgd1na2vs0mg"},{"bike_id":"d5d3e297-cb41-473d-9e7e-f20689252516","system_id":"levelo_inurba_marseille","lat":43.30608,"lon":5.37236,"is_reserved":false,"is_disabled":false,"rental_uris":{"android":"levelo://app?vid=d5d3e297-cb41-473d-9e7e-f20689252516","ios":"levelo://app?vid=d5d3e297-cb41-473d-9e7e-f20689252516"},"vehicle_type_id":"4","last_reported":1742929673,"current_range_meters":9600,"station_id":"ce4bgqh2rcd13ifvqc4g","pricing_plan_id":"cebpf4jnsgd1na2vs0mg"},{"bike_id":"e5992377-093e-4cb6-bf44-8bb86e51e2c5","system_id":"levelo_inurba_marseille","lat":43.29778,"lon":5.37121,"is_reserved":false,"is_disabled":false,"rental_uris":{"android":"levelo://app?vid=e5992377-093e-4cb6-bf44-8bb86e51e2c5","ios":"levelo://app?vid=e5992377-093e-4cb6-bf44-8bb86e51e2c5"},"vehicle_type_id":"4","last_reported":1742929673,"current_range_meters":8400,"station_id":"ce4bgop2rcd13ifvqc1g","pricing_plan_id":"cebpf4jnsgd1na2vs0mg"},{"bike_id":"6f6e0ffd-e4c9-42b1-bc45-e9ebc551d612","system_id":"levelo_inurba_marseille","lat":43.33011,"lon":5.38996,"is_reserved":false,"is_disabled":false,"rental_uris":{"android":"levelo://app?vid=6f6e0ffd-e4c9-42b1-bc45-e9ebc551d612","ios":"levelo://app?vid=6f6e0ffd-e4c9-42b1-bc45-e9ebc551d612"},"vehicle_type_id":"4","last_reported":1742929673,"current_range_meters":9600,"station_id":"ce4bhr92rcd13ifvqhrg","pricing_plan_id":"cebpf4jnsgd1na2vs0mg"},{"bike_id":"6217b0e8-b954-492c-8970-dc7d68ef5628","system_id":"levelo_inurba_marseille","lat":43.2847,"lon":5.38424,"is_reserved":false,"is_disabled":false,"rental_uris":{"android":"levelo://app?vid=6217b0e8-b954-492c-8970-dc7d68ef5628","ios":"levelo://app?vid=6217b0e8-b954-492c-8970-dc7d68ef5628"},"vehicle_type_id":"4","last_reported":1742929673,"current_range_meters":9600,"station_id":"ce4bh512rcd13ifvqe3g","pricing_plan_id":"cebpf4jnsgd1na2vs0mg"},{"bike_id":"1392a870-6300-4219-8b1a-6d76541db636","system_id":"levelo_inurba_marseille","lat":43.32353,"lon":5.40614,"is_reserved":false,"is_disabled":false,"rental_uris":{"android":"levelo://app?vid=1392a870-6300-4219-8b1a-6d76541db636","ios":"levelo://app?vid=1392a870-6300-4219-8b1a-6d76541db636"},"vehicle_type_id":"4","last_reported":1742929673,"current_range_meters":9600,"station_id":"ce4bhq92rcd13ifvqhjg","pricing_plan_id":"cebpf4jnsgd1na2vs0mg"},{"bike_id":"2dc9dd28-3adf-463c-a910-459039d40689","system_id":"levelo_inurba_marseille","lat":43.29526,"lon":5.38542,"is_reserved":false,"is_disabled":false,"rental_uris":{"android":"levelo://app?vid=2dc9dd28-3adf-463c-a910-459039d40689","ios":"levelo://app?vid=2dc9dd28-3adf-463c-a910-459039d40689"},"vehicle_type_id":"4","last_reported":1742929673,"current_range_meters":9600,"station_id":"ce4bgih2rcd13ifvqba0","pricing_plan_id":"cebpf4jnsgd1na2vs0mg"},{"bike_id":"59162473-4ee2-4943-a5f7-01b0c9e9bebf","system_id":"levelo_inurba_marseille","lat":43.29417,"lon":5.38626,"is_reserved":false,"is_disabled":false,"rental_uris":{"android":"levelo://app?vid=59162473-4ee2-4943-a5f7-01b0c9e9bebf","ios":"levelo://app?vid=59162473-4ee2-4943-a5f7-01b0c9e9bebf"},"vehicle_type_id":"4","last_reported":1742929673,"current_range_meters":10000,"station_id":"ce4bh2h2rcd13ifvqdh0","pricing_plan_id":"cebpf4jnsgd1na2vs0mg"},{"bike_id":"748d818f-f44c-41da-8d6b-9b0b3c2047f2","system_id":"levelo_inurba_marseille","lat":43.28033,"lon":5.36952,"is_reserved":false,"is_disabled":false,"rental_uris":{"android":"levelo://app?vid=748d818f-f44c-41da-8d6b-9b0b3c2047f2","ios":"levelo://app?vid=748d818f-f44c-41da-8d6b-9b0b3c2047f2"},"vehicle_type_id":"4","last_reported":1742929673,"current_range_meters":10000,"station_id":"ce4bha12rcd13ifvqef0","pricing_plan_id":"cebpf4jnsgd1na2vs0mg"},{"bike_id":"35295e8c-fb3f-4b59-ba50-c8ba80a23e5f","system_id":"levelo_inurba_marseille","lat":43.28966,"lon":5.37834,"is_reserved":false,"is_disabled":false,"rental_uris":{"android":"levelo://app?vid=35295e8c-fb3f-4b59-ba50-c8ba80a23e5f","ios":"levelo://app?vid=35295e8c-fb3f-4b59-ba50-c8ba80a23e5f"},"vehicle_type_id":"4","last_reported":1742929673,"current_range_meters":10000,"station_id":"ce4bh9p2rcd13ifvqed0","pricing_plan_id":"cebpf4jnsgd1na2vs0mg"},{"bike_id":"e52b9a62-85cc-4127-8505-9c26b9db33f7","system_id":"levelo_inurba_marseille","lat":43.3107,"lon":5.42448,"is_reserved":false,"is_disabled":false,"rental_uris":{"android":"levelo://app?vid=e52b9a62-85cc-4127-8505-9c26b9db33f7","ios":"levelo://app?vid=e52b9a62-85cc-4127-8505-9c26b9db33f7"},"vehicle_type_id":"4","last_reported":1742929673,"current_range_meters":10000,"station_id":"ce4bhp92rcd13ifvqhag","pricing_plan_id":"cebpf4jnsgd1na2vs0mg"},{"bike_id":"3de62e59-43e9-49de-83ce-d69119c8c0c2","system_id":"levelo_inurba_marseille","lat":43.29908,"lon":5.43672,"is_reserved":false,"is_disabled":false,"rental_uris":{"android":"levelo://app?vid=3de62e59-43e9-49de-83ce-d69119c8c0c2","ios":"levelo://app?vid=3de62e59-43e9-49de-83ce-d69119c8c0c2"},"vehicle_type_id":"4","last_reported":1742929673,"current_range_meters":10000,"station_id":"ce4bhpp2rcd13ifvqhfg","pricing_plan_id":"cebpf4jnsgd1na2vs0mg"},{"bike_id":"5aeb641c-8c67-430e-bd09-77076d22412d","system_id":"levelo_inurba_marseille","lat":43.31045,"lon":5.37594,"is_reserved":false,"is_disabled":false,"rental_uris":{"android":"levelo://app?vid=5aeb641c-8c67-430e-bd09-77076d22412d","ios":"levelo://app?vid=5aeb641c-8c67-430e-bd09-77076d22412d"},"vehicle_type_id":"4","last_reported":1742929673,"current_range_meters":10000,"station_id":"","pricing_plan_id":"cebpf4jnsgd1na2vs0mg"},{"bike_id":"1838055b-e1e8-4f06-9ec2-ac7228ebb9b7","system_id":"levelo_inurba_marseille","lat":43.29443,"lon":5.39759,"is_reserved":false,"is_disabled":false,"rental_uris":{"android":"levelo://app?vid=1838055b-e1e8-4f06-9ec2-ac7228ebb9b7","ios":"levelo://app?vid=1838055b-e1e8-4f06-9ec2-ac7228ebb9b7"},"vehicle_type_id":"4","last_reported":1742929673,"current_range_meters":10000,"station_id":"ce4bh3h2rcd13ifvqdo0","pricing_plan_id":"cebpf4jnsgd1na2vs0mg"},{"bike_id":"6bfb9f9a-c697-4be1-b7fd-137893cbe42b","system_id":"levelo_inurba_marseille","lat":43.2953,"lon":5.38561,"is_reserved":false,"is_disabled":false,"rental_uris":{"android":"levelo://app?vid=6bfb9f9a-c697-4be1-b7fd-137893cbe42b","ios":"levelo://app?vid=6bfb9f9a-c697-4be1-b7fd-137893cbe42b"},"vehicle_type_id":"4","last_reported":1742929673,"current_range_meters":12400,"station_id":"ce4bgih2rcd13ifvqba0","pricing_plan_id":"cebpf4jnsgd1na2vs0mg"},{"bike_id":"eeab32a0-5126-43c2-96df-98dde571d81f","system_id":"levelo_inurba_marseille","lat":43.290551,"lon":5.359246,"is_reserved":false,"is_disabled":false,"rental_uris":{"android":"levelo://app?vid=eeab32a0-5126-43c2-96df-98dde571d81f","ios":"levelo://app?vid=eeab32a0-5126-43c2-96df-98dde571d81f"},"vehicle_type_id":"4","last_reported":1742929673,"current_range_meters":10000,"station_id":"ce4bha92rcd13ifvqeg0","pricing_plan_id":"cebpf4jnsgd1na2vs0mg"},{"bike_id":"6633349b-54ae-41b8-88d5-61ec5d012302","system_id":"levelo_inurba_marseille","lat":43.32116,"lon":5.36778,"is_reserved":false,"is_disabled":false,"rental_uris":{"android":"levelo://app?vid=6633349b-54ae-41b8-88d5-61ec5d012302","ios":"levelo://app?vid=6633349b-54ae-41b8-88d5-61ec5d012302"},"vehicle_type_id":"4","last_reported":1742929673,"current_range_meters":10000,"station_id":"ce4bhrh2rcd13ifvqhug","pricing_plan_id":"cebpf4jnsgd1na2vs0mg"},{"bike_id":"dd48f377-b85b-4d77-a898-bc0671020a84","system_id":"levelo_inurba_marseille","lat":43.26961,"lon":5.38637,"is_reserved":false,"is_disabled":false,"rental_uris":{"android":"levelo://app?vid=dd48f377-b85b-4d77-a898-bc0671020a84","ios":"levelo://app?vid=dd48f377-b85b-4d77-a898-bc0671020a84"},"vehicle_type_id":"4","last_reported":1742929673,"current_range_meters":10000,"station_id":"ce4bhh92rcd13ifvqfh0","pricing_plan_id":"cebpf4jnsgd1na2vs0mg"},{"bike_id":"bf897b90-1384-4a2f-ac27-95c9b1e77fd1","system_id":"levelo_inurba_marseille","lat":43.26807,"lon":5.40273,"is_reserved":false,"is_disabled":false,"rental_uris":{"android":"levelo://app?vid=bf897b90-1384-4a2f-ac27-95c9b1e77fd1","ios":"levelo://app?vid=bf897b90-1384-4a2f-ac27-95c9b1e77fd1"},"vehicle_type_id":"4","last_reported":1742929673,"current_range_meters":10000,"station_id":"ce501612rcd8frsf0b60","pricing_plan_id":"cebpf4jnsgd1na2vs0mg"},{"bike_id":"0b8aadb9-0211-4972-ad4c-895c3a2814ce","system_id":"levelo_inurba_marseille","lat":43.29271,"lon":5.36849,"is_reserved":false,"is_disabled":false,"rental_uris":{"android":"levelo://app?vid=0b8aadb9-0211-4972-ad4c-895c3a2814ce","ios":"levelo://app?vid=0b8aadb9-0211-4972-ad4c-895c3a2814ce"},"vehicle_type_id":"4","last_reported":1742929673,"current_range_meters":10000,"station_id":"ce4bhbp2rcd13ifvqesg","pricing_plan_id":"cebpf4jnsgd1na2vs0mg"},{"bike_id":"3922f873-4d28-4c92-90f1-052bd02049ed","system_id":"levelo_inurba_marseille","lat":43.29034,"lon":5.37571,"is_reserved":false,"is_disabled":false,"rental_uris":{"android":"levelo://app?vid=3922f873-4d28-4c92-90f1-052bd02049ed","ios":"levelo://app?vid=3922f873-4d28-4c92-90f1-052bd02049ed"},"vehicle_type_id":"4","last_reported":1742929673,"current_range_meters":10000,"station_id":"ce4bh692rcd13ifvqe90","pricing_plan_id":"cebpf4jnsgd1na2vs0mg"},{"bike_id":"a3edb1f5-a4cc-4584-8b0a-0a2f65ff600f","system_id":"levelo_inurba_marseille","lat":43.24069,"lon":5.37769,"is_reserved":false,"is_disabled":false,"rental_uris":{"android":"levelo://app?vid=a3edb1f5-a4cc-4584-8b0a-0a2f65ff600f","ios":"levelo://app?vid=a3edb1f5-a4cc-4584-8b0a-0a2f65ff600f"},"vehicle_type_id":"4","last_reported":1742929673,"current_range_meters":10000,"station_id":"ce4bhnp2rcd13ifvqgvg","pricing_plan_id":"cebpf4jnsgd1na2vs0mg"},{"bike_id":"5afadd01-05af-47f2-b106-8c57133c5065","system_id":"levelo_inurba_marseille","lat":43.29973,"lon":5.38484,"is_reserved":false,"is_disabled":true,"rental_uris":{"android":"levelo://app?vid=5afadd01-05af-47f2-b106-8c57133c5065","ios":"levelo://app?vid=5afadd01-05af-47f2-b106-8c57133c5065"},"vehicle_type_id":"4","last_reported":1742929673,"current_range_meters":10000,"station_id":"ce4bgj92rcd13ifvqbd0","pricing_plan_id":"cebpf4jnsgd1na2vs0mg"},{"bike_id":"8583bcae-e817-4db7-ab92-448c595780ea","system_id":"levelo_inurba_marseille","lat":43.330192,"lon":5.390238,"is_reserved":false,"is_disabled":false,"rental_uris":{"android":"levelo://app?vid=8583bcae-e817-4db7-ab92-448c595780ea","ios":"levelo://app?vid=8583bcae-e817-4db7-ab92-448c595780ea"},"vehicle_type_id":"4","last_reported":1742929673,"current_range_meters":10000,"station_id":"ce4bhr92rcd13ifvqhrg","pricing_plan_id":"cebpf4jnsgd1na2vs0mg"},{"bike_id":"2d4e687a-9c18-4086-9d00-f57175bd6e2a","system_id":"levelo_inurba_marseille","lat":43.32347,"lon":5.38892,"is_reserved":false,"is_disabled":false,"rental_uris":{"android":"levelo://app?vid=2d4e687a-9c18-4086-9d00-f57175bd6e2a","ios":"levelo://app?vid=2d4e687a-9c18-4086-9d00-f57175bd6e2a"},"vehicle_type_id":"4","last_reported":1742929673,"current_range_meters":10000,"station_id":"ce4bhqp2rcd13ifvqhog","pricing_plan_id":"cebpf4jnsgd1na2vs0mg"},{"bike_id":"cd49037d-8941-4aef-83ae-a30db70c11b7","system_id":"levelo_inurba_marseille","lat":43.284027,"lon":5.375169,"is_reserved":false,"is_disabled":false,"rental_uris":{"android":"levelo://app?vid=cd49037d-8941-4aef-83ae-a30db70c11b7","ios":"levelo://app?vid=cd49037d-8941-4aef-83ae-a30db70c11b7"},"vehicle_type_id":"4","last_reported":1742929673,"current_range_meters":10000,"station_id":"ce4bhgh2rcd13ifvqfb0","pricing_plan_id":"cebpf4jnsgd1na2vs0mg"},{"bike_id":"1d771927-4bf3-49f1-9e03-dad54acb74f8","system_id":"levelo_inurba_marseille","lat":43.30423,"lon":5.41285,"is_reserved":false,"is_disabled":false,"rental_uris":{"android":"levelo://app?vid=1d771927-4bf3-49f1-9e03-dad54acb74f8","ios":"levelo://app?vid=1d771927-4bf3-49f1-9e03-dad54acb74f8"},"vehicle_type_id":"4","last_reported":1742929673,"current_range_meters":10800,"station_id":"ce4bhop2rcd13ifvqh8g","pricing_plan_id":"cebpf4jnsgd1na2vs0mg"},{"bike_id":"db3a37d9-5fb5-4f3b-a188-d5b191baa933","system_id":"levelo_inurba_marseille","lat":43.30131,"lon":5.39877,"is_reserved":false,"is_disabled":false,"rental_uris":{"android":"levelo://app?vid=db3a37d9-5fb5-4f3b-a188-d5b191baa933","ios":"levelo://app?vid=db3a37d9-5fb5-4f3b-a188-d5b191baa933"},"vehicle_type_id":"4","last_reported":1742929673,"current_range_meters":10800,"station_id":"ce4bh0h2rcd13ifvqd40","pricing_plan_id":"cebpf4jnsgd1na2vs0mg"},{"bike_id":"a4d699fc-691c-4845-8f60-dd5c0cde474c","system_id":"levelo_inurba_marseille","lat":43.28425,"lon":5.37521,"is_reserved":false,"is_disabled":false,"rental_uris":{"android":"levelo://app?vid=a4d699fc-691c-4845-8f60-dd5c0cde474c","ios":"levelo://app?vid=a4d699fc-691c-4845-8f60-dd5c0cde474c"},