{"last_updated":1768475518,"ttl":60,"version":"2.2","data":{"bikes":[{"bike_id":"2dcbaafa-dc26-4d5a-9923-60da74220ab7","system_id":"levelo_inurba_marseille","lat":43.263705,"lon":5.410836,"is_reserved":false,"is_disabled":false,"rental_uris":{"android":"levelo://app?vid=2dcbaafa-dc26-4d5a-9923-60da74220ab7","ios":"levelo://app?vid=2dcbaafa-dc26-4d5a-9923-60da74220ab7"},"vehicle_type_id":"4","last_reported":1768475518,"current_range_meters":2800,"station_id":"","pricing_plan_id":"cebpf4jnsgd1na2vs0mg"},{"bike_id":"a2c3fda5-fb1e-4329-88c2-2e7960229574","system_id":"levelo_inurba_marseille","lat":43.31203,"lon":5.40305,"is_reserved":false,"is_disabled":false,"rental_uris":{"android":"levelo://app?vid=a2c3fda5-fb1e-4329-88c2-2e7960229574","ios":"levelo://app?vid=a2c3fda5-fb1e-4329-88c2-2e7960229574"},"vehicle_type_id":"4","last_reported":1768475518,"current_range_meters":2800,"station_id":"","pricing_plan_id":"cebpf4jnsgd1na2vs0mg"},{"bike_id":"be30ca61-adcf-4b3a-87f3-64d52fd123c8","system_id":"levelo_inurba_marseille","lat":43.32354,"lon":5.36729,"is_reserved":false,"is_disabled":false,"rental_uris":{"android":"levelo://app?vid=be30ca61-adcf-4b3a-87f3-64d52fd123c8","ios":"levelo://app?vid=be30ca61-adcf-4b3a-87f3-64d52fd123c8"},"vehicle_type_id":"4","last_reported":1768475518,"current_range_meters":2800,"station_id":"ce4bhsh2rcd13ifvqi2g","pricing_plan_id":"cebpf4jnsgd1na2vs0mg"},{"bike_id":"9f40a33c-296f-4c34-b112-b842ec7417ee","system_id":"levelo_inurba_marseille","lat":43.24082,"lon":5.37731,"is_reserved":false,"is_disabled":false,"rental_uris":{"android":"levelo://app?vid=9f40a33c-296f-4c34-b112-b842ec7417ee","ios":"levelo://app?vid=9f40a33c-296f-4c34-b112-b842ec7417ee"},"vehicle_type_id":"4","last_reported":1768475518,"current_range_meters":2800,"station_id":"ce4bhnp2rcd13ifvqgvg","pricing_plan_id":"cebpf4jnsgd1na2vs0mg"},{"bike_id":"015c6d7e-e8dc-4d5f-a516-81c9648609f3","system_id":"levelo_inurba_marseille","lat":43.30471,"lon":5.39712,"is_reserved":false,"is_disabled":false,"rental_uris":{"android":"levelo://app?vid=015c6d7e-e8dc-4d5f-a516-81c9648609f3","ios":"levelo://app?vid=015c6d7e-e8dc-4d5f-a516-81c9648609f3"},"vehicle_type_id":"4","last_reported":1768475518,"current_range_meters":2800,"station_id":"","pricing_plan_id":"cebpf4jnsgd1na2vs0mg"},{"bike_id":"8803a6e9-67a3-479e-b849-a893754260d5","system_id":"levelo_inurba_marseille","lat":43.25509,"lon":5.37652,"is_reserved":false,"is_disabled":false,"rental_uris":{"android":"levelo://app?vid=8803a6e9-67a3-479e-b849-a893754260d5","ios":"levelo://app?vid=8803a6e9-67a3-479e-b849-a893754260d5"},"vehicle_type_id":"4","last_reported":1768475518,"current_range_meters":3200,"station_id":"ce4bhh12rcd13ifvqff0","pricing_plan_id":"cebpf4jnsgd1na2vs0mg"},{"bike_id":"f462e936-749b-4584-8105-dd7f2d3dcdd5","system_id":"levelo_inurba_marseille","lat":43.29798,"lon":5.38096,"is_reserved":false,"is_disabled":false,"rental_uris":{"android":"levelo://app?vid=f462e936-749b-4584-8105-dd7f2d3dcdd5","ios":"levelo://app?vid=f462e936-749b-4584-8105-dd7f2d3dcdd5"},"vehicle_type_id":"4","last_reported":1768475518,"current_range_meters":3200,"station_id":"ce4bgip2rcd13ifvqbb0","pricing_plan_id":"cebpf4jnsgd1na2vs0mg"},{"bike_id":"2dfb6b27-1a9d-4365-8ea3-5579df8f7297","system_id":"levelo_inurba_marseille","lat":43.24995,"lon":5.38945,"is_reserved":false,"is_disabled":false,"rental_uris":{"android":"levelo://app?vid=2dfb6b27-1a9d-4365-8ea3-5579df8f7297","ios":"levelo://app?vid=2dfb6b27-1a9d-4365-8ea3-5579df8f7297"},"vehicle_type_id":"4","last_reported":1768475518,"current_range_meters":3200,"station_id":"ce4bhgp2rcd13ifvqfd0","pricing_plan_id":"cebpf4jnsgd1na2vs0mg"},{"bike_id":"33f17554-2853-4954-b6db-ca98bd3bda6a","system_id":"levelo_inurba_marseille","lat":43.243857,"lon":5.370566,"is_reserved":false,"is_disabled":false,"rental_uris":{"android":"levelo://app?vid=33f17554-2853-4954-b6db-ca98bd3bda6a","ios":"levelo://app?vid=33f17554-2853-4954-b6db-ca98bd3bda6a"},"vehicle_type_id":"4","last_reported":1768475518,"current_range_meters":3200,"station_id":"ce4bhhh2rcd13ifvqfk0","pricing_plan_id":"cebpf4jnsgd1na2vs0mg"},{"bike_id":"98a07dd1-d6eb-4a51-8437-adf232cf287c","system_id":"levelo_inurba_marseille","lat":43.320586,"lon":5.41544,"is_reserved":false,"is_disabled":false,"rental_uris":{"android":"levelo://app?vid=98a07dd1-d6eb-4a51-8437-adf232cf287c","ios":"levelo://app?vid=98a07dd1-d6eb-4a51-8437-adf232cf287c"},"vehicle_type_id":"4","last_reported":1768475518,"current_range_meters":3600,"station_id":"ce4bhq92rcd13ifvqhkg","pricing_plan_id":"cebpf4jnsgd1na2vs0mg"},{"bike_id":"7445f670-7827-4e99-80df-37c19e7cc9ec","system_id":"levelo_inurba_marseille","lat":43.32119,"lon":5.36753,"is_reserved":false,"is_disabled":false,"rental_uris":{"android":"levelo://app?vid=7445f670-7827-4e99-80df-37c19e7cc9ec","ios":"levelo://app?vid=7445f670-7827-4e99-80df-37c19e7cc9ec"},"vehicle_type_id":"4","last_reported":1768475518,"current_range_meters":3600,"station_id":"ce4bhrh2rcd13ifvqhug","pricing_plan_id":"cebpf4jnsgd1na2vs0mg"},{"bike_id":"06897417-f925-403b-9b53-83cb77fb311f","system_id":"levelo_inurba_marseille","lat":43.25519,"lon":5.37674,"is_reserved":false,"is_disabled":false,"rental_uris":{"android":"levelo://app?vid=06897417-f925-403b-9b53-83cb77fb311f","ios":"levelo://app?vid=06897417-f925-403b-9b53-83cb77fb311f"},"vehicle_type_id":"4","last_reported":1768475518,"current_range_meters":3600,"station_id":"ce4bhh12rcd13ifvqff0","pricing_plan_id":"cebpf4jnsgd1na2vs0mg"},{"bike_id":"94b0a6e5-3c0a-4a82-9848-862e6d7809b0","system_id":"levelo_inurba_marseille","lat":43.28074,"lon":5.39668,"is_reserved":false,"is_disabled":false,"rental_uris":{"android":"levelo://app?vid=94b0a6e5-3c0a-4a82-9848-862e6d7809b0","ios":"levelo://app?vid=94b0a6e5-3c0a-4a82-9848-862e6d7809b0"},"vehicle_type_id":"4","last_reported":1768475518,"current_range_meters":3600,"station_id":"ce4bho12rcd13ifvqh2g","pricing_plan_id":"cebpf4jnsgd1na2vs0mg"},{"bike_id":"f42ab945-6b46-4b23-ac0b-20e1fd002449","system_id":"levelo_inurba_marseille","lat":43.300324,"lon":5.388794,"is_reserved":false,"is_disabled":false,"rental_uris":{"android":"levelo://app?vid=f42ab945-6b46-4b23-ac0b-20e1fd002449","ios":"levelo://app?vid=f42ab945-6b46-4b23-ac0b-20e1fd002449"},"vehicle_type_id":"4","last_reported":1768475518,"current_range_meters":3600,"station_id":"","pricing_plan_id":"cebpf4jnsgd1na2vs0mg"},{"bike_id":"a11e1d82-810c-4eda-a440-e7afc99582b7","system_id":"levelo_inurba_marseille","lat":43.29004,"lon":5.35611,"is_reserved":false,"is_disabled":false,"rental_uris":{"android":"levelo://app?vid=a11e1d82-810c-4eda-a440-e7afc99582b7","ios":"levelo://app?vid=a11e1d82-810c-4eda-a440-e7afc99582b7"},"vehicle_type_id":"4","last_reported":1768475518,"current_range_meters":3600,"station_id":"ce4bhb92rcd13ifvqen0","pricing_plan_id":"cebpf4jnsgd1na2vs0mg"},{"bike_id":"c75b139b-6977-457c-8fab-86c172554976","system_id":"levelo_inurba_marseille","lat":43.25103,"lon":5.40455,"is_reserved":false,"is_disabled":false,"rental_uris":{"android":"levelo://app?vid=c75b139b-6977-457c-8fab-86c172554976","ios":"levelo://app?vid=c75b139b-6977-457c-8fab-86c172554976"},"vehicle_type_id":"4","last_reported":1768475518,"current_range_meters":4000,"station_id":"","pricing_plan_id":"cebpf4jnsgd1na2vs0mg"},{"bike_id":"25b85b18-57fc-41e9-9a16-dc90f53ce58a","system_id":"levelo_inurba_marseille","lat":43.25583,"lon":5.38229,"is_reserved":false,"is_disabled":false,"rental_uris":{"android":"levelo://app?vid=25b85b18-57fc-41e9-9a16-dc90f53ce58a","ios":"levelo://app?vid=25b85b18-57fc-41e9-9a16-dc90f53ce58a"},"vehicle_type_id":"4","last_reported":1768475518,"current_range_meters":4000,"station_id":"ce4bhih2rcd13ifvqfs0","pricing_plan_id":"cebpf4jnsgd1na2vs0mg"},{"bike_id":"660f8d3d-996c-4d0c-a098-476ebc30f600","system_id":"levelo_inurba_marseille","lat":43.22573,"lon":5.41629,"is_reserved":false,"is_disabled":false,"rental_uris":{"android":"levelo://app?vid=660f8d3d-996c-4d0c-a098-476ebc30f600","ios":"levelo://app?vid=660f8d3d-996c-4d0c-a098-476ebc30f600"},"vehicle_type_id":"4","last_reported":1768475518,"current_range_meters":4000,"station_id":"st_d2o4gvlbi1j2169b742g","pricing_plan_id":"cebpf4jnsgd1na2vs0mg"},{"bike_id":"458b8111-0b4f-47b4-a25e-904a27733d5e","system_id":"levelo_inurba_marseille","lat":43.24176,"lon":5.39729,"is_reserved":false,"is_disabled":false,"rental_uris":{"android":"levelo://app?vid=458b8111-0b4f-47b4-a25e-904a27733d5e","ios":"levelo://app?vid=458b8111-0b4f-47b4-a25e-904a27733d5e"},"vehicle_type_id":"4","last_reported":1768475518,"current_range_meters":4000,"station_id":"","pricing_plan_id":"cebpf4jnsgd1na2vs0mg"},{"bike_id":"52dc7a23-02b1-49ea-88fe-a1d65ef8f548","system_id":"levelo_inurba_marseille","lat":43.22927,"lon":5.35383,"is_reserved":false,"is_disabled":false,"rental_uris":{"android":"levelo://app?vid=52dc7a23-02b1-49ea-88fe-a1d65ef8f548","ios":"levelo://app?vid=52dc7a23-02b1-49ea-88fe-a1d65ef8f548"},"vehicle_type_id":"4","last_reported":1768475518,"current_range_meters":4000,"station_id":"cpo3532slgdg3j2ikp40","pricing_plan_id":"cebpf4jnsgd1na2vs0mg"},{"bike_id":"86aaef4b-aac1-4248-ac79-0d9f37b8c62f","system_id":"levelo_inurba_marseille","lat":43.27317,"lon":5.41682,"is_reserved":false,"is_disabled":false,"rental_uris":{"android":"levelo://app?vid=86aaef4b-aac1-4248-ac79-0d9f37b8c62f","ios":"levelo://app?vid=86aaef4b-aac1-4248-ac79-0d9f37b8c62f"},"vehicle_type_id":"4","last_reported":1768475518,"current_range_meters":4000,"station_id":"","pricing_plan_id":"cebpf4jnsgd1na2vs0mg"},{"bike_id":"ae1d99b1-82a1-460d-bd96-dc1d194fe893","system_id":"levelo_inurba_marseille","lat":43.29823,"lon":5.37648,"is_reserved":false,"is_disabled":false,"rental_uris":{"android":"levelo://app?vid=ae1d99b1-82a1-460d-bd96-dc1d194fe893","ios":"levelo://app?vid=ae1d99b1-82a1-460d-bd96-dc1d194fe893"},"vehicle_type_id":"4","last_reported":1768475518,"current_range_meters":4000,"station_id":"","pricing_plan_id":"cebpf4jnsgd1na2vs0mg"},{"bike_id":"091c8081-61de-43ac-bb2c-74077a5d4149","system_id":"levelo_inurba_marseille","lat":43.22557,"lon":5.41628,"is_reserved":false,"is_disabled":false,"rental_uris":{"android":"levelo://app?vid=091c8081-61de-43ac-bb2c-74077a5d4149","ios":"levelo://app?vid=091c8081-61de-43ac-bb2c-74077a5d4149"},"vehicle_type_id":"4","last_reported":1768475518,"current_range_meters":4000,"station_id":"st_d2o4gvlbi1j2169b742g","pricing_plan_id":"cebpf4jnsgd1na2vs0mg"},{"bike_id":"9a5fbf1f-0437-41c2-b6e1-9b4f9884e63d","system_id":"levelo_inurba_marseille","lat":43.24058,"lon":5.3782,"is_reserved":false,"is_disabled":false,"rental_uris":{"android":"levelo://app?vid=9a5fbf1f-0437-41c2-b6e1-9b4f9884e63d","ios":"levelo://app?vid=9a5fbf1f-0437-41c2-b6e1-9b4f9884e63d"},"vehicle_type_id":"4","last_reported":1768475518,"current_range_meters":4000,"station_id":"ce4bhnp2rcd13ifvqgvg","pricing_plan_id":"cebpf4jnsgd1na2vs0mg"},{"bike_id":"bd4b15a9-002c-4633-885a-3535a5835aff","system_id":"levelo_inurba_marseille","lat":43.2731,"lon":5.39954,"is_reserved":false,"is_disabled":false,"rental_uris":{"android":"levelo://app?vid=bd4b15a9-002c-4633-885a-3535a5835aff","ios":"levelo://app?vid=bd4b15a9-002c-4633-885a-3535a5835aff"},"vehicle_type_id":"4","last_reported":1768475518,"current_range_meters":4000,"station_id":"","pricing_plan_id":"cebpf4jnsgd1na2vs0mg"},{"bike_id":"7da5a9f4-21b8-4fd6-89f0-1b22a973edeb","system_id":"levelo_inurba_marseille","lat":43.2873,"lon":5.37938,"is_reserved":false,"is_disabled":false,"rental_uris":{"android":"levelo://app?vid=7da5a9f4-21b8-4fd6-89f0-1b22a973edeb","ios":"levelo://app?vid=7da5a9f4-21b8-4fd6-89f0-1b22a973edeb"},"vehicle_type_id":"4","last_reported":1768475518,"current_range_meters":4000,"station_id":"ce4bh9p2rcd13ifvqec0","pricing_plan_id":"cebpf4jnsgd1na2vs0mg"},{"bike_id":"87384fb8-33b0-438e-8b62-02166d183a2b","system_id":"levelo_inurba_marseille","lat":43.2409,"lon":5.37746,"is_reserved":false,"is_disabled":false,"rental_uris":{"android":"levelo://app?vid=87384fb8-33b0-438e-8b62-02166d183a2b","ios":"levelo://app?vid=87384fb8-33b0-438e-8b62-02166d183a2b"},"vehicle_type_id":"4","last_reported":1768475518,"current_range_meters":4000,"station_id":"ce4bhnp2rcd13ifvqgvg","pricing_plan_id":"cebpf4jnsgd1na2vs0mg"},{"bike_id":"6c710942-6f01-4cbf-bea5-e9cc295b5d4f","system_id":"levelo_inurba_marseille","lat":43.27055,"lon":5.40253,"is_reserved":false,"is_disabled":false,"rental_uris":{"android":"levelo://app?vid=6c710942-6f01-4cbf-bea5-e9cc295b5d4f","ios":"levelo://app?vid=6c710942-6f01-4cbf-bea5-e9cc295b5d4f"},"vehicle_type_id":"4","last_reported":1768475518,"current_range_meters":4400,"station_id":"ce4bhk92rcd13ifvqgc0","pricing_plan_id":"cebpf4jnsgd1na2vs0mg"},{"bike_id":"5410fd45-b8b4-470d-9bd7-ad1acafbc363","system_id":"levelo_inurba_marseille","lat":43.28477,"lon":5.48396,"is_reserved":false,"is_disabled":false,"rental_uris":{"android":"levelo://app?vid=5410fd45-b8b4-470d-9bd7-ad1acafbc363","ios":"levelo://app?vid=5410fd45-b8b4-470d-9bd7-ad1acafbc363"},"vehicle_type_id":"4","last_reported":1768475518,"current_range_meters":4400,"station_id":"","pricing_plan_id":"cebpf4jnsgd1na2vs0mg"},{"bike_id":"b54d7711-f055-409c-950d-e2c8bc74d3bc","system_id":"levelo_inurba_marseille","lat":43.24792,"lon":5.37443,"is_reserved":false,"is_disabled":false,"rental_uris":{"android":"levelo://app?vid=b54d7711-f055-409c-950d-e2c8bc74d3bc","ios":"levelo://app?vid=b54d7711-f055-409c-950d-e2c8bc74d3bc"},"vehicle_type_id":"4","last_reported":1768475518,"current_range_meters":4400,"station_id":"ce4bhgh2rcd13ifvqfb0","pricing_plan_id":"cebpf4jnsgd1na2vs0mg"},{"bike_id":"95812071-1d38-4617-a44b-6d68986b8d1a","system_id":"levelo_inurba_marseille","lat":43.304635,"lon":5.379108,"is_reserved":false,"is_disabled":false,"rental_uris":{"android":"levelo://app?vid=95812071-1d38-4617-a44b-6d68986b8d1a","ios":"levelo://app?vid=95812071-1d38-4617-a44b-6d68986b8d1a"},"vehicle_type_id":"4","last_reported":1768475518,"current_range_meters":4400,"station_id":"ce4bgs12rcd13ifvqcag","pricing_plan_id":"cebpf4jnsgd1na2vs0mg"},{"bike_id":"db12235e-29e0-4e51-a3d9-a120f6031f4f","system_id":"levelo_inurba_marseille","lat":43.25581,"lon":5.38242,"is_reserved":false,"is_disabled":false,"rental_uris":{"android":"levelo://app?vid=db12235e-29e0-4e51-a3d9-a120f6031f4f","ios":"levelo://app?vid=db12235e-29e0-4e51-a3d9-a120f6031f4f"},"vehicle_type_id":"4","last_reported":1768475518,"current_range_meters":4400,"station_id":"ce4bhih2rcd13ifvqfs0","pricing_plan_id":"cebpf4jnsgd1na2vs0mg"},{"bike_id":"be751036-e24b-4474-bd4a-02d70e789b3b","system_id":"levelo_inurba_marseille","lat":43.23966,"lon":5.36632,"is_reserved":false,"is_disabled":false,"rental_uris":{"android":"levelo://app?vid=be751036-e24b-4474-bd4a-02d70e789b3b","ios":"levelo://app?vid=be751036-e24b-4474-bd4a-02d70e789b3b"},"vehicle_type_id":"4","last_reported":1768475518,"current_range_meters":4400,"station_id":"ce4bhi12rcd13ifvqfp0","pricing_plan_id":"cebpf4jnsgd1na2vs0mg"},{"bike_id":"571cab1f-364c-4ef9-bc99-09593b8facd9","system_id":"levelo_inurba_marseille","lat":43.29307,"lon":5.37467,"is_reserved":false,"is_disabled":false,"rental_uris":{"android":"levelo://app?vid=571cab1f-364c-4ef9-bc99-09593b8facd9","ios":"levelo://app?vid=571cab1f-364c-4ef9-bc99-09593b8facd9"},"vehicle_type_id":"4","last_reported":1768475518,"current_range_meters":4400,"station_id":"ce4bgi12rcd13ifvqb70","pricing_plan_id":"cebpf4jnsgd1na2vs0mg"},{"bike_id":"e2488757-5ad5-407b-9047-50027e916b17","system_id":"levelo_inurba_marseille","lat":43.27348,"lon":5.39074,"is_reserved":false,"is_disabled":false,"rental_uris":{"android":"levelo://app?vid=e2488757-5ad5-407b-9047-50027e916b17","ios":"levelo://app?vid=e2488757-5ad5-407b-9047-50027e916b17"},"vehicle_type_id":"4","last_reported":1768475518,"current_range_meters":4800,"station_id":"ce4bhgp2rcd13ifvqfe0","pricing_plan_id":"cebpf4jnsgd1na2vs0mg"},{"bike_id":"2f317efe-a01b-468a-9036-21dfc4cc3358","system_id":"levelo_inurba_marseille","lat":43.25819,"lon":5.39409,"is_reserved":false,"is_disabled":false,"rental_uris":{"android":"levelo://app?vid=2f317efe-a01b-468a-9036-21dfc4cc3358","ios":"levelo://app?vid=2f317efe-a01b-468a-9036-21dfc4cc3358"},"vehicle_type_id":"4","last_reported":1768475518,"current_range_meters":4800,"station_id":"ce4bhip2rcd13ifvqft0","pricing_plan_id":"cebpf4jnsgd1na2vs0mg"},{"bike_id":"2a682e48-4901-4884-af44-aaa6a8d2add6","system_id":"levelo_inurba_marseille","lat":43.24081,"lon":5.37765,"is_reserved":false,"is_disabled":false,"rental_uris":{"android":"levelo://app?vid=2a682e48-4901-4884-af44-aaa6a8d2add6","ios":"levelo://app?vid=2a682e48-4901-4884-af44-aaa6a8d2add6"},"vehicle_type_id":"4","last_reported":1768475518,"current_range_meters":4800,"station_id":"ce4bhnp2rcd13ifvqgvg","pricing_plan_id":"cebpf4jnsgd1na2vs0mg"},{"bike_id":"9b891bc7-736a-44ad-92ba-66a9d9da41b7","system_id":"levelo_inurba_marseille","lat":43.26677,"lon":5.38312,"is_reserved":false,"is_disabled":false,"rental_uris":{"android":"levelo://app?vid=9b891bc7-736a-44ad-92ba-66a9d9da41b7","ios":"levelo://app?vid=9b891bc7-736a-44ad-92ba-66a9d9da41b7"},"vehicle_type_id":"4","last_reported":1768475518,"current_range_meters":4800,"station_id":"ce4bhg92rcd13ifvqf90","pricing_plan_id":"cebpf4jnsgd1na2vs0mg"},{"bike_id":"5e8902a6-fa64-462d-a76c-0892b4629f66","system_id":"levelo_inurba_marseille","lat":43.266844,"lon":5.382717,"is_reserved":false,"is_disabled":false,"rental_uris":{"android":"levelo://app?vid=5e8902a6-fa64-462d-a76c-0892b4629f66","ios":"levelo://app?vid=5e8902a6-fa64-462d-a76c-0892b4629f66"},"vehicle_type_id":"4","last_reported":1768475518,"current_range_meters":4800,"station_id":"ce4bhg92rcd13ifvqf90","pricing_plan_id":"cebpf4jnsgd1na2vs0mg"},{"bike_id":"ab4c7e8d-c082-49f2-ad38-3b04b1436978","system_id":"levelo_inurba_marseille","lat":43.22572,"lon":5.41626,"is_reserved":false,"is_disabled":false,"rental_uris":{"android":"levelo://app?vid=ab4c7e8d-c082-49f2-ad38-3b04b1436978","ios":"levelo://app?vid=ab4c7e8d-c082-49f2-ad38-3b04b1436978"},"vehicle_type_id":"4","last_reported":1768475518,"current_range_meters":4800,"station_id":"st_d2o4gvlbi1j2169b742g","pricing_plan_id":"cebpf4jnsgd1na2vs0mg"},{"bike_id":"b16c0fde-3570-452f-a37a-d567538e6b84","system_id":"levelo_inurba_marseille","lat":43.2902,"lon":5.37536,"is_reserved":false,"is_disabled":false,"rental_uris":{"android":"levelo://app?vid=b16c0fde-3570-452f-a37a-d567538e6b84","ios":"levelo://app?vid=b16c0fde-3570-452f-a37a-d567538e6b84"},"vehicle_type_id":"4","last_reported":1768475518,"current_range_meters":4800,"station_id":"ce4bh692rcd13ifvqe90","pricing_plan_id":"cebpf4jnsgd1na2vs0mg"},{"bike_id":"217f9e60-f1e7-41be-9dc3-a689a002ab8d","system_id":"levelo_inurba_marseille","lat":43.243865,"lon":5.370541,"is_reserved":false,"is_disabled":false,"rental_uris":{"android":"levelo://app?vid=217f9e60-f1e7-41be-9dc3-a689a002ab8d","ios":"levelo://app?vid=217f9e60-f1e7-41be-9dc3-a689a002ab8d"},"vehicle_type_id":"4","last_reported":1768475518,"current_range_meters":4800,"station_id":"ce4bhhh2rcd13ifvqfk0","pricing_plan_id":"cebpf4jnsgd1na2vs0mg"},{"bike_id":"699c6bb0-1655-47f0-86fb-78256d649744","system_id":"levelo_inurba_marseille","lat":43.27809,"lon":5.40723,"is_reserved":false,"is_disabled":false,"rental_uris":{"android":"levelo://app?vid=699c6bb0-1655-47f0-86fb-78256d649744","ios":"levelo://app?vid=699c6bb0-1655-47f0-86fb-78256d649744"},"vehicle_type_id":"4","last_reported":1768475518,"current_range_meters":4800,"station_id":"ce4bhnh2rcd13ifvqgtg","pricing_plan_id":"cebpf4jnsgd1na2vs0mg"},{"bike_id":"e76e4329-7113-42cd-be16-ebea4d95fab6","system_id":"levelo_inurba_marseille","lat":43.290922,"lon":5.399738,"is_reserved":false,"is_disabled":false,"rental_uris":{"android":"levelo://app?vid=e76e4329-7113-42cd-be16-ebea4d95fab6","ios":"levelo://app?vid=e76e4329-7113-42cd-be16-ebea4d95fab6"},"vehicle_type_id":"4","last_reported":1768475518,"current_range_meters":4800,"station_id":"ce4bh392rcd13ifvqdm0","pricing_plan_id":"cebpf4jnsgd1na2vs0mg"},{"bike_id":"6d05d8e2-3fcb-4612-b5ef-50514af528e9","system_id":"levelo_inurba_marseille","lat":43.324884,"lon":5.3656,"is_reserved":false,"is_disabled":false,"rental_uris":{"android":"levelo://app?vid=6d05d8e2-3fcb-4612-b5ef-50514af528e9","ios":"levelo://app?vid=6d05d8e2-3fcb-4612-b5ef-50514af528e9"},"vehicle_type_id":"4","last_reported":1768475518,"current_range_meters":5600,"station_id":"ce4bhs12rcd13ifvqhvg","pricing_plan_id":"cebpf4jnsgd1na2vs0mg"},{"bike_id":"c38ce724-bdd8-4fc0-a3d2-a15a2487cee1","system_id":"levelo_inurba_marseille","lat":43.25584,"lon":5.38234,"is_reserved":false,"is_disabled":false,"rental_uris":{"android":"levelo://app?vid=c38ce724-bdd8-4fc0-a3d2-a15a2487cee1","ios":"levelo://app?vid=c38ce724-bdd8-4fc0-a3d2-a15a2487cee1"},"vehicle_type_id":"4","last_reported":1768475518,"current_range_meters":5600,"station_id":"ce4bhih2rcd13ifvqfs0","pricing_plan_id":"cebpf4jnsgd1na2vs0mg"},{"bike_id":"afdeb596-ef40-4bbe-8c30-a9de87911010","system_id":"levelo_inurba_marseille","lat":43.32475,"lon":5.36567,"is_reserved":false,"is_disabled":false,"rental_uris":{"android":"levelo://app?vid=afdeb596-ef40-4bbe-8c30-a9de87911010","ios":"levelo://app?vid=afdeb596-ef40-4bbe-8c30-a9de87911010"},"vehicle_type_id":"4","last_reported":1768475518,"current_range_meters":5600,"station_id":"ce4bhs12rcd13ifvqhvg","pricing_plan_id":"cebpf4jnsgd1na2vs0mg"},{"bike_id":"1f6347a5-19e8-46a2-84f8-0cf775ac3dcd","system_id":"levelo_inurba_marseille","lat":43.26952,"lon":5.38616,"is_reserved":false,"is_disabled":false,"rental_uris":{"android":"levelo://app?vid=1f6347a5-19e8-46a2-84f8-0cf775ac3dcd","ios":"levelo://app?vid=1f6347a5-19e8-46a2-84f8-0cf775ac3dcd"},"vehicle_type_id":"4","last_reported":1768475518,"current_range_meters":5600,"station_id":"ce4bhh92rcd13ifvqfh0","pricing_plan_id":"cebpf4jnsgd1na2vs0mg"},{"bike_id":"e11889a7-dd00-4680-82ad-dc48c0a7f8b9","system_id":"levelo_inurba_marseille","lat":43.25523,"lon":5.37645,"is_reserved":false,"is_disabled":false,"rental_uris":{"android":"levelo://app?vid=e11889a7-dd00-4680-82ad-dc48c0a7f8b9","ios":"levelo://app?vid=e11889a7-dd00-4680-82ad-dc48c0a7f8b9"},"vehicle_type_id":"4","last_reported":1768475518,"current_range_meters":5600,"station_id":"","pricing_plan_id":"cebpf4jnsgd1na2vs0mg"},{"bike_id":"c268cf8a-51b0-4303-95fe-93a93cb73541","system_id":"levelo_inurba_marseille","lat":43.231313,"lon":5.436873,"is_reserved":false,"is_disabled":false,"rental_uris":{"android":"levelo://app?vid=c268cf8a-51b0-4303-95fe-93a93cb73541","ios":"levelo://app?vid=c268cf8a-51b0-4303-95fe-93a93cb73541"},"vehicle_type_id":"4","last_reported":1768475518,"current_range_meters":5600,"station_id":"ce4bhmp2rcd13ifvqgog","pricing_plan_id":"cebpf4jnsgd1na2vs0mg"},{"bike_id":"554c04e7-941a-4c22-b472-97e077e3a312","system_id":"levelo_inurba_marseille","lat":43.301337,"lon":5.403835,"is_reserved":false,"is_disabled":false,"rental_uris":{"android":"levelo://app?vid=554c04e7-941a-4c22-b472-97e077e3a312","ios":"levelo://app?vid=554c04e7-941a-4c22-b472-97e077e3a312"},"vehicle_type_id":"4","last_reported":1768475518,"current_range_meters":5600,"station_id":"","pricing_plan_id":"cebpf4jnsgd1na2vs0mg"},{"bike_id":"fcb68c86-ffd2-420c-85ae-f616f828cbd4","system_id":"levelo_inurba_marseille","lat":43.259301,"lon":5.409153,"is_reserved":false,"is_disabled":false,"rental_uris":{"android":"levelo://app?vid=fcb68c86-ffd2-420c-85ae-f616f828cbd4","ios":"levelo://app?vid=fcb68c86-ffd2-420c-85ae-f616f828cbd4"},"vehicle_type_id":"4","last_reported":1768475518,"current_range_meters":5600,"station_id":"ce4bhm92rcd13ifvqglg","pricing_plan_id":"cebpf4jnsgd1na2vs0mg"},{"bike_id":"6e527d9a-9b2e-4ec4-9b9a-a4160f583068","system_id":"levelo_inurba_marseille","lat":43.312159,"lon":5.368586,"is_reserved":false,"is_disabled":false,"rental_uris":{"android":"levelo://app?vid=6e527d9a-9b2e-4ec4-9b9a-a4160f583068","ios":"levelo://app?vid=6e527d9a-9b2e-4ec4-9b9a-a4160f583068"},"vehicle_type_id":"4","last_reported":1768475518,"current_range_meters":5600,"station_id":"ce4bgl92rcd13ifvqbq0","pricing_plan_id":"cebpf4jnsgd1na2vs0mg"},{"bike_id":"9390b0a6-824d-485d-8383-fe684d9f45ab","system_id":"levelo_inurba_marseille","lat":43.32054,"lon":5.41555,"is_reserved":false,"is_disabled":false,"rental_uris":{"android":"levelo://app?vid=9390b0a6-824d-485d-8383-fe684d9f45ab","ios":"levelo://app?vid=9390b0a6-824d-485d-8383-fe684d9f45ab"},"vehicle_type_id":"4","last_reported":1768475518,"current_range_meters":5600,"station_id":"ce4bhq92rcd13ifvqhkg","pricing_plan_id":"cebpf4jnsgd1na2vs0mg"},{"bike_id":"f54561a1-f05b-428c-b451-6f4083cd97d1","system_id":"levelo_inurba_marseille","lat":43.26372,"lon":5.41091,"is_reserved":false,"is_disabled":false,"rental_uris":{"android":"levelo://app?vid=f54561a1-f05b-428c-b451-6f4083cd97d1","ios":"levelo://app?vid=f54561a1-f05b-428c-b451-6f4083cd97d1"},"vehicle_type_id":"4","last_reported":1768475518,"current_range_meters":5600,"station_id":"st_d4e5ca6na9uc73bfl5fg","pricing_plan_id":"cebpf4jnsgd1na2vs0mg"},{"bike_id":"b3817e2e-cdb9-4c8a-ac4e-2553b766e5fa","system_id":"levelo_inurba_marseille","lat":43.27803,"lon":5.4072,"is_reserved":false,"is_disabled":false,"rental_uris":{"android":"levelo://app?vid=b3817e2e-cdb9-4c8a-ac4e-2553b766e5fa","ios":"levelo://app?vid=b3817e2e-cdb9-4c8a-ac4e-2553b766e5fa"},"vehicle_type_id":"4","last_reported":1768475518,"current_range_meters":6000,"station_id":"ce4bhnh2rcd13ifvqgtg","pricing_plan_id":"cebpf4jnsgd1na2vs0mg"},{"bike_id":"87a1fc3a-bcb6-4a5c-877a-e3a1ba5af635","system_id":"levelo_inurba_marseille","lat":43.2646,"lon":5.39564,"is_reserved":false,"is_disabled":false,"rental_uris":{"android":"levelo://app?vid=87a1fc3a-bcb6-4a5c-877a-e3a1ba5af635","ios":"levelo://app?vid=87a1fc3a-bcb6-4a5c-877a-e3a1ba5af635"},"vehicle_type_id":"4","last_reported":1768475518,"current_range_meters":6000,"station_id":"ce4bhi12rcd13ifvqfq0","pricing_plan_id":"cebpf4jnsgd1na2vs0mg"},{"bike_id":"634a5032-07c2-4ad0-b886-0e21c013fdce","system_id":"levelo_inurba_marseille","lat":43.25565,"lon":5.38242,"is_reserved":false,"is_disabled":false,"rental_uris":{"android":"levelo://app?vid=634a5032-07c2-4ad0-b886-0e21c013fdce","ios":"levelo://app?vid=634a5032-07c2-4ad0-b886-0e21c013fdce"},"vehicle_type_id":"4","last_reported":1768475518,"current_range_meters":6000,"station_id":"ce4bhih2rcd13ifvqfs0","pricing_plan_id":"cebpf4jnsgd1na2vs0mg"},{"bike_id":"d8b52035-9107-4203-ba3b-8ab85229defc","system_id":"levelo_inurba_marseille","lat":43.25627,"lon":5.40029,"is_reserved":false,"is_disabled":false,"rental_uris":{"android":"levelo://app?vid=d8b52035-9107-4203-ba3b-8ab85229defc","ios":"levelo://app?vid=d8b52035-9107-4203-ba3b-8ab85229defc"},"vehicle_type_id":"4","last_reported":1768475518,"current_range_meters":6000,"station_id":"","pricing_plan_id":"cebpf4jnsgd1na2vs0mg"},{"bike_id":"6d5b743f-0d0d-4728-9aac-92cae33bf20c","system_id":"levelo_inurba_marseille","lat":43.2558,"lon":5.38225,"is_reserved":false,"is_disabled":false,"rental_uris":{"android":"levelo://app?vid=6d5b743f-0d0d-4728-9aac-92cae33bf20c","ios":"levelo://app?vid=6d5b743f-0d0d-4728-9aac-92cae33bf20c"},"vehicle_type_id":"4","last_reported":1768475518,"current_range_meters":6000,"station_id":"ce4bhih2rcd13ifvqfs0","pricing_plan_id":"cebpf4jnsgd1na2vs0mg"},{"bike_id":"e952da8e-9048-43f7-9fc2-32c004c50d8a","system_id":"levelo_inurba_marseille","lat":43.24082,"lon":5.37746,"is_reserved":false,"is_disabled":false,"rental_uris":{"android":"levelo://app?vid=e952da8e-9048-43f7-9fc2-32c004c50d8a","ios":"levelo://app?vid=e952da8e-9048-43f7-9fc2-32c004c50d8a"},"vehicle_type_id":"4","last_reported":1768475518,"current_range_meters":6000,"station_id":"ce4bhnp2rcd13ifvqgvg","pricing_plan_id":"cebpf4jnsgd1na2vs0mg"},{"bike_id":"8bfc6f87-ba42-416e-bcc5-a75137158043","system_id":"levelo_inurba_marseille","lat":43.26374,"lon":5.41086,"is_reserved":false,"is_disabled":false,"rental_uris":{"android":"levelo://app?vid=8bfc6f87-ba42-416e-bcc5-a75137158043","ios":"levelo://app?vid=8bfc6f87-ba42-416e-bcc5-a75137158043"},"vehicle_type_id":"4","last_reported":1768475518,"current_range_meters":6000,"station_id":"st_d4e5ca6na9uc73bfl5fg","pricing_plan_id":"cebpf4jnsgd1na2vs0mg"},{"bike_id":"aac02660-451c-4466-97cc-03bd6873da26","system_id":"levelo_inurba_marseille","lat":43.24813,"lon":5.37459,"is_reserved":false,"is_disabled":false,"rental_uris":{"android":"levelo://app?vid=aac02660-451c-4466-97cc-03bd6873da26","ios":"levelo://app?vid=aac02660-451c-4466-97cc-03bd6873da26"},"vehicle_type_id":"4","last_reported":1768475518,"current_range_meters":6000,"station_id":"ce4bhgh2rcd13ifvqfb0","pricing_plan_id":"cebpf4jnsgd1na2vs0mg"},{"bike_id":"3b326f81-b0c4-4b16-a9c9-f528a517d078","system_id":"levelo_inurba_marseille","lat":43.23203,"lon":5.35549,"is_reserved":false,"is_disabled":false,"rental_uris":{"android":"levelo://app?vid=3b326f81-b0c4-4b16-a9c9-f528a517d078","ios":"levelo://app?vid=3b326f81-b0c4-4b16-a9c9-f528a517d078"},"vehicle_type_id":"4","last_reported":1768475518,"current_range_meters":6000,"station_id":"ce4bhu92rcd13ifvqi70","pricing_plan_id":"cebpf4jnsgd1na2vs0mg"},{"bike_id":"6da68625-e4b7-41aa-96a7-da86f228b8ba","system_id":"levelo_inurba_marseille","lat":43.30535,"lon":5.36699,"is_reserved":false,"is_disabled":false,"rental_uris":{"android":"levelo://app?vid=6da68625-e4b7-41aa-96a7-da86f228b8ba","ios":"levelo://app?vid=6da68625-e4b7-41aa-96a7-da86f228b8ba"},"vehicle_type_id":"4","last_reported":1768475518,"current_range_meters":6000,"station_id":"ce4bgrp2rcd13ifvqc9g","pricing_plan_id":"cebpf4jnsgd1na2vs0mg"},{"bike_id":"14add131-a95b-4e57-b3b4-e864603e45d3","system_id":"levelo_inurba_marseille","lat":43.262319,"lon":5.404449,"is_reserved":false,"is_disabled":false,"rental_uris":{"android":"levelo://app?vid=14add131-a95b-4e57-b3b4-e864603e45d3","ios":"levelo://app?vid=14add131-a95b-4e57-b3b4-e864603e45d3"},"vehicle_type_id":"4","last_reported":1768475518,"current_range_meters":6000,"station_id":"ce4bhmh2rcd13ifvqgmg","pricing_plan_id":"cebpf4jnsgd1na2vs0mg"},{"bike_id":"6858eccd-06f5-4b7f-a1b2-97c16452b7d5","system_id":"levelo_inurba_marseille","lat":43.22577,"lon":5.41634,"is_reserved":false,"is_disabled":false,"rental_uris":{"android":"levelo://app?vid=6858eccd-06f5-4b7f-a1b2-97c16452b7d5","ios":"levelo://app?vid=6858eccd-06f5-4b7f-a1b2-97c16452b7d5"},"vehicle_type_id":"4","last_reported":1768475518,"current_range_meters":6000,"station_id":"st_d2o4gvlbi1j2169b742g","pricing_plan_id":"cebpf4jnsgd1na2vs0mg"},{"bike_id":"68ae23aa-b332-4f3e-8a51-bb845df82b9e","system_id":"levelo_inurba_marseille","lat":43.25577,"lon":5.38236,"is_reserved":false,"is_disabled":false,"rental_uris":{"android":"levelo://app?vid=68ae23aa-b332-4f3e-8a51-bb845df82b9e","ios":"levelo://app?vid=68ae23aa-b332-4f3e-8a51-bb845df82b9e"},"vehicle_type_id":"4","last_reported":1768475518,"current_range_meters":6000,"station_id":"","pricing_plan_id":"cebpf4jnsgd1na2vs0mg"},{"bike_id":"10e580fb-3a4d-48aa-a18d-73ca6a776e6c","system_id":"levelo_inurba_marseille","lat":43.26859,"lon":5.40664,"is_reserved":false,"is_disabled":false,"rental_uris":{"android":"levelo://app?vid=10e580fb-3a4d-48aa-a18d-73ca6a776e6c","ios":"levelo://app?vid=10e580fb-3a4d-48aa-a18d-73ca6a776e6c"},"vehicle_type_id":"4","last_reported":1768475518,"current_range_meters":6000,"station_id":"","pricing_plan_id":"cebpf4jnsgd1na2vs0mg"},{"bike_id":"e2496a03-8e3d-4f3e-a650-1cd20b2afc4c","system_id":"levelo_inurba_marseille","lat":43.28459,"lon":5.35891,"is_reserved":false,"is_disabled":false,"rental_uris":{"android":"levelo://app?vid=e2496a03-8e3d-4f3e-a650-1cd20b2afc4c","ios":"levelo://app?vid=e2496a03-8e3d-4f3e-a650-1cd20b2afc4c"},"vehicle_type_id":"4","last_reported":1768475518,"current_range_meters":6000,"station_id":"ce4bhah2rcd13ifvqei0","pricing_plan_id":"cebpf4jnsgd1na2vs0mg"},{"bike_id":"896257ab-e036-460e-8595-b66201be0194","system_id":"levelo_inurba_marseille","lat":43.275,"lon":5.42457,"is_reserved":false,"is_disabled":false,"rental_uris":{"android":"levelo://app?vid=896257ab-e036-460e-8595-b66201be0194","ios":"levelo://app?vid=896257ab-e036-460e-8595-b66201be0194"},"vehicle_type_id":"4","last_reported":1768475518,"current_range_meters":6400,"station_id":"ce4bhn92rcd13ifvqgrg","pricing_plan_id":"cebpf4jnsgd1na2vs0mg"},{"bike_id":"b02e7b3d-bfa1-4a73-bfb4-3a8d24b24cf4","system_id":"levelo_inurba_marseille","lat":43.25507,"lon":5.37657,"is_reserved":false,"is_disabled":false,"rental_uris":{"android":"levelo://app?vid=b02e7b3d-bfa1-4a73-bfb4-3a8d24b24cf4","ios":"levelo://app?vid=b02e7b3d-bfa1-4a73-bfb4-3a8d24b24cf4"},"vehicle_type_id":"4","last_reported":1768475518,"current_range_meters":6400,"station_id":"ce4bhh12rcd13ifvqff0","pricing_plan_id":"cebpf4jnsgd1na2vs0mg"},{"bike_id":"375af674-d438-4255-9b75-ff6fc63ee682","system_id":"levelo_inurba_marseille","lat":43.2466,"lon":5.38158,"is_reserved":false,"is_disabled":false,"rental_uris":{"android":"levelo://app?vid=375af674-d438-4255-9b75-ff6fc63ee682","ios":"levelo://app?vid=375af674-d438-4255-9b75-ff6fc63ee682"},"vehicle_type_id":"4","last_reported":1768475518,"current_range_meters":6400,"station_id":"ce4bhih2rcd13ifvqfr0","pricing_plan_id":"cebpf4jnsgd1na2vs0mg"},{"bike_id":"2bae9f67-b649-4326-9db5-076d835a5d1d","system_id":"levelo_inurba_marseille","lat":43.24645,"lon":5.43185,"is_reserved":false,"is_disabled":false,"rental_uris":{"android":"levelo://app?vid=2bae9f67-b649-4326-9db5-076d835a5d1d","ios":"levelo://app?vid=2bae9f67-b649-4326-9db5-076d835a5d1d"},"vehicle_type_id":"4","last_reported":1768475518,"current_range_meters":6400,"station_id":"st_d2m6c4gdas8pm72e190g","pricing_plan_id":"cebpf4jnsgd1na2vs0mg"},{"bike_id":"d3e16ca1-b369-4c12-a378-ec2fb22e55a7","system_id":"levelo_inurba_marseille","lat":43.29218,"lon":5.3607,"is_reserved":false,"is_disabled":false,"rental_uris":{"android":"levelo://app?vid=d3e16ca1-b369-4c12-a378-ec2fb22e55a7","ios":"levelo://app?vid=d3e16ca1-b369-4c12-a378-ec2fb22e55a7"},"vehicle_type_id":"4","last_reported":1768475518,"current_range_meters":6400,"station_id":"ce4bhbh2rcd13ifvqeqg","pricing_plan_id":"cebpf4jnsgd1na2vs0mg"},{"bike_id":"3838cd4d-7c68-4b09-a88f-b6682996a626","system_id":"levelo_inurba_marseille","lat":43.26227,"lon":5.40456,"is_reserved":false,"is_disabled":false,"rental_uris":{"android":"levelo://app?vid=3838cd4d-7c68-4b09-a88f-b6682996a626","ios":"levelo://app?vid=3838cd4d-7c68-4b09-a88f-b6682996a626"},"vehicle_type_id":"4","last_reported":1768475518,"current_range_meters":6400,"station_id":"ce4bhmh2rcd13ifvqgmg","pricing_plan_id":"cebpf4jnsgd1na2vs0mg"},{"bike_id":"83b24877-4fa1-4cbc-9729-5d9b1f26a09d","system_id":"levelo_inurba_marseille","lat":43.29643,"lon":5.3917,"is_reserved":false,"is_disabled":false,"rental_uris":{"android":"levelo://app?vid=83b24877-4fa1-4cbc-9729-5d9b1f26a09d","ios":"levelo://app?vid=83b24877-4fa1-4cbc-9729-5d9b1f26a09d"},"vehicle_type_id":"4","last_reported":1768475518,"current_range_meters":6400,"station_id":"","pricing_plan_id":"cebpf4jnsgd1na2vs0mg"},{"bike_id":"03bea929-ded9-4f0a-b535-3ced67ddbf39","system_id":"levelo_inurba_marseille","lat":43.24659,"lon":5.43141,"is_reserved":false,"is_disabled":false,"rental_uris":{"android":"levelo://app?vid=03bea929-ded9-4f0a-b535-3ced67ddbf39","ios":"levelo://app?vid=03bea929-ded9-4f0a-b535-3ced67ddbf39"},"vehicle_type_id":"4","last_reported":1768475518,"current_range_meters":6400,"station_id":"st_d2m6c4gdas8pm72e190g","pricing_plan_id":"cebpf4jnsgd1na2vs0mg"},{"bike_id":"5468c630-a3ef-4249-ae77-0e2bb364ec25","system_id":"levelo_inurba_marseille","lat":43.27213,"lon":5.39185,"is_reserved":false,"is_disabled":false,"rental_uris":{"android":"levelo://app?vid=5468c630-a3ef-4249-ae77-0e2bb364ec25","ios":"levelo://app?vid=5468c630-a3ef-4249-ae77-0e2bb364ec25"},"vehicle_type_id":"4","last_reported":1768475518,"current_range_meters":6400,"station_id":"ce4bhhp2rcd13ifvqfm0","pricing_plan_id":"cebpf4jnsgd1na2vs0mg"},{"bike_id":"62f88f8a-2fa4-4dc7-b96b-5613aa23459e","system_id":"levelo_inurba_marseille","lat":43.25013,"lon":5.3893,"is_reserved":false,"is_disabled":false,"rental_uris":{"android":"levelo://app?vid=62f88f8a-2fa4-4dc7-b96b-5613aa23459e","ios":"levelo://app?vid=62f88f8a-2fa4-4dc7-b96b-5613aa23459e"},"vehicle_type_id":"4","last_reported":1768475518,"current_range_meters":6400,"station_id":"ce4bhgp2rcd13ifvqfd0","pricing_plan_id":"cebpf4jnsgd1na2vs0mg"},{"bike_id":"45560b8c-0e05-4e12-aadd-6d4f84ae2310","system_id":"levelo_inurba_marseille","lat":43.2687,"lon":5.38911,"is_reserved":false,"is_disabled":false,"rental_uris":{"android":"levelo://app?vid=45560b8c-0e05-4e12-aadd-6d4f84ae2310","ios":"levelo://app?vid=45560b8c-0e05-4e12-aadd-6d4f84ae2310"},"vehicle_type_id":"4","last_reported":1768475518,"current_range_meters":6400,"station_id":"","pricing_plan_id":"cebpf4jnsgd1na2vs0mg"},{"bike_id":"f1d328ec-8a2c-4647-8162-9531bcbcb299","system_id":"levelo_inurba_marseille","lat":43.24456,"lon":5.41091,"is_reserved":false,"is_disabled":false,"rental_uris":{"android":"levelo://app?vid=f1d328ec-8a2c-4647-8162-9531bcbcb299","ios":"levelo://app?vid=f1d328ec-8a2c-4647-8162-9531bcbcb299"},"vehicle_type_id":"4","last_reported":1768475518,"current_range_meters":6400,"station_id":"","pricing_plan_id":"cebpf4jnsgd1na2vs0mg"},{"bike_id":"c95307b3-da55-428a-9c15-533ff9427e99","system_id":"levelo_inurba_marseille","lat":43.30643,"lon":5.40105,"is_reserved":false,"is_disabled":false,"rental_uris":{"android":"levelo://app?vid=c95307b3-da55-428a-9c15-533ff9427e99","ios":"levelo://app?vid=c95307b3-da55-428a-9c15-533ff9427e99"},"vehicle_type_id":"4","last_reported":1768475518,"current_range_meters":6400,"station_id":"ce4bh112rcd13ifvqda0","pricing_plan_id":"cebpf4jnsgd1na2vs0mg"},{"bike_id":"f26e9a9c-efcf-4817-ad70-c481de1d89b3","system_id":"levelo_inurba_marseille","lat":43.2621,"lon":5.37448,"is_reserved":false,"is_disabled":false,"rental_uris":{"android":"levelo://app?vid=f26e9a9c-efcf-4817-ad70-c481de1d89b3","ios":"levelo://app?vid=f26e9a9c-efcf-4817-ad70-c481de1d89b3"},"vehicle_type_id":"4","last_reported":1768475518,"current_range_meters":6800,"station_id":"ce4bhgp2rcd13ifvqfc0","pricing_plan_id":"cebpf4jnsgd1na2vs0mg"},{"bike_id":"5cfd03cf-24a1-4762-9fb7-26a053abe44f","system_id":"levelo_inurba_marseille","lat":43.25833,"lon":5.39444,"is_reserved":false,"is_disabled":false,"rental_uris":{"android":"levelo://app?vid=5cfd03cf-24a1-4762-9fb7-26a053abe44f","ios":"levelo://app?vid=5cfd03cf-24a1-4762-9fb7-26a053abe44f"},"vehicle_type_id":"4","last_reported":1768475518,"current_range_meters":6800,"station_id":"ce4bhip2rcd13ifvqft0","pricing_plan_id":"cebpf4jnsgd1na2vs0mg"},{"bike_id":"a3a68054-3a27-4a78-8534-42fd98fd0061","system_id":"levelo_inurba_marseille","lat":43.25607,"lon":5.38247,"is_reserved":false,"is_disabled":false,"rental_uris":{"android":"levelo://app?vid=a3a68054-3a27-4a78-8534-42fd98fd0061","ios":"levelo://app?vid=a3a68054-3a27-4a78-8534-42fd98fd0061"},"vehicle_type_id":"4","last_reported":1768475518,"current_range_meters":6800,"station_id":"ce4bhih2rcd13ifvqfs0","pricing_plan_id":"cebpf4jnsgd1na2vs0mg"},{"bike_id":"b51c6372-d6f8-4f60-88ea-74da3246daef","system_id":"levelo_inurba_marseille","lat":43.28832,"lon":5.358,"is_reserved":false,"is_disabled":false,"rental_uris":{"android":"levelo://app?vid=b51c6372-d6f8-4f60-88ea-74da3246daef","ios":"levelo://app?vid=b51c6372-d6f8-4f60-88ea-74da3246daef"},"vehicle_type_id":"4","last_reported":1768475518,"current_range_meters":6800,"station_id":"ce4bhb12rcd13ifvqem0","pricing_plan_id":"cebpf4jnsgd1na2vs0mg"},{"bike_id":"027c6635-f334-4e8c-88a0-e51b1cef62a5","system_id":"levelo_inurba_marseille","lat":43.26688,"lon":5.38296,"is_reserved":false,"is_disabled":true,"rental_uris":{"android":"levelo://app?vid=027c6635-f334-4e8c-88a0-e51b1cef62a5","ios":"levelo://app?vid=027c6635-f334-4e8c-88a0-e51b1cef62a5"},"vehicle_type_id":"4","last_reported":1768475518,"current_range_meters":6800,"station_id":"ce4bhg92rcd13ifvqf90","pricing_plan_id":"cebpf4jnsgd1na2vs0mg"},{"bike_id":"d0dffef8-5c68-4bcb-80c5-7577fa8397ae","system_id":"levelo_inurba_marseille","lat":43.24658,"lon":5.38159,"is_reserved":false,"is_disabled":false,"rental_uris":{"android":"levelo://app?vid=d0dffef8-5c68-4bcb-80c5-7577fa8397ae","ios":"levelo://app?vid=d0dffef8-5c68-4bcb-80c5-7577fa8397ae"},"vehicle_type_id":"4","last_reported":1768475518,"current_range_meters":6800,"station_id":"ce4bhih2rcd13ifvqfr0","pricing_plan_id":"cebpf4jnsgd1na2vs0mg"},{"bike_id":"6a58205b-7c0d-4494-8bfa-49023b410d01","system_id":"levelo_inurba_marseille","lat":43.29044,"lon":5.3997,"is_reserved":false,"is_disabled":false,"rental_uris":{"android":"levelo://app?vid=6a58205b-7c0d-4494-8bfa-49023b410d01","ios":"levelo://app?vid=6a58205b-7c0d-4494-8bfa-49023b410d01"},"vehicle_type_id":"4","last_reported":1768475518,"current_range_meters":6800,"station_id":"ce4bh392rcd13ifvqdm0","pricing_plan_id":"cebpf4jnsgd1na2vs0mg"},{"bike_id":"f9fdbb48-1798-4538-9bda-de4b35ab0ad4","system_id":"levelo_inurba_marseille","lat":43.28139,"lon":5.38323,"is_reserved":false,"is_disabled":false,"rental_uris":{"android":"levelo://app?vid=f9fdbb48-1798-4538-9bda-de4b35ab0ad4","ios":"levelo://app?vid=f9fdbb48-1798-4538-9bda-de4b35ab0ad4"},"vehicle_type_id":"4","last_reported":1768475518,"current_range_meters":6800,"station_id":"","pricing_plan_id":"cebpf4jnsgd1na2vs0mg"},{"bike_id":"36d15c95-0df2-4ad9-802a-9cdd70f9d16d","system_id":"levelo_inurba_marseille","lat":43.240748,"lon":5.377603,"is_reserved":false,"is_disabled":false,"rental_uris":{"android":"levelo://app?vid=36d15c95-0df2-4ad9-802a-9cdd70f9d16d","ios":"levelo://app?vid=36d15c95-0df2-4ad9-802a-9cdd70f9d16d"},"vehicle_type_id":"4","last_reported":1768475518,"current_range_meters":6800,"station_id":"ce4bhnp2rcd13ifvqgvg","pricing_plan_id":"cebpf4jnsgd1na2vs0mg"},{"bike_id":"b5ad29a0-462d-4d07-9a18-d87946a4398c","system_id":"levelo_inurba_marseille","lat":43.31146,"lon":5.38057,"is_reserved":false,"is_disabled":false,"rental_uris":{"android":"levelo://app?vid=b5ad29a0-462d-4d07-9a18-d87946a4398c","ios":"levelo://app?vid=b5ad29a0-462d-4d07-9a18-d87946a4398c"},"vehicle_type_id":"4","last_reported":1768475518,"current_range_meters":6800,"station_id":"","pricing_plan_id":"cebpf4jnsgd1na2vs0mg"},{"bike_id":"d78a48ea-39a0-4d9b-b0e7-f144e9acb1ee","system_id":"levelo_inurba_marseille","lat":43.25517,"lon":5.37655,"is_reserved":false,"is_disabled":false,"rental_uris":{"android":"levelo://app?vid=d78a48ea-39a0-4d9b-b0e7-f144e9acb1ee","ios":"levelo://app?vid=d78a48ea-39a0-4d9b-b0e7-f144e9acb1ee"},"vehicle_type_id":"4","last_reported":1768475518,"current_range_meters":6800,"station_id":"ce4bhh12rcd13ifvqff0","pricing_plan_id":"cebpf4jnsgd1na2vs0mg"},{"bike_id":"54ae17d3-f972-4236-b447-fa76bd8f3f82","system_id":"levelo_inurba_marseille","lat":43.24827,"lon":5.37464,"is_reserved":false,"is_disabled":false,"rental_uris":{"android":"levelo://app?vid=54ae17d3-f972-4236-b447-fa76bd8f3f82","ios":"levelo://app?vid=54ae17d3-f972-4236-b447-fa76bd8f3f82"},"vehicle_type_id":"4","last_reported":1768475518,"current_range_meters":7200,"station_id":"ce4bhgh2rcd13ifvqfb0","pricing_plan_id":"cebpf4jnsgd1na2vs0mg"},{"bike_id":"c03cd309-c737-47c4-a7e9-06a2667d9dfa","system_id":"levelo_inurba_marseille","lat":43.28528,"lon":5.44095,"is_reserved":false,"is_disabled":false,"rental_uris":{"android":"levelo://app?vid=c03cd309-c737-47c4-a7e9-06a2667d9dfa","ios":"levelo://app?vid=c03cd309-c737-47c4-a7e9-06a2667d9dfa"},"vehicle_type_id":"4","last_reported":1768475518,"current_range_meters":7200,"station_id":"st_d3j3df2ikq2c7380ej80","pricing_plan_id":"cebpf4jnsgd1na2vs0mg"},{"bike_id":"5c9cf652-9ff1-4da0-9873-4f32753db2aa","system_id":"levelo_inurba_marseille","lat":43.27179,"lon":5.40958,"is_reserved":false,"is_disabled":false,"rental_uris":{"android":"levelo://app?vid=5c9cf652-9ff1-4da0-9873-4f32753db2aa","ios":"levelo://app?vid=5c9cf652-9ff1-4da0-9873-4f32753db2aa"},"vehicle_type_id":"4","last_reported":1768475518,"current_range_meters":7200,"station_id":"ce4bhl12rcd13ifvqgf0","pricing_plan_id":"cebpf4jnsgd1na2vs0mg"},{"bike_id":"b55171e8-d457-4f60-ac77-c9b4a651d7d7","system_id":"levelo_inurba_marseille","lat":43.28215,"lon":5.39063,"is_reserved":false,"is_disabled":false,"rental_uris":{"android":"levelo://app?vid=b55171e8-d457-4f60-ac77-c9b4a651d7d7","ios":"levelo://app?vid=b55171e8-d457-4f60-ac77-c9b4a651d7d7"},"vehicle_type_id":"4","last_reported":1768475518,"current_range_meters":7200,"station_id":"ce4bhn92rcd13ifvqgsg","pricing_plan_id":"cebpf4jnsgd1na2vs0mg"},{"bike_id":"2886d616-1dd9-4ef7-9589-fdd0a1596c30","system_id":"levelo_inurba_marseille","lat":43.28565,"lon":5.3951,"is_reserved":false,"is_disabled":false,"rental_uris":{"android":"levelo://app?vid=2886d616-1dd9-4ef7-9589-fdd0a1596c30","ios":"levelo://app?vid=2886d616-1dd9-4ef7-9589-fdd0a1596c30"},"vehicle_type_id":"4","last_reported":1768475518,"current_range_meters":7200,"station_id":"ce4bh292rcd13ifvqdg0","pricing_plan_id":"cebpf4jnsgd1na2vs0mg"},{"bike_id":"6f5bac51-1804-4cd4-beeb-e05c41221d16","system_id":"levelo_inurba_marseille","lat":43.30533,"lon":5.3672,"is_reserved":false,"is_disabled":false,"rental_uris":{"android":"levelo://app?vid=6f5bac51-1804-4cd4-beeb-e05c41221d16","ios":"levelo://app?vid=6f5bac51-1804-4cd4-beeb-e05c41221d16"},"vehicle_type_id":"4","last_reported":1768475518,"current_range_meters":7200,"station_id":"ce4bgrp2rcd13ifvqc9g","pricing_plan_id":"cebpf4jnsgd1na2vs0mg"},{"bike_id":"bc05764b-2136-45ba-8d47-48a061c67081","system_id":"levelo_inurba_marseille","lat":43.32543,"lon":5.41438,"is_reserved":false,"is_disabled":false,"rental_uris":{"android":"levelo://app?vid=bc05764b-2136-45ba-8d47-48a061c67081","ios":"levelo://app?vid=bc05764b-2136-45ba-8d47-48a061c67081"},"vehicle_type_id":"4","last_reported":1768475518,"current_range_meters":7200,"station_id":"ce4bhq12rcd13ifvqhhg","pricing_plan_id":"cebpf4jnsgd1na2vs0mg"},{"bike_id":"90c64ab6-178d-435d-a653-927559c34206","system_id":"levelo_inurba_marseille","lat":43.28288,"lon":5.35062,"is_reserved":false,"is_disabled":false,"rental_uris":{"android":"levelo://app?vid=90c64ab6-178d-435d-a653-927559c34206","ios":"levelo://app?vid=90c64ab6-178d-435d-a653-927559c34206"},"vehicle_type_id":"4","last_reported":1768475518,"current_range_meters":7200,"station_id":"ce4bhbp2rcd13ifvqerg","pricing_plan_id":"cebpf4jnsgd1na2vs0mg"},{"bike_id":"1b6ddb5f-ae74-40e4-a07a-d0ca8346f17a","system_id":"levelo_inurba_marseille","lat":43.2406,"lon":5.3776,"is_reserved":false,"is_disabled":false,"rental_uris":{"android":"levelo://app?vid=1b6ddb5f-ae74-40e4-a07a-d0ca8346f17a","ios":"levelo://app?vid=1b6ddb5f-ae74-40e4-a07a-d0ca8346f17a"},"vehicle_type_id":"4","last_reported":1768475518,"current_range_meters":7200,"station_id":"ce4bhnp2rcd13ifvqgvg","pricing_plan_id":"cebpf4jnsgd1na2vs0mg"},{"bike_id":"b16db95a-1eae-47ad-b2e3-882874b3d4d4","system_id":"levelo_inurba_marseille","lat":43.28474,"lon":5.48401,"is_reserved":false,"is_disabled":false,"rental_uris":{"android":"levelo://app?vid=b16db95a-1eae-47ad-b2e3-882874b3d4d4","ios":"levelo://app?vid=b16db95a-1eae-47ad-b2e3-882874b3d4d4"},"vehicle_type_id":"4","last_reported":1768475518,"current_range_meters":7200,"station_id":"st_d3svhcjqgbts73a3dn0g","pricing_plan_id":"cebpf4jnsgd1na2vs0mg"},{"bike_id":"23694f2c-b2d4-4d58-b373-d1c7186e4244","system_id":"levelo_inurba_marseille","lat":43.29767,"lon":5.42758,"is_reserved":false,"is_disabled":false,"rental_uris":{"android":"levelo://app?vid=23694f2c-b2d4-4d58-b373-d1c7186e4244","ios":"levelo://app?vid=23694f2c-b2d4-4d58-b373-d1c7186e4244"},"vehicle_type_id":"4","last_reported":1768475518,"current_range_meters":7200,"station_id":"st_d3md5207bmas73dh9klg","pricing_plan_id":"cebpf4jnsgd1na2vs0mg"},{"bike_id":"153daeb6-1ced-443a-8511-9ccae5c5d53f","system_id":"levelo_inurba_marseille","lat":43.3175,"lon":5.3758,"is_reserved":false,"is_disabled":false,"rental_uris":{"android":"levelo://app?vid=153daeb6-1ced-443a-8511-9ccae5c5d53f","ios":"levelo://app?vid=153daeb6-1ced-443a-8511-9ccae5c5d53f"},"vehicle_type_id":"4","last_reported":1768475518,"current_range_meters":7200,"station_id":"","pricing_plan_id":"cebpf4jnsgd1na2vs0mg"},{"bike_id":"bd62ccbb-e2ae-4ab7-ae4c-e58d24e25c58","system_id":"levelo_inurba_marseille","lat":43.313623,"lon":5.384914,"is_reserved":false,"is_disabled":false,"rental_uris":{"android":"levelo://app?vid=bd62ccbb-e2ae-4ab7-ae4c-e58d24e25c58","ios":"levelo://app?vid=bd62ccbb-e2ae-4ab7-ae4c-e58d24e25c58"},"vehicle_type_id":"4","last_reported":1768475518,"current_range_meters":7200,"station_id":"ce4bgt92rcd13ifvqcf0","pricing_plan_id":"cebpf4jnsgd1na2vs0mg"},{"bike_id":"1c9762d0-99c2-407e-affd-fe0880429a32","system_id":"levelo_inurba_marseille","lat":43.24631,"lon":5.43162,"is_reserved":false,"is_disabled":false,"rental_uris":{"android":"levelo://app?vid=1c9762d0-99c2-407e-affd-fe0880429a32","ios":"levelo://app?vid=1c9762d0-99c2-407e-affd-fe0880429a32"},"vehicle_type_id":"4","last_reported":1768475518,"current_range_meters":7200,"station_id":"st_d2m6c4gdas8pm72e190g","pricing_plan_id":"cebpf4jnsgd1na2vs0mg"},{"bike_id":"1101d0d5-0629-4ad1-91b4-fe8c7892e906","system_id":"levelo_inurba_marseille","lat":43.282,"lon":5.39072,"is_reserved":false,"is_disabled":false,"rental_uris":{"android":"levelo://app?vid=1101d0d5-0629-4ad1-91b4-fe8c7892e906","ios":"levelo://app?vid=1101d0d5-0629-4ad1-91b4-fe8c7892e906"},"vehicle_type_id":"4","last_reported":1768475518,"current_range_meters":7200,"station_id":"ce4bhn92rcd13ifvqgsg","pricing_plan_id":"cebpf4jnsgd1na2vs0mg"},{"bike_id":"1647898a-7e44-47a9-947d-d61611f1f7c8","system_id":"levelo_inurba_marseille","lat":43.23969,"lon":5.36609,"is_reserved":false,"is_disabled":false,"rental_uris":{"android":"levelo://app?vid=1647898a-7e44-47a9-947d-d61611f1f7c8","ios":"levelo://app?vid=1647898a-7e44-47a9-947d-d61611f1f7c8"},"vehicle_type_id":"4","last_reported":1768475518,"current_range_meters":7200,"station_id":"ce4bhi12rcd13ifvqfp0","pricing_plan_id":"cebpf4jnsgd1na2vs0mg"},{"bike_id":"1219abf5-dc5f-4753-a4ad-66106b94991e","system_id":"levelo_inurba_marseille","lat":43.290818,"lon":5.371661,"is_reserved":false,"is_disabled":false,"rental_uris":{"android":"levelo://app?vid=1219abf5-dc5f-4753-a4ad-66106b94991e","ios":"levelo://app?vid=1219abf5-dc5f-4753-a4ad-66106b94991e"},"vehicle_type_id":"4","last_reported":1768475518,"current_range_meters":7200,"station_id":"ce4bh5p2rcd13ifvqe4g","pricing_plan_id":"cebpf4jnsgd1na2vs0mg"},{"bike_id":"18bad80f-7f5e-41cb-9735-a8241c24f0e1","system_id":"levelo_inurba_marseille","lat":43.30551,"lon":5.36715,"is_reserved":false,"is_disabled":false,"rental_uris":{"android":"levelo://app?vid=18bad80f-7f5e-41cb-9735-a8241c24f0e1","ios":"levelo://app?vid=18bad80f-7f5e-41cb-9735-a8241c24f0e1"},"vehicle_type_id":"4","last_reported":1768475518,"current_range_meters":7200,"station_id":"ce4bgrp2rcd13ifvqc9g","pricing_plan_id":"cebpf4jnsgd1na2vs0mg"},{"bike_id":"bbca5a78-1ee0-4dab-ba7e-f05d9beea402","system_id":"levelo_inurba_marseille","lat":43.24471,"lon":5.4254,"is_reserved":false,"is_disabled":false,"rental_uris":{"android":"levelo://app?vid=bbca5a78-1ee0-4dab-ba7e-f05d9beea402","ios":"levelo://app?vid=bbca5a78-1ee0-4dab-ba7e-f05d9beea402"},"vehicle_type_id":"4","last_reported":1768475518,"current_range_meters":7200,"station_id":"st_d4a3vfp97mjs738cd8kg","pricing_plan_id":"cebpf4jnsgd1na2vs0mg"},{"bike_id":"d2b73451-12f0-496a-b396-840ef1c7bc9a","system_id":"levelo_inurba_marseille","lat":43.29024,"lon":5.37574,"is_reserved":false,"is_disabled":false,"rental_uris":{"android":"levelo://app?vid=d2b73451-12f0-496a-b396-840ef1c7bc9a","ios":"levelo://app?vid=d2b73451-12f0-496a-b396-840ef1c7bc9a"},"vehicle_type_id":"4","last_reported":1768475518,"current_range_meters":7200,"station_id":"ce4bh692rcd13ifvqe90","pricing_plan_id":"cebpf4jnsgd1na2vs0mg"},{"bike_id":"c2363ba3-644f-497c-984f-a69dd5e93016","system_id":"levelo_inurba_marseille","lat":43.33018,"lon":5.39037,"is_reserved":false,"is_disabled":false,"rental_uris":{"android":"levelo://app?vid=c2363ba3-644f-497c-984f-a69dd5e93016","ios":"levelo://app?vid=c2363ba3-644f-497c-984f-a69dd5e93016"},"vehicle_type_id":"4","last_reported":1768475518,"current_range_meters":7200,"station_id":"ce4bhr92rcd13ifvqhrg","pricing_plan_id":"cebpf4jnsgd1na2vs0mg"},{"bike_id":"0cdf751e-50be-4213-adcd-ec4933b84284","system_id":"levelo_inurba_marseille","lat":43.28535,"lon":5.44115,"is_reserved":false,"is_disabled":false,"rental_uris":{"android":"levelo://app?vid=0cdf751e-50be-4213-adcd-ec4933b84284","ios":"levelo://app?vid=0cdf751e-50be-4213-adcd-ec4933b84284"},"vehicle_type_id":"4","last_reported":1768475518,"current_range_meters":8000,"station_id":"st_d3j3df2ikq2c7380ej80","pricing_plan_id":"cebpf4jnsgd1na2vs0mg"},{"bike_id":"b64b455e-be80-42fe-9f2c-680efd02c86b","system_id":"levelo_inurba_marseille","lat":43.28532,"lon":5.44107,"is_reserved":false,"is_disabled":false,"rental_uris":{"android":"levelo://app?vid=b64b455e-be80-42fe-9f2c-680efd02c86b","ios":"levelo://app?vid=b64b455e-be80-42fe-9f2c-680efd02c86b"},"vehicle_type_id":"4","last_reported":1768475518,"current_range_meters":8000,"station_id":"st_d3j3df2ikq2c7380ej80","pricing_plan_id":"cebpf4jnsgd1na2vs0mg"},{"bike_id":"b5f3a7b4-877b-4095-9b3e-ef56fafc41e3","system_id":"levelo_inurba_marseille","lat":43.26685,"lon":5.38266,"is_reserved":false,"is_disabled":false,"rental_uris":{"android":"levelo://app?vid=b5f3a7b4-877b-4095-9b3e-ef56fafc41e3","ios":"levelo://app?vid=b5f3a7b4-877b-4095-9b3e-ef56fafc41e3"},"vehicle_type_id":"4","last_reported":1768475518,"current_range_meters":8000,"station_id":"ce4bhg92rcd13ifvqf90","pricing_plan_id":"cebpf4jnsgd1na2vs0mg"},{"bike_id":"b0af1aeb-c4d6-4641-bc9e-da7e6c1db235","system_id":"levelo_inurba_marseille","lat":43.3212,"lon":5.36757,"is_reserved":false,"is_disabled":false,"rental_uris":{"android":"levelo://app?vid=b0af1aeb-c4d6-4641-bc9e-da7e6c1db235","ios":"levelo://app?vid=b0af1aeb-c4d6-4641-bc9e-da7e6c1db235"},"vehicle_type_id":"4","last_reported":1768475518,"current_range_meters":8000,"station_id":"ce4bhrh2rcd13ifvqhug","pricing_plan_id":"cebpf4jnsgd1na2vs0mg"},{"bike_id":"9c685001-059a-497e-a588-12877963d9ac","system_id":"levelo_inurba_marseille","lat":43.31055,"lon":5.38355,"is_reserved":false,"is_disabled":true,"rental_uris":{"android":"levelo://app?vid=9c685001-059a-497e-a588-12877963d9ac","ios":"levelo://app?vid=9c685001-059a-497e-a588-12877963d9ac"},"vehicle_type_id":"4","last_reported":1768475518,"current_range_meters":8000,"station_id":"ce4bgv92rcd13ifvqcr0","pricing_plan_id":"cebpf4jnsgd1na2vs0mg"},{"bike_id":"de053820-f473-4d4f-8be6-7eb46f3d1ea3","system_id":"levelo_inurba_marseille","lat":43.31027,"lon":5.39336,"is_reserved":false,"is_disabled":false,"rental_uris":{"android":"levelo://app?vid=de053820-f473-4d4f-8be6-7eb46f3d1ea3","ios":"levelo://app?vid=de053820-f473-4d4f-8be6-7eb46f3d1ea3"},"vehicle_type_id":"4","last_reported":1768475518,"current_range_meters":8000,"station_id":"","pricing_plan_id":"cebpf4jnsgd1na2vs0mg"},{"bike_id":"2c6fec2d-af2d-409a-8263-16905602afd6","system_id":"levelo_inurba_marseille","lat":43.31778,"lon":5.39004,"is_reserved":false,"is_disabled":false,"rental_uris":{"android":"levelo://app?vid=2c6fec2d-af2d-409a-8263-16905602afd6","ios":"levelo://app?vid=2c6fec2d-af2d-409a-8263-16905602afd6"},"vehicle_type_id":"4","last_reported":1768475518,"current_range_meters":8000,"station_id":"ce4bhl92rcd13ifvqghg","pricing_plan_id":"cebpf4jnsgd1na2vs0mg"},{"bike_id":"24395efb-a997-4494-bcc1-e1dfa17547b3","system_id":"levelo_inurba_marseille","lat":43.22934,"lon":5.35386,"is_reserved":false,"is_disabled":false,"rental_uris":{"android":"levelo://app?vid=24395efb-a997-4494-bcc1-e1dfa17547b3","ios":"levelo://app?vid=24395efb-a997-4494-bcc1-e1dfa17547b3"},"vehicle_type_id":"4","last_reported":1768475518,"current_range_meters":8000,"station_id":"cpo3532slgdg3j2ikp40","pricing_plan_id":"cebpf4jnsgd1na2vs0mg"},{"bike_id":"39f14260-d9f0-421d-90db-7c838c56d300","system_id":"levelo_inurba_marseille","lat":43.305664,"lon":5.365706,"is_reserved":false,"is_disabled":false,"rental_uris":{"android":"levelo://app?vid=39f14260-d9f0-421d-90db-7c838c56d300","ios":"levelo://app?vid=39f14260-d9f0-421d-90db-7c838c56d300"},"vehicle_type_id":"4","last_reported":1768475518,"current_range_meters":8000,"station_id":"ce4bgs12rcd13ifvqcag","pricing_plan_id":"cebpf4jnsgd1na2vs0mg"},{"bike_id":"9c05b402-e2ee-48d4-95f4-d4c7aaea64f3","system_id":"levelo_inurba_marseille","lat":43.29293,"lon":5.37183,"is_reserved":false,"is_disabled":false,"rental_uris":{"android":"levelo://app?vid=9c05b402-e2ee-48d4-95f4-d4c7aaea64f3","ios":"levelo://app?vid=9c05b402-e2ee-48d4-95f4-d4c7aaea64f3"},"vehicle_type_id":"4","last_reported":1768475518,"current_range_meters":8000,"station_id":"ce4bgh92rcd13ifvqb40","pricing_plan_id":"cebpf4jnsgd1na2vs0mg"},{"bike_id":"b0591438-4f8b-458b-95d3-396e832bb098","system_id":"levelo_inurba_marseille","lat":43.22557,"lon":5.41624,"is_reserved":false,"is_disabled":false,"rental_uris":{"android":"levelo://app?vid=b0591438-4f8b-458b-95d3-396e832bb098","ios":"levelo://app?vid=b0591438-4f8b-458b-95d3-396e832bb098"},"vehicle_type_id":"4","last_reported":1768475518,"current_range_meters":8000,"station_id":"st_d2o4gvlbi1j2169b742g","pricing_plan_id":"cebpf4jnsgd1na2vs0mg"},{"bike_id":"445e6bb7-48c9-49a6-8c05-3a71a09b12a5","system_id":"levelo_inurba_marseille","lat":43.24113,"lon":5.37735,"is_reserved":false,"is_disabled":false,"rental_uris":{"android":"levelo://app?vid=445e6bb7-48c9-49a6-8c05-3a71a09b12a5","ios":"levelo://app?vid=445e6bb7-48c9-49a6-8c05-3a71a09b12a5"},"vehicle_type_id":"4","last_reported":1768475518,"current_range_meters":8000,"station_id":"ce4bhnp2rcd13ifvqgvg","pricing_plan_id":"cebpf4jnsgd1na2vs0mg"},{"bike_id":"8bc45254-6f0f-43bd-8e6f-6be6f5d1a38c","system_id":"levelo_inurba_marseille","lat":43.279618,"lon":5.38731,"is_reserved":false,"is_disabled":false,"rental_uris":{"android":"levelo://app?vid=8bc45254-6f0f-43bd-8e6f-6be6f5d1a38c","ios":"levelo://app?vid=8bc45254-6f0f-43bd-8e6f-6be6f5d1a38c"},"vehicle_type_id":"4","last_reported":1768475518,"current_range_meters":8000,"station_id":"ce4bhg12rcd13ifvqf80","pricing_plan_id":"cebpf4jnsgd1na2vs0mg"},{"bike_id":"52ae988a-2fe9-4317-90ca-3ebff3e2b898","system_id":"levelo_inurba_marseille","lat":43.26573,"lon":5.3901,"is_reserved":false,"is_disabled":false,"rental_uris":{"android":"levelo://app?vid=52ae988a-2fe9-4317-90ca-3ebff3e2b898","ios":"levelo://app?vid=52ae988a-2fe9-4317-90ca-3ebff3e2b898"},"vehicle_type_id":"4","last_reported":1768475518,"current_range_meters":8000,"station_id":"ce4bhe12rcd13ifvqf30","pricing_plan_id":"cebpf4jnsgd1na2vs0mg"},{"bike_id":"8e2a1948-6333-4ed5-97a8-4616503a3850","system_id":"levelo_inurba_marseille","lat":43.26673,"lon":5.38318,"is_reserved":false,"is_disabled":false,"rental_uris":{"android":"levelo://app?vid=8e2a1948-6333-4ed5-97a8-4616503a3850","ios":"levelo://app?vid=8e2a1948-6333-4ed5-97a8-4616503a3850"},"vehicle_type_id":"4","last_reported":1768475518,"current_range_meters":8000,"station_id":"ce4bhg92rcd13ifvqf90","pricing_plan_id":"cebpf4jnsgd1na2vs0mg"},{"bike_id":"6131ff9c-0a3d-4ffc-97ab-c5b68cebcec5","system_id":"levelo_inurba_marseille","lat":43.3055,"lon":5.38427,"is_reserved":false,"is_disabled":false,"rental_uris":{"android":"levelo://app?vid=6131ff9c-0a3d-4ffc-97ab-c5b68cebcec5","ios":"levelo://app?vid=6131ff9c-0a3d-4ffc-97ab-c5b68cebcec5"},"vehicle_type_id":"4","last_reported":1768475518,"current_range_meters":8000,"station_id":"ce4bgg92rcd13ifvqb30","pricing_plan_id":"cebpf4jnsgd1na2vs0mg"},{"bike_id":"0d6bc988-c343-451c-b163-1b5232525980","system_id":"levelo_inurba_marseille","lat":43.30385,"lon":5.42532,"is_reserved":false,"is_disabled":false,"rental_uris":{"android":"levelo://app?vid=0d6bc988-c343-451c-b163-1b5232525980","ios":"levelo://app?vid=0d6bc988-c343-451c-b163-1b5232525980"},"vehicle_type_id":"4","last_reported":1768475518,"current_range_meters":8000,"station_id":"ce4bhoh2rcd13ifvqh6g","pricing_plan_id":"cebpf4jnsgd1na2vs0mg"},{"bike_id":"6baed87d-c126-4bcc-900a-31be14aad376","system_id":"levelo_inurba_marseille","lat":43.24077,"lon":5.37754,"is_reserved":false,"is_disabled":false,"rental_uris":{"android":"levelo://app?vid=6baed87d-c126-4bcc-900a-31be14aad376","ios":"levelo://app?vid=6baed87d-c126-4bcc-900a-31be14aad376"},"vehicle_type_id":"4","last_reported":1768475518,"current_range_meters":8000,"station_id":"ce4bhnp2rcd13ifvqgvg","pricing_plan_id":"cebpf4jnsgd1na2vs0mg"},{"bike_id":"41228c21-f2a4-4778-ac23-94d962021708","system_id":"levelo_inurba_marseille","lat":43.24084,"lon":5.37748,"is_reserved":false,"is_disabled":false,"rental_uris":{"android":"levelo://app?vid=41228c21-f2a4-4778-ac23-94d962021708","ios":"levelo://app?vid=41228c21-f2a4-4778-ac23-94d962021708"},"vehicle_type_id":"4","last_reported":1768475518,"current_range_meters":8000,"station_id":"ce4bhnp2rcd13ifvqgvg","pricing_plan_id":"cebpf4jnsgd1na2vs0mg"},{"bike_id":"766b6315-d0e9-4f21-99cc-ac73caf0d81f","system_id":"levelo_inurba_marseille","lat":43.2678,"lon":5.39445,"is_reserved":false,"is_disabled":false,"rental_uris":{"android":"levelo://app?vid=766b6315-d0e9-4f21-99cc-ac73caf0d81f","ios":"levelo://app?vid=766b6315-d0e9-4f21-99cc-ac73caf0d81f"},"vehicle_type_id":"4","last_reported":1768475518,"current_range_meters":8000,"station_id":"ce4bhh12rcd13ifvqfg0","pricing_plan_id":"cebpf4jnsgd1na2vs0mg"},{"bike_id":"3b0aee46-29c5-43ec-8462-8fb48a443b5d","system_id":"levelo_inurba_marseille","lat":43.31348,"lon":5.3679,"is_reserved":false,"is_disabled":false,"rental_uris":{"android":"levelo://app?vid=3b0aee46-29c5-43ec-8462-8fb48a443b5d","ios":"levelo://app?vid=3b0aee46-29c5-43ec-8462-8fb48a443b5d"},"vehicle_type_id":"4","last_reported":1768475518,"current_range_meters":8000,"station_id":"","pricing_plan_id":"cebpf4jnsgd1na2vs0mg"},{"bike_id":"d14c563e-7d81-4312-b6b2-f8e7e772a5f6","system_id":"levelo_inurba_marseille","lat":43.24466,"lon":5.42534,"is_reserved":false,"is_disabled":false,"rental_uris":{"android":"levelo://app?vid=d14c563e-7d81-4312-b6b2-f8e7e772a5f6","ios":"levelo://app?vid=d14c563e-7d81-4312-b6b2-f8e7e772a5f6"},"vehicle_type_id":"4","last_reported":1768475518,"current_range_meters":8000,"station_id":"st_d4a3vfp97mjs738cd8kg","pricing_plan_id":"cebpf4jnsgd1na2vs0mg"},{"bike_id":"9bcd64ec-0147-45ef-8911-27bb4d94049a","system_id":"levelo_inurba_marseille","lat":43.31758,"lon":5.39014,"is_reserved":false,"is_disabled":false,"rental_uris":{"android":"levelo://app?vid=9bcd64ec-0147-45ef-8911-27bb4d94049a","ios":"levelo://app?vid=9bcd64ec-0147-45ef-8911-27bb4d94049a"},"vehicle_type_id":"4","last_reported":1768475518,"current_range_meters":8000,"station_id":"ce4bhqp2rcd13ifvqhng","pricing_plan_id":"cebpf4jnsgd1na2vs0mg"},{"bike_id":"d1437624-7325-4411-87ce-3009f56ae813","system_id":"levelo_inurba_marseille","lat":43.27819,"lon":5.40717,"is_reserved":false,"is_disabled":false,"rental_uris":{"android":"levelo://app?vid=d1437624-7325-4411-87ce-3009f56ae813","ios":"levelo://app?vid=d1437624-7325-4411-87ce-3009f56ae813"},"vehicle_type_id":"4","last_reported":1768475518,"current_range_meters":8400,"station_id":"ce4bhnh2rcd13ifvqgtg","pricing_plan_id":"cebpf4jnsgd1na2vs0mg"},{"bike_id":"becb4883-e03d-4141-9b48-e2d5d7c63907","system_id":"levelo_inurba_marseille","lat":43.25344,"lon":5.40209,"is_reserved":false,"is_disabled":false,"rental_uris":{"android":"levelo://app?vid=becb4883-e03d-4141-9b48-e2d5d7c63907","ios":"levelo://app?vid=becb4883-e03d-4141-9b48-e2d5d7c63907"},"vehicle_type_id":"4","last_reported":1768475518,"current_range_meters":8400,"station_id":"","pricing_plan_id":"cebpf4jnsgd1na2vs0mg"},{"bike_id":"cd45b6f7-a4b0-4eec-9337-a6659e55b722","system_id":"levelo_inurba_marseille","lat":43.25511,"lon":5.37668,"is_reserved":false,"is_disabled":false,"rental_uris":{"android":"levelo://app?vid=cd45b6f7-a4b0-4eec-9337-a6659e55b722","ios":"levelo://app?vid=cd45b6f7-a4b0-4eec-9337-a6659e55b722"},"vehicle_type_id":"4","last_reported":1768475518,"current_range_meters":8400,"station_id":"","pricing_plan_id":"cebpf4jnsgd1na2vs0mg"},{"bike_id":"cb1fa835-751e-4f0f-b010-d3e3044c82e2","system_id":"levelo_inurba_marseille","lat":43.28992,"lon":5.36905,"is_reserved":false,"is_disabled":false,"rental_uris":{"android":"levelo://app?vid=cb1fa835-751e-4f0f-b010-d3e3044c82e2","ios":"levelo://app?vid=cb1fa835-751e-4f0f-b010-d3e3044c82e2"},"vehicle_type_id":"4","last_reported":1768475518,"current_range_meters":8400,"station_id":"","pricing_plan_id":"cebpf4jnsgd1na2vs0mg"},{"bike_id":"75422019-3005-404c-b749-06eb292054c7","system_id":"levelo_inurba_marseille","lat":43.25,"lon":5.38926,"is_reserved":false,"is_disabled":false,"rental_uris":{"android":"levelo://app?vid=75422019-3005-404c-b749-06eb292054c7","ios":"levelo://app?vid=75422019-3005-404c-b749-06eb292054c7"},"vehicle_type_id":"4","last_reported":1768475518,"current_range_meters":8400,"station_id":"ce4bhgp2rcd13ifvqfd0","pricing_plan_id":"cebpf4jnsgd1na2vs0mg"},{"bike_id":"82b87168-267f-432c-a609-70f7b40ac901","system_id":"levelo_inurba_marseille","lat":43.27728,"lon":5.40786,"is_reserved":false,"is_disabled":false,"rental_uris":{"android":"levelo://app?vid=82b87168-267f-432c-a609-70f7b40ac901","ios":"levelo://app?vid=82b87168-267f-432c-a609-70f7b40ac901"},"vehicle_type_id":"4","last_reported":1768475518,"current_range_meters":8400,"station_id":"","pricing_plan_id":"cebpf4jnsgd1na2vs0mg"},{"bike_id":"778fbfd4-e3fa-4d49-848e-08580a7ada1b","system_id":"levelo_inurba_marseille","lat":43.30462,"lon":5.3793,"is_reserved":false,"is_disabled":false,"rental_uris":{"android":"levelo://app?vid=778fbfd4-e3fa-4d49-848e-08580a7ada1b","ios":"levelo://app?vid=778fbfd4-e3fa-4d49-848e-08580a7ada1b"},"vehicle_type_id":"4","last_reported":1768475518,"current_range_meters":8400,"station_id":"ce4bgup2rcd13ifvqcn0","pricing_plan_id":"cebpf4jnsgd1na2vs0mg"},{"bike_id":"2ffaf0c9-9016-4c67-8314-b46e32a838a9","system_id":"levelo_inurba_marseille","lat":43.24407,"lon":5.3705,"is_reserved":false,"is_disabled":false,"rental_uris":{"android":"levelo://app?vid=2ffaf0c9-9016-4c67-8314-b46e32a838a9","ios":"levelo://app?vid=2ffaf0c9-9016-4c67-8314-b46e32a838a9"},"vehicle_type_id":"4","last_reported":1768475518,"current_range_meters":8400,"station_id":"ce4bhhh2rcd13ifvqfk0","pricing_plan_id":"cebpf4jnsgd1na2vs0mg"},{"bike_id":"ecf0d209-53b9-47e3-8f9f-faa8b0ad9eb4","system_id":"levelo_inurba_marseille","lat":43.24061,"lon":5.37735,"is_reserved":false,"is_disabled":false,"rental_uris":{"android":"levelo://app?vid=ecf0d209-53b9-47e3-8f9f-faa8b0ad9eb4","ios":"levelo://app?vid=ecf0d209-53b9-47e3-8f9f-faa8b0ad9eb4"},"vehicle_type_id":"4","last_reported":1768475518,"current_range_meters":8400,"station_id":"ce4bhnp2rcd13ifvqgvg","pricing_plan_id":"cebpf4jnsgd1na2vs0mg"},{"bike_id":"aa2e5a8a-d936-4d8f-b169-0b86047db1a7","system_id":"levelo_inurba_marseille","lat":43.22571,"lon":5.41623,"is_reserved":false,"is_disabled":false,"rental_uris":{"android":"levelo://app?vid=aa2e5a8a-d936-4d8f-b169-0b86047db1a7","ios":"levelo://app?vid=aa2e5a8a-d936-4d8f-b169-0b86047db1a7"},"vehicle_type_id":"4","last_reported":1768475518,"current_range_meters":8400,"station_id":"st_d2o4gvlbi1j2169b742g","pricing_plan_id":"cebpf4jnsgd1na2vs0mg"},{"bike_id":"0a109872-e118-4460-9b83-c1727cd85de3","system_id":"levelo_inurba_marseille","lat":43.2638,"lon":5.41067,"is_reserved":false,"is_disabled":false,"rental_uris":{"android":"levelo://app?vid=0a109872-e118-4460-9b83-c1727cd85de3","ios":"levelo://app?vid=0a109872-e118-4460-9b83-c1727cd85de3"},"vehicle_type_id":"4","last_reported":1768475518,"current_range_meters":8400,"station_id":"st_d4e5ca6na9uc73bfl5fg","pricing_plan_id":"cebpf4jnsgd1na2vs0mg"},{"bike_id":"f6681264-0c23-4057-943f-1af4d2980810","system_id":"levelo_inurba_marseille","lat":43.27409,"lon":5.39022,"is_reserved":false,"is_disabled":false,"rental_uris":{"android":"levelo://app?vid=f6681264-0c23-4057-943f-1af4d2980810","ios":"levelo://app?vid=f6681264-0c23-4057-943f-1af4d2980810"},"vehicle_type_id":"4","last_reported":1768475518,"current_range_meters":8400,"station_id":"","pricing_plan_id":"cebpf4jnsgd1na2vs0mg"},{"bike_id":"eda67525-db07-4b18-aa7a-fc8c14661402","system_id":"levelo_inurba_marseille","lat":43.23197,"lon":5.35552,"is_reserved":false,"is_disabled":false,"rental_uris":{"android":"levelo://app?vid=eda67525-db07-4b18-aa7a-fc8c14661402","ios":"levelo://app?vid=eda67525-db07-4b18-aa7a-fc8c14661402"},"vehicle_type_id":"4","last_reported":1768475518,"current_range_meters":8800,"station_id":"ce4bhu92rcd13ifvqi70","pricing_plan_id":"cebpf4jnsgd1na2vs0mg"},{"bike_id":"9798252a-9361-46ce-9695-59458b1329bc","system_id":"levelo_inurba_marseille","lat":43.2319,"lon":5.35557,"is_reserved":false,"is_disabled":false,"rental_uris":{"android":"levelo://app?vid=9798252a-9361-46ce-9695-59458b1329bc","ios":"levelo://app?vid=9798252a-9361-46ce-9695-59458b1329bc"},"vehicle_type_id":"4","last_reported":1768475518,"current_range_meters":8800,"station_id":"ce4bhu92rcd13ifvqi70","pricing_plan_id":"cebpf4jnsgd1na2vs0mg"},{"bike_id":"91dbe188-56c8-4fce-a414-d6e43ed9eb6b","system_id":"levelo_inurba_marseille","lat":43.26719,"lon":5.3996,"is_reserved":false,"is_disabled":false,"rental_uris":{"android":"levelo://app?vid=91dbe188-56c8-4fce-a414-d6e43ed9eb6b","ios":"levelo://app?vid=91dbe188-56c8-4fce-a414-d6e43ed9eb6b"},"vehicle_type_id":"4","last_reported":1768475518,"current_range_meters":8800,"station_id":"","pricing_plan_id":"cebpf4jnsgd1na2vs0mg"},{"bike_id":"6b7f8489-74a5-4e9d-814d-fcbaab1294ab","system_id":"levelo_inurba_marseille","lat":43.25013,"lon":5.3892,"is_reserved":false,"is_disabled":false,"rental_uris":{"android":"levelo://app?vid=6b7f8489-74a5-4e9d-814d-fcbaab1294ab","ios":"levelo://app?vid=6b7f8489-74a5-4e9d-814d-fcbaab1294ab"},"vehicle_type_id":"4","last_reported":1768475518,"current_range_meters":8800,"station_id":"","pricing_plan_id":"cebpf4jnsgd1na2vs0mg"},{"bike_id":"b4111c3d-9433-4be0-b0ee-16a58f7614b8","system_id":"levelo_inurba_marseille","lat":43.33603,"lon":5.41033,"is_reserved":false,"is_disabled":false,"rental_uris":{"android":"levelo://app?vid=b4111c3d-9433-4be0-b0ee-16a58f7614b8","ios":"levelo://app?vid=b4111c3d-9433-4be0-b0ee-16a58f7614b8"},"vehicle_type_id":"4","last_reported":1768475518,"current_range_meters":8800,"station_id":"ce4bhqh2rcd13ifvqhmg","pricing_plan_id":"cebpf4jnsgd1na2vs0mg"},{"bike_id":"311fd6a9-6bc8-41d0-ac40-a89fb207f919","system_id":"levelo_inurba_marseille","lat":43.26954,"lon":5.40277,"is_reserved":false,"is_disabled":false,"rental_uris":{"android":"levelo://app?vid=311fd6a9-6bc8-41d0-ac40-a89fb207f919","ios":"levelo://app?vid=311fd6a9-6bc8-41d0-ac40-a89fb207f919"},"vehicle_type_id":"4","last_reported":1768475518,"current_range_meters":8800,"station_id":"cjm6bp8fraef2m0cb0m0","pricing_plan_id":"cebpf4jnsgd1na2vs0mg"},{"bike_id":"033e1812-28a9-4397-b6c4-53b6f99c3f24","system_id":"levelo_inurba_marseille","lat":43.25349,"lon":5.40192,"is_reserved":false,"is_disabled":false,"rental_uris":{"android":"levelo://app?vid=033e1812-28a9-4397-b6c4-53b6f99c3f24","ios":"levelo://app?vid=033e1812-28a9-4397-b6c4-53b6f99c3f24"},"vehicle_type_id":"4","last_reported":1768475518,"current_range_meters":8800,"station_id":"","pricing_plan_id":"cebpf4jnsgd1na2vs0mg"},{"bike_id":"25999d1e-bb18-4c7b-886f-4be578ffb264","system_id":"levelo_inurba_marseille","lat":43.26011,"lon":5.3756,"is_reserved":false,"is_disabled":false,"rental_uris":{"android":"levelo://app?vid=25999d1e-bb18-4c7b-886f-4be578ffb264","ios":"levelo://app?vid=25999d1e-bb18-4c7b-886f-4be578ffb264"},"vehicle_type_id":"4","last_reported":1768475518,"current_range_meters":8800,"station_id":"ce4bhgh2rcd13ifvqfa0","pricing_plan_id":"cebpf4jnsgd1na2vs0mg"},{"bike_id":"b4e35d95-9838-4d4f-bf57-fed8a66b876c","system_id":"levelo_inurba_marseille","lat":43.26586,"lon":5.39023,"is_reserved":false,"is_disabled":false,"rental_uris":{"android":"levelo://app?vid=b4e35d95-9838-4d4f-bf57-fed8a66b876c","ios":"levelo://app?vid=b4e35d95-9838-4d4f-bf57-fed8a66b876c"},"vehicle_type_id":"4","last_reported":1768475518,"current_range_meters":8800,"station_id":"ce4bhe12rcd13ifvqf30","pricing_plan_id":"cebpf4jnsgd1na2vs0mg"},{"bike_id":"0cd1e779-26e9-49c5-b773-f088de1cb9ab","system_id":"levelo_inurba_marseille","lat":43.26066,"lon":5.38523,"is_reserved":false,"is_disabled":false,"rental_uris":{"android":"levelo://app?vid=0cd1e779-26e9-49c5-b773-f088de1cb9ab","ios":"levelo://app?vid=0cd1e779-26e9-49c5-b773-f088de1cb9ab"},"vehicle_type_id":"4","last_reported":1768475518,"current_range_meters":8800,"station_id":"","pricing_plan_id":"cebpf4jnsgd1na2vs0mg"},{"bike_id":"0c77fc52-ed0b-4ddd-b01b-9d523f2bc89d","system_id":"levelo_inurba_marseille","lat":43.26555,"lon":5.37298,"is_reserved":false,"is_disabled":false,"rental_uris":{"android":"levelo://app?vid=0c77fc52-ed0b-4ddd-b01b-9d523f2bc89d","ios":"levelo://app?vid=0c77fc52-ed0b-4ddd-b01b-9d523f2bc89d"},"vehicle_type_id":"4","last_reported":1768475518,"current_range_meters":8800,"station_id":"ce4bhg12rcd13ifvqf70","pricing_plan_id":"cebpf4jnsgd1na2vs0mg"},{"bike_id":"65def825-e47b-44f8-a591-37900abd1d3a","system_id":"levelo_inurba_marseille","lat":43.31276,"lon":5.37757,"is_reserved":false,"is_disabled":false,"rental_uris":{"android":"levelo://app?vid=65def825-e47b-44f8-a591-37900abd1d3a","ios":"levelo://app?vid=65def825-e47b-44f8-a591-37900abd1d3a"},"vehicle_type_id":"4","last_reported":1768475518,"current_range_meters":8800,"station_id":"","pricing_plan_id":"cebpf4jnsgd1na2vs0mg"},{"bike_id":"fbca656e-02c6-47d2-8a61-af26f7f00021","system_id":"levelo_inurba_marseille","lat":43.2586,"lon":5.39915,"is_reserved":false,"is_disabled":false,"rental_uris":{"android":"levelo://app?vid=fbca656e-02c6-47d2-8a61-af26f7f00021","ios":"levelo://app?vid=fbca656e-02c6-47d2-8a61-af26f7f00021"},"vehicle_type_id":"4","last_reported":1768475518,"current_range_meters":8800,"station_id":"ce4bhl92rcd13ifvqghg","pricing_plan_id":"cebpf4jnsgd1na2vs0mg"},{"bike_id":"1624d9fa-6133-4502-99c8-6f0dfa37654b","system_id":"levelo_inurba_marseille","lat":43.32336,"lon":5.38495,"is_reserved":false,"is_disabled":false,"rental_uris":{"android":"levelo://app?vid=1624d9fa-6133-4502-99c8-6f0dfa37654b","ios":"levelo://app?vid=1624d9fa-6133-4502-99c8-6f0dfa37654b"},"vehicle_type_id":"4","last_reported":1768475518,"current_range_meters":8800,"station_id":"st_d45171o9ee8s73djdqug","pricing_plan_id":"cebpf4jnsgd1na2vs0mg"},{"bike_id":"e5aa787f-c7e4-4b02-b6ed-ac65ac7744ea","system_id":"levelo_inurba_marseille","lat":43.23182,"lon":5.39997,"is_reserved":false,"is_disabled":false,"rental_uris":{"android":"levelo://app?vid=e5aa787f-c7e4-4b02-b6ed-ac65ac7744ea","ios":"levelo://app?vid=e5aa787f-c7e4-4b02-b6ed-ac65ac7744ea"},"vehicle_type_id":"4","last_reported":1768475518,"current_range_meters":8800,"station_id":"ce4bhn12rcd13ifvqgqg","pricing_plan_id":"cebpf4jnsgd1na2vs0mg"},{"bike_id":"da38a97c-e7ce-4db2-91e7-5e3629e2fd27","system_id":"levelo_inurba_marseille","lat":43.30146,"lon":5.38065,"is_reserved":false,"is_disabled":false,"rental_uris":{"android":"levelo://app?vid=da38a97c-e7ce-4db2-91e7-5e3629e2fd27","ios":"levelo://app?vid=da38a97c-e7ce-4db2-91e7-5e3629e2fd27"},"vehicle_type_id":"4","last_reported":1768475518,"current_range_meters":8800,"station_id":"ce4bgjp2rcd13ifvqbh0","pricing_plan_id":"cebpf4jnsgd1na2vs0mg"},{"bike_id":"ac1643f3-9488-45ea-bb3b-0339e82f4726","system_id":"levelo_inurba_marseille","lat":43.27072,"lon":5.38292,"is_reserved":false,"is_disabled":false,"rental_uris":{"android":"levelo://app?vid=ac1643f3-9488-45ea-bb3b-0339e82f4726","ios":"levelo://app?vid=ac1643f3-9488-45ea-bb3b-0339e82f4726"},"vehicle_type_id":"4","last_reported":1768475518,"current_range_meters":8800,"station_id":"st_d3n2fo6cfp8s73cte1j0","pricing_plan_id":"cebpf4jnsgd1na2vs0mg"},{"bike_id":"8e928690-e793-44d8-9f19-980458d7974b","system_id":"levelo_inurba_marseille","lat":43.293,"lon":5.37465,"is_reserved":false,"is_disabled":false,"rental_uris":{"android":"levelo://app?vid=8e928690-e793-44d8-9f19-980458d7974b","ios":"levelo://app?vid=8e928690-e793-44d8-9f19-980458d7974b"},"vehicle_type_id":"4","last_reported":1768475518,"current_range_meters":8800,"station_id":"ce4bgi12rcd13ifvqb70","pricing_plan_id":"cebpf4jnsgd1na2vs0mg"},{"bike_id":"6aed2277-53d6-4452-adb3-c1b2d7a750be","system_id":"levelo_inurba_marseille","lat":43.30147,"lon":5.37415,"is_reserved":false,"is_disabled":false,"rental_uris":{"android":"levelo://app?vid=6aed2277-53d6-4452-adb3-c1b2d7a750be","ios":"levelo://app?vid=6aed2277-53d6-4452-adb3-c1b2d7a750be"},"vehicle_type_id":"4","last_reported":1768475518,"current_range_meters":8800,"station_id":"ce4bgs92rcd13ifvqcc0","pricing_plan_id":"cebpf4jnsgd1na2vs0mg"},{"bike_id":"f5f4d798-c4eb-4180-a3ea-928cad22e689","system_id":"levelo_inurba_marseille","lat":43.28078,"lon":5.39664,"is_reserved":false,"is_disabled":false,"rental_uris":{"android":"levelo://app?vid=f5f4d798-c4eb-4180-a3ea-928cad22e689","ios":"levelo://app?vid=f5f4d798-c4eb-4180-a3ea-928cad22e689"},"vehicle_type_id":"4","last_reported":1768475518,"current_range_meters":8800,"station_id":"ce4bho12rcd13ifvqh2g","pricing_plan_id":"cebpf4jnsgd1na2vs0mg"},{"bike_id":"58455772-468d-41ff-a9b8-5fcf7f6153ec","system_id":"levelo_inurba_marseille","lat":43.25831,"lon":5.39435,"is_reserved":false,"is_disabled":false,"rental_uris":{"android":"levelo://app?vid=58455772-468d-41ff-a9b8-5fcf7f6153ec","ios":"levelo://app?vid=58455772-468d-41ff-a9b8-5fcf7f6153ec"},"vehicle_type_id":"4","last_reported":1768475518,"current_range_meters":8800,"station_id":"ce4bhip2rcd13ifvqft0","pricing_plan_id":"cebpf4jnsgd1na2vs0mg"},{"bike_id":"f0f77a0a-fb63-466f-8221-ca4aa28e90e6","system_id":"levelo_inurba_marseille","lat":43.24807,"lon":5.37463,"is_reserved":false,"is_disabled":false,"rental_uris":{"android":"levelo://app?vid=f0f77a0a-fb63-466f-8221-ca4aa28e90e6","ios":"levelo://app?vid=f0f77a0a-fb63-466f-8221-ca4aa28e90e6"},"vehicle_type_id":"4","last_reported":1768475518,"current_range_meters":9200,"station_id":"ce4bhgh2rcd13ifvqfb0","pricing_plan_id":"cebpf4jnsgd1na2vs0mg"},{"bike_id":"42b37833-9a2c-48cc-8942-d9e884b26f9a","system_id":"levelo_inurba_marseille","lat":43.28654,"lon":5.36362,"is_reserved":false,"is_disabled":false,"rental_uris":{"android":"levelo://app?vid=42b37833-9a2c-48cc-8942-d9e884b26f9a","ios":"levelo://app?vid=42b37833-9a2c-48cc-8942-d9e884b26f9a"},"vehicle_type_id":"4","last_reported":1768475518,"current_range_meters":9200,"station_id":"ce4bhah2rcd13ifvqej0","pricing_plan_id":"cebpf4jnsgd1na2vs0mg"},{"bike_id":"3ff43608-53c0-487c-9d0a-f3c1d326d7f5","system_id":"levelo_inurba_marseille","lat":43.323511,"lon":5.367288,"is_reserved":false,"is_disabled":false,"rental_uris":{"android":"levelo://app?vid=3ff43608-53c0-487c-9d0a-f3c1d326d7f5","ios":"levelo://app?vid=3ff43608-53c0-487c-9d0a-f3c1d326d7f5"},"vehicle_type_id":"4","last_reported":1768475518,"current_range_meters":9200,"station_id":"ce4bhsh2rcd13ifvqi2g","pricing_plan_id":"cebpf4jnsgd1na2vs0mg"},{"bike_id":"c242e646-f282-457f-a670-771ea65dbddf","system_id":"levelo_inurba_marseille","lat":43.32112,"lon":5.36782,"is_reserved":false,"is_disabled":false,"rental_uris":{"android":"levelo://app?vid=c242e646-f282-457f-a670-771ea65dbddf","ios":"levelo://app?vid=c242e646-f282-457f-a670-771ea65dbddf"},"vehicle_type_id":"4","last_reported":1768475518,"current_range_meters":9200,"station_id":"ce4bhrh2rcd13ifvqhug","pricing_plan_id":"cebpf4jnsgd1na2vs0mg"},{"bike_id":"c18302d1-4ac2-436a-9a36-82f4ea0825ad","system_id":"levelo_inurba_marseille","lat":43.23059,"lon":5.35473,"is_reserved":false,"is_disabled":false,"rental_uris":{"android":"levelo://app?vid=c18302d1-4ac2-436a-9a36-82f4ea0825ad","ios":"levelo://app?vid=c18302d1-4ac2-436a-9a36-82f4ea0825ad"},"vehicle_type_id":"4","last_reported":1768475518,"current_range_meters":9200,"station_id":"cpo3342slgdg3j2ifvpg","pricing_plan_id":"cebpf4jnsgd1na2vs0mg"},{"bike_id":"5b615694-4960-40aa-8c00-64b122caf3ab","system_id":"levelo_inurba_marseille","lat":43.30736,"lon":5.42451,"is_reserved":false,"is_disabled":false,"rental_uris":{"android":"levelo://app?vid=5b615694-4960-40aa-8c00-64b122caf3ab","ios":"levelo://app?vid=5b615694-4960-40aa-8c00-64b122caf3ab"},"vehicle_type_id":"4","last_reported":1768475518,"current_range_meters":9200,"station_id":"st_cvj6ca6bvosntc0bfgr0","pricing_plan_id":"cebpf4jnsgd1na2vs0mg"},{"bike_id":"753ccbc1-bc1b-4429-8a43-0dcf4c26b7fc","system_id":"levelo_inurba_marseille","lat":43.331626,"lon":5.376858,"is_reserved":false,"is_disabled":false,"rental_uris":{"android":"levelo://app?vid=753ccbc1-bc1b-4429-8a43-0dcf4c26b7fc","ios":"levelo://app?vid=753ccbc1-bc1b-4429-8a43-0dcf4c26b7fc"},"vehicle_type_id":"4","last_reported":1768475518,"current_range_meters":9200,"station_id":"st_d46cu089ee8s73dldbu0","pricing_plan_id":"cebpf4jnsgd1na2vs0mg"},{"bike_id":"6e391227-2b9e-4b69-bd1c-ea4f38367b52","system_id":"levelo_inurba_marseille","lat":43.309655,"lon":5.390498,"is_reserved":false,"is_disabled":false,"rental_uris":{"android":"levelo://app?vid=6e391227-2b9e-4b69-bd1c-ea4f38367b52","ios":"levelo://app?vid=6e391227-2b9e-4b69-bd1c-ea4f38367b52"},"vehicle_type_id":"4","last_reported":1768475518,"current_range_meters":9200,"station_id":"ce4bgup2rcd13ifvqco0","pricing_plan_id":"cebpf4jnsgd1na2vs0mg"},{"bike_id":"2ae27565-6a18-4657-afda-4bb59b9e53e3","system_id":"levelo_inurba_marseille","lat":43.32503,"lon":5.38296,"is_reserved":false,"is_disabled":false,"rental_uris":{"android":"levelo://app?vid=2ae27565-6a18-4657-afda-4bb59b9e53e3","ios":"levelo://app?vid=2ae27565-6a18-4657-afda-4bb59b9e53e3"},"vehicle_type_id":"4","last_reported":1768475518,"current_range_meters":9200,"station_id":"st_d4asgbiv49dc73anf9m0","pricing_plan_id":"cebpf4jnsgd1na2vs0mg"},{"bike_id":"0fe23f40-caad-46ad-b558-32f62e0f76ac","system_id":"levelo_inurba_marseille","lat":43.31133,"lon":5.39807,"is_reserved":false,"is_disabled":false,"rental_uris":{"android":"levelo://app?vid=0fe23f40-caad-46ad-b558-32f62e0f76ac","ios":"levelo://app?vid=0fe23f40-caad-46ad-b558-32f62e0f76ac"},"vehicle_type_id":"4","last_reported":1768475518,"current_range_meters":9200,"station_id":"","pricing_plan_id":"cebpf4jnsgd1na2vs0mg"},{"bike_id":"ae1ee326-f80b-467d-b3d3-87eb3ab566ac","system_id":"levelo_inurba_marseille","lat":43.31347,"lon":5.36732,"is_reserved":false,"is_disabled":false,"rental_uris":{"android":"levelo://app?vid=ae1ee326-f80b-467d-b3d3-87eb3ab566ac","ios":"levelo://app?vid=ae1ee326-f80b-467d-b3d3-87eb3ab566ac"},"vehicle_type_id":"4","last_reported":1768475518,"current_range_meters":9200,"station_id":"ce4bgr92rcd13ifvqc6g","pricing_plan_id":"cebpf4jnsgd1na2vs0mg"},{"bike_id":"a921911a-4f80-4fb0-9fe2-22bf5a9bb0c8","system_id":"levelo_inurba_marseille","lat":43.29598,"lon":5.38091,"is_reserved":false,"is_disabled":false,"rental_uris":{"android":"levelo://app?vid=a921911a-4f80-4fb0-9fe2-22bf5a9bb0c8","ios":"levelo://app?vid=a921911a-4f80-4fb0-9fe2-22bf5a9bb0c8"},"vehicle_type_id":"4","last_reported":1768475518,"current_range_meters":9200,"station_id":"ce4bgl12rcd13ifvqbo0","pricing_plan_id":"cebpf4jnsgd1na2vs0mg"},{"bike_id":"7512c4d2-4a5e-4a8c-8737-f6ffe9aeccda","system_id":"levelo_inurba_marseille","lat":43.29882,"lon":5.37484,"is_reserved":false,"is_disabled":false,"rental_uris":{"android":"levelo://app?vid=7512c4d2-4a5e-4a8c-8737-f6ffe9aeccda","ios":"levelo://app?vid=7512c4d2-4a5e-4a8c-8737-f6ffe9aeccda"},"vehicle_type_id":"4","last_reported":1768475518,"current_range_meters":9200,"station_id":"","pricing_plan_id":"cebpf4jnsgd1na2vs0mg"},{"bike_id":"3b06d8ac-0c0e-4815-baae-3f6b7bfae72e","system_id":"levelo_inurba_marseille","lat":43.341571,"lon":5.36033,"is_reserved":false,"is_disabled":false,"rental_uris":{"android":"levelo://app?vid=3b06d8ac-0c0e-4815-baae-3f6b7bfae72e","ios":"levelo://app?vid=3b06d8ac-0c0e-4815-baae-3f6b7bfae72e"},"vehicle_type_id":"4","last_reported":1768475518,"current_range_meters":9200,"station_id":"","pricing_plan_id":"cebpf4jnsgd1na2vs0mg"},{"bike_id":"8782c85b-4cd2-4d16-816f-ea9c0e380452","system_id":"levelo_inurba_marseille","lat":43.28113,"lon":5.40433,"is_reserved":false,"is_disabled":false,"rental_uris":{"android":"levelo://app?vid=8782c85b-4cd2-4d16-816f-ea9c0e380452","ios":"levelo://app?vid=8782c85b-4cd2-4d16-816f-ea9c0e380452"},"vehicle_type_id":"4","last_reported":1768475518,"current_range_meters":9200,"station_id":"","pricing_plan_id":"cebpf4jnsgd1na2vs0mg"},{"bike_id":"16e94614-28a4-4480-96fa-2a11192075d6","system_id":"levelo_inurba_marseille","lat":43.30539,"lon":5.36696,"is_reserved":false,"is_disabled":false,"rental_uris":{"android":"levelo://app?vid=16e94614-28a4-4480-96fa-2a11192075d6","ios":"levelo://app?vid=16e94614-28a4-4480-96fa-2a11192075d6"},"vehicle_type_id":"4","last_reported":1768475518,"current_range_meters":9200,"station_id":"ce4bgrp2rcd13ifvqc9g","pricing_plan_id":"cebpf4jnsgd1na2vs0mg"},{"bike_id":"5379f5ed-da06-4adb-b823-51e71e531df4","system_id":"levelo_inurba_marseille","lat":43.24634,"lon":5.43143,"is_reserved":false,"is_disabled":false,"rental_uris":{"android":"levelo://app?vid=5379f5ed-da06-4adb-b823-51e71e531df4","ios":"levelo://app?vid=5379f5ed-da06-4adb-b823-51e71e531df4"},"vehicle_type_id":"4","last_reported":1768475518,"current_range_meters":9200,"station_id":"st_d2m6c4gdas8pm72e190g","pricing_plan_id":"cebpf4jnsgd1na2vs0mg"},{"bike_id":"27264743-2e50-4a00-8306-3109b49e129f","system_id":"levelo_inurba_marseille","lat":43.24057,"lon":5.37772,"is_reserved":false,"is_disabled":false,"rental_uris":{"android":"levelo://app?vid=27264743-2e50-4a00-8306-3109b49e129f","ios":"levelo://app?vid=27264743-2e50-4a00-8306-3109b49e129f"},"vehicle_type_id":"4","last_reported":1768475518,"current_range_meters":9200,"station_id":"ce4bhnp2rcd13ifvqgvg","pricing_plan_id":"cebpf4jnsgd1na2vs0mg"},{"bike_id":"8ac29141-6985-4b16-8504-2238bb54b54a","system_id":"levelo_inurba_marseille","lat":43.24384,"lon":5.37071,"is_reserved":false,"is_disabled":false,"rental_uris":{"android":"levelo://app?vid=8ac29141-6985-4b16-8504-2238bb54b54a","ios":"levelo://app?vid=8ac29141-6985-4b16-8504-2238bb54b54a"},"vehicle_type_id":"4","last_reported":1768475518,"current_range_meters":9600,"station_id":"ce4bhhh2rcd13ifvqfk0","pricing_plan_id":"cebpf4jnsgd1na2vs0mg"},{"bike_id":"e937f0fe-af94-4a5e-8160-e367561df05d","system_id":"levelo_inurba_marseille","lat":43.27945,"lon":5.38717,"is_reserved":false,"is_disabled":false,"rental_uris":{"android":"levelo://app?vid=e937f0fe-af94-4a5e-8160-e367561df05d","ios":"levelo://app?vid=e937f0fe-af94-4a5e-8160-e367561df05d"},"vehicle_type_id":"4","last_reported":1768475518,"current_range_meters":9600,"station_id":"ce4bhg12rcd13ifvqf80","pricing_plan_id":"cebpf4jnsgd1na2vs0mg"},{"bike_id":"d10c0024-e2ec-401f-bf30-95042a990a73","system_id":"levelo_inurba_marseille","lat":43.28115,"lon":5.42601,"is_reserved":false,"is_disabled":false,"rental_uris":{"android":"levelo://app?vid=d10c0024-e2ec-401f-bf30-95042a990a73","ios":"levelo://app?vid=d10c0024-e2ec-401f-bf30-95042a990a73"},"vehicle_type_id":"4","last_reported":1768475518,"current_range_meters":9600,"station_id":"","pricing_plan_id":"cebpf4jnsgd1na2vs0mg"},{"bike_id":"551cf153-db3e-4868-8c3a-b2e3edc5022f","system_id":"levelo_inurba_marseille","lat":43.301444,"lon":5.37412,"is_reserved":false,"is_disabled":false,"rental_uris":{"android":"levelo://app?vid=551cf153-db3e-4868-8c3a-b2e3edc5022f","ios":"levelo://app?vid=551cf153-db3e-4868-8c3a-b2e3edc5022f"},"vehicle_type_id":"4","last_reported":1768475518,"current_range_meters":9600,"station_id":"ce4bgs92rcd13ifvqcc0","pricing_plan_id":"cebpf4jnsgd1na2vs0mg"},{"bike_id":"a6efb7b3-8c44-4a6c-92e4-ed7eb57f41e2","system_id":"levelo_inurba_marseille","lat":43.2841,"lon":5.3679,"is_reserved":false,"is_disabled":false,"rental_uris":{"android":"levelo://app?vid=a6efb7b3-8c44-4a6c-92e4-ed7eb57f41e2","ios":"levelo://app?vid=a6efb7b3-8c44-4a6c-92e4-ed7eb57f41e2"},"vehicle_type_id":"4","last_reported":1768475518,"current_range_meters":9600,"station_id":"","pricing_plan_id":"cebpf4jnsgd1na2vs0mg"},{"bike_id":"d2d2d908-ffb6-4c0a-97f2-e5e034e39816","system_id":"levelo_inurba_marseille","lat":43.2793,"lon":5.40397,"is_reserved":false,"is_disabled":false,"rental_uris":{"android":"levelo://app?vid=d2d2d908-ffb6-4c0a-97f2-e5e034e39816","ios":"levelo://app?vid=d2d2d908-ffb6-4c0a-97f2-e5e034e39816"},"vehicle_type_id":"4","last_reported":1768475518,"current_range_meters":9600,"station_id":"","pricing_plan_id":"cebpf4jnsgd1na2vs0mg"},{"bike_id":"f9856d52-ab96-4cca-9a7a-ab4623ba2546","system_id":"levelo_inurba_marseille","lat":43.29054,"lon":5.40001,"is_reserved":false,"is_disabled":false,"rental_uris":{"android":"levelo://app?vid=f9856d52-ab96-4cca-9a7a-ab4623ba2546","ios":"levelo://app?vid=f9856d52-ab96-4cca-9a7a-ab4623ba2546"},"vehicle_type_id":"4","last_reported":1768475518,"current_range_meters":9600,"station_id":"ce4bh392rcd13ifvqdm0","pricing_plan_id":"cebpf4jnsgd1na2vs0mg"},{"bike_id":"dcba5e0d-8e79-44d0-8827-5e7dfb547664","system_id":"levelo_inurba_marseille","lat":43.28539,"lon":5.441,"is_reserved":false,"is_disabled":false,"rental_uris":{"android":"levelo://app?vid=dcba5e0d-8e79-44d0-8827-5e7dfb547664","ios":"levelo://app?vid=dcba5e0d-8e79-44d0-8827-5e7dfb547664"},"vehicle_type_id":"4","last_reported":1768475518,"current_range_meters":9600,"station_id":"st_d3j3df2ikq2c7380ej80","pricing_plan_id":"cebpf4jnsgd1na2vs0mg"},{"bike_id":"cd36fbcd-04b7-44af-907d-269a620e2e29","system_id":"levelo_inurba_marseille","lat":43.29028,"lon":5.3755,"is_reserved":false,"is_disabled":false,"rental_uris":{"android":"levelo://app?vid=cd36fbcd-04b7-44af-907d-269a620e2e29","ios":"levelo://app?vid=cd36fbcd-04b7-44af-907d-269a620e2e29"},"vehicle_type_id":"4","last_reported":1768475518,"current_range_meters":9600,"station_id":"ce4bh692rcd13ifvqe90","pricing_plan_id":"cebpf4jnsgd1na2vs0mg"},{"bike_id":"426d1862-6742-4577-a1b8-bc5438e9f47d","system_id":"levelo_inurba_marseille","lat":43.28295,"lon":5.35104,"is_reserved":false,"is_disabled":false,"rental_uris":{"android":"levelo://app?vid=426d1862-6742-4577-a1b8-bc5438e9f47d","ios":"levelo://app?vid=426d1862-6742-4577-a1b8-bc5438e9f47d"},"vehicle_type_id":"4","last_reported":1768475518,"current_range_meters":9600,"station_id":"ce4bhbp2rcd13ifvqerg","pricing_plan_id":"cebpf4jnsgd1na2vs0mg"},{"bike_id":"13c7c20f-0feb-4e4c-b067-68cfe4794af8","system_id":"levelo_inurba_marseille","lat":43.28871,"lon":5.38426,"is_reserved":false,"is_disabled":false,"rental_uris":{"android":"levelo://app?vid=13c7c20f-0feb-4e4c-b067-68cfe4794af8","ios":"levelo://app?vid=13c7c20f-0feb-4e4c-b067-68cfe4794af8"},"vehicle_type_id":"4","last_reported":1768475518,"current_range_meters":9600,"station_id":"","pricing_plan_id":"cebpf4jnsgd1na2vs0mg"},{"bike_id":"0ce3cc02-2962-4286-804f-4dc1590de945","system_id":"levelo_inurba_marseille","lat":43.25574,"lon":5.38255,"is_reserved":false,"is_disabled":false,"rental_uris":{"android":"levelo://app?vid=0ce3cc02-2962-4286-804f-4dc1590de945","ios":"levelo://app?vid=0ce3cc02-2962-4286-804f-4dc1590de945"},"vehicle_type_id":"4","last_reported":1768475518,"current_range_meters":9600,"station_id":"ce4bhih2rcd13ifvqfs0","pricing_plan_id":"cebpf4jnsgd1na2vs0mg"},{"bike_id":"ba94f569-5de6-42b6-a978-d195de9cd856","system_id":"levelo_inurba_marseille","lat":43.28469,"lon":5.48385,"is_reserved":false,"is_disabled":false,"rental_uris":{"android":"levelo://app?vid=ba94f569-5de6-42b6-a978-d195de9cd856","ios":"levelo://app?vid=ba94f569-5de6-42b6-a978-d195de9cd856"},"vehicle_type_id":"4","last_reported":1768475518,"current_range_meters":9600,"station_id":"st_d3svhcjqgbts73a3dn0g","pricing_plan_id":"cebpf4jnsgd1na2vs0mg"},{"bike_id":"6abf8a46-f540-4848-8617-65edd2aabe92","system_id":"levelo_inurba_marseille","lat":43.31758,"lon":5.39765,"is_reserved":false,"is_disabled":false,"rental_uris":{"android":"levelo://app?vid=6abf8a46-f540-4848-8617-65edd2aabe92","ios":"levelo://app?vid=6abf8a46-f540-4848-8617-65edd2aabe92"},"vehicle_type_id":"4","last_reported":1768475518,"current_range_meters":9600,"station_id":"","pricing_plan_id":"cebpf4jnsgd1na2vs0mg"},{"bike_id":"90218040-6582-4aa2-8913-05c76010fcbf","system_id":"levelo_inurba_marseille","lat":43.23787,"lon":5.36637,"is_reserved":false,"is_disabled":false,"rental_uris":{"android":"levelo://app?vid=90218040-6582-4aa2-8913-05c76010fcbf","ios":"levelo://app?vid=90218040-6582-4aa2-8913-05c76010fcbf"},"vehicle_type_id":"4","last_reported":1768475518,"current_range_meters":9600,"station_id":"st_d3nk18o9ro0c73en2l3g","pricing_plan_id":"cebpf4jnsgd1na2vs0mg"},{"bike_id":"e32119c9-fc2e-409a-a7d4-86c44f550487","system_id":"levelo_inurba_marseille","lat":43.26572,"lon":5.39004,"is_reserved":false,"is_disabled":false,"rental_uris":{"android":"levelo://app?vid=e32119c9-fc2e-409a-a7d4-86c44f550487","ios":"levelo://app?vid=e32119c9-fc2e-409a-a7d4-86c44f550487"},"vehicle_type_id":"4","last_reported":1768475518,"current_range_meters":10000,"station_id":"ce4bhe12rcd13ifvqf30","pricing_plan_id":"cebpf4jnsgd1na2vs0mg"},{"bike_id":"f453663f-1a0f-42e4-b339-7ae16233dc9e","system_id":"levelo_inurba_marseille","lat":43.25577,"lon":5.38245,"is_reserved":false,"is_disabled":false,"rental_uris":{"android":"levelo://app?vid=f453663f-1a0f-42e4-b339-7ae16233dc9e","ios":"levelo://app?vid=f453663f-1a0f-42e4-b339-7ae16233dc9e"},"vehicle_type_id":"4","last_reported":1768475518,"current_range_meters":10000,"station_id":"ce4bhih2rcd13ifvqfs0","pricing_plan_id":"cebpf4jnsgd1na2vs0mg"},{"bike_id":"38c3b80e-0308-46b2-9a29-2654b96d87d9","system_id":"levelo_inurba_marseille","lat":43.29978,"lon":5.37361,"is_reserved":false,"is_disabled":false,"rental_uris":{"android":"levelo://app?vid=38c3b80e-0308-46b2-9a29-2654b96d87d9","ios":"levelo://app?vid=38c3b80e-0308-46b2-9a29-2654b96d87d9"},"vehicle_type_id":"4","last_reported":1768475518,"current_range_meters":10000,"station_id":"","pricing_plan_id":"cebpf4jnsgd1na2vs0mg"},{"bike_id":"a696c7fe-baef-4a58-8525-3edaf5ca50d0","system_id":"levelo_inurba_marseille","lat":43.24388,"lon":5.37048,"is_reserved":false,"is_disabled":false,"rental_uris":{"android":"levelo://app?vid=a696c7fe-baef-4a58-8525-3edaf5ca50d0","ios":"levelo://app?vid=a696c7fe-baef-4a58-8525-3edaf5ca50d0"},"vehicle_type_id":"4","last_reported":1768475518,"current_range_meters":10000,"station_id":"ce4bhhh2rcd13ifvqfk0","pricing_plan_id":"cebpf4jnsgd1na2vs0mg"},{"bike_id":"b2aaa20d-5d74-42c1-a378-aaa6b4151590","system_id":"levelo_inurba_marseille","lat":43.28234,"lon":5.38997,"is_reserved":false,"is_disabled":false,"rental_uris":{"android":"levelo://app?vid=b2aaa20d-5d74-42c1-a378-aaa6b4151590","ios":"levelo://app?vid=b2aaa20d-5d74-42c1-a378-aaa6b4151590"},"vehicle_type_id":"4","last_reported":1768475518,"current_range_meters":10000,"station_id":"","pricing_plan_id":"cebpf4jnsgd1na2vs0mg"},{"bike_id":"0aaffd21-6317-47b2-85da-6b9bfa421a46","system_id":"levelo_inurba_marseille","lat":43.29824,"lon":5.37664,"is_reserved":false,"is_disabled":false,"rental_uris":{"android":"levelo://app?vid=0aaffd21-6317-47b2-85da-6b9bfa421a46","ios":"levelo://app?vid=0aaffd21-6317-47b2-85da-6b9bfa421a46"},"vehicle_type_id":"4","last_reported":1768475518,"current_range_meters":10000,"station_id":"","pricing_plan_id":"cebpf4jnsgd1na2vs0mg"},{"bike_id":"633241f7-f589-4b5e-b00a-272be3b1d076","system_id":"levelo_inurba_marseille","lat":43.26223,"lon":5.40316,"is_reserved":false,"is_disabled":false,"rental_uris":{"android":"levelo://app?vid=633241f7-f589-4b5e-b00a-272be3b1d076","ios":"levelo://app?vid=633241f7-f589-4b5e-b00a-272be3b1d076"},"vehicle_type_id":"4","last_reported":1768475518,"current_range_meters":10000,"station_id":"","pricing_plan_id":"cebpf4jnsgd1na2vs0mg"},{"bike_id":"559bd56f-1279-4311-b72e-e251096670f2","system_id":"levelo_inurba_marseille","lat":43.30129,"lon":5.43117,"is_reserved":false,"is_disabled":true,"rental_uris":{"android":"levelo://app?vid=559bd56f-1279-4311-b72e-e251096670f2","ios":"levelo://app?vid=559bd56f-1279-4311-b72e-e251096670f2"},"vehicle_type_id":"4","last_reported":1768475518,"current_range_meters":10000,"station_id":"st_d3js3co5814s73ftftug","pricing_plan_id":"cebpf4jnsgd1na2vs0mg"},{"bike_id":"61fcb89b-08ad-4508-a19d-0f221f2330b2","system_id":"levelo_inurba_marseille","lat":43.28565,"lon":5.39502,"is_reserved":false,"is_disabled":false,"rental_uris":{"android":"levelo://app?vid=61fcb89b-08ad-4508-a19d-0f221f2330b2","ios":"levelo://app?vid=61fcb89b-08ad-4508-a19d-0f221f2330b2"},"vehicle_type_id":"4","last_reported":1768475518,"current_range_meters":10000,"station_id":"ce4bh292rcd13ifvqdg0","pricing_plan_id":"cebpf4jnsgd1na2vs0mg"},{"bike_id":"cd9a28f7-9caa-4da9-af90-ecf452cdf494","system_id":"levelo_inurba_marseille","lat":43.25884,"lon":5.40901,"is_reserved":false,"is_disabled":false,"rental_uris":{"android":"levelo://app?vid=cd9a28f7-9caa-4da9-af90-ecf452cdf494","ios":"levelo://app?vid=cd9a28f7-9caa-4da9-af90-ecf452cdf494"},"vehicle_type_id":"4","last_reported":1768475518,"current_range_meters":10000,"station_id":"ce4bhm92rcd13ifvqglg","pricing_plan_id":"cebpf4jnsgd1na2vs0mg"},{"bike_id":"23ec3a98-26a5-4b81-8fe6-bd629f0771f5","system_id":"levelo_inurba_marseille","lat":43.28115,"lon":5.38916,"is_reserved":false,"is_disabled":false,"rental_uris":{"android":"levelo://app?vid=23ec3a98-26a5-4b81-8fe6-bd629f0771f5","ios":"levelo://app?vid=23ec3a98-26a5-4b81-8fe6-bd629f0771f5"},"vehicle_type_id":"4","last_reported":1768475518,"current_range_meters":10000,"station_id":"","pricing_plan_id":"cebpf4jnsgd1na2vs0mg"},{"bike_id":"627e5e4e-322b-49e8-be53-e7b0ef4c2eda","system_id":"levelo_inurba_marseille","lat":43.25579,"lon":5.38228,"is_reserved":false,"is_disabled":false,"rental_uris":{"android":"levelo://app?vid=627e5e4e-322b-49e8-be53-e7b0ef4c2eda","ios":"levelo://app?vid=627e5e4e-322b-49e8-be53-e7b0ef4c2eda"},"vehicle_type_id":"4","last_reported":1768475518,"current_range_meters":10800,"station_id":"ce4bhih2rcd13ifvqfs0","pricing_plan_id":"cebpf4jnsgd1na2vs0mg"},{"bike_id":"6c8a2b6c-2dd5-4dba-a3a4-0a42ab9335d1","system_id":"levelo_inurba_marseille","lat":43.2603,"lon":5.37553,"is_reserved":false,"is_disabled":false,"rental_uris":{"android":"levelo://app?vid=6c8a2b6c-2dd5-4dba-a3a4-0a42ab9335d1","ios":"levelo://app?vid=6c8a2b6c-2dd5-4dba-a3a4-0a42ab9335d1"},"vehicle_type_id":"4","last_reported":1768475518,"current_range_meters":10800,"station_id":"ce4bhgh2rcd13ifvqfa0","pricing_plan_id":"cebpf4jnsgd1na2vs0mg"},{"bike_id":"ca58f5b6-e381-495f-9a57-ed56b58464a3","system_id":"levelo_inurba_marseille","lat":43.23967,"lon":5.3663,"is_reserved":false,"is_disabled":false,"rental_uris":{"android":"levelo://app?vid=ca58f5b6-e381-495f-9a57-ed56b58464a3","ios":"levelo://app?vid=ca58f5b6-e381-495f-9a57-ed56b58464a3"},"vehicle_type_id":"4","last_reported":1768475518,"current_range_meters":10800,"station_id":"ce4bhi12rcd13ifvqfp0","pricing_plan_id":"cebpf4jnsgd1na2vs0mg"},{"bike_id":"5b592011-c1a9-49c4-af6a-d987e2ce4973","system_id":"levelo_inurba_marseille","lat":43.28938,"lon":5.3963,"is_reserved":false,"is_disabled":false,"rental_uris":{"android":"levelo://app?vid=5b592011-c1a9-49c4-af6a-d987e2ce4973","ios":"levelo://app?vid=5b592011-c1a9-49c4-af6a-d987e2ce4973"},"vehicle_type_id":"4","last_reported":1768475518,"current_range_meters":10800,"station_id":"ce4bh3h2rcd13ifvqdn0","pricing_plan_id":"cebpf4jnsgd1na2vs0mg"},{"bike_id":"8875f8cc-07a8-40ca-92de-9f4ce77fad56","system_id":"levelo_inurba_marseille","lat":43.28447,"lon":5.38655,"is_reserved":false,"is_disabled":false,"rental_uris":{"android":"levelo://app?vid=8875f8cc-07a8-40ca-92de-9f4ce77fad56","ios":"levelo://app?vid=8875f8cc-07a8-40ca-92de-9f4ce77fad56"},"vehicle_type_id":"4","last_reported":1768475518,"current_range_meters":10800,"station_id":"","pricing_plan_id":"cebpf4jnsgd1na2vs0mg"},{"bike_id":"cc11561c-d73d-4c78-a8ad-d9e4095b8eba","system_id":"levelo_inurba_marseille","lat":43.29293,"lon":5.37424,"is_reserved":false,"is_disabled":false,"rental_uris":{"android":"levelo://app?vid=cc11561c-d73d-4c78-a8ad-d9e4095b8eba","ios":"levelo://app?vid=cc11561c-d73d-4c78-a8ad-d9e4095b8eba"},"vehicle_type_id":"4","last_reported":1768475518,"current_range_meters":10800,"station_id":"ce4bgi12rcd13ifvqb70","pricing_plan_id":"cebpf4jnsgd1na2vs0mg"},