{"last_updated":1725639045,"ttl":30,"version":"2.2","data":{"bikes":[{"bike_id":"15dc10fa-8a76-4aaa-83c3-7a14e41641ab","system_id":"levelo_inurba_marseille","lat":43.312239,"lon":5.368562,"is_reserved":false,"is_disabled":false,"rental_uris":{"android":"levelo://app?vid=15dc10fa-8a76-4aaa-83c3-7a14e41641ab","ios":"levelo://app?vid=15dc10fa-8a76-4aaa-83c3-7a14e41641ab"},"vehicle_type_id":"4","last_reported":1725639045,"current_range_meters":13600,"station_id":"ce4bgl92rcd13ifvqbq0","pricing_plan_id":"cebpf4jnsgd1na2vs0mg"},{"bike_id":"09e3dfde-8d46-4e9e-8900-f544d0a85a3c","system_id":"levelo_inurba_marseille","lat":43.312239,"lon":5.368562,"is_reserved":false,"is_disabled":false,"rental_uris":{"android":"levelo://app?vid=09e3dfde-8d46-4e9e-8900-f544d0a85a3c","ios":"levelo://app?vid=09e3dfde-8d46-4e9e-8900-f544d0a85a3c"},"vehicle_type_id":"4","last_reported":1725639045,"current_range_meters":0,"station_id":"ce4bgl92rcd13ifvqbq0","pricing_plan_id":"cebpf4jnsgd1na2vs0mg"},{"bike_id":"bfd3d7a5-67df-4f4f-a552-6998f16a6dd2","system_id":"levelo_inurba_marseille","lat":43.31121,"lon":5.369338,"is_reserved":false,"is_disabled":false,"rental_uris":{"android":"levelo://app?vid=bfd3d7a5-67df-4f4f-a552-6998f16a6dd2","ios":"levelo://app?vid=bfd3d7a5-67df-4f4f-a552-6998f16a6dd2"},"vehicle_type_id":"4","last_reported":1725639045,"current_range_meters":0,"station_id":"","pricing_plan_id":"cebpf4jnsgd1na2vs0mg"},{"bike_id":"8aab7487-4d22-4b66-8631-5c771a85cc2f","system_id":"levelo_inurba_marseille","lat":43.314811,"lon":5.373103,"is_reserved":false,"is_disabled":false,"rental_uris":{"android":"levelo://app?vid=8aab7487-4d22-4b66-8631-5c771a85cc2f","ios":"levelo://app?vid=8aab7487-4d22-4b66-8631-5c771a85cc2f"},"vehicle_type_id":"4","last_reported":1725639045,"current_range_meters":1600,"station_id":"ce4bgt12rcd13ifvqcd0","pricing_plan_id":"cebpf4jnsgd1na2vs0mg"},{"bike_id":"0638cb71-ed8f-4fc1-bed7-aa65b44eae34","system_id":"levelo_inurba_marseille","lat":43.31682,"lon":5.37357,"is_reserved":false,"is_disabled":false,"rental_uris":{"android":"levelo://app?vid=0638cb71-ed8f-4fc1-bed7-aa65b44eae34","ios":"levelo://app?vid=0638cb71-ed8f-4fc1-bed7-aa65b44eae34"},"vehicle_type_id":"4","last_reported":1725639045,"current_range_meters":0,"station_id":"","pricing_plan_id":"cebpf4jnsgd1na2vs0mg"},{"bike_id":"530cb461-8459-461c-a971-f1ca18e395db","system_id":"levelo_inurba_marseille","lat":43.30536,"lon":5.36691,"is_reserved":false,"is_disabled":false,"rental_uris":{"android":"levelo://app?vid=530cb461-8459-461c-a971-f1ca18e395db","ios":"levelo://app?vid=530cb461-8459-461c-a971-f1ca18e395db"},"vehicle_type_id":"4","last_reported":1725639045,"current_range_meters":0,"station_id":"ce4bgrp2rcd13ifvqc9g","pricing_plan_id":"cebpf4jnsgd1na2vs0mg"},{"bike_id":"979d0e54-923a-4c19-9b3e-e2d57d410ee3","system_id":"levelo_inurba_marseille","lat":43.305989,"lon":5.37225,"is_reserved":false,"is_disabled":false,"rental_uris":{"android":"levelo://app?vid=979d0e54-923a-4c19-9b3e-e2d57d410ee3","ios":"levelo://app?vid=979d0e54-923a-4c19-9b3e-e2d57d410ee3"},"vehicle_type_id":"4","last_reported":1725639045,"current_range_meters":13200,"station_id":"ce4bgqh2rcd13ifvqc4g","pricing_plan_id":"cebpf4jnsgd1na2vs0mg"},{"bike_id":"3a72f165-f581-47cc-858a-0bc1f2b0e77f","system_id":"levelo_inurba_marseille","lat":43.305989,"lon":5.37225,"is_reserved":false,"is_disabled":false,"rental_uris":{"android":"levelo://app?vid=3a72f165-f581-47cc-858a-0bc1f2b0e77f","ios":"levelo://app?vid=3a72f165-f581-47cc-858a-0bc1f2b0e77f"},"vehicle_type_id":"4","last_reported":1725639045,"current_range_meters":14400,"station_id":"ce4bgqh2rcd13ifvqc4g","pricing_plan_id":"cebpf4jnsgd1na2vs0mg"},{"bike_id":"6e9cef6e-5cf2-4a95-8830-933ae90e8557","system_id":"levelo_inurba_marseille","lat":43.311153,"lon":5.377565,"is_reserved":false,"is_disabled":false,"rental_uris":{"android":"levelo://app?vid=6e9cef6e-5cf2-4a95-8830-933ae90e8557","ios":"levelo://app?vid=6e9cef6e-5cf2-4a95-8830-933ae90e8557"},"vehicle_type_id":"4","last_reported":1725639045,"current_range_meters":0,"station_id":"ce4bgt92rcd13ifvqcg0","pricing_plan_id":"cebpf4jnsgd1na2vs0mg"},{"bike_id":"629993a9-aff7-44d1-8dab-8faa813a4490","system_id":"levelo_inurba_marseille","lat":43.31115,"lon":5.37757,"is_reserved":false,"is_disabled":false,"rental_uris":{"android":"levelo://app?vid=629993a9-aff7-44d1-8dab-8faa813a4490","ios":"levelo://app?vid=629993a9-aff7-44d1-8dab-8faa813a4490"},"vehicle_type_id":"4","last_reported":1725639045,"current_range_meters":0,"station_id":"ce4bgt92rcd13ifvqcg0","pricing_plan_id":"cebpf4jnsgd1na2vs0mg"},{"bike_id":"e53b5272-eb4f-42bb-afb6-44d73987a389","system_id":"levelo_inurba_marseille","lat":43.31139,"lon":5.380033,"is_reserved":false,"is_disabled":false,"rental_uris":{"android":"levelo://app?vid=e53b5272-eb4f-42bb-afb6-44d73987a389","ios":"levelo://app?vid=e53b5272-eb4f-42bb-afb6-44d73987a389"},"vehicle_type_id":"4","last_reported":1725639045,"current_range_meters":22800,"station_id":"","pricing_plan_id":"cebpf4jnsgd1na2vs0mg"},{"bike_id":"3ae03571-8e46-4370-b18f-fab2361b1b68","system_id":"levelo_inurba_marseille","lat":43.303046,"lon":5.368981,"is_reserved":false,"is_disabled":false,"rental_uris":{"android":"levelo://app?vid=3ae03571-8e46-4370-b18f-fab2361b1b68","ios":"levelo://app?vid=3ae03571-8e46-4370-b18f-fab2361b1b68"},"vehicle_type_id":"4","last_reported":1725639045,"current_range_meters":10800,"station_id":"ce4bgqh2rcd13ifvqc5g","pricing_plan_id":"cebpf4jnsgd1na2vs0mg"},{"bike_id":"400911d0-fb75-411f-8b06-4b5a1bf06ad4","system_id":"levelo_inurba_marseille","lat":43.303046,"lon":5.368981,"is_reserved":false,"is_disabled":false,"rental_uris":{"android":"levelo://app?vid=400911d0-fb75-411f-8b06-4b5a1bf06ad4","ios":"levelo://app?vid=400911d0-fb75-411f-8b06-4b5a1bf06ad4"},"vehicle_type_id":"4","last_reported":1725639045,"current_range_meters":6000,"station_id":"ce4bgqh2rcd13ifvqc5g","pricing_plan_id":"cebpf4jnsgd1na2vs0mg"},{"bike_id":"8d533982-2715-4ddc-beb3-e7316067f916","system_id":"levelo_inurba_marseille","lat":43.303046,"lon":5.368981,"is_reserved":false,"is_disabled":false,"rental_uris":{"android":"levelo://app?vid=8d533982-2715-4ddc-beb3-e7316067f916","ios":"levelo://app?vid=8d533982-2715-4ddc-beb3-e7316067f916"},"vehicle_type_id":"4","last_reported":1725639045,"current_range_meters":1600,"station_id":"ce4bgqh2rcd13ifvqc5g","pricing_plan_id":"cebpf4jnsgd1na2vs0mg"},{"bike_id":"da745216-f095-40c4-b5c5-b0a922420582","system_id":"levelo_inurba_marseille","lat":43.30304,"lon":5.368987,"is_reserved":false,"is_disabled":false,"rental_uris":{"android":"levelo://app?vid=da745216-f095-40c4-b5c5-b0a922420582","ios":"levelo://app?vid=da745216-f095-40c4-b5c5-b0a922420582"},"vehicle_type_id":"4","last_reported":1725639045,"current_range_meters":1600,"station_id":"ce4bgqh2rcd13ifvqc5g","pricing_plan_id":"cebpf4jnsgd1na2vs0mg"},{"bike_id":"9ce0eaba-60a3-4fdd-a30b-608f7d0c441b","system_id":"levelo_inurba_marseille","lat":43.315289,"lon":5.380349,"is_reserved":false,"is_disabled":false,"rental_uris":{"android":"levelo://app?vid=9ce0eaba-60a3-4fdd-a30b-608f7d0c441b","ios":"levelo://app?vid=9ce0eaba-60a3-4fdd-a30b-608f7d0c441b"},"vehicle_type_id":"4","last_reported":1725639045,"current_range_meters":29200,"station_id":"ce4bhsp2rcd13ifvqi50","pricing_plan_id":"cebpf4jnsgd1na2vs0mg"},{"bike_id":"5c7e602c-f961-461f-96ab-799dea8e8115","system_id":"levelo_inurba_marseille","lat":43.3229,"lon":5.36689,"is_reserved":false,"is_disabled":false,"rental_uris":{"android":"levelo://app?vid=5c7e602c-f961-461f-96ab-799dea8e8115","ios":"levelo://app?vid=5c7e602c-f961-461f-96ab-799dea8e8115"},"vehicle_type_id":"4","last_reported":1725639045,"current_range_meters":18800,"station_id":"","pricing_plan_id":"cebpf4jnsgd1na2vs0mg"},{"bike_id":"8075b445-df99-43a4-957e-6c46d68705b6","system_id":"levelo_inurba_marseille","lat":43.301939,"lon":5.366286,"is_reserved":false,"is_disabled":false,"rental_uris":{"android":"levelo://app?vid=8075b445-df99-43a4-957e-6c46d68705b6","ios":"levelo://app?vid=8075b445-df99-43a4-957e-6c46d68705b6"},"vehicle_type_id":"4","last_reported":1725639045,"current_range_meters":1200,"station_id":"ce4bgrh2rcd13ifvqc8g","pricing_plan_id":"cebpf4jnsgd1na2vs0mg"},{"bike_id":"23b75629-4beb-45bd-8b4d-8ad9ff0c089b","system_id":"levelo_inurba_marseille","lat":43.308012,"lon":5.381511,"is_reserved":false,"is_disabled":false,"rental_uris":{"android":"levelo://app?vid=23b75629-4beb-45bd-8b4d-8ad9ff0c089b","ios":"levelo://app?vid=23b75629-4beb-45bd-8b4d-8ad9ff0c089b"},"vehicle_type_id":"4","last_reported":1725639045,"current_range_meters":15200,"station_id":"ce4bgt12rcd13ifvqce0","pricing_plan_id":"cebpf4jnsgd1na2vs0mg"},{"bike_id":"5f05b32f-fda9-4c3c-8d62-e231490f8d3e","system_id":"levelo_inurba_marseille","lat":43.278128,"lon":5.407195,"is_reserved":false,"is_disabled":false,"rental_uris":{"android":"levelo://app?vid=5f05b32f-fda9-4c3c-8d62-e231490f8d3e","ios":"levelo://app?vid=5f05b32f-fda9-4c3c-8d62-e231490f8d3e"},"vehicle_type_id":"4","last_reported":1725639045,"current_range_meters":3600,"station_id":"ce4bhnh2rcd13ifvqgtg","pricing_plan_id":"cebpf4jnsgd1na2vs0mg"},{"bike_id":"945e5eb2-dc47-4d74-bed9-b9c5571db3e5","system_id":"levelo_inurba_marseille","lat":43.304606,"lon":5.379026,"is_reserved":false,"is_disabled":false,"rental_uris":{"android":"levelo://app?vid=945e5eb2-dc47-4d74-bed9-b9c5571db3e5","ios":"levelo://app?vid=945e5eb2-dc47-4d74-bed9-b9c5571db3e5"},"vehicle_type_id":"4","last_reported":1725639045,"current_range_meters":6400,"station_id":"ce4bgup2rcd13ifvqcn0","pricing_plan_id":"cebpf4jnsgd1na2vs0mg"},{"bike_id":"1384399d-b68f-4c52-aa8e-d30255d6fdd8","system_id":"levelo_inurba_marseille","lat":43.30763,"lon":5.3818,"is_reserved":false,"is_disabled":false,"rental_uris":{"android":"levelo://app?vid=1384399d-b68f-4c52-aa8e-d30255d6fdd8","ios":"levelo://app?vid=1384399d-b68f-4c52-aa8e-d30255d6fdd8"},"vehicle_type_id":"4","last_reported":1725639045,"current_range_meters":2400,"station_id":"","pricing_plan_id":"cebpf4jnsgd1na2vs0mg"},{"bike_id":"33a5524d-9e06-48a0-b030-c181cf3ce0c9","system_id":"levelo_inurba_marseille","lat":43.32488,"lon":5.36574,"is_reserved":false,"is_disabled":false,"rental_uris":{"android":"levelo://app?vid=33a5524d-9e06-48a0-b030-c181cf3ce0c9","ios":"levelo://app?vid=33a5524d-9e06-48a0-b030-c181cf3ce0c9"},"vehicle_type_id":"4","last_reported":1725639045,"current_range_meters":16400,"station_id":"ce4bhs12rcd13ifvqhvg","pricing_plan_id":"cebpf4jnsgd1na2vs0mg"},{"bike_id":"dfb4a37b-cef6-4ded-bd64-cde3a1dc4f66","system_id":"levelo_inurba_marseille","lat":43.310804,"lon":5.38359,"is_reserved":false,"is_disabled":false,"rental_uris":{"android":"levelo://app?vid=dfb4a37b-cef6-4ded-bd64-cde3a1dc4f66","ios":"levelo://app?vid=dfb4a37b-cef6-4ded-bd64-cde3a1dc4f66"},"vehicle_type_id":"4","last_reported":1725639045,"current_range_meters":20000,"station_id":"ce4bgv92rcd13ifvqcr0","pricing_plan_id":"cebpf4jnsgd1na2vs0mg"},{"bike_id":"0d387aa8-7eed-4e6e-9a64-4c7580a87253","system_id":"levelo_inurba_marseille","lat":43.313571,"lon":5.384829,"is_reserved":false,"is_disabled":false,"rental_uris":{"android":"levelo://app?vid=0d387aa8-7eed-4e6e-9a64-4c7580a87253","ios":"levelo://app?vid=0d387aa8-7eed-4e6e-9a64-4c7580a87253"},"vehicle_type_id":"4","last_reported":1725639045,"current_range_meters":28400,"station_id":"ce4bgt92rcd13ifvqcf0","pricing_plan_id":"cebpf4jnsgd1na2vs0mg"},{"bike_id":"9fb3ad10-c23c-419d-8456-601725fd2035","system_id":"levelo_inurba_marseille","lat":43.299222,"lon":5.365554,"is_reserved":false,"is_disabled":false,"rental_uris":{"android":"levelo://app?vid=9fb3ad10-c23c-419d-8456-601725fd2035","ios":"levelo://app?vid=9fb3ad10-c23c-419d-8456-601725fd2035"},"vehicle_type_id":"4","last_reported":1725639045,"current_range_meters":8400,"station_id":"ce4bgm92rcd13ifvqbr0","pricing_plan_id":"cebpf4jnsgd1na2vs0mg"},{"bike_id":"cd91517f-22b6-4a37-aa9f-275429c835c7","system_id":"levelo_inurba_marseille","lat":43.299222,"lon":5.365554,"is_reserved":false,"is_disabled":false,"rental_uris":{"android":"levelo://app?vid=cd91517f-22b6-4a37-aa9f-275429c835c7","ios":"levelo://app?vid=cd91517f-22b6-4a37-aa9f-275429c835c7"},"vehicle_type_id":"4","last_reported":1725639045,"current_range_meters":2800,"station_id":"ce4bgm92rcd13ifvqbr0","pricing_plan_id":"cebpf4jnsgd1na2vs0mg"},{"bike_id":"92a797df-729a-4df8-8791-12d39ab22cbe","system_id":"levelo_inurba_marseille","lat":43.29998,"lon":5.375887,"is_reserved":false,"is_disabled":false,"rental_uris":{"android":"levelo://app?vid=92a797df-729a-4df8-8791-12d39ab22cbe","ios":"levelo://app?vid=92a797df-729a-4df8-8791-12d39ab22cbe"},"vehicle_type_id":"4","last_reported":1725639045,"current_range_meters":7200,"station_id":"","pricing_plan_id":"cebpf4jnsgd1na2vs0mg"},{"bike_id":"6091958c-7cb1-4a7f-8f08-f0a65e58c8c5","system_id":"levelo_inurba_marseille","lat":43.298433,"lon":5.362774,"is_reserved":false,"is_disabled":false,"rental_uris":{"android":"levelo://app?vid=6091958c-7cb1-4a7f-8f08-f0a65e58c8c5","ios":"levelo://app?vid=6091958c-7cb1-4a7f-8f08-f0a65e58c8c5"},"vehicle_type_id":"4","last_reported":1725639045,"current_range_meters":800,"station_id":"ce4bgpp2rcd13ifvqc3g","pricing_plan_id":"cebpf4jnsgd1na2vs0mg"},{"bike_id":"1ab5efaa-ac67-46f1-bc36-b8a3600cf0cc","system_id":"levelo_inurba_marseille","lat":43.298433,"lon":5.362774,"is_reserved":false,"is_disabled":false,"rental_uris":{"android":"levelo://app?vid=1ab5efaa-ac67-46f1-bc36-b8a3600cf0cc","ios":"levelo://app?vid=1ab5efaa-ac67-46f1-bc36-b8a3600cf0cc"},"vehicle_type_id":"4","last_reported":1725639045,"current_range_meters":15600,"station_id":"ce4bgpp2rcd13ifvqc3g","pricing_plan_id":"cebpf4jnsgd1na2vs0mg"},{"bike_id":"2c7ed054-7e71-462f-87bd-0ac43eece736","system_id":"levelo_inurba_marseille","lat":43.298433,"lon":5.362774,"is_reserved":false,"is_disabled":false,"rental_uris":{"android":"levelo://app?vid=2c7ed054-7e71-462f-87bd-0ac43eece736","ios":"levelo://app?vid=2c7ed054-7e71-462f-87bd-0ac43eece736"},"vehicle_type_id":"4","last_reported":1725639045,"current_range_meters":1600,"station_id":"ce4bgpp2rcd13ifvqc3g","pricing_plan_id":"cebpf4jnsgd1na2vs0mg"},{"bike_id":"8cb7f706-8d47-43ce-8f57-900d51b6ed77","system_id":"levelo_inurba_marseille","lat":43.298433,"lon":5.362774,"is_reserved":false,"is_disabled":false,"rental_uris":{"android":"levelo://app?vid=8cb7f706-8d47-43ce-8f57-900d51b6ed77","ios":"levelo://app?vid=8cb7f706-8d47-43ce-8f57-900d51b6ed77"},"vehicle_type_id":"4","last_reported":1725639045,"current_range_meters":1600,"station_id":"ce4bgpp2rcd13ifvqc3g","pricing_plan_id":"cebpf4jnsgd1na2vs0mg"},{"bike_id":"c5293366-1a68-47bb-ae6b-056e0130d4cc","system_id":"levelo_inurba_marseille","lat":43.298433,"lon":5.362774,"is_reserved":false,"is_disabled":false,"rental_uris":{"android":"levelo://app?vid=c5293366-1a68-47bb-ae6b-056e0130d4cc","ios":"levelo://app?vid=c5293366-1a68-47bb-ae6b-056e0130d4cc"},"vehicle_type_id":"4","last_reported":1725639045,"current_range_meters":19200,"station_id":"ce4bgpp2rcd13ifvqc3g","pricing_plan_id":"cebpf4jnsgd1na2vs0mg"},{"bike_id":"f78aedea-5f06-4089-a969-993fcf5c2c0a","system_id":"levelo_inurba_marseille","lat":43.298433,"lon":5.362774,"is_reserved":false,"is_disabled":false,"rental_uris":{"android":"levelo://app?vid=f78aedea-5f06-4089-a969-993fcf5c2c0a","ios":"levelo://app?vid=f78aedea-5f06-4089-a969-993fcf5c2c0a"},"vehicle_type_id":"4","last_reported":1725639045,"current_range_meters":400,"station_id":"ce4bgpp2rcd13ifvqc3g","pricing_plan_id":"cebpf4jnsgd1na2vs0mg"},{"bike_id":"cf31b5c0-09ee-486c-a352-a37f04c094d9","system_id":"levelo_inurba_marseille","lat":43.298433,"lon":5.362774,"is_reserved":false,"is_disabled":false,"rental_uris":{"android":"levelo://app?vid=cf31b5c0-09ee-486c-a352-a37f04c094d9","ios":"levelo://app?vid=cf31b5c0-09ee-486c-a352-a37f04c094d9"},"vehicle_type_id":"4","last_reported":1725639045,"current_range_meters":14000,"station_id":"ce4bgpp2rcd13ifvqc3g","pricing_plan_id":"cebpf4jnsgd1na2vs0mg"},{"bike_id":"06704781-f081-4734-8fd6-25eba808fe4f","system_id":"levelo_inurba_marseille","lat":43.311722,"lon":5.387247,"is_reserved":false,"is_disabled":false,"rental_uris":{"android":"levelo://app?vid=06704781-f081-4734-8fd6-25eba808fe4f","ios":"levelo://app?vid=06704781-f081-4734-8fd6-25eba808fe4f"},"vehicle_type_id":"4","last_reported":1725639045,"current_range_meters":3600,"station_id":"ce4bgv12rcd13ifvqcp0","pricing_plan_id":"cebpf4jnsgd1na2vs0mg"},{"bike_id":"05c1f9f3-dd54-45ef-949f-4a477633c1f0","system_id":"levelo_inurba_marseille","lat":43.299243,"lon":5.37481,"is_reserved":false,"is_disabled":false,"rental_uris":{"android":"levelo://app?vid=05c1f9f3-dd54-45ef-949f-4a477633c1f0","ios":"levelo://app?vid=05c1f9f3-dd54-45ef-949f-4a477633c1f0"},"vehicle_type_id":"4","last_reported":1725639045,"current_range_meters":800,"station_id":"ce4bgjh2rcd13ifvqbg0","pricing_plan_id":"cebpf4jnsgd1na2vs0mg"},{"bike_id":"89c46365-f42a-4aa5-ba3b-207851d54cbc","system_id":"levelo_inurba_marseille","lat":43.298433,"lon":5.362774,"is_reserved":false,"is_disabled":false,"rental_uris":{"android":"levelo://app?vid=89c46365-f42a-4aa5-ba3b-207851d54cbc","ios":"levelo://app?vid=89c46365-f42a-4aa5-ba3b-207851d54cbc"},"vehicle_type_id":"4","last_reported":1725639045,"current_range_meters":27200,"station_id":"ce4bgpp2rcd13ifvqc3g","pricing_plan_id":"cebpf4jnsgd1na2vs0mg"},{"bike_id":"eef4fc2a-7534-46eb-ad57-d7bb9d3ff566","system_id":"levelo_inurba_marseille","lat":43.311722,"lon":5.387247,"is_reserved":false,"is_disabled":false,"rental_uris":{"android":"levelo://app?vid=eef4fc2a-7534-46eb-ad57-d7bb9d3ff566","ios":"levelo://app?vid=eef4fc2a-7534-46eb-ad57-d7bb9d3ff566"},"vehicle_type_id":"4","last_reported":1725639045,"current_range_meters":14000,"station_id":"ce4bgv12rcd13ifvqcp0","pricing_plan_id":"cebpf4jnsgd1na2vs0mg"},{"bike_id":"2005b5d0-b6aa-45eb-856b-e6e02bcc3f64","system_id":"levelo_inurba_marseille","lat":43.322872,"lon":5.382756,"is_reserved":false,"is_disabled":false,"rental_uris":{"android":"levelo://app?vid=2005b5d0-b6aa-45eb-856b-e6e02bcc3f64","ios":"levelo://app?vid=2005b5d0-b6aa-45eb-856b-e6e02bcc3f64"},"vehicle_type_id":"4","last_reported":1725639045,"current_range_meters":16000,"station_id":"ce4bhr12rcd13ifvqhqg","pricing_plan_id":"cebpf4jnsgd1na2vs0mg"},{"bike_id":"d28e36b9-6d10-4aaf-b4de-1bd92b48383d","system_id":"levelo_inurba_marseille","lat":43.322896,"lon":5.38275,"is_reserved":false,"is_disabled":false,"rental_uris":{"android":"levelo://app?vid=d28e36b9-6d10-4aaf-b4de-1bd92b48383d","ios":"levelo://app?vid=d28e36b9-6d10-4aaf-b4de-1bd92b48383d"},"vehicle_type_id":"4","last_reported":1725639045,"current_range_meters":26400,"station_id":"ce4bhr12rcd13ifvqhqg","pricing_plan_id":"cebpf4jnsgd1na2vs0mg"},{"bike_id":"9d4d4ad3-9fa4-4394-8995-8a5887e80cc8","system_id":"levelo_inurba_marseille","lat":43.32297,"lon":5.38266,"is_reserved":false,"is_disabled":false,"rental_uris":{"android":"levelo://app?vid=9d4d4ad3-9fa4-4394-8995-8a5887e80cc8","ios":"levelo://app?vid=9d4d4ad3-9fa4-4394-8995-8a5887e80cc8"},"vehicle_type_id":"4","last_reported":1725639045,"current_range_meters":19200,"station_id":"ce4bhr12rcd13ifvqhqg","pricing_plan_id":"cebpf4jnsgd1na2vs0mg"},{"bike_id":"eb5d160e-0933-404d-8d99-c585a7d66844","system_id":"levelo_inurba_marseille","lat":43.297163,"lon":5.365866,"is_reserved":false,"is_disabled":false,"rental_uris":{"android":"levelo://app?vid=eb5d160e-0933-404d-8d99-c585a7d66844","ios":"levelo://app?vid=eb5d160e-0933-404d-8d99-c585a7d66844"},"vehicle_type_id":"4","last_reported":1725639045,"current_range_meters":14400,"station_id":"ce4bgn12rcd13ifvqbt0","pricing_plan_id":"cebpf4jnsgd1na2vs0mg"},{"bike_id":"0fc56fb2-fe53-47df-a09b-18ad190ead9b","system_id":"levelo_inurba_marseille","lat":43.297163,"lon":5.365866,"is_reserved":false,"is_disabled":false,"rental_uris":{"android":"levelo://app?vid=0fc56fb2-fe53-47df-a09b-18ad190ead9b","ios":"levelo://app?vid=0fc56fb2-fe53-47df-a09b-18ad190ead9b"},"vehicle_type_id":"4","last_reported":1725639045,"current_range_meters":18800,"station_id":"ce4bgn12rcd13ifvqbt0","pricing_plan_id":"cebpf4jnsgd1na2vs0mg"},{"bike_id":"9b053a10-1b49-4987-9ce6-e529d195e616","system_id":"levelo_inurba_marseille","lat":43.297163,"lon":5.365866,"is_reserved":false,"is_disabled":false,"rental_uris":{"android":"levelo://app?vid=9b053a10-1b49-4987-9ce6-e529d195e616","ios":"levelo://app?vid=9b053a10-1b49-4987-9ce6-e529d195e616"},"vehicle_type_id":"4","last_reported":1725639045,"current_range_meters":12400,"station_id":"ce4bgn12rcd13ifvqbt0","pricing_plan_id":"cebpf4jnsgd1na2vs0mg"},{"bike_id":"a0d58c01-0290-4c56-8be5-2983af6dd4f3","system_id":"levelo_inurba_marseille","lat":43.29707,"lon":5.36612,"is_reserved":false,"is_disabled":false,"rental_uris":{"android":"levelo://app?vid=a0d58c01-0290-4c56-8be5-2983af6dd4f3","ios":"levelo://app?vid=a0d58c01-0290-4c56-8be5-2983af6dd4f3"},"vehicle_type_id":"4","last_reported":1725639045,"current_range_meters":0,"station_id":"ce4bgn12rcd13ifvqbt0","pricing_plan_id":"cebpf4jnsgd1na2vs0mg"},{"bike_id":"ad2302d4-b0f2-498b-a907-aac5f5cb489c","system_id":"levelo_inurba_marseille","lat":43.297163,"lon":5.365866,"is_reserved":false,"is_disabled":false,"rental_uris":{"android":"levelo://app?vid=ad2302d4-b0f2-498b-a907-aac5f5cb489c","ios":"levelo://app?vid=ad2302d4-b0f2-498b-a907-aac5f5cb489c"},"vehicle_type_id":"4","last_reported":1725639045,"current_range_meters":8400,"station_id":"ce4bgn12rcd13ifvqbt0","pricing_plan_id":"cebpf4jnsgd1na2vs0mg"},{"bike_id":"d08d730e-193d-4246-9114-6f66261bff41","system_id":"levelo_inurba_marseille","lat":43.2968,"lon":5.37291,"is_reserved":false,"is_disabled":false,"rental_uris":{"android":"levelo://app?vid=d08d730e-193d-4246-9114-6f66261bff41","ios":"levelo://app?vid=d08d730e-193d-4246-9114-6f66261bff41"},"vehicle_type_id":"4","last_reported":1725639045,"current_range_meters":9200,"station_id":"ce4bgk12rcd13ifvqbj0","pricing_plan_id":"cebpf4jnsgd1na2vs0mg"},{"bike_id":"8a8887de-5c7d-4b1c-91b2-78e9c920b48d","system_id":"levelo_inurba_marseille","lat":43.2968,"lon":5.37291,"is_reserved":false,"is_disabled":false,"rental_uris":{"android":"levelo://app?vid=8a8887de-5c7d-4b1c-91b2-78e9c920b48d","ios":"levelo://app?vid=8a8887de-5c7d-4b1c-91b2-78e9c920b48d"},"vehicle_type_id":"4","last_reported":1725639045,"current_range_meters":30800,"station_id":"ce4bgk12rcd13ifvqbj0","pricing_plan_id":"cebpf4jnsgd1na2vs0mg"},{"bike_id":"7848f637-ae34-462b-8e0d-e11b431e0964","system_id":"levelo_inurba_marseille","lat":43.296131,"lon":5.370791,"is_reserved":false,"is_disabled":false,"rental_uris":{"android":"levelo://app?vid=7848f637-ae34-462b-8e0d-e11b431e0964","ios":"levelo://app?vid=7848f637-ae34-462b-8e0d-e11b431e0964"},"vehicle_type_id":"4","last_reported":1725639045,"current_range_meters":14000,"station_id":"ce4bgnh2rcd13ifvqc0g","pricing_plan_id":"cebpf4jnsgd1na2vs0mg"},{"bike_id":"652f85b3-f7cc-41eb-945a-c754f34bd65d","system_id":"levelo_inurba_marseille","lat":43.296131,"lon":5.370773,"is_reserved":false,"is_disabled":false,"rental_uris":{"android":"levelo://app?vid=652f85b3-f7cc-41eb-945a-c754f34bd65d","ios":"levelo://app?vid=652f85b3-f7cc-41eb-945a-c754f34bd65d"},"vehicle_type_id":"4","last_reported":1725639045,"current_range_meters":4000,"station_id":"ce4bgnh2rcd13ifvqc0g","pricing_plan_id":"cebpf4jnsgd1na2vs0mg"},{"bike_id":"ed2ea671-5fbf-421f-8bad-e95e7d4c8adc","system_id":"levelo_inurba_marseille","lat":43.309903,"lon":5.389877,"is_reserved":false,"is_disabled":false,"rental_uris":{"android":"levelo://app?vid=ed2ea671-5fbf-421f-8bad-e95e7d4c8adc","ios":"levelo://app?vid=ed2ea671-5fbf-421f-8bad-e95e7d4c8adc"},"vehicle_type_id":"4","last_reported":1725639045,"current_range_meters":15600,"station_id":"ce4bgup2rcd13ifvqco0","pricing_plan_id":"cebpf4jnsgd1na2vs0mg"},{"bike_id":"afac7f4a-b59e-4c70-84e3-ed0508c8967d","system_id":"levelo_inurba_marseille","lat":43.299068,"lon":5.380848,"is_reserved":false,"is_disabled":false,"rental_uris":{"android":"levelo://app?vid=afac7f4a-b59e-4c70-84e3-ed0508c8967d","ios":"levelo://app?vid=afac7f4a-b59e-4c70-84e3-ed0508c8967d"},"vehicle_type_id":"4","last_reported":1725639045,"current_range_meters":0,"station_id":"","pricing_plan_id":"cebpf4jnsgd1na2vs0mg"},{"bike_id":"0395e932-5486-4d07-a93a-87f2417987a6","system_id":"levelo_inurba_marseille","lat":43.296921,"lon":5.376579,"is_reserved":false,"is_disabled":false,"rental_uris":{"android":"levelo://app?vid=0395e932-5486-4d07-a93a-87f2417987a6","ios":"levelo://app?vid=0395e932-5486-4d07-a93a-87f2417987a6"},"vehicle_type_id":"4","last_reported":1725639045,"current_range_meters":0,"station_id":"ce4bgkh2rcd13ifvqbl0","pricing_plan_id":"cebpf4jnsgd1na2vs0mg"},{"bike_id":"2d3cd696-cd31-4b67-96d2-4fd170f013d3","system_id":"levelo_inurba_marseille","lat":43.317557,"lon":5.390173,"is_reserved":false,"is_disabled":false,"rental_uris":{"android":"levelo://app?vid=2d3cd696-cd31-4b67-96d2-4fd170f013d3","ios":"levelo://app?vid=2d3cd696-cd31-4b67-96d2-4fd170f013d3"},"vehicle_type_id":"4","last_reported":1725639045,"current_range_meters":13600,"station_id":"ce4bhqp2rcd13ifvqhng","pricing_plan_id":"cebpf4jnsgd1na2vs0mg"},{"bike_id":"ece02c0b-5f08-462a-9099-faea2935dbe4","system_id":"levelo_inurba_marseille","lat":43.317557,"lon":5.390173,"is_reserved":false,"is_disabled":false,"rental_uris":{"android":"levelo://app?vid=ece02c0b-5f08-462a-9099-faea2935dbe4","ios":"levelo://app?vid=ece02c0b-5f08-462a-9099-faea2935dbe4"},"vehicle_type_id":"4","last_reported":1725639045,"current_range_meters":13200,"station_id":"ce4bhqp2rcd13ifvqhng","pricing_plan_id":"cebpf4jnsgd1na2vs0mg"},{"bike_id":"1af3945a-9b3b-4155-b7c6-ea58590d596b","system_id":"levelo_inurba_marseille","lat":43.317557,"lon":5.390173,"is_reserved":false,"is_disabled":false,"rental_uris":{"android":"levelo://app?vid=1af3945a-9b3b-4155-b7c6-ea58590d596b","ios":"levelo://app?vid=1af3945a-9b3b-4155-b7c6-ea58590d596b"},"vehicle_type_id":"4","last_reported":1725639045,"current_range_meters":31600,"station_id":"ce4bhqp2rcd13ifvqhng","pricing_plan_id":"cebpf4jnsgd1na2vs0mg"},{"bike_id":"a4df7220-f64d-42ac-a9b3-522b8e51ea2b","system_id":"levelo_inurba_marseille","lat":43.317557,"lon":5.390173,"is_reserved":false,"is_disabled":false,"rental_uris":{"android":"levelo://app?vid=a4df7220-f64d-42ac-a9b3-522b8e51ea2b","ios":"levelo://app?vid=a4df7220-f64d-42ac-a9b3-522b8e51ea2b"},"vehicle_type_id":"4","last_reported":1725639045,"current_range_meters":21600,"station_id":"ce4bhqp2rcd13ifvqhng","pricing_plan_id":"cebpf4jnsgd1na2vs0mg"},{"bike_id":"fb743172-98c4-44a8-8dba-29889e4a75ee","system_id":"levelo_inurba_marseille","lat":43.317557,"lon":5.390173,"is_reserved":false,"is_disabled":false,"rental_uris":{"android":"levelo://app?vid=fb743172-98c4-44a8-8dba-29889e4a75ee","ios":"levelo://app?vid=fb743172-98c4-44a8-8dba-29889e4a75ee"},"vehicle_type_id":"4","last_reported":1725639045,"current_range_meters":25200,"station_id":"ce4bhqp2rcd13ifvqhng","pricing_plan_id":"cebpf4jnsgd1na2vs0mg"},{"bike_id":"c4ce77a1-5d9c-4555-a00a-1584476fe7f5","system_id":"levelo_inurba_marseille","lat":43.317557,"lon":5.390173,"is_reserved":false,"is_disabled":false,"rental_uris":{"android":"levelo://app?vid=c4ce77a1-5d9c-4555-a00a-1584476fe7f5","ios":"levelo://app?vid=c4ce77a1-5d9c-4555-a00a-1584476fe7f5"},"vehicle_type_id":"4","last_reported":1725639045,"current_range_meters":24400,"station_id":"ce4bhqp2rcd13ifvqhng","pricing_plan_id":"cebpf4jnsgd1na2vs0mg"},{"bike_id":"1c80b433-d963-415a-84a7-d61cc7d4d9d0","system_id":"levelo_inurba_marseille","lat":43.31758,"lon":5.39018,"is_reserved":false,"is_disabled":false,"rental_uris":{"android":"levelo://app?vid=1c80b433-d963-415a-84a7-d61cc7d4d9d0","ios":"levelo://app?vid=1c80b433-d963-415a-84a7-d61cc7d4d9d0"},"vehicle_type_id":"4","last_reported":1725639045,"current_range_meters":10400,"station_id":"ce4bhqp2rcd13ifvqhng","pricing_plan_id":"cebpf4jnsgd1na2vs0mg"},{"bike_id":"10f69fe8-7773-460f-8cbc-84d5043d302b","system_id":"levelo_inurba_marseille","lat":43.32253,"lon":5.387034,"is_reserved":false,"is_disabled":false,"rental_uris":{"android":"levelo://app?vid=10f69fe8-7773-460f-8cbc-84d5043d302b","ios":"levelo://app?vid=10f69fe8-7773-460f-8cbc-84d5043d302b"},"vehicle_type_id":"4","last_reported":1725639045,"current_range_meters":26400,"station_id":"","pricing_plan_id":"cebpf4jnsgd1na2vs0mg"},{"bike_id":"458e5f39-8b15-4a71-a4e3-ff20c9096604","system_id":"levelo_inurba_marseille","lat":43.31757,"lon":5.3902,"is_reserved":false,"is_disabled":false,"rental_uris":{"android":"levelo://app?vid=458e5f39-8b15-4a71-a4e3-ff20c9096604","ios":"levelo://app?vid=458e5f39-8b15-4a71-a4e3-ff20c9096604"},"vehicle_type_id":"4","last_reported":1725639045,"current_range_meters":14800,"station_id":"ce4bhqp2rcd13ifvqhng","pricing_plan_id":"cebpf4jnsgd1na2vs0mg"},{"bike_id":"d4c8c636-46ca-4bec-8ace-dbcca494fccf","system_id":"levelo_inurba_marseille","lat":43.317557,"lon":5.390173,"is_reserved":false,"is_disabled":false,"rental_uris":{"android":"levelo://app?vid=d4c8c636-46ca-4bec-8ace-dbcca494fccf","ios":"levelo://app?vid=d4c8c636-46ca-4bec-8ace-dbcca494fccf"},"vehicle_type_id":"4","last_reported":1725639045,"current_range_meters":16400,"station_id":"ce4bhqp2rcd13ifvqhng","pricing_plan_id":"cebpf4jnsgd1na2vs0mg"},{"bike_id":"ee98d696-fc8f-4bd7-9acc-ba17f9c78589","system_id":"levelo_inurba_marseille","lat":43.3177,"lon":5.39016,"is_reserved":false,"is_disabled":false,"rental_uris":{"android":"levelo://app?vid=ee98d696-fc8f-4bd7-9acc-ba17f9c78589","ios":"levelo://app?vid=ee98d696-fc8f-4bd7-9acc-ba17f9c78589"},"vehicle_type_id":"4","last_reported":1725639045,"current_range_meters":1600,"station_id":"ce4bhqp2rcd13ifvqhng","pricing_plan_id":"cebpf4jnsgd1na2vs0mg"},{"bike_id":"f1c74aef-3027-4123-8a60-762d8d6c3f09","system_id":"levelo_inurba_marseille","lat":43.29575,"lon":5.37513,"is_reserved":false,"is_disabled":false,"rental_uris":{"android":"levelo://app?vid=f1c74aef-3027-4123-8a60-762d8d6c3f09","ios":"levelo://app?vid=f1c74aef-3027-4123-8a60-762d8d6c3f09"},"vehicle_type_id":"4","last_reported":1725639045,"current_range_meters":22400,"station_id":"ce4bgh92rcd13ifvqb50","pricing_plan_id":"cebpf4jnsgd1na2vs0mg"},{"bike_id":"6a3b22fc-731d-4221-aa61-af5942249663","system_id":"levelo_inurba_marseille","lat":43.295748,"lon":5.37522,"is_reserved":false,"is_disabled":false,"rental_uris":{"android":"levelo://app?vid=6a3b22fc-731d-4221-aa61-af5942249663","ios":"levelo://app?vid=6a3b22fc-731d-4221-aa61-af5942249663"},"vehicle_type_id":"4","last_reported":1725639045,"current_range_meters":800,"station_id":"ce4bgh92rcd13ifvqb50","pricing_plan_id":"cebpf4jnsgd1na2vs0mg"},{"bike_id":"15228c67-b566-4955-a74b-0476c295b765","system_id":"levelo_inurba_marseille","lat":43.295748,"lon":5.37522,"is_reserved":false,"is_disabled":false,"rental_uris":{"android":"levelo://app?vid=15228c67-b566-4955-a74b-0476c295b765","ios":"levelo://app?vid=15228c67-b566-4955-a74b-0476c295b765"},"vehicle_type_id":"4","last_reported":1725639045,"current_range_meters":24800,"station_id":"ce4bgh92rcd13ifvqb50","pricing_plan_id":"cebpf4jnsgd1na2vs0mg"},{"bike_id":"532fd0af-9a0d-4349-901e-f1b15613a7e2","system_id":"levelo_inurba_marseille","lat":43.296263,"lon":5.377094,"is_reserved":false,"is_disabled":false,"rental_uris":{"android":"levelo://app?vid=532fd0af-9a0d-4349-901e-f1b15613a7e2","ios":"levelo://app?vid=532fd0af-9a0d-4349-901e-f1b15613a7e2"},"vehicle_type_id":"4","last_reported":1725639045,"current_range_meters":0,"station_id":"ce4bgi92rcd13ifvqb90","pricing_plan_id":"cebpf4jnsgd1na2vs0mg"},{"bike_id":"72e9aee6-d33a-4d91-a7e0-249ab43ff97d","system_id":"levelo_inurba_marseille","lat":43.29544,"lon":5.37501,"is_reserved":false,"is_disabled":false,"rental_uris":{"android":"levelo://app?vid=72e9aee6-d33a-4d91-a7e0-249ab43ff97d","ios":"levelo://app?vid=72e9aee6-d33a-4d91-a7e0-249ab43ff97d"},"vehicle_type_id":"4","last_reported":1725639045,"current_range_meters":0,"station_id":"ce4bgkp2rcd13ifvqbmg","pricing_plan_id":"cebpf4jnsgd1na2vs0mg"},{"bike_id":"f4a68a62-5338-4b22-9459-ce645abc1540","system_id":"levelo_inurba_marseille","lat":43.299717,"lon":5.384845,"is_reserved":false,"is_disabled":false,"rental_uris":{"android":"levelo://app?vid=f4a68a62-5338-4b22-9459-ce645abc1540","ios":"levelo://app?vid=f4a68a62-5338-4b22-9459-ce645abc1540"},"vehicle_type_id":"4","last_reported":1725639045,"current_range_meters":0,"station_id":"ce4bgj92rcd13ifvqbd0","pricing_plan_id":"cebpf4jnsgd1na2vs0mg"},{"bike_id":"94a9c223-1d7b-4be8-9cb6-aae8eff9f71e","system_id":"levelo_inurba_marseille","lat":43.309589,"lon":5.390258,"is_reserved":false,"is_disabled":false,"rental_uris":{"android":"levelo://app?vid=94a9c223-1d7b-4be8-9cb6-aae8eff9f71e","ios":"levelo://app?vid=94a9c223-1d7b-4be8-9cb6-aae8eff9f71e"},"vehicle_type_id":"4","last_reported":1725639045,"current_range_meters":2800,"station_id":"ce4bgup2rcd13ifvqco0","pricing_plan_id":"cebpf4jnsgd1na2vs0mg"},{"bike_id":"81a98824-2008-44d6-9c81-2be30d9e0932","system_id":"levelo_inurba_marseille","lat":43.32363,"lon":5.38879,"is_reserved":false,"is_disabled":false,"rental_uris":{"android":"levelo://app?vid=81a98824-2008-44d6-9c81-2be30d9e0932","ios":"levelo://app?vid=81a98824-2008-44d6-9c81-2be30d9e0932"},"vehicle_type_id":"4","last_reported":1725639045,"current_range_meters":0,"station_id":"ce4bhqp2rcd13ifvqhog","pricing_plan_id":"cebpf4jnsgd1na2vs0mg"},{"bike_id":"974dd4ac-df50-4dce-8630-117e0e6e002a","system_id":"levelo_inurba_marseille","lat":43.32372,"lon":5.38875,"is_reserved":false,"is_disabled":false,"rental_uris":{"android":"levelo://app?vid=974dd4ac-df50-4dce-8630-117e0e6e002a","ios":"levelo://app?vid=974dd4ac-df50-4dce-8630-117e0e6e002a"},"vehicle_type_id":"4","last_reported":1725639045,"current_range_meters":26800,"station_id":"ce4bhqp2rcd13ifvqhog","pricing_plan_id":"cebpf4jnsgd1na2vs0mg"},{"bike_id":"01dc2057-a40a-4e28-a991-ee399cefc963","system_id":"levelo_inurba_marseille","lat":43.32367,"lon":5.3888,"is_reserved":false,"is_disabled":false,"rental_uris":{"android":"levelo://app?vid=01dc2057-a40a-4e28-a991-ee399cefc963","ios":"levelo://app?vid=01dc2057-a40a-4e28-a991-ee399cefc963"},"vehicle_type_id":"4","last_reported":1725639045,"current_range_meters":4400,"station_id":"ce4bhqp2rcd13ifvqhog","pricing_plan_id":"cebpf4jnsgd1na2vs0mg"},{"bike_id":"0318c834-59b7-44da-9fe7-2126a0c995f7","system_id":"levelo_inurba_marseille","lat":43.32367,"lon":5.388836,"is_reserved":false,"is_disabled":false,"rental_uris":{"android":"levelo://app?vid=0318c834-59b7-44da-9fe7-2126a0c995f7","ios":"levelo://app?vid=0318c834-59b7-44da-9fe7-2126a0c995f7"},"vehicle_type_id":"4","last_reported":1725639045,"current_range_meters":27200,"station_id":"ce4bhqp2rcd13ifvqhog","pricing_plan_id":"cebpf4jnsgd1na2vs0mg"},{"bike_id":"4041d09d-7abb-4197-aaec-d79657673bd9","system_id":"levelo_inurba_marseille","lat":43.32367,"lon":5.388836,"is_reserved":false,"is_disabled":false,"rental_uris":{"android":"levelo://app?vid=4041d09d-7abb-4197-aaec-d79657673bd9","ios":"levelo://app?vid=4041d09d-7abb-4197-aaec-d79657673bd9"},"vehicle_type_id":"4","last_reported":1725639045,"current_range_meters":3200,"station_id":"ce4bhqp2rcd13ifvqhog","pricing_plan_id":"cebpf4jnsgd1na2vs0mg"},{"bike_id":"03d065e7-41eb-4ea5-af7f-7f103fd0ae9c","system_id":"levelo_inurba_marseille","lat":43.32367,"lon":5.388836,"is_reserved":false,"is_disabled":false,"rental_uris":{"android":"levelo://app?vid=03d065e7-41eb-4ea5-af7f-7f103fd0ae9c","ios":"levelo://app?vid=03d065e7-41eb-4ea5-af7f-7f103fd0ae9c"},"vehicle_type_id":"4","last_reported":1725639045,"current_range_meters":22000,"station_id":"ce4bhqp2rcd13ifvqhog","pricing_plan_id":"cebpf4jnsgd1na2vs0mg"},{"bike_id":"41704600-e9e6-4869-aefd-a4a12996605b","system_id":"levelo_inurba_marseille","lat":43.32367,"lon":5.388836,"is_reserved":false,"is_disabled":false,"rental_uris":{"android":"levelo://app?vid=41704600-e9e6-4869-aefd-a4a12996605b","ios":"levelo://app?vid=41704600-e9e6-4869-aefd-a4a12996605b"},"vehicle_type_id":"4","last_reported":1725639045,"current_range_meters":16000,"station_id":"ce4bhqp2rcd13ifvqhog","pricing_plan_id":"cebpf4jnsgd1na2vs0mg"},{"bike_id":"1389f4a0-fe8c-45a8-89e1-761602337135","system_id":"levelo_inurba_marseille","lat":43.32367,"lon":5.388836,"is_reserved":false,"is_disabled":false,"rental_uris":{"android":"levelo://app?vid=1389f4a0-fe8c-45a8-89e1-761602337135","ios":"levelo://app?vid=1389f4a0-fe8c-45a8-89e1-761602337135"},"vehicle_type_id":"4","last_reported":1725639045,"current_range_meters":23600,"station_id":"ce4bhqp2rcd13ifvqhog","pricing_plan_id":"cebpf4jnsgd1na2vs0mg"},{"bike_id":"0f513e08-4a65-41cb-873f-9be7541ee9a4","system_id":"levelo_inurba_marseille","lat":43.29349,"lon":5.371443,"is_reserved":false,"is_disabled":false,"rental_uris":{"android":"levelo://app?vid=0f513e08-4a65-41cb-873f-9be7541ee9a4","ios":"levelo://app?vid=0f513e08-4a65-41cb-873f-9be7541ee9a4"},"vehicle_type_id":"4","last_reported":1725639045,"current_range_meters":0,"station_id":"","pricing_plan_id":"cebpf4jnsgd1na2vs0mg"},{"bike_id":"f7114851-b90c-43cc-91a6-affd3ed94374","system_id":"levelo_inurba_marseille","lat":43.29602,"lon":5.381084,"is_reserved":false,"is_disabled":false,"rental_uris":{"android":"levelo://app?vid=f7114851-b90c-43cc-91a6-affd3ed94374","ios":"levelo://app?vid=f7114851-b90c-43cc-91a6-affd3ed94374"},"vehicle_type_id":"4","last_reported":1725639045,"current_range_meters":8000,"station_id":"ce4bgl12rcd13ifvqbo0","pricing_plan_id":"cebpf4jnsgd1na2vs0mg"},{"bike_id":"ba573a62-cba9-4a29-83e7-7445e77700e7","system_id":"levelo_inurba_marseille","lat":43.29602,"lon":5.381084,"is_reserved":false,"is_disabled":false,"rental_uris":{"android":"levelo://app?vid=ba573a62-cba9-4a29-83e7-7445e77700e7","ios":"levelo://app?vid=ba573a62-cba9-4a29-83e7-7445e77700e7"},"vehicle_type_id":"4","last_reported":1725639045,"current_range_meters":5600,"station_id":"ce4bgl12rcd13ifvqbo0","pricing_plan_id":"cebpf4jnsgd1na2vs0mg"},{"bike_id":"5193b322-a4c4-4b3e-879a-948748075b12","system_id":"levelo_inurba_marseille","lat":43.292749,"lon":5.368398,"is_reserved":false,"is_disabled":false,"rental_uris":{"android":"levelo://app?vid=5193b322-a4c4-4b3e-879a-948748075b12","ios":"levelo://app?vid=5193b322-a4c4-4b3e-879a-948748075b12"},"vehicle_type_id":"4","last_reported":1725639045,"current_range_meters":16800,"station_id":"ce4bhbp2rcd13ifvqesg","pricing_plan_id":"cebpf4jnsgd1na2vs0mg"},{"bike_id":"de216316-1575-40f5-a616-814ee44aaa56","system_id":"levelo_inurba_marseille","lat":43.29256,"lon":5.36642,"is_reserved":false,"is_disabled":false,"rental_uris":{"android":"levelo://app?vid=de216316-1575-40f5-a616-814ee44aaa56","ios":"levelo://app?vid=de216316-1575-40f5-a616-814ee44aaa56"},"vehicle_type_id":"4","last_reported":1725639045,"current_range_meters":27200,"station_id":"","pricing_plan_id":"cebpf4jnsgd1na2vs0mg"},{"bike_id":"53108d10-01f1-4c94-bc4a-866c7c53e308","system_id":"levelo_inurba_marseille","lat":43.293009,"lon":5.374584,"is_reserved":false,"is_disabled":false,"rental_uris":{"android":"levelo://app?vid=53108d10-01f1-4c94-bc4a-866c7c53e308","ios":"levelo://app?vid=53108d10-01f1-4c94-bc4a-866c7c53e308"},"vehicle_type_id":"4","last_reported":1725639045,"current_range_meters":0,"station_id":"ce4bgi12rcd13ifvqb70","pricing_plan_id":"cebpf4jnsgd1na2vs0mg"},{"bike_id":"660dabbe-1a20-44f3-b423-2871f2cd480c","system_id":"levelo_inurba_marseille","lat":43.293009,"lon":5.374584,"is_reserved":false,"is_disabled":false,"rental_uris":{"android":"levelo://app?vid=660dabbe-1a20-44f3-b423-2871f2cd480c","ios":"levelo://app?vid=660dabbe-1a20-44f3-b423-2871f2cd480c"},"vehicle_type_id":"4","last_reported":1725639045,"current_range_meters":0,"station_id":"ce4bgi12rcd13ifvqb70","pricing_plan_id":"cebpf4jnsgd1na2vs0mg"},{"bike_id":"cc5e127a-4d8b-493e-ab74-f22771687fa0","system_id":"levelo_inurba_marseille","lat":43.293009,"lon":5.374584,"is_reserved":false,"is_disabled":false,"rental_uris":{"android":"levelo://app?vid=cc5e127a-4d8b-493e-ab74-f22771687fa0","ios":"levelo://app?vid=cc5e127a-4d8b-493e-ab74-f22771687fa0"},"vehicle_type_id":"4","last_reported":1725639045,"current_range_meters":14000,"station_id":"ce4bgi12rcd13ifvqb70","pricing_plan_id":"cebpf4jnsgd1na2vs0mg"},{"bike_id":"a8aa998e-acec-4c14-a090-4f29b4ae36c2","system_id":"levelo_inurba_marseille","lat":43.303002,"lon":5.392142,"is_reserved":false,"is_disabled":false,"rental_uris":{"android":"levelo://app?vid=a8aa998e-acec-4c14-a090-4f29b4ae36c2","ios":"levelo://app?vid=a8aa998e-acec-4c14-a090-4f29b4ae36c2"},"vehicle_type_id":"4","last_reported":1725639045,"current_range_meters":28400,"station_id":"ce4bgkh2rcd13ifvqbk0","pricing_plan_id":"cebpf4jnsgd1na2vs0mg"},{"bike_id":"ad039745-eb95-4fd5-9d99-50b79eea07cf","system_id":"levelo_inurba_marseille","lat":43.2936,"lon":5.37835,"is_reserved":false,"is_disabled":false,"rental_uris":{"android":"levelo://app?vid=ad039745-eb95-4fd5-9d99-50b79eea07cf","ios":"levelo://app?vid=ad039745-eb95-4fd5-9d99-50b79eea07cf"},"vehicle_type_id":"4","last_reported":1725639045,"current_range_meters":7200,"station_id":"ce4bgjh2rcd13ifvqbf0","pricing_plan_id":"cebpf4jnsgd1na2vs0mg"},{"bike_id":"1c1e3d1f-fbbb-41b2-b5f7-1ef53eb4a553","system_id":"levelo_inurba_marseille","lat":43.2936,"lon":5.37835,"is_reserved":false,"is_disabled":false,"rental_uris":{"android":"levelo://app?vid=1c1e3d1f-fbbb-41b2-b5f7-1ef53eb4a553","ios":"levelo://app?vid=1c1e3d1f-fbbb-41b2-b5f7-1ef53eb4a553"},"vehicle_type_id":"4","last_reported":1725639045,"current_range_meters":0,"station_id":"ce4bgjh2rcd13ifvqbf0","pricing_plan_id":"cebpf4jnsgd1na2vs0mg"},{"bike_id":"e2e8c78c-9197-4528-8b90-e85375129279","system_id":"levelo_inurba_marseille","lat":43.2923,"lon":5.36061,"is_reserved":false,"is_disabled":false,"rental_uris":{"android":"levelo://app?vid=e2e8c78c-9197-4528-8b90-e85375129279","ios":"levelo://app?vid=e2e8c78c-9197-4528-8b90-e85375129279"},"vehicle_type_id":"4","last_reported":1725639045,"current_range_meters":0,"station_id":"ce4bhbh2rcd13ifvqeqg","pricing_plan_id":"cebpf4jnsgd1na2vs0mg"},{"bike_id":"31daf2ad-45a9-4637-8af9-2338a56ce4a6","system_id":"levelo_inurba_marseille","lat":43.29222,"lon":5.36047,"is_reserved":false,"is_disabled":false,"rental_uris":{"android":"levelo://app?vid=31daf2ad-45a9-4637-8af9-2338a56ce4a6","ios":"levelo://app?vid=31daf2ad-45a9-4637-8af9-2338a56ce4a6"},"vehicle_type_id":"4","last_reported":1725639045,"current_range_meters":0,"station_id":"ce4bhbh2rcd13ifvqeqg","pricing_plan_id":"cebpf4jnsgd1na2vs0mg"},{"bike_id":"b67f89e0-35c5-49c2-9749-96b4d4b2a620","system_id":"levelo_inurba_marseille","lat":43.29217,"lon":5.36047,"is_reserved":false,"is_disabled":false,"rental_uris":{"android":"levelo://app?vid=b67f89e0-35c5-49c2-9749-96b4d4b2a620","ios":"levelo://app?vid=b67f89e0-35c5-49c2-9749-96b4d4b2a620"},"vehicle_type_id":"4","last_reported":1725639045,"current_range_meters":0,"station_id":"ce4bhbh2rcd13ifvqeqg","pricing_plan_id":"cebpf4jnsgd1na2vs0mg"},{"bike_id":"60cce442-c2bf-4d17-975d-5f751a957083","system_id":"levelo_inurba_marseille","lat":43.292311,"lon":5.360731,"is_reserved":false,"is_disabled":false,"rental_uris":{"android":"levelo://app?vid=60cce442-c2bf-4d17-975d-5f751a957083","ios":"levelo://app?vid=60cce442-c2bf-4d17-975d-5f751a957083"},"vehicle_type_id":"4","last_reported":1725639045,"current_range_meters":24000,"station_id":"ce4bhbh2rcd13ifvqeqg","pricing_plan_id":"cebpf4jnsgd1na2vs0mg"},{"bike_id":"f63058b5-d1a4-4cb8-94b6-a6e93483b4a3","system_id":"levelo_inurba_marseille","lat":43.298764,"lon":5.388973,"is_reserved":false,"is_disabled":false,"rental_uris":{"android":"levelo://app?vid=f63058b5-d1a4-4cb8-94b6-a6e93483b4a3","ios":"levelo://app?vid=f63058b5-d1a4-4cb8-94b6-a6e93483b4a3"},"vehicle_type_id":"4","last_reported":1725639045,"current_range_meters":0,"station_id":"ce4bh392rcd13ifvqdl0","pricing_plan_id":"cebpf4jnsgd1na2vs0mg"},{"bike_id":"7bb6ea13-1ac7-48a4-8f9b-4762e7974392","system_id":"levelo_inurba_marseille","lat":43.298764,"lon":5.388973,"is_reserved":false,"is_disabled":false,"rental_uris":{"android":"levelo://app?vid=7bb6ea13-1ac7-48a4-8f9b-4762e7974392","ios":"levelo://app?vid=7bb6ea13-1ac7-48a4-8f9b-4762e7974392"},"vehicle_type_id":"4","last_reported":1725639045,"current_range_meters":7600,"station_id":"ce4bh392rcd13ifvqdl0","pricing_plan_id":"cebpf4jnsgd1na2vs0mg"},{"bike_id":"18d4821b-7670-48ab-b86d-fc7f8d1c2c11","system_id":"levelo_inurba_marseille","lat":43.292005,"lon":5.357875,"is_reserved":false,"is_disabled":false,"rental_uris":{"android":"levelo://app?vid=18d4821b-7670-48ab-b86d-fc7f8d1c2c11","ios":"levelo://app?vid=18d4821b-7670-48ab-b86d-fc7f8d1c2c11"},"vehicle_type_id":"4","last_reported":1725639045,"current_range_meters":0,"station_id":"ce4bhb12rcd13ifvqel0","pricing_plan_id":"cebpf4jnsgd1na2vs0mg"},{"bike_id":"b5d7bb1b-36f5-4cf4-92c4-cbc47c41f81a","system_id":"levelo_inurba_marseille","lat":43.292005,"lon":5.357875,"is_reserved":false,"is_disabled":false,"rental_uris":{"android":"levelo://app?vid=b5d7bb1b-36f5-4cf4-92c4-cbc47c41f81a","ios":"levelo://app?vid=b5d7bb1b-36f5-4cf4-92c4-cbc47c41f81a"},"vehicle_type_id":"4","last_reported":1725639045,"current_range_meters":25600,"station_id":"ce4bhb12rcd13ifvqel0","pricing_plan_id":"cebpf4jnsgd1na2vs0mg"},{"bike_id":"be1d4ab8-556c-40b7-9cf4-e7b2d15802e6","system_id":"levelo_inurba_marseille","lat":43.292005,"lon":5.357875,"is_reserved":false,"is_disabled":false,"rental_uris":{"android":"levelo://app?vid=be1d4ab8-556c-40b7-9cf4-e7b2d15802e6","ios":"levelo://app?vid=be1d4ab8-556c-40b7-9cf4-e7b2d15802e6"},"vehicle_type_id":"4","last_reported":1725639045,"current_range_meters":0,"station_id":"ce4bhb12rcd13ifvqel0","pricing_plan_id":"cebpf4jnsgd1na2vs0mg"},{"bike_id":"586801f4-ce9e-49e2-af9f-960333407252","system_id":"levelo_inurba_marseille","lat":43.29542,"lon":5.38534,"is_reserved":false,"is_disabled":false,"rental_uris":{"android":"levelo://app?vid=586801f4-ce9e-49e2-af9f-960333407252","ios":"levelo://app?vid=586801f4-ce9e-49e2-af9f-960333407252"},"vehicle_type_id":"4","last_reported":1725639045,"current_range_meters":0,"station_id":"ce4bgih2rcd13ifvqba0","pricing_plan_id":"cebpf4jnsgd1na2vs0mg"},{"bike_id":"5845dcf0-f537-448c-a2f9-9afb42883530","system_id":"levelo_inurba_marseille","lat":43.29529,"lon":5.385581,"is_reserved":false,"is_disabled":false,"rental_uris":{"android":"levelo://app?vid=5845dcf0-f537-448c-a2f9-9afb42883530","ios":"levelo://app?vid=5845dcf0-f537-448c-a2f9-9afb42883530"},"vehicle_type_id":"4","last_reported":1725639045,"current_range_meters":20000,"station_id":"ce4bgih2rcd13ifvqba0","pricing_plan_id":"cebpf4jnsgd1na2vs0mg"},{"bike_id":"3b8114e5-6044-4976-869e-0365a5d12e1c","system_id":"levelo_inurba_marseille","lat":43.29529,"lon":5.385581,"is_reserved":false,"is_disabled":false,"rental_uris":{"android":"levelo://app?vid=3b8114e5-6044-4976-869e-0365a5d12e1c","ios":"levelo://app?vid=3b8114e5-6044-4976-869e-0365a5d12e1c"},"vehicle_type_id":"4","last_reported":1725639045,"current_range_meters":400,"station_id":"ce4bgih2rcd13ifvqba0","pricing_plan_id":"cebpf4jnsgd1na2vs0mg"},{"bike_id":"b5372d3a-57ab-4816-8009-1337a5442595","system_id":"levelo_inurba_marseille","lat":43.290779,"lon":5.371482,"is_reserved":false,"is_disabled":false,"rental_uris":{"android":"levelo://app?vid=b5372d3a-57ab-4816-8009-1337a5442595","ios":"levelo://app?vid=b5372d3a-57ab-4816-8009-1337a5442595"},"vehicle_type_id":"4","last_reported":1725639045,"current_range_meters":5600,"station_id":"ce4bh5p2rcd13ifvqe4g","pricing_plan_id":"cebpf4jnsgd1na2vs0mg"},{"bike_id":"0ce61fce-2154-4c6f-b018-909b56c058b0","system_id":"levelo_inurba_marseille","lat":43.29425,"lon":5.38635,"is_reserved":false,"is_disabled":false,"rental_uris":{"android":"levelo://app?vid=0ce61fce-2154-4c6f-b018-909b56c058b0","ios":"levelo://app?vid=0ce61fce-2154-4c6f-b018-909b56c058b0"},"vehicle_type_id":"4","last_reported":1725639045,"current_range_meters":0,"station_id":"ce4bh2h2rcd13ifvqdh0","pricing_plan_id":"cebpf4jnsgd1na2vs0mg"},{"bike_id":"0a4149c3-4912-4e36-beab-a073077c7c90","system_id":"levelo_inurba_marseille","lat":43.294203,"lon":5.386303,"is_reserved":false,"is_disabled":false,"rental_uris":{"android":"levelo://app?vid=0a4149c3-4912-4e36-beab-a073077c7c90","ios":"levelo://app?vid=0a4149c3-4912-4e36-beab-a073077c7c90"},"vehicle_type_id":"4","last_reported":1725639045,"current_range_meters":0,"station_id":"ce4bh2h2rcd13ifvqdh0","pricing_plan_id":"cebpf4jnsgd1na2vs0mg"},{"bike_id":"b7334f0f-8dd4-4d25-a7fe-ee97cf65bde6","system_id":"levelo_inurba_marseille","lat":43.289468,"lon":5.363719,"is_reserved":false,"is_disabled":false,"rental_uris":{"android":"levelo://app?vid=b7334f0f-8dd4-4d25-a7fe-ee97cf65bde6","ios":"levelo://app?vid=b7334f0f-8dd4-4d25-a7fe-ee97cf65bde6"},"vehicle_type_id":"4","last_reported":1725639045,"current_range_meters":400,"station_id":"ce4bhc92rcd13ifvqetg","pricing_plan_id":"cebpf4jnsgd1na2vs0mg"},{"bike_id":"fce66434-2e23-4822-a5b2-ad7e7bc80883","system_id":"levelo_inurba_marseille","lat":43.289315,"lon":5.366346,"is_reserved":false,"is_disabled":false,"rental_uris":{"android":"levelo://app?vid=fce66434-2e23-4822-a5b2-ad7e7bc80883","ios":"levelo://app?vid=fce66434-2e23-4822-a5b2-ad7e7bc80883"},"vehicle_type_id":"4","last_reported":1725639045,"current_range_meters":14000,"station_id":"ce4bhap2rcd13ifvqek0","pricing_plan_id":"cebpf4jnsgd1na2vs0mg"},{"bike_id":"b4bd52f1-7ce1-48bb-b68f-11f0496f5ee8","system_id":"levelo_inurba_marseille","lat":43.292644,"lon":5.384257,"is_reserved":false,"is_disabled":false,"rental_uris":{"android":"levelo://app?vid=b4bd52f1-7ce1-48bb-b68f-11f0496f5ee8","ios":"levelo://app?vid=b4bd52f1-7ce1-48bb-b68f-11f0496f5ee8"},"vehicle_type_id":"4","last_reported":1725639045,"current_range_meters":0,"station_id":"ce4bh692rcd13ifvqea0","pricing_plan_id":"cebpf4jnsgd1na2vs0mg"},{"bike_id":"5f4188a5-1688-4d55-847b-c239eec33b08","system_id":"levelo_inurba_marseille","lat":43.29267,"lon":5.38438,"is_reserved":false,"is_disabled":false,"rental_uris":{"android":"levelo://app?vid=5f4188a5-1688-4d55-847b-c239eec33b08","ios":"levelo://app?vid=5f4188a5-1688-4d55-847b-c239eec33b08"},"vehicle_type_id":"4","last_reported":1725639045,"current_range_meters":0,"station_id":"ce4bh692rcd13ifvqea0","pricing_plan_id":"cebpf4jnsgd1na2vs0mg"},{"bike_id":"0ffeda56-4a76-42fc-9175-dc6529f9ce0e","system_id":"levelo_inurba_marseille","lat":43.292637,"lon":5.3844,"is_reserved":false,"is_disabled":false,"rental_uris":{"android":"levelo://app?vid=0ffeda56-4a76-42fc-9175-dc6529f9ce0e","ios":"levelo://app?vid=0ffeda56-4a76-42fc-9175-dc6529f9ce0e"},"vehicle_type_id":"4","last_reported":1725639045,"current_range_meters":0,"station_id":"ce4bh692rcd13ifvqea0","pricing_plan_id":"cebpf4jnsgd1na2vs0mg"},{"bike_id":"3f766c17-2cf0-4dde-8aeb-57fc83c9d833","system_id":"levelo_inurba_marseille","lat":43.273613,"lon":5.362705,"is_reserved":false,"is_disabled":false,"rental_uris":{"android":"levelo://app?vid=3f766c17-2cf0-4dde-8aeb-57fc83c9d833","ios":"levelo://app?vid=3f766c17-2cf0-4dde-8aeb-57fc83c9d833"},"vehicle_type_id":"4","last_reported":1725639045,"current_range_meters":15200,"station_id":"ce4bhbh2rcd13ifvqeo0","pricing_plan_id":"cebpf4jnsgd1na2vs0mg"},{"bike_id":"05ce42da-80c3-42bf-9edc-10f8cbfe87f6","system_id":"levelo_inurba_marseille","lat":43.290104,"lon":5.356111,"is_reserved":false,"is_disabled":false,"rental_uris":{"android":"levelo://app?vid=05ce42da-80c3-42bf-9edc-10f8cbfe87f6","ios":"levelo://app?vid=05ce42da-80c3-42bf-9edc-10f8cbfe87f6"},"vehicle_type_id":"4","last_reported":1725639045,"current_range_meters":0,"station_id":"ce4bhb92rcd13ifvqen0","pricing_plan_id":"cebpf4jnsgd1na2vs0mg"},{"bike_id":"1fd78426-0dc1-4850-84d4-55413d8db715","system_id":"levelo_inurba_marseille","lat":43.2901,"lon":5.356078,"is_reserved":false,"is_disabled":false,"rental_uris":{"android":"levelo://app?vid=1fd78426-0dc1-4850-84d4-55413d8db715","ios":"levelo://app?vid=1fd78426-0dc1-4850-84d4-55413d8db715"},"vehicle_type_id":"4","last_reported":1725639045,"current_range_meters":0,"station_id":"ce4bhb92rcd13ifvqen0","pricing_plan_id":"cebpf4jnsgd1na2vs0mg"},{"bike_id":"92560ca8-f77a-4660-992d-a8b70c3a26da","system_id":"levelo_inurba_marseille","lat":43.290995,"lon":5.381361,"is_reserved":false,"is_disabled":false,"rental_uris":{"android":"levelo://app?vid=92560ca8-f77a-4660-992d-a8b70c3a26da","ios":"levelo://app?vid=92560ca8-f77a-4660-992d-a8b70c3a26da"},"vehicle_type_id":"4","last_reported":1725639045,"current_range_meters":18400,"station_id":"ce4bh512rcd13ifvqe2g","pricing_plan_id":"cebpf4jnsgd1na2vs0mg"},{"bike_id":"0e57458c-6617-4db0-bed5-f9f9ba8d75d8","system_id":"levelo_inurba_marseille","lat":43.290995,"lon":5.381361,"is_reserved":false,"is_disabled":false,"rental_uris":{"android":"levelo://app?vid=0e57458c-6617-4db0-bed5-f9f9ba8d75d8","ios":"levelo://app?vid=0e57458c-6617-4db0-bed5-f9f9ba8d75d8"},"vehicle_type_id":"4","last_reported":1725639045,"current_range_meters":1200,"station_id":"ce4bh512rcd13ifvqe2g","pricing_plan_id":"cebpf4jnsgd1na2vs0mg"},{"bike_id":"45a13621-a342-42e8-a2a4-67eb79259c87","system_id":"levelo_inurba_marseille","lat":43.290995,"lon":5.381361,"is_reserved":false,"is_disabled":false,"rental_uris":{"android":"levelo://app?vid=45a13621-a342-42e8-a2a4-67eb79259c87","ios":"levelo://app?vid=45a13621-a342-42e8-a2a4-67eb79259c87"},"vehicle_type_id":"4","last_reported":1725639045,"current_range_meters":24000,"station_id":"ce4bh512rcd13ifvqe2g","pricing_plan_id":"cebpf4jnsgd1na2vs0mg"},{"bike_id":"f2ca3499-9c23-4d30-b988-db43f00a5f0e","system_id":"levelo_inurba_marseille","lat":43.290995,"lon":5.381361,"is_reserved":false,"is_disabled":false,"rental_uris":{"android":"levelo://app?vid=f2ca3499-9c23-4d30-b988-db43f00a5f0e","ios":"levelo://app?vid=f2ca3499-9c23-4d30-b988-db43f00a5f0e"},"vehicle_type_id":"4","last_reported":1725639045,"current_range_meters":18000,"station_id":"ce4bh512rcd13ifvqe2g","pricing_plan_id":"cebpf4jnsgd1na2vs0mg"},{"bike_id":"661de5f0-8c8b-4a71-84a2-85d2e299d917","system_id":"levelo_inurba_marseille","lat":43.290995,"lon":5.381361,"is_reserved":false,"is_disabled":false,"rental_uris":{"android":"levelo://app?vid=661de5f0-8c8b-4a71-84a2-85d2e299d917","ios":"levelo://app?vid=661de5f0-8c8b-4a71-84a2-85d2e299d917"},"vehicle_type_id":"4","last_reported":1725639045,"current_range_meters":31600,"station_id":"ce4bh512rcd13ifvqe2g","pricing_plan_id":"cebpf4jnsgd1na2vs0mg"},{"bike_id":"95a7dff4-9fb0-4bcf-b956-02a2a58a431e","system_id":"levelo_inurba_marseille","lat":43.290995,"lon":5.381361,"is_reserved":false,"is_disabled":false,"rental_uris":{"android":"levelo://app?vid=95a7dff4-9fb0-4bcf-b956-02a2a58a431e","ios":"levelo://app?vid=95a7dff4-9fb0-4bcf-b956-02a2a58a431e"},"vehicle_type_id":"4","last_reported":1725639045,"current_range_meters":6800,"station_id":"ce4bh512rcd13ifvqe2g","pricing_plan_id":"cebpf4jnsgd1na2vs0mg"},{"bike_id":"58492005-85f4-42a2-b932-a380f5d0ee36","system_id":"levelo_inurba_marseille","lat":43.29787,"lon":5.3933,"is_reserved":false,"is_disabled":false,"rental_uris":{"android":"levelo://app?vid=58492005-85f4-42a2-b932-a380f5d0ee36","ios":"levelo://app?vid=58492005-85f4-42a2-b932-a380f5d0ee36"},"vehicle_type_id":"4","last_reported":1725639045,"current_range_meters":0,"station_id":"chh1huq6cuj3fo74tm60","pricing_plan_id":"cebpf4jnsgd1na2vs0mg"},{"bike_id":"888b35c0-9acd-4965-b77a-c466d70c8590","system_id":"levelo_inurba_marseille","lat":43.330442,"lon":5.389148,"is_reserved":false,"is_disabled":false,"rental_uris":{"android":"levelo://app?vid=888b35c0-9acd-4965-b77a-c466d70c8590","ios":"levelo://app?vid=888b35c0-9acd-4965-b77a-c466d70c8590"},"vehicle_type_id":"4","last_reported":1725639045,"current_range_meters":7600,"station_id":"ce4bhr92rcd13ifvqhrg","pricing_plan_id":"cebpf4jnsgd1na2vs0mg"},{"bike_id":"ef6a73c1-30d9-475d-8285-b9e1d412f446","system_id":"levelo_inurba_marseille","lat":43.330442,"lon":5.389148,"is_reserved":false,"is_disabled":false,"rental_uris":{"android":"levelo://app?vid=ef6a73c1-30d9-475d-8285-b9e1d412f446","ios":"levelo://app?vid=ef6a73c1-30d9-475d-8285-b9e1d412f446"},"vehicle_type_id":"4","last_reported":1725639045,"current_range_meters":31600,"station_id":"ce4bhr92rcd13ifvqhrg","pricing_plan_id":"cebpf4jnsgd1na2vs0mg"},{"bike_id":"24d37a57-10b7-4782-b387-f449df1baf21","system_id":"levelo_inurba_marseille","lat":43.33026,"lon":5.39044,"is_reserved":false,"is_disabled":false,"rental_uris":{"android":"levelo://app?vid=24d37a57-10b7-4782-b387-f449df1baf21","ios":"levelo://app?vid=24d37a57-10b7-4782-b387-f449df1baf21"},"vehicle_type_id":"4","last_reported":1725639045,"current_range_meters":2400,"station_id":"ce4bhr92rcd13ifvqhrg","pricing_plan_id":"cebpf4jnsgd1na2vs0mg"},{"bike_id":"8b33245e-3c3e-45bf-9ada-18d01c14e244","system_id":"levelo_inurba_marseille","lat":43.33027,"lon":5.39043,"is_reserved":false,"is_disabled":false,"rental_uris":{"android":"levelo://app?vid=8b33245e-3c3e-45bf-9ada-18d01c14e244","ios":"levelo://app?vid=8b33245e-3c3e-45bf-9ada-18d01c14e244"},"vehicle_type_id":"4","last_reported":1725639045,"current_range_meters":8800,"station_id":"ce4bhr92rcd13ifvqhrg","pricing_plan_id":"cebpf4jnsgd1na2vs0mg"},{"bike_id":"71ce0aa9-2a33-4f70-8bf4-3e6097820571","system_id":"levelo_inurba_marseille","lat":43.33026,"lon":5.39046,"is_reserved":false,"is_disabled":false,"rental_uris":{"android":"levelo://app?vid=71ce0aa9-2a33-4f70-8bf4-3e6097820571","ios":"levelo://app?vid=71ce0aa9-2a33-4f70-8bf4-3e6097820571"},"vehicle_type_id":"4","last_reported":1725639045,"current_range_meters":8800,"station_id":"ce4bhr92rcd13ifvqhrg","pricing_plan_id":"cebpf4jnsgd1na2vs0mg"},{"bike_id":"e5cbc987-bcde-4148-a028-2d98a21515b4","system_id":"levelo_inurba_marseille","lat":43.330442,"lon":5.389148,"is_reserved":false,"is_disabled":false,"rental_uris":{"android":"levelo://app?vid=e5cbc987-bcde-4148-a028-2d98a21515b4","ios":"levelo://app?vid=e5cbc987-bcde-4148-a028-2d98a21515b4"},"vehicle_type_id":"4","last_reported":1725639045,"current_range_meters":14000,"station_id":"ce4bhr92rcd13ifvqhrg","pricing_plan_id":"cebpf4jnsgd1na2vs0mg"},{"bike_id":"cff56aae-3b9b-4789-9282-00b193ae8fa1","system_id":"levelo_inurba_marseille","lat":43.330442,"lon":5.389148,"is_reserved":false,"is_disabled":false,"rental_uris":{"android":"levelo://app?vid=cff56aae-3b9b-4789-9282-00b193ae8fa1","ios":"levelo://app?vid=cff56aae-3b9b-4789-9282-00b193ae8fa1"},"vehicle_type_id":"4","last_reported":1725639045,"current_range_meters":10000,"station_id":"ce4bhr92rcd13ifvqhrg","pricing_plan_id":"cebpf4jnsgd1na2vs0mg"},{"bike_id":"cffb2de2-b4e0-421c-805c-7cb0c177beda","system_id":"levelo_inurba_marseille","lat":43.330442,"lon":5.389148,"is_reserved":false,"is_disabled":false,"rental_uris":{"android":"levelo://app?vid=cffb2de2-b4e0-421c-805c-7cb0c177beda","ios":"levelo://app?vid=cffb2de2-b4e0-421c-805c-7cb0c177beda"},"vehicle_type_id":"4","last_reported":1725639045,"current_range_meters":6000,"station_id":"ce4bhr92rcd13ifvqhrg","pricing_plan_id":"cebpf4jnsgd1na2vs0mg"},{"bike_id":"2a1fe2dc-1476-4ce5-81d0-853551fb5e07","system_id":"levelo_inurba_marseille","lat":43.2901,"lon":5.381269,"is_reserved":false,"is_disabled":false,"rental_uris":{"android":"levelo://app?vid=2a1fe2dc-1476-4ce5-81d0-853551fb5e07","ios":"levelo://app?vid=2a1fe2dc-1476-4ce5-81d0-853551fb5e07"},"vehicle_type_id":"4","last_reported":1725639045,"current_range_meters":0,"station_id":"ce4bh4p2rcd13ifvqe1g","pricing_plan_id":"cebpf4jnsgd1na2vs0mg"},{"bike_id":"f4b585ad-5789-489d-9718-bb04a5be32da","system_id":"levelo_inurba_marseille","lat":43.28856,"lon":5.358371,"is_reserved":false,"is_disabled":false,"rental_uris":{"android":"levelo://app?vid=f4b585ad-5789-489d-9718-bb04a5be32da","ios":"levelo://app?vid=f4b585ad-5789-489d-9718-bb04a5be32da"},"vehicle_type_id":"4","last_reported":1725639045,"current_range_meters":0,"station_id":"ce4bhb12rcd13ifvqem0","pricing_plan_id":"cebpf4jnsgd1na2vs0mg"},{"bike_id":"921af63b-c8b1-416f-9c38-88666385431d","system_id":"levelo_inurba_marseille","lat":43.28856,"lon":5.358371,"is_reserved":false,"is_disabled":false,"rental_uris":{"android":"levelo://app?vid=921af63b-c8b1-416f-9c38-88666385431d","ios":"levelo://app?vid=921af63b-c8b1-416f-9c38-88666385431d"},"vehicle_type_id":"4","last_reported":1725639045,"current_range_meters":0,"station_id":"ce4bhb12rcd13ifvqem0","pricing_plan_id":"cebpf4jnsgd1na2vs0mg"},{"bike_id":"6a36f035-8f3c-4a13-889c-388182758057","system_id":"levelo_inurba_marseille","lat":43.28856,"lon":5.358371,"is_reserved":false,"is_disabled":false,"rental_uris":{"android":"levelo://app?vid=6a36f035-8f3c-4a13-889c-388182758057","ios":"levelo://app?vid=6a36f035-8f3c-4a13-889c-388182758057"},"vehicle_type_id":"4","last_reported":1725639045,"current_range_meters":0,"station_id":"ce4bhb12rcd13ifvqem0","pricing_plan_id":"cebpf4jnsgd1na2vs0mg"},{"bike_id":"588661c8-4dc7-4a4d-b068-bf0811cd658f","system_id":"levelo_inurba_marseille","lat":43.28856,"lon":5.358371,"is_reserved":false,"is_disabled":false,"rental_uris":{"android":"levelo://app?vid=588661c8-4dc7-4a4d-b068-bf0811cd658f","ios":"levelo://app?vid=588661c8-4dc7-4a4d-b068-bf0811cd658f"},"vehicle_type_id":"4","last_reported":1725639045,"current_range_meters":0,"station_id":"ce4bhb12rcd13ifvqem0","pricing_plan_id":"cebpf4jnsgd1na2vs0mg"},{"bike_id":"fe806469-8d43-4180-98e4-e30fcfb3f878","system_id":"levelo_inurba_marseille","lat":43.28856,"lon":5.358371,"is_reserved":false,"is_disabled":false,"rental_uris":{"android":"levelo://app?vid=fe806469-8d43-4180-98e4-e30fcfb3f878","ios":"levelo://app?vid=fe806469-8d43-4180-98e4-e30fcfb3f878"},"vehicle_type_id":"4","last_reported":1725639045,"current_range_meters":0,"station_id":"ce4bhb12rcd13ifvqem0","pricing_plan_id":"cebpf4jnsgd1na2vs0mg"},{"bike_id":"cf438647-2174-4576-a705-401895651a0e","system_id":"levelo_inurba_marseille","lat":43.31271,"lon":5.40166,"is_reserved":false,"is_disabled":false,"rental_uris":{"android":"levelo://app?vid=cf438647-2174-4576-a705-401895651a0e","ios":"levelo://app?vid=cf438647-2174-4576-a705-401895651a0e"},"vehicle_type_id":"4","last_reported":1725639045,"current_range_meters":22400,"station_id":"","pricing_plan_id":"cebpf4jnsgd1na2vs0mg"},{"bike_id":"3f3244df-bee4-4437-b2a1-ab9135c8e39a","system_id":"levelo_inurba_marseille","lat":43.33755,"lon":5.37449,"is_reserved":false,"is_disabled":false,"rental_uris":{"android":"levelo://app?vid=3f3244df-bee4-4437-b2a1-ab9135c8e39a","ios":"levelo://app?vid=3f3244df-bee4-4437-b2a1-ab9135c8e39a"},"vehicle_type_id":"4","last_reported":1725639045,"current_range_meters":26000,"station_id":"","pricing_plan_id":"cebpf4jnsgd1na2vs0mg"},{"bike_id":"027ef4b8-a45c-42f2-8656-36250348da25","system_id":"levelo_inurba_marseille","lat":43.33751,"lon":5.37483,"is_reserved":false,"is_disabled":false,"rental_uris":{"android":"levelo://app?vid=027ef4b8-a45c-42f2-8656-36250348da25","ios":"levelo://app?vid=027ef4b8-a45c-42f2-8656-36250348da25"},"vehicle_type_id":"4","last_reported":1725639045,"current_range_meters":25200,"station_id":"","pricing_plan_id":"cebpf4jnsgd1na2vs0mg"},{"bike_id":"b7489e53-0049-4044-a980-547a50a9f70e","system_id":"levelo_inurba_marseille","lat":43.31276,"lon":5.40203,"is_reserved":false,"is_disabled":false,"rental_uris":{"android":"levelo://app?vid=b7489e53-0049-4044-a980-547a50a9f70e","ios":"levelo://app?vid=b7489e53-0049-4044-a980-547a50a9f70e"},"vehicle_type_id":"4","last_reported":1725639045,"current_range_meters":2000,"station_id":"ce4bh092rcd13ifvqd30","pricing_plan_id":"cebpf4jnsgd1na2vs0mg"},{"bike_id":"c047511a-819d-44ae-9a09-e0c6f1cf9632","system_id":"levelo_inurba_marseille","lat":43.306412,"lon":5.401035,"is_reserved":false,"is_disabled":false,"rental_uris":{"android":"levelo://app?vid=c047511a-819d-44ae-9a09-e0c6f1cf9632","ios":"levelo://app?vid=c047511a-819d-44ae-9a09-e0c6f1cf9632"},"vehicle_type_id":"4","last_reported":1725639045,"current_range_meters":25200,"station_id":"ce4bh112rcd13ifvqda0","pricing_plan_id":"cebpf4jnsgd1na2vs0mg"},{"bike_id":"ea8b86fb-06a8-4736-9b06-d23b946857a1","system_id":"levelo_inurba_marseille","lat":43.301117,"lon":5.398795,"is_reserved":false,"is_disabled":false,"rental_uris":{"android":"levelo://app?vid=ea8b86fb-06a8-4736-9b06-d23b946857a1","ios":"levelo://app?vid=ea8b86fb-06a8-4736-9b06-d23b946857a1"},"vehicle_type_id":"4","last_reported":1725639045,"current_range_meters":0,"station_id":"ce4bh0h2rcd13ifvqd40","pricing_plan_id":"cebpf4jnsgd1na2vs0mg"},{"bike_id":"8ca9acea-5d1d-4509-b434-70933d2143e2","system_id":"levelo_inurba_marseille","lat":43.30122,"lon":5.39849,"is_reserved":false,"is_disabled":false,"rental_uris":{"android":"levelo://app?vid=8ca9acea-5d1d-4509-b434-70933d2143e2","ios":"levelo://app?vid=8ca9acea-5d1d-4509-b434-70933d2143e2"},"vehicle_type_id":"4","last_reported":1725639045,"current_range_meters":11200,"station_id":"ce4bh0h2rcd13ifvqd40","pricing_plan_id":"cebpf4jnsgd1na2vs0mg"},{"bike_id":"83e1febb-afb7-49bb-a33c-998468ff1d2f","system_id":"levelo_inurba_marseille","lat":43.30143,"lon":5.39875,"is_reserved":false,"is_disabled":false,"rental_uris":{"android":"levelo://app?vid=83e1febb-afb7-49bb-a33c-998468ff1d2f","ios":"levelo://app?vid=83e1febb-afb7-49bb-a33c-998468ff1d2f"},"vehicle_type_id":"4","last_reported":1725639045,"current_range_meters":0,"station_id":"ce4bh0h2rcd13ifvqd40","pricing_plan_id":"cebpf4jnsgd1na2vs0mg"},{"bike_id":"ccf2ab0a-77ec-433d-8fe6-f0e29bd43e21","system_id":"levelo_inurba_marseille","lat":43.28924,"lon":5.38276,"is_reserved":false,"is_disabled":false,"rental_uris":{"android":"levelo://app?vid=ccf2ab0a-77ec-433d-8fe6-f0e29bd43e21","ios":"levelo://app?vid=ccf2ab0a-77ec-433d-8fe6-f0e29bd43e21"},"vehicle_type_id":"4","last_reported":1725639045,"current_range_meters":1600,"station_id":"","pricing_plan_id":"cebpf4jnsgd1na2vs0mg"},{"bike_id":"af41446e-dd4b-4c2b-a737-f2fdfcba7147","system_id":"levelo_inurba_marseille","lat":43.286961,"lon":5.373785,"is_reserved":false,"is_disabled":false,"rental_uris":{"android":"levelo://app?vid=af41446e-dd4b-4c2b-a737-f2fdfcba7147","ios":"levelo://app?vid=af41446e-dd4b-4c2b-a737-f2fdfcba7147"},"vehicle_type_id":"4","last_reported":1725639045,"current_range_meters":0,"station_id":"ce4bh3p2rcd13ifvqdq0","pricing_plan_id":"cebpf4jnsgd1na2vs0mg"},{"bike_id":"38f99607-b82b-473a-98fa-fec9a54308f8","system_id":"levelo_inurba_marseille","lat":43.286593,"lon":5.363346,"is_reserved":false,"is_disabled":false,"rental_uris":{"android":"levelo://app?vid=38f99607-b82b-473a-98fa-fec9a54308f8","ios":"levelo://app?vid=38f99607-b82b-473a-98fa-fec9a54308f8"},"vehicle_type_id":"4","last_reported":1725639045,"current_range_meters":16800,"station_id":"ce4bhah2rcd13ifvqej0","pricing_plan_id":"cebpf4jnsgd1na2vs0mg"},{"bike_id":"6eeba022-ff8e-4b53-8c8b-df93111c97b7","system_id":"levelo_inurba_marseille","lat":43.295196,"lon":5.39397,"is_reserved":false,"is_disabled":false,"rental_uris":{"android":"levelo://app?vid=6eeba022-ff8e-4b53-8c8b-df93111c97b7","ios":"levelo://app?vid=6eeba022-ff8e-4b53-8c8b-df93111c97b7"},"vehicle_type_id":"4","last_reported":1725639045,"current_range_meters":31600,"station_id":"ce4bh292rcd13ifvqdf0","pricing_plan_id":"cebpf4jnsgd1na2vs0mg"},{"bike_id":"16e51e99-6846-406f-beb8-782629c72e6a","system_id":"levelo_inurba_marseille","lat":43.29033,"lon":5.38649,"is_reserved":false,"is_disabled":false,"rental_uris":{"android":"levelo://app?vid=16e51e99-6846-406f-beb8-782629c72e6a","ios":"levelo://app?vid=16e51e99-6846-406f-beb8-782629c72e6a"},"vehicle_type_id":"4","last_reported":1725639045,"current_range_meters":21600,"station_id":"ce4bh4p2rcd13ifvqe0g","pricing_plan_id":"cebpf4jnsgd1na2vs0mg"},{"bike_id":"adef0cd8-89ca-4179-8b58-d1bdee23d7cc","system_id":"levelo_inurba_marseille","lat":43.290264,"lon":5.38639,"is_reserved":false,"is_disabled":false,"rental_uris":{"android":"levelo://app?vid=adef0cd8-89ca-4179-8b58-d1bdee23d7cc","ios":"levelo://app?vid=adef0cd8-89ca-4179-8b58-d1bdee23d7cc"},"vehicle_type_id":"4","last_reported":1725639045,"current_range_meters":0,"station_id":"ce4bh4p2rcd13ifvqe0g","pricing_plan_id":"cebpf4jnsgd1na2vs0mg"},{"bike_id":"6c66c489-6b26-4b08-be85-13241195d50c","system_id":"levelo_inurba_marseille","lat":43.302759,"lon":5.400793,"is_reserved":false,"is_disabled":false,"rental_uris":{"android":"levelo://app?vid=6c66c489-6b26-4b08-be85-13241195d50c","ios":"levelo://app?vid=6c66c489-6b26-4b08-be85-13241195d50c"},"vehicle_type_id":"4","last_reported":1725639045,"current_range_meters":20800,"station_id":"ce4bgvh2rcd13ifvqcs0","pricing_plan_id":"cebpf4jnsgd1na2vs0mg"},{"bike_id":"e94893df-6ab8-4fcd-b747-855618edb343","system_id":"levelo_inurba_marseille","lat":43.302759,"lon":5.400793,"is_reserved":false,"is_disabled":false,"rental_uris":{"android":"levelo://app?vid=e94893df-6ab8-4fcd-b747-855618edb343","ios":"levelo://app?vid=e94893df-6ab8-4fcd-b747-855618edb343"},"vehicle_type_id":"4","last_reported":1725639045,"current_range_meters":0,"station_id":"ce4bgvh2rcd13ifvqcs0","pricing_plan_id":"cebpf4jnsgd1na2vs0mg"},{"bike_id":"9869579e-e7f9-4b79-bcb4-50e1955124f1","system_id":"levelo_inurba_marseille","lat":43.286039,"lon":5.370679,"is_reserved":false,"is_disabled":false,"rental_uris":{"android":"levelo://app?vid=9869579e-e7f9-4b79-bcb4-50e1955124f1","ios":"levelo://app?vid=9869579e-e7f9-4b79-bcb4-50e1955124f1"},"vehicle_type_id":"4","last_reported":1725639045,"current_range_meters":16400,"station_id":"ce4bht12rcd13ifvqi60","pricing_plan_id":"cebpf4jnsgd1na2vs0mg"},{"bike_id":"3d0b8721-a479-4569-a415-8f75feb39698","system_id":"levelo_inurba_marseille","lat":43.286039,"lon":5.370679,"is_reserved":false,"is_disabled":false,"rental_uris":{"android":"levelo://app?vid=3d0b8721-a479-4569-a415-8f75feb39698","ios":"levelo://app?vid=3d0b8721-a479-4569-a415-8f75feb39698"},"vehicle_type_id":"4","last_reported":1725639045,"current_range_meters":15200,"station_id":"ce4bht12rcd13ifvqi60","pricing_plan_id":"cebpf4jnsgd1na2vs0mg"},{"bike_id":"4b68c990-c582-4c0b-9c0b-9384b9300ef9","system_id":"levelo_inurba_marseille","lat":43.28733,"lon":5.37924,"is_reserved":false,"is_disabled":false,"rental_uris":{"android":"levelo://app?vid=4b68c990-c582-4c0b-9c0b-9384b9300ef9","ios":"levelo://app?vid=4b68c990-c582-4c0b-9c0b-9384b9300ef9"},"vehicle_type_id":"4","last_reported":1725639045,"current_range_meters":800,"station_id":"ce4bh9p2rcd13ifvqec0","pricing_plan_id":"cebpf4jnsgd1na2vs0mg"},{"bike_id":"6c38411a-884e-47af-a3bc-df00b1336016","system_id":"levelo_inurba_marseille","lat":43.287184,"lon":5.37937,"is_reserved":false,"is_disabled":false,"rental_uris":{"android":"levelo://app?vid=6c38411a-884e-47af-a3bc-df00b1336016","ios":"levelo://app?vid=6c38411a-884e-47af-a3bc-df00b1336016"},"vehicle_type_id":"4","last_reported":1725639045,"current_range_meters":12000,"station_id":"ce4bh9p2rcd13ifvqec0","pricing_plan_id":"cebpf4jnsgd1na2vs0mg"},{"bike_id":"218e6b60-0ae9-47af-834c-06a575cf3beb","system_id":"levelo_inurba_marseille","lat":43.287185,"lon":5.379373,"is_reserved":false,"is_disabled":false,"rental_uris":{"android":"levelo://app?vid=218e6b60-0ae9-47af-834c-06a575cf3beb","ios":"levelo://app?vid=218e6b60-0ae9-47af-834c-06a575cf3beb"},"vehicle_type_id":"4","last_reported":1725639045,"current_range_meters":22800,"station_id":"ce4bh9p2rcd13ifvqec0","pricing_plan_id":"cebpf4jnsgd1na2vs0mg"},{"bike_id":"21ce2159-d287-4f58-908d-e5be722903c7","system_id":"levelo_inurba_marseille","lat":43.301458,"lon":5.400813,"is_reserved":false,"is_disabled":false,"rental_uris":{"android":"levelo://app?vid=21ce2159-d287-4f58-908d-e5be722903c7","ios":"levelo://app?vid=21ce2159-d287-4f58-908d-e5be722903c7"},"vehicle_type_id":"4","last_reported":1725639045,"current_range_meters":3200,"station_id":"","pricing_plan_id":"cebpf4jnsgd1na2vs0mg"},{"bike_id":"684b82fd-2efa-4046-9d1d-c82a7779c355","system_id":"levelo_inurba_marseille","lat":43.284538,"lon":5.358657,"is_reserved":false,"is_disabled":false,"rental_uris":{"android":"levelo://app?vid=684b82fd-2efa-4046-9d1d-c82a7779c355","ios":"levelo://app?vid=684b82fd-2efa-4046-9d1d-c82a7779c355"},"vehicle_type_id":"4","last_reported":1725639045,"current_range_meters":14800,"station_id":"ce4bhah2rcd13ifvqei0","pricing_plan_id":"cebpf4jnsgd1na2vs0mg"},{"bike_id":"8a66f99d-b903-49fa-998a-91176edca8af","system_id":"levelo_inurba_marseille","lat":43.284534,"lon":5.358662,"is_reserved":false,"is_disabled":false,"rental_uris":{"android":"levelo://app?vid=8a66f99d-b903-49fa-998a-91176edca8af","ios":"levelo://app?vid=8a66f99d-b903-49fa-998a-91176edca8af"},"vehicle_type_id":"4","last_reported":1725639045,"current_range_meters":10000,"station_id":"ce4bhah2rcd13ifvqei0","pricing_plan_id":"cebpf4jnsgd1na2vs0mg"},{"bike_id":"82941dd0-81f1-4019-8a7c-8fe60616e61a","system_id":"levelo_inurba_marseille","lat":43.284534,"lon":5.358662,"is_reserved":false,"is_disabled":false,"rental_uris":{"android":"levelo://app?vid=82941dd0-81f1-4019-8a7c-8fe60616e61a","ios":"levelo://app?vid=82941dd0-81f1-4019-8a7c-8fe60616e61a"},"vehicle_type_id":"4","last_reported":1725639045,"current_range_meters":18000,"station_id":"ce4bhah2rcd13ifvqei0","pricing_plan_id":"cebpf4jnsgd1na2vs0mg"},{"bike_id":"00e7a99e-e1ca-4e83-85d2-ed78bd63e196","system_id":"levelo_inurba_marseille","lat":43.284538,"lon":5.358657,"is_reserved":false,"is_disabled":false,"rental_uris":{"android":"levelo://app?vid=00e7a99e-e1ca-4e83-85d2-ed78bd63e196","ios":"levelo://app?vid=00e7a99e-e1ca-4e83-85d2-ed78bd63e196"},"vehicle_type_id":"4","last_reported":1725639045,"current_range_meters":800,"station_id":"ce4bhah2rcd13ifvqei0","pricing_plan_id":"cebpf4jnsgd1na2vs0mg"},{"bike_id":"f07636b6-dd39-49df-925d-73fa94b4e604","system_id":"levelo_inurba_marseille","lat":43.284538,"lon":5.358657,"is_reserved":false,"is_disabled":false,"rental_uris":{"android":"levelo://app?vid=f07636b6-dd39-49df-925d-73fa94b4e604","ios":"levelo://app?vid=f07636b6-dd39-49df-925d-73fa94b4e604"},"vehicle_type_id":"4","last_reported":1725639045,"current_range_meters":29200,"station_id":"ce4bhah2rcd13ifvqei0","pricing_plan_id":"cebpf4jnsgd1na2vs0mg"},{"bike_id":"69b399e2-b1d2-4c8d-ac9a-48d5a0552222","system_id":"levelo_inurba_marseille","lat":43.284538,"lon":5.358657,"is_reserved":false,"is_disabled":false,"rental_uris":{"android":"levelo://app?vid=69b399e2-b1d2-4c8d-ac9a-48d5a0552222","ios":"levelo://app?vid=69b399e2-b1d2-4c8d-ac9a-48d5a0552222"},"vehicle_type_id":"4","last_reported":1725639045,"current_range_meters":20400,"station_id":"ce4bhah2rcd13ifvqei0","pricing_plan_id":"cebpf4jnsgd1na2vs0mg"},{"bike_id":"89a6c45f-1722-4c73-92ce-ea3c9b41af57","system_id":"levelo_inurba_marseille","lat":43.284534,"lon":5.358662,"is_reserved":false,"is_disabled":false,"rental_uris":{"android":"levelo://app?vid=89a6c45f-1722-4c73-92ce-ea3c9b41af57","ios":"levelo://app?vid=89a6c45f-1722-4c73-92ce-ea3c9b41af57"},"vehicle_type_id":"4","last_reported":1725639045,"current_range_meters":15600,"station_id":"ce4bhah2rcd13ifvqei0","pricing_plan_id":"cebpf4jnsgd1na2vs0mg"},{"bike_id":"48af24b4-f8cc-413d-9c62-1a3e4acfb5f9","system_id":"levelo_inurba_marseille","lat":43.284534,"lon":5.358662,"is_reserved":false,"is_disabled":false,"rental_uris":{"android":"levelo://app?vid=48af24b4-f8cc-413d-9c62-1a3e4acfb5f9","ios":"levelo://app?vid=48af24b4-f8cc-413d-9c62-1a3e4acfb5f9"},"vehicle_type_id":"4","last_reported":1725639045,"current_range_meters":6800,"station_id":"ce4bhah2rcd13ifvqei0","pricing_plan_id":"cebpf4jnsgd1na2vs0mg"},{"bike_id":"5303e8bc-5516-41f0-8c69-a3049fd5b8b9","system_id":"levelo_inurba_marseille","lat":43.28459,"lon":5.35881,"is_reserved":false,"is_disabled":false,"rental_uris":{"android":"levelo://app?vid=5303e8bc-5516-41f0-8c69-a3049fd5b8b9","ios":"levelo://app?vid=5303e8bc-5516-41f0-8c69-a3049fd5b8b9"},"vehicle_type_id":"4","last_reported":1725639045,"current_range_meters":0,"station_id":"ce4bhah2rcd13ifvqei0","pricing_plan_id":"cebpf4jnsgd1na2vs0mg"},{"bike_id":"0710b701-14ab-4a2c-915c-925f7127e06d","system_id":"levelo_inurba_marseille","lat":43.284534,"lon":5.358662,"is_reserved":false,"is_disabled":false,"rental_uris":{"android":"levelo://app?vid=0710b701-14ab-4a2c-915c-925f7127e06d","ios":"levelo://app?vid=0710b701-14ab-4a2c-915c-925f7127e06d"},"vehicle_type_id":"4","last_reported":1725639045,"current_range_meters":2400,"station_id":"ce4bhah2rcd13ifvqei0","pricing_plan_id":"cebpf4jnsgd1na2vs0mg"},{"bike_id":"337da942-d9ba-487e-b9d5-a7b63685d93f","system_id":"levelo_inurba_marseille","lat":43.284534,"lon":5.358662,"is_reserved":false,"is_disabled":false,"rental_uris":{"android":"levelo://app?vid=337da942-d9ba-487e-b9d5-a7b63685d93f","ios":"levelo://app?vid=337da942-d9ba-487e-b9d5-a7b63685d93f"},"vehicle_type_id":"4","last_reported":1725639045,"current_range_meters":22800,"station_id":"ce4bhah2rcd13ifvqei0","pricing_plan_id":"cebpf4jnsgd1na2vs0mg"},{"bike_id":"df79789f-3909-4000-8600-0ea120013ff7","system_id":"levelo_inurba_marseille","lat":43.28413,"lon":5.37165,"is_reserved":false,"is_disabled":false,"rental_uris":{"android":"levelo://app?vid=df79789f-3909-4000-8600-0ea120013ff7","ios":"levelo://app?vid=df79789f-3909-4000-8600-0ea120013ff7"},"vehicle_type_id":"4","last_reported":1725639045,"current_range_meters":1600,"station_id":"","pricing_plan_id":"cebpf4jnsgd1na2vs0mg"},{"bike_id":"32a3bc19-2c22-4d5d-afae-e4769f37539f","system_id":"levelo_inurba_marseille","lat":43.294314,"lon":5.397498,"is_reserved":false,"is_disabled":false,"rental_uris":{"android":"levelo://app?vid=32a3bc19-2c22-4d5d-afae-e4769f37539f","ios":"levelo://app?vid=32a3bc19-2c22-4d5d-afae-e4769f37539f"},"vehicle_type_id":"4","last_reported":1725639045,"current_range_meters":12400,"station_id":"ce4bh3h2rcd13ifvqdo0","pricing_plan_id":"cebpf4jnsgd1na2vs0mg"},{"bike_id":"65603fc3-822e-4d62-8ad6-eec7174b7bbc","system_id":"levelo_inurba_marseille","lat":43.29434,"lon":5.39752,"is_reserved":false,"is_disabled":false,"rental_uris":{"android":"levelo://app?vid=65603fc3-822e-4d62-8ad6-eec7174b7bbc","ios":"levelo://app?vid=65603fc3-822e-4d62-8ad6-eec7174b7bbc"},"vehicle_type_id":"4","last_reported":1725639045,"current_range_meters":0,"station_id":"ce4bh3h2rcd13ifvqdo0","pricing_plan_id":"cebpf4jnsgd1na2vs0mg"},{"bike_id":"df7ca32f-3093-4b01-8016-d91389b6ef6c","system_id":"levelo_inurba_marseille","lat":43.28621,"lon":5.35103,"is_reserved":false,"is_disabled":false,"rental_uris":{"android":"levelo://app?vid=df7ca32f-3093-4b01-8016-d91389b6ef6c","ios":"levelo://app?vid=df7ca32f-3093-4b01-8016-d91389b6ef6c"},"vehicle_type_id":"4","last_reported":1725639045,"current_range_meters":0,"station_id":"ce4bhch2rcd13ifvqeug","pricing_plan_id":"cebpf4jnsgd1na2vs0mg"},{"bike_id":"4d6175a7-8d2f-4ce2-9790-f89d0ed14215","system_id":"levelo_inurba_marseille","lat":43.2862,"lon":5.35106,"is_reserved":false,"is_disabled":false,"rental_uris":{"android":"levelo://app?vid=4d6175a7-8d2f-4ce2-9790-f89d0ed14215","ios":"levelo://app?vid=4d6175a7-8d2f-4ce2-9790-f89d0ed14215"},"vehicle_type_id":"4","last_reported":1725639045,"current_range_meters":27200,"station_id":"ce4bhch2rcd13ifvqeug","pricing_plan_id":"cebpf4jnsgd1na2vs0mg"},{"bike_id":"307cc533-22e4-42f3-b66b-8c66ae3997b1","system_id":"levelo_inurba_marseille","lat":43.2862,"lon":5.35101,"is_reserved":false,"is_disabled":false,"rental_uris":{"android":"levelo://app?vid=307cc533-22e4-42f3-b66b-8c66ae3997b1","ios":"levelo://app?vid=307cc533-22e4-42f3-b66b-8c66ae3997b1"},"vehicle_type_id":"4","last_reported":1725639045,"current_range_meters":28400,"station_id":"ce4bhch2rcd13ifvqeug","pricing_plan_id":"cebpf4jnsgd1na2vs0mg"},{"bike_id":"52a67b80-b9da-4fef-9134-9c882dfd1028","system_id":"levelo_inurba_marseille","lat":43.285856,"lon":5.350771,"is_reserved":false,"is_disabled":false,"rental_uris":{"android":"levelo://app?vid=52a67b80-b9da-4fef-9134-9c882dfd1028","ios":"levelo://app?vid=52a67b80-b9da-4fef-9134-9c882dfd1028"},"vehicle_type_id":"4","last_reported":1725639045,"current_range_meters":4400,"station_id":"ce4bhch2rcd13ifvqeug","pricing_plan_id":"cebpf4jnsgd1na2vs0mg"},{"bike_id":"127b19aa-bb81-4e37-94fb-6b7450d0e7ae","system_id":"levelo_inurba_marseille","lat":43.285856,"lon":5.350771,"is_reserved":false,"is_disabled":false,"rental_uris":{"android":"levelo://app?vid=127b19aa-bb81-4e37-94fb-6b7450d0e7ae","ios":"levelo://app?vid=127b19aa-bb81-4e37-94fb-6b7450d0e7ae"},"vehicle_type_id":"4","last_reported":1725639045,"current_range_meters":16400,"station_id":"ce4bhch2rcd13ifvqeug","pricing_plan_id":"cebpf4jnsgd1na2vs0mg"},{"bike_id":"176cf49b-1a65-4a77-9cbf-6f3f5244d377","system_id":"levelo_inurba_marseille","lat":43.28617,"lon":5.351,"is_reserved":false,"is_disabled":false,"rental_uris":{"android":"levelo://app?vid=176cf49b-1a65-4a77-9cbf-6f3f5244d377","ios":"levelo://app?vid=176cf49b-1a65-4a77-9cbf-6f3f5244d377"},"vehicle_type_id":"4","last_reported":1725639045,"current_range_meters":3600,"station_id":"ce4bhch2rcd13ifvqeug","pricing_plan_id":"cebpf4jnsgd1na2vs0mg"},{"bike_id":"9556ccef-370c-4164-8f57-2dda8f49757e","system_id":"levelo_inurba_marseille","lat":43.28614,"lon":5.35107,"is_reserved":false,"is_disabled":false,"rental_uris":{"android":"levelo://app?vid=9556ccef-370c-4164-8f57-2dda8f49757e","ios":"levelo://app?vid=9556ccef-370c-4164-8f57-2dda8f49757e"},"vehicle_type_id":"4","last_reported":1725639045,"current_range_meters":0,"station_id":"ce4bhch2rcd13ifvqeug","pricing_plan_id":"cebpf4jnsgd1na2vs0mg"},{"bike_id":"96668780-6e93-485f-b59c-5f038cb18f12","system_id":"levelo_inurba_marseille","lat":43.28615,"lon":5.35101,"is_reserved":false,"is_disabled":false,"rental_uris":{"android":"levelo://app?vid=96668780-6e93-485f-b59c-5f038cb18f12","ios":"levelo://app?vid=96668780-6e93-485f-b59c-5f038cb18f12"},"vehicle_type_id":"4","last_reported":1725639045,"current_range_meters":0,"station_id":"ce4bhch2rcd13ifvqeug","pricing_plan_id":"cebpf4jnsgd1na2vs0mg"},{"bike_id":"f8406f80-539d-4ad9-b212-de93b7584845","system_id":"levelo_inurba_marseille","lat":43.285856,"lon":5.350771,"is_reserved":false,"is_disabled":false,"rental_uris":{"android":"levelo://app?vid=f8406f80-539d-4ad9-b212-de93b7584845","ios":"levelo://app?vid=f8406f80-539d-4ad9-b212-de93b7584845"},"vehicle_type_id":"4","last_reported":1725639045,"current_range_meters":19200,"station_id":"ce4bhch2rcd13ifvqeug","pricing_plan_id":"cebpf4jnsgd1na2vs0mg"},{"bike_id":"5db380bd-c862-4f48-aad9-326c43f2df34","system_id":"levelo_inurba_marseille","lat":43.285856,"lon":5.350771,"is_reserved":false,"is_disabled":false,"rental_uris":{"android":"levelo://app?vid=5db380bd-c862-4f48-aad9-326c43f2df34","ios":"levelo://app?vid=5db380bd-c862-4f48-aad9-326c43f2df34"},"vehicle_type_id":"4","last_reported":1725639045,"current_range_meters":19200,"station_id":"ce4bhch2rcd13ifvqeug","pricing_plan_id":"cebpf4jnsgd1na2vs0mg"},{"bike_id":"ac765b2c-0407-4d4a-9718-65e87036360f","system_id":"levelo_inurba_marseille","lat":43.283998,"lon":5.375062,"is_reserved":false,"is_disabled":false,"rental_uris":{"android":"levelo://app?vid=ac765b2c-0407-4d4a-9718-65e87036360f","ios":"levelo://app?vid=ac765b2c-0407-4d4a-9718-65e87036360f"},"vehicle_type_id":"4","last_reported":1725639045,"current_range_meters":13200,"station_id":"ce4bh412rcd13ifvqds0","pricing_plan_id":"cebpf4jnsgd1na2vs0mg"},{"bike_id":"9418ad94-a10b-4f26-a458-5dc4cc378167","system_id":"levelo_inurba_marseille","lat":43.2957,"lon":5.39968,"is_reserved":false,"is_disabled":false,"rental_uris":{"android":"levelo://app?vid=9418ad94-a10b-4f26-a458-5dc4cc378167","ios":"levelo://app?vid=9418ad94-a10b-4f26-a458-5dc4cc378167"},"vehicle_type_id":"4","last_reported":1725639045,"current_range_meters":0,"station_id":"ce4bh312rcd13ifvqdj0","pricing_plan_id":"cebpf4jnsgd1na2vs0mg"},{"bike_id":"dfe15bf7-ea6b-4d9e-9a8d-d4306da21bdf","system_id":"levelo_inurba_marseille","lat":43.295713,"lon":5.399639,"is_reserved":false,"is_disabled":false,"rental_uris":{"android":"levelo://app?vid=dfe15bf7-ea6b-4d9e-9a8d-d4306da21bdf","ios":"levelo://app?vid=dfe15bf7-ea6b-4d9e-9a8d-d4306da21bdf"},"vehicle_type_id":"4","last_reported":1725639045,"current_range_meters":22400,"station_id":"ce4bh312rcd13ifvqdj0","pricing_plan_id":"cebpf4jnsgd1na2vs0mg"},{"bike_id":"fc1b797d-4d29-4c68-a49a-74c5e1baea14","system_id":"levelo_inurba_marseille","lat":43.284793,"lon":5.384113,"is_reserved":false,"is_disabled":false,"rental_uris":{"android":"levelo://app?vid=fc1b797d-4d29-4c68-a49a-74c5e1baea14","ios":"levelo://app?vid=fc1b797d-4d29-4c68-a49a-74c5e1baea14"},"vehicle_type_id":"4","last_reported":1725639045,"current_range_meters":0,"station_id":"ce4bh512rcd13ifvqe3g","pricing_plan_id":"cebpf4jnsgd1na2vs0mg"},{"bike_id":"d24e4cc8-c9a3-4f0b-a5a2-ce3989175d54","system_id":"levelo_inurba_marseille","lat":43.28689,"lon":5.38673,"is_reserved":false,"is_disabled":false,"rental_uris":{"android":"levelo://app?vid=d24e4cc8-c9a3-4f0b-a5a2-ce3989175d54","ios":"levelo://app?vid=d24e4cc8-c9a3-4f0b-a5a2-ce3989175d54"},"vehicle_type_id":"4","last_reported":1725639045,"current_range_meters":0,"station_id":"ce4bh492rcd13ifvqdug","pricing_plan_id":"cebpf4jnsgd1na2vs0mg"},{"bike_id":"2b5e4224-9ef7-40b4-b4cf-4be7775b8475","system_id":"levelo_inurba_marseille","lat":43.286595,"lon":5.386795,"is_reserved":false,"is_disabled":false,"rental_uris":{"android":"levelo://app?vid=2b5e4224-9ef7-40b4-b4cf-4be7775b8475","ios":"levelo://app?vid=2b5e4224-9ef7-40b4-b4cf-4be7775b8475"},"vehicle_type_id":"4","last_reported":1725639045,"current_range_meters":22800,"station_id":"ce4bh492rcd13ifvqdug","pricing_plan_id":"cebpf4jnsgd1na2vs0mg"},{"bike_id":"5938b28d-70ff-41fd-9627-debbd1c52c46","system_id":"levelo_inurba_marseille","lat":43.286595,"lon":5.386795,"is_reserved":false,"is_disabled":false,"rental_uris":{"android":"levelo://app?vid=5938b28d-70ff-41fd-9627-debbd1c52c46","ios":"levelo://app?vid=5938b28d-70ff-41fd-9627-debbd1c52c46"},"vehicle_type_id":"4","last_reported":1725639045,"current_range_meters":0,"station_id":"ce4bh492rcd13ifvqdug","pricing_plan_id":"cebpf4jnsgd1na2vs0mg"},{"bike_id":"d8a7b10d-8b18-46ec-9277-5b706b94ee00","system_id":"levelo_inurba_marseille","lat":43.319179,"lon":5.407725,"is_reserved":false,"is_disabled":false,"rental_uris":{"android":"levelo://app?vid=d8a7b10d-8b18-46ec-9277-5b706b94ee00","ios":"levelo://app?vid=d8a7b10d-8b18-46ec-9277-5b706b94ee00"},"vehicle_type_id":"4","last_reported":1725639045,"current_range_meters":26400,"station_id":"ce4bhq12rcd13ifvqhig","pricing_plan_id":"cebpf4jnsgd1na2vs0mg"},{"bike_id":"04ec0ad3-6f08-4db3-bbdc-574954dc92b1","system_id":"levelo_inurba_marseille","lat":43.288497,"lon":5.393089,"is_reserved":false,"is_disabled":false,"rental_uris":{"android":"levelo://app?vid=04ec0ad3-6f08-4db3-bbdc-574954dc92b1","ios":"levelo://app?vid=04ec0ad3-6f08-4db3-bbdc-574954dc92b1"},"vehicle_type_id":"4","last_reported":1725639045,"current_range_meters":2000,"station_id":"ce4bh2p2rcd13ifvqdi0","pricing_plan_id":"cebpf4jnsgd1na2vs0mg"},{"bike_id":"96e25e5a-07d0-4cb9-9f6f-adbfd9693ab5","system_id":"levelo_inurba_marseille","lat":43.288497,"lon":5.393089,"is_reserved":false,"is_disabled":false,"rental_uris":{"android":"levelo://app?vid=96e25e5a-07d0-4cb9-9f6f-adbfd9693ab5","ios":"levelo://app?vid=96e25e5a-07d0-4cb9-9f6f-adbfd9693ab5"},"vehicle_type_id":"4","last_reported":1725639045,"current_range_meters":0,"station_id":"ce4bh2p2rcd13ifvqdi0","pricing_plan_id":"cebpf4jnsgd1na2vs0mg"},{"bike_id":"a1461c81-8d5f-4d6c-ba29-f8c17a6d055d","system_id":"levelo_inurba_marseille","lat":43.283494,"lon":5.380945,"is_reserved":false,"is_disabled":false,"rental_uris":{"android":"levelo://app?vid=a1461c81-8d5f-4d6c-ba29-f8c17a6d055d","ios":"levelo://app?vid=a1461c81-8d5f-4d6c-ba29-f8c17a6d055d"},"vehicle_type_id":"4","last_reported":1725639045,"current_range_meters":0,"station_id":"ce4bh412rcd13ifvqdr0","pricing_plan_id":"cebpf4jnsgd1na2vs0mg"},{"bike_id":"55d551ba-2745-49af-b13d-519e5725b82c","system_id":"levelo_inurba_marseille","lat":43.28358,"lon":5.38097,"is_reserved":false,"is_disabled":false,"rental_uris":{"android":"levelo://app?vid=55d551ba-2745-49af-b13d-519e5725b82c","ios":"levelo://app?vid=55d551ba-2745-49af-b13d-519e5725b82c"},"vehicle_type_id":"4","last_reported":1725639045,"current_range_meters":5600,"station_id":"ce4bh412rcd13ifvqdr0","pricing_plan_id":"cebpf4jnsgd1na2vs0mg"},{"bike_id":"e96e09ac-93c2-490d-b22b-92811e88c4b1","system_id":"levelo_inurba_marseille","lat":43.283498,"lon":5.380948,"is_reserved":false,"is_disabled":false,"rental_uris":{"android":"levelo://app?vid=e96e09ac-93c2-490d-b22b-92811e88c4b1","ios":"levelo://app?vid=e96e09ac-93c2-490d-b22b-92811e88c4b1"},"vehicle_type_id":"4","last_reported":1725639045,"current_range_meters":24000,"station_id":"ce4bh412rcd13ifvqdr0","pricing_plan_id":"cebpf4jnsgd1na2vs0mg"},{"bike_id":"ac73f8ad-56ae-460f-b337-2e9821e185c8","system_id":"levelo_inurba_marseille","lat":43.284776,"lon":5.385603,"is_reserved":false,"is_disabled":false,"rental_uris":{"android":"levelo://app?vid=ac73f8ad-56ae-460f-b337-2e9821e185c8","ios":"levelo://app?vid=ac73f8ad-56ae-460f-b337-2e9821e185c8"},"vehicle_type_id":"4","last_reported":1725639045,"current_range_meters":800,"station_id":"ce4bh8p2rcd13ifvqeb0","pricing_plan_id":"cebpf4jnsgd1na2vs0mg"},{"bike_id":"674b75b4-8dd1-4fc8-bb99-42a51c8f4527","system_id":"levelo_inurba_marseille","lat":43.28429,"lon":5.3499,"is_reserved":false,"is_disabled":false,"rental_uris":{"android":"levelo://app?vid=674b75b4-8dd1-4fc8-bb99-42a51c8f4527","ios":"levelo://app?vid=674b75b4-8dd1-4fc8-bb99-42a51c8f4527"},"vehicle_type_id":"4","last_reported":1725639045,"current_range_meters":20800,"station_id":"ce4bhbh2rcd13ifvqepg","pricing_plan_id":"cebpf4jnsgd1na2vs0mg"},{"bike_id":"e91f9d8e-5b6c-4af7-9463-90d180960e56","system_id":"levelo_inurba_marseille","lat":43.28427,"lon":5.34992,"is_reserved":false,"is_disabled":false,"rental_uris":{"android":"levelo://app?vid=e91f9d8e-5b6c-4af7-9463-90d180960e56","ios":"levelo://app?vid=e91f9d8e-5b6c-4af7-9463-90d180960e56"},"vehicle_type_id":"4","last_reported":1725639045,"current_range_meters":30800,"station_id":"ce4bhbh2rcd13ifvqepg","pricing_plan_id":"cebpf4jnsgd1na2vs0mg"},{"bike_id":"9ac30fa6-1345-4259-9ffb-3643c148ee4b","system_id":"levelo_inurba_marseille","lat":43.28426,"lon":5.349928,"is_reserved":false,"is_disabled":false,"rental_uris":{"android":"levelo://app?vid=9ac30fa6-1345-4259-9ffb-3643c148ee4b","ios":"levelo://app?vid=9ac30fa6-1345-4259-9ffb-3643c148ee4b"},"vehicle_type_id":"4","last_reported":1725639045,"current_range_meters":29200,"station_id":"ce4bhbh2rcd13ifvqepg","pricing_plan_id":"cebpf4jnsgd1na2vs0mg"},{"bike_id":"c510310b-7989-45af-8e47-0129a4305a5b","system_id":"levelo_inurba_marseille","lat":43.284217,"lon":5.349697,"is_reserved":false,"is_disabled":false,"rental_uris":{"android":"levelo://app?vid=c510310b-7989-45af-8e47-0129a4305a5b","ios":"levelo://app?vid=c510310b-7989-45af-8e47-0129a4305a5b"},"vehicle_type_id":"4","last_reported":1725639045,"current_range_meters":30000,"station_id":"ce4bhbh2rcd13ifvqepg","pricing_plan_id":"cebpf4jnsgd1na2vs0mg"},{"bike_id":"ffa60ed6-b23b-4858-a946-826062406770","system_id":"levelo_inurba_marseille","lat":43.284201,"lon":5.349911,"is_reserved":false,"is_disabled":false,"rental_uris":{"android":"levelo://app?vid=ffa60ed6-b23b-4858-a946-826062406770","ios":"levelo://app?vid=ffa60ed6-b23b-4858-a946-826062406770"},"vehicle_type_id":"4","last_reported":1725639045,"current_range_meters":3200,"station_id":"ce4bhbh2rcd13ifvqepg","pricing_plan_id":"cebpf4jnsgd1na2vs0mg"},{"bike_id":"12f528bb-cb13-4b64-9595-a0597d970bd4","system_id":"levelo_inurba_marseille","lat":43.28422,"lon":5.3498,"is_reserved":false,"is_disabled":false,"rental_uris":{"android":"levelo://app?vid=12f528bb-cb13-4b64-9595-a0597d970bd4","ios":"levelo://app?vid=12f528bb-cb13-4b64-9595-a0597d970bd4"},"vehicle_type_id":"4","last_reported":1725639045,"current_range_meters":25200,"station_id":"ce4bhbh2rcd13ifvqepg","pricing_plan_id":"cebpf4jnsgd1na2vs0mg"},{"bike_id":"3c39c725-0810-4ecf-a738-24048f2ca2df","system_id":"levelo_inurba_marseille","lat":43.284214,"lon":5.349706,"is_reserved":false,"is_disabled":false,"rental_uris":{"android":"levelo://app?vid=3c39c725-0810-4ecf-a738-24048f2ca2df","ios":"levelo://app?vid=3c39c725-0810-4ecf-a738-24048f2ca2df"},"vehicle_type_id":"4","last_reported":1725639045,"current_range_meters":0,"station_id":"ce4bhbh2rcd13ifvqepg","pricing_plan_id":"cebpf4jnsgd1na2vs0mg"},{"bike_id":"0485b147-3bfb-47dc-82a7-bddb476695f7","system_id":"levelo_inurba_marseille","lat":43.28419,"lon":5.34987,"is_reserved":false,"is_disabled":false,"rental_uris":{"android":"levelo://app?vid=0485b147-3bfb-47dc-82a7-bddb476695f7","ios":"levelo://app?vid=0485b147-3bfb-47dc-82a7-bddb476695f7"},"vehicle_type_id":"4","last_reported":1725639045,"current_range_meters":13600,"station_id":"ce4bhbh2rcd13ifvqepg","pricing_plan_id":"cebpf4jnsgd1na2vs0mg"},{"bike_id":"f857aac0-c920-4c79-acb8-0d549dffce38","system_id":"levelo_inurba_marseille","lat":43.28419,"lon":5.34985,"is_reserved":false,"is_disabled":false,"rental_uris":{"android":"levelo://app?vid=f857aac0-c920-4c79-acb8-0d549dffce38","ios":"levelo://app?vid=f857aac0-c920-4c79-acb8-0d549dffce38"},"vehicle_type_id":"4","last_reported":1725639045,"current_range_meters":28800,"station_id":"ce4bhbh2rcd13ifvqepg","pricing_plan_id":"cebpf4jnsgd1na2vs0mg"},{"bike_id":"bb71dbd9-0d82-46a8-8211-47d835847ed6","system_id":"levelo_inurba_marseille","lat":43.28418,"lon":5.34985,"is_reserved":false,"is_disabled":false,"rental_uris":{"android":"levelo://app?vid=bb71dbd9-0d82-46a8-8211-47d835847ed6","ios":"levelo://app?vid=bb71dbd9-0d82-46a8-8211-47d835847ed6"},"vehicle_type_id":"4","last_reported":1725639045,"current_range_meters":27200,"station_id":"ce4bhbh2rcd13ifvqepg","pricing_plan_id":"cebpf4jnsgd1na2vs0mg"},{"bike_id":"1d861b23-1935-4614-9596-b619608fca1c","system_id":"levelo_inurba_marseille","lat":43.28421,"lon":5.34974,"is_reserved":false,"is_disabled":false,"rental_uris":{"android":"levelo://app?vid=1d861b23-1935-4614-9596-b619608fca1c","ios":"levelo://app?vid=1d861b23-1935-4614-9596-b619608fca1c"},"vehicle_type_id":"4","last_reported":1725639045,"current_range_meters":0,"station_id":"ce4bhbh2rcd13ifvqepg","pricing_plan_id":"cebpf4jnsgd1na2vs0mg"},{"bike_id":"3273d852-ec4c-45cf-b062-46082cfbc8e1","system_id":"levelo_inurba_marseille","lat":43.28419,"lon":5.3498,"is_reserved":false,"is_disabled":false,"rental_uris":{"android":"levelo://app?vid=3273d852-ec4c-45cf-b062-46082cfbc8e1","ios":"levelo://app?vid=3273d852-ec4c-45cf-b062-46082cfbc8e1"},"vehicle_type_id":"4","last_reported":1725639045,"current_range_meters":25600,"station_id":"ce4bhbh2rcd13ifvqepg","pricing_plan_id":"cebpf4jnsgd1na2vs0mg"},{"bike_id":"229bc254-6744-4d7b-8f2a-e89249e53549","system_id":"levelo_inurba_marseille","lat":43.28417,"lon":5.34983,"is_reserved":false,"is_disabled":false,"rental_uris":{"android":"levelo://app?vid=229bc254-6744-4d7b-8f2a-e89249e53549","ios":"levelo://app?vid=229bc254-6744-4d7b-8f2a-e89249e53549"},"vehicle_type_id":"4","last_reported":1725639045,"current_range_meters":28800,"station_id":"ce4bhbh2rcd13ifvqepg","pricing_plan_id":"cebpf4jnsgd1na2vs0mg"},{"bike_id":"39d646f8-0269-48ac-99c8-ea10cdce67d1","system_id":"levelo_inurba_marseille","lat":43.28415,"lon":5.34988,"is_reserved":false,"is_disabled":false,"rental_uris":{"android":"levelo://app?vid=39d646f8-0269-48ac-99c8-ea10cdce67d1","ios":"levelo://app?vid=39d646f8-0269-48ac-99c8-ea10cdce67d1"},"vehicle_type_id":"4","last_reported":1725639045,"current_range_meters":13600,"station_id":"ce4bhbh2rcd13ifvqepg","pricing_plan_id":"cebpf4jnsgd1na2vs0mg"},{"bike_id":"c6f70884-b4c3-41de-a165-4b5e95606bcb","system_id":"levelo_inurba_marseille","lat":43.28414,"lon":5.34989,"is_reserved":false,"is_disabled":false,"rental_uris":{"android":"levelo://app?vid=c6f70884-b4c3-41de-a165-4b5e95606bcb","ios":"levelo://app?vid=c6f70884-b4c3-41de-a165-4b5e95606bcb"},"vehicle_type_id":"4","last_reported":1725639045,"current_range_meters":24000,"station_id":"ce4bhbh2rcd13ifvqepg","pricing_plan_id":"cebpf4jnsgd1na2vs0mg"},{"bike_id":"5136a86b-f901-4a38-a76f-0e689150c4de","system_id":"levelo_inurba_marseille","lat":43.28412,"lon":5.34994,"is_reserved":false,"is_disabled":false,"rental_uris":{"android":"levelo://app?vid=5136a86b-f901-4a38-a76f-0e689150c4de","ios":"levelo://app?vid=5136a86b-f901-4a38-a76f-0e689150c4de"},"vehicle_type_id":"4","last_reported":1725639045,"current_range_meters":24400,"station_id":"ce4bhbh2rcd13ifvqepg","pricing_plan_id":"cebpf4jnsgd1na2vs0mg"},{"bike_id":"59c2b41e-4e88-4966-9095-679305011324","system_id":"levelo_inurba_marseille","lat":43.28413,"lon":5.3499,"is_reserved":false,"is_disabled":false,"rental_uris":{"android":"levelo://app?vid=59c2b41e-4e88-4966-9095-679305011324","ios":"levelo://app?vid=59c2b41e-4e88-4966-9095-679305011324"},"vehicle_type_id":"4","last_reported":1725639045,"current_range_meters":27600,"station_id":"ce4bhbh2rcd13ifvqepg","pricing_plan_id":"cebpf4jnsgd1na2vs0mg"},{"bike_id":"723a5042-2587-4754-bdd3-f2b8768b3362","system_id":"levelo_inurba_marseille","lat":43.28415,"lon":5.34978,"is_reserved":false,"is_disabled":false,"rental_uris":{"android":"levelo://app?vid=723a5042-2587-4754-bdd3-f2b8768b3362","ios":"levelo://app?vid=723a5042-2587-4754-bdd3-f2b8768b3362"},"vehicle_type_id":"4","last_reported":1725639045,"current_range_meters":15600,"station_id":"ce4bhbh2rcd13ifvqepg","pricing_plan_id":"cebpf4jnsgd1na2vs0mg"},{"bike_id":"e12693c4-0edc-4d91-8207-bd02e42f6290","system_id":"levelo_inurba_marseille","lat":43.28414,"lon":5.3498,"is_reserved":false,"is_disabled":false,"rental_uris":{"android":"levelo://app?vid=e12693c4-0edc-4d91-8207-bd02e42f6290","ios":"levelo://app?vid=e12693c4-0edc-4d91-8207-bd02e42f6290"},"vehicle_type_id":"4","last_reported":1725639045,"current_range_meters":0,"station_id":"ce4bhbh2rcd13ifvqepg","pricing_plan_id":"cebpf4jnsgd1na2vs0mg"},{"bike_id":"dcc65540-2dfc-46f2-bf7e-339ed3f23acd","system_id":"levelo_inurba_marseille","lat":43.28412,"lon":5.34976,"is_reserved":false,"is_disabled":false,"rental_uris":{"android":"levelo://app?vid=dcc65540-2dfc-46f2-bf7e-339ed3f23acd","ios":"levelo://app?vid=dcc65540-2dfc-46f2-bf7e-339ed3f23acd"},"vehicle_type_id":"4","last_reported":1725639045,"current_range_meters":6800,"station_id":"ce4bhbh2rcd13ifvqepg","pricing_plan_id":"cebpf4jnsgd1na2vs0mg"},{"bike_id":"7a6da9f7-9e40-4a84-b96c-05b3ddaf88f4","system_id":"levelo_inurba_marseille","lat":43.28279,"lon":5.35072,"is_reserved":false,"is_disabled":false,"rental_uris":{"android":"levelo://app?vid=7a6da9f7-9e40-4a84-b96c-05b3ddaf88f4","ios":"levelo://app?vid=7a6da9f7-9e40-4a84-b96c-05b3ddaf88f4"},"vehicle_type_id":"4","last_reported":1725639045,"current_range_meters":8800,"station_id":"ce4bhbp2rcd13ifvqerg","pricing_plan_id":"cebpf4jnsgd1na2vs0mg"},{"bike_id":"ffd16dbd-b2e3-473c-bf09-65452fd8e283","system_id":"levelo_inurba_marseille","lat":43.282744,"lon":5.350533,"is_reserved":false,"is_disabled":false,"rental_uris":{"android":"levelo://app?vid=ffd16dbd-b2e3-473c-bf09-65452fd8e283","ios":"levelo://app?vid=ffd16dbd-b2e3-473c-bf09-65452fd8e283"},"vehicle_type_id":"4","last_reported":1725639045,"current_range_meters":31200,"station_id":"ce4bhbp2rcd13ifvqerg","pricing_plan_id":"cebpf4jnsgd1na2vs0mg"},{"bike_id":"804cc965-a513-479b-a179-013a1e92d8be","system_id":"levelo_inurba_marseille","lat":43.28273,"lon":5.35087,"is_reserved":false,"is_disabled":false,"rental_uris":{"android":"levelo://app?vid=804cc965-a513-479b-a179-013a1e92d8be","ios":"levelo://app?vid=804cc965-a513-479b-a179-013a1e92d8be"},"vehicle_type_id":"4","last_reported":1725639045,"current_range_meters":22000,"station_id":"ce4bhbp2rcd13ifvqerg","pricing_plan_id":"cebpf4jnsgd1na2vs0mg"},{"bike_id":"ccdbb099-bc46-4deb-bca7-12dff1eca9a4","system_id":"levelo_inurba_marseille","lat":43.282743,"lon":5.350782,"is_reserved":false,"is_disabled":false,"rental_uris":{"android":"levelo://app?vid=ccdbb099-bc46-4deb-bca7-12dff1eca9a4","ios":"levelo://app?vid=ccdbb099-bc46-4deb-bca7-12dff1eca9a4"},"vehicle_type_id":"4","last_reported":1725639045,"current_range_meters":16800,"station_id":"ce4bhbp2rcd13ifvqerg","pricing_plan_id":"cebpf4jnsgd1na2vs0mg"},