{"last_updated":1726218573,"ttl":30,"version":"2.2","data":{"bikes":[{"bike_id":"2ca2fd52-6283-4397-ac7e-8db28b0c8f78","system_id":"levelo_inurba_marseille","lat":43.23196,"lon":5.35555,"is_reserved":false,"is_disabled":false,"rental_uris":{"android":"levelo://app?vid=2ca2fd52-6283-4397-ac7e-8db28b0c8f78","ios":"levelo://app?vid=2ca2fd52-6283-4397-ac7e-8db28b0c8f78"},"vehicle_type_id":"4","last_reported":1726218573,"current_range_meters":12400,"station_id":"ce4bhu92rcd13ifvqi70","pricing_plan_id":"cebpf4jnsgd1na2vs0mg"},{"bike_id":"78daf548-540b-4a2e-b49b-346b3b3d76ec","system_id":"levelo_inurba_marseille","lat":43.23149,"lon":5.43719,"is_reserved":false,"is_disabled":false,"rental_uris":{"android":"levelo://app?vid=78daf548-540b-4a2e-b49b-346b3b3d76ec","ios":"levelo://app?vid=78daf548-540b-4a2e-b49b-346b3b3d76ec"},"vehicle_type_id":"4","last_reported":1726218573,"current_range_meters":17600,"station_id":"ce4bhmp2rcd13ifvqgog","pricing_plan_id":"cebpf4jnsgd1na2vs0mg"},{"bike_id":"1433cc86-19c5-4d38-a0b5-c5c087739e0a","system_id":"levelo_inurba_marseille","lat":43.22932,"lon":5.35374,"is_reserved":false,"is_disabled":false,"rental_uris":{"android":"levelo://app?vid=1433cc86-19c5-4d38-a0b5-c5c087739e0a","ios":"levelo://app?vid=1433cc86-19c5-4d38-a0b5-c5c087739e0a"},"vehicle_type_id":"4","last_reported":1726218573,"current_range_meters":31200,"station_id":"cpo3532slgdg3j2ikp40","pricing_plan_id":"cebpf4jnsgd1na2vs0mg"},{"bike_id":"ad4e1c78-f0d7-492f-b728-5e388f9b88f9","system_id":"levelo_inurba_marseille","lat":43.26941,"lon":5.38633,"is_reserved":false,"is_disabled":false,"rental_uris":{"android":"levelo://app?vid=ad4e1c78-f0d7-492f-b728-5e388f9b88f9","ios":"levelo://app?vid=ad4e1c78-f0d7-492f-b728-5e388f9b88f9"},"vehicle_type_id":"4","last_reported":1726218573,"current_range_meters":19200,"station_id":"ce4bhh92rcd13ifvqfh0","pricing_plan_id":"cebpf4jnsgd1na2vs0mg"},{"bike_id":"17eaeb7a-22bf-4e92-bb7d-8f4c1ac5a7dd","system_id":"levelo_inurba_marseille","lat":43.27492,"lon":5.42457,"is_reserved":false,"is_disabled":false,"rental_uris":{"android":"levelo://app?vid=17eaeb7a-22bf-4e92-bb7d-8f4c1ac5a7dd","ios":"levelo://app?vid=17eaeb7a-22bf-4e92-bb7d-8f4c1ac5a7dd"},"vehicle_type_id":"4","last_reported":1726218573,"current_range_meters":38400,"station_id":"ce4bhn92rcd13ifvqgrg","pricing_plan_id":"cebpf4jnsgd1na2vs0mg"},{"bike_id":"ae8c7bd4-e320-4650-aaec-5acdea38c512","system_id":"levelo_inurba_marseille","lat":43.28068,"lon":5.38698,"is_reserved":false,"is_disabled":false,"rental_uris":{"android":"levelo://app?vid=ae8c7bd4-e320-4650-aaec-5acdea38c512","ios":"levelo://app?vid=ae8c7bd4-e320-4650-aaec-5acdea38c512"},"vehicle_type_id":"4","last_reported":1726218573,"current_range_meters":22800,"station_id":"","pricing_plan_id":"cebpf4jnsgd1na2vs0mg"},{"bike_id":"9f9faec1-7085-4950-80a2-e9da10c63137","system_id":"levelo_inurba_marseille","lat":43.30212,"lon":5.39476,"is_reserved":false,"is_disabled":false,"rental_uris":{"android":"levelo://app?vid=9f9faec1-7085-4950-80a2-e9da10c63137","ios":"levelo://app?vid=9f9faec1-7085-4950-80a2-e9da10c63137"},"vehicle_type_id":"4","last_reported":1726218573,"current_range_meters":38000,"station_id":"ce4bh0p2rcd13ifvqd70","pricing_plan_id":"cebpf4jnsgd1na2vs0mg"},{"bike_id":"0ac293a5-409b-4c77-9d1b-336bd09deec1","system_id":"levelo_inurba_marseille","lat":43.31502,"lon":5.3731,"is_reserved":false,"is_disabled":false,"rental_uris":{"android":"levelo://app?vid=0ac293a5-409b-4c77-9d1b-336bd09deec1","ios":"levelo://app?vid=0ac293a5-409b-4c77-9d1b-336bd09deec1"},"vehicle_type_id":"4","last_reported":1726218573,"current_range_meters":37600,"station_id":"ce4bgt12rcd13ifvqcd0","pricing_plan_id":"cebpf4jnsgd1na2vs0mg"},{"bike_id":"6857c5d1-5581-450d-a969-e54e4e134161","system_id":"levelo_inurba_marseille","lat":43.2757,"lon":5.38397,"is_reserved":false,"is_disabled":false,"rental_uris":{"android":"levelo://app?vid=6857c5d1-5581-450d-a969-e54e4e134161","ios":"levelo://app?vid=6857c5d1-5581-450d-a969-e54e4e134161"},"vehicle_type_id":"4","last_reported":1726218573,"current_range_meters":29600,"station_id":"ce4bhh92rcd13ifvqfi0","pricing_plan_id":"cebpf4jnsgd1na2vs0mg"},{"bike_id":"ac0b1448-99d7-4e49-9a01-4e1999bec885","system_id":"levelo_inurba_marseille","lat":43.334785,"lon":5.410347,"is_reserved":false,"is_disabled":false,"rental_uris":{"android":"levelo://app?vid=ac0b1448-99d7-4e49-9a01-4e1999bec885","ios":"levelo://app?vid=ac0b1448-99d7-4e49-9a01-4e1999bec885"},"vehicle_type_id":"4","last_reported":1726218573,"current_range_meters":9200,"station_id":"ce4bh012rcd13ifvqcv0","pricing_plan_id":"cebpf4jnsgd1na2vs0mg"},{"bike_id":"20a93905-b3a1-4ead-a861-f6bd36aa5b5e","system_id":"levelo_inurba_marseille","lat":43.23155,"lon":5.4371,"is_reserved":false,"is_disabled":false,"rental_uris":{"android":"levelo://app?vid=20a93905-b3a1-4ead-a861-f6bd36aa5b5e","ios":"levelo://app?vid=20a93905-b3a1-4ead-a861-f6bd36aa5b5e"},"vehicle_type_id":"4","last_reported":1726218573,"current_range_meters":20400,"station_id":"ce4bhmp2rcd13ifvqgog","pricing_plan_id":"cebpf4jnsgd1na2vs0mg"},{"bike_id":"5acc2cfe-a866-4897-9174-0395a94f269d","system_id":"levelo_inurba_marseille","lat":43.31702,"lon":5.37762,"is_reserved":false,"is_disabled":false,"rental_uris":{"android":"levelo://app?vid=5acc2cfe-a866-4897-9174-0395a94f269d","ios":"levelo://app?vid=5acc2cfe-a866-4897-9174-0395a94f269d"},"vehicle_type_id":"4","last_reported":1726218573,"current_range_meters":8400,"station_id":"ce4bgth2rcd13ifvqch0","pricing_plan_id":"cebpf4jnsgd1na2vs0mg"},{"bike_id":"118d8d6e-e982-4920-9eff-10d0a637c53e","system_id":"levelo_inurba_marseille","lat":43.24082,"lon":5.37757,"is_reserved":false,"is_disabled":false,"rental_uris":{"android":"levelo://app?vid=118d8d6e-e982-4920-9eff-10d0a637c53e","ios":"levelo://app?vid=118d8d6e-e982-4920-9eff-10d0a637c53e"},"vehicle_type_id":"4","last_reported":1726218573,"current_range_meters":8800,"station_id":"ce4bhnp2rcd13ifvqgvg","pricing_plan_id":"cebpf4jnsgd1na2vs0mg"},{"bike_id":"f8d0fba0-b375-496d-9fb6-aac6b8a7715f","system_id":"levelo_inurba_marseille","lat":43.31701,"lon":5.37769,"is_reserved":false,"is_disabled":false,"rental_uris":{"android":"levelo://app?vid=f8d0fba0-b375-496d-9fb6-aac6b8a7715f","ios":"levelo://app?vid=f8d0fba0-b375-496d-9fb6-aac6b8a7715f"},"vehicle_type_id":"4","last_reported":1726218573,"current_range_meters":9600,"station_id":"ce4bgth2rcd13ifvqch0","pricing_plan_id":"cebpf4jnsgd1na2vs0mg"},{"bike_id":"f45d9413-9a73-47f2-a10e-0dc762623601","system_id":"levelo_inurba_marseille","lat":43.23161,"lon":5.43703,"is_reserved":false,"is_disabled":false,"rental_uris":{"android":"levelo://app?vid=f45d9413-9a73-47f2-a10e-0dc762623601","ios":"levelo://app?vid=f45d9413-9a73-47f2-a10e-0dc762623601"},"vehicle_type_id":"4","last_reported":1726218573,"current_range_meters":39200,"station_id":"ce4bhmp2rcd13ifvqgog","pricing_plan_id":"cebpf4jnsgd1na2vs0mg"},{"bike_id":"e56f7ea9-7925-43a0-bcb1-44ada111d64d","system_id":"levelo_inurba_marseille","lat":43.337444,"lon":5.374475,"is_reserved":false,"is_disabled":false,"rental_uris":{"android":"levelo://app?vid=e56f7ea9-7925-43a0-bcb1-44ada111d64d","ios":"levelo://app?vid=e56f7ea9-7925-43a0-bcb1-44ada111d64d"},"vehicle_type_id":"4","last_reported":1726218573,"current_range_meters":36000,"station_id":"","pricing_plan_id":"cebpf4jnsgd1na2vs0mg"},{"bike_id":"197a9ec5-1c39-4a58-a011-9823fa9f9c3a","system_id":"levelo_inurba_marseille","lat":43.301405,"lon":5.380796,"is_reserved":false,"is_disabled":false,"rental_uris":{"android":"levelo://app?vid=197a9ec5-1c39-4a58-a011-9823fa9f9c3a","ios":"levelo://app?vid=197a9ec5-1c39-4a58-a011-9823fa9f9c3a"},"vehicle_type_id":"4","last_reported":1726218573,"current_range_meters":39200,"station_id":"ce4bgjp2rcd13ifvqbh0","pricing_plan_id":"cebpf4jnsgd1na2vs0mg"},{"bike_id":"13ec4916-f0ea-4897-8afc-596425b42c42","system_id":"levelo_inurba_marseille","lat":43.23193,"lon":5.35551,"is_reserved":false,"is_disabled":false,"rental_uris":{"android":"levelo://app?vid=13ec4916-f0ea-4897-8afc-596425b42c42","ios":"levelo://app?vid=13ec4916-f0ea-4897-8afc-596425b42c42"},"vehicle_type_id":"4","last_reported":1726218573,"current_range_meters":32800,"station_id":"ce4bhu92rcd13ifvqi70","pricing_plan_id":"cebpf4jnsgd1na2vs0mg"},{"bike_id":"4763e540-68d4-47e4-91ce-c776505c9525","system_id":"levelo_inurba_marseille","lat":43.29911,"lon":5.37479,"is_reserved":false,"is_disabled":false,"rental_uris":{"android":"levelo://app?vid=4763e540-68d4-47e4-91ce-c776505c9525","ios":"levelo://app?vid=4763e540-68d4-47e4-91ce-c776505c9525"},"vehicle_type_id":"4","last_reported":1726218573,"current_range_meters":30000,"station_id":"ce4bgjh2rcd13ifvqbg0","pricing_plan_id":"cebpf4jnsgd1na2vs0mg"},{"bike_id":"b6e3e73b-d583-48b5-980c-ef8c79d236fd","system_id":"levelo_inurba_marseille","lat":43.2408,"lon":5.37757,"is_reserved":false,"is_disabled":false,"rental_uris":{"android":"levelo://app?vid=b6e3e73b-d583-48b5-980c-ef8c79d236fd","ios":"levelo://app?vid=b6e3e73b-d583-48b5-980c-ef8c79d236fd"},"vehicle_type_id":"4","last_reported":1726218573,"current_range_meters":30000,"station_id":"ce4bhnp2rcd13ifvqgvg","pricing_plan_id":"cebpf4jnsgd1na2vs0mg"},{"bike_id":"a59d64a6-0c90-478e-8726-6eda2f84c2f7","system_id":"levelo_inurba_marseille","lat":43.26035,"lon":5.37546,"is_reserved":false,"is_disabled":false,"rental_uris":{"android":"levelo://app?vid=a59d64a6-0c90-478e-8726-6eda2f84c2f7","ios":"levelo://app?vid=a59d64a6-0c90-478e-8726-6eda2f84c2f7"},"vehicle_type_id":"4","last_reported":1726218573,"current_range_meters":6000,"station_id":"ce4bhgh2rcd13ifvqfa0","pricing_plan_id":"cebpf4jnsgd1na2vs0mg"},{"bike_id":"d035d579-2e69-4a79-8e97-e3875f643f43","system_id":"levelo_inurba_marseille","lat":43.25831,"lon":5.39433,"is_reserved":false,"is_disabled":false,"rental_uris":{"android":"levelo://app?vid=d035d579-2e69-4a79-8e97-e3875f643f43","ios":"levelo://app?vid=d035d579-2e69-4a79-8e97-e3875f643f43"},"vehicle_type_id":"4","last_reported":1726218573,"current_range_meters":39200,"station_id":"ce4bhip2rcd13ifvqft0","pricing_plan_id":"cebpf4jnsgd1na2vs0mg"},{"bike_id":"acd8a3d5-a9db-4ea3-b234-2a790cfd605a","system_id":"levelo_inurba_marseille","lat":43.23957,"lon":5.36627,"is_reserved":false,"is_disabled":false,"rental_uris":{"android":"levelo://app?vid=acd8a3d5-a9db-4ea3-b234-2a790cfd605a","ios":"levelo://app?vid=acd8a3d5-a9db-4ea3-b234-2a790cfd605a"},"vehicle_type_id":"4","last_reported":1726218573,"current_range_meters":17200,"station_id":"ce4bhi12rcd13ifvqfp0","pricing_plan_id":"cebpf4jnsgd1na2vs0mg"},{"bike_id":"f16d9709-3a53-4cda-9f88-fe6320822116","system_id":"levelo_inurba_marseille","lat":43.24084,"lon":5.37749,"is_reserved":false,"is_disabled":false,"rental_uris":{"android":"levelo://app?vid=f16d9709-3a53-4cda-9f88-fe6320822116","ios":"levelo://app?vid=f16d9709-3a53-4cda-9f88-fe6320822116"},"vehicle_type_id":"4","last_reported":1726218573,"current_range_meters":26000,"station_id":"ce4bhnp2rcd13ifvqgvg","pricing_plan_id":"cebpf4jnsgd1na2vs0mg"},{"bike_id":"ee5bd0a5-1257-48de-9343-ea8521c36cdd","system_id":"levelo_inurba_marseille","lat":43.23199,"lon":5.35551,"is_reserved":false,"is_disabled":false,"rental_uris":{"android":"levelo://app?vid=ee5bd0a5-1257-48de-9343-ea8521c36cdd","ios":"levelo://app?vid=ee5bd0a5-1257-48de-9343-ea8521c36cdd"},"vehicle_type_id":"4","last_reported":1726218573,"current_range_meters":3600,"station_id":"ce4bhu92rcd13ifvqi70","pricing_plan_id":"cebpf4jnsgd1na2vs0mg"},{"bike_id":"995d3a7e-289e-4ebd-b785-9d2da426ad57","system_id":"levelo_inurba_marseille","lat":43.23197,"lon":5.35542,"is_reserved":false,"is_disabled":false,"rental_uris":{"android":"levelo://app?vid=995d3a7e-289e-4ebd-b785-9d2da426ad57","ios":"levelo://app?vid=995d3a7e-289e-4ebd-b785-9d2da426ad57"},"vehicle_type_id":"4","last_reported":1726218573,"current_range_meters":26800,"station_id":"ce4bhu92rcd13ifvqi70","pricing_plan_id":"cebpf4jnsgd1na2vs0mg"},{"bike_id":"74c67d55-8a5f-40c9-8066-d68354718f8c","system_id":"levelo_inurba_marseille","lat":43.23195,"lon":5.35551,"is_reserved":false,"is_disabled":false,"rental_uris":{"android":"levelo://app?vid=74c67d55-8a5f-40c9-8066-d68354718f8c","ios":"levelo://app?vid=74c67d55-8a5f-40c9-8066-d68354718f8c"},"vehicle_type_id":"4","last_reported":1726218573,"current_range_meters":30400,"station_id":"ce4bhu92rcd13ifvqi70","pricing_plan_id":"cebpf4jnsgd1na2vs0mg"},{"bike_id":"780336e2-fd17-4986-a7ca-36500a29af79","system_id":"levelo_inurba_marseille","lat":43.29306,"lon":5.37456,"is_reserved":false,"is_disabled":false,"rental_uris":{"android":"levelo://app?vid=780336e2-fd17-4986-a7ca-36500a29af79","ios":"levelo://app?vid=780336e2-fd17-4986-a7ca-36500a29af79"},"vehicle_type_id":"4","last_reported":1726218573,"current_range_meters":36400,"station_id":"ce4bgi12rcd13ifvqb70","pricing_plan_id":"cebpf4jnsgd1na2vs0mg"},{"bike_id":"ce6d4141-dafd-49ae-b179-ff03abd3cf57","system_id":"levelo_inurba_marseille","lat":43.25579,"lon":5.38232,"is_reserved":false,"is_disabled":false,"rental_uris":{"android":"levelo://app?vid=ce6d4141-dafd-49ae-b179-ff03abd3cf57","ios":"levelo://app?vid=ce6d4141-dafd-49ae-b179-ff03abd3cf57"},"vehicle_type_id":"4","last_reported":1726218573,"current_range_meters":17600,"station_id":"ce4bhih2rcd13ifvqfs0","pricing_plan_id":"cebpf4jnsgd1na2vs0mg"},{"bike_id":"c7a72c95-d3e6-46b3-8c83-3114a189ce35","system_id":"levelo_inurba_marseille","lat":43.25582,"lon":5.3823,"is_reserved":false,"is_disabled":false,"rental_uris":{"android":"levelo://app?vid=c7a72c95-d3e6-46b3-8c83-3114a189ce35","ios":"levelo://app?vid=c7a72c95-d3e6-46b3-8c83-3114a189ce35"},"vehicle_type_id":"4","last_reported":1726218573,"current_range_meters":9600,"station_id":"ce4bhih2rcd13ifvqfs0","pricing_plan_id":"cebpf4jnsgd1na2vs0mg"},{"bike_id":"2d5cc70c-d448-46c2-a6a9-d1789725d8cc","system_id":"levelo_inurba_marseille","lat":43.31222,"lon":5.36864,"is_reserved":false,"is_disabled":false,"rental_uris":{"android":"levelo://app?vid=2d5cc70c-d448-46c2-a6a9-d1789725d8cc","ios":"levelo://app?vid=2d5cc70c-d448-46c2-a6a9-d1789725d8cc"},"vehicle_type_id":"4","last_reported":1726218573,"current_range_meters":36800,"station_id":"ce4bgl92rcd13ifvqbq0","pricing_plan_id":"cebpf4jnsgd1na2vs0mg"},{"bike_id":"ddcd6a1d-6048-412e-a374-9c40896ddcb7","system_id":"levelo_inurba_marseille","lat":43.23156,"lon":5.43709,"is_reserved":false,"is_disabled":false,"rental_uris":{"android":"levelo://app?vid=ddcd6a1d-6048-412e-a374-9c40896ddcb7","ios":"levelo://app?vid=ddcd6a1d-6048-412e-a374-9c40896ddcb7"},"vehicle_type_id":"4","last_reported":1726218573,"current_range_meters":16000,"station_id":"ce4bhmp2rcd13ifvqgog","pricing_plan_id":"cebpf4jnsgd1na2vs0mg"},{"bike_id":"7f7d711b-d42e-403c-8bf5-e4217831a361","system_id":"levelo_inurba_marseille","lat":43.28345,"lon":5.381,"is_reserved":false,"is_disabled":false,"rental_uris":{"android":"levelo://app?vid=7f7d711b-d42e-403c-8bf5-e4217831a361","ios":"levelo://app?vid=7f7d711b-d42e-403c-8bf5-e4217831a361"},"vehicle_type_id":"4","last_reported":1726218573,"current_range_meters":17600,"station_id":"ce4bh412rcd13ifvqdr0","pricing_plan_id":"cebpf4jnsgd1na2vs0mg"},{"bike_id":"cc2db375-fdd5-4fea-ab1a-7a2f5e969165","system_id":"levelo_inurba_marseille","lat":43.26213,"lon":5.37441,"is_reserved":false,"is_disabled":false,"rental_uris":{"android":"levelo://app?vid=cc2db375-fdd5-4fea-ab1a-7a2f5e969165","ios":"levelo://app?vid=cc2db375-fdd5-4fea-ab1a-7a2f5e969165"},"vehicle_type_id":"4","last_reported":1726218573,"current_range_meters":19200,"station_id":"ce4bhgp2rcd13ifvqfc0","pricing_plan_id":"cebpf4jnsgd1na2vs0mg"},{"bike_id":"d6f781b5-d5a7-4af2-81cd-266dd0f272bf","system_id":"levelo_inurba_marseille","lat":43.33616,"lon":5.41028,"is_reserved":false,"is_disabled":false,"rental_uris":{"android":"levelo://app?vid=d6f781b5-d5a7-4af2-81cd-266dd0f272bf","ios":"levelo://app?vid=d6f781b5-d5a7-4af2-81cd-266dd0f272bf"},"vehicle_type_id":"4","last_reported":1726218573,"current_range_meters":39200,"station_id":"ce4bhqh2rcd13ifvqhmg","pricing_plan_id":"cebpf4jnsgd1na2vs0mg"},{"bike_id":"8650baf2-bb77-4de5-86db-3d5c55fc9920","system_id":"levelo_inurba_marseille","lat":43.29841,"lon":5.3626,"is_reserved":false,"is_disabled":false,"rental_uris":{"android":"levelo://app?vid=8650baf2-bb77-4de5-86db-3d5c55fc9920","ios":"levelo://app?vid=8650baf2-bb77-4de5-86db-3d5c55fc9920"},"vehicle_type_id":"4","last_reported":1726218573,"current_range_meters":36400,"station_id":"ce4bgpp2rcd13ifvqc3g","pricing_plan_id":"cebpf4jnsgd1na2vs0mg"},{"bike_id":"8520d472-ea93-4ce4-9ac7-983644debd20","system_id":"levelo_inurba_marseille","lat":43.25823,"lon":5.39436,"is_reserved":false,"is_disabled":false,"rental_uris":{"android":"levelo://app?vid=8520d472-ea93-4ce4-9ac7-983644debd20","ios":"levelo://app?vid=8520d472-ea93-4ce4-9ac7-983644debd20"},"vehicle_type_id":"4","last_reported":1726218573,"current_range_meters":14800,"station_id":"ce4bhip2rcd13ifvqft0","pricing_plan_id":"cebpf4jnsgd1na2vs0mg"},{"bike_id":"d54209f6-3398-4e00-8b3a-a3ed0a88f3b6","system_id":"levelo_inurba_marseille","lat":43.24549,"lon":5.37312,"is_reserved":false,"is_disabled":false,"rental_uris":{"android":"levelo://app?vid=d54209f6-3398-4e00-8b3a-a3ed0a88f3b6","ios":"levelo://app?vid=d54209f6-3398-4e00-8b3a-a3ed0a88f3b6"},"vehicle_type_id":"4","last_reported":1726218573,"current_range_meters":28800,"station_id":"","pricing_plan_id":"cebpf4jnsgd1na2vs0mg"},{"bike_id":"3083500b-3b09-403c-853a-ccf0fdae3c0c","system_id":"levelo_inurba_marseille","lat":43.26201,"lon":5.37919,"is_reserved":false,"is_disabled":false,"rental_uris":{"android":"levelo://app?vid=3083500b-3b09-403c-853a-ccf0fdae3c0c","ios":"levelo://app?vid=3083500b-3b09-403c-853a-ccf0fdae3c0c"},"vehicle_type_id":"4","last_reported":1726218573,"current_range_meters":39200,"station_id":"ce4bhjp2rcd13ifvqg90","pricing_plan_id":"cebpf4jnsgd1na2vs0mg"},{"bike_id":"f837ff71-1eba-4217-a60f-c14a4d002af2","system_id":"levelo_inurba_marseille","lat":43.290261,"lon":5.386513,"is_reserved":false,"is_disabled":false,"rental_uris":{"android":"levelo://app?vid=f837ff71-1eba-4217-a60f-c14a4d002af2","ios":"levelo://app?vid=f837ff71-1eba-4217-a60f-c14a4d002af2"},"vehicle_type_id":"4","last_reported":1726218573,"current_range_meters":9600,"station_id":"ce4bhnh2rcd13ifvqgug","pricing_plan_id":"cebpf4jnsgd1na2vs0mg"},{"bike_id":"29169557-0cff-4e0e-b234-4d98249318da","system_id":"levelo_inurba_marseille","lat":43.26573,"lon":5.39009,"is_reserved":false,"is_disabled":false,"rental_uris":{"android":"levelo://app?vid=29169557-0cff-4e0e-b234-4d98249318da","ios":"levelo://app?vid=29169557-0cff-4e0e-b234-4d98249318da"},"vehicle_type_id":"4","last_reported":1726218573,"current_range_meters":22000,"station_id":"ce4bhe12rcd13ifvqf30","pricing_plan_id":"cebpf4jnsgd1na2vs0mg"},{"bike_id":"8263ea4a-64d0-4c72-9510-874ccbb3b8e8","system_id":"levelo_inurba_marseille","lat":43.28665,"lon":5.36347,"is_reserved":false,"is_disabled":false,"rental_uris":{"android":"levelo://app?vid=8263ea4a-64d0-4c72-9510-874ccbb3b8e8","ios":"levelo://app?vid=8263ea4a-64d0-4c72-9510-874ccbb3b8e8"},"vehicle_type_id":"4","last_reported":1726218573,"current_range_meters":38800,"station_id":"ce4bhah2rcd13ifvqej0","pricing_plan_id":"cebpf4jnsgd1na2vs0mg"},{"bike_id":"07055ae7-bb92-42e8-a360-55c0f2b039da","system_id":"levelo_inurba_marseille","lat":43.24657,"lon":5.38901,"is_reserved":false,"is_disabled":false,"rental_uris":{"android":"levelo://app?vid=07055ae7-bb92-42e8-a360-55c0f2b039da","ios":"levelo://app?vid=07055ae7-bb92-42e8-a360-55c0f2b039da"},"vehicle_type_id":"4","last_reported":1726218573,"current_range_meters":36800,"station_id":"ce4bhg12rcd13ifvqf60","pricing_plan_id":"cebpf4jnsgd1na2vs0mg"},{"bike_id":"d0233baa-388b-48e2-8cef-cd569f98c427","system_id":"levelo_inurba_marseille","lat":43.26501,"lon":5.39532,"is_reserved":false,"is_disabled":false,"rental_uris":{"android":"levelo://app?vid=d0233baa-388b-48e2-8cef-cd569f98c427","ios":"levelo://app?vid=d0233baa-388b-48e2-8cef-cd569f98c427"},"vehicle_type_id":"4","last_reported":1726218573,"current_range_meters":31200,"station_id":"ce4bhi12rcd13ifvqfq0","pricing_plan_id":"cebpf4jnsgd1na2vs0mg"},{"bike_id":"3c6fc7f0-2cf2-489a-b430-4ad0bebdc177","system_id":"levelo_inurba_marseille","lat":43.2991,"lon":5.38145,"is_reserved":false,"is_disabled":false,"rental_uris":{"android":"levelo://app?vid=3c6fc7f0-2cf2-489a-b430-4ad0bebdc177","ios":"levelo://app?vid=3c6fc7f0-2cf2-489a-b430-4ad0bebdc177"},"vehicle_type_id":"4","last_reported":1726218573,"current_range_meters":30000,"station_id":"ce4bgj12rcd13ifvqbc0","pricing_plan_id":"cebpf4jnsgd1na2vs0mg"},{"bike_id":"20e5c90d-8093-4c10-9873-67a15dba7491","system_id":"levelo_inurba_marseille","lat":43.30152,"lon":5.36594,"is_reserved":false,"is_disabled":false,"rental_uris":{"android":"levelo://app?vid=20e5c90d-8093-4c10-9873-67a15dba7491","ios":"levelo://app?vid=20e5c90d-8093-4c10-9873-67a15dba7491"},"vehicle_type_id":"4","last_reported":1726218573,"current_range_meters":21600,"station_id":"ce4bgn12rcd13ifvqbt0","pricing_plan_id":"cebpf4jnsgd1na2vs0mg"},{"bike_id":"a761f2b2-ba5a-4fbe-adc5-601ef30d93b0","system_id":"levelo_inurba_marseille","lat":43.29972,"lon":5.38484,"is_reserved":false,"is_disabled":false,"rental_uris":{"android":"levelo://app?vid=a761f2b2-ba5a-4fbe-adc5-601ef30d93b0","ios":"levelo://app?vid=a761f2b2-ba5a-4fbe-adc5-601ef30d93b0"},"vehicle_type_id":"4","last_reported":1726218573,"current_range_meters":38800,"station_id":"ce4bgj92rcd13ifvqbd0","pricing_plan_id":"cebpf4jnsgd1na2vs0mg"},{"bike_id":"39b86749-80ef-4310-953b-c60370086942","system_id":"levelo_inurba_marseille","lat":43.24543,"lon":5.39523,"is_reserved":false,"is_disabled":false,"rental_uris":{"android":"levelo://app?vid=39b86749-80ef-4310-953b-c60370086942","ios":"levelo://app?vid=39b86749-80ef-4310-953b-c60370086942"},"vehicle_type_id":"4","last_reported":1726218573,"current_range_meters":31200,"station_id":"ce4bhlp2rcd13ifvqgjg","pricing_plan_id":"cebpf4jnsgd1na2vs0mg"},{"bike_id":"6a8f2f10-9a94-4930-acf4-9d3abaa17531","system_id":"levelo_inurba_marseille","lat":43.25496,"lon":5.37649,"is_reserved":false,"is_disabled":false,"rental_uris":{"android":"levelo://app?vid=6a8f2f10-9a94-4930-acf4-9d3abaa17531","ios":"levelo://app?vid=6a8f2f10-9a94-4930-acf4-9d3abaa17531"},"vehicle_type_id":"4","last_reported":1726218573,"current_range_meters":36400,"station_id":"ce4bhh12rcd13ifvqff0","pricing_plan_id":"cebpf4jnsgd1na2vs0mg"},{"bike_id":"ec3be02e-39ad-49e9-b399-fd1e500eb14f","system_id":"levelo_inurba_marseille","lat":43.26951,"lon":5.38636,"is_reserved":false,"is_disabled":false,"rental_uris":{"android":"levelo://app?vid=ec3be02e-39ad-49e9-b399-fd1e500eb14f","ios":"levelo://app?vid=ec3be02e-39ad-49e9-b399-fd1e500eb14f"},"vehicle_type_id":"4","last_reported":1726218573,"current_range_meters":21600,"station_id":"ce4bhh92rcd13ifvqfh0","pricing_plan_id":"cebpf4jnsgd1na2vs0mg"},{"bike_id":"976a4a08-3cc1-4b84-afb0-078a903accb6","system_id":"levelo_inurba_marseille","lat":43.25581,"lon":5.3823,"is_reserved":false,"is_disabled":false,"rental_uris":{"android":"levelo://app?vid=976a4a08-3cc1-4b84-afb0-078a903accb6","ios":"levelo://app?vid=976a4a08-3cc1-4b84-afb0-078a903accb6"},"vehicle_type_id":"4","last_reported":1726218573,"current_range_meters":29600,"station_id":"ce4bhih2rcd13ifvqfs0","pricing_plan_id":"cebpf4jnsgd1na2vs0mg"},{"bike_id":"463a29c6-de5f-452d-8ad2-3526bf777173","system_id":"levelo_inurba_marseille","lat":43.30534,"lon":5.36531,"is_reserved":false,"is_disabled":false,"rental_uris":{"android":"levelo://app?vid=463a29c6-de5f-452d-8ad2-3526bf777173","ios":"levelo://app?vid=463a29c6-de5f-452d-8ad2-3526bf777173"},"vehicle_type_id":"4","last_reported":1726218573,"current_range_meters":9200,"station_id":"ce4bgs12rcd13ifvqcag","pricing_plan_id":"cebpf4jnsgd1na2vs0mg"},{"bike_id":"4386bd33-f64a-4344-b298-c7540b509fea","system_id":"levelo_inurba_marseille","lat":43.29532,"lon":5.39038,"is_reserved":false,"is_disabled":false,"rental_uris":{"android":"levelo://app?vid=4386bd33-f64a-4344-b298-c7540b509fea","ios":"levelo://app?vid=4386bd33-f64a-4344-b298-c7540b509fea"},"vehicle_type_id":"4","last_reported":1726218573,"current_range_meters":37600,"station_id":"ce4bh3p2rcd13ifvqdp0","pricing_plan_id":"cebpf4jnsgd1na2vs0mg"},{"bike_id":"425f21c7-f4ae-4733-9682-7d73da03e587","system_id":"levelo_inurba_marseille","lat":43.26407,"lon":5.37839,"is_reserved":false,"is_disabled":false,"rental_uris":{"android":"levelo://app?vid=425f21c7-f4ae-4733-9682-7d73da03e587","ios":"levelo://app?vid=425f21c7-f4ae-4733-9682-7d73da03e587"},"vehicle_type_id":"4","last_reported":1726218573,"current_range_meters":16800,"station_id":"ce4bhgh2rcd13ifvqfb0","pricing_plan_id":"cebpf4jnsgd1na2vs0mg"},{"bike_id":"9b598b8e-1224-4f15-a059-59ec72ffe837","system_id":"levelo_inurba_marseille","lat":43.27489,"lon":5.42452,"is_reserved":false,"is_disabled":false,"rental_uris":{"android":"levelo://app?vid=9b598b8e-1224-4f15-a059-59ec72ffe837","ios":"levelo://app?vid=9b598b8e-1224-4f15-a059-59ec72ffe837"},"vehicle_type_id":"4","last_reported":1726218573,"current_range_meters":24000,"station_id":"ce4bhn92rcd13ifvqgrg","pricing_plan_id":"cebpf4jnsgd1na2vs0mg"},{"bike_id":"f28581ff-902c-4761-a312-4ea1190c753a","system_id":"levelo_inurba_marseille","lat":43.28157,"lon":5.42642,"is_reserved":false,"is_disabled":false,"rental_uris":{"android":"levelo://app?vid=f28581ff-902c-4761-a312-4ea1190c753a","ios":"levelo://app?vid=f28581ff-902c-4761-a312-4ea1190c753a"},"vehicle_type_id":"4","last_reported":1726218573,"current_range_meters":24400,"station_id":"ce4bhnh2rcd13ifvqgug","pricing_plan_id":"cebpf4jnsgd1na2vs0mg"},{"bike_id":"36fd52bf-fc90-4cac-9fe1-847e64e7094e","system_id":"levelo_inurba_marseille","lat":43.27616,"lon":5.36119,"is_reserved":false,"is_disabled":false,"rental_uris":{"android":"levelo://app?vid=36fd52bf-fc90-4cac-9fe1-847e64e7094e","ios":"levelo://app?vid=36fd52bf-fc90-4cac-9fe1-847e64e7094e"},"vehicle_type_id":"4","last_reported":1726218573,"current_range_meters":37600,"station_id":"ce4bgj92rcd13ifvqbe0","pricing_plan_id":"cebpf4jnsgd1na2vs0mg"},{"bike_id":"5483f9b1-08d8-47bd-ace2-b461fdc9ec9d","system_id":"levelo_inurba_marseille","lat":43.29563,"lon":5.42277,"is_reserved":false,"is_disabled":false,"rental_uris":{"android":"levelo://app?vid=5483f9b1-08d8-47bd-ace2-b461fdc9ec9d","ios":"levelo://app?vid=5483f9b1-08d8-47bd-ace2-b461fdc9ec9d"},"vehicle_type_id":"4","last_reported":1726218573,"current_range_meters":28800,"station_id":"ce4bhph2rcd13ifvqhdg","pricing_plan_id":"cebpf4jnsgd1na2vs0mg"},{"bike_id":"4067cf6c-6e3d-4ac9-99bf-c1b92b69f736","system_id":"levelo_inurba_marseille","lat":43.32485,"lon":5.36557,"is_reserved":false,"is_disabled":false,"rental_uris":{"android":"levelo://app?vid=4067cf6c-6e3d-4ac9-99bf-c1b92b69f736","ios":"levelo://app?vid=4067cf6c-6e3d-4ac9-99bf-c1b92b69f736"},"vehicle_type_id":"4","last_reported":1726218573,"current_range_meters":24800,"station_id":"ce4bhs12rcd13ifvqhvg","pricing_plan_id":"cebpf4jnsgd1na2vs0mg"},{"bike_id":"9a294201-177a-42e2-b4e6-ec74738f7951","system_id":"levelo_inurba_marseille","lat":43.2695,"lon":5.3863,"is_reserved":false,"is_disabled":false,"rental_uris":{"android":"levelo://app?vid=9a294201-177a-42e2-b4e6-ec74738f7951","ios":"levelo://app?vid=9a294201-177a-42e2-b4e6-ec74738f7951"},"vehicle_type_id":"4","last_reported":1726218573,"current_range_meters":38800,"station_id":"ce4bhh92rcd13ifvqfh0","pricing_plan_id":"cebpf4jnsgd1na2vs0mg"},{"bike_id":"61336af8-1a80-4c12-8d12-887f6472709d","system_id":"levelo_inurba_marseille","lat":43.293457,"lon":5.374422,"is_reserved":false,"is_disabled":false,"rental_uris":{"android":"levelo://app?vid=61336af8-1a80-4c12-8d12-887f6472709d","ios":"levelo://app?vid=61336af8-1a80-4c12-8d12-887f6472709d"},"vehicle_type_id":"4","last_reported":1726218573,"current_range_meters":22400,"station_id":"ce4bgi12rcd13ifvqb70","pricing_plan_id":"cebpf4jnsgd1na2vs0mg"},{"bike_id":"78ad1ed1-5c3f-4cb0-b4c3-f368830893ef","system_id":"levelo_inurba_marseille","lat":43.31493,"lon":5.37301,"is_reserved":false,"is_disabled":false,"rental_uris":{"android":"levelo://app?vid=78ad1ed1-5c3f-4cb0-b4c3-f368830893ef","ios":"levelo://app?vid=78ad1ed1-5c3f-4cb0-b4c3-f368830893ef"},"vehicle_type_id":"4","last_reported":1726218573,"current_range_meters":4400,"station_id":"ce4bgt12rcd13ifvqcd0","pricing_plan_id":"cebpf4jnsgd1na2vs0mg"},{"bike_id":"eaf3218e-3b2a-4dde-9c15-99a6c4254e56","system_id":"levelo_inurba_marseille","lat":43.29895,"lon":5.43662,"is_reserved":false,"is_disabled":false,"rental_uris":{"android":"levelo://app?vid=eaf3218e-3b2a-4dde-9c15-99a6c4254e56","ios":"levelo://app?vid=eaf3218e-3b2a-4dde-9c15-99a6c4254e56"},"vehicle_type_id":"4","last_reported":1726218573,"current_range_meters":39200,"station_id":"ce4bhpp2rcd13ifvqhfg","pricing_plan_id":"cebpf4jnsgd1na2vs0mg"},{"bike_id":"666567cc-2e65-4160-9df5-8745ddbe7e28","system_id":"levelo_inurba_marseille","lat":43.31355,"lon":5.367,"is_reserved":false,"is_disabled":false,"rental_uris":{"android":"levelo://app?vid=666567cc-2e65-4160-9df5-8745ddbe7e28","ios":"levelo://app?vid=666567cc-2e65-4160-9df5-8745ddbe7e28"},"vehicle_type_id":"4","last_reported":1726218573,"current_range_meters":36800,"station_id":"ce4bgr92rcd13ifvqc6g","pricing_plan_id":"cebpf4jnsgd1na2vs0mg"},{"bike_id":"eb810489-55ba-4420-8ecc-adb7a598afcb","system_id":"levelo_inurba_marseille","lat":43.30155,"lon":5.3741,"is_reserved":false,"is_disabled":false,"rental_uris":{"android":"levelo://app?vid=eb810489-55ba-4420-8ecc-adb7a598afcb","ios":"levelo://app?vid=eb810489-55ba-4420-8ecc-adb7a598afcb"},"vehicle_type_id":"4","last_reported":1726218573,"current_range_meters":38800,"station_id":"ce4bgs92rcd13ifvqcc0","pricing_plan_id":"cebpf4jnsgd1na2vs0mg"},{"bike_id":"0ea99d89-f29c-4e54-9766-bdcd2d65271c","system_id":"levelo_inurba_marseille","lat":43.22935,"lon":5.35376,"is_reserved":false,"is_disabled":false,"rental_uris":{"android":"levelo://app?vid=0ea99d89-f29c-4e54-9766-bdcd2d65271c","ios":"levelo://app?vid=0ea99d89-f29c-4e54-9766-bdcd2d65271c"},"vehicle_type_id":"4","last_reported":1726218573,"current_range_meters":27600,"station_id":"cpo3532slgdg3j2ikp40","pricing_plan_id":"cebpf4jnsgd1na2vs0mg"},{"bike_id":"ba81e19a-02db-4df6-ba4c-045bfb8f6f7d","system_id":"levelo_inurba_marseille","lat":43.30538,"lon":5.36555,"is_reserved":false,"is_disabled":false,"rental_uris":{"android":"levelo://app?vid=ba81e19a-02db-4df6-ba4c-045bfb8f6f7d","ios":"levelo://app?vid=ba81e19a-02db-4df6-ba4c-045bfb8f6f7d"},"vehicle_type_id":"4","last_reported":1726218573,"current_range_meters":29600,"station_id":"ce4bgs12rcd13ifvqcag","pricing_plan_id":"cebpf4jnsgd1na2vs0mg"},{"bike_id":"45eb7e78-e68d-4dc7-9f08-324dadf34c21","system_id":"levelo_inurba_marseille","lat":43.23148,"lon":5.43732,"is_reserved":false,"is_disabled":false,"rental_uris":{"android":"levelo://app?vid=45eb7e78-e68d-4dc7-9f08-324dadf34c21","ios":"levelo://app?vid=45eb7e78-e68d-4dc7-9f08-324dadf34c21"},"vehicle_type_id":"4","last_reported":1726218573,"current_range_meters":17600,"station_id":"ce4bhmp2rcd13ifvqgog","pricing_plan_id":"cebpf4jnsgd1na2vs0mg"},{"bike_id":"6c4f4964-6267-44c6-9bbd-1ffdf7464af9","system_id":"levelo_inurba_marseille","lat":43.29894,"lon":5.38138,"is_reserved":false,"is_disabled":false,"rental_uris":{"android":"levelo://app?vid=6c4f4964-6267-44c6-9bbd-1ffdf7464af9","ios":"levelo://app?vid=6c4f4964-6267-44c6-9bbd-1ffdf7464af9"},"vehicle_type_id":"4","last_reported":1726218573,"current_range_meters":22400,"station_id":"ce4bgj12rcd13ifvqbc0","pricing_plan_id":"cebpf4jnsgd1na2vs0mg"},{"bike_id":"aaae1a29-4857-4034-84be-78baad5a5e31","system_id":"levelo_inurba_marseille","lat":43.27994,"lon":5.41667,"is_reserved":false,"is_disabled":false,"rental_uris":{"android":"levelo://app?vid=aaae1a29-4857-4034-84be-78baad5a5e31","ios":"levelo://app?vid=aaae1a29-4857-4034-84be-78baad5a5e31"},"vehicle_type_id":"4","last_reported":1726218573,"current_range_meters":6800,"station_id":"ce4bho12rcd13ifvqh1g","pricing_plan_id":"cebpf4jnsgd1na2vs0mg"},{"bike_id":"e49093f7-6383-4e7f-9f16-cb91fa6cb74b","system_id":"levelo_inurba_marseille","lat":43.25002,"lon":5.38927,"is_reserved":false,"is_disabled":false,"rental_uris":{"android":"levelo://app?vid=e49093f7-6383-4e7f-9f16-cb91fa6cb74b","ios":"levelo://app?vid=e49093f7-6383-4e7f-9f16-cb91fa6cb74b"},"vehicle_type_id":"4","last_reported":1726218573,"current_range_meters":26800,"station_id":"ce4bhgp2rcd13ifvqfd0","pricing_plan_id":"cebpf4jnsgd1na2vs0mg"},{"bike_id":"574dec98-db13-49fd-9ea6-530f89ece91f","system_id":"levelo_inurba_marseille","lat":43.26808,"lon":5.40268,"is_reserved":false,"is_disabled":false,"rental_uris":{"android":"levelo://app?vid=574dec98-db13-49fd-9ea6-530f89ece91f","ios":"levelo://app?vid=574dec98-db13-49fd-9ea6-530f89ece91f"},"vehicle_type_id":"4","last_reported":1726218573,"current_range_meters":8400,"station_id":"ce501612rcd8frsf0b60","pricing_plan_id":"cebpf4jnsgd1na2vs0mg"},{"bike_id":"0d1a9506-11b0-4f44-a38c-a620c0199559","system_id":"levelo_inurba_marseille","lat":43.31334,"lon":5.39703,"is_reserved":false,"is_disabled":false,"rental_uris":{"android":"levelo://app?vid=0d1a9506-11b0-4f44-a38c-a620c0199559","ios":"levelo://app?vid=0d1a9506-11b0-4f44-a38c-a620c0199559"},"vehicle_type_id":"4","last_reported":1726218573,"current_range_meters":36400,"station_id":"ce4bgvp2rcd13ifvqcu0","pricing_plan_id":"cebpf4jnsgd1na2vs0mg"},{"bike_id":"8764129a-9b8d-4490-a1c9-f9fa60b4a560","system_id":"levelo_inurba_marseille","lat":43.33609,"lon":5.41028,"is_reserved":false,"is_disabled":false,"rental_uris":{"android":"levelo://app?vid=8764129a-9b8d-4490-a1c9-f9fa60b4a560","ios":"levelo://app?vid=8764129a-9b8d-4490-a1c9-f9fa60b4a560"},"vehicle_type_id":"4","last_reported":1726218573,"current_range_meters":39200,"station_id":"ce4bhqh2rcd13ifvqhmg","pricing_plan_id":"cebpf4jnsgd1na2vs0mg"},{"bike_id":"cdb7f7b4-ad89-4f18-9858-49d0e878e14f","system_id":"levelo_inurba_marseille","lat":43.3254,"lon":5.41449,"is_reserved":false,"is_disabled":false,"rental_uris":{"android":"levelo://app?vid=cdb7f7b4-ad89-4f18-9858-49d0e878e14f","ios":"levelo://app?vid=cdb7f7b4-ad89-4f18-9858-49d0e878e14f"},"vehicle_type_id":"4","last_reported":1726218573,"current_range_meters":38400,"station_id":"ce4bhq12rcd13ifvqhhg","pricing_plan_id":"cebpf4jnsgd1na2vs0mg"},{"bike_id":"4c0a2394-5fff-46c4-a289-f13795c3409e","system_id":"levelo_inurba_marseille","lat":43.30475,"lon":5.37895,"is_reserved":false,"is_disabled":false,"rental_uris":{"android":"levelo://app?vid=4c0a2394-5fff-46c4-a289-f13795c3409e","ios":"levelo://app?vid=4c0a2394-5fff-46c4-a289-f13795c3409e"},"vehicle_type_id":"4","last_reported":1726218573,"current_range_meters":34000,"station_id":"ce4bgup2rcd13ifvqcn0","pricing_plan_id":"cebpf4jnsgd1na2vs0mg"},{"bike_id":"96cb29cb-8da1-4dd6-bd35-ee190827a973","system_id":"levelo_inurba_marseille","lat":43.26559,"lon":5.3728,"is_reserved":false,"is_disabled":false,"rental_uris":{"android":"levelo://app?vid=96cb29cb-8da1-4dd6-bd35-ee190827a973","ios":"levelo://app?vid=96cb29cb-8da1-4dd6-bd35-ee190827a973"},"vehicle_type_id":"4","last_reported":1726218573,"current_range_meters":7200,"station_id":"ce4bhg12rcd13ifvqf70","pricing_plan_id":"cebpf4jnsgd1na2vs0mg"},{"bike_id":"e02c980e-bb3e-4f25-952b-8b402d68a1b1","system_id":"levelo_inurba_marseille","lat":43.28719,"lon":5.37938,"is_reserved":false,"is_disabled":false,"rental_uris":{"android":"levelo://app?vid=e02c980e-bb3e-4f25-952b-8b402d68a1b1","ios":"levelo://app?vid=e02c980e-bb3e-4f25-952b-8b402d68a1b1"},"vehicle_type_id":"4","last_reported":1726218573,"current_range_meters":23200,"station_id":"ce4bh9p2rcd13ifvqec0","pricing_plan_id":"cebpf4jnsgd1na2vs0mg"},{"bike_id":"31a4cb06-efb4-429c-9eb7-ef62ae37d102","system_id":"levelo_inurba_marseille","lat":43.28719,"lon":5.37937,"is_reserved":false,"is_disabled":false,"rental_uris":{"android":"levelo://app?vid=31a4cb06-efb4-429c-9eb7-ef62ae37d102","ios":"levelo://app?vid=31a4cb06-efb4-429c-9eb7-ef62ae37d102"},"vehicle_type_id":"4","last_reported":1726218573,"current_range_meters":38800,"station_id":"ce4bh9p2rcd13ifvqec0","pricing_plan_id":"cebpf4jnsgd1na2vs0mg"},{"bike_id":"3d0be373-de2e-4082-893a-54f0b6f55849","system_id":"levelo_inurba_marseille","lat":43.25937,"lon":5.40906,"is_reserved":false,"is_disabled":false,"rental_uris":{"android":"levelo://app?vid=3d0be373-de2e-4082-893a-54f0b6f55849","ios":"levelo://app?vid=3d0be373-de2e-4082-893a-54f0b6f55849"},"vehicle_type_id":"4","last_reported":1726218573,"current_range_meters":32800,"station_id":"ce4bhm92rcd13ifvqglg","pricing_plan_id":"cebpf4jnsgd1na2vs0mg"},{"bike_id":"9b49fc06-69dc-4375-9bc8-2ab31283d424","system_id":"levelo_inurba_marseille","lat":43.29906,"lon":5.43657,"is_reserved":false,"is_disabled":false,"rental_uris":{"android":"levelo://app?vid=9b49fc06-69dc-4375-9bc8-2ab31283d424","ios":"levelo://app?vid=9b49fc06-69dc-4375-9bc8-2ab31283d424"},"vehicle_type_id":"4","last_reported":1726218573,"current_range_meters":38000,"station_id":"ce4bhpp2rcd13ifvqhfg","pricing_plan_id":"cebpf4jnsgd1na2vs0mg"},{"bike_id":"dc010700-6876-43de-bbbf-9f62a06c8100","system_id":"levelo_inurba_marseille","lat":43.28147,"lon":5.4265,"is_reserved":false,"is_disabled":false,"rental_uris":{"android":"levelo://app?vid=dc010700-6876-43de-bbbf-9f62a06c8100","ios":"levelo://app?vid=dc010700-6876-43de-bbbf-9f62a06c8100"},"vehicle_type_id":"4","last_reported":1726218573,"current_range_meters":25200,"station_id":"ce4bhnh2rcd13ifvqgug","pricing_plan_id":"cebpf4jnsgd1na2vs0mg"},{"bike_id":"2ad38932-5697-4174-9790-55a1437bb734","system_id":"levelo_inurba_marseille","lat":43.23162,"lon":5.43718,"is_reserved":false,"is_disabled":false,"rental_uris":{"android":"levelo://app?vid=2ad38932-5697-4174-9790-55a1437bb734","ios":"levelo://app?vid=2ad38932-5697-4174-9790-55a1437bb734"},"vehicle_type_id":"4","last_reported":1726218573,"current_range_meters":24400,"station_id":"ce4bhmp2rcd13ifvqgog","pricing_plan_id":"cebpf4jnsgd1na2vs0mg"},{"bike_id":"998c85ed-d353-4a37-9fff-a3087203be94","system_id":"levelo_inurba_marseille","lat":43.28566,"lon":5.39497,"is_reserved":false,"is_disabled":false,"rental_uris":{"android":"levelo://app?vid=998c85ed-d353-4a37-9fff-a3087203be94","ios":"levelo://app?vid=998c85ed-d353-4a37-9fff-a3087203be94"},"vehicle_type_id":"4","last_reported":1726218573,"current_range_meters":36800,"station_id":"ce4bh292rcd13ifvqdg0","pricing_plan_id":"cebpf4jnsgd1na2vs0mg"},{"bike_id":"4d5c1237-2194-494d-82ac-3b88b1fa23a8","system_id":"levelo_inurba_marseille","lat":43.251168,"lon":5.40317,"is_reserved":false,"is_disabled":false,"rental_uris":{"android":"levelo://app?vid=4d5c1237-2194-494d-82ac-3b88b1fa23a8","ios":"levelo://app?vid=4d5c1237-2194-494d-82ac-3b88b1fa23a8"},"vehicle_type_id":"4","last_reported":1726218573,"current_range_meters":24000,"station_id":"ce4bhlh2rcd13ifvqgig","pricing_plan_id":"cebpf4jnsgd1na2vs0mg"},{"bike_id":"69a8bafd-9f00-4df8-bb17-fba606e96b3a","system_id":"levelo_inurba_marseille","lat":43.30544,"lon":5.36527,"is_reserved":false,"is_disabled":false,"rental_uris":{"android":"levelo://app?vid=69a8bafd-9f00-4df8-bb17-fba606e96b3a","ios":"levelo://app?vid=69a8bafd-9f00-4df8-bb17-fba606e96b3a"},"vehicle_type_id":"4","last_reported":1726218573,"current_range_meters":39200,"station_id":"ce4bgs12rcd13ifvqcag","pricing_plan_id":"cebpf4jnsgd1na2vs0mg"},{"bike_id":"1dca53e6-1f18-4eba-bb3a-897cbea19f59","system_id":"levelo_inurba_marseille","lat":43.29973,"lon":5.38493,"is_reserved":false,"is_disabled":false,"rental_uris":{"android":"levelo://app?vid=1dca53e6-1f18-4eba-bb3a-897cbea19f59","ios":"levelo://app?vid=1dca53e6-1f18-4eba-bb3a-897cbea19f59"},"vehicle_type_id":"4","last_reported":1726218573,"current_range_meters":39200,"station_id":"ce4bgj92rcd13ifvqbd0","pricing_plan_id":"cebpf4jnsgd1na2vs0mg"},{"bike_id":"2fbe59be-967c-4f3f-b5eb-2a3f8b0b8fb5","system_id":"levelo_inurba_marseille","lat":43.27491,"lon":5.42458,"is_reserved":false,"is_disabled":false,"rental_uris":{"android":"levelo://app?vid=2fbe59be-967c-4f3f-b5eb-2a3f8b0b8fb5","ios":"levelo://app?vid=2fbe59be-967c-4f3f-b5eb-2a3f8b0b8fb5"},"vehicle_type_id":"4","last_reported":1726218573,"current_range_meters":36400,"station_id":"ce4bhn92rcd13ifvqgrg","pricing_plan_id":"cebpf4jnsgd1na2vs0mg"},{"bike_id":"64fb79f9-6111-4358-8c55-8553d51d9562","system_id":"levelo_inurba_marseille","lat":43.2896,"lon":5.38914,"is_reserved":false,"is_disabled":false,"rental_uris":{"android":"levelo://app?vid=64fb79f9-6111-4358-8c55-8553d51d9562","ios":"levelo://app?vid=64fb79f9-6111-4358-8c55-8553d51d9562"},"vehicle_type_id":"4","last_reported":1726218573,"current_range_meters":6000,"station_id":"","pricing_plan_id":"cebpf4jnsgd1na2vs0mg"},{"bike_id":"a2065f96-47d3-4a85-be06-4c0f1ffbde51","system_id":"levelo_inurba_marseille","lat":43.2606,"lon":5.39395,"is_reserved":false,"is_disabled":false,"rental_uris":{"android":"levelo://app?vid=a2065f96-47d3-4a85-be06-4c0f1ffbde51","ios":"levelo://app?vid=a2065f96-47d3-4a85-be06-4c0f1ffbde51"},"vehicle_type_id":"4","last_reported":1726218573,"current_range_meters":9600,"station_id":"ce4bhh92rcd13ifvqfj0","pricing_plan_id":"cebpf4jnsgd1na2vs0mg"},{"bike_id":"79b7950d-90c8-4e3c-a243-1a31b18cd68e","system_id":"levelo_inurba_marseille","lat":43.23962,"lon":5.36632,"is_reserved":false,"is_disabled":false,"rental_uris":{"android":"levelo://app?vid=79b7950d-90c8-4e3c-a243-1a31b18cd68e","ios":"levelo://app?vid=79b7950d-90c8-4e3c-a243-1a31b18cd68e"},"vehicle_type_id":"4","last_reported":1726218573,"current_range_meters":11600,"station_id":"ce4bhi12rcd13ifvqfp0","pricing_plan_id":"cebpf4jnsgd1na2vs0mg"},{"bike_id":"72b517d2-6987-46d8-857e-779bc7604f01","system_id":"levelo_inurba_marseille","lat":43.26022,"lon":5.37558,"is_reserved":false,"is_disabled":false,"rental_uris":{"android":"levelo://app?vid=72b517d2-6987-46d8-857e-779bc7604f01","ios":"levelo://app?vid=72b517d2-6987-46d8-857e-779bc7604f01"},"vehicle_type_id":"4","last_reported":1726218573,"current_range_meters":20400,"station_id":"ce4bhgh2rcd13ifvqfa0","pricing_plan_id":"cebpf4jnsgd1na2vs0mg"},{"bike_id":"a2cd8b1a-5149-423f-b006-3a9bf1a7a464","system_id":"levelo_inurba_marseille","lat":43.27495,"lon":5.42443,"is_reserved":false,"is_disabled":false,"rental_uris":{"android":"levelo://app?vid=a2cd8b1a-5149-423f-b006-3a9bf1a7a464","ios":"levelo://app?vid=a2cd8b1a-5149-423f-b006-3a9bf1a7a464"},"vehicle_type_id":"4","last_reported":1726218573,"current_range_meters":16000,"station_id":"ce4bhn92rcd13ifvqgrg","pricing_plan_id":"cebpf4jnsgd1na2vs0mg"},{"bike_id":"2c4577b3-3689-495e-a3c3-a78eafd4dc43","system_id":"levelo_inurba_marseille","lat":43.26553,"lon":5.37285,"is_reserved":false,"is_disabled":false,"rental_uris":{"android":"levelo://app?vid=2c4577b3-3689-495e-a3c3-a78eafd4dc43","ios":"levelo://app?vid=2c4577b3-3689-495e-a3c3-a78eafd4dc43"},"vehicle_type_id":"4","last_reported":1726218573,"current_range_meters":28000,"station_id":"ce4bhg12rcd13ifvqf70","pricing_plan_id":"cebpf4jnsgd1na2vs0mg"},{"bike_id":"6c9ac6be-0029-4a2d-bb72-5c51035bba42","system_id":"levelo_inurba_marseille","lat":43.33614,"lon":5.41034,"is_reserved":false,"is_disabled":false,"rental_uris":{"android":"levelo://app?vid=6c9ac6be-0029-4a2d-bb72-5c51035bba42","ios":"levelo://app?vid=6c9ac6be-0029-4a2d-bb72-5c51035bba42"},"vehicle_type_id":"4","last_reported":1726218573,"current_range_meters":39200,"station_id":"ce4bhqh2rcd13ifvqhmg","pricing_plan_id":"cebpf4jnsgd1na2vs0mg"},{"bike_id":"97ae5e88-fc86-4031-975c-97e354fc86d6","system_id":"levelo_inurba_marseille","lat":43.28138,"lon":5.42648,"is_reserved":false,"is_disabled":false,"rental_uris":{"android":"levelo://app?vid=97ae5e88-fc86-4031-975c-97e354fc86d6","ios":"levelo://app?vid=97ae5e88-fc86-4031-975c-97e354fc86d6"},"vehicle_type_id":"4","last_reported":1726218573,"current_range_meters":20000,"station_id":"ce4bhnh2rcd13ifvqgug","pricing_plan_id":"cebpf4jnsgd1na2vs0mg"},{"bike_id":"3d5998b8-f552-42dd-894c-2d371a7435d7","system_id":"levelo_inurba_marseille","lat":43.24086,"lon":5.37752,"is_reserved":false,"is_disabled":false,"rental_uris":{"android":"levelo://app?vid=3d5998b8-f552-42dd-894c-2d371a7435d7","ios":"levelo://app?vid=3d5998b8-f552-42dd-894c-2d371a7435d7"},"vehicle_type_id":"4","last_reported":1726218573,"current_range_meters":28400,"station_id":"ce4bhnp2rcd13ifvqgvg","pricing_plan_id":"cebpf4jnsgd1na2vs0mg"},{"bike_id":"f890408a-09d3-44a4-b9ac-3affc05dc13b","system_id":"levelo_inurba_marseille","lat":43.28345,"lon":5.381,"is_reserved":false,"is_disabled":false,"rental_uris":{"android":"levelo://app?vid=f890408a-09d3-44a4-b9ac-3affc05dc13b","ios":"levelo://app?vid=f890408a-09d3-44a4-b9ac-3affc05dc13b"},"vehicle_type_id":"4","last_reported":1726218573,"current_range_meters":36400,"station_id":"ce4bh412rcd13ifvqdr0","pricing_plan_id":"cebpf4jnsgd1na2vs0mg"},{"bike_id":"60d5bda9-f640-405a-935d-62d1314e50fa","system_id":"levelo_inurba_marseille","lat":43.23961,"lon":5.36634,"is_reserved":false,"is_disabled":false,"rental_uris":{"android":"levelo://app?vid=60d5bda9-f640-405a-935d-62d1314e50fa","ios":"levelo://app?vid=60d5bda9-f640-405a-935d-62d1314e50fa"},"vehicle_type_id":"4","last_reported":1726218573,"current_range_meters":28000,"station_id":"ce4bhi12rcd13ifvqfp0","pricing_plan_id":"cebpf4jnsgd1na2vs0mg"},{"bike_id":"715b08a5-9edc-4363-b38a-8ad004d88332","system_id":"levelo_inurba_marseille","lat":43.275,"lon":5.4245,"is_reserved":false,"is_disabled":false,"rental_uris":{"android":"levelo://app?vid=715b08a5-9edc-4363-b38a-8ad004d88332","ios":"levelo://app?vid=715b08a5-9edc-4363-b38a-8ad004d88332"},"vehicle_type_id":"4","last_reported":1726218573,"current_range_meters":31200,"station_id":"ce4bhn92rcd13ifvqgrg","pricing_plan_id":"cebpf4jnsgd1na2vs0mg"},{"bike_id":"bd2ce2e0-f8d9-4e30-a205-2f074a8614dd","system_id":"levelo_inurba_marseille","lat":43.26944,"lon":5.38642,"is_reserved":false,"is_disabled":false,"rental_uris":{"android":"levelo://app?vid=bd2ce2e0-f8d9-4e30-a205-2f074a8614dd","ios":"levelo://app?vid=bd2ce2e0-f8d9-4e30-a205-2f074a8614dd"},"vehicle_type_id":"4","last_reported":1726218573,"current_range_meters":23200,"station_id":"ce4bhh92rcd13ifvqfh0","pricing_plan_id":"cebpf4jnsgd1na2vs0mg"},{"bike_id":"423a4cab-8a31-4718-8b7a-239bcdca67af","system_id":"levelo_inurba_marseille","lat":43.24179,"lon":5.3972,"is_reserved":false,"is_disabled":false,"rental_uris":{"android":"levelo://app?vid=423a4cab-8a31-4718-8b7a-239bcdca67af","ios":"levelo://app?vid=423a4cab-8a31-4718-8b7a-239bcdca67af"},"vehicle_type_id":"4","last_reported":1726218573,"current_range_meters":37600,"station_id":"ce4bhn12rcd13ifvqgpg","pricing_plan_id":"cebpf4jnsgd1na2vs0mg"},{"bike_id":"a0b7b91d-5120-456a-a32f-3beb587d5443","system_id":"levelo_inurba_marseille","lat":43.27504,"lon":5.42453,"is_reserved":false,"is_disabled":false,"rental_uris":{"android":"levelo://app?vid=a0b7b91d-5120-456a-a32f-3beb587d5443","ios":"levelo://app?vid=a0b7b91d-5120-456a-a32f-3beb587d5443"},"vehicle_type_id":"4","last_reported":1726218573,"current_range_meters":30400,"station_id":"ce4bhn92rcd13ifvqgrg","pricing_plan_id":"cebpf4jnsgd1na2vs0mg"},{"bike_id":"cb5ffcd3-f3ba-495c-bb87-8a68fc1b1374","system_id":"levelo_inurba_marseille","lat":43.24996,"lon":5.38931,"is_reserved":false,"is_disabled":false,"rental_uris":{"android":"levelo://app?vid=cb5ffcd3-f3ba-495c-bb87-8a68fc1b1374","ios":"levelo://app?vid=cb5ffcd3-f3ba-495c-bb87-8a68fc1b1374"},"vehicle_type_id":"4","last_reported":1726218573,"current_range_meters":6800,"station_id":"ce4bhgp2rcd13ifvqfd0","pricing_plan_id":"cebpf4jnsgd1na2vs0mg"},{"bike_id":"073c514e-ed34-42ce-9949-0f3b06a10e21","system_id":"levelo_inurba_marseille","lat":43.29734,"lon":5.37703,"is_reserved":false,"is_disabled":false,"rental_uris":{"android":"levelo://app?vid=073c514e-ed34-42ce-9949-0f3b06a10e21","ios":"levelo://app?vid=073c514e-ed34-42ce-9949-0f3b06a10e21"},"vehicle_type_id":"4","last_reported":1726218573,"current_range_meters":38800,"station_id":"ce4bgkh2rcd13ifvqbl0","pricing_plan_id":"cebpf4jnsgd1na2vs0mg"},{"bike_id":"0c90a57b-e9bd-4696-9929-53707ab70205","system_id":"levelo_inurba_marseille","lat":43.30153,"lon":5.38085,"is_reserved":false,"is_disabled":false,"rental_uris":{"android":"levelo://app?vid=0c90a57b-e9bd-4696-9929-53707ab70205","ios":"levelo://app?vid=0c90a57b-e9bd-4696-9929-53707ab70205"},"vehicle_type_id":"4","last_reported":1726218573,"current_range_meters":18800,"station_id":"ce4bgjp2rcd13ifvqbh0","pricing_plan_id":"cebpf4jnsgd1na2vs0mg"},{"bike_id":"5174d76d-7c6b-41e9-aceb-a48450e5301e","system_id":"levelo_inurba_marseille","lat":43.26953,"lon":5.40247,"is_reserved":false,"is_disabled":false,"rental_uris":{"android":"levelo://app?vid=5174d76d-7c6b-41e9-aceb-a48450e5301e","ios":"levelo://app?vid=5174d76d-7c6b-41e9-aceb-a48450e5301e"},"vehicle_type_id":"4","last_reported":1726218573,"current_range_meters":38400,"station_id":"cjm6bp8fraef2m0cb0m0","pricing_plan_id":"cebpf4jnsgd1na2vs0mg"},{"bike_id":"d2ba0f92-b4c4-4cf9-a84b-2b71ca37650b","system_id":"levelo_inurba_marseille","lat":43.29905,"lon":5.38147,"is_reserved":false,"is_disabled":false,"rental_uris":{"android":"levelo://app?vid=d2ba0f92-b4c4-4cf9-a84b-2b71ca37650b","ios":"levelo://app?vid=d2ba0f92-b4c4-4cf9-a84b-2b71ca37650b"},"vehicle_type_id":"4","last_reported":1726218573,"current_range_meters":34800,"station_id":"ce4bgj12rcd13ifvqbc0","pricing_plan_id":"cebpf4jnsgd1na2vs0mg"},{"bike_id":"aa4e8f1d-9407-485a-87ff-f80b98af6f87","system_id":"levelo_inurba_marseille","lat":43.32488,"lon":5.36564,"is_reserved":false,"is_disabled":false,"rental_uris":{"android":"levelo://app?vid=aa4e8f1d-9407-485a-87ff-f80b98af6f87","ios":"levelo://app?vid=aa4e8f1d-9407-485a-87ff-f80b98af6f87"},"vehicle_type_id":"4","last_reported":1726218573,"current_range_meters":12800,"station_id":"ce4bhs12rcd13ifvqhvg","pricing_plan_id":"cebpf4jnsgd1na2vs0mg"},{"bike_id":"288cef71-b93b-4cf0-921e-39ef252d67a1","system_id":"levelo_inurba_marseille","lat":43.33754,"lon":5.3743,"is_reserved":false,"is_disabled":false,"rental_uris":{"android":"levelo://app?vid=288cef71-b93b-4cf0-921e-39ef252d67a1","ios":"levelo://app?vid=288cef71-b93b-4cf0-921e-39ef252d67a1"},"vehicle_type_id":"4","last_reported":1726218573,"current_range_meters":30400,"station_id":"","pricing_plan_id":"cebpf4jnsgd1na2vs0mg"},{"bike_id":"2d9f6a36-1e8d-46ce-8819-b2bb04006d43","system_id":"levelo_inurba_marseille","lat":43.25586,"lon":5.38226,"is_reserved":false,"is_disabled":false,"rental_uris":{"android":"levelo://app?vid=2d9f6a36-1e8d-46ce-8819-b2bb04006d43","ios":"levelo://app?vid=2d9f6a36-1e8d-46ce-8819-b2bb04006d43"},"vehicle_type_id":"4","last_reported":1726218573,"current_range_meters":31200,"station_id":"ce4bhih2rcd13ifvqfs0","pricing_plan_id":"cebpf4jnsgd1na2vs0mg"},{"bike_id":"4ab947b5-b875-4fba-bc47-d630481a4a8a","system_id":"levelo_inurba_marseille","lat":43.29985,"lon":5.37183,"is_reserved":false,"is_disabled":false,"rental_uris":{"android":"levelo://app?vid=4ab947b5-b875-4fba-bc47-d630481a4a8a","ios":"levelo://app?vid=4ab947b5-b875-4fba-bc47-d630481a4a8a"},"vehicle_type_id":"4","last_reported":1726218573,"current_range_meters":22400,"station_id":"ce4bgr92rcd13ifvqc7g","pricing_plan_id":"cebpf4jnsgd1na2vs0mg"},{"bike_id":"28da9d45-7d00-499a-a1c0-ada700df2574","system_id":"levelo_inurba_marseille","lat":43.30953,"lon":5.39044,"is_reserved":false,"is_disabled":false,"rental_uris":{"android":"levelo://app?vid=28da9d45-7d00-499a-a1c0-ada700df2574","ios":"levelo://app?vid=28da9d45-7d00-499a-a1c0-ada700df2574"},"vehicle_type_id":"4","last_reported":1726218573,"current_range_meters":26000,"station_id":"ce4bgup2rcd13ifvqco0","pricing_plan_id":"cebpf4jnsgd1na2vs0mg"},{"bike_id":"8dca9963-cf39-4281-bf12-7f04d8ff2bb7","system_id":"levelo_inurba_marseille","lat":43.29174,"lon":5.37153,"is_reserved":false,"is_disabled":false,"rental_uris":{"android":"levelo://app?vid=8dca9963-cf39-4281-bf12-7f04d8ff2bb7","ios":"levelo://app?vid=8dca9963-cf39-4281-bf12-7f04d8ff2bb7"},"vehicle_type_id":"4","last_reported":1726218573,"current_range_meters":39200,"station_id":"ce4bha92rcd13ifvqeh0","pricing_plan_id":"cebpf4jnsgd1na2vs0mg"},{"bike_id":"e62c8c71-b14f-4c94-8aa4-e0afcaaf93b6","system_id":"levelo_inurba_marseille","lat":43.24816,"lon":5.37461,"is_reserved":false,"is_disabled":false,"rental_uris":{"android":"levelo://app?vid=e62c8c71-b14f-4c94-8aa4-e0afcaaf93b6","ios":"levelo://app?vid=e62c8c71-b14f-4c94-8aa4-e0afcaaf93b6"},"vehicle_type_id":"4","last_reported":1726218573,"current_range_meters":32800,"station_id":"ce4bhgh2rcd13ifvqfb0","pricing_plan_id":"cebpf4jnsgd1na2vs0mg"},{"bike_id":"9e955087-931f-42c6-a5de-4480d9f0a58c","system_id":"levelo_inurba_marseille","lat":43.32486,"lon":5.36562,"is_reserved":false,"is_disabled":false,"rental_uris":{"android":"levelo://app?vid=9e955087-931f-42c6-a5de-4480d9f0a58c","ios":"levelo://app?vid=9e955087-931f-42c6-a5de-4480d9f0a58c"},"vehicle_type_id":"4","last_reported":1726218573,"current_range_meters":28000,"station_id":"ce4bhs12rcd13ifvqhvg","pricing_plan_id":"cebpf4jnsgd1na2vs0mg"},{"bike_id":"45cff7cc-1207-4cd4-8678-6f79cec0950b","system_id":"levelo_inurba_marseille","lat":43.28484,"lon":5.38426,"is_reserved":false,"is_disabled":false,"rental_uris":{"android":"levelo://app?vid=45cff7cc-1207-4cd4-8678-6f79cec0950b","ios":"levelo://app?vid=45cff7cc-1207-4cd4-8678-6f79cec0950b"},"vehicle_type_id":"4","last_reported":1726218573,"current_range_meters":38800,"station_id":"ce4bh512rcd13ifvqe3g","pricing_plan_id":"cebpf4jnsgd1na2vs0mg"},{"bike_id":"69b26a0b-db83-4395-8ee1-1e784091ffad","system_id":"levelo_inurba_marseille","lat":43.23154,"lon":5.43714,"is_reserved":false,"is_disabled":false,"rental_uris":{"android":"levelo://app?vid=69b26a0b-db83-4395-8ee1-1e784091ffad","ios":"levelo://app?vid=69b26a0b-db83-4395-8ee1-1e784091ffad"},"vehicle_type_id":"4","last_reported":1726218573,"current_range_meters":38800,"station_id":"ce4bhmp2rcd13ifvqgog","pricing_plan_id":"cebpf4jnsgd1na2vs0mg"},{"bike_id":"0e2edd10-f19e-482e-b162-ec69a2bc6e3c","system_id":"levelo_inurba_marseille","lat":43.24073,"lon":5.37758,"is_reserved":false,"is_disabled":false,"rental_uris":{"android":"levelo://app?vid=0e2edd10-f19e-482e-b162-ec69a2bc6e3c","ios":"levelo://app?vid=0e2edd10-f19e-482e-b162-ec69a2bc6e3c"},"vehicle_type_id":"4","last_reported":1726218573,"current_range_meters":35200,"station_id":"ce4bhnp2rcd13ifvqgvg","pricing_plan_id":"cebpf4jnsgd1na2vs0mg"},{"bike_id":"655b4797-dc8d-49a1-8610-fcd415671ad9","system_id":"levelo_inurba_marseille","lat":43.33613,"lon":5.41028,"is_reserved":false,"is_disabled":false,"rental_uris":{"android":"levelo://app?vid=655b4797-dc8d-49a1-8610-fcd415671ad9","ios":"levelo://app?vid=655b4797-dc8d-49a1-8610-fcd415671ad9"},"vehicle_type_id":"4","last_reported":1726218573,"current_range_meters":36800,"station_id":"ce4bhqh2rcd13ifvqhmg","pricing_plan_id":"cebpf4jnsgd1na2vs0mg"},{"bike_id":"59a2b5a9-0f56-40d5-a59c-cb2592419b75","system_id":"levelo_inurba_marseille","lat":43.2559,"lon":5.38263,"is_reserved":false,"is_disabled":false,"rental_uris":{"android":"levelo://app?vid=59a2b5a9-0f56-40d5-a59c-cb2592419b75","ios":"levelo://app?vid=59a2b5a9-0f56-40d5-a59c-cb2592419b75"},"vehicle_type_id":"4","last_reported":1726218573,"current_range_meters":38800,"station_id":"ce4bhih2rcd13ifvqfs0","pricing_plan_id":"cebpf4jnsgd1na2vs0mg"},{"bike_id":"13b59975-d383-4254-90d7-d1dbbd742258","system_id":"levelo_inurba_marseille","lat":43.29073,"lon":5.37176,"is_reserved":false,"is_disabled":false,"rental_uris":{"android":"levelo://app?vid=13b59975-d383-4254-90d7-d1dbbd742258","ios":"levelo://app?vid=13b59975-d383-4254-90d7-d1dbbd742258"},"vehicle_type_id":"4","last_reported":1726218573,"current_range_meters":36800,"station_id":"ce4bh5p2rcd13ifvqe4g","pricing_plan_id":"cebpf4jnsgd1na2vs0mg"},{"bike_id":"91ce77ce-18ef-47d8-9533-f401393ecd0b","system_id":"levelo_inurba_marseille","lat":43.28622,"lon":5.35099,"is_reserved":false,"is_disabled":false,"rental_uris":{"android":"levelo://app?vid=91ce77ce-18ef-47d8-9533-f401393ecd0b","ios":"levelo://app?vid=91ce77ce-18ef-47d8-9533-f401393ecd0b"},"vehicle_type_id":"4","last_reported":1726218573,"current_range_meters":18000,"station_id":"ce4bhch2rcd13ifvqeug","pricing_plan_id":"cebpf4jnsgd1na2vs0mg"},{"bike_id":"ec1d5824-cf29-402c-937e-321bb51d7cc1","system_id":"levelo_inurba_marseille","lat":43.26807,"lon":5.4028,"is_reserved":false,"is_disabled":false,"rental_uris":{"android":"levelo://app?vid=ec1d5824-cf29-402c-937e-321bb51d7cc1","ios":"levelo://app?vid=ec1d5824-cf29-402c-937e-321bb51d7cc1"},"vehicle_type_id":"4","last_reported":1726218573,"current_range_meters":34000,"station_id":"ce501612rcd8frsf0b60","pricing_plan_id":"cebpf4jnsgd1na2vs0mg"},{"bike_id":"f8f6d540-4d90-4b3f-bf37-4424c07b1e6a","system_id":"levelo_inurba_marseille","lat":43.26945,"lon":5.40255,"is_reserved":false,"is_disabled":false,"rental_uris":{"android":"levelo://app?vid=f8f6d540-4d90-4b3f-bf37-4424c07b1e6a","ios":"levelo://app?vid=f8f6d540-4d90-4b3f-bf37-4424c07b1e6a"},"vehicle_type_id":"4","last_reported":1726218573,"current_range_meters":22000,"station_id":"cjm6bp8fraef2m0cb0m0","pricing_plan_id":"cebpf4jnsgd1na2vs0mg"},{"bike_id":"b6a55e8b-3ff3-46c8-a72a-6c10f7cc2db1","system_id":"levelo_inurba_marseille","lat":43.29959,"lon":5.41317,"is_reserved":false,"is_disabled":false,"rental_uris":{"android":"levelo://app?vid=b6a55e8b-3ff3-46c8-a72a-6c10f7cc2db1","ios":"levelo://app?vid=b6a55e8b-3ff3-46c8-a72a-6c10f7cc2db1"},"vehicle_type_id":"4","last_reported":1726218573,"current_range_meters":38800,"station_id":"ce4bhp12rcd13ifvqh9g","pricing_plan_id":"cebpf4jnsgd1na2vs0mg"},{"bike_id":"d608f0a9-6c51-4c68-be81-d6c79550be85","system_id":"levelo_inurba_marseille","lat":43.31714,"lon":5.43706,"is_reserved":false,"is_disabled":false,"rental_uris":{"android":"levelo://app?vid=d608f0a9-6c51-4c68-be81-d6c79550be85","ios":"levelo://app?vid=d608f0a9-6c51-4c68-be81-d6c79550be85"},"vehicle_type_id":"4","last_reported":1726218573,"current_range_meters":39200,"station_id":"ce4bhp92rcd13ifvqhcg","pricing_plan_id":"cebpf4jnsgd1na2vs0mg"},{"bike_id":"a8408bc0-1ad0-4261-92e7-4324637d7c82","system_id":"levelo_inurba_marseille","lat":43.29006,"lon":5.35616,"is_reserved":false,"is_disabled":false,"rental_uris":{"android":"levelo://app?vid=a8408bc0-1ad0-4261-92e7-4324637d7c82","ios":"levelo://app?vid=a8408bc0-1ad0-4261-92e7-4324637d7c82"},"vehicle_type_id":"4","last_reported":1726218573,"current_range_meters":38800,"station_id":"ce4bhb92rcd13ifvqen0","pricing_plan_id":"cebpf4jnsgd1na2vs0mg"},{"bike_id":"7685c71a-1935-4b9f-858d-7f9381b88abf","system_id":"levelo_inurba_marseille","lat":43.33616,"lon":5.41024,"is_reserved":false,"is_disabled":false,"rental_uris":{"android":"levelo://app?vid=7685c71a-1935-4b9f-858d-7f9381b88abf","ios":"levelo://app?vid=7685c71a-1935-4b9f-858d-7f9381b88abf"},"vehicle_type_id":"4","last_reported":1726218573,"current_range_meters":28000,"station_id":"ce4bhqh2rcd13ifvqhmg","pricing_plan_id":"cebpf4jnsgd1na2vs0mg"},{"bike_id":"c5ab4fa9-bf1e-4e5a-a95e-daef5684034d","system_id":"levelo_inurba_marseille","lat":43.31363,"lon":5.36717,"is_reserved":false,"is_disabled":false,"rental_uris":{"android":"levelo://app?vid=c5ab4fa9-bf1e-4e5a-a95e-daef5684034d","ios":"levelo://app?vid=c5ab4fa9-bf1e-4e5a-a95e-daef5684034d"},"vehicle_type_id":"4","last_reported":1726218573,"current_range_meters":32400,"station_id":"ce4bgr92rcd13ifvqc6g","pricing_plan_id":"cebpf4jnsgd1na2vs0mg"},{"bike_id":"deaeb920-23ab-4b51-a90a-3a4d369b9959","system_id":"levelo_inurba_marseille","lat":43.26558,"lon":5.37294,"is_reserved":false,"is_disabled":false,"rental_uris":{"android":"levelo://app?vid=deaeb920-23ab-4b51-a90a-3a4d369b9959","ios":"levelo://app?vid=deaeb920-23ab-4b51-a90a-3a4d369b9959"},"vehicle_type_id":"4","last_reported":1726218573,"current_range_meters":8400,"station_id":"ce4bhg12rcd13ifvqf70","pricing_plan_id":"cebpf4jnsgd1na2vs0mg"},{"bike_id":"015baaa5-fdae-4816-9617-da25caae93a6","system_id":"levelo_inurba_marseille","lat":43.29303,"lon":5.37473,"is_reserved":false,"is_disabled":false,"rental_uris":{"android":"levelo://app?vid=015baaa5-fdae-4816-9617-da25caae93a6","ios":"levelo://app?vid=015baaa5-fdae-4816-9617-da25caae93a6"},"vehicle_type_id":"4","last_reported":1726218573,"current_range_meters":18800,"station_id":"ce4bgi12rcd13ifvqb70","pricing_plan_id":"cebpf4jnsgd1na2vs0mg"},{"bike_id":"a3c99c0e-efb7-4563-a1e3-25d67d6029f6","system_id":"levelo_inurba_marseille","lat":43.31088,"lon":5.42433,"is_reserved":false,"is_disabled":false,"rental_uris":{"android":"levelo://app?vid=a3c99c0e-efb7-4563-a1e3-25d67d6029f6","ios":"levelo://app?vid=a3c99c0e-efb7-4563-a1e3-25d67d6029f6"},"vehicle_type_id":"4","last_reported":1726218573,"current_range_meters":10000,"station_id":"ce4bhp92rcd13ifvqhag","pricing_plan_id":"cebpf4jnsgd1na2vs0mg"},{"bike_id":"0a5c7982-28f1-44b8-a901-7e32bdbe3e0d","system_id":"levelo_inurba_marseille","lat":43.25493,"lon":5.3765,"is_reserved":false,"is_disabled":false,"rental_uris":{"android":"levelo://app?vid=0a5c7982-28f1-44b8-a901-7e32bdbe3e0d","ios":"levelo://app?vid=0a5c7982-28f1-44b8-a901-7e32bdbe3e0d"},"vehicle_type_id":"4","last_reported":1726218573,"current_range_meters":34000,"station_id":"ce4bhh12rcd13ifvqff0","pricing_plan_id":"cebpf4jnsgd1na2vs0mg"},{"bike_id":"756cb443-fd0a-4fd3-a1b9-dd9d1228b3a4","system_id":"levelo_inurba_marseille","lat":43.29733,"lon":5.37698,"is_reserved":false,"is_disabled":false,"rental_uris":{"android":"levelo://app?vid=756cb443-fd0a-4fd3-a1b9-dd9d1228b3a4","ios":"levelo://app?vid=756cb443-fd0a-4fd3-a1b9-dd9d1228b3a4"},"vehicle_type_id":"4","last_reported":1726218573,"current_range_meters":33600,"station_id":"ce4bgkh2rcd13ifvqbl0","pricing_plan_id":"cebpf4jnsgd1na2vs0mg"},{"bike_id":"2706703d-819c-4205-a468-5b08a4b1f00c","system_id":"levelo_inurba_marseille","lat":43.26946,"lon":5.38644,"is_reserved":false,"is_disabled":false,"rental_uris":{"android":"levelo://app?vid=2706703d-819c-4205-a468-5b08a4b1f00c","ios":"levelo://app?vid=2706703d-819c-4205-a468-5b08a4b1f00c"},"vehicle_type_id":"4","last_reported":1726218573,"current_range_meters":33600,"station_id":"ce4bhh92rcd13ifvqfh0","pricing_plan_id":"cebpf4jnsgd1na2vs0mg"},{"bike_id":"d765a641-e055-4e3b-87e7-fd69ea5db099","system_id":"levelo_inurba_marseille","lat":43.33763,"lon":5.37437,"is_reserved":false,"is_disabled":false,"rental_uris":{"android":"levelo://app?vid=d765a641-e055-4e3b-87e7-fd69ea5db099","ios":"levelo://app?vid=d765a641-e055-4e3b-87e7-fd69ea5db099"},"vehicle_type_id":"4","last_reported":1726218573,"current_range_meters":35600,"station_id":"","pricing_plan_id":"cebpf4jnsgd1na2vs0mg"},{"bike_id":"712ed283-2e97-40bf-a20c-65756f19ed99","system_id":"levelo_inurba_marseille","lat":43.28358,"lon":5.38096,"is_reserved":false,"is_disabled":false,"rental_uris":{"android":"levelo://app?vid=712ed283-2e97-40bf-a20c-65756f19ed99","ios":"levelo://app?vid=712ed283-2e97-40bf-a20c-65756f19ed99"},"vehicle_type_id":"4","last_reported":1726218573,"current_range_meters":32800,"station_id":"ce4bh412rcd13ifvqdr0","pricing_plan_id":"cebpf4jnsgd1na2vs0mg"},{"bike_id":"3a82be99-0129-491b-a6a6-d963bb916583","system_id":"levelo_inurba_marseille","lat":43.30465,"lon":5.379,"is_reserved":false,"is_disabled":false,"rental_uris":{"android":"levelo://app?vid=3a82be99-0129-491b-a6a6-d963bb916583","ios":"levelo://app?vid=3a82be99-0129-491b-a6a6-d963bb916583"},"vehicle_type_id":"4","last_reported":1726218573,"current_range_meters":27200,"station_id":"ce4bgup2rcd13ifvqcn0","pricing_plan_id":"cebpf4jnsgd1na2vs0mg"},{"bike_id":"ecb19fdf-c363-4be5-9a1d-16b9150ca555","system_id":"levelo_inurba_marseille","lat":43.31369,"lon":5.36687,"is_reserved":false,"is_disabled":false,"rental_uris":{"android":"levelo://app?vid=ecb19fdf-c363-4be5-9a1d-16b9150ca555","ios":"levelo://app?vid=ecb19fdf-c363-4be5-9a1d-16b9150ca555"},"vehicle_type_id":"4","last_reported":1726218573,"current_range_meters":26800,"station_id":"ce4bgr92rcd13ifvqc6g","pricing_plan_id":"cebpf4jnsgd1na2vs0mg"},{"bike_id":"dbc4086c-48db-4284-a3cc-0bca6ec06a27","system_id":"levelo_inurba_marseille","lat":43.30464,"lon":5.37892,"is_reserved":false,"is_disabled":false,"rental_uris":{"android":"levelo://app?vid=dbc4086c-48db-4284-a3cc-0bca6ec06a27","ios":"levelo://app?vid=dbc4086c-48db-4284-a3cc-0bca6ec06a27"},"vehicle_type_id":"4","last_reported":1726218573,"current_range_meters":39200,"station_id":"ce4bgup2rcd13ifvqcn0","pricing_plan_id":"cebpf4jnsgd1na2vs0mg"},{"bike_id":"2e1b7783-3f10-4155-a11c-1bf9df31fd07","system_id":"levelo_inurba_marseille","lat":43.2917,"lon":5.37144,"is_reserved":false,"is_disabled":false,"rental_uris":{"android":"levelo://app?vid=2e1b7783-3f10-4155-a11c-1bf9df31fd07","ios":"levelo://app?vid=2e1b7783-3f10-4155-a11c-1bf9df31fd07"},"vehicle_type_id":"4","last_reported":1726218573,"current_range_meters":12000,"station_id":"ce4bha92rcd13ifvqeh0","pricing_plan_id":"cebpf4jnsgd1na2vs0mg"},{"bike_id":"7d63178b-69f7-4014-a28f-2f01f91ab383","system_id":"levelo_inurba_marseille","lat":43.2409,"lon":5.37756,"is_reserved":false,"is_disabled":false,"rental_uris":{"android":"levelo://app?vid=7d63178b-69f7-4014-a28f-2f01f91ab383","ios":"levelo://app?vid=7d63178b-69f7-4014-a28f-2f01f91ab383"},"vehicle_type_id":"4","last_reported":1726218573,"current_range_meters":34000,"station_id":"ce4bhnp2rcd13ifvqgvg","pricing_plan_id":"cebpf4jnsgd1na2vs0mg"},{"bike_id":"f22d7c7d-1a79-4418-8e07-612430d283a3","system_id":"levelo_inurba_marseille","lat":43.3048,"lon":5.37896,"is_reserved":false,"is_disabled":false,"rental_uris":{"android":"levelo://app?vid=f22d7c7d-1a79-4418-8e07-612430d283a3","ios":"levelo://app?vid=f22d7c7d-1a79-4418-8e07-612430d283a3"},"vehicle_type_id":"4","last_reported":1726218573,"current_range_meters":33200,"station_id":"ce4bgup2rcd13ifvqcn0","pricing_plan_id":"cebpf4jnsgd1na2vs0mg"},{"bike_id":"ac5230f7-5fb8-4025-856d-9e3a9dcbd599","system_id":"levelo_inurba_marseille","lat":43.313258,"lon":5.396879,"is_reserved":false,"is_disabled":false,"rental_uris":{"android":"levelo://app?vid=ac5230f7-5fb8-4025-856d-9e3a9dcbd599","ios":"levelo://app?vid=ac5230f7-5fb8-4025-856d-9e3a9dcbd599"},"vehicle_type_id":"4","last_reported":1726218573,"current_range_meters":10000,"station_id":"ce4bgvp2rcd13ifvqcu0","pricing_plan_id":"cebpf4jnsgd1na2vs0mg"},{"bike_id":"1ee8940c-1a6e-4a04-b777-07dbbf9a1c07","system_id":"levelo_inurba_marseille","lat":43.337444,"lon":5.374475,"is_reserved":false,"is_disabled":false,"rental_uris":{"android":"levelo://app?vid=1ee8940c-1a6e-4a04-b777-07dbbf9a1c07","ios":"levelo://app?vid=1ee8940c-1a6e-4a04-b777-07dbbf9a1c07"},"vehicle_type_id":"4","last_reported":1726218573,"current_range_meters":15200,"station_id":"","pricing_plan_id":"cebpf4jnsgd1na2vs0mg"},{"bike_id":"fd8f225b-f074-476f-9cba-eabc87ece5d2","system_id":"levelo_inurba_marseille","lat":43.29974,"lon":5.38486,"is_reserved":false,"is_disabled":false,"rental_uris":{"android":"levelo://app?vid=fd8f225b-f074-476f-9cba-eabc87ece5d2","ios":"levelo://app?vid=fd8f225b-f074-476f-9cba-eabc87ece5d2"},"vehicle_type_id":"4","last_reported":1726218573,"current_range_meters":17600,"station_id":"ce4bgj92rcd13ifvqbd0","pricing_plan_id":"cebpf4jnsgd1na2vs0mg"},{"bike_id":"fb4a43cc-1094-4b91-b8fc-da2543614e4a","system_id":"levelo_inurba_marseille","lat":43.27309,"lon":5.39086,"is_reserved":false,"is_disabled":false,"rental_uris":{"android":"levelo://app?vid=fb4a43cc-1094-4b91-b8fc-da2543614e4a","ios":"levelo://app?vid=fb4a43cc-1094-4b91-b8fc-da2543614e4a"},"vehicle_type_id":"4","last_reported":1726218573,"current_range_meters":25200,"station_id":"ce4bhgp2rcd13ifvqfe0","pricing_plan_id":"cebpf4jnsgd1na2vs0mg"},{"bike_id":"5f6bfd00-5693-46f3-961a-0e7447109507","system_id":"levelo_inurba_marseille","lat":43.31724,"lon":5.43718,"is_reserved":false,"is_disabled":false,"rental_uris":{"android":"levelo://app?vid=5f6bfd00-5693-46f3-961a-0e7447109507","ios":"levelo://app?vid=5f6bfd00-5693-46f3-961a-0e7447109507"},"vehicle_type_id":"4","last_reported":1726218573,"current_range_meters":30000,"station_id":"ce4bhp92rcd13ifvqhcg","pricing_plan_id":"cebpf4jnsgd1na2vs0mg"},{"bike_id":"4afb8b00-be3a-4d15-9b8b-47916e625762","system_id":"levelo_inurba_marseille","lat":43.2853,"lon":5.44229,"is_reserved":false,"is_disabled":false,"rental_uris":{"android":"levelo://app?vid=4afb8b00-be3a-4d15-9b8b-47916e625762","ios":"levelo://app?vid=4afb8b00-be3a-4d15-9b8b-47916e625762"},"vehicle_type_id":"4","last_reported":1726218573,"current_range_meters":28000,"station_id":"","pricing_plan_id":"cebpf4jnsgd1na2vs0mg"},{"bike_id":"e2efc2c0-22a2-4054-afb4-b709d8e3cea1","system_id":"levelo_inurba_marseille","lat":43.24075,"lon":5.37751,"is_reserved":false,"is_disabled":false,"rental_uris":{"android":"levelo://app?vid=e2efc2c0-22a2-4054-afb4-b709d8e3cea1","ios":"levelo://app?vid=e2efc2c0-22a2-4054-afb4-b709d8e3cea1"},"vehicle_type_id":"4","last_reported":1726218573,"current_range_meters":8000,"station_id":"ce4bhnp2rcd13ifvqgvg","pricing_plan_id":"cebpf4jnsgd1na2vs0mg"},{"bike_id":"bb7acf50-b6bc-4b2d-adf4-833abc23b24c","system_id":"levelo_inurba_marseille","lat":43.23195,"lon":5.35536,"is_reserved":false,"is_disabled":false,"rental_uris":{"android":"levelo://app?vid=bb7acf50-b6bc-4b2d-adf4-833abc23b24c","ios":"levelo://app?vid=bb7acf50-b6bc-4b2d-adf4-833abc23b24c"},"vehicle_type_id":"4","last_reported":1726218573,"current_range_meters":39200,"station_id":"ce4bhu92rcd13ifvqi70","pricing_plan_id":"cebpf4jnsgd1na2vs0mg"},{"bike_id":"498820e6-7992-4d70-9ee6-553108ccfbc3","system_id":"levelo_inurba_marseille","lat":43.24079,"lon":5.37759,"is_reserved":false,"is_disabled":false,"rental_uris":{"android":"levelo://app?vid=498820e6-7992-4d70-9ee6-553108ccfbc3","ios":"levelo://app?vid=498820e6-7992-4d70-9ee6-553108ccfbc3"},"vehicle_type_id":"4","last_reported":1726218573,"current_range_meters":30800,"station_id":"ce4bhnp2rcd13ifvqgvg","pricing_plan_id":"cebpf4jnsgd1na2vs0mg"},{"bike_id":"008655de-5220-4f67-86cb-51fcb1434abb","system_id":"levelo_inurba_marseille","lat":43.25498,"lon":5.37645,"is_reserved":false,"is_disabled":false,"rental_uris":{"android":"levelo://app?vid=008655de-5220-4f67-86cb-51fcb1434abb","ios":"levelo://app?vid=008655de-5220-4f67-86cb-51fcb1434abb"},"vehicle_type_id":"4","last_reported":1726218573,"current_range_meters":22000,"station_id":"ce4bhh12rcd13ifvqff0","pricing_plan_id":"cebpf4jnsgd1na2vs0mg"},{"bike_id":"2f855f06-9250-4286-ae1e-a95c53bd0f86","system_id":"levelo_inurba_marseille","lat":43.27073,"lon":5.4228,"is_reserved":false,"is_disabled":false,"rental_uris":{"android":"levelo://app?vid=2f855f06-9250-4286-ae1e-a95c53bd0f86","ios":"levelo://app?vid=2f855f06-9250-4286-ae1e-a95c53bd0f86"},"vehicle_type_id":"4","last_reported":1726218573,"current_range_meters":30800,"station_id":"ce4bhk92rcd13ifvqgb0","pricing_plan_id":"cebpf4jnsgd1na2vs0mg"},{"bike_id":"f44007ef-1b02-4f39-97ca-529ad700b7b0","system_id":"levelo_inurba_marseille","lat":43.30882,"lon":5.37198,"is_reserved":false,"is_disabled":false,"rental_uris":{"android":"levelo://app?vid=f44007ef-1b02-4f39-97ca-529ad700b7b0","ios":"levelo://app?vid=f44007ef-1b02-4f39-97ca-529ad700b7b0"},"vehicle_type_id":"4","last_reported":1726218573,"current_range_meters":27600,"station_id":"ce4bguh2rcd13ifvqckg","pricing_plan_id":"cebpf4jnsgd1na2vs0mg"},{"bike_id":"7b9710f1-3492-43af-95aa-b4939ff62cd7","system_id":"levelo_inurba_marseille","lat":43.28706,"lon":5.37912,"is_reserved":false,"is_disabled":false,"rental_uris":{"android":"levelo://app?vid=7b9710f1-3492-43af-95aa-b4939ff62cd7","ios":"levelo://app?vid=7b9710f1-3492-43af-95aa-b4939ff62cd7"},"vehicle_type_id":"4","last_reported":1726218573,"current_range_meters":38800,"station_id":"ce4bh9p2rcd13ifvqec0","pricing_plan_id":"cebpf4jnsgd1na2vs0mg"},{"bike_id":"8584941c-07f3-4191-8766-14171773c435","system_id":"levelo_inurba_marseille","lat":43.27209,"lon":5.39175,"is_reserved":false,"is_disabled":false,"rental_uris":{"android":"levelo://app?vid=8584941c-07f3-4191-8766-14171773c435","ios":"levelo://app?vid=8584941c-07f3-4191-8766-14171773c435"},"vehicle_type_id":"4","last_reported":1726218573,"current_range_meters":18000,"station_id":"ce4bhhp2rcd13ifvqfm0","pricing_plan_id":"cebpf4jnsgd1na2vs0mg"},{"bike_id":"c04c04ac-fca9-4798-8d8b-5b0f8777c95d","system_id":"levelo_inurba_marseille","lat":43.24176,"lon":5.39736,"is_reserved":false,"is_disabled":false,"rental_uris":{"android":"levelo://app?vid=c04c04ac-fca9-4798-8d8b-5b0f8777c95d","ios":"levelo://app?vid=c04c04ac-fca9-4798-8d8b-5b0f8777c95d"},"vehicle_type_id":"4","last_reported":1726218573,"current_range_meters":38400,"station_id":"ce4bhn12rcd13ifvqgpg","pricing_plan_id":"cebpf4jnsgd1na2vs0mg"},{"bike_id":"04b90bdb-7a9f-4b82-a04f-c4470ba8dc57","system_id":"levelo_inurba_marseille","lat":43.29315,"lon":5.37464,"is_reserved":false,"is_disabled":false,"rental_uris":{"android":"levelo://app?vid=04b90bdb-7a9f-4b82-a04f-c4470ba8dc57","ios":"levelo://app?vid=04b90bdb-7a9f-4b82-a04f-c4470ba8dc57"},"vehicle_type_id":"4","last_reported":1726218573,"current_range_meters":9200,"station_id":"ce4bgi12rcd13ifvqb70","pricing_plan_id":"cebpf4jnsgd1na2vs0mg"},{"bike_id":"cd4002ce-ad5d-4f56-814b-31cc200922bd","system_id":"levelo_inurba_marseille","lat":43.24093,"lon":5.37759,"is_reserved":false,"is_disabled":false,"rental_uris":{"android":"levelo://app?vid=cd4002ce-ad5d-4f56-814b-31cc200922bd","ios":"levelo://app?vid=cd4002ce-ad5d-4f56-814b-31cc200922bd"},"vehicle_type_id":"4","last_reported":1726218573,"current_range_meters":23200,"station_id":"ce4bhnp2rcd13ifvqgvg","pricing_plan_id":"cebpf4jnsgd1na2vs0mg"},{"bike_id":"bb870d5f-3787-4d5a-b41f-be6c216e70b6","system_id":"levelo_inurba_marseille","lat":43.29029,"lon":5.38645,"is_reserved":false,"is_disabled":false,"rental_uris":{"android":"levelo://app?vid=bb870d5f-3787-4d5a-b41f-be6c216e70b6","ios":"levelo://app?vid=bb870d5f-3787-4d5a-b41f-be6c216e70b6"},"vehicle_type_id":"4","last_reported":1726218573,"current_range_meters":18000,"station_id":"ce4bh4p2rcd13ifvqe0g","pricing_plan_id":"cebpf4jnsgd1na2vs0mg"},{"bike_id":"3519682d-1d31-4de7-8945-5493e35dfb94","system_id":"levelo_inurba_marseille","lat":43.3266,"lon":5.4099,"is_reserved":false,"is_disabled":false,"rental_uris":{"android":"levelo://app?vid=3519682d-1d31-4de7-8945-5493e35dfb94","ios":"levelo://app?vid=3519682d-1d31-4de7-8945-5493e35dfb94"},"vehicle_type_id":"4","last_reported":1726218573,"current_range_meters":38400,"station_id":"ce4bhpp2rcd13ifvqhgg","pricing_plan_id":"cebpf4jnsgd1na2vs0mg"},{"bike_id":"7f6e6ce2-2e98-4639-ba24-099795a4c7c3","system_id":"levelo_inurba_marseille","lat":43.32536,"lon":5.41451,"is_reserved":false,"is_disabled":false,"rental_uris":{"android":"levelo://app?vid=7f6e6ce2-2e98-4639-ba24-099795a4c7c3","ios":"levelo://app?vid=7f6e6ce2-2e98-4639-ba24-099795a4c7c3"},"vehicle_type_id":"4","last_reported":1726218573,"current_range_meters":2000,"station_id":"ce4bhq12rcd13ifvqhhg","pricing_plan_id":"cebpf4jnsgd1na2vs0mg"},{"bike_id":"9a98c20a-1bbb-4b09-a13d-2fc5d00cb29f","system_id":"levelo_inurba_marseille","lat":43.29562,"lon":5.42289,"is_reserved":false,"is_disabled":false,"rental_uris":{"android":"levelo://app?vid=9a98c20a-1bbb-4b09-a13d-2fc5d00cb29f","ios":"levelo://app?vid=9a98c20a-1bbb-4b09-a13d-2fc5d00cb29f"},"vehicle_type_id":"4","last_reported":1726218573,"current_range_meters":10000,"station_id":"ce4bhph2rcd13ifvqhdg","pricing_plan_id":"cebpf4jnsgd1na2vs0mg"},{"bike_id":"65c1412b-046f-4164-bac6-8d82df38fef4","system_id":"levelo_inurba_marseille","lat":43.30556,"lon":5.36528,"is_reserved":false,"is_disabled":false,"rental_uris":{"android":"levelo://app?vid=65c1412b-046f-4164-bac6-8d82df38fef4","ios":"levelo://app?vid=65c1412b-046f-4164-bac6-8d82df38fef4"},"vehicle_type_id":"4","last_reported":1726218573,"current_range_meters":18800,"station_id":"ce4bgs12rcd13ifvqcag","pricing_plan_id":"cebpf4jnsgd1na2vs0mg"},{"bike_id":"3e6177af-741c-4e41-83c1-904a33b190a7","system_id":"levelo_inurba_marseille","lat":43.34148,"lon":5.40898,"is_reserved":false,"is_disabled":false,"rental_uris":{"android":"levelo://app?vid=3e6177af-741c-4e41-83c1-904a33b190a7","ios":"levelo://app?vid=3e6177af-741c-4e41-83c1-904a33b190a7"},"vehicle_type_id":"4","last_reported":1726218573,"current_range_meters":19200,"station_id":"ce4bhqh2rcd13ifvqhlg","pricing_plan_id":"cebpf4jnsgd1na2vs0mg"},{"bike_id":"27de0738-4756-42e5-9093-6ab278fdab9f","system_id":"levelo_inurba_marseille","lat":43.29296,"lon":5.37453,"is_reserved":false,"is_disabled":false,"rental_uris":{"android":"levelo://app?vid=27de0738-4756-42e5-9093-6ab278fdab9f","ios":"levelo://app?vid=27de0738-4756-42e5-9093-6ab278fdab9f"},"vehicle_type_id":"4","last_reported":1726218573,"current_range_meters":17200,"station_id":"ce4bgi12rcd13ifvqb70","pricing_plan_id":"cebpf4jnsgd1na2vs0mg"},{"bike_id":"c28ff0f1-1713-431a-bccf-4e7a21e8e39b","system_id":"levelo_inurba_marseille","lat":43.25504,"lon":5.37648,"is_reserved":false,"is_disabled":false,"rental_uris":{"android":"levelo://app?vid=c28ff0f1-1713-431a-bccf-4e7a21e8e39b","ios":"levelo://app?vid=c28ff0f1-1713-431a-bccf-4e7a21e8e39b"},"vehicle_type_id":"4","last_reported":1726218573,"current_range_meters":39200,"station_id":"ce4bhh12rcd13ifvqff0","pricing_plan_id":"cebpf4jnsgd1na2vs0mg"},{"bike_id":"7f1ea419-7ff8-47d6-aae5-2d0a05c893eb","system_id":"levelo_inurba_marseille","lat":43.3021,"lon":5.39472,"is_reserved":false,"is_disabled":false,"rental_uris":{"android":"levelo://app?vid=7f1ea419-7ff8-47d6-aae5-2d0a05c893eb","ios":"levelo://app?vid=7f1ea419-7ff8-47d6-aae5-2d0a05c893eb"},"vehicle_type_id":"4","last_reported":1726218573,"current_range_meters":6800,"station_id":"ce4bh0p2rcd13ifvqd70","pricing_plan_id":"cebpf4jnsgd1na2vs0mg"},{"bike_id":"99debd67-bb6d-43a9-8d90-d78301bb0e03","system_id":"levelo_inurba_marseille","lat":43.26061,"lon":5.39392,"is_reserved":false,"is_disabled":false,"rental_uris":{"android":"levelo://app?vid=99debd67-bb6d-43a9-8d90-d78301bb0e03","ios":"levelo://app?vid=99debd67-bb6d-43a9-8d90-d78301bb0e03"},"vehicle_type_id":"4","last_reported":1726218573,"current_range_meters":22800,"station_id":"ce4bhh92rcd13ifvqfj0","pricing_plan_id":"cebpf4jnsgd1na2vs0mg"},{"bike_id":"deaaae64-24a5-443f-ba91-de969d33fdb3","system_id":"levelo_inurba_marseille","lat":43.283386,"lon":5.381059,"is_reserved":false,"is_disabled":false,"rental_uris":{"android":"levelo://app?vid=deaaae64-24a5-443f-ba91-de969d33fdb3","ios":"levelo://app?vid=deaaae64-24a5-443f-ba91-de969d33fdb3"},"vehicle_type_id":"4","last_reported":1726218573,"current_range_meters":28800,"station_id":"ce4bh412rcd13ifvqdr0","pricing_plan_id":"cebpf4jnsgd1na2vs0mg"},{"bike_id":"d63b08fd-7716-422a-94e4-8f1dfff5bb11","system_id":"levelo_inurba_marseille","lat":43.28615,"lon":5.35097,"is_reserved":false,"is_disabled":false,"rental_uris":{"android":"levelo://app?vid=d63b08fd-7716-422a-94e4-8f1dfff5bb11","ios":"levelo://app?vid=d63b08fd-7716-422a-94e4-8f1dfff5bb11"},"vehicle_type_id":"4","last_reported":1726218573,"current_range_meters":38800,"station_id":"ce4bhch2rcd13ifvqeug","pricing_plan_id":"cebpf4jnsgd1na2vs0mg"},{"bike_id":"2d2a0049-051f-4b74-b370-9aacb4e4a381","system_id":"levelo_inurba_marseille","lat":43.27495,"lon":5.42455,"is_reserved":false,"is_disabled":false,"rental_uris":{"android":"levelo://app?vid=2d2a0049-051f-4b74-b370-9aacb4e4a381","ios":"levelo://app?vid=2d2a0049-051f-4b74-b370-9aacb4e4a381"},"vehicle_type_id":"4","last_reported":1726218573,"current_range_meters":38000,"station_id":"ce4bhn92rcd13ifvqgrg","pricing_plan_id":"cebpf4jnsgd1na2vs0mg"},{"bike_id":"1763571a-9954-433e-872e-ef6d6319dff6","system_id":"levelo_inurba_marseille","lat":43.31357,"lon":5.36718,"is_reserved":false,"is_disabled":false,"rental_uris":{"android":"levelo://app?vid=1763571a-9954-433e-872e-ef6d6319dff6","ios":"levelo://app?vid=1763571a-9954-433e-872e-ef6d6319dff6"},"vehicle_type_id":"4","last_reported":1726218573,"current_range_meters":27200,"station_id":"ce4bgr92rcd13ifvqc6g","pricing_plan_id":"cebpf4jnsgd1na2vs0mg"},{"bike_id":"d23ba85e-2d06-4115-8335-c2ac32e57dd7","system_id":"levelo_inurba_marseille","lat":43.23197,"lon":5.35537,"is_reserved":false,"is_disabled":false,"rental_uris":{"android":"levelo://app?vid=d23ba85e-2d06-4115-8335-c2ac32e57dd7","ios":"levelo://app?vid=d23ba85e-2d06-4115-8335-c2ac32e57dd7"},"vehicle_type_id":"4","last_reported":1726218573,"current_range_meters":3200,"station_id":"ce4bhu92rcd13ifvqi70","pricing_plan_id":"cebpf4jnsgd1na2vs0mg"},{"bike_id":"0002be17-f9e6-4df6-ad78-e34f000fc192","system_id":"levelo_inurba_marseille","lat":43.27618,"lon":5.36108,"is_reserved":false,"is_disabled":false,"rental_uris":{"android":"levelo://app?vid=0002be17-f9e6-4df6-ad78-e34f000fc192","ios":"levelo://app?vid=0002be17-f9e6-4df6-ad78-e34f000fc192"},"vehicle_type_id":"4","last_reported":1726218573,"current_range_meters":34000,"station_id":"ce4bgj92rcd13ifvqbe0","pricing_plan_id":"cebpf4jnsgd1na2vs0mg"},{"bike_id":"8a88f642-8182-4433-942e-9c9b19984aea","system_id":"levelo_inurba_marseille","lat":43.31893,"lon":5.40729,"is_reserved":false,"is_disabled":false,"rental_uris":{"android":"levelo://app?vid=8a88f642-8182-4433-942e-9c9b19984aea","ios":"levelo://app?vid=8a88f642-8182-4433-942e-9c9b19984aea"},"vehicle_type_id":"4","last_reported":1726218573,"current_range_meters":15200,"station_id":"ce4bhq12rcd13ifvqhig","pricing_plan_id":"cebpf4jnsgd1na2vs0mg"},{"bike_id":"1e540333-4d9c-4f56-8ef4-2ba21bfee7a1","system_id":"levelo_inurba_marseille","lat":43.27318,"lon":5.39095,"is_reserved":false,"is_disabled":false,"rental_uris":{"android":"levelo://app?vid=1e540333-4d9c-4f56-8ef4-2ba21bfee7a1","ios":"levelo://app?vid=1e540333-4d9c-4f56-8ef4-2ba21bfee7a1"},"vehicle_type_id":"4","last_reported":1726218573,"current_range_meters":33200,"station_id":"ce4bhgp2rcd13ifvqfe0","pricing_plan_id":"cebpf4jnsgd1na2vs0mg"},{"bike_id":"86592e31-d195-4731-8e4b-a0f3d2ead51e","system_id":"levelo_inurba_marseille","lat":43.27492,"lon":5.42454,"is_reserved":false,"is_disabled":false,"rental_uris":{"android":"levelo://app?vid=86592e31-d195-4731-8e4b-a0f3d2ead51e","ios":"levelo://app?vid=86592e31-d195-4731-8e4b-a0f3d2ead51e"},"vehicle_type_id":"4","last_reported":1726218573,"current_range_meters":29600,"station_id":"ce4bhn92rcd13ifvqgrg","pricing_plan_id":"cebpf4jnsgd1na2vs0mg"},{"bike_id":"69484cd6-17ce-42a0-bb70-aa1f5ee620fa","system_id":"levelo_inurba_marseille","lat":43.30905,"lon":5.36851,"is_reserved":false,"is_disabled":false,"rental_uris":{"android":"levelo://app?vid=69484cd6-17ce-42a0-bb70-aa1f5ee620fa","ios":"levelo://app?vid=69484cd6-17ce-42a0-bb70-aa1f5ee620fa"},"vehicle_type_id":"4","last_reported":1726218573,"current_range_meters":14000,"station_id":"ce4bgn92rcd13ifvqbvg","pricing_plan_id":"cebpf4jnsgd1na2vs0mg"},{"bike_id":"4a6156b1-fbee-47d9-b657-67ea13344c54","system_id":"levelo_inurba_marseille","lat":43.23966,"lon":5.36623,"is_reserved":false,"is_disabled":false,"rental_uris":{"android":"levelo://app?vid=4a6156b1-fbee-47d9-b657-67ea13344c54","ios":"levelo://app?vid=4a6156b1-fbee-47d9-b657-67ea13344c54"},"vehicle_type_id":"4","last_reported":1726218573,"current_range_meters":16800,"station_id":"ce4bhi12rcd13ifvqfp0","pricing_plan_id":"cebpf4jnsgd1na2vs0mg"},{"bike_id":"622fa786-f2d5-4ae6-a369-3fd570435409","system_id":"levelo_inurba_marseille","lat":43.30886,"lon":5.39664,"is_reserved":false,"is_disabled":false,"rental_uris":{"android":"levelo://app?vid=622fa786-f2d5-4ae6-a369-3fd570435409","ios":"levelo://app?vid=622fa786-f2d5-4ae6-a369-3fd570435409"},"vehicle_type_id":"4","last_reported":1726218573,"current_range_meters":38000,"station_id":"ce4bh012rcd13ifvqcv0","pricing_plan_id":"cebpf4jnsgd1na2vs0mg"},{"bike_id":"71e5bd5f-9941-45ed-83eb-1729c01b5303","system_id":"levelo_inurba_marseille","lat":43.22933,"lon":5.35373,"is_reserved":false,"is_disabled":false,"rental_uris":{"android":"levelo://app?vid=71e5bd5f-9941-45ed-83eb-1729c01b5303","ios":"levelo://app?vid=71e5bd5f-9941-45ed-83eb-1729c01b5303"},"vehicle_type_id":"4","last_reported":1726218573,"current_range_meters":36000,"station_id":"cpo3532slgdg3j2ikp40","pricing_plan_id":"cebpf4jnsgd1na2vs0mg"},{"bike_id":"b67e29c2-a2fc-48c9-b091-a0aa3e618481","system_id":"levelo_inurba_marseille","lat":43.30546,"lon":5.36528,"is_reserved":false,"is_disabled":false,"rental_uris":{"android":"levelo://app?vid=b67e29c2-a2fc-48c9-b091-a0aa3e618481","ios":"levelo://app?vid=b67e29c2-a2fc-48c9-b091-a0aa3e618481"},"vehicle_type_id":"4","last_reported":1726218573,"current_range_meters":11200,"station_id":"ce4bgs12rcd13ifvqcag","pricing_plan_id":"cebpf4jnsgd1na2vs0mg"},{"bike_id":"83009555-c31e-4968-8dfb-8455a00fc6c9","system_id":"levelo_inurba_marseille","lat":43.24668,"lon":5.38151,"is_reserved":false,"is_disabled":false,"rental_uris":{"android":"levelo://app?vid=83009555-c31e-4968-8dfb-8455a00fc6c9","ios":"levelo://app?vid=83009555-c31e-4968-8dfb-8455a00fc6c9"},"vehicle_type_id":"4","last_reported":1726218573,"current_range_meters":26800,"station_id":"ce4bhih2rcd13ifvqfr0","pricing_plan_id":"cebpf4jnsgd1na2vs0mg"},{"bike_id":"f8ff8867-583f-40ea-9a54-7fa5d88601e0","system_id":"levelo_inurba_marseille","lat":43.29828,"lon":5.36294,"is_reserved":false,"is_disabled":false,"rental_uris":{"android":"levelo://app?vid=f8ff8867-583f-40ea-9a54-7fa5d88601e0","ios":"levelo://app?vid=f8ff8867-583f-40ea-9a54-7fa5d88601e0"},"vehicle_type_id":"4","last_reported":1726218573,"current_range_meters":17600,"station_id":"ce4bgpp2rcd13ifvqc3g","pricing_plan_id":"cebpf4jnsgd1na2vs0mg"},{"bike_id":"15a0f7a7-2801-4b64-a1cf-7b142c6ce92e","system_id":"levelo_inurba_marseille","lat":43.27498,"lon":5.42444,"is_reserved":false,"is_disabled":false,"rental_uris":{"android":"levelo://app?vid=15a0f7a7-2801-4b64-a1cf-7b142c6ce92e","ios":"levelo://app?vid=15a0f7a7-2801-4b64-a1cf-7b142c6ce92e"},"vehicle_type_id":"4","last_reported":1726218573,"current_range_meters":30000,"station_id":"ce4bhn92rcd13ifvqgrg","pricing_plan_id":"cebpf4jnsgd1na2vs0mg"},{"bike_id":"ffd70a77-c284-4424-967a-f18b173c279c","system_id":"levelo_inurba_marseille","lat":43.2316,"lon":5.4371,"is_reserved":false,"is_disabled":false,"rental_uris":{"android":"levelo://app?vid=ffd70a77-c284-4424-967a-f18b173c279c","ios":"levelo://app?vid=ffd70a77-c284-4424-967a-f18b173c279c"},"vehicle_type_id":"4","last_reported":1726218573,"current_range_meters":14400,"station_id":"ce4bhmp2rcd13ifvqgog","pricing_plan_id":"cebpf4jnsgd1na2vs0mg"},{"bike_id":"b4d74fee-6f89-4d61-89e1-dd9f2e020f3a","system_id":"levelo_inurba_marseille","lat":43.30472,"lon":5.379,"is_reserved":false,"is_disabled":false,"rental_uris":{"android":"levelo://app?vid=b4d74fee-6f89-4d61-89e1-dd9f2e020f3a","ios":"levelo://app?vid=b4d74fee-6f89-4d61-89e1-dd9f2e020f3a"},"vehicle_type_id":"4","last_reported":1726218573,"current_range_meters":36800,"station_id":"ce4bgup2rcd13ifvqcn0","pricing_plan_id":"cebpf4jnsgd1na2vs0mg"},{"bike_id":"ba6748af-ca3b-408f-9df0-ce005d2a69d2","system_id":"levelo_inurba_marseille","lat":43.29906,"lon":5.38138,"is_reserved":false,"is_disabled":false,"rental_uris":{"android":"levelo://app?vid=ba6748af-ca3b-408f-9df0-ce005d2a69d2","ios":"levelo://app?vid=ba6748af-ca3b-408f-9df0-ce005d2a69d2"},"vehicle_type_id":"4","last_reported":1726218573,"current_range_meters":19200,"station_id":"ce4bgj12rcd13ifvqbc0","pricing_plan_id":"cebpf4jnsgd1na2vs0mg"},{"bike_id":"91b36c15-8bb8-4d60-8c33-cdd8e0d267ed","system_id":"levelo_inurba_marseille","lat":43.23155,"lon":5.43718,"is_reserved":false,"is_disabled":false,"rental_uris":{"android":"levelo://app?vid=91b36c15-8bb8-4d60-8c33-cdd8e0d267ed","ios":"levelo://app?vid=91b36c15-8bb8-4d60-8c33-cdd8e0d267ed"},"vehicle_type_id":"4","last_reported":1726218573,"current_range_meters":12400,"station_id":"ce4bhmp2rcd13ifvqgog","pricing_plan_id":"cebpf4jnsgd1na2vs0mg"},{"bike_id":"9586f056-2b2c-484f-bcc3-0cd7ea1824e0","system_id":"levelo_inurba_marseille","lat":43.2979,"lon":5.39341,"is_reserved":false,"is_disabled":false,"rental_uris":{"android":"levelo://app?vid=9586f056-2b2c-484f-bcc3-0cd7ea1824e0","ios":"levelo://app?vid=9586f056-2b2c-484f-bcc3-0cd7ea1824e0"},"vehicle_type_id":"4","last_reported":1726218573,"current_range_meters":30800,"station_id":"chh1huq6cuj3fo74tm60","pricing_plan_id":"cebpf4jnsgd1na2vs0mg"},{"bike_id":"9a4cf0d5-365f-4e36-a450-2966ccd30f83","system_id":"levelo_inurba_marseille","lat":43.2827,"lon":5.35061,"is_reserved":false,"is_disabled":false,"rental_uris":{"android":"levelo://app?vid=9a4cf0d5-365f-4e36-a450-2966ccd30f83","ios":"levelo://app?vid=9a4cf0d5-365f-4e36-a450-2966ccd30f83"},"vehicle_type_id":"4","last_reported":1726218573,"current_range_meters":34000,"station_id":"ce4bhbp2rcd13ifvqerg","pricing_plan_id":"cebpf4jnsgd1na2vs0mg"},{"bike_id":"388ddcb7-dd59-43ca-aac3-0c9cbc6eb330","system_id":"levelo_inurba_marseille","lat":43.30548,"lon":5.36701,"is_reserved":false,"is_disabled":false,"rental_uris":{"android":"levelo://app?vid=388ddcb7-dd59-43ca-aac3-0c9cbc6eb330","ios":"levelo://app?vid=388ddcb7-dd59-43ca-aac3-0c9cbc6eb330"},"vehicle_type_id":"4","last_reported":1726218573,"current_range_meters":24800,"station_id":"ce4bgrp2rcd13ifvqc9g","pricing_plan_id":"cebpf4jnsgd1na2vs0mg"},{"bike_id":"8a887379-9865-482a-a5f3-9818897f4050","system_id":"levelo_inurba_marseille","lat":43.29907,"lon":5.38159,"is_reserved":false,"is_disabled":false,"rental_uris":{"android":"levelo://app?vid=8a887379-9865-482a-a5f3-9818897f4050","ios":"levelo://app?vid=8a887379-9865-482a-a5f3-9818897f4050"},"vehicle_type_id":"4","last_reported":1726218573,"current_range_meters":39200,"station_id":"ce4bgj12rcd13ifvqbc0","pricing_plan_id":"cebpf4jnsgd1na2vs0mg"},{"bike_id":"21f4bdb7-d976-4839-a7fe-41e1e86c92e2","system_id":"levelo_inurba_marseille","lat":43.24081,"lon":5.3775,"is_reserved":false,"is_disabled":false,"rental_uris":{"android":"levelo://app?vid=21f4bdb7-d976-4839-a7fe-41e1e86c92e2","ios":"levelo://app?vid=21f4bdb7-d976-4839-a7fe-41e1e86c92e2"},"vehicle_type_id":"4","last_reported":1726218573,"current_range_meters":17200,"station_id":"ce4bhnp2rcd13ifvqgvg","pricing_plan_id":"cebpf4jnsgd1na2vs0mg"},{"bike_id":"6beb15ed-2c8d-4076-af9f-d4d302e6aee1","system_id":"levelo_inurba_marseille","lat":43.24089,"lon":5.37745,"is_reserved":false,"is_disabled":false,"rental_uris":{"android":"levelo://app?vid=6beb15ed-2c8d-4076-af9f-d4d302e6aee1","ios":"levelo://app?vid=6beb15ed-2c8d-4076-af9f-d4d302e6aee1"},"vehicle_type_id":"4","last_reported":1726218573,"current_range_meters":35600,"station_id":"ce4bhnp2rcd13ifvqgvg","pricing_plan_id":"cebpf4jnsgd1na2vs0mg"},{"bike_id":"954d2b54-362e-442e-bcaa-d17939d90e2d","system_id":"levelo_inurba_marseille","lat":43.25497,"lon":5.37646,"is_reserved":false,"is_disabled":false,"rental_uris":{"android":"levelo://app?vid=954d2b54-362e-442e-bcaa-d17939d90e2d","ios":"levelo://app?vid=954d2b54-362e-442e-bcaa-d17939d90e2d"},"vehicle_type_id":"4","last_reported":1726218573,"current_range_meters":39200,"station_id":"ce4bhh12rcd13ifvqff0","pricing_plan_id":"cebpf4jnsgd1na2vs0mg"},{"bike_id":"82dec1e1-c024-4a59-b080-1ca526441f94","system_id":"levelo_inurba_marseille","lat":43.337612,"lon":5.374504,"is_reserved":false,"is_disabled":false,"rental_uris":{"android":"levelo://app?vid=82dec1e1-c024-4a59-b080-1ca526441f94","ios":"levelo://app?vid=82dec1e1-c024-4a59-b080-1ca526441f94"},"vehicle_type_id":"4","last_reported":1726218573,"current_range_meters":15200,"station_id":"","pricing_plan_id":"cebpf4jnsgd1na2vs0mg"},{"bike_id":"c388f329-6f3c-470d-96b0-fb1532620c7b","system_id":"levelo_inurba_marseille","lat":43.23152,"lon":5.43718,"is_reserved":false,"is_disabled":false,"rental_uris":{"android":"levelo://app?vid=c388f329-6f3c-470d-96b0-fb1532620c7b","ios":"levelo://app?vid=c388f329-6f3c-470d-96b0-fb1532620c7b"},"vehicle_type_id":"4","last_reported":1726218573,"current_range_meters":22400,"station_id":"ce4bhmp2rcd13ifvqgog","pricing_plan_id":"cebpf4jnsgd1na2vs0mg"},{"bike_id":"3bd64328-f6c6-4374-968f-68982f04ad5f","system_id":"levelo_inurba_marseille","lat":43.297323,"lon":5.380325,"is_reserved":false,"is_disabled":false,"rental_uris":{"android":"levelo://app?vid=3bd64328-f6c6-4374-968f-68982f04ad5f","ios":"levelo://app?vid=3bd64328-f6c6-4374-968f-68982f04ad5f"},"vehicle_type_id":"4","last_reported":1726218573,"current_range_meters":39200,"station_id":"ce4bgi92rcd13ifvqb90","pricing_plan_id":"cebpf4jnsgd1na2vs0mg"},{"bike_id":"068c8493-7636-4305-a44c-28d1b5072b9d","system_id":"levelo_inurba_marseille","lat":43.29786,"lon":5.37111,"is_reserved":false,"is_disabled":false,"rental_uris":{"android":"levelo://app?vid=068c8493-7636-4305-a44c-28d1b5072b9d","ios":"levelo://app?vid=068c8493-7636-4305-a44c-28d1b5072b9d"},"vehicle_type_id":"4","last_reported":1726218573,"current_range_meters":24000,"station_id":"ce4bgop2rcd13ifvqc1g","pricing_plan_id":"cebpf4jnsgd1na2vs0mg"},{"bike_id":"e3b90e0b-4923-474e-90ac-7372ad6957cb","system_id":"levelo_inurba_marseille","lat":43.28341,"lon":5.38095,"is_reserved":false,"is_disabled":false,"rental_uris":{"android":"levelo://app?vid=e3b90e0b-4923-474e-90ac-7372ad6957cb","ios":"levelo://app?vid=e3b90e0b-4923-474e-90ac-7372ad6957cb"},"vehicle_type_id":"4","last_reported":1726218573,"current_range_meters":31200,"station_id":"ce4bh412rcd13ifvqdr0","pricing_plan_id":"cebpf4jnsgd1na2vs0mg"},{"bike_id":"2deeed66-456e-4f3b-be82-f36b0e3c9d4c","system_id":"levelo_inurba_marseille","lat":43.23161,"lon":5.43707,"is_reserved":false,"is_disabled":false,"rental_uris":{"android":"levelo://app?vid=2deeed66-456e-4f3b-be82-f36b0e3c9d4c","ios":"levelo://app?vid=2deeed66-456e-4f3b-be82-f36b0e3c9d4c"},"vehicle_type_id":"4","last_reported":1726218573,"current_range_meters":19200,"station_id":"ce4bhmp2rcd13ifvqgog","pricing_plan_id":"cebpf4jnsgd1na2vs0mg"},{"bike_id":"ae12f87c-014a-458e-9a0e-0bd5cb1dae5b","system_id":"levelo_inurba_marseille","lat":43.25581,"lon":5.38234,"is_reserved":false,"is_disabled":false,"rental_uris":{"android":"levelo://app?vid=ae12f87c-014a-458e-9a0e-0bd5cb1dae5b","ios":"levelo://app?vid=ae12f87c-014a-458e-9a0e-0bd5cb1dae5b"},"vehicle_type_id":"4","last_reported":1726218573,"current_range_meters":32800,"station_id":"ce4bhih2rcd13ifvqfs0","pricing_plan_id":"cebpf4jnsgd1na2vs0mg"},{"bike_id":"68ff4151-97ec-460a-970f-20908099f2f1","system_id":"levelo_inurba_marseille","lat":43.3056,"lon":5.36539,"is_reserved":false,"is_disabled":false,"rental_uris":{"android":"levelo://app?vid=68ff4151-97ec-460a-970f-20908099f2f1","ios":"levelo://app?vid=68ff4151-97ec-460a-970f-20908099f2f1"},"vehicle_type_id":"4","last_reported":1726218573,"current_range_meters":6800,"station_id":"ce4bgs12rcd13ifvqcag","pricing_plan_id":"cebpf4jnsgd1na2vs0mg"},{"bike_id":"daa38cff-f251-4340-a1f7-492db8b9bc2b","system_id":"levelo_inurba_marseille","lat":43.29818,"lon":5.3809,"is_reserved":false,"is_disabled":false,"rental_uris":{"android":"levelo://app?vid=daa38cff-f251-4340-a1f7-492db8b9bc2b","ios":"levelo://app?vid=daa38cff-f251-4340-a1f7-492db8b9bc2b"},"vehicle_type_id":"4","last_reported":1726218573,"current_range_meters":36400,"station_id":"ce4bgip2rcd13ifvqbb0","pricing_plan_id":"cebpf4jnsgd1na2vs0mg"},{"bike_id":"48d092ad-a333-47fc-807e-155c271c9095","system_id":"levelo_inurba_marseille","lat":43.24079,"lon":5.37753,"is_reserved":false,"is_disabled":false,"rental_uris":{"android":"levelo://app?vid=48d092ad-a333-47fc-807e-155c271c9095","ios":"levelo://app?vid=48d092ad-a333-47fc-807e-155c271c9095"},"vehicle_type_id":"4","last_reported":1726218573,"current_range_meters":29600,"station_id":"ce4bhnp2rcd13ifvqgvg","pricing_plan_id":"cebpf4jnsgd1na2vs0mg"},{"bike_id":"f5532006-91c6-4c55-8ed6-9fb9f0ed48ad","system_id":"levelo_inurba_marseille","lat":43.29519,"lon":5.37494,"is_reserved":false,"is_disabled":false,"rental_uris":{"android":"levelo://app?vid=f5532006-91c6-4c55-8ed6-9fb9f0ed48ad","ios":"levelo://app?vid=f5532006-91c6-4c55-8ed6-9fb9f0ed48ad"},"vehicle_type_id":"4","last_reported":1726218573,"current_range_meters":38000,"station_id":"ce4bgkp2rcd13ifvqbmg","pricing_plan_id":"cebpf4jnsgd1na2vs0mg"},{"bike_id":"5ddbd8ac-4c32-41a0-bd5d-0b5ab8b06354","system_id":"levelo_inurba_marseille","lat":43.29685,"lon":5.3728,"is_reserved":false,"is_disabled":false,"rental_uris":{"android":"levelo://app?vid=5ddbd8ac-4c32-41a0-bd5d-0b5ab8b06354","ios":"levelo://app?vid=5ddbd8ac-4c32-41a0-bd5d-0b5ab8b06354"},"vehicle_type_id":"4","last_reported":1726218573,"current_range_meters":32400,"station_id":"ce4bgk12rcd13ifvqbj0","pricing_plan_id":"cebpf4jnsgd1na2vs0mg"},{"bike_id":"beed390f-5590-4e36-a920-552bcc39f2d8","system_id":"levelo_inurba_marseille","lat":43.30543,"lon":5.3653,"is_reserved":false,"is_disabled":false,"rental_uris":{"android":"levelo://app?vid=beed390f-5590-4e36-a920-552bcc39f2d8","ios":"levelo://app?vid=beed390f-5590-4e36-a920-552bcc39f2d8"},"vehicle_type_id":"4","last_reported":1726218573,"current_range_meters":39200,"station_id":"ce4bgs12rcd13ifvqcag","pricing_plan_id":"cebpf4jnsgd1na2vs0mg"},{"bike_id":"61e00977-be43-400f-99ea-3c33330f7657","system_id":"levelo_inurba_marseille","lat":43.25006,"lon":5.38905,"is_reserved":false,"is_disabled":false,"rental_uris":{"android":"levelo://app?vid=61e00977-be43-400f-99ea-3c33330f7657","ios":"levelo://app?vid=61e00977-be43-400f-99ea-3c33330f7657"},"vehicle_type_id":"4","last_reported":1726218573,"current_range_meters":26000,"station_id":"ce4bhgp2rcd13ifvqfd0","pricing_plan_id":"cebpf4jnsgd1na2vs0mg"},{"bike_id":"3286105a-ff42-4cdb-8a01-f2dcec295ec3","system_id":"levelo_inurba_marseille","lat":43.24077,"lon":5.37765,"is_reserved":false,"is_disabled":false,"rental_uris":{"android":"levelo://app?vid=3286105a-ff42-4cdb-8a01-f2dcec295ec3","ios":"levelo://app?vid=3286105a-ff42-4cdb-8a01-f2dcec295ec3"},"vehicle_type_id":"4","last_reported":1726218573,"current_range_meters":20000,"station_id":"ce4bhnp2rcd13ifvqgvg","pricing_plan_id":"cebpf4jnsgd1na2vs0mg"},{"bike_id":"244aeeda-27fc-4b45-94a3-af58d5f6bb1e","system_id":"levelo_inurba_marseille","lat":43.27497,"lon":5.42453,"is_reserved":false,"is_disabled":false,"rental_uris":{"android":"levelo://app?vid=244aeeda-27fc-4b45-94a3-af58d5f6bb1e","ios":"levelo://app?vid=244aeeda-27fc-4b45-94a3-af58d5f6bb1e"},"vehicle_type_id":"4","last_reported":1726218573,"current_range_meters":29600,"station_id":"ce4bhn92rcd13ifvqgrg","pricing_plan_id":"cebpf4jnsgd1na2vs0mg"},{"bike_id":"6f460960-ce1e-4b86-8066-4975ee77fdb2","system_id":"levelo_inurba_marseille","lat":43.32481,"lon":5.36556,"is_reserved":false,"is_disabled":false,"rental_uris":{"android":"levelo://app?vid=6f460960-ce1e-4b86-8066-4975ee77fdb2","ios":"levelo://app?vid=6f460960-ce1e-4b86-8066-4975ee77fdb2"},"vehicle_type_id":"4","last_reported":1726218573,"current_range_meters":6400,"station_id":"ce4bhs12rcd13ifvqhvg","pricing_plan_id":"cebpf4jnsgd1na2vs0mg"},{"bike_id":"72dd6a67-214b-43ea-aa3b-7d9d8650531f","system_id":"levelo_inurba_marseille","lat":43.30245,"lon":5.40044,"is_reserved":false,"is_disabled":false,"rental_uris":{"android":"levelo://app?vid=72dd6a67-214b-43ea-aa3b-7d9d8650531f","ios":"levelo://app?vid=72dd6a67-214b-43ea-aa3b-7d9d8650531f"},"vehicle_type_id":"4","last_reported":1726218573,"current_range_meters":30800,"station_id":"ce4bgvh2rcd13ifvqcs0","pricing_plan_id":"cebpf4jnsgd1na2vs0mg"},{"bike_id":"5a1782e6-4f93-47be-9595-b9a4c593ed40","system_id":"levelo_inurba_marseille","lat":43.24086,"lon":5.37752,"is_reserved":false,"is_disabled":false,"rental_uris":{"android":"levelo://app?vid=5a1782e6-4f93-47be-9595-b9a4c593ed40","ios":"levelo://app?vid=5a1782e6-4f93-47be-9595-b9a4c593ed40"},"vehicle_type_id":"4","last_reported":1726218573,"current_range_meters":6800,"station_id":"ce4bhnp2rcd13ifvqgvg","pricing_plan_id":"cebpf4jnsgd1na2vs0mg"},{"bike_id":"9bc995b5-f623-4a67-b45b-af1cdd1196aa","system_id":"levelo_inurba_marseille","lat":43.28265,"lon":5.35074,"is_reserved":false,"is_disabled":false,"rental_uris":{"android":"levelo://app?vid=9bc995b5-f623-4a67-b45b-af1cdd1196aa","ios":"levelo://app?vid=9bc995b5-f623-4a67-b45b-af1cdd1196aa"},"vehicle_type_id":"4","last_reported":1726218573,"current_range_meters":32400,"station_id":"ce4bhbp2rcd13ifvqerg","pricing_plan_id":"cebpf4jnsgd1na2vs0mg"},