{"last_updated":1687221576,"ttl":30,"version":"2.2","data":{"bikes":[{"bike_id":"04a5c7a0-7300-4543-933b-6792551a9106","system_id":"levelo_inurba_marseille","lat":43.309076,"lon":5.368465,"is_reserved":false,"is_disabled":false,"rental_uris":{"android":"levelo://app?vid=04a5c7a0-7300-4543-933b-6792551a9106","ios":"levelo://app?vid=04a5c7a0-7300-4543-933b-6792551a9106"},"vehicle_type_id":"4","last_reported":1687221577,"current_range_meters":31200,"station_id":"ce4bgn92rcd13ifvqbvg","pricing_plan_id":"free"},{"bike_id":"3682b644-d119-426b-9c7e-a59a69ebbefa","system_id":"levelo_inurba_marseille","lat":43.314811,"lon":5.373103,"is_reserved":false,"is_disabled":false,"rental_uris":{"android":"levelo://app?vid=3682b644-d119-426b-9c7e-a59a69ebbefa","ios":"levelo://app?vid=3682b644-d119-426b-9c7e-a59a69ebbefa"},"vehicle_type_id":"4","last_reported":1687221577,"current_range_meters":31200,"station_id":"ce4bgt12rcd13ifvqcd0","pricing_plan_id":"free"},{"bike_id":"1f7cb87c-1fb0-4458-833b-d7951221c121","system_id":"levelo_inurba_marseille","lat":43.314811,"lon":5.373103,"is_reserved":false,"is_disabled":false,"rental_uris":{"android":"levelo://app?vid=1f7cb87c-1fb0-4458-833b-d7951221c121","ios":"levelo://app?vid=1f7cb87c-1fb0-4458-833b-d7951221c121"},"vehicle_type_id":"4","last_reported":1687221577,"current_range_meters":22800,"station_id":"ce4bgt12rcd13ifvqcd0","pricing_plan_id":"free"},{"bike_id":"05cf473a-4aee-4b36-9fe8-e3e520215a6d","system_id":"levelo_inurba_marseille","lat":43.314811,"lon":5.373103,"is_reserved":false,"is_disabled":false,"rental_uris":{"android":"levelo://app?vid=05cf473a-4aee-4b36-9fe8-e3e520215a6d","ios":"levelo://app?vid=05cf473a-4aee-4b36-9fe8-e3e520215a6d"},"vehicle_type_id":"4","last_reported":1687221577,"current_range_meters":28400,"station_id":"ce4bgt12rcd13ifvqcd0","pricing_plan_id":"free"},{"bike_id":"9ecfeaea-b121-4179-abb5-9ff6d35b1db9","system_id":"levelo_inurba_marseille","lat":43.314811,"lon":5.373103,"is_reserved":false,"is_disabled":false,"rental_uris":{"android":"levelo://app?vid=9ecfeaea-b121-4179-abb5-9ff6d35b1db9","ios":"levelo://app?vid=9ecfeaea-b121-4179-abb5-9ff6d35b1db9"},"vehicle_type_id":"4","last_reported":1687221577,"current_range_meters":30400,"station_id":"ce4bgt12rcd13ifvqcd0","pricing_plan_id":"free"},{"bike_id":"712cfdf5-5e3b-4b85-b5ea-907829a6f637","system_id":"levelo_inurba_marseille","lat":43.314811,"lon":5.373103,"is_reserved":false,"is_disabled":false,"rental_uris":{"android":"levelo://app?vid=712cfdf5-5e3b-4b85-b5ea-907829a6f637","ios":"levelo://app?vid=712cfdf5-5e3b-4b85-b5ea-907829a6f637"},"vehicle_type_id":"4","last_reported":1687221577,"current_range_meters":15600,"station_id":"ce4bgt12rcd13ifvqcd0","pricing_plan_id":"free"},{"bike_id":"8eb4f7ae-5c24-4793-902b-5e4a4b7ce449","system_id":"levelo_inurba_marseille","lat":43.314811,"lon":5.373104,"is_reserved":false,"is_disabled":false,"rental_uris":{"android":"levelo://app?vid=8eb4f7ae-5c24-4793-902b-5e4a4b7ce449","ios":"levelo://app?vid=8eb4f7ae-5c24-4793-902b-5e4a4b7ce449"},"vehicle_type_id":"4","last_reported":1687221577,"current_range_meters":31200,"station_id":"ce4bgt12rcd13ifvqcd0","pricing_plan_id":"free"},{"bike_id":"2e3d5ebf-1a6e-4f0c-8da3-aad7e66ad21d","system_id":"levelo_inurba_marseille","lat":43.314811,"lon":5.373104,"is_reserved":false,"is_disabled":false,"rental_uris":{"android":"levelo://app?vid=2e3d5ebf-1a6e-4f0c-8da3-aad7e66ad21d","ios":"levelo://app?vid=2e3d5ebf-1a6e-4f0c-8da3-aad7e66ad21d"},"vehicle_type_id":"4","last_reported":1687221577,"current_range_meters":9200,"station_id":"ce4bgt12rcd13ifvqcd0","pricing_plan_id":"free"},{"bike_id":"137a0309-483f-4eb8-aeb6-68f81643baf7","system_id":"levelo_inurba_marseille","lat":43.314811,"lon":5.373103,"is_reserved":false,"is_disabled":false,"rental_uris":{"android":"levelo://app?vid=137a0309-483f-4eb8-aeb6-68f81643baf7","ios":"levelo://app?vid=137a0309-483f-4eb8-aeb6-68f81643baf7"},"vehicle_type_id":"4","last_reported":1687221577,"current_range_meters":25600,"station_id":"ce4bgt12rcd13ifvqcd0","pricing_plan_id":"free"},{"bike_id":"b2076277-6f6e-48a0-8f4c-5fb4ddf9d4c2","system_id":"levelo_inurba_marseille","lat":43.31495,"lon":5.37313,"is_reserved":false,"is_disabled":false,"rental_uris":{"android":"levelo://app?vid=b2076277-6f6e-48a0-8f4c-5fb4ddf9d4c2","ios":"levelo://app?vid=b2076277-6f6e-48a0-8f4c-5fb4ddf9d4c2"},"vehicle_type_id":"4","last_reported":1687221577,"current_range_meters":6400,"station_id":"ce4bgt12rcd13ifvqcd0","pricing_plan_id":"free"},{"bike_id":"06c27853-0f16-430d-bb22-1c9e20a5e245","system_id":"levelo_inurba_marseille","lat":43.308606,"lon":5.372099,"is_reserved":false,"is_disabled":false,"rental_uris":{"android":"levelo://app?vid=06c27853-0f16-430d-bb22-1c9e20a5e245","ios":"levelo://app?vid=06c27853-0f16-430d-bb22-1c9e20a5e245"},"vehicle_type_id":"4","last_reported":1687221577,"current_range_meters":31200,"station_id":"ce4bguh2rcd13ifvqckg","pricing_plan_id":"free"},{"bike_id":"d49577d8-3a53-45aa-b030-0021d1b84b3f","system_id":"levelo_inurba_marseille","lat":43.308614,"lon":5.372098,"is_reserved":false,"is_disabled":false,"rental_uris":{"android":"levelo://app?vid=d49577d8-3a53-45aa-b030-0021d1b84b3f","ios":"levelo://app?vid=d49577d8-3a53-45aa-b030-0021d1b84b3f"},"vehicle_type_id":"4","last_reported":1687221577,"current_range_meters":31200,"station_id":"ce4bguh2rcd13ifvqckg","pricing_plan_id":"free"},{"bike_id":"72e97874-5dca-4d46-9fbe-9ed96597e2aa","system_id":"levelo_inurba_marseille","lat":43.305368,"lon":5.367343,"is_reserved":false,"is_disabled":false,"rental_uris":{"android":"levelo://app?vid=72e97874-5dca-4d46-9fbe-9ed96597e2aa","ios":"levelo://app?vid=72e97874-5dca-4d46-9fbe-9ed96597e2aa"},"vehicle_type_id":"4","last_reported":1687221577,"current_range_meters":13600,"station_id":"ce4bgrp2rcd13ifvqc9g","pricing_plan_id":"free"},{"bike_id":"1d675a29-6bc8-4895-aaff-3026fa3a2058","system_id":"levelo_inurba_marseille","lat":43.305368,"lon":5.367343,"is_reserved":false,"is_disabled":false,"rental_uris":{"android":"levelo://app?vid=1d675a29-6bc8-4895-aaff-3026fa3a2058","ios":"levelo://app?vid=1d675a29-6bc8-4895-aaff-3026fa3a2058"},"vehicle_type_id":"4","last_reported":1687221577,"current_range_meters":10800,"station_id":"ce4bgrp2rcd13ifvqc9g","pricing_plan_id":"free"},{"bike_id":"6330f629-d5dc-484f-8673-2dc9c73eda69","system_id":"levelo_inurba_marseille","lat":43.305989,"lon":5.37225,"is_reserved":false,"is_disabled":false,"rental_uris":{"android":"levelo://app?vid=6330f629-d5dc-484f-8673-2dc9c73eda69","ios":"levelo://app?vid=6330f629-d5dc-484f-8673-2dc9c73eda69"},"vehicle_type_id":"4","last_reported":1687221577,"current_range_meters":31200,"station_id":"ce4bgqh2rcd13ifvqc4g","pricing_plan_id":"free"},{"bike_id":"d27dbd59-33ab-4e52-8f04-b85bfc250f48","system_id":"levelo_inurba_marseille","lat":43.305989,"lon":5.37225,"is_reserved":false,"is_disabled":false,"rental_uris":{"android":"levelo://app?vid=d27dbd59-33ab-4e52-8f04-b85bfc250f48","ios":"levelo://app?vid=d27dbd59-33ab-4e52-8f04-b85bfc250f48"},"vehicle_type_id":"4","last_reported":1687221577,"current_range_meters":30400,"station_id":"ce4bgqh2rcd13ifvqc4g","pricing_plan_id":"free"},{"bike_id":"a5b43037-3036-4847-853a-8c8071f5a1a1","system_id":"levelo_inurba_marseille","lat":43.305989,"lon":5.37225,"is_reserved":false,"is_disabled":false,"rental_uris":{"android":"levelo://app?vid=a5b43037-3036-4847-853a-8c8071f5a1a1","ios":"levelo://app?vid=a5b43037-3036-4847-853a-8c8071f5a1a1"},"vehicle_type_id":"4","last_reported":1687221577,"current_range_meters":29200,"station_id":"ce4bgqh2rcd13ifvqc4g","pricing_plan_id":"free"},{"bike_id":"742194ec-f545-4f7b-9c8c-aafcb56e930e","system_id":"levelo_inurba_marseille","lat":43.311125,"lon":5.377624,"is_reserved":false,"is_disabled":false,"rental_uris":{"android":"levelo://app?vid=742194ec-f545-4f7b-9c8c-aafcb56e930e","ios":"levelo://app?vid=742194ec-f545-4f7b-9c8c-aafcb56e930e"},"vehicle_type_id":"4","last_reported":1687221577,"current_range_meters":24800,"station_id":"ce4bgt92rcd13ifvqcg0","pricing_plan_id":"free"},{"bike_id":"e394e8a3-8395-4593-825c-5dec0d725b94","system_id":"levelo_inurba_marseille","lat":43.30963,"lon":5.37952,"is_reserved":false,"is_disabled":false,"rental_uris":{"android":"levelo://app?vid=e394e8a3-8395-4593-825c-5dec0d725b94","ios":"levelo://app?vid=e394e8a3-8395-4593-825c-5dec0d725b94"},"vehicle_type_id":"4","last_reported":1687221577,"current_range_meters":16800,"station_id":"","pricing_plan_id":"free"},{"bike_id":"536aa6d1-2fff-4da9-bfcf-a832b4d4c64b","system_id":"levelo_inurba_marseille","lat":43.303046,"lon":5.368981,"is_reserved":false,"is_disabled":false,"rental_uris":{"android":"levelo://app?vid=536aa6d1-2fff-4da9-bfcf-a832b4d4c64b","ios":"levelo://app?vid=536aa6d1-2fff-4da9-bfcf-a832b4d4c64b"},"vehicle_type_id":"4","last_reported":1687221577,"current_range_meters":20000,"station_id":"ce4bgqh2rcd13ifvqc5g","pricing_plan_id":"free"},{"bike_id":"e30593ef-04e1-4f02-a136-505b738937e8","system_id":"levelo_inurba_marseille","lat":43.303046,"lon":5.368981,"is_reserved":false,"is_disabled":false,"rental_uris":{"android":"levelo://app?vid=e30593ef-04e1-4f02-a136-505b738937e8","ios":"levelo://app?vid=e30593ef-04e1-4f02-a136-505b738937e8"},"vehicle_type_id":"4","last_reported":1687221577,"current_range_meters":30800,"station_id":"ce4bgqh2rcd13ifvqc5g","pricing_plan_id":"free"},{"bike_id":"d50e398f-526f-480a-8e93-55c9d1998908","system_id":"levelo_inurba_marseille","lat":43.303046,"lon":5.368981,"is_reserved":false,"is_disabled":false,"rental_uris":{"android":"levelo://app?vid=d50e398f-526f-480a-8e93-55c9d1998908","ios":"levelo://app?vid=d50e398f-526f-480a-8e93-55c9d1998908"},"vehicle_type_id":"4","last_reported":1687221577,"current_range_meters":22000,"station_id":"ce4bgqh2rcd13ifvqc5g","pricing_plan_id":"free"},{"bike_id":"831f0c2b-0a92-4cf5-b45a-df0c6626cd74","system_id":"levelo_inurba_marseille","lat":43.31532,"lon":5.3801,"is_reserved":false,"is_disabled":false,"rental_uris":{"android":"levelo://app?vid=831f0c2b-0a92-4cf5-b45a-df0c6626cd74","ios":"levelo://app?vid=831f0c2b-0a92-4cf5-b45a-df0c6626cd74"},"vehicle_type_id":"4","last_reported":1687221577,"current_range_meters":31200,"station_id":"ce4bhsp2rcd13ifvqi50","pricing_plan_id":"free"},{"bike_id":"b3616870-6e9b-470d-9350-de81ad51df5c","system_id":"levelo_inurba_marseille","lat":43.303046,"lon":5.368981,"is_reserved":false,"is_disabled":false,"rental_uris":{"android":"levelo://app?vid=b3616870-6e9b-470d-9350-de81ad51df5c","ios":"levelo://app?vid=b3616870-6e9b-470d-9350-de81ad51df5c"},"vehicle_type_id":"4","last_reported":1687221577,"current_range_meters":22400,"station_id":"ce4bgqh2rcd13ifvqc5g","pricing_plan_id":"free"},{"bike_id":"9ad1cddf-b44e-42a0-9280-d2dc4c422719","system_id":"levelo_inurba_marseille","lat":43.315293,"lon":5.380349,"is_reserved":false,"is_disabled":false,"rental_uris":{"android":"levelo://app?vid=9ad1cddf-b44e-42a0-9280-d2dc4c422719","ios":"levelo://app?vid=9ad1cddf-b44e-42a0-9280-d2dc4c422719"},"vehicle_type_id":"4","last_reported":1687221577,"current_range_meters":30800,"station_id":"ce4bhsp2rcd13ifvqi50","pricing_plan_id":"free"},{"bike_id":"041bc147-ef2f-419b-bb81-deca3bdf89e2","system_id":"levelo_inurba_marseille","lat":43.3023,"lon":5.36815,"is_reserved":false,"is_disabled":false,"rental_uris":{"android":"levelo://app?vid=041bc147-ef2f-419b-bb81-deca3bdf89e2","ios":"levelo://app?vid=041bc147-ef2f-419b-bb81-deca3bdf89e2"},"vehicle_type_id":"4","last_reported":1687221577,"current_range_meters":26400,"station_id":"","pricing_plan_id":"free"},{"bike_id":"03827fa5-6b0b-4077-9091-92d62c86cd8c","system_id":"levelo_inurba_marseille","lat":43.301939,"lon":5.366286,"is_reserved":false,"is_disabled":false,"rental_uris":{"android":"levelo://app?vid=03827fa5-6b0b-4077-9091-92d62c86cd8c","ios":"levelo://app?vid=03827fa5-6b0b-4077-9091-92d62c86cd8c"},"vehicle_type_id":"4","last_reported":1687221577,"current_range_meters":27200,"station_id":"ce4bgrh2rcd13ifvqc8g","pricing_plan_id":"free"},{"bike_id":"9f3152ac-3d04-45a6-aeba-d2071928c719","system_id":"levelo_inurba_marseille","lat":43.301939,"lon":5.366286,"is_reserved":false,"is_disabled":false,"rental_uris":{"android":"levelo://app?vid=9f3152ac-3d04-45a6-aeba-d2071928c719","ios":"levelo://app?vid=9f3152ac-3d04-45a6-aeba-d2071928c719"},"vehicle_type_id":"4","last_reported":1687221577,"current_range_meters":18000,"station_id":"ce4bgrh2rcd13ifvqc8g","pricing_plan_id":"free"},{"bike_id":"50756628-07ce-426f-906f-7f2385f021fe","system_id":"levelo_inurba_marseille","lat":43.301939,"lon":5.366286,"is_reserved":false,"is_disabled":false,"rental_uris":{"android":"levelo://app?vid=50756628-07ce-426f-906f-7f2385f021fe","ios":"levelo://app?vid=50756628-07ce-426f-906f-7f2385f021fe"},"vehicle_type_id":"4","last_reported":1687221577,"current_range_meters":20000,"station_id":"ce4bgrh2rcd13ifvqc8g","pricing_plan_id":"free"},{"bike_id":"60471ea9-21af-4b03-907b-114248b92ffd","system_id":"levelo_inurba_marseille","lat":43.30801,"lon":5.38146,"is_reserved":false,"is_disabled":false,"rental_uris":{"android":"levelo://app?vid=60471ea9-21af-4b03-907b-114248b92ffd","ios":"levelo://app?vid=60471ea9-21af-4b03-907b-114248b92ffd"},"vehicle_type_id":"4","last_reported":1687221577,"current_range_meters":31200,"station_id":"ce4bgt12rcd13ifvqce0","pricing_plan_id":"free"},{"bike_id":"16f80b40-6646-4ed2-aa70-bfa338f35c1d","system_id":"levelo_inurba_marseille","lat":43.30805,"lon":5.38151,"is_reserved":false,"is_disabled":false,"rental_uris":{"android":"levelo://app?vid=16f80b40-6646-4ed2-aa70-bfa338f35c1d","ios":"levelo://app?vid=16f80b40-6646-4ed2-aa70-bfa338f35c1d"},"vehicle_type_id":"4","last_reported":1687221577,"current_range_meters":22400,"station_id":"ce4bgt12rcd13ifvqce0","pricing_plan_id":"free"},{"bike_id":"9e68629c-2c65-4b88-b5f5-26792fdca2ff","system_id":"levelo_inurba_marseille","lat":43.308012,"lon":5.381511,"is_reserved":false,"is_disabled":false,"rental_uris":{"android":"levelo://app?vid=9e68629c-2c65-4b88-b5f5-26792fdca2ff","ios":"levelo://app?vid=9e68629c-2c65-4b88-b5f5-26792fdca2ff"},"vehicle_type_id":"4","last_reported":1687221577,"current_range_meters":26000,"station_id":"ce4bgt12rcd13ifvqce0","pricing_plan_id":"free"},{"bike_id":"ae33307b-fcd5-479b-9ae1-9002ed226c6e","system_id":"levelo_inurba_marseille","lat":43.308012,"lon":5.381511,"is_reserved":false,"is_disabled":false,"rental_uris":{"android":"levelo://app?vid=ae33307b-fcd5-479b-9ae1-9002ed226c6e","ios":"levelo://app?vid=ae33307b-fcd5-479b-9ae1-9002ed226c6e"},"vehicle_type_id":"4","last_reported":1687221577,"current_range_meters":22800,"station_id":"ce4bgt12rcd13ifvqce0","pricing_plan_id":"free"},{"bike_id":"8e83e4d5-c41b-4447-9d39-31bfd2458968","system_id":"levelo_inurba_marseille","lat":43.308012,"lon":5.381511,"is_reserved":false,"is_disabled":false,"rental_uris":{"android":"levelo://app?vid=8e83e4d5-c41b-4447-9d39-31bfd2458968","ios":"levelo://app?vid=8e83e4d5-c41b-4447-9d39-31bfd2458968"},"vehicle_type_id":"4","last_reported":1687221577,"current_range_meters":10400,"station_id":"ce4bgt12rcd13ifvqce0","pricing_plan_id":"free"},{"bike_id":"b4c6cca2-da58-4233-bdff-be743c51e6ae","system_id":"levelo_inurba_marseille","lat":43.30796,"lon":5.38152,"is_reserved":false,"is_disabled":false,"rental_uris":{"android":"levelo://app?vid=b4c6cca2-da58-4233-bdff-be743c51e6ae","ios":"levelo://app?vid=b4c6cca2-da58-4233-bdff-be743c51e6ae"},"vehicle_type_id":"4","last_reported":1687221577,"current_range_meters":31200,"station_id":"ce4bgt12rcd13ifvqce0","pricing_plan_id":"free"},{"bike_id":"38980e3b-9006-46a5-8ac7-fa90f97d80a3","system_id":"levelo_inurba_marseille","lat":43.30464,"lon":5.37902,"is_reserved":false,"is_disabled":false,"rental_uris":{"android":"levelo://app?vid=38980e3b-9006-46a5-8ac7-fa90f97d80a3","ios":"levelo://app?vid=38980e3b-9006-46a5-8ac7-fa90f97d80a3"},"vehicle_type_id":"4","last_reported":1687221577,"current_range_meters":12000,"station_id":"ce4bgup2rcd13ifvqcn0","pricing_plan_id":"free"},{"bike_id":"43fc693e-f2a9-4aec-8fd9-d094bb02cb70","system_id":"levelo_inurba_marseille","lat":43.304606,"lon":5.379026,"is_reserved":false,"is_disabled":false,"rental_uris":{"android":"levelo://app?vid=43fc693e-f2a9-4aec-8fd9-d094bb02cb70","ios":"levelo://app?vid=43fc693e-f2a9-4aec-8fd9-d094bb02cb70"},"vehicle_type_id":"4","last_reported":1687221577,"current_range_meters":11600,"station_id":"ce4bgup2rcd13ifvqcn0","pricing_plan_id":"free"},{"bike_id":"0d24da2f-26f5-4fac-ab16-84ea53cede7b","system_id":"levelo_inurba_marseille","lat":43.304606,"lon":5.379026,"is_reserved":false,"is_disabled":false,"rental_uris":{"android":"levelo://app?vid=0d24da2f-26f5-4fac-ab16-84ea53cede7b","ios":"levelo://app?vid=0d24da2f-26f5-4fac-ab16-84ea53cede7b"},"vehicle_type_id":"4","last_reported":1687221577,"current_range_meters":13600,"station_id":"ce4bgup2rcd13ifvqcn0","pricing_plan_id":"free"},{"bike_id":"5b89dee5-55d8-44cd-a62b-38d5781772a9","system_id":"levelo_inurba_marseille","lat":43.304606,"lon":5.379026,"is_reserved":false,"is_disabled":false,"rental_uris":{"android":"levelo://app?vid=5b89dee5-55d8-44cd-a62b-38d5781772a9","ios":"levelo://app?vid=5b89dee5-55d8-44cd-a62b-38d5781772a9"},"vehicle_type_id":"4","last_reported":1687221577,"current_range_meters":22800,"station_id":"ce4bgup2rcd13ifvqcn0","pricing_plan_id":"free"},{"bike_id":"b94cae03-ea31-409e-b238-07047a37af9c","system_id":"levelo_inurba_marseille","lat":43.30461,"lon":5.37911,"is_reserved":false,"is_disabled":false,"rental_uris":{"android":"levelo://app?vid=b94cae03-ea31-409e-b238-07047a37af9c","ios":"levelo://app?vid=b94cae03-ea31-409e-b238-07047a37af9c"},"vehicle_type_id":"4","last_reported":1687221577,"current_range_meters":2000,"station_id":"ce4bgup2rcd13ifvqcn0","pricing_plan_id":"free"},{"bike_id":"d614fd2b-4029-4da3-a1f2-0bcc49194ce2","system_id":"levelo_inurba_marseille","lat":43.30143,"lon":5.37413,"is_reserved":false,"is_disabled":false,"rental_uris":{"android":"levelo://app?vid=d614fd2b-4029-4da3-a1f2-0bcc49194ce2","ios":"levelo://app?vid=d614fd2b-4029-4da3-a1f2-0bcc49194ce2"},"vehicle_type_id":"4","last_reported":1687221577,"current_range_meters":28400,"station_id":"ce4bgs92rcd13ifvqcc0","pricing_plan_id":"free"},{"bike_id":"abda6abd-e2e1-4feb-a9a7-aff0add6f9d9","system_id":"levelo_inurba_marseille","lat":43.302784,"lon":5.377158,"is_reserved":false,"is_disabled":false,"rental_uris":{"android":"levelo://app?vid=abda6abd-e2e1-4feb-a9a7-aff0add6f9d9","ios":"levelo://app?vid=abda6abd-e2e1-4feb-a9a7-aff0add6f9d9"},"vehicle_type_id":"4","last_reported":1687221577,"current_range_meters":2000,"station_id":"ce4bguh2rcd13ifvqcj0","pricing_plan_id":"free"},{"bike_id":"8846a4b4-eb37-461c-9af6-3503a780d1c9","system_id":"levelo_inurba_marseille","lat":43.3076,"lon":5.38272,"is_reserved":false,"is_disabled":false,"rental_uris":{"android":"levelo://app?vid=8846a4b4-eb37-461c-9af6-3503a780d1c9","ios":"levelo://app?vid=8846a4b4-eb37-461c-9af6-3503a780d1c9"},"vehicle_type_id":"4","last_reported":1687221577,"current_range_meters":15200,"station_id":"","pricing_plan_id":"free"},{"bike_id":"eac4fdb1-d9fc-4586-99a2-e76dee7094c8","system_id":"levelo_inurba_marseille","lat":43.319935,"lon":5.381699,"is_reserved":false,"is_disabled":false,"rental_uris":{"android":"levelo://app?vid=eac4fdb1-d9fc-4586-99a2-e76dee7094c8","ios":"levelo://app?vid=eac4fdb1-d9fc-4586-99a2-e76dee7094c8"},"vehicle_type_id":"4","last_reported":1687221577,"current_range_meters":0,"station_id":"ce4bhr12rcd13ifvqhpg","pricing_plan_id":"free"},{"bike_id":"ea9f4970-3490-42d1-a626-36ba0a329376","system_id":"levelo_inurba_marseille","lat":43.319935,"lon":5.381699,"is_reserved":false,"is_disabled":false,"rental_uris":{"android":"levelo://app?vid=ea9f4970-3490-42d1-a626-36ba0a329376","ios":"levelo://app?vid=ea9f4970-3490-42d1-a626-36ba0a329376"},"vehicle_type_id":"4","last_reported":1687221577,"current_range_meters":22400,"station_id":"ce4bhr12rcd13ifvqhpg","pricing_plan_id":"free"},{"bike_id":"41f0e281-3c5f-495f-a383-c15040bdd43e","system_id":"levelo_inurba_marseille","lat":43.313571,"lon":5.384829,"is_reserved":false,"is_disabled":false,"rental_uris":{"android":"levelo://app?vid=41f0e281-3c5f-495f-a383-c15040bdd43e","ios":"levelo://app?vid=41f0e281-3c5f-495f-a383-c15040bdd43e"},"vehicle_type_id":"4","last_reported":1687221577,"current_range_meters":14400,"station_id":"ce4bgt92rcd13ifvqcf0","pricing_plan_id":"free"},{"bike_id":"63a7e1fc-bb42-4f24-869f-824797fbb170","system_id":"levelo_inurba_marseille","lat":43.313571,"lon":5.384829,"is_reserved":false,"is_disabled":false,"rental_uris":{"android":"levelo://app?vid=63a7e1fc-bb42-4f24-869f-824797fbb170","ios":"levelo://app?vid=63a7e1fc-bb42-4f24-869f-824797fbb170"},"vehicle_type_id":"4","last_reported":1687221577,"current_range_meters":8400,"station_id":"ce4bgt92rcd13ifvqcf0","pricing_plan_id":"free"},{"bike_id":"f6f06f4d-9e61-429d-8e0c-6d80111fde07","system_id":"levelo_inurba_marseille","lat":43.313571,"lon":5.384829,"is_reserved":false,"is_disabled":false,"rental_uris":{"android":"levelo://app?vid=f6f06f4d-9e61-429d-8e0c-6d80111fde07","ios":"levelo://app?vid=f6f06f4d-9e61-429d-8e0c-6d80111fde07"},"vehicle_type_id":"4","last_reported":1687221577,"current_range_meters":31200,"station_id":"ce4bgt92rcd13ifvqcf0","pricing_plan_id":"free"},{"bike_id":"97e4b227-e5f4-451b-bb81-35b22ff88236","system_id":"levelo_inurba_marseille","lat":43.313571,"lon":5.384829,"is_reserved":false,"is_disabled":false,"rental_uris":{"android":"levelo://app?vid=97e4b227-e5f4-451b-bb81-35b22ff88236","ios":"levelo://app?vid=97e4b227-e5f4-451b-bb81-35b22ff88236"},"vehicle_type_id":"4","last_reported":1687221577,"current_range_meters":30400,"station_id":"ce4bgt92rcd13ifvqcf0","pricing_plan_id":"free"},{"bike_id":"3c02d99c-9557-4d58-bd82-5b1002bea1b5","system_id":"levelo_inurba_marseille","lat":43.313571,"lon":5.384829,"is_reserved":false,"is_disabled":false,"rental_uris":{"android":"levelo://app?vid=3c02d99c-9557-4d58-bd82-5b1002bea1b5","ios":"levelo://app?vid=3c02d99c-9557-4d58-bd82-5b1002bea1b5"},"vehicle_type_id":"4","last_reported":1687221577,"current_range_meters":27600,"station_id":"ce4bgt92rcd13ifvqcf0","pricing_plan_id":"free"},{"bike_id":"b68c77c6-9c35-445c-89a4-68b99316ff1d","system_id":"levelo_inurba_marseille","lat":43.313571,"lon":5.384829,"is_reserved":false,"is_disabled":false,"rental_uris":{"android":"levelo://app?vid=b68c77c6-9c35-445c-89a4-68b99316ff1d","ios":"levelo://app?vid=b68c77c6-9c35-445c-89a4-68b99316ff1d"},"vehicle_type_id":"4","last_reported":1687221577,"current_range_meters":21600,"station_id":"ce4bgt92rcd13ifvqcf0","pricing_plan_id":"free"},{"bike_id":"0e833a29-7c77-4f27-b0b7-45afc38be9ee","system_id":"levelo_inurba_marseille","lat":43.299222,"lon":5.365554,"is_reserved":false,"is_disabled":false,"rental_uris":{"android":"levelo://app?vid=0e833a29-7c77-4f27-b0b7-45afc38be9ee","ios":"levelo://app?vid=0e833a29-7c77-4f27-b0b7-45afc38be9ee"},"vehicle_type_id":"4","last_reported":1687221577,"current_range_meters":30000,"station_id":"ce4bgm92rcd13ifvqbr0","pricing_plan_id":"free"},{"bike_id":"735ecdd8-855a-4318-ba56-aa91091b32e9","system_id":"levelo_inurba_marseille","lat":43.299222,"lon":5.365554,"is_reserved":false,"is_disabled":false,"rental_uris":{"android":"levelo://app?vid=735ecdd8-855a-4318-ba56-aa91091b32e9","ios":"levelo://app?vid=735ecdd8-855a-4318-ba56-aa91091b32e9"},"vehicle_type_id":"4","last_reported":1687221577,"current_range_meters":20000,"station_id":"ce4bgm92rcd13ifvqbr0","pricing_plan_id":"free"},{"bike_id":"3c2bf9d3-8062-4b0d-998d-837d7e8af2fe","system_id":"levelo_inurba_marseille","lat":43.299222,"lon":5.365554,"is_reserved":false,"is_disabled":false,"rental_uris":{"android":"levelo://app?vid=3c2bf9d3-8062-4b0d-998d-837d7e8af2fe","ios":"levelo://app?vid=3c2bf9d3-8062-4b0d-998d-837d7e8af2fe"},"vehicle_type_id":"4","last_reported":1687221577,"current_range_meters":6000,"station_id":"ce4bgm92rcd13ifvqbr0","pricing_plan_id":"free"},{"bike_id":"3df8b2c7-f0a6-4b8e-a801-c8e0817002cc","system_id":"levelo_inurba_marseille","lat":43.298433,"lon":5.362774,"is_reserved":false,"is_disabled":false,"rental_uris":{"android":"levelo://app?vid=3df8b2c7-f0a6-4b8e-a801-c8e0817002cc","ios":"levelo://app?vid=3df8b2c7-f0a6-4b8e-a801-c8e0817002cc"},"vehicle_type_id":"4","last_reported":1687221577,"current_range_meters":30000,"station_id":"ce4bgpp2rcd13ifvqc3g","pricing_plan_id":"free"},{"bike_id":"d3b2b730-7f79-4c0a-9ac5-440c2dacca70","system_id":"levelo_inurba_marseille","lat":43.29848,"lon":5.36282,"is_reserved":false,"is_disabled":false,"rental_uris":{"android":"levelo://app?vid=d3b2b730-7f79-4c0a-9ac5-440c2dacca70","ios":"levelo://app?vid=d3b2b730-7f79-4c0a-9ac5-440c2dacca70"},"vehicle_type_id":"4","last_reported":1687221577,"current_range_meters":26800,"station_id":"ce4bgpp2rcd13ifvqc3g","pricing_plan_id":"free"},{"bike_id":"64ef030d-33f5-47af-98d4-2a0698b00449","system_id":"levelo_inurba_marseille","lat":43.305364,"lon":5.384119,"is_reserved":false,"is_disabled":false,"rental_uris":{"android":"levelo://app?vid=64ef030d-33f5-47af-98d4-2a0698b00449","ios":"levelo://app?vid=64ef030d-33f5-47af-98d4-2a0698b00449"},"vehicle_type_id":"4","last_reported":1687221577,"current_range_meters":31200,"station_id":"ce4bgg92rcd13ifvqb30","pricing_plan_id":"free"},{"bike_id":"aab4c27b-a5e5-401c-9248-2b503cdeca40","system_id":"levelo_inurba_marseille","lat":43.305364,"lon":5.384119,"is_reserved":false,"is_disabled":false,"rental_uris":{"android":"levelo://app?vid=aab4c27b-a5e5-401c-9248-2b503cdeca40","ios":"levelo://app?vid=aab4c27b-a5e5-401c-9248-2b503cdeca40"},"vehicle_type_id":"4","last_reported":1687221577,"current_range_meters":31200,"station_id":"ce4bgg92rcd13ifvqb30","pricing_plan_id":"free"},{"bike_id":"433677f5-7d72-40a1-ad4f-4104d6aa2198","system_id":"levelo_inurba_marseille","lat":43.305364,"lon":5.384119,"is_reserved":false,"is_disabled":false,"rental_uris":{"android":"levelo://app?vid=433677f5-7d72-40a1-ad4f-4104d6aa2198","ios":"levelo://app?vid=433677f5-7d72-40a1-ad4f-4104d6aa2198"},"vehicle_type_id":"4","last_reported":1687221577,"current_range_meters":5200,"station_id":"ce4bgg92rcd13ifvqb30","pricing_plan_id":"free"},{"bike_id":"acb547cb-7456-4573-ba83-c9be8a5e6999","system_id":"levelo_inurba_marseille","lat":43.311722,"lon":5.387247,"is_reserved":false,"is_disabled":false,"rental_uris":{"android":"levelo://app?vid=acb547cb-7456-4573-ba83-c9be8a5e6999","ios":"levelo://app?vid=acb547cb-7456-4573-ba83-c9be8a5e6999"},"vehicle_type_id":"4","last_reported":1687221577,"current_range_meters":31200,"station_id":"ce4bgv12rcd13ifvqcp0","pricing_plan_id":"free"},{"bike_id":"466b13e2-0f63-489c-bb16-9fd80da1e53a","system_id":"levelo_inurba_marseille","lat":43.299243,"lon":5.37481,"is_reserved":false,"is_disabled":false,"rental_uris":{"android":"levelo://app?vid=466b13e2-0f63-489c-bb16-9fd80da1e53a","ios":"levelo://app?vid=466b13e2-0f63-489c-bb16-9fd80da1e53a"},"vehicle_type_id":"4","last_reported":1687221577,"current_range_meters":26400,"station_id":"ce4bgjh2rcd13ifvqbg0","pricing_plan_id":"free"},{"bike_id":"ed551a1d-28ad-435c-a319-316c408c0167","system_id":"levelo_inurba_marseille","lat":43.311722,"lon":5.387247,"is_reserved":false,"is_disabled":false,"rental_uris":{"android":"levelo://app?vid=ed551a1d-28ad-435c-a319-316c408c0167","ios":"levelo://app?vid=ed551a1d-28ad-435c-a319-316c408c0167"},"vehicle_type_id":"4","last_reported":1687221577,"current_range_meters":31600,"station_id":"ce4bgv12rcd13ifvqcp0","pricing_plan_id":"free"},{"bike_id":"8b956eeb-a197-4f11-83b0-4421febc2180","system_id":"levelo_inurba_marseille","lat":43.311722,"lon":5.387247,"is_reserved":false,"is_disabled":false,"rental_uris":{"android":"levelo://app?vid=8b956eeb-a197-4f11-83b0-4421febc2180","ios":"levelo://app?vid=8b956eeb-a197-4f11-83b0-4421febc2180"},"vehicle_type_id":"4","last_reported":1687221577,"current_range_meters":30800,"station_id":"ce4bgv12rcd13ifvqcp0","pricing_plan_id":"free"},{"bike_id":"1d5dbef4-a4a9-4763-b725-db3ae4bab209","system_id":"levelo_inurba_marseille","lat":43.311722,"lon":5.387247,"is_reserved":false,"is_disabled":false,"rental_uris":{"android":"levelo://app?vid=1d5dbef4-a4a9-4763-b725-db3ae4bab209","ios":"levelo://app?vid=1d5dbef4-a4a9-4763-b725-db3ae4bab209"},"vehicle_type_id":"4","last_reported":1687221577,"current_range_meters":24800,"station_id":"ce4bgv12rcd13ifvqcp0","pricing_plan_id":"free"},{"bike_id":"623b3d1f-809d-4205-bbe3-ae47beabb472","system_id":"levelo_inurba_marseille","lat":43.299243,"lon":5.374807,"is_reserved":false,"is_disabled":false,"rental_uris":{"android":"levelo://app?vid=623b3d1f-809d-4205-bbe3-ae47beabb472","ios":"levelo://app?vid=623b3d1f-809d-4205-bbe3-ae47beabb472"},"vehicle_type_id":"4","last_reported":1687221577,"current_range_meters":12000,"station_id":"ce4bgjh2rcd13ifvqbg0","pricing_plan_id":"free"},{"bike_id":"e25eb3e7-6bc0-4f75-876d-fc1279f8397a","system_id":"levelo_inurba_marseille","lat":43.311722,"lon":5.387247,"is_reserved":false,"is_disabled":false,"rental_uris":{"android":"levelo://app?vid=e25eb3e7-6bc0-4f75-876d-fc1279f8397a","ios":"levelo://app?vid=e25eb3e7-6bc0-4f75-876d-fc1279f8397a"},"vehicle_type_id":"4","last_reported":1687221577,"current_range_meters":19600,"station_id":"ce4bgv12rcd13ifvqcp0","pricing_plan_id":"free"},{"bike_id":"aeac0a4b-9a8f-453d-8d45-c9c0d6bc5166","system_id":"levelo_inurba_marseille","lat":43.29905,"lon":5.37462,"is_reserved":false,"is_disabled":false,"rental_uris":{"android":"levelo://app?vid=aeac0a4b-9a8f-453d-8d45-c9c0d6bc5166","ios":"levelo://app?vid=aeac0a4b-9a8f-453d-8d45-c9c0d6bc5166"},"vehicle_type_id":"4","last_reported":1687221577,"current_range_meters":3200,"station_id":"ce4bgjh2rcd13ifvqbg0","pricing_plan_id":"free"},{"bike_id":"8d8d6169-8f7b-419c-9d90-97ec79f60b1b","system_id":"levelo_inurba_marseille","lat":43.311722,"lon":5.387247,"is_reserved":false,"is_disabled":false,"rental_uris":{"android":"levelo://app?vid=8d8d6169-8f7b-419c-9d90-97ec79f60b1b","ios":"levelo://app?vid=8d8d6169-8f7b-419c-9d90-97ec79f60b1b"},"vehicle_type_id":"4","last_reported":1687221577,"current_range_meters":31200,"station_id":"ce4bgv12rcd13ifvqcp0","pricing_plan_id":"free"},{"bike_id":"1d9994fd-02a0-45b7-ba0f-3d7f05be1570","system_id":"levelo_inurba_marseille","lat":43.311722,"lon":5.387247,"is_reserved":false,"is_disabled":false,"rental_uris":{"android":"levelo://app?vid=1d9994fd-02a0-45b7-ba0f-3d7f05be1570","ios":"levelo://app?vid=1d9994fd-02a0-45b7-ba0f-3d7f05be1570"},"vehicle_type_id":"4","last_reported":1687221577,"current_range_meters":26800,"station_id":"ce4bgv12rcd13ifvqcp0","pricing_plan_id":"free"},{"bike_id":"591fabbd-2131-4974-9bcf-990172c5e2c7","system_id":"levelo_inurba_marseille","lat":43.328371,"lon":5.366912,"is_reserved":false,"is_disabled":false,"rental_uris":{"android":"levelo://app?vid=591fabbd-2131-4974-9bcf-990172c5e2c7","ios":"levelo://app?vid=591fabbd-2131-4974-9bcf-990172c5e2c7"},"vehicle_type_id":"4","last_reported":1687221577,"current_range_meters":20400,"station_id":"ce4bhs92rcd13ifvqi0g","pricing_plan_id":"free"},{"bike_id":"b7074c3e-4ff6-4221-97e7-199682884fdf","system_id":"levelo_inurba_marseille","lat":43.32828,"lon":5.36683,"is_reserved":false,"is_disabled":false,"rental_uris":{"android":"levelo://app?vid=b7074c3e-4ff6-4221-97e7-199682884fdf","ios":"levelo://app?vid=b7074c3e-4ff6-4221-97e7-199682884fdf"},"vehicle_type_id":"4","last_reported":1687221577,"current_range_meters":16400,"station_id":"ce4bhs92rcd13ifvqi0g","pricing_plan_id":"free"},{"bike_id":"832e1273-fa14-42aa-b411-4f520f45589b","system_id":"levelo_inurba_marseille","lat":43.32836,"lon":5.36686,"is_reserved":false,"is_disabled":false,"rental_uris":{"android":"levelo://app?vid=832e1273-fa14-42aa-b411-4f520f45589b","ios":"levelo://app?vid=832e1273-fa14-42aa-b411-4f520f45589b"},"vehicle_type_id":"4","last_reported":1687221577,"current_range_meters":10000,"station_id":"ce4bhs92rcd13ifvqi0g","pricing_plan_id":"free"},{"bike_id":"176f4894-d7fc-460e-aa5d-7c8c1e206dc3","system_id":"levelo_inurba_marseille","lat":43.29704,"lon":5.36614,"is_reserved":false,"is_disabled":false,"rental_uris":{"android":"levelo://app?vid=176f4894-d7fc-460e-aa5d-7c8c1e206dc3","ios":"levelo://app?vid=176f4894-d7fc-460e-aa5d-7c8c1e206dc3"},"vehicle_type_id":"4","last_reported":1687221577,"current_range_meters":27200,"station_id":"ce4bgn12rcd13ifvqbt0","pricing_plan_id":"free"},{"bike_id":"ba5f64ad-d90e-4467-817b-7a4138203eec","system_id":"levelo_inurba_marseille","lat":43.311722,"lon":5.387247,"is_reserved":false,"is_disabled":false,"rental_uris":{"android":"levelo://app?vid=ba5f64ad-d90e-4467-817b-7a4138203eec","ios":"levelo://app?vid=ba5f64ad-d90e-4467-817b-7a4138203eec"},"vehicle_type_id":"4","last_reported":1687221577,"current_range_meters":12400,"station_id":"ce4bgv12rcd13ifvqcp0","pricing_plan_id":"free"},{"bike_id":"24f41ca5-b432-4feb-a0c8-a15026b97306","system_id":"levelo_inurba_marseille","lat":43.296131,"lon":5.370773,"is_reserved":false,"is_disabled":false,"rental_uris":{"android":"levelo://app?vid=24f41ca5-b432-4feb-a0c8-a15026b97306","ios":"levelo://app?vid=24f41ca5-b432-4feb-a0c8-a15026b97306"},"vehicle_type_id":"4","last_reported":1687221577,"current_range_meters":6400,"station_id":"ce4bgnh2rcd13ifvqc0g","pricing_plan_id":"free"},{"bike_id":"8960adfd-4c80-4dc0-9256-604d43ff1551","system_id":"levelo_inurba_marseille","lat":43.299028,"lon":5.381509,"is_reserved":false,"is_disabled":false,"rental_uris":{"android":"levelo://app?vid=8960adfd-4c80-4dc0-9256-604d43ff1551","ios":"levelo://app?vid=8960adfd-4c80-4dc0-9256-604d43ff1551"},"vehicle_type_id":"4","last_reported":1687221577,"current_range_meters":24400,"station_id":"ce4bgj12rcd13ifvqbc0","pricing_plan_id":"free"},{"bike_id":"81a8a4d3-1664-4b59-9ab3-ca582b4ff89d","system_id":"levelo_inurba_marseille","lat":43.309589,"lon":5.390258,"is_reserved":false,"is_disabled":false,"rental_uris":{"android":"levelo://app?vid=81a8a4d3-1664-4b59-9ab3-ca582b4ff89d","ios":"levelo://app?vid=81a8a4d3-1664-4b59-9ab3-ca582b4ff89d"},"vehicle_type_id":"4","last_reported":1687221577,"current_range_meters":30400,"station_id":"ce4bgup2rcd13ifvqco0","pricing_plan_id":"free"},{"bike_id":"7c5e2e4e-b55d-4a25-81f7-3fee8f440ba9","system_id":"levelo_inurba_marseille","lat":43.309589,"lon":5.390258,"is_reserved":false,"is_disabled":false,"rental_uris":{"android":"levelo://app?vid=7c5e2e4e-b55d-4a25-81f7-3fee8f440ba9","ios":"levelo://app?vid=7c5e2e4e-b55d-4a25-81f7-3fee8f440ba9"},"vehicle_type_id":"4","last_reported":1687221577,"current_range_meters":26800,"station_id":"ce4bgup2rcd13ifvqco0","pricing_plan_id":"free"},{"bike_id":"357152ca-d452-4a19-a891-02f3b84ad248","system_id":"levelo_inurba_marseille","lat":43.309589,"lon":5.390258,"is_reserved":false,"is_disabled":false,"rental_uris":{"android":"levelo://app?vid=357152ca-d452-4a19-a891-02f3b84ad248","ios":"levelo://app?vid=357152ca-d452-4a19-a891-02f3b84ad248"},"vehicle_type_id":"4","last_reported":1687221577,"current_range_meters":30400,"station_id":"ce4bgup2rcd13ifvqco0","pricing_plan_id":"free"},{"bike_id":"34e2d3aa-169c-4af3-8480-807be04aae36","system_id":"levelo_inurba_marseille","lat":43.317557,"lon":5.390173,"is_reserved":false,"is_disabled":false,"rental_uris":{"android":"levelo://app?vid=34e2d3aa-169c-4af3-8480-807be04aae36","ios":"levelo://app?vid=34e2d3aa-169c-4af3-8480-807be04aae36"},"vehicle_type_id":"4","last_reported":1687221577,"current_range_meters":30000,"station_id":"ce4bhqp2rcd13ifvqhng","pricing_plan_id":"free"},{"bike_id":"734ce217-e6fb-41df-bb44-4b53bd35a53a","system_id":"levelo_inurba_marseille","lat":43.317557,"lon":5.390173,"is_reserved":false,"is_disabled":false,"rental_uris":{"android":"levelo://app?vid=734ce217-e6fb-41df-bb44-4b53bd35a53a","ios":"levelo://app?vid=734ce217-e6fb-41df-bb44-4b53bd35a53a"},"vehicle_type_id":"4","last_reported":1687221577,"current_range_meters":29600,"station_id":"ce4bhqp2rcd13ifvqhng","pricing_plan_id":"free"},{"bike_id":"ab137c87-7b5d-4a6d-b139-0e4813e4842d","system_id":"levelo_inurba_marseille","lat":43.317557,"lon":5.390173,"is_reserved":false,"is_disabled":false,"rental_uris":{"android":"levelo://app?vid=ab137c87-7b5d-4a6d-b139-0e4813e4842d","ios":"levelo://app?vid=ab137c87-7b5d-4a6d-b139-0e4813e4842d"},"vehicle_type_id":"4","last_reported":1687221577,"current_range_meters":28800,"station_id":"ce4bhqp2rcd13ifvqhng","pricing_plan_id":"free"},{"bike_id":"cc372352-cc0b-4935-a919-6dd001b39894","system_id":"levelo_inurba_marseille","lat":43.317557,"lon":5.390173,"is_reserved":false,"is_disabled":false,"rental_uris":{"android":"levelo://app?vid=cc372352-cc0b-4935-a919-6dd001b39894","ios":"levelo://app?vid=cc372352-cc0b-4935-a919-6dd001b39894"},"vehicle_type_id":"4","last_reported":1687221577,"current_range_meters":23200,"station_id":"ce4bhqp2rcd13ifvqhng","pricing_plan_id":"free"},{"bike_id":"6081c3d6-ef7b-4860-ab97-620d85c8f00c","system_id":"levelo_inurba_marseille","lat":43.295761,"lon":5.375029,"is_reserved":false,"is_disabled":false,"rental_uris":{"android":"levelo://app?vid=6081c3d6-ef7b-4860-ab97-620d85c8f00c","ios":"levelo://app?vid=6081c3d6-ef7b-4860-ab97-620d85c8f00c"},"vehicle_type_id":"4","last_reported":1687221577,"current_range_meters":11200,"station_id":"","pricing_plan_id":"free"},{"bike_id":"168b0622-b91e-49e1-8869-59b61f72fb2a","system_id":"levelo_inurba_marseille","lat":43.304278,"lon":5.388868,"is_reserved":false,"is_disabled":false,"rental_uris":{"android":"levelo://app?vid=168b0622-b91e-49e1-8869-59b61f72fb2a","ios":"levelo://app?vid=168b0622-b91e-49e1-8869-59b61f72fb2a"},"vehicle_type_id":"4","last_reported":1687221577,"current_range_meters":31200,"station_id":"ce4bgk12rcd13ifvqbi0","pricing_plan_id":"free"},{"bike_id":"f3123879-7c95-4992-ac1d-4ee130f7f27b","system_id":"levelo_inurba_marseille","lat":43.304278,"lon":5.388868,"is_reserved":false,"is_disabled":false,"rental_uris":{"android":"levelo://app?vid=f3123879-7c95-4992-ac1d-4ee130f7f27b","ios":"levelo://app?vid=f3123879-7c95-4992-ac1d-4ee130f7f27b"},"vehicle_type_id":"4","last_reported":1687221577,"current_range_meters":6800,"station_id":"ce4bgk12rcd13ifvqbi0","pricing_plan_id":"free"},{"bike_id":"250c8a96-8498-4211-b8f3-1b00a8d1fbaf","system_id":"levelo_inurba_marseille","lat":43.296477,"lon":5.37768,"is_reserved":false,"is_disabled":false,"rental_uris":{"android":"levelo://app?vid=250c8a96-8498-4211-b8f3-1b00a8d1fbaf","ios":"levelo://app?vid=250c8a96-8498-4211-b8f3-1b00a8d1fbaf"},"vehicle_type_id":"4","last_reported":1687221577,"current_range_meters":7200,"station_id":"","pricing_plan_id":"free"},{"bike_id":"b7b1d109-f109-46f0-bcde-562f2f46f0be","system_id":"levelo_inurba_marseille","lat":43.304274,"lon":5.388873,"is_reserved":false,"is_disabled":false,"rental_uris":{"android":"levelo://app?vid=b7b1d109-f109-46f0-bcde-562f2f46f0be","ios":"levelo://app?vid=b7b1d109-f109-46f0-bcde-562f2f46f0be"},"vehicle_type_id":"4","last_reported":1687221577,"current_range_meters":21200,"station_id":"ce4bgk12rcd13ifvqbi0","pricing_plan_id":"free"},{"bike_id":"e6bfbbcf-06d7-48dd-9027-6cf2b2d59171","system_id":"levelo_inurba_marseille","lat":43.304278,"lon":5.388868,"is_reserved":false,"is_disabled":false,"rental_uris":{"android":"levelo://app?vid=e6bfbbcf-06d7-48dd-9027-6cf2b2d59171","ios":"levelo://app?vid=e6bfbbcf-06d7-48dd-9027-6cf2b2d59171"},"vehicle_type_id":"4","last_reported":1687221577,"current_range_meters":14400,"station_id":"ce4bgk12rcd13ifvqbi0","pricing_plan_id":"free"},{"bike_id":"0834cc4b-31f2-402e-b000-a0a945d6fd62","system_id":"levelo_inurba_marseille","lat":43.304278,"lon":5.388868,"is_reserved":false,"is_disabled":false,"rental_uris":{"android":"levelo://app?vid=0834cc4b-31f2-402e-b000-a0a945d6fd62","ios":"levelo://app?vid=0834cc4b-31f2-402e-b000-a0a945d6fd62"},"vehicle_type_id":"4","last_reported":1687221577,"current_range_meters":11200,"station_id":"ce4bgk12rcd13ifvqbi0","pricing_plan_id":"free"},{"bike_id":"afb61759-8b03-4a6a-a393-439478444541","system_id":"levelo_inurba_marseille","lat":43.304239,"lon":5.388917,"is_reserved":false,"is_disabled":false,"rental_uris":{"android":"levelo://app?vid=afb61759-8b03-4a6a-a393-439478444541","ios":"levelo://app?vid=afb61759-8b03-4a6a-a393-439478444541"},"vehicle_type_id":"4","last_reported":1687221577,"current_range_meters":11200,"station_id":"ce4bh512rcd13ifvqe3g","pricing_plan_id":"free"},{"bike_id":"eb56f040-d7e3-440c-9d05-82afe187dd21","system_id":"levelo_inurba_marseille","lat":43.29968,"lon":5.38499,"is_reserved":false,"is_disabled":false,"rental_uris":{"android":"levelo://app?vid=eb56f040-d7e3-440c-9d05-82afe187dd21","ios":"levelo://app?vid=eb56f040-d7e3-440c-9d05-82afe187dd21"},"vehicle_type_id":"4","last_reported":1687221577,"current_range_meters":29600,"station_id":"ce4bgj92rcd13ifvqbd0","pricing_plan_id":"free"},{"bike_id":"38245239-42c5-4246-a3d5-16426fb9ea5b","system_id":"levelo_inurba_marseille","lat":43.31013,"lon":5.39288,"is_reserved":false,"is_disabled":false,"rental_uris":{"android":"levelo://app?vid=38245239-42c5-4246-a3d5-16426fb9ea5b","ios":"levelo://app?vid=38245239-42c5-4246-a3d5-16426fb9ea5b"},"vehicle_type_id":"4","last_reported":1687221577,"current_range_meters":7600,"station_id":"","pricing_plan_id":"free"},{"bike_id":"554d461b-faf0-4249-b043-1ce5292e3cda","system_id":"levelo_inurba_marseille","lat":43.32358,"lon":5.38883,"is_reserved":false,"is_disabled":false,"rental_uris":{"android":"levelo://app?vid=554d461b-faf0-4249-b043-1ce5292e3cda","ios":"levelo://app?vid=554d461b-faf0-4249-b043-1ce5292e3cda"},"vehicle_type_id":"4","last_reported":1687221577,"current_range_meters":2400,"station_id":"ce4bhqp2rcd13ifvqhog","pricing_plan_id":"free"},{"bike_id":"45121b16-aa60-4e03-96c8-7045ec622ae8","system_id":"levelo_inurba_marseille","lat":43.32367,"lon":5.388836,"is_reserved":false,"is_disabled":false,"rental_uris":{"android":"levelo://app?vid=45121b16-aa60-4e03-96c8-7045ec622ae8","ios":"levelo://app?vid=45121b16-aa60-4e03-96c8-7045ec622ae8"},"vehicle_type_id":"4","last_reported":1687221577,"current_range_meters":31200,"station_id":"ce4bhqp2rcd13ifvqhog","pricing_plan_id":"free"},{"bike_id":"30a91f8e-3923-4d3c-8115-7a1bd6f6db68","system_id":"levelo_inurba_marseille","lat":43.32351,"lon":5.38893,"is_reserved":false,"is_disabled":false,"rental_uris":{"android":"levelo://app?vid=30a91f8e-3923-4d3c-8115-7a1bd6f6db68","ios":"levelo://app?vid=30a91f8e-3923-4d3c-8115-7a1bd6f6db68"},"vehicle_type_id":"4","last_reported":1687221577,"current_range_meters":12400,"station_id":"ce4bhqp2rcd13ifvqhog","pricing_plan_id":"free"},{"bike_id":"fed0fa05-6563-4a2c-a686-a1bf0f63a977","system_id":"levelo_inurba_marseille","lat":43.32367,"lon":5.388836,"is_reserved":false,"is_disabled":false,"rental_uris":{"android":"levelo://app?vid=fed0fa05-6563-4a2c-a686-a1bf0f63a977","ios":"levelo://app?vid=fed0fa05-6563-4a2c-a686-a1bf0f63a977"},"vehicle_type_id":"4","last_reported":1687221577,"current_range_meters":31200,"station_id":"ce4bhqp2rcd13ifvqhog","pricing_plan_id":"free"},{"bike_id":"b3af4213-6f75-4eeb-a9c5-95698eb70200","system_id":"levelo_inurba_marseille","lat":43.32367,"lon":5.388836,"is_reserved":false,"is_disabled":false,"rental_uris":{"android":"levelo://app?vid=b3af4213-6f75-4eeb-a9c5-95698eb70200","ios":"levelo://app?vid=b3af4213-6f75-4eeb-a9c5-95698eb70200"},"vehicle_type_id":"4","last_reported":1687221577,"current_range_meters":29600,"station_id":"ce4bhqp2rcd13ifvqhog","pricing_plan_id":"free"},{"bike_id":"0106cff5-f8d2-44de-9c05-92c22f08b366","system_id":"levelo_inurba_marseille","lat":43.32367,"lon":5.388836,"is_reserved":false,"is_disabled":false,"rental_uris":{"android":"levelo://app?vid=0106cff5-f8d2-44de-9c05-92c22f08b366","ios":"levelo://app?vid=0106cff5-f8d2-44de-9c05-92c22f08b366"},"vehicle_type_id":"4","last_reported":1687221577,"current_range_meters":11600,"station_id":"ce4bhqp2rcd13ifvqhog","pricing_plan_id":"free"},{"bike_id":"2cca4f0a-b610-4e92-b2dc-25b7159f1dc6","system_id":"levelo_inurba_marseille","lat":43.32367,"lon":5.388836,"is_reserved":false,"is_disabled":false,"rental_uris":{"android":"levelo://app?vid=2cca4f0a-b610-4e92-b2dc-25b7159f1dc6","ios":"levelo://app?vid=2cca4f0a-b610-4e92-b2dc-25b7159f1dc6"},"vehicle_type_id":"4","last_reported":1687221577,"current_range_meters":7600,"station_id":"ce4bhqp2rcd13ifvqhog","pricing_plan_id":"free"},{"bike_id":"924f5e2c-3798-48c5-a26b-4aa840da3bf3","system_id":"levelo_inurba_marseille","lat":43.32367,"lon":5.388836,"is_reserved":false,"is_disabled":false,"rental_uris":{"android":"levelo://app?vid=924f5e2c-3798-48c5-a26b-4aa840da3bf3","ios":"levelo://app?vid=924f5e2c-3798-48c5-a26b-4aa840da3bf3"},"vehicle_type_id":"4","last_reported":1687221577,"current_range_meters":24000,"station_id":"ce4bhqp2rcd13ifvqhog","pricing_plan_id":"free"},{"bike_id":"31e9b52b-637e-4fe6-8843-73d931b1f83c","system_id":"levelo_inurba_marseille","lat":43.305994,"lon":5.393687,"is_reserved":false,"is_disabled":false,"rental_uris":{"android":"levelo://app?vid=31e9b52b-637e-4fe6-8843-73d931b1f83c","ios":"levelo://app?vid=31e9b52b-637e-4fe6-8843-73d931b1f83c"},"vehicle_type_id":"4","last_reported":1687221577,"current_range_meters":26800,"station_id":"ce4bh0p2rcd13ifvqd80","pricing_plan_id":"free"},{"bike_id":"f56dd423-174a-459c-a9b5-a7f304653c65","system_id":"levelo_inurba_marseille","lat":43.305994,"lon":5.393687,"is_reserved":false,"is_disabled":false,"rental_uris":{"android":"levelo://app?vid=f56dd423-174a-459c-a9b5-a7f304653c65","ios":"levelo://app?vid=f56dd423-174a-459c-a9b5-a7f304653c65"},"vehicle_type_id":"4","last_reported":1687221577,"current_range_meters":5600,"station_id":"ce4bh0p2rcd13ifvqd80","pricing_plan_id":"free"},{"bike_id":"a7bbc0f2-c46e-46d0-9906-5ebbcb7a7d84","system_id":"levelo_inurba_marseille","lat":43.305994,"lon":5.393687,"is_reserved":false,"is_disabled":false,"rental_uris":{"android":"levelo://app?vid=a7bbc0f2-c46e-46d0-9906-5ebbcb7a7d84","ios":"levelo://app?vid=a7bbc0f2-c46e-46d0-9906-5ebbcb7a7d84"},"vehicle_type_id":"4","last_reported":1687221577,"current_range_meters":21200,"station_id":"ce4bh0p2rcd13ifvqd80","pricing_plan_id":"free"},{"bike_id":"66b480a6-9947-4496-98e2-93e61a3244b4","system_id":"levelo_inurba_marseille","lat":43.305994,"lon":5.393687,"is_reserved":false,"is_disabled":false,"rental_uris":{"android":"levelo://app?vid=66b480a6-9947-4496-98e2-93e61a3244b4","ios":"levelo://app?vid=66b480a6-9947-4496-98e2-93e61a3244b4"},"vehicle_type_id":"4","last_reported":1687221577,"current_range_meters":29200,"station_id":"ce4bh0p2rcd13ifvqd80","pricing_plan_id":"free"},{"bike_id":"f96bc5ef-773a-4c29-b818-b40707fecfaa","system_id":"levelo_inurba_marseille","lat":43.305994,"lon":5.393687,"is_reserved":false,"is_disabled":false,"rental_uris":{"android":"levelo://app?vid=f96bc5ef-773a-4c29-b818-b40707fecfaa","ios":"levelo://app?vid=f96bc5ef-773a-4c29-b818-b40707fecfaa"},"vehicle_type_id":"4","last_reported":1687221577,"current_range_meters":31200,"station_id":"ce4bh0p2rcd13ifvqd80","pricing_plan_id":"free"},{"bike_id":"1860480f-dfbb-42e5-b4ee-caf7801dee17","system_id":"levelo_inurba_marseille","lat":43.305994,"lon":5.393687,"is_reserved":false,"is_disabled":false,"rental_uris":{"android":"levelo://app?vid=1860480f-dfbb-42e5-b4ee-caf7801dee17","ios":"levelo://app?vid=1860480f-dfbb-42e5-b4ee-caf7801dee17"},"vehicle_type_id":"4","last_reported":1687221577,"current_range_meters":13200,"station_id":"ce4bh0p2rcd13ifvqd80","pricing_plan_id":"free"},{"bike_id":"45dc7cd9-15da-4e12-aceb-443eb6bd37b9","system_id":"levelo_inurba_marseille","lat":43.305994,"lon":5.393687,"is_reserved":false,"is_disabled":false,"rental_uris":{"android":"levelo://app?vid=45dc7cd9-15da-4e12-aceb-443eb6bd37b9","ios":"levelo://app?vid=45dc7cd9-15da-4e12-aceb-443eb6bd37b9"},"vehicle_type_id":"4","last_reported":1687221577,"current_range_meters":31200,"station_id":"ce4bh0p2rcd13ifvqd80","pricing_plan_id":"free"},{"bike_id":"dbc2cadf-155d-41b5-8117-021a4980ad01","system_id":"levelo_inurba_marseille","lat":43.305994,"lon":5.393687,"is_reserved":false,"is_disabled":false,"rental_uris":{"android":"levelo://app?vid=dbc2cadf-155d-41b5-8117-021a4980ad01","ios":"levelo://app?vid=dbc2cadf-155d-41b5-8117-021a4980ad01"},"vehicle_type_id":"4","last_reported":1687221577,"current_range_meters":31200,"station_id":"ce4bh0p2rcd13ifvqd80","pricing_plan_id":"free"},{"bike_id":"9c8500e1-0667-48c3-a1d4-f4a84fab89b9","system_id":"levelo_inurba_marseille","lat":43.293009,"lon":5.374584,"is_reserved":false,"is_disabled":false,"rental_uris":{"android":"levelo://app?vid=9c8500e1-0667-48c3-a1d4-f4a84fab89b9","ios":"levelo://app?vid=9c8500e1-0667-48c3-a1d4-f4a84fab89b9"},"vehicle_type_id":"4","last_reported":1687221577,"current_range_meters":28400,"station_id":"ce4bgi12rcd13ifvqb70","pricing_plan_id":"free"},{"bike_id":"142a8e7d-5a9e-4bf0-985e-1979391de045","system_id":"levelo_inurba_marseille","lat":43.30587,"lon":5.39362,"is_reserved":false,"is_disabled":false,"rental_uris":{"android":"levelo://app?vid=142a8e7d-5a9e-4bf0-985e-1979391de045","ios":"levelo://app?vid=142a8e7d-5a9e-4bf0-985e-1979391de045"},"vehicle_type_id":"4","last_reported":1687221577,"current_range_meters":16000,"station_id":"ce4bh0p2rcd13ifvqd80","pricing_plan_id":"free"},{"bike_id":"7ee8e857-e58f-4d0f-9ec8-cf55d6494b29","system_id":"levelo_inurba_marseille","lat":43.29271,"lon":5.35977,"is_reserved":false,"is_disabled":false,"rental_uris":{"android":"levelo://app?vid=7ee8e857-e58f-4d0f-9ec8-cf55d6494b29","ios":"levelo://app?vid=7ee8e857-e58f-4d0f-9ec8-cf55d6494b29"},"vehicle_type_id":"4","last_reported":1687221577,"current_range_meters":5200,"station_id":"","pricing_plan_id":"free"},{"bike_id":"4aa88a26-d86b-4498-b62c-1957746e61c5","system_id":"levelo_inurba_marseille","lat":43.30304,"lon":5.39213,"is_reserved":false,"is_disabled":false,"rental_uris":{"android":"levelo://app?vid=4aa88a26-d86b-4498-b62c-1957746e61c5","ios":"levelo://app?vid=4aa88a26-d86b-4498-b62c-1957746e61c5"},"vehicle_type_id":"4","last_reported":1687221577,"current_range_meters":31200,"station_id":"ce4bgkh2rcd13ifvqbk0","pricing_plan_id":"free"},{"bike_id":"ac95fef6-aa90-48e0-8b21-dc11594c8b5c","system_id":"levelo_inurba_marseille","lat":43.2936,"lon":5.37835,"is_reserved":false,"is_disabled":false,"rental_uris":{"android":"levelo://app?vid=ac95fef6-aa90-48e0-8b21-dc11594c8b5c","ios":"levelo://app?vid=ac95fef6-aa90-48e0-8b21-dc11594c8b5c"},"vehicle_type_id":"4","last_reported":1687221577,"current_range_meters":28000,"station_id":"ce4bgjh2rcd13ifvqbf0","pricing_plan_id":"free"},{"bike_id":"2b743e15-9da0-4ae6-8622-d83d6ceb97d4","system_id":"levelo_inurba_marseille","lat":43.300852,"lon":5.390859,"is_reserved":false,"is_disabled":false,"rental_uris":{"android":"levelo://app?vid=2b743e15-9da0-4ae6-8622-d83d6ceb97d4","ios":"levelo://app?vid=2b743e15-9da0-4ae6-8622-d83d6ceb97d4"},"vehicle_type_id":"4","last_reported":1687221577,"current_range_meters":2000,"station_id":"ce4bh192rcd13ifvqdb0","pricing_plan_id":"free"},{"bike_id":"d871ee73-e2ea-493e-bafc-d0452f405f9d","system_id":"levelo_inurba_marseille","lat":43.292311,"lon":5.360731,"is_reserved":false,"is_disabled":false,"rental_uris":{"android":"levelo://app?vid=d871ee73-e2ea-493e-bafc-d0452f405f9d","ios":"levelo://app?vid=d871ee73-e2ea-493e-bafc-d0452f405f9d"},"vehicle_type_id":"4","last_reported":1687221577,"current_range_meters":15600,"station_id":"ce4bhbh2rcd13ifvqeqg","pricing_plan_id":"free"},{"bike_id":"e648c8a9-2c69-4d5a-a28e-8b5d9fc152d3","system_id":"levelo_inurba_marseille","lat":43.30886,"lon":5.39633,"is_reserved":false,"is_disabled":false,"rental_uris":{"android":"levelo://app?vid=e648c8a9-2c69-4d5a-a28e-8b5d9fc152d3","ios":"levelo://app?vid=e648c8a9-2c69-4d5a-a28e-8b5d9fc152d3"},"vehicle_type_id":"4","last_reported":1687221577,"current_range_meters":31200,"station_id":"","pricing_plan_id":"free"},{"bike_id":"d38c5de4-1b75-44fb-88b5-eb30bcdcd7d0","system_id":"levelo_inurba_marseille","lat":43.313243,"lon":5.396843,"is_reserved":false,"is_disabled":false,"rental_uris":{"android":"levelo://app?vid=d38c5de4-1b75-44fb-88b5-eb30bcdcd7d0","ios":"levelo://app?vid=d38c5de4-1b75-44fb-88b5-eb30bcdcd7d0"},"vehicle_type_id":"4","last_reported":1687221577,"current_range_meters":24400,"station_id":"","pricing_plan_id":"free"},{"bike_id":"3f83e679-263b-458e-957e-d63719441c76","system_id":"levelo_inurba_marseille","lat":43.313291,"lon":5.396838,"is_reserved":false,"is_disabled":false,"rental_uris":{"android":"levelo://app?vid=3f83e679-263b-458e-957e-d63719441c76","ios":"levelo://app?vid=3f83e679-263b-458e-957e-d63719441c76"},"vehicle_type_id":"4","last_reported":1687221577,"current_range_meters":31200,"station_id":"ce4bgvp2rcd13ifvqcu0","pricing_plan_id":"free"},{"bike_id":"06529458-7eb9-4188-a41f-b06a114f4aec","system_id":"levelo_inurba_marseille","lat":43.30884,"lon":5.39641,"is_reserved":false,"is_disabled":false,"rental_uris":{"android":"levelo://app?vid=06529458-7eb9-4188-a41f-b06a114f4aec","ios":"levelo://app?vid=06529458-7eb9-4188-a41f-b06a114f4aec"},"vehicle_type_id":"4","last_reported":1687221577,"current_range_meters":4000,"station_id":"ce4bh012rcd13ifvqcv0","pricing_plan_id":"free"},{"bike_id":"72636d7a-88f3-4a5d-9c89-4a02d33902f2","system_id":"levelo_inurba_marseille","lat":43.30881,"lon":5.39641,"is_reserved":false,"is_disabled":false,"rental_uris":{"android":"levelo://app?vid=72636d7a-88f3-4a5d-9c89-4a02d33902f2","ios":"levelo://app?vid=72636d7a-88f3-4a5d-9c89-4a02d33902f2"},"vehicle_type_id":"4","last_reported":1687221577,"current_range_meters":21600,"station_id":"","pricing_plan_id":"free"},{"bike_id":"46b50c70-7124-4ac8-b85a-076d1d159446","system_id":"levelo_inurba_marseille","lat":43.30884,"lon":5.39642,"is_reserved":false,"is_disabled":false,"rental_uris":{"android":"levelo://app?vid=46b50c70-7124-4ac8-b85a-076d1d159446","ios":"levelo://app?vid=46b50c70-7124-4ac8-b85a-076d1d159446"},"vehicle_type_id":"4","last_reported":1687221577,"current_range_meters":26400,"station_id":"ce4bh012rcd13ifvqcv0","pricing_plan_id":"free"},{"bike_id":"a16adc19-1a18-48f8-8a12-b00d11d9e196","system_id":"levelo_inurba_marseille","lat":43.30879,"lon":5.39643,"is_reserved":false,"is_disabled":false,"rental_uris":{"android":"levelo://app?vid=a16adc19-1a18-48f8-8a12-b00d11d9e196","ios":"levelo://app?vid=a16adc19-1a18-48f8-8a12-b00d11d9e196"},"vehicle_type_id":"4","last_reported":1687221577,"current_range_meters":24800,"station_id":"","pricing_plan_id":"free"},{"bike_id":"a81faee3-4c0a-43e2-9d66-555c28ab69e9","system_id":"levelo_inurba_marseille","lat":43.313291,"lon":5.396838,"is_reserved":false,"is_disabled":false,"rental_uris":{"android":"levelo://app?vid=a81faee3-4c0a-43e2-9d66-555c28ab69e9","ios":"levelo://app?vid=a81faee3-4c0a-43e2-9d66-555c28ab69e9"},"vehicle_type_id":"4","last_reported":1687221577,"current_range_meters":22000,"station_id":"ce4bgvp2rcd13ifvqcu0","pricing_plan_id":"free"},{"bike_id":"da837983-dad8-4798-a98a-cd4e35a3fd17","system_id":"levelo_inurba_marseille","lat":43.3088,"lon":5.39644,"is_reserved":false,"is_disabled":false,"rental_uris":{"android":"levelo://app?vid=da837983-dad8-4798-a98a-cd4e35a3fd17","ios":"levelo://app?vid=da837983-dad8-4798-a98a-cd4e35a3fd17"},"vehicle_type_id":"4","last_reported":1687221577,"current_range_meters":30800,"station_id":"ce4bh012rcd13ifvqcv0","pricing_plan_id":"free"},{"bike_id":"10f1402e-e933-4d13-8712-e71f90c3cd12","system_id":"levelo_inurba_marseille","lat":43.291994,"lon":5.357886,"is_reserved":false,"is_disabled":false,"rental_uris":{"android":"levelo://app?vid=10f1402e-e933-4d13-8712-e71f90c3cd12","ios":"levelo://app?vid=10f1402e-e933-4d13-8712-e71f90c3cd12"},"vehicle_type_id":"4","last_reported":1687221577,"current_range_meters":25200,"station_id":"ce4bhb12rcd13ifvqel0","pricing_plan_id":"free"},{"bike_id":"66858f7a-f534-41df-b787-12b95743dc45","system_id":"levelo_inurba_marseille","lat":43.30879,"lon":5.39647,"is_reserved":false,"is_disabled":false,"rental_uris":{"android":"levelo://app?vid=66858f7a-f534-41df-b787-12b95743dc45","ios":"levelo://app?vid=66858f7a-f534-41df-b787-12b95743dc45"},"vehicle_type_id":"4","last_reported":1687221577,"current_range_meters":31200,"station_id":"","pricing_plan_id":"free"},{"bike_id":"780e8151-2f7a-4307-9e7c-6bfa7ddf6d8e","system_id":"levelo_inurba_marseille","lat":43.30881,"lon":5.39648,"is_reserved":false,"is_disabled":false,"rental_uris":{"android":"levelo://app?vid=780e8151-2f7a-4307-9e7c-6bfa7ddf6d8e","ios":"levelo://app?vid=780e8151-2f7a-4307-9e7c-6bfa7ddf6d8e"},"vehicle_type_id":"4","last_reported":1687221577,"current_range_meters":18800,"station_id":"","pricing_plan_id":"free"},{"bike_id":"3f3cef94-9c2e-4039-825c-5421299dcaf4","system_id":"levelo_inurba_marseille","lat":43.30877,"lon":5.39648,"is_reserved":false,"is_disabled":false,"rental_uris":{"android":"levelo://app?vid=3f3cef94-9c2e-4039-825c-5421299dcaf4","ios":"levelo://app?vid=3f3cef94-9c2e-4039-825c-5421299dcaf4"},"vehicle_type_id":"4","last_reported":1687221577,"current_range_meters":22000,"station_id":"","pricing_plan_id":"free"},{"bike_id":"5b969d43-ba38-40e5-a672-826ce2f64c36","system_id":"levelo_inurba_marseille","lat":43.3088,"lon":5.39651,"is_reserved":false,"is_disabled":false,"rental_uris":{"android":"levelo://app?vid=5b969d43-ba38-40e5-a672-826ce2f64c36","ios":"levelo://app?vid=5b969d43-ba38-40e5-a672-826ce2f64c36"},"vehicle_type_id":"4","last_reported":1687221577,"current_range_meters":10400,"station_id":"","pricing_plan_id":"free"},{"bike_id":"9c044758-9a0f-4c18-a046-77248135096f","system_id":"levelo_inurba_marseille","lat":43.30883,"lon":5.39652,"is_reserved":false,"is_disabled":false,"rental_uris":{"android":"levelo://app?vid=9c044758-9a0f-4c18-a046-77248135096f","ios":"levelo://app?vid=9c044758-9a0f-4c18-a046-77248135096f"},"vehicle_type_id":"4","last_reported":1687221577,"current_range_meters":17200,"station_id":"ce4bh012rcd13ifvqcv0","pricing_plan_id":"free"},{"bike_id":"b9cf4c5e-b7bd-479b-a9d1-f3437f3216db","system_id":"levelo_inurba_marseille","lat":43.30882,"lon":5.39657,"is_reserved":false,"is_disabled":false,"rental_uris":{"android":"levelo://app?vid=b9cf4c5e-b7bd-479b-a9d1-f3437f3216db","ios":"levelo://app?vid=b9cf4c5e-b7bd-479b-a9d1-f3437f3216db"},"vehicle_type_id":"4","last_reported":1687221577,"current_range_meters":31200,"station_id":"","pricing_plan_id":"free"},{"bike_id":"16825454-3f9b-4efa-ac4f-134480ead278","system_id":"levelo_inurba_marseille","lat":43.30877,"lon":5.39656,"is_reserved":false,"is_disabled":false,"rental_uris":{"android":"levelo://app?vid=16825454-3f9b-4efa-ac4f-134480ead278","ios":"levelo://app?vid=16825454-3f9b-4efa-ac4f-134480ead278"},"vehicle_type_id":"4","last_reported":1687221577,"current_range_meters":24800,"station_id":"","pricing_plan_id":"free"},{"bike_id":"bc176c9f-0272-49a5-9cfa-debe67a3910d","system_id":"levelo_inurba_marseille","lat":43.309038,"lon":5.396546,"is_reserved":false,"is_disabled":false,"rental_uris":{"android":"levelo://app?vid=bc176c9f-0272-49a5-9cfa-debe67a3910d","ios":"levelo://app?vid=bc176c9f-0272-49a5-9cfa-debe67a3910d"},"vehicle_type_id":"4","last_reported":1687221577,"current_range_meters":0,"station_id":"ce4bh012rcd13ifvqcv0","pricing_plan_id":"free"},{"bike_id":"9c539148-0342-4ae4-bfcb-fafdbff067e2","system_id":"levelo_inurba_marseille","lat":43.308877,"lon":5.396603,"is_reserved":false,"is_disabled":false,"rental_uris":{"android":"levelo://app?vid=9c539148-0342-4ae4-bfcb-fafdbff067e2","ios":"levelo://app?vid=9c539148-0342-4ae4-bfcb-fafdbff067e2"},"vehicle_type_id":"4","last_reported":1687221577,"current_range_meters":24800,"station_id":"","pricing_plan_id":"free"},{"bike_id":"833ec9b5-85b8-44c0-9ff1-0f9b1d84dbbb","system_id":"levelo_inurba_marseille","lat":43.30888,"lon":5.39661,"is_reserved":false,"is_disabled":false,"rental_uris":{"android":"levelo://app?vid=833ec9b5-85b8-44c0-9ff1-0f9b1d84dbbb","ios":"levelo://app?vid=833ec9b5-85b8-44c0-9ff1-0f9b1d84dbbb"},"vehicle_type_id":"4","last_reported":1687221577,"current_range_meters":23600,"station_id":"ce4bh012rcd13ifvqcv0","pricing_plan_id":"free"},{"bike_id":"ca93611f-b3bf-4330-952a-b45aaf9b706a","system_id":"levelo_inurba_marseille","lat":43.308857,"lon":5.396615,"is_reserved":false,"is_disabled":false,"rental_uris":{"android":"levelo://app?vid=ca93611f-b3bf-4330-952a-b45aaf9b706a","ios":"levelo://app?vid=ca93611f-b3bf-4330-952a-b45aaf9b706a"},"vehicle_type_id":"4","last_reported":1687221577,"current_range_meters":10400,"station_id":"ce4bh012rcd13ifvqcv0","pricing_plan_id":"free"},{"bike_id":"f90f43ce-9af4-4c63-ae70-710f0f683093","system_id":"levelo_inurba_marseille","lat":43.308852,"lon":5.396616,"is_reserved":false,"is_disabled":false,"rental_uris":{"android":"levelo://app?vid=f90f43ce-9af4-4c63-ae70-710f0f683093","ios":"levelo://app?vid=f90f43ce-9af4-4c63-ae70-710f0f683093"},"vehicle_type_id":"4","last_reported":1687221577,"current_range_meters":31200,"station_id":"ce4bh012rcd13ifvqcv0","pricing_plan_id":"free"},{"bike_id":"387e6368-986b-4fac-aa76-37df4aec19b1","system_id":"levelo_inurba_marseille","lat":43.29534,"lon":5.38543,"is_reserved":false,"is_disabled":false,"rental_uris":{"android":"levelo://app?vid=387e6368-986b-4fac-aa76-37df4aec19b1","ios":"levelo://app?vid=387e6368-986b-4fac-aa76-37df4aec19b1"},"vehicle_type_id":"4","last_reported":1687221577,"current_range_meters":31200,"station_id":"ce4bgih2rcd13ifvqba0","pricing_plan_id":"free"},{"bike_id":"437f9e47-b581-4a81-9c4b-d77cb8468154","system_id":"levelo_inurba_marseille","lat":43.29532,"lon":5.3854,"is_reserved":false,"is_disabled":false,"rental_uris":{"android":"levelo://app?vid=437f9e47-b581-4a81-9c4b-d77cb8468154","ios":"levelo://app?vid=437f9e47-b581-4a81-9c4b-d77cb8468154"},"vehicle_type_id":"4","last_reported":1687221577,"current_range_meters":26000,"station_id":"ce4bgih2rcd13ifvqba0","pricing_plan_id":"free"},{"bike_id":"d7ec17da-c062-436f-a937-7b9ff940324d","system_id":"levelo_inurba_marseille","lat":43.2952,"lon":5.38521,"is_reserved":false,"is_disabled":false,"rental_uris":{"android":"levelo://app?vid=d7ec17da-c062-436f-a937-7b9ff940324d","ios":"levelo://app?vid=d7ec17da-c062-436f-a937-7b9ff940324d"},"vehicle_type_id":"4","last_reported":1687221577,"current_range_meters":22400,"station_id":"","pricing_plan_id":"free"},{"bike_id":"666a9d08-14e1-4483-bfc0-39ea00aa4f40","system_id":"levelo_inurba_marseille","lat":43.29531,"lon":5.38546,"is_reserved":false,"is_disabled":false,"rental_uris":{"android":"levelo://app?vid=666a9d08-14e1-4483-bfc0-39ea00aa4f40","ios":"levelo://app?vid=666a9d08-14e1-4483-bfc0-39ea00aa4f40"},"vehicle_type_id":"4","last_reported":1687221577,"current_range_meters":31200,"station_id":"ce4bgih2rcd13ifvqba0","pricing_plan_id":"free"},{"bike_id":"a8c7509b-d6cc-46bd-908c-c52d17ec8f76","system_id":"levelo_inurba_marseille","lat":43.29529,"lon":5.385581,"is_reserved":false,"is_disabled":false,"rental_uris":{"android":"levelo://app?vid=a8c7509b-d6cc-46bd-908c-c52d17ec8f76","ios":"levelo://app?vid=a8c7509b-d6cc-46bd-908c-c52d17ec8f76"},"vehicle_type_id":"4","last_reported":1687221577,"current_range_meters":28400,"station_id":"ce4bgih2rcd13ifvqba0","pricing_plan_id":"free"},{"bike_id":"9252f1f9-2017-4894-a3bb-07e89a912cb5","system_id":"levelo_inurba_marseille","lat":43.29137,"lon":5.37745,"is_reserved":false,"is_disabled":false,"rental_uris":{"android":"levelo://app?vid=9252f1f9-2017-4894-a3bb-07e89a912cb5","ios":"levelo://app?vid=9252f1f9-2017-4894-a3bb-07e89a912cb5"},"vehicle_type_id":"4","last_reported":1687221577,"current_range_meters":8400,"station_id":"","pricing_plan_id":"free"},{"bike_id":"fa3bd753-7519-40c8-a097-4d26769e1752","system_id":"levelo_inurba_marseille","lat":43.302008,"lon":5.394694,"is_reserved":false,"is_disabled":false,"rental_uris":{"android":"levelo://app?vid=fa3bd753-7519-40c8-a097-4d26769e1752","ios":"levelo://app?vid=fa3bd753-7519-40c8-a097-4d26769e1752"},"vehicle_type_id":"4","last_reported":1687221577,"current_range_meters":18400,"station_id":"ce4bh0p2rcd13ifvqd70","pricing_plan_id":"free"},{"bike_id":"bc241a22-62ce-41a1-83e4-c0693b26dbba","system_id":"levelo_inurba_marseille","lat":43.302008,"lon":5.394694,"is_reserved":false,"is_disabled":false,"rental_uris":{"android":"levelo://app?vid=bc241a22-62ce-41a1-83e4-c0693b26dbba","ios":"levelo://app?vid=bc241a22-62ce-41a1-83e4-c0693b26dbba"},"vehicle_type_id":"4","last_reported":1687221577,"current_range_meters":8400,"station_id":"ce4bh0p2rcd13ifvqd70","pricing_plan_id":"free"},{"bike_id":"b932a579-fa7a-43d0-b714-4fe998fd1ca3","system_id":"levelo_inurba_marseille","lat":43.290631,"lon":5.359244,"is_reserved":false,"is_disabled":false,"rental_uris":{"android":"levelo://app?vid=b932a579-fa7a-43d0-b714-4fe998fd1ca3","ios":"levelo://app?vid=b932a579-fa7a-43d0-b714-4fe998fd1ca3"},"vehicle_type_id":"4","last_reported":1687221577,"current_range_meters":30000,"station_id":"ce4bha92rcd13ifvqeg0","pricing_plan_id":"free"},{"bike_id":"c68db951-f64e-4409-a262-1fb1c9870265","system_id":"levelo_inurba_marseille","lat":43.29041,"lon":5.35915,"is_reserved":false,"is_disabled":false,"rental_uris":{"android":"levelo://app?vid=c68db951-f64e-4409-a262-1fb1c9870265","ios":"levelo://app?vid=c68db951-f64e-4409-a262-1fb1c9870265"},"vehicle_type_id":"4","last_reported":1687221577,"current_range_meters":31200,"station_id":"","pricing_plan_id":"free"},{"bike_id":"08297025-671f-40f9-90f9-0d6ccbad1dd6","system_id":"levelo_inurba_marseille","lat":43.289184,"lon":5.366408,"is_reserved":false,"is_disabled":false,"rental_uris":{"android":"levelo://app?vid=08297025-671f-40f9-90f9-0d6ccbad1dd6","ios":"levelo://app?vid=08297025-671f-40f9-90f9-0d6ccbad1dd6"},"vehicle_type_id":"4","last_reported":1687221577,"current_range_meters":27600,"station_id":"ce4bhap2rcd13ifvqek0","pricing_plan_id":"free"},{"bike_id":"13996ae2-4dac-4749-b815-c9135c2ef0e4","system_id":"levelo_inurba_marseille","lat":43.28943,"lon":5.3664,"is_reserved":false,"is_disabled":false,"rental_uris":{"android":"levelo://app?vid=13996ae2-4dac-4749-b815-c9135c2ef0e4","ios":"levelo://app?vid=13996ae2-4dac-4749-b815-c9135c2ef0e4"},"vehicle_type_id":"4","last_reported":1687221577,"current_range_meters":31200,"station_id":"","pricing_plan_id":"free"},{"bike_id":"6f7daecf-47d9-43ca-b607-ed4c8003beca","system_id":"levelo_inurba_marseille","lat":43.289184,"lon":5.366408,"is_reserved":false,"is_disabled":false,"rental_uris":{"android":"levelo://app?vid=6f7daecf-47d9-43ca-b607-ed4c8003beca","ios":"levelo://app?vid=6f7daecf-47d9-43ca-b607-ed4c8003beca"},"vehicle_type_id":"4","last_reported":1687221577,"current_range_meters":14000,"station_id":"ce4bhap2rcd13ifvqek0","pricing_plan_id":"free"},{"bike_id":"bee16c1e-f84c-46d2-b97f-ae246b01b0e5","system_id":"levelo_inurba_marseille","lat":43.289184,"lon":5.366408,"is_reserved":false,"is_disabled":false,"rental_uris":{"android":"levelo://app?vid=bee16c1e-f84c-46d2-b97f-ae246b01b0e5","ios":"levelo://app?vid=bee16c1e-f84c-46d2-b97f-ae246b01b0e5"},"vehicle_type_id":"4","last_reported":1687221577,"current_range_meters":30400,"station_id":"ce4bhap2rcd13ifvqek0","pricing_plan_id":"free"},{"bike_id":"737d5716-ef6d-4bfb-bdc7-d634eb75ef0b","system_id":"levelo_inurba_marseille","lat":43.28936,"lon":5.3664,"is_reserved":false,"is_disabled":false,"rental_uris":{"android":"levelo://app?vid=737d5716-ef6d-4bfb-bdc7-d634eb75ef0b","ios":"levelo://app?vid=737d5716-ef6d-4bfb-bdc7-d634eb75ef0b"},"vehicle_type_id":"4","last_reported":1687221577,"current_range_meters":30800,"station_id":"ce4bhap2rcd13ifvqek0","pricing_plan_id":"free"},{"bike_id":"86204a71-32f7-48a3-b865-0fd0dea3e79b","system_id":"levelo_inurba_marseille","lat":43.28936,"lon":5.36636,"is_reserved":false,"is_disabled":false,"rental_uris":{"android":"levelo://app?vid=86204a71-32f7-48a3-b865-0fd0dea3e79b","ios":"levelo://app?vid=86204a71-32f7-48a3-b865-0fd0dea3e79b"},"vehicle_type_id":"4","last_reported":1687221577,"current_range_meters":30400,"station_id":"ce4bhap2rcd13ifvqek0","pricing_plan_id":"free"},{"bike_id":"0609f09b-61e5-40d1-a057-3a5b9409ddd1","system_id":"levelo_inurba_marseille","lat":43.29411,"lon":5.38639,"is_reserved":false,"is_disabled":false,"rental_uris":{"android":"levelo://app?vid=0609f09b-61e5-40d1-a057-3a5b9409ddd1","ios":"levelo://app?vid=0609f09b-61e5-40d1-a057-3a5b9409ddd1"},"vehicle_type_id":"4","last_reported":1687221577,"current_range_meters":27600,"station_id":"ce4bh2h2rcd13ifvqdh0","pricing_plan_id":"free"},{"bike_id":"253795c1-45b2-4c07-89a5-34d2564de43f","system_id":"levelo_inurba_marseille","lat":43.289184,"lon":5.366408,"is_reserved":false,"is_disabled":false,"rental_uris":{"android":"levelo://app?vid=253795c1-45b2-4c07-89a5-34d2564de43f","ios":"levelo://app?vid=253795c1-45b2-4c07-89a5-34d2564de43f"},"vehicle_type_id":"4","last_reported":1687221577,"current_range_meters":31200,"station_id":"ce4bhap2rcd13ifvqek0","pricing_plan_id":"free"},{"bike_id":"3a98a594-78a7-4792-86ab-889e66ec5c37","system_id":"levelo_inurba_marseille","lat":43.28929,"lon":5.36631,"is_reserved":false,"is_disabled":false,"rental_uris":{"android":"levelo://app?vid=3a98a594-78a7-4792-86ab-889e66ec5c37","ios":"levelo://app?vid=3a98a594-78a7-4792-86ab-889e66ec5c37"},"vehicle_type_id":"4","last_reported":1687221577,"current_range_meters":0,"station_id":"ce4bhap2rcd13ifvqek0","pricing_plan_id":"free"},{"bike_id":"130f1b1d-a7f8-4684-b640-85b60b02f8d7","system_id":"levelo_inurba_marseille","lat":43.289468,"lon":5.363719,"is_reserved":false,"is_disabled":false,"rental_uris":{"android":"levelo://app?vid=130f1b1d-a7f8-4684-b640-85b60b02f8d7","ios":"levelo://app?vid=130f1b1d-a7f8-4684-b640-85b60b02f8d7"},"vehicle_type_id":"4","last_reported":1687221577,"current_range_meters":16000,"station_id":"ce4bhc92rcd13ifvqetg","pricing_plan_id":"free"},{"bike_id":"b7b1800d-3fde-400e-a7b0-1f83fae1e0c3","system_id":"levelo_inurba_marseille","lat":43.304296,"lon":5.397513,"is_reserved":false,"is_disabled":false,"rental_uris":{"android":"levelo://app?vid=b7b1800d-3fde-400e-a7b0-1f83fae1e0c3","ios":"levelo://app?vid=b7b1800d-3fde-400e-a7b0-1f83fae1e0c3"},"vehicle_type_id":"4","last_reported":1687221577,"current_range_meters":21200,"station_id":"ce4bh092rcd13ifvqd20","pricing_plan_id":"free"},{"bike_id":"38eb09af-7166-42b9-865e-84246929498f","system_id":"levelo_inurba_marseille","lat":43.292644,"lon":5.384257,"is_reserved":false,"is_disabled":false,"rental_uris":{"android":"levelo://app?vid=38eb09af-7166-42b9-865e-84246929498f","ios":"levelo://app?vid=38eb09af-7166-42b9-865e-84246929498f"},"vehicle_type_id":"4","last_reported":1687221577,"current_range_meters":31200,"station_id":"ce4bh692rcd13ifvqea0","pricing_plan_id":"free"},{"bike_id":"474c64f1-54c8-47eb-a881-1854d735eee9","system_id":"levelo_inurba_marseille","lat":43.304296,"lon":5.397513,"is_reserved":false,"is_disabled":false,"rental_uris":{"android":"levelo://app?vid=474c64f1-54c8-47eb-a881-1854d735eee9","ios":"levelo://app?vid=474c64f1-54c8-47eb-a881-1854d735eee9"},"vehicle_type_id":"4","last_reported":1687221577,"current_range_meters":30800,"station_id":"ce4bh092rcd13ifvqd20","pricing_plan_id":"free"},{"bike_id":"ec3c8939-a1ee-4f5d-a00c-6fa1b447e878","system_id":"levelo_inurba_marseille","lat":43.33041,"lon":5.38916,"is_reserved":false,"is_disabled":false,"rental_uris":{"android":"levelo://app?vid=ec3c8939-a1ee-4f5d-a00c-6fa1b447e878","ios":"levelo://app?vid=ec3c8939-a1ee-4f5d-a00c-6fa1b447e878"},"vehicle_type_id":"4","last_reported":1687221577,"current_range_meters":14000,"station_id":"ce4bhr92rcd13ifvqhrg","pricing_plan_id":"free"},{"bike_id":"a2910c65-f8d5-465e-b057-01d7ad4c9d21","system_id":"levelo_inurba_marseille","lat":43.33044,"lon":5.38914,"is_reserved":false,"is_disabled":false,"rental_uris":{"android":"levelo://app?vid=a2910c65-f8d5-465e-b057-01d7ad4c9d21","ios":"levelo://app?vid=a2910c65-f8d5-465e-b057-01d7ad4c9d21"},"vehicle_type_id":"4","last_reported":1687221577,"current_range_meters":11600,"station_id":"ce4bhr92rcd13ifvqhrg","pricing_plan_id":"free"},{"bike_id":"11af598e-2ad7-43d4-9844-d69140fb5624","system_id":"levelo_inurba_marseille","lat":43.29006,"lon":5.35623,"is_reserved":false,"is_disabled":false,"rental_uris":{"android":"levelo://app?vid=11af598e-2ad7-43d4-9844-d69140fb5624","ios":"levelo://app?vid=11af598e-2ad7-43d4-9844-d69140fb5624"},"vehicle_type_id":"4","last_reported":1687221577,"current_range_meters":8000,"station_id":"ce4bhb92rcd13ifvqen0","pricing_plan_id":"free"},{"bike_id":"a4409ec9-4769-46eb-9be2-9b049ea178b0","system_id":"levelo_inurba_marseille","lat":43.290103,"lon":5.356114,"is_reserved":false,"is_disabled":false,"rental_uris":{"android":"levelo://app?vid=a4409ec9-4769-46eb-9be2-9b049ea178b0","ios":"levelo://app?vid=a4409ec9-4769-46eb-9be2-9b049ea178b0"},"vehicle_type_id":"4","last_reported":1687221577,"current_range_meters":18400,"station_id":"ce4bhb92rcd13ifvqen0","pricing_plan_id":"free"},{"bike_id":"ecc4fbfe-54d6-4b1e-b301-e4552d8086e5","system_id":"levelo_inurba_marseille","lat":43.33042,"lon":5.38928,"is_reserved":false,"is_disabled":false,"rental_uris":{"android":"levelo://app?vid=ecc4fbfe-54d6-4b1e-b301-e4552d8086e5","ios":"levelo://app?vid=ecc4fbfe-54d6-4b1e-b301-e4552d8086e5"},"vehicle_type_id":"4","last_reported":1687221577,"current_range_meters":17600,"station_id":"ce4bhr92rcd13ifvqhrg","pricing_plan_id":"free"},{"bike_id":"ca987208-2e5f-4b9a-9655-1622e1fb4636","system_id":"levelo_inurba_marseille","lat":43.290995,"lon":5.381361,"is_reserved":false,"is_disabled":false,"rental_uris":{"android":"levelo://app?vid=ca987208-2e5f-4b9a-9655-1622e1fb4636","ios":"levelo://app?vid=ca987208-2e5f-4b9a-9655-1622e1fb4636"},"vehicle_type_id":"4","last_reported":1687221577,"current_range_meters":28400,"station_id":"ce4bh512rcd13ifvqe2g","pricing_plan_id":"free"},{"bike_id":"aa1817e6-a669-4065-9318-740260c08cc5","system_id":"levelo_inurba_marseille","lat":43.297815,"lon":5.393548,"is_reserved":false,"is_disabled":false,"rental_uris":{"android":"levelo://app?vid=aa1817e6-a669-4065-9318-740260c08cc5","ios":"levelo://app?vid=aa1817e6-a669-4065-9318-740260c08cc5"},"vehicle_type_id":"4","last_reported":1687221577,"current_range_meters":2000,"station_id":"chh1huq6cuj3fo74tm60","pricing_plan_id":"free"},{"bike_id":"f46e70b2-23fb-4169-b0d2-4bc0f8f84981","system_id":"levelo_inurba_marseille","lat":43.295169,"lon":5.390426,"is_reserved":false,"is_disabled":false,"rental_uris":{"android":"levelo://app?vid=f46e70b2-23fb-4169-b0d2-4bc0f8f84981","ios":"levelo://app?vid=f46e70b2-23fb-4169-b0d2-4bc0f8f84981"},"vehicle_type_id":"4","last_reported":1687221577,"current_range_meters":27600,"station_id":"ce4bh3p2rcd13ifvqdp0","pricing_plan_id":"free"},{"bike_id":"9b179c0a-cc15-4236-b7b9-41d4bee1763a","system_id":"levelo_inurba_marseille","lat":43.297815,"lon":5.393548,"is_reserved":false,"is_disabled":false,"rental_uris":{"android":"levelo://app?vid=9b179c0a-cc15-4236-b7b9-41d4bee1763a","ios":"levelo://app?vid=9b179c0a-cc15-4236-b7b9-41d4bee1763a"},"vehicle_type_id":"4","last_reported":1687221577,"current_range_meters":19600,"station_id":"chh1huq6cuj3fo74tm60","pricing_plan_id":"free"},{"bike_id":"c7822edc-2de2-431a-aadd-f9386545bd86","system_id":"levelo_inurba_marseille","lat":43.297815,"lon":5.393548,"is_reserved":false,"is_disabled":false,"rental_uris":{"android":"levelo://app?vid=c7822edc-2de2-431a-aadd-f9386545bd86","ios":"levelo://app?vid=c7822edc-2de2-431a-aadd-f9386545bd86"},"vehicle_type_id":"4","last_reported":1687221577,"current_range_meters":10800,"station_id":"chh1huq6cuj3fo74tm60","pricing_plan_id":"free"},{"bike_id":"b9b44b37-7edf-4ab6-8685-17eb58a26dbc","system_id":"levelo_inurba_marseille","lat":43.29526,"lon":5.39041,"is_reserved":false,"is_disabled":false,"rental_uris":{"android":"levelo://app?vid=b9b44b37-7edf-4ab6-8685-17eb58a26dbc","ios":"levelo://app?vid=b9b44b37-7edf-4ab6-8685-17eb58a26dbc"},"vehicle_type_id":"4","last_reported":1687221577,"current_range_meters":31200,"station_id":"ce4bh3p2rcd13ifvqdp0","pricing_plan_id":"free"},{"bike_id":"dc6d280e-ed78-4e01-bb80-12a91b453e57","system_id":"levelo_inurba_marseille","lat":43.29512,"lon":5.39036,"is_reserved":false,"is_disabled":false,"rental_uris":{"android":"levelo://app?vid=dc6d280e-ed78-4e01-bb80-12a91b453e57","ios":"levelo://app?vid=dc6d280e-ed78-4e01-bb80-12a91b453e57"},"vehicle_type_id":"4","last_reported":1687221577,"current_range_meters":31200,"station_id":"ce4bh3p2rcd13ifvqdp0","pricing_plan_id":"free"},{"bike_id":"54590e75-dc5a-4a8a-b9c5-a0a5343a8aa3","system_id":"levelo_inurba_marseille","lat":43.289741,"lon":5.378306,"is_reserved":false,"is_disabled":false,"rental_uris":{"android":"levelo://app?vid=54590e75-dc5a-4a8a-b9c5-a0a5343a8aa3","ios":"levelo://app?vid=54590e75-dc5a-4a8a-b9c5-a0a5343a8aa3"},"vehicle_type_id":"4","last_reported":1687221577,"current_range_meters":30000,"station_id":"ce4bh9p2rcd13ifvqed0","pricing_plan_id":"free"},{"bike_id":"2c823435-0bbd-4e98-bd7f-853235a479e2","system_id":"levelo_inurba_marseille","lat":43.289741,"lon":5.378306,"is_reserved":false,"is_disabled":false,"rental_uris":{"android":"levelo://app?vid=2c823435-0bbd-4e98-bd7f-853235a479e2","ios":"levelo://app?vid=2c823435-0bbd-4e98-bd7f-853235a479e2"},"vehicle_type_id":"4","last_reported":1687221577,"current_range_meters":27200,"station_id":"ce4bh9p2rcd13ifvqed0","pricing_plan_id":"free"},{"bike_id":"4e42d55c-2cef-4129-88a6-703c7d1391a5","system_id":"levelo_inurba_marseille","lat":43.306412,"lon":5.401035,"is_reserved":false,"is_disabled":false,"rental_uris":{"android":"levelo://app?vid=4e42d55c-2cef-4129-88a6-703c7d1391a5","ios":"levelo://app?vid=4e42d55c-2cef-4129-88a6-703c7d1391a5"},"vehicle_type_id":"4","last_reported":1687221577,"current_range_meters":14400,"station_id":"ce4bh112rcd13ifvqda0","pricing_plan_id":"free"},{"bike_id":"c9ef4663-4da3-427f-8e40-f9f5df031a67","system_id":"levelo_inurba_marseille","lat":43.30934,"lon":5.40149,"is_reserved":false,"is_disabled":false,"rental_uris":{"android":"levelo://app?vid=c9ef4663-4da3-427f-8e40-f9f5df031a67","ios":"levelo://app?vid=c9ef4663-4da3-427f-8e40-f9f5df031a67"},"vehicle_type_id":"4","last_reported":1687221577,"current_range_meters":22400,"station_id":"ce4bgvp2rcd13ifvqct0","pricing_plan_id":"free"},{"bike_id":"bb61ec57-0013-49ee-87a0-7c128afa5a93","system_id":"levelo_inurba_marseille","lat":43.309371,"lon":5.401449,"is_reserved":false,"is_disabled":false,"rental_uris":{"android":"levelo://app?vid=bb61ec57-0013-49ee-87a0-7c128afa5a93","ios":"levelo://app?vid=bb61ec57-0013-49ee-87a0-7c128afa5a93"},"vehicle_type_id":"4","last_reported":1687221577,"current_range_meters":22000,"station_id":"ce4bgvp2rcd13ifvqct0","pricing_plan_id":"free"},{"bike_id":"c00a9517-b434-4929-ae6d-ac0761f89590","system_id":"levelo_inurba_marseille","lat":43.30641,"lon":5.40072,"is_reserved":false,"is_disabled":false,"rental_uris":{"android":"levelo://app?vid=c00a9517-b434-4929-ae6d-ac0761f89590","ios":"levelo://app?vid=c00a9517-b434-4929-ae6d-ac0761f89590"},"vehicle_type_id":"4","last_reported":1687221577,"current_range_meters":8000,"station_id":"ce4bh112rcd13ifvqda0","pricing_plan_id":"free"},{"bike_id":"41a8749b-6d93-4d1b-8e52-c5f60f65ae7c","system_id":"levelo_inurba_marseille","lat":43.33756,"lon":5.3745,"is_reserved":false,"is_disabled":false,"rental_uris":{"android":"levelo://app?vid=41a8749b-6d93-4d1b-8e52-c5f60f65ae7c","ios":"levelo://app?vid=41a8749b-6d93-4d1b-8e52-c5f60f65ae7c"},"vehicle_type_id":"4","last_reported":1687221577,"current_range_meters":29600,"station_id":"","pricing_plan_id":"free"},{"bike_id":"11dbdfab-c63b-4465-a5f0-6be39a3c28ae","system_id":"levelo_inurba_marseille","lat":43.306412,"lon":5.401035,"is_reserved":false,"is_disabled":false,"rental_uris":{"android":"levelo://app?vid=11dbdfab-c63b-4465-a5f0-6be39a3c28ae","ios":"levelo://app?vid=11dbdfab-c63b-4465-a5f0-6be39a3c28ae"},"vehicle_type_id":"4","last_reported":1687221577,"current_range_meters":0,"station_id":"ce4bh112rcd13ifvqda0","pricing_plan_id":"free"},{"bike_id":"5c485a33-2430-456b-afb3-307aac6a8424","system_id":"levelo_inurba_marseille","lat":43.3376,"lon":5.37445,"is_reserved":false,"is_disabled":false,"rental_uris":{"android":"levelo://app?vid=5c485a33-2430-456b-afb3-307aac6a8424","ios":"levelo://app?vid=5c485a33-2430-456b-afb3-307aac6a8424"},"vehicle_type_id":"4","last_reported":1687221577,"current_range_meters":23600,"station_id":"","pricing_plan_id":"free"},{"bike_id":"54dd9ff6-8947-40a4-9851-f6ab53f196c7","system_id":"levelo_inurba_marseille","lat":43.30921,"lon":5.4016,"is_reserved":false,"is_disabled":false,"rental_uris":{"android":"levelo://app?vid=54dd9ff6-8947-40a4-9851-f6ab53f196c7","ios":"levelo://app?vid=54dd9ff6-8947-40a4-9851-f6ab53f196c7"},"vehicle_type_id":"4","last_reported":1687221577,"current_range_meters":11600,"station_id":"ce4bgvp2rcd13ifvqct0","pricing_plan_id":"free"},{"bike_id":"597f3c43-c39f-4923-a2b3-d905b18f3e9a","system_id":"levelo_inurba_marseille","lat":43.30645,"lon":5.40089,"is_reserved":false,"is_disabled":false,"rental_uris":{"android":"levelo://app?vid=597f3c43-c39f-4923-a2b3-d905b18f3e9a","ios":"levelo://app?vid=597f3c43-c39f-4923-a2b3-d905b18f3e9a"},"vehicle_type_id":"4","last_reported":1687221577,"current_range_meters":8400,"station_id":"ce4bh112rcd13ifvqda0","pricing_plan_id":"free"},{"bike_id":"42a2a75a-9d72-4603-bca9-e6720bab50e0","system_id":"levelo_inurba_marseille","lat":43.306412,"lon":5.401035,"is_reserved":false,"is_disabled":false,"rental_uris":{"android":"levelo://app?vid=42a2a75a-9d72-4603-bca9-e6720bab50e0","ios":"levelo://app?vid=42a2a75a-9d72-4603-bca9-e6720bab50e0"},"vehicle_type_id":"4","last_reported":1687221577,"current_range_meters":22400,"station_id":"ce4bh112rcd13ifvqda0","pricing_plan_id":"free"},{"bike_id":"2bd08979-1d7f-4e57-929e-22f08880daa5","system_id":"levelo_inurba_marseille","lat":43.30809,"lon":5.40144,"is_reserved":false,"is_disabled":false,"rental_uris":{"android":"levelo://app?vid=2bd08979-1d7f-4e57-929e-22f08880daa5","ios":"levelo://app?vid=2bd08979-1d7f-4e57-929e-22f08880daa5"},"vehicle_type_id":"4","last_reported":1687221577,"current_range_meters":17200,"station_id":"","pricing_plan_id":"free"},{"bike_id":"b3f03265-6566-4785-a2bf-57416d75a7ff","system_id":"levelo_inurba_marseille","lat":43.30645,"lon":5.40099,"is_reserved":false,"is_disabled":false,"rental_uris":{"android":"levelo://app?vid=b3f03265-6566-4785-a2bf-57416d75a7ff","ios":"levelo://app?vid=b3f03265-6566-4785-a2bf-57416d75a7ff"},"vehicle_type_id":"4","last_reported":1687221577,"current_range_meters":15200,"station_id":"ce4bh112rcd13ifvqda0","pricing_plan_id":"free"},{"bike_id":"ffb50a68-6223-439c-9184-38e5fdfb49a2","system_id":"levelo_inurba_marseille","lat":43.306412,"lon":5.401035,"is_reserved":false,"is_disabled":false,"rental_uris":{"android":"levelo://app?vid=ffb50a68-6223-439c-9184-38e5fdfb49a2","ios":"levelo://app?vid=ffb50a68-6223-439c-9184-38e5fdfb49a2"},"vehicle_type_id":"4","last_reported":1687221577,"current_range_meters":16800,"station_id":"ce4bh112rcd13ifvqda0","pricing_plan_id":"free"},{"bike_id":"b34b0b72-8cc8-4086-a968-440a07c19996","system_id":"levelo_inurba_marseille","lat":43.30591,"lon":5.40096,"is_reserved":false,"is_disabled":false,"rental_uris":{"android":"levelo://app?vid=b34b0b72-8cc8-4086-a968-440a07c19996","ios":"levelo://app?vid=b34b0b72-8cc8-4086-a968-440a07c19996"},"vehicle_type_id":"4","last_reported":1687221577,"current_range_meters":14400,"station_id":"","pricing_plan_id":"free"},{"bike_id":"53f21114-10d8-4fe5-9569-e3085a0c14e9","system_id":"levelo_inurba_marseille","lat":43.301117,"lon":5.398795,"is_reserved":false,"is_disabled":false,"rental_uris":{"android":"levelo://app?vid=53f21114-10d8-4fe5-9569-e3085a0c14e9","ios":"levelo://app?vid=53f21114-10d8-4fe5-9569-e3085a0c14e9"},"vehicle_type_id":"4","last_reported":1687221577,"current_range_meters":31200,"station_id":"ce4bh0h2rcd13ifvqd40","pricing_plan_id":"free"},{"bike_id":"4f3acb95-03ce-46d2-997f-884236c10e82","system_id":"levelo_inurba_marseille","lat":43.301169,"lon":5.398556,"is_reserved":false,"is_disabled":false,"rental_uris":{"android":"levelo://app?vid=4f3acb95-03ce-46d2-997f-884236c10e82","ios":"levelo://app?vid=4f3acb95-03ce-46d2-997f-884236c10e82"},"vehicle_type_id":"4","last_reported":1687221577,"current_range_meters":27200,"station_id":"ce4bh0h2rcd13ifvqd40","pricing_plan_id":"free"},{"bike_id":"f2a370ec-6d9e-4a74-a332-c950fa09e1b5","system_id":"levelo_inurba_marseille","lat":43.301117,"lon":5.398795,"is_reserved":false,"is_disabled":false,"rental_uris":{"android":"levelo://app?vid=f2a370ec-6d9e-4a74-a332-c950fa09e1b5","ios":"levelo://app?vid=f2a370ec-6d9e-4a74-a332-c950fa09e1b5"},"vehicle_type_id":"4","last_reported":1687221577,"current_range_meters":18000,"station_id":"ce4bh0h2rcd13ifvqd40","pricing_plan_id":"free"},{"bike_id":"6c4bd579-d1fa-45f7-bc18-bcf48c446c58","system_id":"levelo_inurba_marseille","lat":43.30121,"lon":5.39863,"is_reserved":false,"is_disabled":false,"rental_uris":{"android":"levelo://app?vid=6c4bd579-d1fa-45f7-bc18-bcf48c446c58","ios":"levelo://app?vid=6c4bd579-d1fa-45f7-bc18-bcf48c446c58"},"vehicle_type_id":"4","last_reported":1687221577,"current_range_meters":18800,"station_id":"ce4bh0h2rcd13ifvqd40","pricing_plan_id":"free"},{"bike_id":"b3693130-0fbb-4a60-acad-7a6735772b64","system_id":"levelo_inurba_marseille","lat":43.301117,"lon":5.398795,"is_reserved":false,"is_disabled":false,"rental_uris":{"android":"levelo://app?vid=b3693130-0fbb-4a60-acad-7a6735772b64","ios":"levelo://app?vid=b3693130-0fbb-4a60-acad-7a6735772b64"},"vehicle_type_id":"4","last_reported":1687221577,"current_range_meters":20800,"station_id":"ce4bh0h2rcd13ifvqd40","pricing_plan_id":"free"},{"bike_id":"1d760ba4-9bfc-4091-9ede-36f68b9d8078","system_id":"levelo_inurba_marseille","lat":43.301117,"lon":5.398795,"is_reserved":false,"is_disabled":false,"rental_uris":{"android":"levelo://app?vid=1d760ba4-9bfc-4091-9ede-36f68b9d8078","ios":"levelo://app?vid=1d760ba4-9bfc-4091-9ede-36f68b9d8078"},"vehicle_type_id":"4","last_reported":1687221577,"current_range_meters":31200,"station_id":"ce4bh0h2rcd13ifvqd40","pricing_plan_id":"free"},{"bike_id":"a3a9a261-1fff-4342-8a91-0a4a27bf8193","system_id":"levelo_inurba_marseille","lat":43.30131,"lon":5.39882,"is_reserved":false,"is_disabled":false,"rental_uris":{"android":"levelo://app?vid=a3a9a261-1fff-4342-8a91-0a4a27bf8193","ios":"levelo://app?vid=a3a9a261-1fff-4342-8a91-0a4a27bf8193"},"vehicle_type_id":"4","last_reported":1687221577,"current_range_meters":10400,"station_id":"ce4bh0h2rcd13ifvqd40","pricing_plan_id":"free"},{"bike_id":"7efe4a73-89fe-44a5-aa42-6d291b9bea8b","system_id":"levelo_inurba_marseille","lat":43.30124,"lon":5.39882,"is_reserved":false,"is_disabled":false,"rental_uris":{"android":"levelo://app?vid=7efe4a73-89fe-44a5-aa42-6d291b9bea8b","ios":"levelo://app?vid=7efe4a73-89fe-44a5-aa42-6d291b9bea8b"},"vehicle_type_id":"4","last_reported":1687221577,"current_range_meters":22800,"station_id":"ce4bh0h2rcd13ifvqd40","pricing_plan_id":"free"},{"bike_id":"949ffa0f-fd5d-4228-b4f5-557d9e77b48f","system_id":"levelo_inurba_marseille","lat":43.28721,"lon":5.3739,"is_reserved":false,"is_disabled":false,"rental_uris":{"android":"levelo://app?vid=949ffa0f-fd5d-4228-b4f5-557d9e77b48f","ios":"levelo://app?vid=949ffa0f-fd5d-4228-b4f5-557d9e77b48f"},"vehicle_type_id":"4","last_reported":1687221577,"current_range_meters":30000,"station_id":"ce4bh3p2rcd13ifvqdq0","pricing_plan_id":"free"},{"bike_id":"7a6f15a6-ec12-4715-9c04-7103b414ff99","system_id":"levelo_inurba_marseille","lat":43.298681,"lon":5.397225,"is_reserved":false,"is_disabled":false,"rental_uris":{"android":"levelo://app?vid=7a6f15a6-ec12-4715-9c04-7103b414ff99","ios":"levelo://app?vid=7a6f15a6-ec12-4715-9c04-7103b414ff99"},"vehicle_type_id":"4","last_reported":1687221577,"current_range_meters":26400,"station_id":"ce4bh0h2rcd13ifvqd50","pricing_plan_id":"free"},{"bike_id":"d3cc82bc-6e21-4d51-b2ba-207d7cb74e28","system_id":"levelo_inurba_marseille","lat":43.298681,"lon":5.397225,"is_reserved":false,"is_disabled":false,"rental_uris":{"android":"levelo://app?vid=d3cc82bc-6e21-4d51-b2ba-207d7cb74e28","ios":"levelo://app?vid=d3cc82bc-6e21-4d51-b2ba-207d7cb74e28"},"vehicle_type_id":"4","last_reported":1687221577,"current_range_meters":18000,"station_id":"ce4bh0h2rcd13ifvqd50","pricing_plan_id":"free"},{"bike_id":"9c4783ec-70c3-4644-8cc1-31ec8046ceee","system_id":"levelo_inurba_marseille","lat":43.298681,"lon":5.397225,"is_reserved":false,"is_disabled":false,"rental_uris":{"android":"levelo://app?vid=9c4783ec-70c3-4644-8cc1-31ec8046ceee","ios":"levelo://app?vid=9c4783ec-70c3-4644-8cc1-31ec8046ceee"},"vehicle_type_id":"4","last_reported":1687221577,"current_range_meters":30000,"station_id":"ce4bh0h2rcd13ifvqd50","pricing_plan_id":"free"},{"bike_id":"ad647661-d627-46c9-b65d-e8884726530c","system_id":"levelo_inurba_marseille","lat":43.298681,"lon":5.397225,"is_reserved":false,"is_disabled":false,"rental_uris":{"android":"levelo://app?vid=ad647661-d627-46c9-b65d-e8884726530c","ios":"levelo://app?vid=ad647661-d627-46c9-b65d-e8884726530c"},"vehicle_type_id":"4","last_reported":1687221577,"current_range_meters":30400,"station_id":"ce4bh0h2rcd13ifvqd50","pricing_plan_id":"free"},{"bike_id":"1b42baf5-7194-4b55-a4fc-62cb560a4312","system_id":"levelo_inurba_marseille","lat":43.298681,"lon":5.397225,"is_reserved":false,"is_disabled":false,"rental_uris":{"android":"levelo://app?vid=1b42baf5-7194-4b55-a4fc-62cb560a4312","ios":"levelo://app?vid=1b42baf5-7194-4b55-a4fc-62cb560a4312"},"vehicle_type_id":"4","last_reported":1687221577,"current_range_meters":18000,"station_id":"ce4bh0h2rcd13ifvqd50","pricing_plan_id":"free"},{"bike_id":"6de98da6-6b85-4650-826c-cee1e1701899","system_id":"levelo_inurba_marseille","lat":43.28704,"lon":5.37391,"is_reserved":false,"is_disabled":false,"rental_uris":{"android":"levelo://app?vid=6de98da6-6b85-4650-826c-cee1e1701899","ios":"levelo://app?vid=6de98da6-6b85-4650-826c-cee1e1701899"},"vehicle_type_id":"4","last_reported":1687221577,"current_range_meters":19600,"station_id":"ce4bh3p2rcd13ifvqdq0","pricing_plan_id":"free"},{"bike_id":"7d9876a4-6d60-4a00-913f-f07acb5c951d","system_id":"levelo_inurba_marseille","lat":43.28702,"lon":5.37381,"is_reserved":false,"is_disabled":false,"rental_uris":{"android":"levelo://app?vid=7d9876a4-6d60-4a00-913f-f07acb5c951d","ios":"levelo://app?vid=7d9876a4-6d60-4a00-913f-f07acb5c951d"},"vehicle_type_id":"4","last_reported":1687221577,"current_range_meters":31200,"station_id":"ce4bh3p2rcd13ifvqdq0","pricing_plan_id":"free"},{"bike_id":"d58e2862-e122-4c0d-85cc-e1677792f8a8","system_id":"levelo_inurba_marseille","lat":43.28702,"lon":5.37381,"is_reserved":false,"is_disabled":false,"rental_uris":{"android":"levelo://app?vid=d58e2862-e122-4c0d-85cc-e1677792f8a8","ios":"levelo://app?vid=d58e2862-e122-4c0d-85cc-e1677792f8a8"},"vehicle_type_id":"4","last_reported":1687221577,"current_range_meters":26400,"station_id":"ce4bh3p2rcd13ifvqdq0","pricing_plan_id":"free"},{"bike_id":"1b68f78b-b163-42eb-beb3-b0fb91dbe9ca","system_id":"levelo_inurba_marseille","lat":43.298681,"lon":5.397225,"is_reserved":false,"is_disabled":false,"rental_uris":{"android":"levelo://app?vid=1b68f78b-b163-42eb-beb3-b0fb91dbe9ca","ios":"levelo://app?vid=1b68f78b-b163-42eb-beb3-b0fb91dbe9ca"},"vehicle_type_id":"4","last_reported":1687221577,"current_range_meters":15600,"station_id":"ce4bh0h2rcd13ifvqd50","pricing_plan_id":"free"},{"bike_id":"c476a54f-8d83-4e77-a2f2-049d903ad886","system_id":"levelo_inurba_marseille","lat":43.28703,"lon":5.37391,"is_reserved":false,"is_disabled":false,"rental_uris":{"android":"levelo://app?vid=c476a54f-8d83-4e77-a2f2-049d903ad886","ios":"levelo://app?vid=c476a54f-8d83-4e77-a2f2-049d903ad886"},"vehicle_type_id":"4","last_reported":1687221577,"current_range_meters":24000,"station_id":"ce4bh3p2rcd13ifvqdq0","pricing_plan_id":"free"},{"bike_id":"42ff071e-316a-4b7a-9675-009743f02561","system_id":"levelo_inurba_marseille","lat":43.28702,"lon":5.37385,"is_reserved":false,"is_disabled":false,"rental_uris":{"android":"levelo://app?vid=42ff071e-316a-4b7a-9675-009743f02561","ios":"levelo://app?vid=42ff071e-316a-4b7a-9675-009743f02561"},"vehicle_type_id":"4","last_reported":1687221577,"current_range_meters":31200,"station_id":"ce4bh3p2rcd13ifvqdq0","pricing_plan_id":"free"},{"bike_id":"59a8dd6e-0c6a-4f29-baa9-849daffd0f17","system_id":"levelo_inurba_marseille","lat":43.286591,"lon":5.363346,"is_reserved":false,"is_disabled":false,"rental_uris":{"android":"levelo://app?vid=59a8dd6e-0c6a-4f29-baa9-849daffd0f17","ios":"levelo://app?vid=59a8dd6e-0c6a-4f29-baa9-849daffd0f17"},"vehicle_type_id":"4","last_reported":1687221577,"current_range_meters":31200,"station_id":"ce4bhah2rcd13ifvqej0","pricing_plan_id":"free"},{"bike_id":"6508969b-e311-4e99-a7e1-d3604e63463d","system_id":"levelo_inurba_marseille","lat":43.28702,"lon":5.37396,"is_reserved":false,"is_disabled":false,"rental_uris":{"android":"levelo://app?vid=6508969b-e311-4e99-a7e1-d3604e63463d","ios":"levelo://app?vid=6508969b-e311-4e99-a7e1-d3604e63463d"},"vehicle_type_id":"4","last_reported":1687221577,"current_range_meters":30800,"station_id":"ce4bh3p2rcd13ifvqdq0","pricing_plan_id":"free"},{"bike_id":"c19d18ab-0551-4b60-9271-c56c586526af","system_id":"levelo_inurba_marseille","lat":43.286591,"lon":5.363346,"is_reserved":false,"is_disabled":false,"rental_uris":{"android":"levelo://app?vid=c19d18ab-0551-4b60-9271-c56c586526af","ios":"levelo://app?vid=c19d18ab-0551-4b60-9271-c56c586526af"},"vehicle_type_id":"4","last_reported":1687221577,"current_range_meters":31200,"station_id":"ce4bhah2rcd13ifvqej0","pricing_plan_id":"free"},{"bike_id":"77f87782-71ce-4bfc-b347-ed91a6cb4e6b","system_id":"levelo_inurba_marseille","lat":43.286961,"lon":5.373785,"is_reserved":false,"is_disabled":false,"rental_uris":{"android":"levelo://app?vid=77f87782-71ce-4bfc-b347-ed91a6cb4e6b","ios":"levelo://app?vid=77f87782-71ce-4bfc-b347-ed91a6cb4e6b"},"vehicle_type_id":"4","last_reported":1687221577,"current_range_meters":31200,"station_id":"ce4bh3p2rcd13ifvqdq0","pricing_plan_id":"free"},{"bike_id":"4f710410-2884-470a-b1c3-cfd29d09ecce","system_id":"levelo_inurba_marseille","lat":43.28703,"lon":5.37409,"is_reserved":false,"is_disabled":false,"rental_uris":{"android":"levelo://app?vid=4f710410-2884-470a-b1c3-cfd29d09ecce","ios":"levelo://app?vid=4f710410-2884-470a-b1c3-cfd29d09ecce"},"vehicle_type_id":"4","last_reported":1687221577,"current_range_meters":15600,"station_id":"ce4bh3p2rcd13ifvqdq0","pricing_plan_id":"free"},{"bike_id":"c09cf320-18bc-43d9-a106-8de61ff0a453","system_id":"levelo_inurba_marseille","lat":43.28699,"lon":5.37388,"is_reserved":false,"is_disabled":false,"rental_uris":{"android":"levelo://app?vid=c09cf320-18bc-43d9-a106-8de61ff0a453","ios":"levelo://app?vid=c09cf320-18bc-43d9-a106-8de61ff0a453"},"vehicle_type_id":"4","last_reported":1687221577,"current_range_meters":17600,"station_id":"ce4bh3p2rcd13ifvqdq0","pricing_plan_id":"free"},{"bike_id":"74bd893a-d183-4975-a74c-9e7eb43bc9f4","system_id":"levelo_inurba_marseille","lat":43.286591,"lon":5.363346,"is_reserved":false,"is_disabled":false,"rental_uris":{"android":"levelo://app?vid=74bd893a-d183-4975-a74c-9e7eb43bc9f4","ios":"levelo://app?vid=74bd893a-d183-4975-a74c-9e7eb43bc9f4"},"vehicle_type_id":"4","last_reported":1687221577,"current_range_meters":27200,"station_id":"ce4bhah2rcd13ifvqej0","pricing_plan_id":"free"},{"bike_id":"26f2452e-80d2-47a2-b2eb-062da5d2be94","system_id":"levelo_inurba_marseille","lat":43.286591,"lon":5.363346,"is_reserved":false,"is_disabled":false,"rental_uris":{"android":"levelo://app?vid=26f2452e-80d2-47a2-b2eb-062da5d2be94","ios":"levelo://app?vid=26f2452e-80d2-47a2-b2eb-062da5d2be94"},"vehicle_type_id":"4","last_reported":1687221577,"current_range_meters":31200,"station_id":"ce4bhah2rcd13ifvqej0","pricing_plan_id":"free"},{"bike_id":"a859e5bc-6ff4-4b17-a34d-b8d8f44c2788","system_id":"levelo_inurba_marseille","lat":43.28699,"lon":5.37391,"is_reserved":false,"is_disabled":false,"rental_uris":{"android":"levelo://app?vid=a859e5bc-6ff4-4b17-a34d-b8d8f44c2788","ios":"levelo://app?vid=a859e5bc-6ff4-4b17-a34d-b8d8f44c2788"},"vehicle_type_id":"4","last_reported":1687221577,"current_range_meters":31200,"station_id":"ce4bh3p2rcd13ifvqdq0","pricing_plan_id":"free"},{"bike_id":"697d0064-8226-4301-9c1d-cbecbbcf4f30","system_id":"levelo_inurba_marseille","lat":43.298681,"lon":5.397225,"is_reserved":false,"is_disabled":false,"rental_uris":{"android":"levelo://app?vid=697d0064-8226-4301-9c1d-cbecbbcf4f30","ios":"levelo://app?vid=697d0064-8226-4301-9c1d-cbecbbcf4f30"},"vehicle_type_id":"4","last_reported":1687221577,"current_range_meters":21200,"station_id":"ce4bh0h2rcd13ifvqd50","pricing_plan_id":"free"},{"bike_id":"819b5144-aca3-4c99-9e90-5071072414aa","system_id":"levelo_inurba_marseille","lat":43.286591,"lon":5.363346,"is_reserved":false,"is_disabled":false,"rental_uris":{"android":"levelo://app?vid=819b5144-aca3-4c99-9e90-5071072414aa","ios":"levelo://app?vid=819b5144-aca3-4c99-9e90-5071072414aa"},"vehicle_type_id":"4","last_reported":1687221577,"current_range_meters":16400,"station_id":"ce4bhah2rcd13ifvqej0","pricing_plan_id":"free"},{"bike_id":"5bd24d25-dbfc-4194-9a30-1f85667f506b","system_id":"levelo_inurba_marseille","lat":43.287,"lon":5.37407,"is_reserved":false,"is_disabled":false,"rental_uris":{"android":"levelo://app?vid=5bd24d25-dbfc-4194-9a30-1f85667f506b","ios":"levelo://app?vid=5bd24d25-dbfc-4194-9a30-1f85667f506b"},"vehicle_type_id":"4","last_reported":1687221577,"current_range_meters":31200,"station_id":"ce4bh3p2rcd13ifvqdq0","pricing_plan_id":"free"},{"bike_id":"60342187-de24-46ed-8ac4-ad3ec7fee8aa","system_id":"levelo_inurba_marseille","lat":43.298681,"lon":5.397225,"is_reserved":false,"is_disabled":false,"rental_uris":{"android":"levelo://app?vid=60342187-de24-46ed-8ac4-ad3ec7fee8aa","ios":"levelo://app?vid=60342187-de24-46ed-8ac4-ad3ec7fee8aa"},"vehicle_type_id":"4","last_reported":1687221577,"current_range_meters":13200,"station_id":"ce4bh0h2rcd13ifvqd50","pricing_plan_id":"free"},{"bike_id":"41438965-7576-4ba1-a2b9-bf2152b5fe96","system_id":"levelo_inurba_marseille","lat":43.286593,"lon":5.363346,"is_reserved":false,"is_disabled":false,"rental_uris":{"android":"levelo://app?vid=41438965-7576-4ba1-a2b9-bf2152b5fe96","ios":"levelo://app?vid=41438965-7576-4ba1-a2b9-bf2152b5fe96"},"vehicle_type_id":"4","last_reported":1687221577,"current_range_meters":31200,"station_id":"ce4bhah2rcd13ifvqej0","pricing_plan_id":"free"},{"bike_id":"f6a9d880-3c4c-4303-9e41-a38c3d4fb2d9","system_id":"levelo_inurba_marseille","lat":43.286591,"lon":5.363346,"is_reserved":false,"is_disabled":false,"rental_uris":{"android":"levelo://app?vid=f6a9d880-3c4c-4303-9e41-a38c3d4fb2d9","ios":"levelo://app?vid=f6a9d880-3c4c-4303-9e41-a38c3d4fb2d9"},"vehicle_type_id":"4","last_reported":1687221577,"current_range_meters":31200,"station_id":"ce4bhah2rcd13ifvqej0","pricing_plan_id":"free"},{"bike_id":"016e198a-c7ea-45de-91b8-2ce78f9cc09d","system_id":"levelo_inurba_marseille","lat":43.295196,"lon":5.39397,"is_reserved":false,"is_disabled":false,"rental_uris":{"android":"levelo://app?vid=016e198a-c7ea-45de-91b8-2ce78f9cc09d","ios":"levelo://app?vid=016e198a-c7ea-45de-91b8-2ce78f9cc09d"},"vehicle_type_id":"4","last_reported":1687221577,"current_range_meters":4000,"station_id":"ce4bh292rcd13ifvqdf0","pricing_plan_id":"free"},{"bike_id":"eca0acdc-7d10-4eea-aa74-3b0ef91d232d","system_id":"levelo_inurba_marseille","lat":43.286593,"lon":5.363346,"is_reserved":false,"is_disabled":false,"rental_uris":{"android":"levelo://app?vid=eca0acdc-7d10-4eea-aa74-3b0ef91d232d","ios":"levelo://app?vid=eca0acdc-7d10-4eea-aa74-3b0ef91d232d"},"vehicle_type_id":"4","last_reported":1687221577,"current_range_meters":10000,"station_id":"ce4bhah2rcd13ifvqej0","pricing_plan_id":"free"},{"bike_id":"0896dc81-9870-4d05-9d15-ec1bb925afc2","system_id":"levelo_inurba_marseille","lat":43.286593,"lon":5.363346,"is_reserved":false,"is_disabled":false,"rental_uris":{"android":"levelo://app?vid=0896dc81-9870-4d05-9d15-ec1bb925afc2","ios":"levelo://app?vid=0896dc81-9870-4d05-9d15-ec1bb925afc2"},"vehicle_type_id":"4","last_reported":1687221577,"current_range_meters":14400,"station_id":"ce4bhah2rcd13ifvqej0","pricing_plan_id":"free"},