{"last_updated":1733155953,"ttl":60,"version":"2.2","data":{"bikes":[{"bike_id":"89c317dc-b498-4092-ab46-a64988b6ed0e","system_id":"levelo_inurba_marseille","lat":43.32286,"lon":5.38268,"is_reserved":false,"is_disabled":false,"rental_uris":{"android":"levelo://app?vid=89c317dc-b498-4092-ab46-a64988b6ed0e","ios":"levelo://app?vid=89c317dc-b498-4092-ab46-a64988b6ed0e"},"vehicle_type_id":"4","last_reported":1733155953,"current_range_meters":24800,"station_id":"ce4bhr12rcd13ifvqhqg","pricing_plan_id":"cebpf4jnsgd1na2vs0mg"},{"bike_id":"ca03cdd5-eca7-4f11-b850-3805972f7218","system_id":"levelo_inurba_marseille","lat":43.28378,"lon":5.37525,"is_reserved":false,"is_disabled":false,"rental_uris":{"android":"levelo://app?vid=ca03cdd5-eca7-4f11-b850-3805972f7218","ios":"levelo://app?vid=ca03cdd5-eca7-4f11-b850-3805972f7218"},"vehicle_type_id":"4","last_reported":1733155953,"current_range_meters":17200,"station_id":"ce4bh412rcd13ifvqds0","pricing_plan_id":"cebpf4jnsgd1na2vs0mg"},{"bike_id":"6daf0f72-dd53-436c-b06b-3f28914acbee","system_id":"levelo_inurba_marseille","lat":43.30152,"lon":5.38102,"is_reserved":false,"is_disabled":true,"rental_uris":{"android":"levelo://app?vid=6daf0f72-dd53-436c-b06b-3f28914acbee","ios":"levelo://app?vid=6daf0f72-dd53-436c-b06b-3f28914acbee"},"vehicle_type_id":"4","last_reported":1733155953,"current_range_meters":0,"station_id":"ce4bgjp2rcd13ifvqbh0","pricing_plan_id":"cebpf4jnsgd1na2vs0mg"},{"bike_id":"df479c2c-35ac-44ad-b9d6-81c89ed769ce","system_id":"levelo_inurba_marseille","lat":43.297,"lon":5.37076,"is_reserved":false,"is_disabled":true,"rental_uris":{"android":"levelo://app?vid=df479c2c-35ac-44ad-b9d6-81c89ed769ce","ios":"levelo://app?vid=df479c2c-35ac-44ad-b9d6-81c89ed769ce"},"vehicle_type_id":"4","last_reported":1733155953,"current_range_meters":0,"station_id":"","pricing_plan_id":"cebpf4jnsgd1na2vs0mg"},{"bike_id":"8e029eaf-e104-4c5d-858d-6cd39de73d09","system_id":"levelo_inurba_marseille","lat":43.24167,"lon":5.3641,"is_reserved":false,"is_disabled":false,"rental_uris":{"android":"levelo://app?vid=8e029eaf-e104-4c5d-858d-6cd39de73d09","ios":"levelo://app?vid=8e029eaf-e104-4c5d-858d-6cd39de73d09"},"vehicle_type_id":"4","last_reported":1733155953,"current_range_meters":20400,"station_id":"cpo36qri1sfpv3e86is0","pricing_plan_id":"cebpf4jnsgd1na2vs0mg"},{"bike_id":"b50bdd49-511c-41d8-aa75-068657fa8c47","system_id":"levelo_inurba_marseille","lat":43.31839,"lon":5.38766,"is_reserved":false,"is_disabled":false,"rental_uris":{"android":"levelo://app?vid=b50bdd49-511c-41d8-aa75-068657fa8c47","ios":"levelo://app?vid=b50bdd49-511c-41d8-aa75-068657fa8c47"},"vehicle_type_id":"4","last_reported":1733155953,"current_range_meters":12000,"station_id":"","pricing_plan_id":"cebpf4jnsgd1na2vs0mg"},{"bike_id":"bd8cd1c7-abef-42cd-bb74-c23362a9f370","system_id":"levelo_inurba_marseille","lat":43.29419,"lon":5.38614,"is_reserved":false,"is_disabled":true,"rental_uris":{"android":"levelo://app?vid=bd8cd1c7-abef-42cd-bb74-c23362a9f370","ios":"levelo://app?vid=bd8cd1c7-abef-42cd-bb74-c23362a9f370"},"vehicle_type_id":"4","last_reported":1733155953,"current_range_meters":22800,"station_id":"ce4bh2h2rcd13ifvqdh0","pricing_plan_id":"cebpf4jnsgd1na2vs0mg"},{"bike_id":"38189bba-4f59-4945-8de6-e45091a2589a","system_id":"levelo_inurba_marseille","lat":43.28411,"lon":5.37508,"is_reserved":false,"is_disabled":false,"rental_uris":{"android":"levelo://app?vid=38189bba-4f59-4945-8de6-e45091a2589a","ios":"levelo://app?vid=38189bba-4f59-4945-8de6-e45091a2589a"},"vehicle_type_id":"4","last_reported":1733155953,"current_range_meters":12400,"station_id":"ce4bh412rcd13ifvqds0","pricing_plan_id":"cebpf4jnsgd1na2vs0mg"},{"bike_id":"39a6c0a5-0d19-44bd-9527-c8cf1491f651","system_id":"levelo_inurba_marseille","lat":43.276178,"lon":5.361022,"is_reserved":false,"is_disabled":false,"rental_uris":{"android":"levelo://app?vid=39a6c0a5-0d19-44bd-9527-c8cf1491f651","ios":"levelo://app?vid=39a6c0a5-0d19-44bd-9527-c8cf1491f651"},"vehicle_type_id":"4","last_reported":1733155953,"current_range_meters":30000,"station_id":"ce4bgj92rcd13ifvqbe0","pricing_plan_id":"cebpf4jnsgd1na2vs0mg"},{"bike_id":"9dfb3ae0-2ee3-42e6-bc73-2b1ac76e82bc","system_id":"levelo_inurba_marseille","lat":43.30451,"lon":5.37899,"is_reserved":false,"is_disabled":true,"rental_uris":{"android":"levelo://app?vid=9dfb3ae0-2ee3-42e6-bc73-2b1ac76e82bc","ios":"levelo://app?vid=9dfb3ae0-2ee3-42e6-bc73-2b1ac76e82bc"},"vehicle_type_id":"4","last_reported":1733155953,"current_range_meters":0,"station_id":"ce4bgup2rcd13ifvqcn0","pricing_plan_id":"cebpf4jnsgd1na2vs0mg"},{"bike_id":"d73e2cce-5e40-44cb-9950-a89af4c1f2b2","system_id":"levelo_inurba_marseille","lat":43.31115,"lon":5.37783,"is_reserved":false,"is_disabled":false,"rental_uris":{"android":"levelo://app?vid=d73e2cce-5e40-44cb-9950-a89af4c1f2b2","ios":"levelo://app?vid=d73e2cce-5e40-44cb-9950-a89af4c1f2b2"},"vehicle_type_id":"4","last_reported":1733155953,"current_range_meters":32400,"station_id":"ce4bgt92rcd13ifvqcg0","pricing_plan_id":"cebpf4jnsgd1na2vs0mg"},{"bike_id":"b81226b0-d7dc-4213-8de7-ddec7d23b0a8","system_id":"levelo_inurba_marseille","lat":43.284357,"lon":5.391893,"is_reserved":false,"is_disabled":false,"rental_uris":{"android":"levelo://app?vid=b81226b0-d7dc-4213-8de7-ddec7d23b0a8","ios":"levelo://app?vid=b81226b0-d7dc-4213-8de7-ddec7d23b0a8"},"vehicle_type_id":"4","last_reported":1733155953,"current_range_meters":37600,"station_id":"ce4bhoh2rcd13ifvqh5g","pricing_plan_id":"cebpf4jnsgd1na2vs0mg"},{"bike_id":"9176efab-ef29-4f09-b040-d4eed1c1ea91","system_id":"levelo_inurba_marseille","lat":43.27841,"lon":5.39206,"is_reserved":false,"is_disabled":true,"rental_uris":{"android":"levelo://app?vid=9176efab-ef29-4f09-b040-d4eed1c1ea91","ios":"levelo://app?vid=9176efab-ef29-4f09-b040-d4eed1c1ea91"},"vehicle_type_id":"4","last_reported":1733155953,"current_range_meters":1200,"station_id":"ce4bhjp2rcd13ifvqga0","pricing_plan_id":"cebpf4jnsgd1na2vs0mg"},{"bike_id":"8bd642b2-0279-44c7-9ee2-fc3b57332c83","system_id":"levelo_inurba_marseille","lat":43.27455,"lon":5.40073,"is_reserved":false,"is_disabled":true,"rental_uris":{"android":"levelo://app?vid=8bd642b2-0279-44c7-9ee2-fc3b57332c83","ios":"levelo://app?vid=8bd642b2-0279-44c7-9ee2-fc3b57332c83"},"vehicle_type_id":"4","last_reported":1733155953,"current_range_meters":0,"station_id":"","pricing_plan_id":"cebpf4jnsgd1na2vs0mg"},{"bike_id":"f8d1cbf9-cfbb-4836-98b9-df8242e0ed9a","system_id":"levelo_inurba_marseille","lat":43.30676,"lon":5.36856,"is_reserved":false,"is_disabled":false,"rental_uris":{"android":"levelo://app?vid=f8d1cbf9-cfbb-4836-98b9-df8242e0ed9a","ios":"levelo://app?vid=f8d1cbf9-cfbb-4836-98b9-df8242e0ed9a"},"vehicle_type_id":"4","last_reported":1733155953,"current_range_meters":36000,"station_id":"","pricing_plan_id":"cebpf4jnsgd1na2vs0mg"},{"bike_id":"08e6e41d-88aa-4cfe-a22f-c7b5bb5aecee","system_id":"levelo_inurba_marseille","lat":43.29849,"lon":5.36275,"is_reserved":false,"is_disabled":false,"rental_uris":{"android":"levelo://app?vid=08e6e41d-88aa-4cfe-a22f-c7b5bb5aecee","ios":"levelo://app?vid=08e6e41d-88aa-4cfe-a22f-c7b5bb5aecee"},"vehicle_type_id":"4","last_reported":1733155953,"current_range_meters":17200,"station_id":"ce4bgpp2rcd13ifvqc3g","pricing_plan_id":"cebpf4jnsgd1na2vs0mg"},{"bike_id":"ba7f01bb-3cf9-423b-8063-d687447dd874","system_id":"levelo_inurba_marseille","lat":43.2781,"lon":5.40713,"is_reserved":false,"is_disabled":false,"rental_uris":{"android":"levelo://app?vid=ba7f01bb-3cf9-423b-8063-d687447dd874","ios":"levelo://app?vid=ba7f01bb-3cf9-423b-8063-d687447dd874"},"vehicle_type_id":"4","last_reported":1733155953,"current_range_meters":35600,"station_id":"ce4bhnh2rcd13ifvqgtg","pricing_plan_id":"cebpf4jnsgd1na2vs0mg"},{"bike_id":"c0bec7ea-31af-49de-8a97-a7d6bf5d8bb8","system_id":"levelo_inurba_marseille","lat":43.29052,"lon":5.35902,"is_reserved":false,"is_disabled":true,"rental_uris":{"android":"levelo://app?vid=c0bec7ea-31af-49de-8a97-a7d6bf5d8bb8","ios":"levelo://app?vid=c0bec7ea-31af-49de-8a97-a7d6bf5d8bb8"},"vehicle_type_id":"4","last_reported":1733155953,"current_range_meters":8400,"station_id":"ce4bha92rcd13ifvqeg0","pricing_plan_id":"cebpf4jnsgd1na2vs0mg"},{"bike_id":"19421a2a-2b92-4054-a9e7-593cc91a694e","system_id":"levelo_inurba_marseille","lat":43.278667,"lon":5.380471,"is_reserved":false,"is_disabled":false,"rental_uris":{"android":"levelo://app?vid=19421a2a-2b92-4054-a9e7-593cc91a694e","ios":"levelo://app?vid=19421a2a-2b92-4054-a9e7-593cc91a694e"},"vehicle_type_id":"4","last_reported":1733155953,"current_range_meters":8800,"station_id":"ce4bhf92rcd13ifvqf50","pricing_plan_id":"cebpf4jnsgd1na2vs0mg"},{"bike_id":"b6c9c9c9-9b69-4e16-b6f4-f89f21d3cb87","system_id":"levelo_inurba_marseille","lat":43.30954,"lon":5.3904,"is_reserved":false,"is_disabled":true,"rental_uris":{"android":"levelo://app?vid=b6c9c9c9-9b69-4e16-b6f4-f89f21d3cb87","ios":"levelo://app?vid=b6c9c9c9-9b69-4e16-b6f4-f89f21d3cb87"},"vehicle_type_id":"4","last_reported":1733155953,"current_range_meters":800,"station_id":"ce4bgup2rcd13ifvqco0","pricing_plan_id":"cebpf4jnsgd1na2vs0mg"},{"bike_id":"475b0e62-d2b9-43a0-a896-2541e3d26116","system_id":"levelo_inurba_marseille","lat":43.24647,"lon":5.3889,"is_reserved":false,"is_disabled":true,"rental_uris":{"android":"levelo://app?vid=475b0e62-d2b9-43a0-a896-2541e3d26116","ios":"levelo://app?vid=475b0e62-d2b9-43a0-a896-2541e3d26116"},"vehicle_type_id":"4","last_reported":1733155953,"current_range_meters":0,"station_id":"ce4bhg12rcd13ifvqf60","pricing_plan_id":"cebpf4jnsgd1na2vs0mg"},{"bike_id":"58ff5ef4-5e8b-42b4-baea-f7cffbb7644c","system_id":"levelo_inurba_marseille","lat":43.27995,"lon":5.4166,"is_reserved":false,"is_disabled":false,"rental_uris":{"android":"levelo://app?vid=58ff5ef4-5e8b-42b4-baea-f7cffbb7644c","ios":"levelo://app?vid=58ff5ef4-5e8b-42b4-baea-f7cffbb7644c"},"vehicle_type_id":"4","last_reported":1733155953,"current_range_meters":6400,"station_id":"ce4bho12rcd13ifvqh1g","pricing_plan_id":"cebpf4jnsgd1na2vs0mg"},{"bike_id":"b3f478ac-3b05-4edf-bdbf-76399090f8e9","system_id":"levelo_inurba_marseille","lat":43.30003,"lon":5.37639,"is_reserved":false,"is_disabled":true,"rental_uris":{"android":"levelo://app?vid=b3f478ac-3b05-4edf-bdbf-76399090f8e9","ios":"levelo://app?vid=b3f478ac-3b05-4edf-bdbf-76399090f8e9"},"vehicle_type_id":"4","last_reported":1733155953,"current_range_meters":0,"station_id":"","pricing_plan_id":"cebpf4jnsgd1na2vs0mg"},{"bike_id":"c3587c28-5435-41c6-a9b7-aa468e6b19aa","system_id":"levelo_inurba_marseille","lat":43.29749,"lon":5.3792,"is_reserved":false,"is_disabled":true,"rental_uris":{"android":"levelo://app?vid=c3587c28-5435-41c6-a9b7-aa468e6b19aa","ios":"levelo://app?vid=c3587c28-5435-41c6-a9b7-aa468e6b19aa"},"vehicle_type_id":"4","last_reported":1733155953,"current_range_meters":0,"station_id":"","pricing_plan_id":"cebpf4jnsgd1na2vs0mg"},{"bike_id":"e8d9fcd3-6c4c-4c2e-a87e-41c5e4dfa6d0","system_id":"levelo_inurba_marseille","lat":43.25438,"lon":5.38158,"is_reserved":false,"is_disabled":true,"rental_uris":{"android":"levelo://app?vid=e8d9fcd3-6c4c-4c2e-a87e-41c5e4dfa6d0","ios":"levelo://app?vid=e8d9fcd3-6c4c-4c2e-a87e-41c5e4dfa6d0"},"vehicle_type_id":"4","last_reported":1733155953,"current_range_meters":0,"station_id":"","pricing_plan_id":"cebpf4jnsgd1na2vs0mg"},{"bike_id":"9e4ed454-42e6-4088-a463-3af3d1983d77","system_id":"levelo_inurba_marseille","lat":43.29883,"lon":5.40334,"is_reserved":false,"is_disabled":true,"rental_uris":{"android":"levelo://app?vid=9e4ed454-42e6-4088-a463-3af3d1983d77","ios":"levelo://app?vid=9e4ed454-42e6-4088-a463-3af3d1983d77"},"vehicle_type_id":"4","last_reported":1733155953,"current_range_meters":0,"station_id":"","pricing_plan_id":"cebpf4jnsgd1na2vs0mg"},{"bike_id":"101e72cb-5bc1-49ec-be2d-1e8628e565f6","system_id":"levelo_inurba_marseille","lat":43.31498,"lon":5.37308,"is_reserved":false,"is_disabled":true,"rental_uris":{"android":"levelo://app?vid=101e72cb-5bc1-49ec-be2d-1e8628e565f6","ios":"levelo://app?vid=101e72cb-5bc1-49ec-be2d-1e8628e565f6"},"vehicle_type_id":"4","last_reported":1733155953,"current_range_meters":36800,"station_id":"ce4bgt12rcd13ifvqcd0","pricing_plan_id":"cebpf4jnsgd1na2vs0mg"},{"bike_id":"b3b31257-686d-44bc-a3e5-534f680952c8","system_id":"levelo_inurba_marseille","lat":43.29582,"lon":5.36745,"is_reserved":false,"is_disabled":false,"rental_uris":{"android":"levelo://app?vid=b3b31257-686d-44bc-a3e5-534f680952c8","ios":"levelo://app?vid=b3b31257-686d-44bc-a3e5-534f680952c8"},"vehicle_type_id":"4","last_reported":1733155953,"current_range_meters":34000,"station_id":"ce4bgph2rcd13ifvqc2g","pricing_plan_id":"cebpf4jnsgd1na2vs0mg"},{"bike_id":"48aeeb9b-8c72-4988-964e-5eb127805ef4","system_id":"levelo_inurba_marseille","lat":43.32997,"lon":5.39035,"is_reserved":false,"is_disabled":false,"rental_uris":{"android":"levelo://app?vid=48aeeb9b-8c72-4988-964e-5eb127805ef4","ios":"levelo://app?vid=48aeeb9b-8c72-4988-964e-5eb127805ef4"},"vehicle_type_id":"4","last_reported":1733155953,"current_range_meters":22400,"station_id":"ce4bhr92rcd13ifvqhrg","pricing_plan_id":"cebpf4jnsgd1na2vs0mg"},{"bike_id":"f07324f7-71de-49c2-9eac-cf3eac054a6a","system_id":"levelo_inurba_marseille","lat":43.23963,"lon":5.36627,"is_reserved":false,"is_disabled":false,"rental_uris":{"android":"levelo://app?vid=f07324f7-71de-49c2-9eac-cf3eac054a6a","ios":"levelo://app?vid=f07324f7-71de-49c2-9eac-cf3eac054a6a"},"vehicle_type_id":"4","last_reported":1733155953,"current_range_meters":32400,"station_id":"ce4bhi12rcd13ifvqfp0","pricing_plan_id":"cebpf4jnsgd1na2vs0mg"},{"bike_id":"1b0cd365-6c48-472c-b171-08fa752e1b94","system_id":"levelo_inurba_marseille","lat":43.28264,"lon":5.35069,"is_reserved":false,"is_disabled":false,"rental_uris":{"android":"levelo://app?vid=1b0cd365-6c48-472c-b171-08fa752e1b94","ios":"levelo://app?vid=1b0cd365-6c48-472c-b171-08fa752e1b94"},"vehicle_type_id":"4","last_reported":1733155953,"current_range_meters":23200,"station_id":"ce4bhbp2rcd13ifvqerg","pricing_plan_id":"cebpf4jnsgd1na2vs0mg"},{"bike_id":"b8ec7375-db3e-4f03-abdf-dafd0f1d56a3","system_id":"levelo_inurba_marseille","lat":43.28077,"lon":5.39662,"is_reserved":false,"is_disabled":false,"rental_uris":{"android":"levelo://app?vid=b8ec7375-db3e-4f03-abdf-dafd0f1d56a3","ios":"levelo://app?vid=b8ec7375-db3e-4f03-abdf-dafd0f1d56a3"},"vehicle_type_id":"4","last_reported":1733155953,"current_range_meters":9200,"station_id":"ce4bho12rcd13ifvqh2g","pricing_plan_id":"cebpf4jnsgd1na2vs0mg"},{"bike_id":"052a1e58-88fa-43c4-a493-9df8526488c7","system_id":"levelo_inurba_marseille","lat":43.29196,"lon":5.39314,"is_reserved":false,"is_disabled":true,"rental_uris":{"android":"levelo://app?vid=052a1e58-88fa-43c4-a493-9df8526488c7","ios":"levelo://app?vid=052a1e58-88fa-43c4-a493-9df8526488c7"},"vehicle_type_id":"4","last_reported":1733155953,"current_range_meters":11600,"station_id":"ce4bh192rcd13ifvqdd0","pricing_plan_id":"cebpf4jnsgd1na2vs0mg"},{"bike_id":"34ed7b16-e707-4c30-bb65-0c88ea055863","system_id":"levelo_inurba_marseille","lat":43.30806,"lon":5.43522,"is_reserved":false,"is_disabled":true,"rental_uris":{"android":"levelo://app?vid=34ed7b16-e707-4c30-bb65-0c88ea055863","ios":"levelo://app?vid=34ed7b16-e707-4c30-bb65-0c88ea055863"},"vehicle_type_id":"4","last_reported":1733155953,"current_range_meters":14000,"station_id":"ce4bhph2rcd13ifvqheg","pricing_plan_id":"cebpf4jnsgd1na2vs0mg"},{"bike_id":"f02a1e3b-6845-4849-bdc2-237921c4485a","system_id":"levelo_inurba_marseille","lat":43.29717,"lon":5.37698,"is_reserved":false,"is_disabled":false,"rental_uris":{"android":"levelo://app?vid=f02a1e3b-6845-4849-bdc2-237921c4485a","ios":"levelo://app?vid=f02a1e3b-6845-4849-bdc2-237921c4485a"},"vehicle_type_id":"4","last_reported":1733155953,"current_range_meters":38800,"station_id":"ce4bgkh2rcd13ifvqbl0","pricing_plan_id":"cebpf4jnsgd1na2vs0mg"},{"bike_id":"eafa3a1b-468f-431a-a326-63c26d4f8ace","system_id":"levelo_inurba_marseille","lat":43.24178,"lon":5.39724,"is_reserved":false,"is_disabled":false,"rental_uris":{"android":"levelo://app?vid=eafa3a1b-468f-431a-a326-63c26d4f8ace","ios":"levelo://app?vid=eafa3a1b-468f-431a-a326-63c26d4f8ace"},"vehicle_type_id":"4","last_reported":1733155953,"current_range_meters":36400,"station_id":"ce4bhn12rcd13ifvqgpg","pricing_plan_id":"cebpf4jnsgd1na2vs0mg"},{"bike_id":"b5564233-4394-4cf6-9f80-c4efe5f9ea42","system_id":"levelo_inurba_marseille","lat":43.31119,"lon":5.37775,"is_reserved":false,"is_disabled":false,"rental_uris":{"android":"levelo://app?vid=b5564233-4394-4cf6-9f80-c4efe5f9ea42","ios":"levelo://app?vid=b5564233-4394-4cf6-9f80-c4efe5f9ea42"},"vehicle_type_id":"4","last_reported":1733155953,"current_range_meters":15200,"station_id":"ce4bgt92rcd13ifvqcg0","pricing_plan_id":"cebpf4jnsgd1na2vs0mg"},{"bike_id":"16bea42d-3248-41fd-8b51-39fb3d7ec2c4","system_id":"levelo_inurba_marseille","lat":43.25823,"lon":5.39431,"is_reserved":false,"is_disabled":true,"rental_uris":{"android":"levelo://app?vid=16bea42d-3248-41fd-8b51-39fb3d7ec2c4","ios":"levelo://app?vid=16bea42d-3248-41fd-8b51-39fb3d7ec2c4"},"vehicle_type_id":"4","last_reported":1733155953,"current_range_meters":800,"station_id":"ce4bhip2rcd13ifvqft0","pricing_plan_id":"cebpf4jnsgd1na2vs0mg"},{"bike_id":"29e34376-1403-4ab2-9991-c557af49d547","system_id":"levelo_inurba_marseille","lat":43.337444,"lon":5.374475,"is_reserved":false,"is_disabled":false,"rental_uris":{"android":"levelo://app?vid=29e34376-1403-4ab2-9991-c557af49d547","ios":"levelo://app?vid=29e34376-1403-4ab2-9991-c557af49d547"},"vehicle_type_id":"4","last_reported":1733155953,"current_range_meters":39200,"station_id":"","pricing_plan_id":"cebpf4jnsgd1na2vs0mg"},{"bike_id":"1c832794-0e84-48c4-824a-273066b59290","system_id":"levelo_inurba_marseille","lat":43.26684,"lon":5.38274,"is_reserved":false,"is_disabled":true,"rental_uris":{"android":"levelo://app?vid=1c832794-0e84-48c4-824a-273066b59290","ios":"levelo://app?vid=1c832794-0e84-48c4-824a-273066b59290"},"vehicle_type_id":"4","last_reported":1733155953,"current_range_meters":30000,"station_id":"ce4bhg92rcd13ifvqf90","pricing_plan_id":"cebpf4jnsgd1na2vs0mg"},{"bike_id":"eaa73896-04a8-4ef6-a4c7-4d4e56920b82","system_id":"levelo_inurba_marseille","lat":43.29296,"lon":5.37449,"is_reserved":false,"is_disabled":true,"rental_uris":{"android":"levelo://app?vid=eaa73896-04a8-4ef6-a4c7-4d4e56920b82","ios":"levelo://app?vid=eaa73896-04a8-4ef6-a4c7-4d4e56920b82"},"vehicle_type_id":"4","last_reported":1733155953,"current_range_meters":0,"station_id":"ce4bgi12rcd13ifvqb70","pricing_plan_id":"cebpf4jnsgd1na2vs0mg"},{"bike_id":"c7437a0b-1b30-4e59-8500-808683dddc64","system_id":"levelo_inurba_marseille","lat":43.29895,"lon":5.38894,"is_reserved":false,"is_disabled":false,"rental_uris":{"android":"levelo://app?vid=c7437a0b-1b30-4e59-8500-808683dddc64","ios":"levelo://app?vid=c7437a0b-1b30-4e59-8500-808683dddc64"},"vehicle_type_id":"4","last_reported":1733155953,"current_range_meters":24800,"station_id":"ce4bh392rcd13ifvqdl0","pricing_plan_id":"cebpf4jnsgd1na2vs0mg"},{"bike_id":"3b24bbb1-387d-4a9c-b304-e5e881354016","system_id":"levelo_inurba_marseille","lat":43.29302,"lon":5.37184,"is_reserved":false,"is_disabled":false,"rental_uris":{"android":"levelo://app?vid=3b24bbb1-387d-4a9c-b304-e5e881354016","ios":"levelo://app?vid=3b24bbb1-387d-4a9c-b304-e5e881354016"},"vehicle_type_id":"4","last_reported":1733155953,"current_range_meters":24000,"station_id":"ce4bgh92rcd13ifvqb40","pricing_plan_id":"cebpf4jnsgd1na2vs0mg"},{"bike_id":"749cb1cb-4d4c-4e48-bab8-f0f8d049f6fc","system_id":"levelo_inurba_marseille","lat":43.26686,"lon":5.38269,"is_reserved":false,"is_disabled":true,"rental_uris":{"android":"levelo://app?vid=749cb1cb-4d4c-4e48-bab8-f0f8d049f6fc","ios":"levelo://app?vid=749cb1cb-4d4c-4e48-bab8-f0f8d049f6fc"},"vehicle_type_id":"4","last_reported":1733155953,"current_range_meters":10800,"station_id":"ce4bhg92rcd13ifvqf90","pricing_plan_id":"cebpf4jnsgd1na2vs0mg"},{"bike_id":"27cac916-3aeb-4169-9096-1125a54ca1b2","system_id":"levelo_inurba_marseille","lat":43.26918,"lon":5.40266,"is_reserved":false,"is_disabled":false,"rental_uris":{"android":"levelo://app?vid=27cac916-3aeb-4169-9096-1125a54ca1b2","ios":"levelo://app?vid=27cac916-3aeb-4169-9096-1125a54ca1b2"},"vehicle_type_id":"4","last_reported":1733155953,"current_range_meters":29600,"station_id":"cjm6bp8fraef2m0cb0m0","pricing_plan_id":"cebpf4jnsgd1na2vs0mg"},{"bike_id":"099130f6-928a-4c47-b2ac-f1ce6e726746","system_id":"levelo_inurba_marseille","lat":43.28111,"lon":5.37843,"is_reserved":false,"is_disabled":false,"rental_uris":{"android":"levelo://app?vid=099130f6-928a-4c47-b2ac-f1ce6e726746","ios":"levelo://app?vid=099130f6-928a-4c47-b2ac-f1ce6e726746"},"vehicle_type_id":"4","last_reported":1733155953,"current_range_meters":30400,"station_id":"ce4bha12rcd13ifvqee0","pricing_plan_id":"cebpf4jnsgd1na2vs0mg"},{"bike_id":"bd12d2c0-65f1-4f51-bfc2-c60adc9faa31","system_id":"levelo_inurba_marseille","lat":43.29817,"lon":5.38327,"is_reserved":false,"is_disabled":false,"rental_uris":{"android":"levelo://app?vid=bd12d2c0-65f1-4f51-bfc2-c60adc9faa31","ios":"levelo://app?vid=bd12d2c0-65f1-4f51-bfc2-c60adc9faa31"},"vehicle_type_id":"4","last_reported":1733155953,"current_range_meters":26800,"station_id":"","pricing_plan_id":"cebpf4jnsgd1na2vs0mg"},{"bike_id":"5551aff9-725d-483b-8d9d-d7ba1bcf5e86","system_id":"levelo_inurba_marseille","lat":43.28647,"lon":5.36346,"is_reserved":false,"is_disabled":false,"rental_uris":{"android":"levelo://app?vid=5551aff9-725d-483b-8d9d-d7ba1bcf5e86","ios":"levelo://app?vid=5551aff9-725d-483b-8d9d-d7ba1bcf5e86"},"vehicle_type_id":"4","last_reported":1733155953,"current_range_meters":17600,"station_id":"ce4bhah2rcd13ifvqej0","pricing_plan_id":"cebpf4jnsgd1na2vs0mg"},{"bike_id":"c36dfb5e-376b-4d06-b441-d106464c335c","system_id":"levelo_inurba_marseille","lat":43.26196,"lon":5.37447,"is_reserved":false,"is_disabled":false,"rental_uris":{"android":"levelo://app?vid=c36dfb5e-376b-4d06-b441-d106464c335c","ios":"levelo://app?vid=c36dfb5e-376b-4d06-b441-d106464c335c"},"vehicle_type_id":"4","last_reported":1733155953,"current_range_meters":18800,"station_id":"ce4bhgp2rcd13ifvqfc0","pricing_plan_id":"cebpf4jnsgd1na2vs0mg"},{"bike_id":"7932e894-60e4-4259-ad2b-e25a6bbb7ae7","system_id":"levelo_inurba_marseille","lat":43.28405,"lon":5.37517,"is_reserved":false,"is_disabled":false,"rental_uris":{"android":"levelo://app?vid=7932e894-60e4-4259-ad2b-e25a6bbb7ae7","ios":"levelo://app?vid=7932e894-60e4-4259-ad2b-e25a6bbb7ae7"},"vehicle_type_id":"4","last_reported":1733155953,"current_range_meters":28000,"station_id":"ce4bh412rcd13ifvqds0","pricing_plan_id":"cebpf4jnsgd1na2vs0mg"},{"bike_id":"634e8d72-5f12-46eb-8a5a-93f37465274c","system_id":"levelo_inurba_marseille","lat":43.29888,"lon":5.38898,"is_reserved":false,"is_disabled":false,"rental_uris":{"android":"levelo://app?vid=634e8d72-5f12-46eb-8a5a-93f37465274c","ios":"levelo://app?vid=634e8d72-5f12-46eb-8a5a-93f37465274c"},"vehicle_type_id":"4","last_reported":1733155953,"current_range_meters":32000,"station_id":"ce4bh392rcd13ifvqdl0","pricing_plan_id":"cebpf4jnsgd1na2vs0mg"},{"bike_id":"6c26b0bc-0f7f-4a90-b019-435bf7dc71a5","system_id":"levelo_inurba_marseille","lat":43.31181,"lon":5.36873,"is_reserved":false,"is_disabled":false,"rental_uris":{"android":"levelo://app?vid=6c26b0bc-0f7f-4a90-b019-435bf7dc71a5","ios":"levelo://app?vid=6c26b0bc-0f7f-4a90-b019-435bf7dc71a5"},"vehicle_type_id":"4","last_reported":1733155953,"current_range_meters":33200,"station_id":"ce4bgl92rcd13ifvqbq0","pricing_plan_id":"cebpf4jnsgd1na2vs0mg"},{"bike_id":"606a6077-d9ba-437a-9fc0-56ad8db26f37","system_id":"levelo_inurba_marseille","lat":43.26036,"lon":5.3755,"is_reserved":false,"is_disabled":false,"rental_uris":{"android":"levelo://app?vid=606a6077-d9ba-437a-9fc0-56ad8db26f37","ios":"levelo://app?vid=606a6077-d9ba-437a-9fc0-56ad8db26f37"},"vehicle_type_id":"4","last_reported":1733155953,"current_range_meters":37600,"station_id":"ce4bhgh2rcd13ifvqfa0","pricing_plan_id":"cebpf4jnsgd1na2vs0mg"},{"bike_id":"7cbea666-a45a-43ef-9f91-4fcc7e2e138b","system_id":"levelo_inurba_marseille","lat":43.29362,"lon":5.37851,"is_reserved":false,"is_disabled":true,"rental_uris":{"android":"levelo://app?vid=7cbea666-a45a-43ef-9f91-4fcc7e2e138b","ios":"levelo://app?vid=7cbea666-a45a-43ef-9f91-4fcc7e2e138b"},"vehicle_type_id":"4","last_reported":1733155953,"current_range_meters":6400,"station_id":"ce4bgjh2rcd13ifvqbf0","pricing_plan_id":"cebpf4jnsgd1na2vs0mg"},{"bike_id":"c89d3cbb-9818-4e9d-89dd-489dbdbaa1a3","system_id":"levelo_inurba_marseille","lat":43.31711,"lon":5.37735,"is_reserved":false,"is_disabled":false,"rental_uris":{"android":"levelo://app?vid=c89d3cbb-9818-4e9d-89dd-489dbdbaa1a3","ios":"levelo://app?vid=c89d3cbb-9818-4e9d-89dd-489dbdbaa1a3"},"vehicle_type_id":"4","last_reported":1733155953,"current_range_meters":24000,"station_id":"ce4bgth2rcd13ifvqch0","pricing_plan_id":"cebpf4jnsgd1na2vs0mg"},{"bike_id":"0b7a5d71-bb71-4b7d-8b42-0ebfc1a18067","system_id":"levelo_inurba_marseille","lat":43.2693,"lon":5.38919,"is_reserved":false,"is_disabled":true,"rental_uris":{"android":"levelo://app?vid=0b7a5d71-bb71-4b7d-8b42-0ebfc1a18067","ios":"levelo://app?vid=0b7a5d71-bb71-4b7d-8b42-0ebfc1a18067"},"vehicle_type_id":"4","last_reported":1733155953,"current_range_meters":0,"station_id":"ce4bhhh2rcd13ifvqfl0","pricing_plan_id":"cebpf4jnsgd1na2vs0mg"},{"bike_id":"44ece6b4-ff8a-4220-b902-f7f21fac9ae1","system_id":"levelo_inurba_marseille","lat":43.2968,"lon":5.37294,"is_reserved":false,"is_disabled":false,"rental_uris":{"android":"levelo://app?vid=44ece6b4-ff8a-4220-b902-f7f21fac9ae1","ios":"levelo://app?vid=44ece6b4-ff8a-4220-b902-f7f21fac9ae1"},"vehicle_type_id":"4","last_reported":1733155953,"current_range_meters":38800,"station_id":"ce4bgk12rcd13ifvqbj0","pricing_plan_id":"cebpf4jnsgd1na2vs0mg"},{"bike_id":"24fdc168-ebb3-455e-9a84-fc7b79cc9f1c","system_id":"levelo_inurba_marseille","lat":43.29275,"lon":5.36853,"is_reserved":false,"is_disabled":true,"rental_uris":{"android":"levelo://app?vid=24fdc168-ebb3-455e-9a84-fc7b79cc9f1c","ios":"levelo://app?vid=24fdc168-ebb3-455e-9a84-fc7b79cc9f1c"},"vehicle_type_id":"4","last_reported":1733155953,"current_range_meters":26800,"station_id":"","pricing_plan_id":"cebpf4jnsgd1na2vs0mg"},{"bike_id":"43279754-74a1-4505-afbf-5ba1ab84c3c7","system_id":"levelo_inurba_marseille","lat":43.27208,"lon":5.39189,"is_reserved":false,"is_disabled":false,"rental_uris":{"android":"levelo://app?vid=43279754-74a1-4505-afbf-5ba1ab84c3c7","ios":"levelo://app?vid=43279754-74a1-4505-afbf-5ba1ab84c3c7"},"vehicle_type_id":"4","last_reported":1733155953,"current_range_meters":10000,"station_id":"ce4bhhp2rcd13ifvqfm0","pricing_plan_id":"cebpf4jnsgd1na2vs0mg"},{"bike_id":"b8e45302-0507-4774-bb78-616e8f016a9e","system_id":"levelo_inurba_marseille","lat":43.281349,"lon":5.426449,"is_reserved":false,"is_disabled":false,"rental_uris":{"android":"levelo://app?vid=b8e45302-0507-4774-bb78-616e8f016a9e","ios":"levelo://app?vid=b8e45302-0507-4774-bb78-616e8f016a9e"},"vehicle_type_id":"4","last_reported":1733155953,"current_range_meters":27600,"station_id":"ce4bhnh2rcd13ifvqgug","pricing_plan_id":"cebpf4jnsgd1na2vs0mg"},{"bike_id":"cdfe6590-4984-4014-86c8-6dd70747c27a","system_id":"levelo_inurba_marseille","lat":43.2974,"lon":5.37418,"is_reserved":false,"is_disabled":true,"rental_uris":{"android":"levelo://app?vid=cdfe6590-4984-4014-86c8-6dd70747c27a","ios":"levelo://app?vid=cdfe6590-4984-4014-86c8-6dd70747c27a"},"vehicle_type_id":"4","last_reported":1733155953,"current_range_meters":0,"station_id":"","pricing_plan_id":"cebpf4jnsgd1na2vs0mg"},{"bike_id":"05cecbbc-d928-48d6-bb9e-6db3f5e00983","system_id":"levelo_inurba_marseille","lat":43.23201,"lon":5.35548,"is_reserved":false,"is_disabled":false,"rental_uris":{"android":"levelo://app?vid=05cecbbc-d928-48d6-bb9e-6db3f5e00983","ios":"levelo://app?vid=05cecbbc-d928-48d6-bb9e-6db3f5e00983"},"vehicle_type_id":"4","last_reported":1733155953,"current_range_meters":25600,"station_id":"ce4bhu92rcd13ifvqi70","pricing_plan_id":"cebpf4jnsgd1na2vs0mg"},{"bike_id":"c0f3bdcd-6e09-473a-b944-6d1a6edcf59e","system_id":"levelo_inurba_marseille","lat":43.31712,"lon":5.37752,"is_reserved":false,"is_disabled":false,"rental_uris":{"android":"levelo://app?vid=c0f3bdcd-6e09-473a-b944-6d1a6edcf59e","ios":"levelo://app?vid=c0f3bdcd-6e09-473a-b944-6d1a6edcf59e"},"vehicle_type_id":"4","last_reported":1733155953,"current_range_meters":38800,"station_id":"ce4bgth2rcd13ifvqch0","pricing_plan_id":"cebpf4jnsgd1na2vs0mg"},{"bike_id":"36142e23-8ff6-4096-ad19-b039c8156b69","system_id":"levelo_inurba_marseille","lat":43.28659,"lon":5.36357,"is_reserved":false,"is_disabled":true,"rental_uris":{"android":"levelo://app?vid=36142e23-8ff6-4096-ad19-b039c8156b69","ios":"levelo://app?vid=36142e23-8ff6-4096-ad19-b039c8156b69"},"vehicle_type_id":"4","last_reported":1733155953,"current_range_meters":36800,"station_id":"ce4bhah2rcd13ifvqej0","pricing_plan_id":"cebpf4jnsgd1na2vs0mg"},{"bike_id":"3e762295-e52d-483f-8654-ca00b8495b74","system_id":"levelo_inurba_marseille","lat":43.27439,"lon":5.40717,"is_reserved":false,"is_disabled":false,"rental_uris":{"android":"levelo://app?vid=3e762295-e52d-483f-8654-ca00b8495b74","ios":"levelo://app?vid=3e762295-e52d-483f-8654-ca00b8495b74"},"vehicle_type_id":"4","last_reported":1733155953,"current_range_meters":12400,"station_id":"","pricing_plan_id":"cebpf4jnsgd1na2vs0mg"},{"bike_id":"cdaff0af-d84d-4c94-b260-8a0a2ac44688","system_id":"levelo_inurba_marseille","lat":43.28153,"lon":5.42645,"is_reserved":false,"is_disabled":false,"rental_uris":{"android":"levelo://app?vid=cdaff0af-d84d-4c94-b260-8a0a2ac44688","ios":"levelo://app?vid=cdaff0af-d84d-4c94-b260-8a0a2ac44688"},"vehicle_type_id":"4","last_reported":1733155953,"current_range_meters":24800,"station_id":"ce4bhnh2rcd13ifvqgug","pricing_plan_id":"cebpf4jnsgd1na2vs0mg"},{"bike_id":"bc00d63f-ec6e-42cf-86e5-b3d80f43c283","system_id":"levelo_inurba_marseille","lat":43.29788,"lon":5.38086,"is_reserved":false,"is_disabled":false,"rental_uris":{"android":"levelo://app?vid=bc00d63f-ec6e-42cf-86e5-b3d80f43c283","ios":"levelo://app?vid=bc00d63f-ec6e-42cf-86e5-b3d80f43c283"},"vehicle_type_id":"4","last_reported":1733155953,"current_range_meters":38800,"station_id":"ce4bgip2rcd13ifvqbb0","pricing_plan_id":"cebpf4jnsgd1na2vs0mg"},{"bike_id":"4c3fb316-febe-4764-b0a1-d58fd67e3e9a","system_id":"levelo_inurba_marseille","lat":43.28189,"lon":5.38289,"is_reserved":false,"is_disabled":true,"rental_uris":{"android":"levelo://app?vid=4c3fb316-febe-4764-b0a1-d58fd67e3e9a","ios":"levelo://app?vid=4c3fb316-febe-4764-b0a1-d58fd67e3e9a"},"vehicle_type_id":"4","last_reported":1733155953,"current_range_meters":30400,"station_id":"","pricing_plan_id":"cebpf4jnsgd1na2vs0mg"},{"bike_id":"987a5ab4-d60c-480c-94b6-7cab38975402","system_id":"levelo_inurba_marseille","lat":43.29748,"lon":5.37971,"is_reserved":false,"is_disabled":true,"rental_uris":{"android":"levelo://app?vid=987a5ab4-d60c-480c-94b6-7cab38975402","ios":"levelo://app?vid=987a5ab4-d60c-480c-94b6-7cab38975402"},"vehicle_type_id":"4","last_reported":1733155953,"current_range_meters":0,"station_id":"","pricing_plan_id":"cebpf4jnsgd1na2vs0mg"},{"bike_id":"c971ede0-41c7-461a-bc29-ae50a8251821","system_id":"levelo_inurba_marseille","lat":43.32294,"lon":5.38268,"is_reserved":false,"is_disabled":false,"rental_uris":{"android":"levelo://app?vid=c971ede0-41c7-461a-bc29-ae50a8251821","ios":"levelo://app?vid=c971ede0-41c7-461a-bc29-ae50a8251821"},"vehicle_type_id":"4","last_reported":1733155953,"current_range_meters":18000,"station_id":"ce4bhr12rcd13ifvqhqg","pricing_plan_id":"cebpf4jnsgd1na2vs0mg"},{"bike_id":"4618c16c-75de-4283-8cc0-91223c816666","system_id":"levelo_inurba_marseille","lat":43.26553,"lon":5.37287,"is_reserved":false,"is_disabled":false,"rental_uris":{"android":"levelo://app?vid=4618c16c-75de-4283-8cc0-91223c816666","ios":"levelo://app?vid=4618c16c-75de-4283-8cc0-91223c816666"},"vehicle_type_id":"4","last_reported":1733155953,"current_range_meters":22400,"station_id":"ce4bhg12rcd13ifvqf70","pricing_plan_id":"cebpf4jnsgd1na2vs0mg"},{"bike_id":"1f28300c-d8be-4d08-b5ea-d3aadf1e301d","system_id":"levelo_inurba_marseille","lat":43.26251,"lon":5.42131,"is_reserved":false,"is_disabled":false,"rental_uris":{"android":"levelo://app?vid=1f28300c-d8be-4d08-b5ea-d3aadf1e301d","ios":"levelo://app?vid=1f28300c-d8be-4d08-b5ea-d3aadf1e301d"},"vehicle_type_id":"4","last_reported":1733155953,"current_range_meters":22800,"station_id":"","pricing_plan_id":"cebpf4jnsgd1na2vs0mg"},{"bike_id":"b7ab8c01-033f-4395-8276-23c850ad3d02","system_id":"levelo_inurba_marseille","lat":43.30318,"lon":5.36577,"is_reserved":false,"is_disabled":true,"rental_uris":{"android":"levelo://app?vid=b7ab8c01-033f-4395-8276-23c850ad3d02","ios":"levelo://app?vid=b7ab8c01-033f-4395-8276-23c850ad3d02"},"vehicle_type_id":"4","last_reported":1733155953,"current_range_meters":0,"station_id":"","pricing_plan_id":"cebpf4jnsgd1na2vs0mg"},{"bike_id":"6cb0ba8e-9800-46ec-b7b5-b60569f71ee2","system_id":"levelo_inurba_marseille","lat":43.30924,"lon":5.4015,"is_reserved":false,"is_disabled":false,"rental_uris":{"android":"levelo://app?vid=6cb0ba8e-9800-46ec-b7b5-b60569f71ee2","ios":"levelo://app?vid=6cb0ba8e-9800-46ec-b7b5-b60569f71ee2"},"vehicle_type_id":"4","last_reported":1733155953,"current_range_meters":9600,"station_id":"ce4bgvp2rcd13ifvqct0","pricing_plan_id":"cebpf4jnsgd1na2vs0mg"},{"bike_id":"4c1f4d35-89df-4abc-bb7d-02cc1be67725","system_id":"levelo_inurba_marseille","lat":43.23191,"lon":5.39986,"is_reserved":false,"is_disabled":true,"rental_uris":{"android":"levelo://app?vid=4c1f4d35-89df-4abc-bb7d-02cc1be67725","ios":"levelo://app?vid=4c1f4d35-89df-4abc-bb7d-02cc1be67725"},"vehicle_type_id":"4","last_reported":1733155953,"current_range_meters":0,"station_id":"ce4bhn12rcd13ifvqgqg","pricing_plan_id":"cebpf4jnsgd1na2vs0mg"},{"bike_id":"7f605fb6-28a5-4333-80f6-8484a84b0b5c","system_id":"levelo_inurba_marseille","lat":43.31347,"lon":5.36716,"is_reserved":false,"is_disabled":false,"rental_uris":{"android":"levelo://app?vid=7f605fb6-28a5-4333-80f6-8484a84b0b5c","ios":"levelo://app?vid=7f605fb6-28a5-4333-80f6-8484a84b0b5c"},"vehicle_type_id":"4","last_reported":1733155953,"current_range_meters":39200,"station_id":"ce4bgr92rcd13ifvqc6g","pricing_plan_id":"cebpf4jnsgd1na2vs0mg"},{"bike_id":"6b2b901e-5d96-4afc-b9a5-a7594ae72748","system_id":"levelo_inurba_marseille","lat":43.27277,"lon":5.39192,"is_reserved":false,"is_disabled":true,"rental_uris":{"android":"levelo://app?vid=6b2b901e-5d96-4afc-b9a5-a7594ae72748","ios":"levelo://app?vid=6b2b901e-5d96-4afc-b9a5-a7594ae72748"},"vehicle_type_id":"4","last_reported":1733155953,"current_range_meters":0,"station_id":"","pricing_plan_id":"cebpf4jnsgd1na2vs0mg"},{"bike_id":"8f099e80-0876-49ae-a6e4-f04294bd570d","system_id":"levelo_inurba_marseille","lat":43.32366,"lon":5.38884,"is_reserved":false,"is_disabled":false,"rental_uris":{"android":"levelo://app?vid=8f099e80-0876-49ae-a6e4-f04294bd570d","ios":"levelo://app?vid=8f099e80-0876-49ae-a6e4-f04294bd570d"},"vehicle_type_id":"4","last_reported":1733155953,"current_range_meters":26800,"station_id":"ce4bhqp2rcd13ifvqhog","pricing_plan_id":"cebpf4jnsgd1na2vs0mg"},{"bike_id":"3e9cd132-d957-4086-ac08-1c6d3c118aa3","system_id":"levelo_inurba_marseille","lat":43.30531,"lon":5.36541,"is_reserved":false,"is_disabled":false,"rental_uris":{"android":"levelo://app?vid=3e9cd132-d957-4086-ac08-1c6d3c118aa3","ios":"levelo://app?vid=3e9cd132-d957-4086-ac08-1c6d3c118aa3"},"vehicle_type_id":"4","last_reported":1733155953,"current_range_meters":30800,"station_id":"ce4bgs12rcd13ifvqcag","pricing_plan_id":"cebpf4jnsgd1na2vs0mg"},{"bike_id":"0ca60af7-be25-4cec-9d4d-395d419cb6aa","system_id":"levelo_inurba_marseille","lat":43.31225,"lon":5.36861,"is_reserved":false,"is_disabled":false,"rental_uris":{"android":"levelo://app?vid=0ca60af7-be25-4cec-9d4d-395d419cb6aa","ios":"levelo://app?vid=0ca60af7-be25-4cec-9d4d-395d419cb6aa"},"vehicle_type_id":"4","last_reported":1733155953,"current_range_meters":33600,"station_id":"ce4bgl92rcd13ifvqbq0","pricing_plan_id":"cebpf4jnsgd1na2vs0mg"},{"bike_id":"d535ef42-5156-4911-b77b-56bd23f52d17","system_id":"levelo_inurba_marseille","lat":43.24184,"lon":5.39723,"is_reserved":false,"is_disabled":false,"rental_uris":{"android":"levelo://app?vid=d535ef42-5156-4911-b77b-56bd23f52d17","ios":"levelo://app?vid=d535ef42-5156-4911-b77b-56bd23f52d17"},"vehicle_type_id":"4","last_reported":1733155953,"current_range_meters":38000,"station_id":"ce4bhn12rcd13ifvqgpg","pricing_plan_id":"cebpf4jnsgd1na2vs0mg"},{"bike_id":"1e21ee7c-ab02-4877-817e-5d83de000297","system_id":"levelo_inurba_marseille","lat":43.30909,"lon":5.36849,"is_reserved":false,"is_disabled":true,"rental_uris":{"android":"levelo://app?vid=1e21ee7c-ab02-4877-817e-5d83de000297","ios":"levelo://app?vid=1e21ee7c-ab02-4877-817e-5d83de000297"},"vehicle_type_id":"4","last_reported":1733155953,"current_range_meters":38800,"station_id":"ce4bgn92rcd13ifvqbvg","pricing_plan_id":"cebpf4jnsgd1na2vs0mg"},{"bike_id":"8d1c8b92-79bb-4181-b0d2-5e94db1a14d0","system_id":"levelo_inurba_marseille","lat":43.3001,"lon":5.38272,"is_reserved":false,"is_disabled":true,"rental_uris":{"android":"levelo://app?vid=8d1c8b92-79bb-4181-b0d2-5e94db1a14d0","ios":"levelo://app?vid=8d1c8b92-79bb-4181-b0d2-5e94db1a14d0"},"vehicle_type_id":"4","last_reported":1733155953,"current_range_meters":0,"station_id":"","pricing_plan_id":"cebpf4jnsgd1na2vs0mg"},{"bike_id":"b393e343-ccc2-4e09-a3d5-b33fb6d87dbf","system_id":"levelo_inurba_marseille","lat":43.30126,"lon":5.38782,"is_reserved":false,"is_disabled":true,"rental_uris":{"android":"levelo://app?vid=b393e343-ccc2-4e09-a3d5-b33fb6d87dbf","ios":"levelo://app?vid=b393e343-ccc2-4e09-a3d5-b33fb6d87dbf"},"vehicle_type_id":"4","last_reported":1733155953,"current_range_meters":33200,"station_id":"ce4bghh2rcd13ifvqb60","pricing_plan_id":"cebpf4jnsgd1na2vs0mg"},{"bike_id":"c6864ef2-3346-4bb0-856e-a92e85896257","system_id":"levelo_inurba_marseille","lat":43.26577,"lon":5.39007,"is_reserved":false,"is_disabled":false,"rental_uris":{"android":"levelo://app?vid=c6864ef2-3346-4bb0-856e-a92e85896257","ios":"levelo://app?vid=c6864ef2-3346-4bb0-856e-a92e85896257"},"vehicle_type_id":"4","last_reported":1733155953,"current_range_meters":11600,"station_id":"ce4bhe12rcd13ifvqf30","pricing_plan_id":"cebpf4jnsgd1na2vs0mg"},{"bike_id":"333a4992-e537-4493-b4c6-4dcfd2486ca8","system_id":"levelo_inurba_marseille","lat":43.29261,"lon":5.38459,"is_reserved":false,"is_disabled":false,"rental_uris":{"android":"levelo://app?vid=333a4992-e537-4493-b4c6-4dcfd2486ca8","ios":"levelo://app?vid=333a4992-e537-4493-b4c6-4dcfd2486ca8"},"vehicle_type_id":"4","last_reported":1733155953,"current_range_meters":22000,"station_id":"ce4bh692rcd13ifvqea0","pricing_plan_id":"cebpf4jnsgd1na2vs0mg"},{"bike_id":"1c7ae222-8f70-4487-a2f7-9ce97d44aead","system_id":"levelo_inurba_marseille","lat":43.26544,"lon":5.37293,"is_reserved":false,"is_disabled":true,"rental_uris":{"android":"levelo://app?vid=1c7ae222-8f70-4487-a2f7-9ce97d44aead","ios":"levelo://app?vid=1c7ae222-8f70-4487-a2f7-9ce97d44aead"},"vehicle_type_id":"4","last_reported":1733155953,"current_range_meters":400,"station_id":"ce4bhg12rcd13ifvqf70","pricing_plan_id":"cebpf4jnsgd1na2vs0mg"},{"bike_id":"d5ad7d28-47b1-46b2-b0eb-b7f96a03c22a","system_id":"levelo_inurba_marseille","lat":43.29851,"lon":5.36272,"is_reserved":false,"is_disabled":true,"rental_uris":{"android":"levelo://app?vid=d5ad7d28-47b1-46b2-b0eb-b7f96a03c22a","ios":"levelo://app?vid=d5ad7d28-47b1-46b2-b0eb-b7f96a03c22a"},"vehicle_type_id":"4","last_reported":1733155953,"current_range_meters":38400,"station_id":"ce4bgpp2rcd13ifvqc3g","pricing_plan_id":"cebpf4jnsgd1na2vs0mg"},{"bike_id":"7a1c2b0f-bd77-423c-898d-e1f9d5b90454","system_id":"levelo_inurba_marseille","lat":43.30551,"lon":5.36558,"is_reserved":false,"is_disabled":false,"rental_uris":{"android":"levelo://app?vid=7a1c2b0f-bd77-423c-898d-e1f9d5b90454","ios":"levelo://app?vid=7a1c2b0f-bd77-423c-898d-e1f9d5b90454"},"vehicle_type_id":"4","last_reported":1733155953,"current_range_meters":6800,"station_id":"ce4bgs12rcd13ifvqcag","pricing_plan_id":"cebpf4jnsgd1na2vs0mg"},{"bike_id":"45891de7-8812-4ec2-a7c4-56ca81dd5332","system_id":"levelo_inurba_marseille","lat":43.23062,"lon":5.3549,"is_reserved":false,"is_disabled":false,"rental_uris":{"android":"levelo://app?vid=45891de7-8812-4ec2-a7c4-56ca81dd5332","ios":"levelo://app?vid=45891de7-8812-4ec2-a7c4-56ca81dd5332"},"vehicle_type_id":"4","last_reported":1733155953,"current_range_meters":28400,"station_id":"cpo3342slgdg3j2ifvpg","pricing_plan_id":"cebpf4jnsgd1na2vs0mg"},{"bike_id":"a79d3deb-4fb8-4e3e-8555-dfa46134ae86","system_id":"levelo_inurba_marseille","lat":43.28031,"lon":5.36958,"is_reserved":false,"is_disabled":true,"rental_uris":{"android":"levelo://app?vid=a79d3deb-4fb8-4e3e-8555-dfa46134ae86","ios":"levelo://app?vid=a79d3deb-4fb8-4e3e-8555-dfa46134ae86"},"vehicle_type_id":"4","last_reported":1733155953,"current_range_meters":0,"station_id":"ce4bha12rcd13ifvqef0","pricing_plan_id":"cebpf4jnsgd1na2vs0mg"},{"bike_id":"94c3e58b-9413-427b-9123-d0c1a43b9c97","system_id":"levelo_inurba_marseille","lat":43.29713,"lon":5.37705,"is_reserved":false,"is_disabled":false,"rental_uris":{"android":"levelo://app?vid=94c3e58b-9413-427b-9123-d0c1a43b9c97","ios":"levelo://app?vid=94c3e58b-9413-427b-9123-d0c1a43b9c97"},"vehicle_type_id":"4","last_reported":1733155953,"current_range_meters":38800,"station_id":"ce4bgkh2rcd13ifvqbl0","pricing_plan_id":"cebpf4jnsgd1na2vs0mg"},{"bike_id":"502a96ab-17c2-4054-85b0-d3158c661de7","system_id":"levelo_inurba_marseille","lat":43.29192,"lon":5.39318,"is_reserved":false,"is_disabled":true,"rental_uris":{"android":"levelo://app?vid=502a96ab-17c2-4054-85b0-d3158c661de7","ios":"levelo://app?vid=502a96ab-17c2-4054-85b0-d3158c661de7"},"vehicle_type_id":"4","last_reported":1733155953,"current_range_meters":18000,"station_id":"ce4bh192rcd13ifvqdd0","pricing_plan_id":"cebpf4jnsgd1na2vs0mg"},{"bike_id":"f78a695f-1e51-496d-a80d-f5757164d6e4","system_id":"levelo_inurba_marseille","lat":43.26681,"lon":5.3827,"is_reserved":false,"is_disabled":true,"rental_uris":{"android":"levelo://app?vid=f78a695f-1e51-496d-a80d-f5757164d6e4","ios":"levelo://app?vid=f78a695f-1e51-496d-a80d-f5757164d6e4"},"vehicle_type_id":"4","last_reported":1733155953,"current_range_meters":32800,"station_id":"ce4bhg92rcd13ifvqf90","pricing_plan_id":"cebpf4jnsgd1na2vs0mg"},{"bike_id":"6c5dd914-050b-4e5c-93e9-6374d69c4ef2","system_id":"levelo_inurba_marseille","lat":43.31886,"lon":5.40744,"is_reserved":false,"is_disabled":false,"rental_uris":{"android":"levelo://app?vid=6c5dd914-050b-4e5c-93e9-6374d69c4ef2","ios":"levelo://app?vid=6c5dd914-050b-4e5c-93e9-6374d69c4ef2"},"vehicle_type_id":"4","last_reported":1733155953,"current_range_meters":38800,"station_id":"ce4bhq12rcd13ifvqhig","pricing_plan_id":"cebpf4jnsgd1na2vs0mg"},{"bike_id":"b8e0e033-0de6-4375-827f-07f6e1249abd","system_id":"levelo_inurba_marseille","lat":43.30308,"lon":5.36899,"is_reserved":false,"is_disabled":false,"rental_uris":{"android":"levelo://app?vid=b8e0e033-0de6-4375-827f-07f6e1249abd","ios":"levelo://app?vid=b8e0e033-0de6-4375-827f-07f6e1249abd"},"vehicle_type_id":"4","last_reported":1733155953,"current_range_meters":38800,"station_id":"ce4bgqh2rcd13ifvqc5g","pricing_plan_id":"cebpf4jnsgd1na2vs0mg"},{"bike_id":"21984cfa-bdff-4ce6-b4b6-0519802e35d0","system_id":"levelo_inurba_marseille","lat":43.29184,"lon":5.39315,"is_reserved":false,"is_disabled":false,"rental_uris":{"android":"levelo://app?vid=21984cfa-bdff-4ce6-b4b6-0519802e35d0","ios":"levelo://app?vid=21984cfa-bdff-4ce6-b4b6-0519802e35d0"},"vehicle_type_id":"4","last_reported":1733155953,"current_range_meters":21600,"station_id":"ce4bh192rcd13ifvqdd0","pricing_plan_id":"cebpf4jnsgd1na2vs0mg"},{"bike_id":"1deda3ca-70fd-4ca1-9d74-296b37d8060a","system_id":"levelo_inurba_marseille","lat":43.28941,"lon":5.36639,"is_reserved":false,"is_disabled":false,"rental_uris":{"android":"levelo://app?vid=1deda3ca-70fd-4ca1-9d74-296b37d8060a","ios":"levelo://app?vid=1deda3ca-70fd-4ca1-9d74-296b37d8060a"},"vehicle_type_id":"4","last_reported":1733155953,"current_range_meters":32000,"station_id":"ce4bhap2rcd13ifvqek0","pricing_plan_id":"cebpf4jnsgd1na2vs0mg"},{"bike_id":"c59e598b-f6d9-41a1-ae6e-9ba138b277b9","system_id":"levelo_inurba_marseille","lat":43.30478,"lon":5.37912,"is_reserved":false,"is_disabled":true,"rental_uris":{"android":"levelo://app?vid=c59e598b-f6d9-41a1-ae6e-9ba138b277b9","ios":"levelo://app?vid=c59e598b-f6d9-41a1-ae6e-9ba138b277b9"},"vehicle_type_id":"4","last_reported":1733155953,"current_range_meters":38800,"station_id":"ce4bgup2rcd13ifvqcn0","pricing_plan_id":"cebpf4jnsgd1na2vs0mg"},{"bike_id":"4a024054-2090-4a37-83de-2d52c7e590a6","system_id":"levelo_inurba_marseille","lat":43.28701,"lon":5.37399,"is_reserved":false,"is_disabled":false,"rental_uris":{"android":"levelo://app?vid=4a024054-2090-4a37-83de-2d52c7e590a6","ios":"levelo://app?vid=4a024054-2090-4a37-83de-2d52c7e590a6"},"vehicle_type_id":"4","last_reported":1733155953,"current_range_meters":22000,"station_id":"ce4bh3p2rcd13ifvqdq0","pricing_plan_id":"cebpf4jnsgd1na2vs0mg"},{"bike_id":"1ad1c1c4-5d06-4d0c-af90-58e0b45a7218","system_id":"levelo_inurba_marseille","lat":43.27933,"lon":5.39567,"is_reserved":false,"is_disabled":false,"rental_uris":{"android":"levelo://app?vid=1ad1c1c4-5d06-4d0c-af90-58e0b45a7218","ios":"levelo://app?vid=1ad1c1c4-5d06-4d0c-af90-58e0b45a7218"},"vehicle_type_id":"4","last_reported":1733155953,"current_range_meters":38800,"station_id":"ce4bhf92rcd13ifvqf40","pricing_plan_id":"cebpf4jnsgd1na2vs0mg"},{"bike_id":"9c77a68d-2e99-44e9-b903-950fb6644d35","system_id":"levelo_inurba_marseille","lat":43.25291,"lon":5.39451,"is_reserved":false,"is_disabled":true,"rental_uris":{"android":"levelo://app?vid=9c77a68d-2e99-44e9-b903-950fb6644d35","ios":"levelo://app?vid=9c77a68d-2e99-44e9-b903-950fb6644d35"},"vehicle_type_id":"4","last_reported":1733155953,"current_range_meters":0,"station_id":"","pricing_plan_id":"cebpf4jnsgd1na2vs0mg"},{"bike_id":"ef21c035-bb49-424f-9bea-f5275d76500c","system_id":"levelo_inurba_marseille","lat":43.29844,"lon":5.36271,"is_reserved":false,"is_disabled":false,"rental_uris":{"android":"levelo://app?vid=ef21c035-bb49-424f-9bea-f5275d76500c","ios":"levelo://app?vid=ef21c035-bb49-424f-9bea-f5275d76500c"},"vehicle_type_id":"4","last_reported":1733155953,"current_range_meters":25200,"station_id":"ce4bgpp2rcd13ifvqc3g","pricing_plan_id":"cebpf4jnsgd1na2vs0mg"},{"bike_id":"d343be82-d45b-4580-9267-ab2a574eac02","system_id":"levelo_inurba_marseille","lat":43.30793,"lon":5.43054,"is_reserved":false,"is_disabled":false,"rental_uris":{"android":"levelo://app?vid=d343be82-d45b-4580-9267-ab2a574eac02","ios":"levelo://app?vid=d343be82-d45b-4580-9267-ab2a574eac02"},"vehicle_type_id":"4","last_reported":1733155953,"current_range_meters":10000,"station_id":"ce4bhph2rcd13ifvqheg","pricing_plan_id":"cebpf4jnsgd1na2vs0mg"},{"bike_id":"b506175b-e3b3-4ff6-94de-89fbcaee662e","system_id":"levelo_inurba_marseille","lat":43.30834,"lon":5.38178,"is_reserved":false,"is_disabled":false,"rental_uris":{"android":"levelo://app?vid=b506175b-e3b3-4ff6-94de-89fbcaee662e","ios":"levelo://app?vid=b506175b-e3b3-4ff6-94de-89fbcaee662e"},"vehicle_type_id":"4","last_reported":1733155953,"current_range_meters":20000,"station_id":"ce4bgt12rcd13ifvqce0","pricing_plan_id":"cebpf4jnsgd1na2vs0mg"},{"bike_id":"4ea402f6-45b0-4846-84f5-29270e62c818","system_id":"levelo_inurba_marseille","lat":43.30838,"lon":5.37399,"is_reserved":false,"is_disabled":true,"rental_uris":{"android":"levelo://app?vid=4ea402f6-45b0-4846-84f5-29270e62c818","ios":"levelo://app?vid=4ea402f6-45b0-4846-84f5-29270e62c818"},"vehicle_type_id":"4","last_reported":1733155953,"current_range_meters":0,"station_id":"","pricing_plan_id":"cebpf4jnsgd1na2vs0mg"},{"bike_id":"9faa23bf-6cc4-462c-b41b-652107d3a2b8","system_id":"levelo_inurba_marseille","lat":43.31221,"lon":5.36864,"is_reserved":false,"is_disabled":false,"rental_uris":{"android":"levelo://app?vid=9faa23bf-6cc4-462c-b41b-652107d3a2b8","ios":"levelo://app?vid=9faa23bf-6cc4-462c-b41b-652107d3a2b8"},"vehicle_type_id":"4","last_reported":1733155953,"current_range_meters":38800,"station_id":"ce4bgl92rcd13ifvqbq0","pricing_plan_id":"cebpf4jnsgd1na2vs0mg"},{"bike_id":"7d38d005-8d17-4926-8e36-b8a3cceb37c3","system_id":"levelo_inurba_marseille","lat":43.28422,"lon":5.34983,"is_reserved":false,"is_disabled":false,"rental_uris":{"android":"levelo://app?vid=7d38d005-8d17-4926-8e36-b8a3cceb37c3","ios":"levelo://app?vid=7d38d005-8d17-4926-8e36-b8a3cceb37c3"},"vehicle_type_id":"4","last_reported":1733155953,"current_range_meters":36400,"station_id":"ce4bhbh2rcd13ifvqepg","pricing_plan_id":"cebpf4jnsgd1na2vs0mg"},{"bike_id":"4f5e55ea-1124-4dd0-8efa-8ecf5c9aca9e","system_id":"levelo_inurba_marseille","lat":43.32281,"lon":5.38303,"is_reserved":false,"is_disabled":false,"rental_uris":{"android":"levelo://app?vid=4f5e55ea-1124-4dd0-8efa-8ecf5c9aca9e","ios":"levelo://app?vid=4f5e55ea-1124-4dd0-8efa-8ecf5c9aca9e"},"vehicle_type_id":"4","last_reported":1733155953,"current_range_meters":38800,"station_id":"ce4bhr12rcd13ifvqhqg","pricing_plan_id":"cebpf4jnsgd1na2vs0mg"},{"bike_id":"941eeae1-8936-4a86-b31a-ea87d84b2048","system_id":"levelo_inurba_marseille","lat":43.28077,"lon":5.35637,"is_reserved":false,"is_disabled":false,"rental_uris":{"android":"levelo://app?vid=941eeae1-8936-4a86-b31a-ea87d84b2048","ios":"levelo://app?vid=941eeae1-8936-4a86-b31a-ea87d84b2048"},"vehicle_type_id":"4","last_reported":1733155953,"current_range_meters":10800,"station_id":"","pricing_plan_id":"cebpf4jnsgd1na2vs0mg"},{"bike_id":"fbf196aa-b1d3-4543-a4a3-ba949cee7fd8","system_id":"levelo_inurba_marseille","lat":43.27174,"lon":5.40996,"is_reserved":false,"is_disabled":true,"rental_uris":{"android":"levelo://app?vid=fbf196aa-b1d3-4543-a4a3-ba949cee7fd8","ios":"levelo://app?vid=fbf196aa-b1d3-4543-a4a3-ba949cee7fd8"},"vehicle_type_id":"4","last_reported":1733155953,"current_range_meters":2000,"station_id":"ce4bhl12rcd13ifvqgf0","pricing_plan_id":"cebpf4jnsgd1na2vs0mg"},{"bike_id":"fe63f8d9-bc38-42c2-b81c-f846fec7ca5f","system_id":"levelo_inurba_marseille","lat":43.30636,"lon":5.40092,"is_reserved":false,"is_disabled":false,"rental_uris":{"android":"levelo://app?vid=fe63f8d9-bc38-42c2-b81c-f846fec7ca5f","ios":"levelo://app?vid=fe63f8d9-bc38-42c2-b81c-f846fec7ca5f"},"vehicle_type_id":"4","last_reported":1733155953,"current_range_meters":25200,"station_id":"ce4bh112rcd13ifvqda0","pricing_plan_id":"cebpf4jnsgd1na2vs0mg"},{"bike_id":"1176e033-efc4-474e-af61-8d3a0d5f5ccf","system_id":"levelo_inurba_marseille","lat":43.25886,"lon":5.39954,"is_reserved":false,"is_disabled":true,"rental_uris":{"android":"levelo://app?vid=1176e033-efc4-474e-af61-8d3a0d5f5ccf","ios":"levelo://app?vid=1176e033-efc4-474e-af61-8d3a0d5f5ccf"},"vehicle_type_id":"4","last_reported":1733155953,"current_range_meters":0,"station_id":"","pricing_plan_id":"cebpf4jnsgd1na2vs0mg"},{"bike_id":"7ba55356-2115-4bff-bdb9-8c7ab6b2cb54","system_id":"levelo_inurba_marseille","lat":43.29568,"lon":5.3752,"is_reserved":false,"is_disabled":false,"rental_uris":{"android":"levelo://app?vid=7ba55356-2115-4bff-bdb9-8c7ab6b2cb54","ios":"levelo://app?vid=7ba55356-2115-4bff-bdb9-8c7ab6b2cb54"},"vehicle_type_id":"4","last_reported":1733155953,"current_range_meters":36800,"station_id":"ce4bgh92rcd13ifvqb50","pricing_plan_id":"cebpf4jnsgd1na2vs0mg"},{"bike_id":"d2c9a29e-079c-4e73-a991-20ceee1b4eed","system_id":"levelo_inurba_marseille","lat":43.29005,"lon":5.35609,"is_reserved":false,"is_disabled":false,"rental_uris":{"android":"levelo://app?vid=d2c9a29e-079c-4e73-a991-20ceee1b4eed","ios":"levelo://app?vid=d2c9a29e-079c-4e73-a991-20ceee1b4eed"},"vehicle_type_id":"4","last_reported":1733155953,"current_range_meters":38800,"station_id":"ce4bhb92rcd13ifvqen0","pricing_plan_id":"cebpf4jnsgd1na2vs0mg"},{"bike_id":"d968385f-de2b-44eb-96a8-54efc707caa9","system_id":"levelo_inurba_marseille","lat":43.2319,"lon":5.35544,"is_reserved":false,"is_disabled":false,"rental_uris":{"android":"levelo://app?vid=d968385f-de2b-44eb-96a8-54efc707caa9","ios":"levelo://app?vid=d968385f-de2b-44eb-96a8-54efc707caa9"},"vehicle_type_id":"4","last_reported":1733155953,"current_range_meters":39200,"station_id":"ce4bhu92rcd13ifvqi70","pricing_plan_id":"cebpf4jnsgd1na2vs0mg"},{"bike_id":"a7118d17-4fea-4178-bb37-45a8f467bb92","system_id":"levelo_inurba_marseille","lat":43.30308,"lon":5.36903,"is_reserved":false,"is_disabled":false,"rental_uris":{"android":"levelo://app?vid=a7118d17-4fea-4178-bb37-45a8f467bb92","ios":"levelo://app?vid=a7118d17-4fea-4178-bb37-45a8f467bb92"},"vehicle_type_id":"4","last_reported":1733155953,"current_range_meters":8800,"station_id":"ce4bgqh2rcd13ifvqc5g","pricing_plan_id":"cebpf4jnsgd1na2vs0mg"},{"bike_id":"e218f52a-3c8a-490a-99d9-5af7196625b0","system_id":"levelo_inurba_marseille","lat":43.23199,"lon":5.35547,"is_reserved":false,"is_disabled":false,"rental_uris":{"android":"levelo://app?vid=e218f52a-3c8a-490a-99d9-5af7196625b0","ios":"levelo://app?vid=e218f52a-3c8a-490a-99d9-5af7196625b0"},"vehicle_type_id":"4","last_reported":1733155953,"current_range_meters":10800,"station_id":"ce4bhu92rcd13ifvqi70","pricing_plan_id":"cebpf4jnsgd1na2vs0mg"},{"bike_id":"dd2bddc7-0c4c-42c1-b3fe-bae48aaa194d","system_id":"levelo_inurba_marseille","lat":43.27814,"lon":5.40715,"is_reserved":false,"is_disabled":false,"rental_uris":{"android":"levelo://app?vid=dd2bddc7-0c4c-42c1-b3fe-bae48aaa194d","ios":"levelo://app?vid=dd2bddc7-0c4c-42c1-b3fe-bae48aaa194d"},"vehicle_type_id":"4","last_reported":1733155953,"current_range_meters":9200,"station_id":"ce4bhnh2rcd13ifvqgtg","pricing_plan_id":"cebpf4jnsgd1na2vs0mg"},{"bike_id":"506c09f4-6c9b-4fb3-996c-4c7f86dd75a8","system_id":"levelo_inurba_marseille","lat":43.24561,"lon":5.37354,"is_reserved":false,"is_disabled":true,"rental_uris":{"android":"levelo://app?vid=506c09f4-6c9b-4fb3-996c-4c7f86dd75a8","ios":"levelo://app?vid=506c09f4-6c9b-4fb3-996c-4c7f86dd75a8"},"vehicle_type_id":"4","last_reported":1733155953,"current_range_meters":0,"station_id":"","pricing_plan_id":"cebpf4jnsgd1na2vs0mg"},{"bike_id":"9211c3d1-be1f-4677-9a82-b98349c83108","system_id":"levelo_inurba_marseille","lat":43.29451,"lon":5.3976,"is_reserved":false,"is_disabled":true,"rental_uris":{"android":"levelo://app?vid=9211c3d1-be1f-4677-9a82-b98349c83108","ios":"levelo://app?vid=9211c3d1-be1f-4677-9a82-b98349c83108"},"vehicle_type_id":"4","last_reported":1733155953,"current_range_meters":11200,"station_id":"ce4bh3h2rcd13ifvqdo0","pricing_plan_id":"cebpf4jnsgd1na2vs0mg"},{"bike_id":"9202c63e-372c-4469-a5c1-8e35757d1940","system_id":"levelo_inurba_marseille","lat":43.30053,"lon":5.38832,"is_reserved":false,"is_disabled":true,"rental_uris":{"android":"levelo://app?vid=9202c63e-372c-4469-a5c1-8e35757d1940","ios":"levelo://app?vid=9202c63e-372c-4469-a5c1-8e35757d1940"},"vehicle_type_id":"4","last_reported":1733155953,"current_range_meters":0,"station_id":"","pricing_plan_id":"cebpf4jnsgd1na2vs0mg"},{"bike_id":"59d51a55-3e28-4f77-bc6d-5c6155d01aba","system_id":"levelo_inurba_marseille","lat":43.30547,"lon":5.36532,"is_reserved":false,"is_disabled":false,"rental_uris":{"android":"levelo://app?vid=59d51a55-3e28-4f77-bc6d-5c6155d01aba","ios":"levelo://app?vid=59d51a55-3e28-4f77-bc6d-5c6155d01aba"},"vehicle_type_id":"4","last_reported":1733155953,"current_range_meters":38800,"station_id":"ce4bgs12rcd13ifvqcag","pricing_plan_id":"cebpf4jnsgd1na2vs0mg"},{"bike_id":"e53a03ad-56c5-499c-8e24-cd6c4a977d3c","system_id":"levelo_inurba_marseille","lat":43.28942,"lon":5.36634,"is_reserved":false,"is_disabled":true,"rental_uris":{"android":"levelo://app?vid=e53a03ad-56c5-499c-8e24-cd6c4a977d3c","ios":"levelo://app?vid=e53a03ad-56c5-499c-8e24-cd6c4a977d3c"},"vehicle_type_id":"4","last_reported":1733155953,"current_range_meters":1600,"station_id":"ce4bhap2rcd13ifvqek0","pricing_plan_id":"cebpf4jnsgd1na2vs0mg"},{"bike_id":"692691a9-bd4a-4c62-91e1-a89a2833f61b","system_id":"levelo_inurba_marseille","lat":43.26805,"lon":5.40265,"is_reserved":false,"is_disabled":false,"rental_uris":{"android":"levelo://app?vid=692691a9-bd4a-4c62-91e1-a89a2833f61b","ios":"levelo://app?vid=692691a9-bd4a-4c62-91e1-a89a2833f61b"},"vehicle_type_id":"4","last_reported":1733155953,"current_range_meters":39200,"station_id":"ce501612rcd8frsf0b60","pricing_plan_id":"cebpf4jnsgd1na2vs0mg"},{"bike_id":"c60adda5-892d-4c27-89ba-5261cfbacea9","system_id":"levelo_inurba_marseille","lat":43.30158,"lon":5.38097,"is_reserved":false,"is_disabled":false,"rental_uris":{"android":"levelo://app?vid=c60adda5-892d-4c27-89ba-5261cfbacea9","ios":"levelo://app?vid=c60adda5-892d-4c27-89ba-5261cfbacea9"},"vehicle_type_id":"4","last_reported":1733155953,"current_range_meters":32800,"station_id":"ce4bgjp2rcd13ifvqbh0","pricing_plan_id":"cebpf4jnsgd1na2vs0mg"},{"bike_id":"5a4a0233-424f-4463-862e-45584495ae88","system_id":"levelo_inurba_marseille","lat":43.3237,"lon":5.3889,"is_reserved":false,"is_disabled":false,"rental_uris":{"android":"levelo://app?vid=5a4a0233-424f-4463-862e-45584495ae88","ios":"levelo://app?vid=5a4a0233-424f-4463-862e-45584495ae88"},"vehicle_type_id":"4","last_reported":1733155953,"current_range_meters":15200,"station_id":"ce4bhqp2rcd13ifvqhog","pricing_plan_id":"cebpf4jnsgd1na2vs0mg"},{"bike_id":"dd6cad31-8801-4a6a-ab13-69ee4690be64","system_id":"levelo_inurba_marseille","lat":43.26936,"lon":5.40243,"is_reserved":false,"is_disabled":false,"rental_uris":{"android":"levelo://app?vid=dd6cad31-8801-4a6a-ab13-69ee4690be64","ios":"levelo://app?vid=dd6cad31-8801-4a6a-ab13-69ee4690be64"},"vehicle_type_id":"4","last_reported":1733155953,"current_range_meters":16400,"station_id":"cjm6bp8fraef2m0cb0m0","pricing_plan_id":"cebpf4jnsgd1na2vs0mg"},{"bike_id":"16ebf7b5-f5c0-4627-80b2-c506facfa757","system_id":"levelo_inurba_marseille","lat":43.27821,"lon":5.40715,"is_reserved":false,"is_disabled":true,"rental_uris":{"android":"levelo://app?vid=16ebf7b5-f5c0-4627-80b2-c506facfa757","ios":"levelo://app?vid=16ebf7b5-f5c0-4627-80b2-c506facfa757"},"vehicle_type_id":"4","last_reported":1733155953,"current_range_meters":0,"station_id":"","pricing_plan_id":"cebpf4jnsgd1na2vs0mg"},{"bike_id":"719e509a-25e4-4b1b-9830-f708d85d7593","system_id":"levelo_inurba_marseille","lat":43.29569,"lon":5.37512,"is_reserved":false,"is_disabled":true,"rental_uris":{"android":"levelo://app?vid=719e509a-25e4-4b1b-9830-f708d85d7593","ios":"levelo://app?vid=719e509a-25e4-4b1b-9830-f708d85d7593"},"vehicle_type_id":"4","last_reported":1733155953,"current_range_meters":0,"station_id":"ce4bgh92rcd13ifvqb50","pricing_plan_id":"cebpf4jnsgd1na2vs0mg"},{"bike_id":"f36dc3aa-9b7c-4d03-9ae5-13d66045021e","system_id":"levelo_inurba_marseille","lat":43.29021,"lon":5.38129,"is_reserved":false,"is_disabled":false,"rental_uris":{"android":"levelo://app?vid=f36dc3aa-9b7c-4d03-9ae5-13d66045021e","ios":"levelo://app?vid=f36dc3aa-9b7c-4d03-9ae5-13d66045021e"},"vehicle_type_id":"4","last_reported":1733155953,"current_range_meters":13600,"station_id":"ce4bh4p2rcd13ifvqe1g","pricing_plan_id":"cebpf4jnsgd1na2vs0mg"},{"bike_id":"6911a302-0bec-4acf-a98f-b6cc569689f2","system_id":"levelo_inurba_marseille","lat":43.28426,"lon":5.3499,"is_reserved":false,"is_disabled":false,"rental_uris":{"android":"levelo://app?vid=6911a302-0bec-4acf-a98f-b6cc569689f2","ios":"levelo://app?vid=6911a302-0bec-4acf-a98f-b6cc569689f2"},"vehicle_type_id":"4","last_reported":1733155953,"current_range_meters":33600,"station_id":"ce4bhbh2rcd13ifvqepg","pricing_plan_id":"cebpf4jnsgd1na2vs0mg"},{"bike_id":"30b6b84f-2823-4e05-9290-54e3cd970159","system_id":"levelo_inurba_marseille","lat":43.33026,"lon":5.39046,"is_reserved":false,"is_disabled":false,"rental_uris":{"android":"levelo://app?vid=30b6b84f-2823-4e05-9290-54e3cd970159","ios":"levelo://app?vid=30b6b84f-2823-4e05-9290-54e3cd970159"},"vehicle_type_id":"4","last_reported":1733155953,"current_range_meters":33200,"station_id":"ce4bhr92rcd13ifvqhrg","pricing_plan_id":"cebpf4jnsgd1na2vs0mg"},{"bike_id":"2cf65095-36e5-4949-abae-c54c2895d97b","system_id":"levelo_inurba_marseille","lat":43.3254,"lon":5.41446,"is_reserved":false,"is_disabled":true,"rental_uris":{"android":"levelo://app?vid=2cf65095-36e5-4949-abae-c54c2895d97b","ios":"levelo://app?vid=2cf65095-36e5-4949-abae-c54c2895d97b"},"vehicle_type_id":"4","last_reported":1733155953,"current_range_meters":1200,"station_id":"ce4bhq12rcd13ifvqhhg","pricing_plan_id":"cebpf4jnsgd1na2vs0mg"},{"bike_id":"f8de6c35-1a81-4bd1-a68b-12d685bb1cb2","system_id":"levelo_inurba_marseille","lat":43.3152,"lon":5.37486,"is_reserved":false,"is_disabled":false,"rental_uris":{"android":"levelo://app?vid=f8de6c35-1a81-4bd1-a68b-12d685bb1cb2","ios":"levelo://app?vid=f8de6c35-1a81-4bd1-a68b-12d685bb1cb2"},"vehicle_type_id":"4","last_reported":1733155953,"current_range_meters":35200,"station_id":"","pricing_plan_id":"cebpf4jnsgd1na2vs0mg"},{"bike_id":"86718fe3-3c2c-4acb-a501-db0ba655ba20","system_id":"levelo_inurba_marseille","lat":43.2794,"lon":5.41053,"is_reserved":false,"is_disabled":false,"rental_uris":{"android":"levelo://app?vid=86718fe3-3c2c-4acb-a501-db0ba655ba20","ios":"levelo://app?vid=86718fe3-3c2c-4acb-a501-db0ba655ba20"},"vehicle_type_id":"4","last_reported":1733155953,"current_range_meters":2800,"station_id":"ce4bhnp2rcd13ifvqh0g","pricing_plan_id":"cebpf4jnsgd1na2vs0mg"},{"bike_id":"1765576d-ad21-4bb0-85a8-4c7cde4f5294","system_id":"levelo_inurba_marseille","lat":43.29622,"lon":5.37151,"is_reserved":false,"is_disabled":true,"rental_uris":{"android":"levelo://app?vid=1765576d-ad21-4bb0-85a8-4c7cde4f5294","ios":"levelo://app?vid=1765576d-ad21-4bb0-85a8-4c7cde4f5294"},"vehicle_type_id":"4","last_reported":1733155953,"current_range_meters":9200,"station_id":"ce4bgnh2rcd13ifvqc0g","pricing_plan_id":"cebpf4jnsgd1na2vs0mg"},{"bike_id":"d08ca373-571d-4d7e-b6da-c1f0eb690816","system_id":"levelo_inurba_marseille","lat":43.25581,"lon":5.38236,"is_reserved":false,"is_disabled":false,"rental_uris":{"android":"levelo://app?vid=d08ca373-571d-4d7e-b6da-c1f0eb690816","ios":"levelo://app?vid=d08ca373-571d-4d7e-b6da-c1f0eb690816"},"vehicle_type_id":"4","last_reported":1733155953,"current_range_meters":38800,"station_id":"ce4bhih2rcd13ifvqfs0","pricing_plan_id":"cebpf4jnsgd1na2vs0mg"},{"bike_id":"f14d1153-657b-478e-9ea5-75740c7bb469","system_id":"levelo_inurba_marseille","lat":43.2706,"lon":5.40258,"is_reserved":false,"is_disabled":false,"rental_uris":{"android":"levelo://app?vid=f14d1153-657b-478e-9ea5-75740c7bb469","ios":"levelo://app?vid=f14d1153-657b-478e-9ea5-75740c7bb469"},"vehicle_type_id":"4","last_reported":1733155953,"current_range_meters":15200,"station_id":"ce4bhk92rcd13ifvqgc0","pricing_plan_id":"cebpf4jnsgd1na2vs0mg"},{"bike_id":"65d23b83-ead9-450f-a3aa-fba7fed37848","system_id":"levelo_inurba_marseille","lat":43.28718,"lon":5.36458,"is_reserved":false,"is_disabled":true,"rental_uris":{"android":"levelo://app?vid=65d23b83-ead9-450f-a3aa-fba7fed37848","ios":"levelo://app?vid=65d23b83-ead9-450f-a3aa-fba7fed37848"},"vehicle_type_id":"4","last_reported":1733155953,"current_range_meters":5600,"station_id":"","pricing_plan_id":"cebpf4jnsgd1na2vs0mg"},{"bike_id":"73108df9-99dc-46f7-8d9f-7b797bc9b1fa","system_id":"levelo_inurba_marseille","lat":43.30297,"lon":5.36904,"is_reserved":false,"is_disabled":false,"rental_uris":{"android":"levelo://app?vid=73108df9-99dc-46f7-8d9f-7b797bc9b1fa","ios":"levelo://app?vid=73108df9-99dc-46f7-8d9f-7b797bc9b1fa"},"vehicle_type_id":"4","last_reported":1733155953,"current_range_meters":28000,"station_id":"ce4bgqh2rcd13ifvqc5g","pricing_plan_id":"cebpf4jnsgd1na2vs0mg"},{"bike_id":"fbea491b-7a53-4808-8ebe-d322f1f74651","system_id":"levelo_inurba_marseille","lat":43.27378,"lon":5.36259,"is_reserved":false,"is_disabled":true,"rental_uris":{"android":"levelo://app?vid=fbea491b-7a53-4808-8ebe-d322f1f74651","ios":"levelo://app?vid=fbea491b-7a53-4808-8ebe-d322f1f74651"},"vehicle_type_id":"4","last_reported":1733155953,"current_range_meters":0,"station_id":"ce4bhbh2rcd13ifvqeo0","pricing_plan_id":"cebpf4jnsgd1na2vs0mg"},{"bike_id":"ce7dd36e-7854-4ef2-96f6-1e4edaba1aec","system_id":"levelo_inurba_marseille","lat":43.26692,"lon":5.38265,"is_reserved":false,"is_disabled":true,"rental_uris":{"android":"levelo://app?vid=ce7dd36e-7854-4ef2-96f6-1e4edaba1aec","ios":"levelo://app?vid=ce7dd36e-7854-4ef2-96f6-1e4edaba1aec"},"vehicle_type_id":"4","last_reported":1733155953,"current_range_meters":32800,"station_id":"ce4bhg92rcd13ifvqf90","pricing_plan_id":"cebpf4jnsgd1na2vs0mg"},{"bike_id":"196c653b-5e9c-47f8-a71a-d3aa9e42f5b7","system_id":"levelo_inurba_marseille","lat":43.29263,"lon":5.40908,"is_reserved":false,"is_disabled":false,"rental_uris":{"android":"levelo://app?vid=196c653b-5e9c-47f8-a71a-d3aa9e42f5b7","ios":"levelo://app?vid=196c653b-5e9c-47f8-a71a-d3aa9e42f5b7"},"vehicle_type_id":"4","last_reported":1733155953,"current_range_meters":30400,"station_id":"ce4bh192rcd13ifvqdc0","pricing_plan_id":"cebpf4jnsgd1na2vs0mg"},{"bike_id":"53f5d914-dc60-4b75-8b4c-c98330a0bbe6","system_id":"levelo_inurba_marseille","lat":43.2743,"lon":5.39418,"is_reserved":false,"is_disabled":false,"rental_uris":{"android":"levelo://app?vid=53f5d914-dc60-4b75-8b4c-c98330a0bbe6","ios":"levelo://app?vid=53f5d914-dc60-4b75-8b4c-c98330a0bbe6"},"vehicle_type_id":"4","last_reported":1733155953,"current_range_meters":20800,"station_id":"ce4bhdp2rcd13ifvqf20","pricing_plan_id":"cebpf4jnsgd1na2vs0mg"},{"bike_id":"a51eaee3-6d45-4a0f-8913-08bf9c6d8655","system_id":"levelo_inurba_marseille","lat":43.2942,"lon":5.38617,"is_reserved":false,"is_disabled":false,"rental_uris":{"android":"levelo://app?vid=a51eaee3-6d45-4a0f-8913-08bf9c6d8655","ios":"levelo://app?vid=a51eaee3-6d45-4a0f-8913-08bf9c6d8655"},"vehicle_type_id":"4","last_reported":1733155953,"current_range_meters":35600,"station_id":"ce4bh2h2rcd13ifvqdh0","pricing_plan_id":"cebpf4jnsgd1na2vs0mg"},{"bike_id":"1abf2a30-1372-48c9-852d-5c622a7f0170","system_id":"levelo_inurba_marseille","lat":43.27048,"lon":5.40266,"is_reserved":false,"is_disabled":false,"rental_uris":{"android":"levelo://app?vid=1abf2a30-1372-48c9-852d-5c622a7f0170","ios":"levelo://app?vid=1abf2a30-1372-48c9-852d-5c622a7f0170"},"vehicle_type_id":"4","last_reported":1733155953,"current_range_meters":36800,"station_id":"ce4bhk92rcd13ifvqgc0","pricing_plan_id":"cebpf4jnsgd1na2vs0mg"},{"bike_id":"79c8ea6d-5102-4a1e-b941-afdabc095945","system_id":"levelo_inurba_marseille","lat":43.290654,"lon":5.383322,"is_reserved":false,"is_disabled":true,"rental_uris":{"android":"levelo://app?vid=79c8ea6d-5102-4a1e-b941-afdabc095945","ios":"levelo://app?vid=79c8ea6d-5102-4a1e-b941-afdabc095945"},"vehicle_type_id":"4","last_reported":1733155953,"current_range_meters":28800,"station_id":"","pricing_plan_id":"cebpf4jnsgd1na2vs0mg"},{"bike_id":"71eb750b-4ac0-40ae-81e0-d4f4060508ef","system_id":"levelo_inurba_marseille","lat":43.29556,"lon":5.42281,"is_reserved":false,"is_disabled":false,"rental_uris":{"android":"levelo://app?vid=71eb750b-4ac0-40ae-81e0-d4f4060508ef","ios":"levelo://app?vid=71eb750b-4ac0-40ae-81e0-d4f4060508ef"},"vehicle_type_id":"4","last_reported":1733155953,"current_range_meters":23200,"station_id":"ce4bhph2rcd13ifvqhdg","pricing_plan_id":"cebpf4jnsgd1na2vs0mg"},{"bike_id":"eed9078d-e943-4dc4-ae79-71b584fbcd19","system_id":"levelo_inurba_marseille","lat":43.25582,"lon":5.38233,"is_reserved":false,"is_disabled":false,"rental_uris":{"android":"levelo://app?vid=eed9078d-e943-4dc4-ae79-71b584fbcd19","ios":"levelo://app?vid=eed9078d-e943-4dc4-ae79-71b584fbcd19"},"vehicle_type_id":"4","last_reported":1733155953,"current_range_meters":38000,"station_id":"ce4bhih2rcd13ifvqfs0","pricing_plan_id":"cebpf4jnsgd1na2vs0mg"},{"bike_id":"ad2a8200-dab1-4b0f-b324-699de86347ee","system_id":"levelo_inurba_marseille","lat":43.29791,"lon":5.38112,"is_reserved":false,"is_disabled":false,"rental_uris":{"android":"levelo://app?vid=ad2a8200-dab1-4b0f-b324-699de86347ee","ios":"levelo://app?vid=ad2a8200-dab1-4b0f-b324-699de86347ee"},"vehicle_type_id":"4","last_reported":1733155953,"current_range_meters":38000,"station_id":"ce4bgip2rcd13ifvqbb0","pricing_plan_id":"cebpf4jnsgd1na2vs0mg"},{"bike_id":"354a01bb-37ee-4309-bf97-014e7c499ce0","system_id":"levelo_inurba_marseille","lat":43.27671,"lon":5.38895,"is_reserved":false,"is_disabled":false,"rental_uris":{"android":"levelo://app?vid=354a01bb-37ee-4309-bf97-014e7c499ce0","ios":"levelo://app?vid=354a01bb-37ee-4309-bf97-014e7c499ce0"},"vehicle_type_id":"4","last_reported":1733155953,"current_range_meters":38000,"station_id":"ce4bhi12rcd13ifvqfo0","pricing_plan_id":"cebpf4jnsgd1na2vs0mg"},{"bike_id":"4e938e06-f64a-40b5-988b-e244d4a82283","system_id":"levelo_inurba_marseille","lat":43.29846,"lon":5.36278,"is_reserved":false,"is_disabled":false,"rental_uris":{"android":"levelo://app?vid=4e938e06-f64a-40b5-988b-e244d4a82283","ios":"levelo://app?vid=4e938e06-f64a-40b5-988b-e244d4a82283"},"vehicle_type_id":"4","last_reported":1733155953,"current_range_meters":37600,"station_id":"ce4bgpp2rcd13ifvqc3g","pricing_plan_id":"cebpf4jnsgd1na2vs0mg"},{"bike_id":"ea943f0f-6de6-4516-aa78-912729ce90dd","system_id":"levelo_inurba_marseille","lat":43.29898,"lon":5.38895,"is_reserved":false,"is_disabled":false,"rental_uris":{"android":"levelo://app?vid=ea943f0f-6de6-4516-aa78-912729ce90dd","ios":"levelo://app?vid=ea943f0f-6de6-4516-aa78-912729ce90dd"},"vehicle_type_id":"4","last_reported":1733155953,"current_range_meters":24000,"station_id":"ce4bh392rcd13ifvqdl0","pricing_plan_id":"cebpf4jnsgd1na2vs0mg"},{"bike_id":"8985f67e-36b1-4133-8ad0-71e6f1b50099","system_id":"levelo_inurba_marseille","lat":43.32479,"lon":5.36567,"is_reserved":false,"is_disabled":false,"rental_uris":{"android":"levelo://app?vid=8985f67e-36b1-4133-8ad0-71e6f1b50099","ios":"levelo://app?vid=8985f67e-36b1-4133-8ad0-71e6f1b50099"},"vehicle_type_id":"4","last_reported":1733155953,"current_range_meters":38400,"station_id":"ce4bhs12rcd13ifvqhvg","pricing_plan_id":"cebpf4jnsgd1na2vs0mg"},{"bike_id":"a4b9e425-64b8-4ce2-a5ab-5fcc5d1230a4","system_id":"levelo_inurba_marseille","lat":43.3211,"lon":5.36771,"is_reserved":false,"is_disabled":false,"rental_uris":{"android":"levelo://app?vid=a4b9e425-64b8-4ce2-a5ab-5fcc5d1230a4","ios":"levelo://app?vid=a4b9e425-64b8-4ce2-a5ab-5fcc5d1230a4"},"vehicle_type_id":"4","last_reported":1733155953,"current_range_meters":16800,"station_id":"ce4bhrh2rcd13ifvqhug","pricing_plan_id":"cebpf4jnsgd1na2vs0mg"},{"bike_id":"8077151a-ad6b-4614-9222-939134514619","system_id":"levelo_inurba_marseille","lat":43.30303,"lon":5.39205,"is_reserved":false,"is_disabled":true,"rental_uris":{"android":"levelo://app?vid=8077151a-ad6b-4614-9222-939134514619","ios":"levelo://app?vid=8077151a-ad6b-4614-9222-939134514619"},"vehicle_type_id":"4","last_reported":1733155953,"current_range_meters":7200,"station_id":"ce4bgkh2rcd13ifvqbk0","pricing_plan_id":"cebpf4jnsgd1na2vs0mg"},{"bike_id":"ea2f2b59-312b-40ec-abd1-ed1c43f21a52","system_id":"levelo_inurba_marseille","lat":43.29614,"lon":5.37715,"is_reserved":false,"is_disabled":false,"rental_uris":{"android":"levelo://app?vid=ea2f2b59-312b-40ec-abd1-ed1c43f21a52","ios":"levelo://app?vid=ea2f2b59-312b-40ec-abd1-ed1c43f21a52"},"vehicle_type_id":"4","last_reported":1733155953,"current_range_meters":13600,"station_id":"ce4bgi92rcd13ifvqb90","pricing_plan_id":"cebpf4jnsgd1na2vs0mg"},{"bike_id":"d44b0368-00be-4d57-a135-fbc6d4303bca","system_id":"levelo_inurba_marseille","lat":43.26687,"lon":5.38274,"is_reserved":false,"is_disabled":true,"rental_uris":{"android":"levelo://app?vid=d44b0368-00be-4d57-a135-fbc6d4303bca","ios":"levelo://app?vid=d44b0368-00be-4d57-a135-fbc6d4303bca"},"vehicle_type_id":"4","last_reported":1733155953,"current_range_meters":11600,"station_id":"ce4bhg92rcd13ifvqf90","pricing_plan_id":"cebpf4jnsgd1na2vs0mg"},{"bike_id":"b6d6b07e-4688-45f1-857e-88e0c9f71088","system_id":"levelo_inurba_marseille","lat":43.29574,"lon":5.37498,"is_reserved":false,"is_disabled":true,"rental_uris":{"android":"levelo://app?vid=b6d6b07e-4688-45f1-857e-88e0c9f71088","ios":"levelo://app?vid=b6d6b07e-4688-45f1-857e-88e0c9f71088"},"vehicle_type_id":"4","last_reported":1733155953,"current_range_meters":37600,"station_id":"ce4bgh92rcd13ifvqb50","pricing_plan_id":"cebpf4jnsgd1na2vs0mg"},{"bike_id":"be490ce8-38ec-4505-8943-3aa66f28c593","system_id":"levelo_inurba_marseille","lat":43.2586,"lon":5.39905,"is_reserved":false,"is_disabled":false,"rental_uris":{"android":"levelo://app?vid=be490ce8-38ec-4505-8943-3aa66f28c593","ios":"levelo://app?vid=be490ce8-38ec-4505-8943-3aa66f28c593"},"vehicle_type_id":"4","last_reported":1733155953,"current_range_meters":28800,"station_id":"ce4bhl92rcd13ifvqghg","pricing_plan_id":"cebpf4jnsgd1na2vs0mg"},{"bike_id":"e9e7398b-e7d9-4b3e-96c1-8b827c7b537e","system_id":"levelo_inurba_marseille","lat":43.30669,"lon":5.38179,"is_reserved":false,"is_disabled":false,"rental_uris":{"android":"levelo://app?vid=e9e7398b-e7d9-4b3e-96c1-8b827c7b537e","ios":"levelo://app?vid=e9e7398b-e7d9-4b3e-96c1-8b827c7b537e"},"vehicle_type_id":"4","last_reported":1733155953,"current_range_meters":30000,"station_id":"","pricing_plan_id":"cebpf4jnsgd1na2vs0mg"},{"bike_id":"9725ee5d-bd47-447d-bc60-8d3609137de3","system_id":"levelo_inurba_marseille","lat":43.29569,"lon":5.39969,"is_reserved":false,"is_disabled":true,"rental_uris":{"android":"levelo://app?vid=9725ee5d-bd47-447d-bc60-8d3609137de3","ios":"levelo://app?vid=9725ee5d-bd47-447d-bc60-8d3609137de3"},"vehicle_type_id":"4","last_reported":1733155953,"current_range_meters":1600,"station_id":"ce4bh312rcd13ifvqdj0","pricing_plan_id":"cebpf4jnsgd1na2vs0mg"},{"bike_id":"9f6372a6-065a-4e4e-a232-8f126a87f16a","system_id":"levelo_inurba_marseille","lat":43.2792,"lon":5.39575,"is_reserved":false,"is_disabled":false,"rental_uris":{"android":"levelo://app?vid=9f6372a6-065a-4e4e-a232-8f126a87f16a","ios":"levelo://app?vid=9f6372a6-065a-4e4e-a232-8f126a87f16a"},"vehicle_type_id":"4","last_reported":1733155953,"current_range_meters":38800,"station_id":"ce4bhf92rcd13ifvqf40","pricing_plan_id":"cebpf4jnsgd1na2vs0mg"},{"bike_id":"7caca3ca-4ad5-4e41-ba66-df02bee491aa","system_id":"levelo_inurba_marseille","lat":43.29934,"lon":5.36539,"is_reserved":false,"is_disabled":true,"rental_uris":{"android":"levelo://app?vid=7caca3ca-4ad5-4e41-ba66-df02bee491aa","ios":"levelo://app?vid=7caca3ca-4ad5-4e41-ba66-df02bee491aa"},"vehicle_type_id":"4","last_reported":1733155953,"current_range_meters":9200,"station_id":"ce4bgm92rcd13ifvqbr0","pricing_plan_id":"cebpf4jnsgd1na2vs0mg"},{"bike_id":"4fbc6c16-1569-4598-aef2-612b44444a24","system_id":"levelo_inurba_marseille","lat":43.26567,"lon":5.39011,"is_reserved":false,"is_disabled":false,"rental_uris":{"android":"levelo://app?vid=4fbc6c16-1569-4598-aef2-612b44444a24","ios":"levelo://app?vid=4fbc6c16-1569-4598-aef2-612b44444a24"},"vehicle_type_id":"4","last_reported":1733155953,"current_range_meters":5600,"station_id":"ce4bhe12rcd13ifvqf30","pricing_plan_id":"cebpf4jnsgd1na2vs0mg"},{"bike_id":"5e160b8e-5c83-4423-b051-bd2cf577003d","system_id":"levelo_inurba_marseille","lat":43.23193,"lon":5.35547,"is_reserved":false,"is_disabled":false,"rental_uris":{"android":"levelo://app?vid=5e160b8e-5c83-4423-b051-bd2cf577003d","ios":"levelo://app?vid=5e160b8e-5c83-4423-b051-bd2cf577003d"},"vehicle_type_id":"4","last_reported":1733155953,"current_range_meters":38800,"station_id":"ce4bhu92rcd13ifvqi70","pricing_plan_id":"cebpf4jnsgd1na2vs0mg"},{"bike_id":"322cf6fe-0822-422b-95a4-35c4bd952f62","system_id":"levelo_inurba_marseille","lat":43.27181,"lon":5.40995,"is_reserved":false,"is_disabled":false,"rental_uris":{"android":"levelo://app?vid=322cf6fe-0822-422b-95a4-35c4bd952f62","ios":"levelo://app?vid=322cf6fe-0822-422b-95a4-35c4bd952f62"},"vehicle_type_id":"4","last_reported":1733155953,"current_range_meters":28000,"station_id":"ce4bhl12rcd13ifvqgf0","pricing_plan_id":"cebpf4jnsgd1na2vs0mg"},{"bike_id":"df282ba8-17eb-4fce-abd3-e1ba704dcef4","system_id":"levelo_inurba_marseille","lat":43.295723,"lon":5.399681,"is_reserved":false,"is_disabled":true,"rental_uris":{"android":"levelo://app?vid=df282ba8-17eb-4fce-abd3-e1ba704dcef4","ios":"levelo://app?vid=df282ba8-17eb-4fce-abd3-e1ba704dcef4"},"vehicle_type_id":"4","last_reported":1733155953,"current_range_meters":19200,"station_id":"ce4bh312rcd13ifvqdj0","pricing_plan_id":"cebpf4jnsgd1na2vs0mg"},{"bike_id":"d164e4ae-d213-41bd-8f2a-9630782a04d8","system_id":"levelo_inurba_marseille","lat":43.29793,"lon":5.38101,"is_reserved":false,"is_disabled":false,"rental_uris":{"android":"levelo://app?vid=d164e4ae-d213-41bd-8f2a-9630782a04d8","ios":"levelo://app?vid=d164e4ae-d213-41bd-8f2a-9630782a04d8"},"vehicle_type_id":"4","last_reported":1733155953,"current_range_meters":18000,"station_id":"ce4bgip2rcd13ifvqbb0","pricing_plan_id":"cebpf4jnsgd1na2vs0mg"},{"bike_id":"95572b21-879a-4263-bb3f-4ee2d9590ba6","system_id":"levelo_inurba_marseille","lat":43.305409,"lon":5.365423,"is_reserved":false,"is_disabled":false,"rental_uris":{"android":"levelo://app?vid=95572b21-879a-4263-bb3f-4ee2d9590ba6","ios":"levelo://app?vid=95572b21-879a-4263-bb3f-4ee2d9590ba6"},"vehicle_type_id":"4","last_reported":1733155953,"current_range_meters":38800,"station_id":"ce4bgs12rcd13ifvqcag","pricing_plan_id":"cebpf4jnsgd1na2vs0mg"},{"bike_id":"70fac8b3-ff8d-4f80-b320-d5f976b2f736","system_id":"levelo_inurba_marseille","lat":43.25504,"lon":5.37642,"is_reserved":false,"is_disabled":false,"rental_uris":{"android":"levelo://app?vid=70fac8b3-ff8d-4f80-b320-d5f976b2f736","ios":"levelo://app?vid=70fac8b3-ff8d-4f80-b320-d5f976b2f736"},"vehicle_type_id":"4","last_reported":1733155953,"current_range_meters":38800,"station_id":"ce4bhh12rcd13ifvqff0","pricing_plan_id":"cebpf4jnsgd1na2vs0mg"},{"bike_id":"7b843911-c95f-4942-acc8-5fe398c1adb2","system_id":"levelo_inurba_marseille","lat":43.26939,"lon":5.40256,"is_reserved":false,"is_disabled":false,"rental_uris":{"android":"levelo://app?vid=7b843911-c95f-4942-acc8-5fe398c1adb2","ios":"levelo://app?vid=7b843911-c95f-4942-acc8-5fe398c1adb2"},"vehicle_type_id":"4","last_reported":1733155953,"current_range_meters":39200,"station_id":"cjm6bp8fraef2m0cb0m0","pricing_plan_id":"cebpf4jnsgd1na2vs0mg"},{"bike_id":"90ac7dc9-59a3-4594-afec-12e2df3d4ff8","system_id":"levelo_inurba_marseille","lat":43.31069,"lon":5.38352,"is_reserved":false,"is_disabled":false,"rental_uris":{"android":"levelo://app?vid=90ac7dc9-59a3-4594-afec-12e2df3d4ff8","ios":"levelo://app?vid=90ac7dc9-59a3-4594-afec-12e2df3d4ff8"},"vehicle_type_id":"4","last_reported":1733155953,"current_range_meters":36800,"station_id":"ce4bgv92rcd13ifvqcr0","pricing_plan_id":"cebpf4jnsgd1na2vs0mg"},{"bike_id":"b2b52eed-b6b0-423f-b350-b37dd95fe81c","system_id":"levelo_inurba_marseille","lat":43.29843,"lon":5.36273,"is_reserved":false,"is_disabled":false,"rental_uris":{"android":"levelo://app?vid=b2b52eed-b6b0-423f-b350-b37dd95fe81c","ios":"levelo://app?vid=b2b52eed-b6b0-423f-b350-b37dd95fe81c"},"vehicle_type_id":"4","last_reported":1733155953,"current_range_meters":38800,"station_id":"ce4bgpp2rcd13ifvqc3g","pricing_plan_id":"cebpf4jnsgd1na2vs0mg"},{"bike_id":"e63aa962-a242-44bd-8328-31cf6c0d9d3d","system_id":"levelo_inurba_marseille","lat":43.29301,"lon":5.37178,"is_reserved":false,"is_disabled":true,"rental_uris":{"android":"levelo://app?vid=e63aa962-a242-44bd-8328-31cf6c0d9d3d","ios":"levelo://app?vid=e63aa962-a242-44bd-8328-31cf6c0d9d3d"},"vehicle_type_id":"4","last_reported":1733155953,"current_range_meters":0,"station_id":"ce4bgh92rcd13ifvqb40","pricing_plan_id":"cebpf4jnsgd1na2vs0mg"},{"bike_id":"91edee77-9f26-4173-ab2e-f00447a2b965","system_id":"levelo_inurba_marseille","lat":43.29227,"lon":5.36071,"is_reserved":false,"is_disabled":false,"rental_uris":{"android":"levelo://app?vid=91edee77-9f26-4173-ab2e-f00447a2b965","ios":"levelo://app?vid=91edee77-9f26-4173-ab2e-f00447a2b965"},"vehicle_type_id":"4","last_reported":1733155953,"current_range_meters":16400,"station_id":"ce4bhbh2rcd13ifvqeqg","pricing_plan_id":"cebpf4jnsgd1na2vs0mg"},{"bike_id":"d647b705-6226-45fe-af76-ec603ffc50e2","system_id":"levelo_inurba_marseille","lat":43.25491,"lon":5.37646,"is_reserved":false,"is_disabled":false,"rental_uris":{"android":"levelo://app?vid=d647b705-6226-45fe-af76-ec603ffc50e2","ios":"levelo://app?vid=d647b705-6226-45fe-af76-ec603ffc50e2"},"vehicle_type_id":"4","last_reported":1733155953,"current_range_meters":16000,"station_id":"ce4bhh12rcd13ifvqff0","pricing_plan_id":"cebpf4jnsgd1na2vs0mg"},{"bike_id":"4b959530-7810-4702-b74a-a19678b70d2c","system_id":"levelo_inurba_marseille","lat":43.29191,"lon":5.39315,"is_reserved":false,"is_disabled":false,"rental_uris":{"android":"levelo://app?vid=4b959530-7810-4702-b74a-a19678b70d2c","ios":"levelo://app?vid=4b959530-7810-4702-b74a-a19678b70d2c"},"vehicle_type_id":"4","last_reported":1733155953,"current_range_meters":30400,"station_id":"ce4bh192rcd13ifvqdd0","pricing_plan_id":"cebpf4jnsgd1na2vs0mg"},{"bike_id":"63dd93b9-34c6-495e-91ab-0614537649c7","system_id":"levelo_inurba_marseille","lat":43.3229,"lon":5.38264,"is_reserved":false,"is_disabled":false,"rental_uris":{"android":"levelo://app?vid=63dd93b9-34c6-495e-91ab-0614537649c7","ios":"levelo://app?vid=63dd93b9-34c6-495e-91ab-0614537649c7"},"vehicle_type_id":"4","last_reported":1733155953,"current_range_meters":39200,"station_id":"ce4bhr12rcd13ifvqhqg","pricing_plan_id":"cebpf4jnsgd1na2vs0mg"},{"bike_id":"ea3106cb-0d51-4c9d-a4ad-a91b724fe177","system_id":"levelo_inurba_marseille","lat":43.29571,"lon":5.3997,"is_reserved":false,"is_disabled":true,"rental_uris":{"android":"levelo://app?vid=ea3106cb-0d51-4c9d-a4ad-a91b724fe177","ios":"levelo://app?vid=ea3106cb-0d51-4c9d-a4ad-a91b724fe177"},"vehicle_type_id":"4","last_reported":1733155953,"current_range_meters":32000,"station_id":"ce4bh312rcd13ifvqdj0","pricing_plan_id":"cebpf4jnsgd1na2vs0mg"},{"bike_id":"7162aa44-86d7-4628-93e4-c9d3f5365eb9","system_id":"levelo_inurba_marseille","lat":43.29778,"lon":5.39386,"is_reserved":false,"is_disabled":true,"rental_uris":{"android":"levelo://app?vid=7162aa44-86d7-4628-93e4-c9d3f5365eb9","ios":"levelo://app?vid=7162aa44-86d7-4628-93e4-c9d3f5365eb9"},"vehicle_type_id":"4","last_reported":1733155953,"current_range_meters":36800,"station_id":"chh1huq6cuj3fo74tm60","pricing_plan_id":"cebpf4jnsgd1na2vs0mg"},{"bike_id":"8564107b-4c5f-48f9-a8fe-2cf2332c218d","system_id":"levelo_inurba_marseille","lat":43.28426,"lon":5.34989,"is_reserved":false,"is_disabled":true,"rental_uris":{"android":"levelo://app?vid=8564107b-4c5f-48f9-a8fe-2cf2332c218d","ios":"levelo://app?vid=8564107b-4c5f-48f9-a8fe-2cf2332c218d"},"vehicle_type_id":"4","last_reported":1733155953,"current_range_meters":27600,"station_id":"ce4bhbh2rcd13ifvqepg","pricing_plan_id":"cebpf4jnsgd1na2vs0mg"},{"bike_id":"0870ffd7-9488-4bd6-a1ba-20739455d01d","system_id":"levelo_inurba_marseille","lat":43.25573,"lon":5.38246,"is_reserved":false,"is_disabled":false,"rental_uris":{"android":"levelo://app?vid=0870ffd7-9488-4bd6-a1ba-20739455d01d","ios":"levelo://app?vid=0870ffd7-9488-4bd6-a1ba-20739455d01d"},"vehicle_type_id":"4","last_reported":1733155953,"current_range_meters":29600,"station_id":"ce4bhih2rcd13ifvqfs0","pricing_plan_id":"cebpf4jnsgd1na2vs0mg"},{"bike_id":"da6a7a1d-e653-4950-af8c-8137b06f7d40","system_id":"levelo_inurba_marseille","lat":43.3004,"lon":5.37551,"is_reserved":false,"is_disabled":true,"rental_uris":{"android":"levelo://app?vid=da6a7a1d-e653-4950-af8c-8137b06f7d40","ios":"levelo://app?vid=da6a7a1d-e653-4950-af8c-8137b06f7d40"},"vehicle_type_id":"4","last_reported":1733155953,"current_range_meters":0,"station_id":"","pricing_plan_id":"cebpf4jnsgd1na2vs0mg"},{"bike_id":"3a7ffe07-3658-42b1-8ba9-59c736e5e549","system_id":"levelo_inurba_marseille","lat":43.29619,"lon":5.37723,"is_reserved":false,"is_disabled":false,"rental_uris":{"android":"levelo://app?vid=3a7ffe07-3658-42b1-8ba9-59c736e5e549","ios":"levelo://app?vid=3a7ffe07-3658-42b1-8ba9-59c736e5e549"},"vehicle_type_id":"4","last_reported":1733155953,"current_range_meters":22800,"station_id":"ce4bgi92rcd13ifvqb90","pricing_plan_id":"cebpf4jnsgd1na2vs0mg"},{"bike_id":"e97b1f5d-c497-4582-a4fc-8ffbeb408077","system_id":"levelo_inurba_marseille","lat":43.30804,"lon":5.38135,"is_reserved":false,"is_disabled":false,"rental_uris":{"android":"levelo://app?vid=e97b1f5d-c497-4582-a4fc-8ffbeb408077","ios":"levelo://app?vid=e97b1f5d-c497-4582-a4fc-8ffbeb408077"},"vehicle_type_id":"4","last_reported":1733155953,"current_range_meters":16000,"station_id":"ce4bgt12rcd13ifvqce0","pricing_plan_id":"cebpf4jnsgd1na2vs0mg"},{"bike_id":"bffdd733-f5aa-4538-abe0-7d618401b320","system_id":"levelo_inurba_marseille","lat":43.29358,"lon":5.3786,"is_reserved":false,"is_disabled":false,"rental_uris":{"android":"levelo://app?vid=bffdd733-f5aa-4538-abe0-7d618401b320","ios":"levelo://app?vid=bffdd733-f5aa-4538-abe0-7d618401b320"},"vehicle_type_id":"4","last_reported":1733155953,"current_range_meters":9600,"station_id":"ce4bgjh2rcd13ifvqbf0","pricing_plan_id":"cebpf4jnsgd1na2vs0mg"},{"bike_id":"809318a1-64c4-4f28-86c6-832fd8c02c28","system_id":"levelo_inurba_marseille","lat":43.25497,"lon":5.37651,"is_reserved":false,"is_disabled":false,"rental_uris":{"android":"levelo://app?vid=809318a1-64c4-4f28-86c6-832fd8c02c28","ios":"levelo://app?vid=809318a1-64c4-4f28-86c6-832fd8c02c28"},"vehicle_type_id":"4","last_reported":1733155953,"current_range_meters":37600,"station_id":"ce4bhh12rcd13ifvqff0","pricing_plan_id":"cebpf4jnsgd1na2vs0mg"},{"bike_id":"1a6cca3c-1d4d-4b3f-871b-fc665b7f642d","system_id":"levelo_inurba_marseille","lat":43.29527,"lon":5.37509,"is_reserved":false,"is_disabled":false,"rental_uris":{"android":"levelo://app?vid=1a6cca3c-1d4d-4b3f-871b-fc665b7f642d","ios":"levelo://app?vid=1a6cca3c-1d4d-4b3f-871b-fc665b7f642d"},"vehicle_type_id":"4","last_reported":1733155953,"current_range_meters":38400,"station_id":"ce4bgkp2rcd13ifvqbmg","pricing_plan_id":"cebpf4jnsgd1na2vs0mg"},{"bike_id":"c707ecf5-e590-498e-936e-fff767f3e144","system_id":"levelo_inurba_marseille","lat":43.28616,"lon":5.35106,"is_reserved":false,"is_disabled":true,"rental_uris":{"android":"levelo://app?vid=c707ecf5-e590-498e-936e-fff767f3e144","ios":"levelo://app?vid=c707ecf5-e590-498e-936e-fff767f3e144"},"vehicle_type_id":"4","last_reported":1733155953,"current_range_meters":0,"station_id":"ce4bhch2rcd13ifvqeug","pricing_plan_id":"cebpf4jnsgd1na2vs0mg"},{"bike_id":"ec1a18ca-5455-4f6a-bb18-a56e1d4c4aae","system_id":"levelo_inurba_marseille","lat":43.29442,"lon":5.39761,"is_reserved":false,"is_disabled":true,"rental_uris":{"android":"levelo://app?vid=ec1a18ca-5455-4f6a-bb18-a56e1d4c4aae","ios":"levelo://app?vid=ec1a18ca-5455-4f6a-bb18-a56e1d4c4aae"},"vehicle_type_id":"4","last_reported":1733155953,"current_range_meters":17600,"station_id":"ce4bh3h2rcd13ifvqdo0","pricing_plan_id":"cebpf4jnsgd1na2vs0mg"},{"bike_id":"81ed743f-1fef-4ba4-9566-0f393bb38381","system_id":"levelo_inurba_marseille","lat":43.26215,"lon":5.37443,"is_reserved":false,"is_disabled":false,"rental_uris":{"android":"levelo://app?vid=81ed743f-1fef-4ba4-9566-0f393bb38381","ios":"levelo://app?vid=81ed743f-1fef-4ba4-9566-0f393bb38381"},"vehicle_type_id":"4","last_reported":1733155953,"current_range_meters":32400,"station_id":"ce4bhgp2rcd13ifvqfc0","pricing_plan_id":"cebpf4jnsgd1na2vs0mg"},{"bike_id":"9b163be8-afc7-4609-aa61-e9b3a8cf5530","system_id":"levelo_inurba_marseille","lat":43.28407,"lon":5.37511,"is_reserved":false,"is_disabled":false,"rental_uris":{"android":"levelo://app?vid=9b163be8-afc7-4609-aa61-e9b3a8cf5530","ios":"levelo://app?vid=9b163be8-afc7-4609-aa61-e9b3a8cf5530"},"vehicle_type_id":"4","last_reported":1733155953,"current_range_meters":24000,"station_id":"ce4bh412rcd13ifvqds0","pricing_plan_id":"cebpf4jnsgd1na2vs0mg"},{"bike_id":"c8b571c8-ff55-4936-91eb-5ae5ac0d0ee8","system_id":"levelo_inurba_marseille","lat":43.25578,"lon":5.38226,"is_reserved":false,"is_disabled":false,"rental_uris":{"android":"levelo://app?vid=c8b571c8-ff55-4936-91eb-5ae5ac0d0ee8","ios":"levelo://app?vid=c8b571c8-ff55-4936-91eb-5ae5ac0d0ee8"},"vehicle_type_id":"4","last_reported":1733155953,"current_range_meters":17600,"station_id":"ce4bhih2rcd13ifvqfs0","pricing_plan_id":"cebpf4jnsgd1na2vs0mg"},{"bike_id":"53c49f91-b461-492e-a085-09cd1efdb30c","system_id":"levelo_inurba_marseille","lat":43.27177,"lon":5.40988,"is_reserved":false,"is_disabled":false,"rental_uris":{"android":"levelo://app?vid=53c49f91-b461-492e-a085-09cd1efdb30c","ios":"levelo://app?vid=53c49f91-b461-492e-a085-09cd1efdb30c"},"vehicle_type_id":"4","last_reported":1733155953,"current_range_meters":38800,"station_id":"ce4bhl12rcd13ifvqgf0","pricing_plan_id":"cebpf4jnsgd1na2vs0mg"},{"bike_id":"b05ee27a-dfb6-4d31-84ac-62ca21608fce","system_id":"levelo_inurba_marseille","lat":43.26033,"lon":5.37548,"is_reserved":false,"is_disabled":false,"rental_uris":{"android":"levelo://app?vid=b05ee27a-dfb6-4d31-84ac-62ca21608fce","ios":"levelo://app?vid=b05ee27a-dfb6-4d31-84ac-62ca21608fce"},"vehicle_type_id":"4","last_reported":1733155953,"current_range_meters":14400,"station_id":"ce4bhgh2rcd13ifvqfa0","pricing_plan_id":"cebpf4jnsgd1na2vs0mg"},{"bike_id":"bd4501f1-e17a-4d89-bfea-429beee01ff3","system_id":"levelo_inurba_marseille","lat":43.28661,"lon":5.36352,"is_reserved":false,"is_disabled":false,"rental_uris":{"android":"levelo://app?vid=bd4501f1-e17a-4d89-bfea-429beee01ff3","ios":"levelo://app?vid=bd4501f1-e17a-4d89-bfea-429beee01ff3"},"vehicle_type_id":"4","last_reported":1733155953,"current_range_meters":30400,"station_id":"ce4bhah2rcd13ifvqej0","pricing_plan_id":"cebpf4jnsgd1na2vs0mg"},{"bike_id":"d535747b-69d2-401e-8d26-0c3aa8c05d51","system_id":"levelo_inurba_marseille","lat":43.29921,"lon":5.38562,"is_reserved":false,"is_disabled":false,"rental_uris":{"android":"levelo://app?vid=d535747b-69d2-401e-8d26-0c3aa8c05d51","ios":"levelo://app?vid=d535747b-69d2-401e-8d26-0c3aa8c05d51"},"vehicle_type_id":"4","last_reported":1733155953,"current_range_meters":20800,"station_id":"","pricing_plan_id":"cebpf4jnsgd1na2vs0mg"},{"bike_id":"263ee028-89e1-439d-86d9-870afbb1a1c0","system_id":"levelo_inurba_marseille","lat":43.31365,"lon":5.36723,"is_reserved":false,"is_disabled":false,"rental_uris":{"android":"levelo://app?vid=263ee028-89e1-439d-86d9-870afbb1a1c0","ios":"levelo://app?vid=263ee028-89e1-439d-86d9-870afbb1a1c0"},"vehicle_type_id":"4","last_reported":1733155953,"current_range_meters":28000,"station_id":"ce4bgr92rcd13ifvqc6g","pricing_plan_id":"cebpf4jnsgd1na2vs0mg"},{"bike_id":"23d2a34e-2f34-4cb1-beeb-b82fae49211d","system_id":"levelo_inurba_marseille","lat":43.24653,"lon":5.38895,"is_reserved":false,"is_disabled":false,"rental_uris":{"android":"levelo://app?vid=23d2a34e-2f34-4cb1-beeb-b82fae49211d","ios":"levelo://app?vid=23d2a34e-2f34-4cb1-beeb-b82fae49211d"},"vehicle_type_id":"4","last_reported":1733155953,"current_range_meters":35200,"station_id":"ce4bhg12rcd13ifvqf60","pricing_plan_id":"cebpf4jnsgd1na2vs0mg"},{"bike_id":"3a853398-6c53-4ce0-a326-f8bbaf11848c","system_id":"levelo_inurba_marseille","lat":43.26033,"lon":5.37545,"is_reserved":false,"is_disabled":false,"rental_uris":{"android":"levelo://app?vid=3a853398-6c53-4ce0-a326-f8bbaf11848c","ios":"levelo://app?vid=3a853398-6c53-4ce0-a326-f8bbaf11848c"},"vehicle_type_id":"4","last_reported":1733155953,"current_range_meters":38800,"station_id":"ce4bhgh2rcd13ifvqfa0","pricing_plan_id":"cebpf4jnsgd1na2vs0mg"},{"bike_id":"98017d21-023e-443e-9306-2f9935617255","system_id":"levelo_inurba_marseille","lat":43.24661,"lon":5.38164,"is_reserved":false,"is_disabled":true,"rental_uris":{"android":"levelo://app?vid=98017d21-023e-443e-9306-2f9935617255","ios":"levelo://app?vid=98017d21-023e-443e-9306-2f9935617255"},"vehicle_type_id":"4","last_reported":1733155953,"current_range_meters":400,"station_id":"ce4bhih2rcd13ifvqfr0","pricing_plan_id":"cebpf4jnsgd1na2vs0mg"},{"bike_id":"0432deda-7f56-46ef-a713-0fa6f42cc489","system_id":"levelo_inurba_marseille","lat":43.27911,"lon":5.39582,"is_reserved":false,"is_disabled":true,"rental_uris":{"android":"levelo://app?vid=0432deda-7f56-46ef-a713-0fa6f42cc489","ios":"levelo://app?vid=0432deda-7f56-46ef-a713-0fa6f42cc489"},"vehicle_type_id":"4","last_reported":1733155953,"current_range_meters":800,"station_id":"ce4bhf92rcd13ifvqf40","pricing_plan_id":"cebpf4jnsgd1na2vs0mg"},{"bike_id":"b8afe9da-9a3d-438c-8fbb-80e14d663770","system_id":"levelo_inurba_marseille","lat":43.29513,"lon":5.39026,"is_reserved":false,"is_disabled":true,"rental_uris":{"android":"levelo://app?vid=b8afe9da-9a3d-438c-8fbb-80e14d663770","ios":"levelo://app?vid=b8afe9da-9a3d-438c-8fbb-80e14d663770"},"vehicle_type_id":"4","last_reported":1733155953,"current_range_meters":24800,"station_id":"ce4bh3p2rcd13ifvqdp0","pricing_plan_id":"cebpf4jnsgd1na2vs0mg"},{"bike_id":"b20eb828-db78-4892-a828-1b3e23f22513","system_id":"levelo_inurba_marseille","lat":43.32333,"lon":5.40616,"is_reserved":false,"is_disabled":false,"rental_uris":{"android":"levelo://app?vid=b20eb828-db78-4892-a828-1b3e23f22513","ios":"levelo://app?vid=b20eb828-db78-4892-a828-1b3e23f22513"},"vehicle_type_id":"4","last_reported":1733155953,"current_range_meters":29600,"station_id":"ce4bhq92rcd13ifvqhjg","pricing_plan_id":"cebpf4jnsgd1na2vs0mg"},{"bike_id":"be8cd377-bf58-414c-876c-45495911bc5b","system_id":"levelo_inurba_marseille","lat":43.28684,"lon":5.41094,"is_reserved":false,"is_disabled":true,"rental_uris":{"android":"levelo://app?vid=be8cd377-bf58-414c-876c-45495911bc5b","ios":"levelo://app?vid=be8cd377-bf58-414c-876c-45495911bc5b"},"vehicle_type_id":"4","last_reported":1733155953,"current_range_meters":19200,"station_id":"","pricing_plan_id":"cebpf4jnsgd1na2vs0mg"},{"bike_id":"5de320f4-8b1b-4ce6-8507-7d1ee01b21bb","system_id":"levelo_inurba_marseille","lat":43.27667,"lon":5.38901,"is_reserved":false,"is_disabled":true,"rental_uris":{"android":"levelo://app?vid=5de320f4-8b1b-4ce6-8507-7d1ee01b21bb","ios":"levelo://app?vid=5de320f4-8b1b-4ce6-8507-7d1ee01b21bb"},"vehicle_type_id":"4","last_reported":1733155953,"current_range_meters":33200,"station_id":"ce4bhi12rcd13ifvqfo0","pricing_plan_id":"cebpf4jnsgd1na2vs0mg"},{"bike_id":"ab74d258-8d56-4ed9-9cb7-57ae1639ee73","system_id":"levelo_inurba_marseille","lat":43.26317,"lon":5.40138,"is_reserved":false,"is_disabled":true,"rental_uris":{"android":"levelo://app?vid=ab74d258-8d56-4ed9-9cb7-57ae1639ee73","ios":"levelo://app?vid=ab74d258-8d56-4ed9-9cb7-57ae1639ee73"},"vehicle_type_id":"4","last_reported":1733155953,"current_range_meters":0,"station_id":"","pricing_plan_id":"cebpf4jnsgd1na2vs0mg"},{"bike_id":"ddbab14a-1c97-47a4-8939-07127bb8ccdb","system_id":"levelo_inurba_marseille","lat":43.29584,"lon":5.36748,"is_reserved":false,"is_disabled":true,"rental_uris":{"android":"levelo://app?vid=ddbab14a-1c97-47a4-8939-07127bb8ccdb","ios":"levelo://app?vid=ddbab14a-1c97-47a4-8939-07127bb8ccdb"},"vehicle_type_id":"4","last_reported":1733155953,"current_range_meters":0,"station_id":"ce4bgph2rcd13ifvqc2g","pricing_plan_id":"cebpf4jnsgd1na2vs0mg"},{"bike_id":"c1097c5a-9333-408f-86b2-e98e6a68c0c4","system_id":"levelo_inurba_marseille","lat":43.29265,"lon":5.3844,"is_reserved":false,"is_disabled":false,"rental_uris":{"android":"levelo://app?vid=c1097c5a-9333-408f-86b2-e98e6a68c0c4","ios":"levelo://app?vid=c1097c5a-9333-408f-86b2-e98e6a68c0c4"},"vehicle_type_id":"4","last_reported":1733155953,"current_range_meters":17600,"station_id":"ce4bh692rcd13ifvqea0","pricing_plan_id":"cebpf4jnsgd1na2vs0mg"},{"bike_id":"f4161a13-d98b-491c-b228-158f5530b71a","system_id":"levelo_inurba_marseille","lat":43.30308,"lon":5.36912,"is_reserved":false,"is_disabled":false,"rental_uris":{"android":"levelo://app?vid=f4161a13-d98b-491c-b228-158f5530b71a","ios":"levelo://app?vid=f4161a13-d98b-491c-b228-158f5530b71a"},"vehicle_type_id":"4","last_reported":1733155953,"current_range_meters":38400,"station_id":"ce4bgqh2rcd13ifvqc5g","pricing_plan_id":"cebpf4jnsgd1na2vs0mg"},{"bike_id":"24a01aa5-9eef-421a-a29b-b3d28fd59147","system_id":"levelo_inurba_marseille","lat":43.23179,"lon":5.39996,"is_reserved":false,"is_disabled":false,"rental_uris":{"android":"levelo://app?vid=24a01aa5-9eef-421a-a29b-b3d28fd59147","ios":"levelo://app?vid=24a01aa5-9eef-421a-a29b-b3d28fd59147"},"vehicle_type_id":"4","last_reported":1733155953,"current_range_meters":18000,"station_id":"ce4bhn12rcd13ifvqgqg","pricing_plan_id":"cebpf4jnsgd1na2vs0mg"},{"bike_id":"d0b6a599-5497-4ae9-9990-3a2c42026ffb","system_id":"levelo_inurba_marseille","lat":43.28941,"lon":5.3664,"is_reserved":false,"is_disabled":false,"rental_uris":{"android":"levelo://app?vid=d0b6a599-5497-4ae9-9990-3a2c42026ffb","ios":"levelo://app?vid=d0b6a599-5497-4ae9-9990-3a2c42026ffb"},"vehicle_type_id":"4","last_reported":1733155953,"current_range_meters":9200,"station_id":"ce4bhap2rcd13ifvqek0","pricing_plan_id":"cebpf4jnsgd1na2vs0mg"},{"bike_id":"5dad671d-5528-4b90-a36d-79f8725b22c1","system_id":"levelo_inurba_marseille","lat":43.31992,"lon":5.38149,"is_reserved":false,"is_disabled":false,"rental_uris":{"android":"levelo://app?vid=5dad671d-5528-4b90-a36d-79f8725b22c1","ios":"levelo://app?vid=5dad671d-5528-4b90-a36d-79f8725b22c1"},"vehicle_type_id":"4","last_reported":1733155953,"current_range_meters":30400,"station_id":"ce4bhr12rcd13ifvqhpg","pricing_plan_id":"cebpf4jnsgd1na2vs0mg"},{"bike_id":"d47aa0b3-0a51-4211-a74f-68cb56d486dc","system_id":"levelo_inurba_marseille","lat":43.26551,"lon":5.37288,"is_reserved":false,"is_disabled":false,"rental_uris":{"android":"levelo://app?vid=d47aa0b3-0a51-4211-a74f-68cb56d486dc","ios":"levelo://app?vid=d47aa0b3-0a51-4211-a74f-68cb56d486dc"},"vehicle_type_id":"4","last_reported":1733155953,"current_range_meters":36000,"station_id":"ce4bhg12rcd13ifvqf70","pricing_plan_id":"cebpf4jnsgd1na2vs0mg"},{"bike_id":"176f321f-e6fa-48db-8063-5ccf7006db3b","system_id":"levelo_inurba_marseille","lat":43.29061,"lon":5.35915,"is_reserved":false,"is_disabled":false,"rental_uris":{"android":"levelo://app?vid=176f321f-e6fa-48db-8063-5ccf7006db3b","ios":"levelo://app?vid=176f321f-e6fa-48db-8063-5ccf7006db3b"},"vehicle_type_id":"4","last_reported":1733155953,"current_range_meters":38800,"station_id":"ce4bha92rcd13ifvqeg0","pricing_plan_id":"cebpf4jnsgd1na2vs0mg"},{"bike_id":"be7cb876-da89-4d35-952b-01dd84937119","system_id":"levelo_inurba_marseille","lat":43.25821,"lon":5.39435,"is_reserved":false,"is_disabled":false,"rental_uris":{"android":"levelo://app?vid=be7cb876-da89-4d35-952b-01dd84937119","ios":"levelo://app?vid=be7cb876-da89-4d35-952b-01dd84937119"},"vehicle_type_id":"4","last_reported":1733155953,"current_range_meters":32000,"station_id":"ce4bhip2rcd13ifvqft0","pricing_plan_id":"cebpf4jnsgd1na2vs0mg"},{"bike_id":"b4e7102c-4a25-47a4-805c-66886d2da580","system_id":"levelo_inurba_marseille","lat":43.30628,"lon":5.36774,"is_reserved":false,"is_disabled":false,"rental_uris":{"android":"levelo://app?vid=b4e7102c-4a25-47a4-805c-66886d2da580","ios":"levelo://app?vid=b4e7102c-4a25-47a4-805c-66886d2da580"},"vehicle_type_id":"4","last_reported":1733155953,"current_range_meters":38800,"station_id":"","pricing_plan_id":"cebpf4jnsgd1na2vs0mg"},{"bike_id":"b7e6d95f-bfcf-4478-9acf-cea8bd4cc767","system_id":"levelo_inurba_marseille","lat":43.29007,"lon":5.35615,"is_reserved":false,"is_disabled":false,"rental_uris":{"android":"levelo://app?vid=b7e6d95f-bfcf-4478-9acf-cea8bd4cc767","ios":"levelo://app?vid=b7e6d95f-bfcf-4478-9acf-cea8bd4cc767"},"vehicle_type_id":"4","last_reported":1733155953,"current_range_meters":31200,"station_id":"ce4bhb92rcd13ifvqen0","pricing_plan_id":"cebpf4jnsgd1na2vs0mg"},{"bike_id":"05fa3d6b-46f7-48eb-ae95-4f6c4a18eaa9","system_id":"levelo_inurba_marseille","lat":43.32365,"lon":5.38887,"is_reserved":false,"is_disabled":false,"rental_uris":{"android":"levelo://app?vid=05fa3d6b-46f7-48eb-ae95-4f6c4a18eaa9","ios":"levelo://app?vid=05fa3d6b-46f7-48eb-ae95-4f6c4a18eaa9"},