{"last_updated":1760944314,"ttl":60,"version":"2.2","data":{"bikes":[{"bike_id":"ef1d3efc-4e43-438c-8f55-8e29754b02e8","system_id":"levelo_inurba_marseille","lat":43.2889,"lon":5.4597,"is_reserved":false,"is_disabled":false,"rental_uris":{"android":"levelo://app?vid=ef1d3efc-4e43-438c-8f55-8e29754b02e8","ios":"levelo://app?vid=ef1d3efc-4e43-438c-8f55-8e29754b02e8"},"vehicle_type_id":"4","last_reported":1760944315,"current_range_meters":2800,"station_id":"","pricing_plan_id":"cebpf4jnsgd1na2vs0mg"},{"bike_id":"75b02a51-1325-435e-9661-29bb451a696a","system_id":"levelo_inurba_marseille","lat":43.31448,"lon":5.38488,"is_reserved":false,"is_disabled":false,"rental_uris":{"android":"levelo://app?vid=75b02a51-1325-435e-9661-29bb451a696a","ios":"levelo://app?vid=75b02a51-1325-435e-9661-29bb451a696a"},"vehicle_type_id":"4","last_reported":1760944315,"current_range_meters":3600,"station_id":"","pricing_plan_id":"cebpf4jnsgd1na2vs0mg"},{"bike_id":"0b170382-a38a-48fc-b060-b901de311f1a","system_id":"levelo_inurba_marseille","lat":43.33047,"lon":5.39024,"is_reserved":false,"is_disabled":true,"rental_uris":{"android":"levelo://app?vid=0b170382-a38a-48fc-b060-b901de311f1a","ios":"levelo://app?vid=0b170382-a38a-48fc-b060-b901de311f1a"},"vehicle_type_id":"4","last_reported":1760944315,"current_range_meters":4000,"station_id":"ce4bhr92rcd13ifvqhrg","pricing_plan_id":"cebpf4jnsgd1na2vs0mg"},{"bike_id":"676fd588-494b-4028-8203-f37ef89d1fbb","system_id":"levelo_inurba_marseille","lat":43.2257,"lon":5.41638,"is_reserved":false,"is_disabled":false,"rental_uris":{"android":"levelo://app?vid=676fd588-494b-4028-8203-f37ef89d1fbb","ios":"levelo://app?vid=676fd588-494b-4028-8203-f37ef89d1fbb"},"vehicle_type_id":"4","last_reported":1760944315,"current_range_meters":4000,"station_id":"st_d2o4gvlbi1j2169b742g","pricing_plan_id":"cebpf4jnsgd1na2vs0mg"},{"bike_id":"4b22b6f3-6e7b-4436-8439-6da4227bd8f6","system_id":"levelo_inurba_marseille","lat":43.26401,"lon":5.37036,"is_reserved":false,"is_disabled":false,"rental_uris":{"android":"levelo://app?vid=4b22b6f3-6e7b-4436-8439-6da4227bd8f6","ios":"levelo://app?vid=4b22b6f3-6e7b-4436-8439-6da4227bd8f6"},"vehicle_type_id":"4","last_reported":1760944315,"current_range_meters":4000,"station_id":"","pricing_plan_id":"cebpf4jnsgd1na2vs0mg"},{"bike_id":"f0858ea7-19b4-4157-ba5d-f0bf79b5fccb","system_id":"levelo_inurba_marseille","lat":43.24992,"lon":5.38932,"is_reserved":false,"is_disabled":false,"rental_uris":{"android":"levelo://app?vid=f0858ea7-19b4-4157-ba5d-f0bf79b5fccb","ios":"levelo://app?vid=f0858ea7-19b4-4157-ba5d-f0bf79b5fccb"},"vehicle_type_id":"4","last_reported":1760944315,"current_range_meters":4000,"station_id":"ce4bhgp2rcd13ifvqfd0","pricing_plan_id":"cebpf4jnsgd1na2vs0mg"},{"bike_id":"5ec36f29-a595-43fb-81bc-e1f6ecf04525","system_id":"levelo_inurba_marseille","lat":43.21181,"lon":5.35072,"is_reserved":false,"is_disabled":true,"rental_uris":{"android":"levelo://app?vid=5ec36f29-a595-43fb-81bc-e1f6ecf04525","ios":"levelo://app?vid=5ec36f29-a595-43fb-81bc-e1f6ecf04525"},"vehicle_type_id":"4","last_reported":1760944315,"current_range_meters":4000,"station_id":"st_cvj6sg6p6f1abm77japg","pricing_plan_id":"cebpf4jnsgd1na2vs0mg"},{"bike_id":"383132c7-6568-4b3f-85e0-394f17b8ed8c","system_id":"levelo_inurba_marseille","lat":43.246345,"lon":5.388925,"is_reserved":false,"is_disabled":false,"rental_uris":{"android":"levelo://app?vid=383132c7-6568-4b3f-85e0-394f17b8ed8c","ios":"levelo://app?vid=383132c7-6568-4b3f-85e0-394f17b8ed8c"},"vehicle_type_id":"4","last_reported":1760944315,"current_range_meters":4400,"station_id":"ce4bhg12rcd13ifvqf60","pricing_plan_id":"cebpf4jnsgd1na2vs0mg"},{"bike_id":"425855e1-41d2-469c-8ce7-d53e3184a075","system_id":"levelo_inurba_marseille","lat":43.23217,"lon":5.35549,"is_reserved":false,"is_disabled":false,"rental_uris":{"android":"levelo://app?vid=425855e1-41d2-469c-8ce7-d53e3184a075","ios":"levelo://app?vid=425855e1-41d2-469c-8ce7-d53e3184a075"},"vehicle_type_id":"4","last_reported":1760944315,"current_range_meters":4400,"station_id":"ce4bhu92rcd13ifvqi70","pricing_plan_id":"cebpf4jnsgd1na2vs0mg"},{"bike_id":"5bde6d24-7307-4a60-a6a9-adf9fa6c5c6f","system_id":"levelo_inurba_marseille","lat":43.25089,"lon":5.39521,"is_reserved":false,"is_disabled":false,"rental_uris":{"android":"levelo://app?vid=5bde6d24-7307-4a60-a6a9-adf9fa6c5c6f","ios":"levelo://app?vid=5bde6d24-7307-4a60-a6a9-adf9fa6c5c6f"},"vehicle_type_id":"4","last_reported":1760944315,"current_range_meters":4400,"station_id":"ce4bhm12rcd13ifvqgkg","pricing_plan_id":"cebpf4jnsgd1na2vs0mg"},{"bike_id":"fc98f019-2b4d-45f5-b664-5928e89fb440","system_id":"levelo_inurba_marseille","lat":43.21757,"lon":5.34606,"is_reserved":false,"is_disabled":false,"rental_uris":{"android":"levelo://app?vid=fc98f019-2b4d-45f5-b664-5928e89fb440","ios":"levelo://app?vid=fc98f019-2b4d-45f5-b664-5928e89fb440"},"vehicle_type_id":"4","last_reported":1760944315,"current_range_meters":4400,"station_id":"st_cvj6r9ubvosntc0bgbag","pricing_plan_id":"cebpf4jnsgd1na2vs0mg"},{"bike_id":"b54f9994-86e1-4fa0-addb-6f4b5fe841db","system_id":"levelo_inurba_marseille","lat":43.290369,"lon":5.375623,"is_reserved":false,"is_disabled":false,"rental_uris":{"android":"levelo://app?vid=b54f9994-86e1-4fa0-addb-6f4b5fe841db","ios":"levelo://app?vid=b54f9994-86e1-4fa0-addb-6f4b5fe841db"},"vehicle_type_id":"4","last_reported":1760944315,"current_range_meters":4400,"station_id":"ce4bh692rcd13ifvqe90","pricing_plan_id":"cebpf4jnsgd1na2vs0mg"},{"bike_id":"8e6781bb-2e20-454e-8191-54182f17bdfc","system_id":"levelo_inurba_marseille","lat":43.21746,"lon":5.34609,"is_reserved":false,"is_disabled":true,"rental_uris":{"android":"levelo://app?vid=8e6781bb-2e20-454e-8191-54182f17bdfc","ios":"levelo://app?vid=8e6781bb-2e20-454e-8191-54182f17bdfc"},"vehicle_type_id":"4","last_reported":1760944315,"current_range_meters":4400,"station_id":"st_cvj6r9ubvosntc0bgbag","pricing_plan_id":"cebpf4jnsgd1na2vs0mg"},{"bike_id":"d15a00a7-adef-4170-baff-a7fa16b2cee6","system_id":"levelo_inurba_marseille","lat":43.289969,"lon":5.356082,"is_reserved":false,"is_disabled":true,"rental_uris":{"android":"levelo://app?vid=d15a00a7-adef-4170-baff-a7fa16b2cee6","ios":"levelo://app?vid=d15a00a7-adef-4170-baff-a7fa16b2cee6"},"vehicle_type_id":"4","last_reported":1760944315,"current_range_meters":4800,"station_id":"ce4bhb92rcd13ifvqen0","pricing_plan_id":"cebpf4jnsgd1na2vs0mg"},{"bike_id":"0a414463-fe1a-4833-8a11-178a3c2c879a","system_id":"levelo_inurba_marseille","lat":43.29852,"lon":5.37897,"is_reserved":false,"is_disabled":false,"rental_uris":{"android":"levelo://app?vid=0a414463-fe1a-4833-8a11-178a3c2c879a","ios":"levelo://app?vid=0a414463-fe1a-4833-8a11-178a3c2c879a"},"vehicle_type_id":"4","last_reported":1760944315,"current_range_meters":5600,"station_id":"","pricing_plan_id":"cebpf4jnsgd1na2vs0mg"},{"bike_id":"0c3786c6-2650-43db-a304-93e49c25f803","system_id":"levelo_inurba_marseille","lat":43.276782,"lon":5.388717,"is_reserved":false,"is_disabled":false,"rental_uris":{"android":"levelo://app?vid=0c3786c6-2650-43db-a304-93e49c25f803","ios":"levelo://app?vid=0c3786c6-2650-43db-a304-93e49c25f803"},"vehicle_type_id":"4","last_reported":1760944315,"current_range_meters":5600,"station_id":"ce4bhi12rcd13ifvqfo0","pricing_plan_id":"cebpf4jnsgd1na2vs0mg"},{"bike_id":"61da2458-70a9-42a1-8ec8-8c8bac515284","system_id":"levelo_inurba_marseille","lat":43.30512,"lon":5.3681,"is_reserved":false,"is_disabled":false,"rental_uris":{"android":"levelo://app?vid=61da2458-70a9-42a1-8ec8-8c8bac515284","ios":"levelo://app?vid=61da2458-70a9-42a1-8ec8-8c8bac515284"},"vehicle_type_id":"4","last_reported":1760944315,"current_range_meters":5600,"station_id":"ce4bhb92rcd13ifvqen0","pricing_plan_id":"cebpf4jnsgd1na2vs0mg"},{"bike_id":"f7c8f693-1cb9-4f45-a809-cd76181c6642","system_id":"levelo_inurba_marseille","lat":43.225382,"lon":5.348344,"is_reserved":false,"is_disabled":false,"rental_uris":{"android":"levelo://app?vid=f7c8f693-1cb9-4f45-a809-cd76181c6642","ios":"levelo://app?vid=f7c8f693-1cb9-4f45-a809-cd76181c6642"},"vehicle_type_id":"4","last_reported":1760944315,"current_range_meters":5600,"station_id":"ce4bhoh2rcd13ifvqh5g","pricing_plan_id":"cebpf4jnsgd1na2vs0mg"},{"bike_id":"e7e8b93c-02d4-466b-82b5-3f4c4f15c2ae","system_id":"levelo_inurba_marseille","lat":43.28823,"lon":5.43852,"is_reserved":false,"is_disabled":false,"rental_uris":{"android":"levelo://app?vid=e7e8b93c-02d4-466b-82b5-3f4c4f15c2ae","ios":"levelo://app?vid=e7e8b93c-02d4-466b-82b5-3f4c4f15c2ae"},"vehicle_type_id":"4","last_reported":1760944315,"current_range_meters":6000,"station_id":"","pricing_plan_id":"cebpf4jnsgd1na2vs0mg"},{"bike_id":"cae6222d-65a2-4b5b-b868-3157c4e02f24","system_id":"levelo_inurba_marseille","lat":43.28612,"lon":5.35105,"is_reserved":false,"is_disabled":false,"rental_uris":{"android":"levelo://app?vid=cae6222d-65a2-4b5b-b868-3157c4e02f24","ios":"levelo://app?vid=cae6222d-65a2-4b5b-b868-3157c4e02f24"},"vehicle_type_id":"4","last_reported":1760944315,"current_range_meters":6000,"station_id":"","pricing_plan_id":"cebpf4jnsgd1na2vs0mg"},{"bike_id":"341025ca-ef2d-442d-80ac-78ca83dc4a7c","system_id":"levelo_inurba_marseille","lat":43.2991,"lon":5.36943,"is_reserved":false,"is_disabled":false,"rental_uris":{"android":"levelo://app?vid=341025ca-ef2d-442d-80ac-78ca83dc4a7c","ios":"levelo://app?vid=341025ca-ef2d-442d-80ac-78ca83dc4a7c"},"vehicle_type_id":"4","last_reported":1760944315,"current_range_meters":6000,"station_id":"","pricing_plan_id":"cebpf4jnsgd1na2vs0mg"},{"bike_id":"0e8ca802-2937-4358-9409-e85c82214f6d","system_id":"levelo_inurba_marseille","lat":43.31481,"lon":5.37305,"is_reserved":false,"is_disabled":false,"rental_uris":{"android":"levelo://app?vid=0e8ca802-2937-4358-9409-e85c82214f6d","ios":"levelo://app?vid=0e8ca802-2937-4358-9409-e85c82214f6d"},"vehicle_type_id":"4","last_reported":1760944315,"current_range_meters":6000,"station_id":"ce4bgt12rcd13ifvqcd0","pricing_plan_id":"cebpf4jnsgd1na2vs0mg"},{"bike_id":"7127f73a-6249-4879-a505-47766a18874b","system_id":"levelo_inurba_marseille","lat":43.283681,"lon":5.38643,"is_reserved":false,"is_disabled":false,"rental_uris":{"android":"levelo://app?vid=7127f73a-6249-4879-a505-47766a18874b","ios":"levelo://app?vid=7127f73a-6249-4879-a505-47766a18874b"},"vehicle_type_id":"4","last_reported":1760944315,"current_range_meters":6400,"station_id":"ce4bh492rcd13ifvqdvg","pricing_plan_id":"cebpf4jnsgd1na2vs0mg"},{"bike_id":"f5eda7fc-872e-4f8e-9d95-c0a57bf82381","system_id":"levelo_inurba_marseille","lat":43.2921,"lon":5.37286,"is_reserved":false,"is_disabled":false,"rental_uris":{"android":"levelo://app?vid=f5eda7fc-872e-4f8e-9d95-c0a57bf82381","ios":"levelo://app?vid=f5eda7fc-872e-4f8e-9d95-c0a57bf82381"},"vehicle_type_id":"4","last_reported":1760944315,"current_range_meters":6400,"station_id":"","pricing_plan_id":"cebpf4jnsgd1na2vs0mg"},{"bike_id":"28889f9d-8656-4968-938b-566dad6e5bb0","system_id":"levelo_inurba_marseille","lat":43.30951,"lon":5.39046,"is_reserved":false,"is_disabled":false,"rental_uris":{"android":"levelo://app?vid=28889f9d-8656-4968-938b-566dad6e5bb0","ios":"levelo://app?vid=28889f9d-8656-4968-938b-566dad6e5bb0"},"vehicle_type_id":"4","last_reported":1760944315,"current_range_meters":6400,"station_id":"ce4bgup2rcd13ifvqco0","pricing_plan_id":"cebpf4jnsgd1na2vs0mg"},{"bike_id":"01631119-7160-4843-9224-8e6830b019a0","system_id":"levelo_inurba_marseille","lat":43.259262,"lon":5.409078,"is_reserved":false,"is_disabled":false,"rental_uris":{"android":"levelo://app?vid=01631119-7160-4843-9224-8e6830b019a0","ios":"levelo://app?vid=01631119-7160-4843-9224-8e6830b019a0"},"vehicle_type_id":"4","last_reported":1760944315,"current_range_meters":6400,"station_id":"ce4bhm92rcd13ifvqglg","pricing_plan_id":"cebpf4jnsgd1na2vs0mg"},{"bike_id":"5bd9155f-156c-49c8-8b0f-833732c1c592","system_id":"levelo_inurba_marseille","lat":43.28532,"lon":5.44112,"is_reserved":false,"is_disabled":false,"rental_uris":{"android":"levelo://app?vid=5bd9155f-156c-49c8-8b0f-833732c1c592","ios":"levelo://app?vid=5bd9155f-156c-49c8-8b0f-833732c1c592"},"vehicle_type_id":"4","last_reported":1760944315,"current_range_meters":6800,"station_id":"st_d3j3df2ikq2c7380ej80","pricing_plan_id":"cebpf4jnsgd1na2vs0mg"},{"bike_id":"385fd39b-8266-4957-b54d-4abc61cac656","system_id":"levelo_inurba_marseille","lat":43.26679,"lon":5.38271,"is_reserved":false,"is_disabled":false,"rental_uris":{"android":"levelo://app?vid=385fd39b-8266-4957-b54d-4abc61cac656","ios":"levelo://app?vid=385fd39b-8266-4957-b54d-4abc61cac656"},"vehicle_type_id":"4","last_reported":1760944315,"current_range_meters":6800,"station_id":"ce4bhg92rcd13ifvqf90","pricing_plan_id":"cebpf4jnsgd1na2vs0mg"},{"bike_id":"93683be5-fda9-4431-8607-c59f0fd95fa9","system_id":"levelo_inurba_marseille","lat":43.24165,"lon":5.39733,"is_reserved":false,"is_disabled":false,"rental_uris":{"android":"levelo://app?vid=93683be5-fda9-4431-8607-c59f0fd95fa9","ios":"levelo://app?vid=93683be5-fda9-4431-8607-c59f0fd95fa9"},"vehicle_type_id":"4","last_reported":1760944315,"current_range_meters":6800,"station_id":"ce4bhn12rcd13ifvqgpg","pricing_plan_id":"cebpf4jnsgd1na2vs0mg"},{"bike_id":"603c6b62-b252-4ddf-8848-ba6e95c311df","system_id":"levelo_inurba_marseille","lat":43.31361,"lon":5.38489,"is_reserved":false,"is_disabled":false,"rental_uris":{"android":"levelo://app?vid=603c6b62-b252-4ddf-8848-ba6e95c311df","ios":"levelo://app?vid=603c6b62-b252-4ddf-8848-ba6e95c311df"},"vehicle_type_id":"4","last_reported":1760944315,"current_range_meters":6800,"station_id":"ce4bgt92rcd13ifvqcf0","pricing_plan_id":"cebpf4jnsgd1na2vs0mg"},{"bike_id":"3586afa5-19c6-4385-ae3b-80726606c1bb","system_id":"levelo_inurba_marseille","lat":43.26407,"lon":5.39929,"is_reserved":false,"is_disabled":false,"rental_uris":{"android":"levelo://app?vid=3586afa5-19c6-4385-ae3b-80726606c1bb","ios":"levelo://app?vid=3586afa5-19c6-4385-ae3b-80726606c1bb"},"vehicle_type_id":"4","last_reported":1760944315,"current_range_meters":6800,"station_id":"","pricing_plan_id":"cebpf4jnsgd1na2vs0mg"},{"bike_id":"32061be3-b343-41ee-91a4-0846a2b9ccec","system_id":"levelo_inurba_marseille","lat":43.23151,"lon":5.43717,"is_reserved":false,"is_disabled":false,"rental_uris":{"android":"levelo://app?vid=32061be3-b343-41ee-91a4-0846a2b9ccec","ios":"levelo://app?vid=32061be3-b343-41ee-91a4-0846a2b9ccec"},"vehicle_type_id":"4","last_reported":1760944315,"current_range_meters":7200,"station_id":"ce4bhmp2rcd13ifvqgog","pricing_plan_id":"cebpf4jnsgd1na2vs0mg"},{"bike_id":"ac6d2c4d-74a8-443d-a9f9-0d9807feacda","system_id":"levelo_inurba_marseille","lat":43.33772,"lon":5.37469,"is_reserved":false,"is_disabled":false,"rental_uris":{"android":"levelo://app?vid=ac6d2c4d-74a8-443d-a9f9-0d9807feacda","ios":"levelo://app?vid=ac6d2c4d-74a8-443d-a9f9-0d9807feacda"},"vehicle_type_id":"4","last_reported":1760944315,"current_range_meters":7200,"station_id":"","pricing_plan_id":"cebpf4jnsgd1na2vs0mg"},{"bike_id":"e978660f-731d-4a95-8df5-e0a54d8fe8be","system_id":"levelo_inurba_marseille","lat":43.21193,"lon":5.3507,"is_reserved":false,"is_disabled":true,"rental_uris":{"android":"levelo://app?vid=e978660f-731d-4a95-8df5-e0a54d8fe8be","ios":"levelo://app?vid=e978660f-731d-4a95-8df5-e0a54d8fe8be"},"vehicle_type_id":"4","last_reported":1760944315,"current_range_meters":7200,"station_id":"st_cvj6sg6p6f1abm77japg","pricing_plan_id":"cebpf4jnsgd1na2vs0mg"},{"bike_id":"132be3c6-e803-499b-82b0-edeb26e83d45","system_id":"levelo_inurba_marseille","lat":43.25966,"lon":5.41382,"is_reserved":false,"is_disabled":false,"rental_uris":{"android":"levelo://app?vid=132be3c6-e803-499b-82b0-edeb26e83d45","ios":"levelo://app?vid=132be3c6-e803-499b-82b0-edeb26e83d45"},"vehicle_type_id":"4","last_reported":1760944315,"current_range_meters":7200,"station_id":"","pricing_plan_id":"cebpf4jnsgd1na2vs0mg"},{"bike_id":"70350899-ee08-4bae-bf5d-5668c3a19a3f","system_id":"levelo_inurba_marseille","lat":43.302794,"lon":5.377182,"is_reserved":false,"is_disabled":false,"rental_uris":{"android":"levelo://app?vid=70350899-ee08-4bae-bf5d-5668c3a19a3f","ios":"levelo://app?vid=70350899-ee08-4bae-bf5d-5668c3a19a3f"},"vehicle_type_id":"4","last_reported":1760944315,"current_range_meters":8000,"station_id":"ce4bguh2rcd13ifvqcj0","pricing_plan_id":"cebpf4jnsgd1na2vs0mg"},{"bike_id":"365b1110-8604-4b2d-ad9b-3263b8a258f2","system_id":"levelo_inurba_marseille","lat":43.28655,"lon":5.3634,"is_reserved":false,"is_disabled":false,"rental_uris":{"android":"levelo://app?vid=365b1110-8604-4b2d-ad9b-3263b8a258f2","ios":"levelo://app?vid=365b1110-8604-4b2d-ad9b-3263b8a258f2"},"vehicle_type_id":"4","last_reported":1760944315,"current_range_meters":8000,"station_id":"ce4bhah2rcd13ifvqej0","pricing_plan_id":"cebpf4jnsgd1na2vs0mg"},{"bike_id":"f208d560-17cd-4702-a363-bd8402fc34ad","system_id":"levelo_inurba_marseille","lat":43.30537,"lon":5.3843,"is_reserved":false,"is_disabled":false,"rental_uris":{"android":"levelo://app?vid=f208d560-17cd-4702-a363-bd8402fc34ad","ios":"levelo://app?vid=f208d560-17cd-4702-a363-bd8402fc34ad"},"vehicle_type_id":"4","last_reported":1760944315,"current_range_meters":8000,"station_id":"ce4bgg92rcd13ifvqb30","pricing_plan_id":"cebpf4jnsgd1na2vs0mg"},{"bike_id":"d712d0ff-3096-41ad-87d0-b640167ff060","system_id":"levelo_inurba_marseille","lat":43.31541,"lon":5.38512,"is_reserved":false,"is_disabled":false,"rental_uris":{"android":"levelo://app?vid=d712d0ff-3096-41ad-87d0-b640167ff060","ios":"levelo://app?vid=d712d0ff-3096-41ad-87d0-b640167ff060"},"vehicle_type_id":"4","last_reported":1760944315,"current_range_meters":8000,"station_id":"","pricing_plan_id":"cebpf4jnsgd1na2vs0mg"},{"bike_id":"adde3fdd-2385-488d-9191-9d23d3f76d92","system_id":"levelo_inurba_marseille","lat":43.32479,"lon":5.36562,"is_reserved":false,"is_disabled":false,"rental_uris":{"android":"levelo://app?vid=adde3fdd-2385-488d-9191-9d23d3f76d92","ios":"levelo://app?vid=adde3fdd-2385-488d-9191-9d23d3f76d92"},"vehicle_type_id":"4","last_reported":1760944315,"current_range_meters":8000,"station_id":"ce4bhs12rcd13ifvqhvg","pricing_plan_id":"cebpf4jnsgd1na2vs0mg"},{"bike_id":"35cd3cdc-357b-4b9d-be6e-bcefe6c295c1","system_id":"levelo_inurba_marseille","lat":43.25713,"lon":5.41112,"is_reserved":false,"is_disabled":false,"rental_uris":{"android":"levelo://app?vid=35cd3cdc-357b-4b9d-be6e-bcefe6c295c1","ios":"levelo://app?vid=35cd3cdc-357b-4b9d-be6e-bcefe6c295c1"},"vehicle_type_id":"4","last_reported":1760944315,"current_range_meters":8000,"station_id":"ce4bhkp2rcd13ifvqgd0","pricing_plan_id":"cebpf4jnsgd1na2vs0mg"},{"bike_id":"1dcd2007-9a94-4bc0-bcab-451392c0c825","system_id":"levelo_inurba_marseille","lat":43.298352,"lon":5.376306,"is_reserved":false,"is_disabled":false,"rental_uris":{"android":"levelo://app?vid=1dcd2007-9a94-4bc0-bcab-451392c0c825","ios":"levelo://app?vid=1dcd2007-9a94-4bc0-bcab-451392c0c825"},"vehicle_type_id":"4","last_reported":1760944315,"current_range_meters":8000,"station_id":"","pricing_plan_id":"cebpf4jnsgd1na2vs0mg"},{"bike_id":"0fe5f988-499b-40e5-a930-cd6431a1b2ca","system_id":"levelo_inurba_marseille","lat":43.28351,"lon":5.39774,"is_reserved":false,"is_disabled":false,"rental_uris":{"android":"levelo://app?vid=0fe5f988-499b-40e5-a930-cd6431a1b2ca","ios":"levelo://app?vid=0fe5f988-499b-40e5-a930-cd6431a1b2ca"},"vehicle_type_id":"4","last_reported":1760944315,"current_range_meters":8000,"station_id":"","pricing_plan_id":"cebpf4jnsgd1na2vs0mg"},{"bike_id":"100b94e3-35cd-4191-b5b7-bc383c83cd43","system_id":"levelo_inurba_marseille","lat":43.262936,"lon":5.399175,"is_reserved":false,"is_disabled":false,"rental_uris":{"android":"levelo://app?vid=100b94e3-35cd-4191-b5b7-bc383c83cd43","ios":"levelo://app?vid=100b94e3-35cd-4191-b5b7-bc383c83cd43"},"vehicle_type_id":"4","last_reported":1760944315,"current_range_meters":8000,"station_id":"","pricing_plan_id":"cebpf4jnsgd1na2vs0mg"},{"bike_id":"2afc1c3a-da06-4dda-982d-9c88074af6b3","system_id":"levelo_inurba_marseille","lat":43.292733,"lon":5.376337,"is_reserved":false,"is_disabled":false,"rental_uris":{"android":"levelo://app?vid=2afc1c3a-da06-4dda-982d-9c88074af6b3","ios":"levelo://app?vid=2afc1c3a-da06-4dda-982d-9c88074af6b3"},"vehicle_type_id":"4","last_reported":1760944315,"current_range_meters":8400,"station_id":"ce4bgi12rcd13ifvqb80","pricing_plan_id":"cebpf4jnsgd1na2vs0mg"},{"bike_id":"ce1a3162-fd4d-43ab-bbbe-a32264386f35","system_id":"levelo_inurba_marseille","lat":43.25826,"lon":5.39433,"is_reserved":false,"is_disabled":false,"rental_uris":{"android":"levelo://app?vid=ce1a3162-fd4d-43ab-bbbe-a32264386f35","ios":"levelo://app?vid=ce1a3162-fd4d-43ab-bbbe-a32264386f35"},"vehicle_type_id":"4","last_reported":1760944315,"current_range_meters":8400,"station_id":"ce4bhip2rcd13ifvqft0","pricing_plan_id":"cebpf4jnsgd1na2vs0mg"},{"bike_id":"80c42c4e-e419-4dd4-975b-d391f02e119f","system_id":"levelo_inurba_marseille","lat":43.29279,"lon":5.40112,"is_reserved":false,"is_disabled":false,"rental_uris":{"android":"levelo://app?vid=80c42c4e-e419-4dd4-975b-d391f02e119f","ios":"levelo://app?vid=80c42c4e-e419-4dd4-975b-d391f02e119f"},"vehicle_type_id":"4","last_reported":1760944315,"current_range_meters":8800,"station_id":"ce4bh312rcd13ifvqdk0","pricing_plan_id":"cebpf4jnsgd1na2vs0mg"},{"bike_id":"e869a169-2abc-4954-94a6-1fa3489471d1","system_id":"levelo_inurba_marseille","lat":43.30134,"lon":5.39879,"is_reserved":false,"is_disabled":true,"rental_uris":{"android":"levelo://app?vid=e869a169-2abc-4954-94a6-1fa3489471d1","ios":"levelo://app?vid=e869a169-2abc-4954-94a6-1fa3489471d1"},"vehicle_type_id":"4","last_reported":1760944315,"current_range_meters":8800,"station_id":"ce4bh0h2rcd13ifvqd40","pricing_plan_id":"cebpf4jnsgd1na2vs0mg"},{"bike_id":"b9f4c452-f1a0-4b31-854c-2325a5b73556","system_id":"levelo_inurba_marseille","lat":43.21473,"lon":5.34331,"is_reserved":false,"is_disabled":false,"rental_uris":{"android":"levelo://app?vid=b9f4c452-f1a0-4b31-854c-2325a5b73556","ios":"levelo://app?vid=b9f4c452-f1a0-4b31-854c-2325a5b73556"},"vehicle_type_id":"4","last_reported":1760944315,"current_range_meters":8800,"station_id":"","pricing_plan_id":"cebpf4jnsgd1na2vs0mg"},{"bike_id":"778ccbfb-369b-40e2-98f2-f17901dc7e11","system_id":"levelo_inurba_marseille","lat":43.28397,"lon":5.34996,"is_reserved":false,"is_disabled":true,"rental_uris":{"android":"levelo://app?vid=778ccbfb-369b-40e2-98f2-f17901dc7e11","ios":"levelo://app?vid=778ccbfb-369b-40e2-98f2-f17901dc7e11"},"vehicle_type_id":"4","last_reported":1760944315,"current_range_meters":9200,"station_id":"ce4bhbh2rcd13ifvqepg","pricing_plan_id":"cebpf4jnsgd1na2vs0mg"},{"bike_id":"3cab6837-9492-4b2f-9f11-6d7fb4de0695","system_id":"levelo_inurba_marseille","lat":43.296,"lon":5.36738,"is_reserved":false,"is_disabled":true,"rental_uris":{"android":"levelo://app?vid=3cab6837-9492-4b2f-9f11-6d7fb4de0695","ios":"levelo://app?vid=3cab6837-9492-4b2f-9f11-6d7fb4de0695"},"vehicle_type_id":"4","last_reported":1760944315,"current_range_meters":9600,"station_id":"ce4bgph2rcd13ifvqc2g","pricing_plan_id":"cebpf4jnsgd1na2vs0mg"},{"bike_id":"9dd1d8fe-c2a8-4a70-a175-61f5f9fe7fd2","system_id":"levelo_inurba_marseille","lat":43.315501,"lon":5.390252,"is_reserved":false,"is_disabled":false,"rental_uris":{"android":"levelo://app?vid=9dd1d8fe-c2a8-4a70-a175-61f5f9fe7fd2","ios":"levelo://app?vid=9dd1d8fe-c2a8-4a70-a175-61f5f9fe7fd2"},"vehicle_type_id":"4","last_reported":1760944315,"current_range_meters":9600,"station_id":"","pricing_plan_id":"cebpf4jnsgd1na2vs0mg"},{"bike_id":"fb9510df-55be-43ae-b3b1-d13487165dec","system_id":"levelo_inurba_marseille","lat":43.29568,"lon":5.37523,"is_reserved":false,"is_disabled":false,"rental_uris":{"android":"levelo://app?vid=fb9510df-55be-43ae-b3b1-d13487165dec","ios":"levelo://app?vid=fb9510df-55be-43ae-b3b1-d13487165dec"},"vehicle_type_id":"4","last_reported":1760944315,"current_range_meters":9600,"station_id":"ce4bgh92rcd13ifvqb50","pricing_plan_id":"cebpf4jnsgd1na2vs0mg"},{"bike_id":"db9f2865-4725-4eb3-b346-a7a5b3a70a31","system_id":"levelo_inurba_marseille","lat":43.27997,"lon":5.40021,"is_reserved":false,"is_disabled":false,"rental_uris":{"android":"levelo://app?vid=db9f2865-4725-4eb3-b346-a7a5b3a70a31","ios":"levelo://app?vid=db9f2865-4725-4eb3-b346-a7a5b3a70a31"},"vehicle_type_id":"4","last_reported":1760944315,"current_range_meters":9600,"station_id":"ce4bho92rcd13ifvqh4g","pricing_plan_id":"cebpf4jnsgd1na2vs0mg"},{"bike_id":"245a030c-0c43-41f8-a4cc-088d55252b06","system_id":"levelo_inurba_marseille","lat":43.24479,"lon":5.36946,"is_reserved":false,"is_disabled":false,"rental_uris":{"android":"levelo://app?vid=245a030c-0c43-41f8-a4cc-088d55252b06","ios":"levelo://app?vid=245a030c-0c43-41f8-a4cc-088d55252b06"},"vehicle_type_id":"4","last_reported":1760944315,"current_range_meters":9600,"station_id":"","pricing_plan_id":"cebpf4jnsgd1na2vs0mg"},{"bike_id":"676d88a8-f06e-4192-886d-e52926318b91","system_id":"levelo_inurba_marseille","lat":43.21204,"lon":5.35068,"is_reserved":false,"is_disabled":false,"rental_uris":{"android":"levelo://app?vid=676d88a8-f06e-4192-886d-e52926318b91","ios":"levelo://app?vid=676d88a8-f06e-4192-886d-e52926318b91"},"vehicle_type_id":"4","last_reported":1760944315,"current_range_meters":9600,"station_id":"st_cvj6sg6p6f1abm77japg","pricing_plan_id":"cebpf4jnsgd1na2vs0mg"},{"bike_id":"73c30483-4d3b-4c6a-b81a-c152a7c30b98","system_id":"levelo_inurba_marseille","lat":43.314709,"lon":5.37314,"is_reserved":false,"is_disabled":false,"rental_uris":{"android":"levelo://app?vid=73c30483-4d3b-4c6a-b81a-c152a7c30b98","ios":"levelo://app?vid=73c30483-4d3b-4c6a-b81a-c152a7c30b98"},"vehicle_type_id":"4","last_reported":1760944315,"current_range_meters":9600,"station_id":"ce4bgt12rcd13ifvqcd0","pricing_plan_id":"cebpf4jnsgd1na2vs0mg"},{"bike_id":"86ce52f8-f590-4694-90e1-216ddc477b29","system_id":"levelo_inurba_marseille","lat":43.30968,"lon":5.3812,"is_reserved":false,"is_disabled":false,"rental_uris":{"android":"levelo://app?vid=86ce52f8-f590-4694-90e1-216ddc477b29","ios":"levelo://app?vid=86ce52f8-f590-4694-90e1-216ddc477b29"},"vehicle_type_id":"4","last_reported":1760944315,"current_range_meters":9600,"station_id":"","pricing_plan_id":"cebpf4jnsgd1na2vs0mg"},{"bike_id":"8cd818e3-a9e2-4f48-92b2-26306f507696","system_id":"levelo_inurba_marseille","lat":43.31349,"lon":5.37913,"is_reserved":false,"is_disabled":false,"rental_uris":{"android":"levelo://app?vid=8cd818e3-a9e2-4f48-92b2-26306f507696","ios":"levelo://app?vid=8cd818e3-a9e2-4f48-92b2-26306f507696"},"vehicle_type_id":"4","last_reported":1760944315,"current_range_meters":9600,"station_id":"","pricing_plan_id":"cebpf4jnsgd1na2vs0mg"},{"bike_id":"b6598708-1fb1-4ff2-b22f-1d2057bde6d4","system_id":"levelo_inurba_marseille","lat":43.30152,"lon":5.38081,"is_reserved":false,"is_disabled":false,"rental_uris":{"android":"levelo://app?vid=b6598708-1fb1-4ff2-b22f-1d2057bde6d4","ios":"levelo://app?vid=b6598708-1fb1-4ff2-b22f-1d2057bde6d4"},"vehicle_type_id":"4","last_reported":1760944315,"current_range_meters":9600,"station_id":"ce4bgjp2rcd13ifvqbh0","pricing_plan_id":"cebpf4jnsgd1na2vs0mg"},{"bike_id":"703401b8-e576-4a54-9b9d-4e5804912d35","system_id":"levelo_inurba_marseille","lat":43.23948,"lon":5.36664,"is_reserved":false,"is_disabled":false,"rental_uris":{"android":"levelo://app?vid=703401b8-e576-4a54-9b9d-4e5804912d35","ios":"levelo://app?vid=703401b8-e576-4a54-9b9d-4e5804912d35"},"vehicle_type_id":"4","last_reported":1760944315,"current_range_meters":10000,"station_id":"ce4bhi12rcd13ifvqfp0","pricing_plan_id":"cebpf4jnsgd1na2vs0mg"},{"bike_id":"8ba6361e-ac19-4ce4-b495-271436e56ca2","system_id":"levelo_inurba_marseille","lat":43.29303,"lon":5.36953,"is_reserved":false,"is_disabled":false,"rental_uris":{"android":"levelo://app?vid=8ba6361e-ac19-4ce4-b495-271436e56ca2","ios":"levelo://app?vid=8ba6361e-ac19-4ce4-b495-271436e56ca2"},"vehicle_type_id":"4","last_reported":1760944315,"current_range_meters":10000,"station_id":"ce4bgup2rcd13ifvqco0","pricing_plan_id":"cebpf4jnsgd1na2vs0mg"},{"bike_id":"6c065587-f970-4c8d-a529-1ea57f0b7dae","system_id":"levelo_inurba_marseille","lat":43.23186,"lon":5.3557,"is_reserved":false,"is_disabled":false,"rental_uris":{"android":"levelo://app?vid=6c065587-f970-4c8d-a529-1ea57f0b7dae","ios":"levelo://app?vid=6c065587-f970-4c8d-a529-1ea57f0b7dae"},"vehicle_type_id":"4","last_reported":1760944315,"current_range_meters":10000,"station_id":"ce4bhu92rcd13ifvqi70","pricing_plan_id":"cebpf4jnsgd1na2vs0mg"},{"bike_id":"fc5e2dae-775e-4675-8c33-d71a59d6b98f","system_id":"levelo_inurba_marseille","lat":43.23965,"lon":5.36631,"is_reserved":false,"is_disabled":false,"rental_uris":{"android":"levelo://app?vid=fc5e2dae-775e-4675-8c33-d71a59d6b98f","ios":"levelo://app?vid=fc5e2dae-775e-4675-8c33-d71a59d6b98f"},"vehicle_type_id":"4","last_reported":1760944315,"current_range_meters":10000,"station_id":"ce4bhi12rcd13ifvqfp0","pricing_plan_id":"cebpf4jnsgd1na2vs0mg"},{"bike_id":"679c3c1f-72e8-4456-b0d9-4c2ad9c70dd9","system_id":"levelo_inurba_marseille","lat":43.21199,"lon":5.35075,"is_reserved":false,"is_disabled":false,"rental_uris":{"android":"levelo://app?vid=679c3c1f-72e8-4456-b0d9-4c2ad9c70dd9","ios":"levelo://app?vid=679c3c1f-72e8-4456-b0d9-4c2ad9c70dd9"},"vehicle_type_id":"4","last_reported":1760944315,"current_range_meters":10000,"station_id":"st_cvj6sg6p6f1abm77japg","pricing_plan_id":"cebpf4jnsgd1na2vs0mg"},{"bike_id":"68689ff6-7403-47e9-ad1e-e547c37ccbc0","system_id":"levelo_inurba_marseille","lat":43.2582,"lon":5.39438,"is_reserved":false,"is_disabled":false,"rental_uris":{"android":"levelo://app?vid=68689ff6-7403-47e9-ad1e-e547c37ccbc0","ios":"levelo://app?vid=68689ff6-7403-47e9-ad1e-e547c37ccbc0"},"vehicle_type_id":"4","last_reported":1760944315,"current_range_meters":10000,"station_id":"ce4bhip2rcd13ifvqft0","pricing_plan_id":"cebpf4jnsgd1na2vs0mg"},{"bike_id":"0a950a0d-01ce-40b2-be0e-ad7894fd72f2","system_id":"levelo_inurba_marseille","lat":43.32088,"lon":5.36775,"is_reserved":false,"is_disabled":true,"rental_uris":{"android":"levelo://app?vid=0a950a0d-01ce-40b2-be0e-ad7894fd72f2","ios":"levelo://app?vid=0a950a0d-01ce-40b2-be0e-ad7894fd72f2"},"vehicle_type_id":"4","last_reported":1760944315,"current_range_meters":10000,"station_id":"ce4bhrh2rcd13ifvqhug","pricing_plan_id":"cebpf4jnsgd1na2vs0mg"},{"bike_id":"92c54b8f-9edf-4aa5-bf50-59422a694e51","system_id":"levelo_inurba_marseille","lat":43.31357,"lon":5.36693,"is_reserved":false,"is_disabled":false,"rental_uris":{"android":"levelo://app?vid=92c54b8f-9edf-4aa5-bf50-59422a694e51","ios":"levelo://app?vid=92c54b8f-9edf-4aa5-bf50-59422a694e51"},"vehicle_type_id":"4","last_reported":1760944315,"current_range_meters":10000,"station_id":"ce4bgr92rcd13ifvqc6g","pricing_plan_id":"cebpf4jnsgd1na2vs0mg"},{"bike_id":"2c59cc86-a348-4735-8f6f-75bf0e4aac2c","system_id":"levelo_inurba_marseille","lat":43.333377,"lon":5.398637,"is_reserved":false,"is_disabled":false,"rental_uris":{"android":"levelo://app?vid=2c59cc86-a348-4735-8f6f-75bf0e4aac2c","ios":"levelo://app?vid=2c59cc86-a348-4735-8f6f-75bf0e4aac2c"},"vehicle_type_id":"4","last_reported":1760944315,"current_range_meters":10000,"station_id":"","pricing_plan_id":"cebpf4jnsgd1na2vs0mg"},{"bike_id":"0f787efd-37ca-4060-a03d-15d3c3ce389f","system_id":"levelo_inurba_marseille","lat":43.29998,"lon":5.37373,"is_reserved":false,"is_disabled":false,"rental_uris":{"android":"levelo://app?vid=0f787efd-37ca-4060-a03d-15d3c3ce389f","ios":"levelo://app?vid=0f787efd-37ca-4060-a03d-15d3c3ce389f"},"vehicle_type_id":"4","last_reported":1760944315,"current_range_meters":10000,"station_id":"","pricing_plan_id":"cebpf4jnsgd1na2vs0mg"},{"bike_id":"7a8ac50b-c3a4-490a-8f96-9c005f89ed5d","system_id":"levelo_inurba_marseille","lat":43.26521,"lon":5.39049,"is_reserved":false,"is_disabled":false,"rental_uris":{"android":"levelo://app?vid=7a8ac50b-c3a4-490a-8f96-9c005f89ed5d","ios":"levelo://app?vid=7a8ac50b-c3a4-490a-8f96-9c005f89ed5d"},"vehicle_type_id":"4","last_reported":1760944315,"current_range_meters":10800,"station_id":"","pricing_plan_id":"cebpf4jnsgd1na2vs0mg"},{"bike_id":"6f5458d3-9f2a-47d5-b18c-590daf6a6f7f","system_id":"levelo_inurba_marseille","lat":43.29181,"lon":5.35803,"is_reserved":false,"is_disabled":true,"rental_uris":{"android":"levelo://app?vid=6f5458d3-9f2a-47d5-b18c-590daf6a6f7f","ios":"levelo://app?vid=6f5458d3-9f2a-47d5-b18c-590daf6a6f7f"},"vehicle_type_id":"4","last_reported":1760944315,"current_range_meters":10800,"station_id":"ce4bhb12rcd13ifvqel0","pricing_plan_id":"cebpf4jnsgd1na2vs0mg"},{"bike_id":"7fd36eea-805d-4dce-89b5-46f277eaf158","system_id":"levelo_inurba_marseille","lat":43.305097,"lon":5.366695,"is_reserved":false,"is_disabled":false,"rental_uris":{"android":"levelo://app?vid=7fd36eea-805d-4dce-89b5-46f277eaf158","ios":"levelo://app?vid=7fd36eea-805d-4dce-89b5-46f277eaf158"},"vehicle_type_id":"4","last_reported":1760944315,"current_range_meters":10800,"station_id":"","pricing_plan_id":"cebpf4jnsgd1na2vs0mg"},{"bike_id":"9652283e-21f4-4490-ac9e-ffa9429f0005","system_id":"levelo_inurba_marseille","lat":43.29044,"lon":5.4051,"is_reserved":false,"is_disabled":false,"rental_uris":{"android":"levelo://app?vid=9652283e-21f4-4490-ac9e-ffa9429f0005","ios":"levelo://app?vid=9652283e-21f4-4490-ac9e-ffa9429f0005"},"vehicle_type_id":"4","last_reported":1760944315,"current_range_meters":10800,"station_id":"","pricing_plan_id":"cebpf4jnsgd1na2vs0mg"},{"bike_id":"551b071f-6296-4762-bf09-1f1114253086","system_id":"levelo_inurba_marseille","lat":43.29991,"lon":5.37182,"is_reserved":false,"is_disabled":false,"rental_uris":{"android":"levelo://app?vid=551b071f-6296-4762-bf09-1f1114253086","ios":"levelo://app?vid=551b071f-6296-4762-bf09-1f1114253086"},"vehicle_type_id":"4","last_reported":1760944315,"current_range_meters":10800,"station_id":"ce4bgr92rcd13ifvqc7g","pricing_plan_id":"cebpf4jnsgd1na2vs0mg"},{"bike_id":"b6c96865-3542-4e09-a1b0-283e97502d96","system_id":"levelo_inurba_marseille","lat":43.293039,"lon":5.374623,"is_reserved":false,"is_disabled":false,"rental_uris":{"android":"levelo://app?vid=b6c96865-3542-4e09-a1b0-283e97502d96","ios":"levelo://app?vid=b6c96865-3542-4e09-a1b0-283e97502d96"},"vehicle_type_id":"4","last_reported":1760944315,"current_range_meters":10800,"station_id":"ce4bgh92rcd13ifvqb50","pricing_plan_id":"cebpf4jnsgd1na2vs0mg"},{"bike_id":"3f276aa3-8dac-4193-90e8-334f79b3c89b","system_id":"levelo_inurba_marseille","lat":43.26566,"lon":5.40321,"is_reserved":false,"is_disabled":false,"rental_uris":{"android":"levelo://app?vid=3f276aa3-8dac-4193-90e8-334f79b3c89b","ios":"levelo://app?vid=3f276aa3-8dac-4193-90e8-334f79b3c89b"},"vehicle_type_id":"4","last_reported":1760944315,"current_range_meters":11200,"station_id":"ce4bhmp2rcd13ifvqgng","pricing_plan_id":"cebpf4jnsgd1na2vs0mg"},{"bike_id":"e015a312-f4e2-4fa5-962c-4dc7593461dd","system_id":"levelo_inurba_marseille","lat":43.27377,"lon":5.36251,"is_reserved":false,"is_disabled":false,"rental_uris":{"android":"levelo://app?vid=e015a312-f4e2-4fa5-962c-4dc7593461dd","ios":"levelo://app?vid=e015a312-f4e2-4fa5-962c-4dc7593461dd"},"vehicle_type_id":"4","last_reported":1760944315,"current_range_meters":11200,"station_id":"","pricing_plan_id":"cebpf4jnsgd1na2vs0mg"},{"bike_id":"4bbd6801-e86f-4670-a08c-5a08e1dabb92","system_id":"levelo_inurba_marseille","lat":43.29212,"lon":5.38085,"is_reserved":false,"is_disabled":false,"rental_uris":{"android":"levelo://app?vid=4bbd6801-e86f-4670-a08c-5a08e1dabb92","ios":"levelo://app?vid=4bbd6801-e86f-4670-a08c-5a08e1dabb92"},"vehicle_type_id":"4","last_reported":1760944315,"current_range_meters":11200,"station_id":"","pricing_plan_id":"cebpf4jnsgd1na2vs0mg"},{"bike_id":"a7f997d3-a4f9-4f30-bdce-2ddde27a7b05","system_id":"levelo_inurba_marseille","lat":43.28228,"lon":5.377,"is_reserved":false,"is_disabled":false,"rental_uris":{"android":"levelo://app?vid=a7f997d3-a4f9-4f30-bdce-2ddde27a7b05","ios":"levelo://app?vid=a7f997d3-a4f9-4f30-bdce-2ddde27a7b05"},"vehicle_type_id":"4","last_reported":1760944315,"current_range_meters":11200,"station_id":"","pricing_plan_id":"cebpf4jnsgd1na2vs0mg"},{"bike_id":"fbe586dc-ebc7-45f2-b699-4812fb9ca15d","system_id":"levelo_inurba_marseille","lat":43.254926,"lon":5.37649,"is_reserved":false,"is_disabled":false,"rental_uris":{"android":"levelo://app?vid=fbe586dc-ebc7-45f2-b699-4812fb9ca15d","ios":"levelo://app?vid=fbe586dc-ebc7-45f2-b699-4812fb9ca15d"},"vehicle_type_id":"4","last_reported":1760944315,"current_range_meters":11200,"station_id":"ce4bhh12rcd13ifvqff0","pricing_plan_id":"cebpf4jnsgd1na2vs0mg"},{"bike_id":"486fdc60-6474-4ddf-ab7c-3d68e10cdc63","system_id":"levelo_inurba_marseille","lat":43.28759,"lon":5.38416,"is_reserved":false,"is_disabled":false,"rental_uris":{"android":"levelo://app?vid=486fdc60-6474-4ddf-ab7c-3d68e10cdc63","ios":"levelo://app?vid=486fdc60-6474-4ddf-ab7c-3d68e10cdc63"},"vehicle_type_id":"4","last_reported":1760944315,"current_range_meters":11200,"station_id":"","pricing_plan_id":"cebpf4jnsgd1na2vs0mg"},{"bike_id":"f12a77bb-96ec-4de9-9130-a47791bab336","system_id":"levelo_inurba_marseille","lat":43.265626,"lon":5.37296,"is_reserved":false,"is_disabled":false,"rental_uris":{"android":"levelo://app?vid=f12a77bb-96ec-4de9-9130-a47791bab336","ios":"levelo://app?vid=f12a77bb-96ec-4de9-9130-a47791bab336"},"vehicle_type_id":"4","last_reported":1760944315,"current_range_meters":11200,"station_id":"ce4bhg12rcd13ifvqf70","pricing_plan_id":"cebpf4jnsgd1na2vs0mg"},{"bike_id":"d1668fd5-d05d-42a9-b5d1-4388db8ac6a3","system_id":"levelo_inurba_marseille","lat":43.31764,"lon":5.39029,"is_reserved":false,"is_disabled":false,"rental_uris":{"android":"levelo://app?vid=d1668fd5-d05d-42a9-b5d1-4388db8ac6a3","ios":"levelo://app?vid=d1668fd5-d05d-42a9-b5d1-4388db8ac6a3"},"vehicle_type_id":"4","last_reported":1760944315,"current_range_meters":11200,"station_id":"ce4bhqp2rcd13ifvqhng","pricing_plan_id":"cebpf4jnsgd1na2vs0mg"},{"bike_id":"ba68b9b6-16ef-4feb-b80f-7bb33dd2e178","system_id":"levelo_inurba_marseille","lat":43.240255,"lon":5.367095,"is_reserved":false,"is_disabled":false,"rental_uris":{"android":"levelo://app?vid=ba68b9b6-16ef-4feb-b80f-7bb33dd2e178","ios":"levelo://app?vid=ba68b9b6-16ef-4feb-b80f-7bb33dd2e178"},"vehicle_type_id":"4","last_reported":1760944315,"current_range_meters":11600,"station_id":"ce4bhi12rcd13ifvqfp0","pricing_plan_id":"cebpf4jnsgd1na2vs0mg"},{"bike_id":"12d0aced-6e51-4455-a84a-7df0fff23a6f","system_id":"levelo_inurba_marseille","lat":43.25722,"lon":5.41114,"is_reserved":false,"is_disabled":false,"rental_uris":{"android":"levelo://app?vid=12d0aced-6e51-4455-a84a-7df0fff23a6f","ios":"levelo://app?vid=12d0aced-6e51-4455-a84a-7df0fff23a6f"},"vehicle_type_id":"4","last_reported":1760944315,"current_range_meters":12000,"station_id":"ce4bhkp2rcd13ifvqgd0","pricing_plan_id":"cebpf4jnsgd1na2vs0mg"},{"bike_id":"e66fe696-1fc0-49e9-a884-8cb640dc737a","system_id":"levelo_inurba_marseille","lat":43.30122,"lon":5.39894,"is_reserved":false,"is_disabled":true,"rental_uris":{"android":"levelo://app?vid=e66fe696-1fc0-49e9-a884-8cb640dc737a","ios":"levelo://app?vid=e66fe696-1fc0-49e9-a884-8cb640dc737a"},"vehicle_type_id":"4","last_reported":1760944315,"current_range_meters":12000,"station_id":"ce4bh0h2rcd13ifvqd40","pricing_plan_id":"cebpf4jnsgd1na2vs0mg"},{"bike_id":"2f414f8c-fe0d-4f1c-8c00-f5d04292df62","system_id":"levelo_inurba_marseille","lat":43.323627,"lon":5.367657,"is_reserved":false,"is_disabled":false,"rental_uris":{"android":"levelo://app?vid=2f414f8c-fe0d-4f1c-8c00-f5d04292df62","ios":"levelo://app?vid=2f414f8c-fe0d-4f1c-8c00-f5d04292df62"},"vehicle_type_id":"4","last_reported":1760944315,"current_range_meters":12000,"station_id":"ce4bhsh2rcd13ifvqi2g","pricing_plan_id":"cebpf4jnsgd1na2vs0mg"},{"bike_id":"6d9392ed-1417-4737-be7f-20b2cefaa83e","system_id":"levelo_inurba_marseille","lat":43.28605,"lon":5.37067,"is_reserved":false,"is_disabled":true,"rental_uris":{"android":"levelo://app?vid=6d9392ed-1417-4737-be7f-20b2cefaa83e","ios":"levelo://app?vid=6d9392ed-1417-4737-be7f-20b2cefaa83e"},"vehicle_type_id":"4","last_reported":1760944315,"current_range_meters":12000,"station_id":"ce4bht12rcd13ifvqi60","pricing_plan_id":"cebpf4jnsgd1na2vs0mg"},{"bike_id":"77382901-e851-4b0d-9bc3-5e8c4c8d96e1","system_id":"levelo_inurba_marseille","lat":43.297,"lon":5.37702,"is_reserved":false,"is_disabled":false,"rental_uris":{"android":"levelo://app?vid=77382901-e851-4b0d-9bc3-5e8c4c8d96e1","ios":"levelo://app?vid=77382901-e851-4b0d-9bc3-5e8c4c8d96e1"},"vehicle_type_id":"4","last_reported":1760944315,"current_range_meters":12000,"station_id":"ce4bgkh2rcd13ifvqbl0","pricing_plan_id":"cebpf4jnsgd1na2vs0mg"},{"bike_id":"da22a6bb-ece8-4168-87fa-39fdca8adc0a","system_id":"levelo_inurba_marseille","lat":43.248064,"lon":5.374574,"is_reserved":false,"is_disabled":false,"rental_uris":{"android":"levelo://app?vid=da22a6bb-ece8-4168-87fa-39fdca8adc0a","ios":"levelo://app?vid=da22a6bb-ece8-4168-87fa-39fdca8adc0a"},"vehicle_type_id":"4","last_reported":1760944315,"current_range_meters":12000,"station_id":"ce4bhgh2rcd13ifvqfb0","pricing_plan_id":"cebpf4jnsgd1na2vs0mg"},{"bike_id":"909d1a0f-5535-4e0e-bef7-264d0b64c3ae","system_id":"levelo_inurba_marseille","lat":43.30268,"lon":5.40038,"is_reserved":false,"is_disabled":true,"rental_uris":{"android":"levelo://app?vid=909d1a0f-5535-4e0e-bef7-264d0b64c3ae","ios":"levelo://app?vid=909d1a0f-5535-4e0e-bef7-264d0b64c3ae"},"vehicle_type_id":"4","last_reported":1760944315,"current_range_meters":12400,"station_id":"ce4bgvh2rcd13ifvqcs0","pricing_plan_id":"cebpf4jnsgd1na2vs0mg"},{"bike_id":"348ab8cc-81cc-4702-b12d-7027572c1935","system_id":"levelo_inurba_marseille","lat":43.27382,"lon":5.36242,"is_reserved":false,"is_disabled":true,"rental_uris":{"android":"levelo://app?vid=348ab8cc-81cc-4702-b12d-7027572c1935","ios":"levelo://app?vid=348ab8cc-81cc-4702-b12d-7027572c1935"},"vehicle_type_id":"4","last_reported":1760944315,"current_range_meters":12400,"station_id":"ce4bhbh2rcd13ifvqeo0","pricing_plan_id":"cebpf4jnsgd1na2vs0mg"},{"bike_id":"a3a9735e-527a-4168-82de-b61ea7b37757","system_id":"levelo_inurba_marseille","lat":43.30886,"lon":5.36888,"is_reserved":false,"is_disabled":false,"rental_uris":{"android":"levelo://app?vid=a3a9735e-527a-4168-82de-b61ea7b37757","ios":"levelo://app?vid=a3a9735e-527a-4168-82de-b61ea7b37757"},"vehicle_type_id":"4","last_reported":1760944315,"current_range_meters":12400,"station_id":"ce4bgn92rcd13ifvqbvg","pricing_plan_id":"cebpf4jnsgd1na2vs0mg"},{"bike_id":"5a35347d-1dbb-434c-8651-0148cd77cd1e","system_id":"levelo_inurba_marseille","lat":43.316718,"lon":5.389522,"is_reserved":false,"is_disabled":false,"rental_uris":{"android":"levelo://app?vid=5a35347d-1dbb-434c-8651-0148cd77cd1e","ios":"levelo://app?vid=5a35347d-1dbb-434c-8651-0148cd77cd1e"},"vehicle_type_id":"4","last_reported":1760944315,"current_range_meters":12400,"station_id":"","pricing_plan_id":"cebpf4jnsgd1na2vs0mg"},{"bike_id":"e8e09534-3618-4668-bb6d-68f2b9c6c910","system_id":"levelo_inurba_marseille","lat":43.2679,"lon":5.39404,"is_reserved":false,"is_disabled":false,"rental_uris":{"android":"levelo://app?vid=e8e09534-3618-4668-bb6d-68f2b9c6c910","ios":"levelo://app?vid=e8e09534-3618-4668-bb6d-68f2b9c6c910"},"vehicle_type_id":"4","last_reported":1760944315,"current_range_meters":12800,"station_id":"ce4bhh12rcd13ifvqfg0","pricing_plan_id":"cebpf4jnsgd1na2vs0mg"},{"bike_id":"fbf45233-5b2e-47b2-8f6d-b078fe72be0d","system_id":"levelo_inurba_marseille","lat":43.298121,"lon":5.440671,"is_reserved":false,"is_disabled":false,"rental_uris":{"android":"levelo://app?vid=fbf45233-5b2e-47b2-8f6d-b078fe72be0d","ios":"levelo://app?vid=fbf45233-5b2e-47b2-8f6d-b078fe72be0d"},"vehicle_type_id":"4","last_reported":1760944315,"current_range_meters":12800,"station_id":"","pricing_plan_id":"cebpf4jnsgd1na2vs0mg"},{"bike_id":"b64f5a90-0c5f-4ae5-b1e4-8d412cb049d3","system_id":"levelo_inurba_marseille","lat":43.27355,"lon":5.41555,"is_reserved":false,"is_disabled":false,"rental_uris":{"android":"levelo://app?vid=b64f5a90-0c5f-4ae5-b1e4-8d412cb049d3","ios":"levelo://app?vid=b64f5a90-0c5f-4ae5-b1e4-8d412cb049d3"},"vehicle_type_id":"4","last_reported":1760944315,"current_range_meters":12800,"station_id":"","pricing_plan_id":"cebpf4jnsgd1na2vs0mg"},{"bike_id":"8f5b4e3f-d0c8-438b-955e-3fd6c08bc9d3","system_id":"levelo_inurba_marseille","lat":43.24176,"lon":5.36381,"is_reserved":false,"is_disabled":false,"rental_uris":{"android":"levelo://app?vid=8f5b4e3f-d0c8-438b-955e-3fd6c08bc9d3","ios":"levelo://app?vid=8f5b4e3f-d0c8-438b-955e-3fd6c08bc9d3"},"vehicle_type_id":"4","last_reported":1760944315,"current_range_meters":12800,"station_id":"cpo36qri1sfpv3e86is0","pricing_plan_id":"cebpf4jnsgd1na2vs0mg"},{"bike_id":"4ca1a358-8c1c-4f7e-9010-0b012c65e17b","system_id":"levelo_inurba_marseille","lat":43.28765,"lon":5.38508,"is_reserved":false,"is_disabled":false,"rental_uris":{"android":"levelo://app?vid=4ca1a358-8c1c-4f7e-9010-0b012c65e17b","ios":"levelo://app?vid=4ca1a358-8c1c-4f7e-9010-0b012c65e17b"},"vehicle_type_id":"4","last_reported":1760944315,"current_range_meters":12800,"station_id":"","pricing_plan_id":"cebpf4jnsgd1na2vs0mg"},{"bike_id":"793bd619-12af-4bc1-a674-b70d86b415bd","system_id":"levelo_inurba_marseille","lat":43.33127,"lon":5.39141,"is_reserved":false,"is_disabled":false,"rental_uris":{"android":"levelo://app?vid=793bd619-12af-4bc1-a674-b70d86b415bd","ios":"levelo://app?vid=793bd619-12af-4bc1-a674-b70d86b415bd"},"vehicle_type_id":"4","last_reported":1760944315,"current_range_meters":12800,"station_id":"","pricing_plan_id":"cebpf4jnsgd1na2vs0mg"},{"bike_id":"ad9ff92d-a73f-4591-b6d4-bb3f850fa8bd","system_id":"levelo_inurba_marseille","lat":43.30926,"lon":5.40068,"is_reserved":false,"is_disabled":false,"rental_uris":{"android":"levelo://app?vid=ad9ff92d-a73f-4591-b6d4-bb3f850fa8bd","ios":"levelo://app?vid=ad9ff92d-a73f-4591-b6d4-bb3f850fa8bd"},"vehicle_type_id":"4","last_reported":1760944315,"current_range_meters":12800,"station_id":"","pricing_plan_id":"cebpf4jnsgd1na2vs0mg"},{"bike_id":"cb60bd9b-dbee-44a6-a143-7825e40beac2","system_id":"levelo_inurba_marseille","lat":43.26196,"lon":5.3745,"is_reserved":false,"is_disabled":false,"rental_uris":{"android":"levelo://app?vid=cb60bd9b-dbee-44a6-a143-7825e40beac2","ios":"levelo://app?vid=cb60bd9b-dbee-44a6-a143-7825e40beac2"},"vehicle_type_id":"4","last_reported":1760944315,"current_range_meters":13600,"station_id":"ce4bhgp2rcd13ifvqfc0","pricing_plan_id":"cebpf4jnsgd1na2vs0mg"},{"bike_id":"3bf4985a-327d-4d5f-87da-3f85b071c1ec","system_id":"levelo_inurba_marseille","lat":43.2508,"lon":5.39506,"is_reserved":false,"is_disabled":false,"rental_uris":{"android":"levelo://app?vid=3bf4985a-327d-4d5f-87da-3f85b071c1ec","ios":"levelo://app?vid=3bf4985a-327d-4d5f-87da-3f85b071c1ec"},"vehicle_type_id":"4","last_reported":1760944315,"current_range_meters":13600,"station_id":"ce4bhm12rcd13ifvqgkg","pricing_plan_id":"cebpf4jnsgd1na2vs0mg"},{"bike_id":"59aed43f-13a8-4014-b2c4-38bf40a4080c","system_id":"levelo_inurba_marseille","lat":43.2682,"lon":5.40248,"is_reserved":false,"is_disabled":true,"rental_uris":{"android":"levelo://app?vid=59aed43f-13a8-4014-b2c4-38bf40a4080c","ios":"levelo://app?vid=59aed43f-13a8-4014-b2c4-38bf40a4080c"},"vehicle_type_id":"4","last_reported":1760944315,"current_range_meters":13600,"station_id":"ce501612rcd8frsf0b60","pricing_plan_id":"cebpf4jnsgd1na2vs0mg"},{"bike_id":"c530e950-50a8-4b2f-81e6-a5f7e6f752e8","system_id":"levelo_inurba_marseille","lat":43.33759,"lon":5.37473,"is_reserved":false,"is_disabled":false,"rental_uris":{"android":"levelo://app?vid=c530e950-50a8-4b2f-81e6-a5f7e6f752e8","ios":"levelo://app?vid=c530e950-50a8-4b2f-81e6-a5f7e6f752e8"},"vehicle_type_id":"4","last_reported":1760944315,"current_range_meters":13600,"station_id":"","pricing_plan_id":"cebpf4jnsgd1na2vs0mg"},{"bike_id":"b84f5d5c-4af3-41b9-bd23-a606402416d4","system_id":"levelo_inurba_marseille","lat":43.32041,"lon":5.41543,"is_reserved":false,"is_disabled":false,"rental_uris":{"android":"levelo://app?vid=b84f5d5c-4af3-41b9-bd23-a606402416d4","ios":"levelo://app?vid=b84f5d5c-4af3-41b9-bd23-a606402416d4"},"vehicle_type_id":"4","last_reported":1760944315,"current_range_meters":13600,"station_id":"","pricing_plan_id":"cebpf4jnsgd1na2vs0mg"},{"bike_id":"d80a8315-5108-453f-a407-278f47d1bb18","system_id":"levelo_inurba_marseille","lat":43.23188,"lon":5.35563,"is_reserved":false,"is_disabled":false,"rental_uris":{"android":"levelo://app?vid=d80a8315-5108-453f-a407-278f47d1bb18","ios":"levelo://app?vid=d80a8315-5108-453f-a407-278f47d1bb18"},"vehicle_type_id":"4","last_reported":1760944315,"current_range_meters":14000,"station_id":"ce4bhu92rcd13ifvqi70","pricing_plan_id":"cebpf4jnsgd1na2vs0mg"},{"bike_id":"78fe83c7-5376-41e5-afa1-483e220954a6","system_id":"levelo_inurba_marseille","lat":43.291705,"lon":5.370658,"is_reserved":false,"is_disabled":false,"rental_uris":{"android":"levelo://app?vid=78fe83c7-5376-41e5-afa1-483e220954a6","ios":"levelo://app?vid=78fe83c7-5376-41e5-afa1-483e220954a6"},"vehicle_type_id":"4","last_reported":1760944315,"current_range_meters":14000,"station_id":"","pricing_plan_id":"cebpf4jnsgd1na2vs0mg"},{"bike_id":"bb211116-29a7-4e48-93ed-d4ab1a1c4665","system_id":"levelo_inurba_marseille","lat":43.25929,"lon":5.40877,"is_reserved":false,"is_disabled":false,"rental_uris":{"android":"levelo://app?vid=bb211116-29a7-4e48-93ed-d4ab1a1c4665","ios":"levelo://app?vid=bb211116-29a7-4e48-93ed-d4ab1a1c4665"},"vehicle_type_id":"4","last_reported":1760944315,"current_range_meters":14000,"station_id":"ce4bhm92rcd13ifvqglg","pricing_plan_id":"cebpf4jnsgd1na2vs0mg"},{"bike_id":"62b6f7f9-fe05-4ff8-873b-d89e0663efc9","system_id":"levelo_inurba_marseille","lat":43.2512,"lon":5.4031,"is_reserved":false,"is_disabled":false,"rental_uris":{"android":"levelo://app?vid=62b6f7f9-fe05-4ff8-873b-d89e0663efc9","ios":"levelo://app?vid=62b6f7f9-fe05-4ff8-873b-d89e0663efc9"},"vehicle_type_id":"4","last_reported":1760944315,"current_range_meters":14000,"station_id":"ce4bhlh2rcd13ifvqgig","pricing_plan_id":"cebpf4jnsgd1na2vs0mg"},{"bike_id":"15420d38-a7a6-4ef1-a6fb-d9427abf4333","system_id":"levelo_inurba_marseille","lat":43.30482,"lon":5.40078,"is_reserved":false,"is_disabled":false,"rental_uris":{"android":"levelo://app?vid=15420d38-a7a6-4ef1-a6fb-d9427abf4333","ios":"levelo://app?vid=15420d38-a7a6-4ef1-a6fb-d9427abf4333"},"vehicle_type_id":"4","last_reported":1760944315,"current_range_meters":14000,"station_id":"","pricing_plan_id":"cebpf4jnsgd1na2vs0mg"},{"bike_id":"3f09d2b9-5540-46f4-940a-bf28e7d80fa2","system_id":"levelo_inurba_marseille","lat":43.258619,"lon":5.399033,"is_reserved":false,"is_disabled":false,"rental_uris":{"android":"levelo://app?vid=3f09d2b9-5540-46f4-940a-bf28e7d80fa2","ios":"levelo://app?vid=3f09d2b9-5540-46f4-940a-bf28e7d80fa2"},"vehicle_type_id":"4","last_reported":1760944315,"current_range_meters":14000,"station_id":"ce4bhl92rcd13ifvqghg","pricing_plan_id":"cebpf4jnsgd1na2vs0mg"},{"bike_id":"5767cc7b-e609-46b6-a9f9-bb84446076db","system_id":"levelo_inurba_marseille","lat":43.28427,"lon":5.34994,"is_reserved":false,"is_disabled":true,"rental_uris":{"android":"levelo://app?vid=5767cc7b-e609-46b6-a9f9-bb84446076db","ios":"levelo://app?vid=5767cc7b-e609-46b6-a9f9-bb84446076db"},"vehicle_type_id":"4","last_reported":1760944315,"current_range_meters":14400,"station_id":"ce4bhbh2rcd13ifvqepg","pricing_plan_id":"cebpf4jnsgd1na2vs0mg"},{"bike_id":"62f27eb7-c7be-49c3-a52e-6b1bedc8587c","system_id":"levelo_inurba_marseille","lat":43.2926,"lon":5.38422,"is_reserved":false,"is_disabled":false,"rental_uris":{"android":"levelo://app?vid=62f27eb7-c7be-49c3-a52e-6b1bedc8587c","ios":"levelo://app?vid=62f27eb7-c7be-49c3-a52e-6b1bedc8587c"},"vehicle_type_id":"4","last_reported":1760944315,"current_range_meters":14400,"station_id":"ce4bh692rcd13ifvqea0","pricing_plan_id":"cebpf4jnsgd1na2vs0mg"},{"bike_id":"d6318f9e-0184-4ff6-931a-ee0c5a28c2b7","system_id":"levelo_inurba_marseille","lat":43.23188,"lon":5.35572,"is_reserved":false,"is_disabled":false,"rental_uris":{"android":"levelo://app?vid=d6318f9e-0184-4ff6-931a-ee0c5a28c2b7","ios":"levelo://app?vid=d6318f9e-0184-4ff6-931a-ee0c5a28c2b7"},"vehicle_type_id":"4","last_reported":1760944315,"current_range_meters":14400,"station_id":"ce4bhu92rcd13ifvqi70","pricing_plan_id":"cebpf4jnsgd1na2vs0mg"},{"bike_id":"a630b5fa-a9f9-4b37-869f-57c22391c1a3","system_id":"levelo_inurba_marseille","lat":43.31225,"lon":5.368785,"is_reserved":false,"is_disabled":false,"rental_uris":{"android":"levelo://app?vid=a630b5fa-a9f9-4b37-869f-57c22391c1a3","ios":"levelo://app?vid=a630b5fa-a9f9-4b37-869f-57c22391c1a3"},"vehicle_type_id":"4","last_reported":1760944315,"current_range_meters":14400,"station_id":"ce4bgl92rcd13ifvqbq0","pricing_plan_id":"cebpf4jnsgd1na2vs0mg"},{"bike_id":"c38d4779-18e1-43c4-a71d-5d81c3a33a62","system_id":"levelo_inurba_marseille","lat":43.2978,"lon":5.38097,"is_reserved":false,"is_disabled":true,"rental_uris":{"android":"levelo://app?vid=c38d4779-18e1-43c4-a71d-5d81c3a33a62","ios":"levelo://app?vid=c38d4779-18e1-43c4-a71d-5d81c3a33a62"},"vehicle_type_id":"4","last_reported":1760944315,"current_range_meters":14400,"station_id":"ce4bgip2rcd13ifvqbb0","pricing_plan_id":"cebpf4jnsgd1na2vs0mg"},{"bike_id":"347dd00f-3c48-4034-bb65-215ddc867f06","system_id":"levelo_inurba_marseille","lat":43.24175,"lon":5.3973,"is_reserved":false,"is_disabled":false,"rental_uris":{"android":"levelo://app?vid=347dd00f-3c48-4034-bb65-215ddc867f06","ios":"levelo://app?vid=347dd00f-3c48-4034-bb65-215ddc867f06"},"vehicle_type_id":"4","last_reported":1760944315,"current_range_meters":14400,"station_id":"ce4bhn12rcd13ifvqgpg","pricing_plan_id":"cebpf4jnsgd1na2vs0mg"},{"bike_id":"c54e22ba-4365-4f28-b6b8-20672d2f75b5","system_id":"levelo_inurba_marseille","lat":43.30528,"lon":5.38429,"is_reserved":false,"is_disabled":false,"rental_uris":{"android":"levelo://app?vid=c54e22ba-4365-4f28-b6b8-20672d2f75b5","ios":"levelo://app?vid=c54e22ba-4365-4f28-b6b8-20672d2f75b5"},"vehicle_type_id":"4","last_reported":1760944315,"current_range_meters":14400,"station_id":"ce4bgg92rcd13ifvqb30","pricing_plan_id":"cebpf4jnsgd1na2vs0mg"},{"bike_id":"6e749a81-5b32-4f83-be54-446f2d8a3e2e","system_id":"levelo_inurba_marseille","lat":43.28408,"lon":5.34994,"is_reserved":false,"is_disabled":true,"rental_uris":{"android":"levelo://app?vid=6e749a81-5b32-4f83-be54-446f2d8a3e2e","ios":"levelo://app?vid=6e749a81-5b32-4f83-be54-446f2d8a3e2e"},"vehicle_type_id":"4","last_reported":1760944315,"current_range_meters":14800,"station_id":"ce4bhbh2rcd13ifvqepg","pricing_plan_id":"cebpf4jnsgd1na2vs0mg"},{"bike_id":"63e75f80-9d1c-4fca-996f-d8a0437f48a7","system_id":"levelo_inurba_marseille","lat":43.33594,"lon":5.4103,"is_reserved":false,"is_disabled":false,"rental_uris":{"android":"levelo://app?vid=63e75f80-9d1c-4fca-996f-d8a0437f48a7","ios":"levelo://app?vid=63e75f80-9d1c-4fca-996f-d8a0437f48a7"},"vehicle_type_id":"4","last_reported":1760944315,"current_range_meters":14800,"station_id":"ce4bhqh2rcd13ifvqhmg","pricing_plan_id":"cebpf4jnsgd1na2vs0mg"},{"bike_id":"6e8ed827-a6f7-46f1-ad28-2f0468b71691","system_id":"levelo_inurba_marseille","lat":43.32084,"lon":5.36776,"is_reserved":false,"is_disabled":true,"rental_uris":{"android":"levelo://app?vid=6e8ed827-a6f7-46f1-ad28-2f0468b71691","ios":"levelo://app?vid=6e8ed827-a6f7-46f1-ad28-2f0468b71691"},"vehicle_type_id":"4","last_reported":1760944315,"current_range_meters":14800,"station_id":"ce4bhrh2rcd13ifvqhug","pricing_plan_id":"cebpf4jnsgd1na2vs0mg"},{"bike_id":"916b3232-656e-41e6-9f98-358290933fa7","system_id":"levelo_inurba_marseille","lat":43.25934,"lon":5.40904,"is_reserved":false,"is_disabled":false,"rental_uris":{"android":"levelo://app?vid=916b3232-656e-41e6-9f98-358290933fa7","ios":"levelo://app?vid=916b3232-656e-41e6-9f98-358290933fa7"},"vehicle_type_id":"4","last_reported":1760944315,"current_range_meters":14800,"station_id":"ce4bhm92rcd13ifvqglg","pricing_plan_id":"cebpf4jnsgd1na2vs0mg"},{"bike_id":"a470e1e9-0594-4b5c-9b26-2114268fb06d","system_id":"levelo_inurba_marseille","lat":43.29864,"lon":5.36291,"is_reserved":false,"is_disabled":true,"rental_uris":{"android":"levelo://app?vid=a470e1e9-0594-4b5c-9b26-2114268fb06d","ios":"levelo://app?vid=a470e1e9-0594-4b5c-9b26-2114268fb06d"},"vehicle_type_id":"4","last_reported":1760944315,"current_range_meters":14800,"station_id":"ce4bgpp2rcd13ifvqc3g","pricing_plan_id":"cebpf4jnsgd1na2vs0mg"},{"bike_id":"a6e1884f-76ca-449a-9150-7e1f37794b6c","system_id":"levelo_inurba_marseille","lat":43.28932,"lon":5.36395,"is_reserved":false,"is_disabled":true,"rental_uris":{"android":"levelo://app?vid=a6e1884f-76ca-449a-9150-7e1f37794b6c","ios":"levelo://app?vid=a6e1884f-76ca-449a-9150-7e1f37794b6c"},"vehicle_type_id":"4","last_reported":1760944315,"current_range_meters":14800,"station_id":"ce4bhc92rcd13ifvqetg","pricing_plan_id":"cebpf4jnsgd1na2vs0mg"},{"bike_id":"faa3e668-6719-4125-8206-72a0a37494c0","system_id":"levelo_inurba_marseille","lat":43.2694,"lon":5.40232,"is_reserved":false,"is_disabled":true,"rental_uris":{"android":"levelo://app?vid=faa3e668-6719-4125-8206-72a0a37494c0","ios":"levelo://app?vid=faa3e668-6719-4125-8206-72a0a37494c0"},"vehicle_type_id":"4","last_reported":1760944315,"current_range_meters":14800,"station_id":"cjm6bp8fraef2m0cb0m0","pricing_plan_id":"cebpf4jnsgd1na2vs0mg"},{"bike_id":"9b12efb8-4745-48c9-b6b8-0c8b6b7dbcf5","system_id":"levelo_inurba_marseille","lat":43.30283,"lon":5.37715,"is_reserved":false,"is_disabled":false,"rental_uris":{"android":"levelo://app?vid=9b12efb8-4745-48c9-b6b8-0c8b6b7dbcf5","ios":"levelo://app?vid=9b12efb8-4745-48c9-b6b8-0c8b6b7dbcf5"},"vehicle_type_id":"4","last_reported":1760944315,"current_range_meters":14800,"station_id":"ce4bguh2rcd13ifvqcj0","pricing_plan_id":"cebpf4jnsgd1na2vs0mg"},{"bike_id":"7fc4ab6e-6f36-4957-9240-e2a8a4da3c20","system_id":"levelo_inurba_marseille","lat":43.25936,"lon":5.40905,"is_reserved":false,"is_disabled":false,"rental_uris":{"android":"levelo://app?vid=7fc4ab6e-6f36-4957-9240-e2a8a4da3c20","ios":"levelo://app?vid=7fc4ab6e-6f36-4957-9240-e2a8a4da3c20"},"vehicle_type_id":"4","last_reported":1760944315,"current_range_meters":15200,"station_id":"ce4bhm92rcd13ifvqglg","pricing_plan_id":"cebpf4jnsgd1na2vs0mg"},{"bike_id":"428778d6-b772-4b25-9d94-8639e8e3d886","system_id":"levelo_inurba_marseille","lat":43.27309,"lon":5.39101,"is_reserved":false,"is_disabled":false,"rental_uris":{"android":"levelo://app?vid=428778d6-b772-4b25-9d94-8639e8e3d886","ios":"levelo://app?vid=428778d6-b772-4b25-9d94-8639e8e3d886"},"vehicle_type_id":"4","last_reported":1760944315,"current_range_meters":15200,"station_id":"ce4bhgp2rcd13ifvqfe0","pricing_plan_id":"cebpf4jnsgd1na2vs0mg"},{"bike_id":"44def8bb-fc22-46bb-a308-b8e670ec5dfd","system_id":"levelo_inurba_marseille","lat":43.30131,"lon":5.37428,"is_reserved":false,"is_disabled":true,"rental_uris":{"android":"levelo://app?vid=44def8bb-fc22-46bb-a308-b8e670ec5dfd","ios":"levelo://app?vid=44def8bb-fc22-46bb-a308-b8e670ec5dfd"},"vehicle_type_id":"4","last_reported":1760944315,"current_range_meters":15200,"station_id":"ce4bgs92rcd13ifvqcc0","pricing_plan_id":"cebpf4jnsgd1na2vs0mg"},{"bike_id":"0b48b62b-d088-458e-8cf7-9fb1d79f41d9","system_id":"levelo_inurba_marseille","lat":43.25933,"lon":5.40907,"is_reserved":false,"is_disabled":false,"rental_uris":{"android":"levelo://app?vid=0b48b62b-d088-458e-8cf7-9fb1d79f41d9","ios":"levelo://app?vid=0b48b62b-d088-458e-8cf7-9fb1d79f41d9"},"vehicle_type_id":"4","last_reported":1760944315,"current_range_meters":16000,"station_id":"ce4bhm92rcd13ifvqglg","pricing_plan_id":"cebpf4jnsgd1na2vs0mg"},{"bike_id":"fd7fafe5-cef2-4e65-89ed-ad9d1336abef","system_id":"levelo_inurba_marseille","lat":43.31339,"lon":5.36708,"is_reserved":false,"is_disabled":false,"rental_uris":{"android":"levelo://app?vid=fd7fafe5-cef2-4e65-89ed-ad9d1336abef","ios":"levelo://app?vid=fd7fafe5-cef2-4e65-89ed-ad9d1336abef"},"vehicle_type_id":"4","last_reported":1760944315,"current_range_meters":16000,"station_id":"ce4bgr92rcd13ifvqc6g","pricing_plan_id":"cebpf4jnsgd1na2vs0mg"},{"bike_id":"9842524c-a3f9-467c-a4f9-88e38737d84f","system_id":"levelo_inurba_marseille","lat":43.28711,"lon":5.39976,"is_reserved":false,"is_disabled":false,"rental_uris":{"android":"levelo://app?vid=9842524c-a3f9-467c-a4f9-88e38737d84f","ios":"levelo://app?vid=9842524c-a3f9-467c-a4f9-88e38737d84f"},"vehicle_type_id":"4","last_reported":1760944315,"current_range_meters":16000,"station_id":"ce4bho92rcd13ifvqh3g","pricing_plan_id":"cebpf4jnsgd1na2vs0mg"},{"bike_id":"9a0318f7-5faa-483d-b968-1d7a43090f4e","system_id":"levelo_inurba_marseille","lat":43.31693,"lon":5.40463,"is_reserved":false,"is_disabled":false,"rental_uris":{"android":"levelo://app?vid=9a0318f7-5faa-483d-b968-1d7a43090f4e","ios":"levelo://app?vid=9a0318f7-5faa-483d-b968-1d7a43090f4e"},"vehicle_type_id":"4","last_reported":1760944315,"current_range_meters":16000,"station_id":"ce4bh012rcd13ifvqd00","pricing_plan_id":"cebpf4jnsgd1na2vs0mg"},{"bike_id":"481c46b8-3a91-4786-aee6-670abb159b49","system_id":"levelo_inurba_marseille","lat":43.30462,"lon":5.37911,"is_reserved":false,"is_disabled":false,"rental_uris":{"android":"levelo://app?vid=481c46b8-3a91-4786-aee6-670abb159b49","ios":"levelo://app?vid=481c46b8-3a91-4786-aee6-670abb159b49"},"vehicle_type_id":"4","last_reported":1760944315,"current_range_meters":16400,"station_id":"ce4bgup2rcd13ifvqcn0","pricing_plan_id":"cebpf4jnsgd1na2vs0mg"},{"bike_id":"06c84d1b-6e81-4ab2-ab43-e166647822bc","system_id":"levelo_inurba_marseille","lat":43.28931,"lon":5.36849,"is_reserved":false,"is_disabled":false,"rental_uris":{"android":"levelo://app?vid=06c84d1b-6e81-4ab2-ab43-e166647822bc","ios":"levelo://app?vid=06c84d1b-6e81-4ab2-ab43-e166647822bc"},"vehicle_type_id":"4","last_reported":1760944315,"current_range_meters":16400,"station_id":"","pricing_plan_id":"cebpf4jnsgd1na2vs0mg"},{"bike_id":"4e8a4317-447e-4c14-9252-d171b7d0cf8e","system_id":"levelo_inurba_marseille","lat":43.24625,"lon":5.43157,"is_reserved":false,"is_disabled":false,"rental_uris":{"android":"levelo://app?vid=4e8a4317-447e-4c14-9252-d171b7d0cf8e","ios":"levelo://app?vid=4e8a4317-447e-4c14-9252-d171b7d0cf8e"},"vehicle_type_id":"4","last_reported":1760944315,"current_range_meters":16400,"station_id":"st_d2m6c4gdas8pm72e190g","pricing_plan_id":"cebpf4jnsgd1na2vs0mg"},{"bike_id":"9953bb32-6d68-488a-9e42-24a31e2ab81f","system_id":"levelo_inurba_marseille","lat":43.31525,"lon":5.38034,"is_reserved":false,"is_disabled":false,"rental_uris":{"android":"levelo://app?vid=9953bb32-6d68-488a-9e42-24a31e2ab81f","ios":"levelo://app?vid=9953bb32-6d68-488a-9e42-24a31e2ab81f"},"vehicle_type_id":"4","last_reported":1760944315,"current_range_meters":16400,"station_id":"ce4bhsp2rcd13ifvqi50","pricing_plan_id":"cebpf4jnsgd1na2vs0mg"},{"bike_id":"0c7d590a-9438-473d-a150-6fc56779a9ef","system_id":"levelo_inurba_marseille","lat":43.30321,"lon":5.40439,"is_reserved":false,"is_disabled":true,"rental_uris":{"android":"levelo://app?vid=0c7d590a-9438-473d-a150-6fc56779a9ef","ios":"levelo://app?vid=0c7d590a-9438-473d-a150-6fc56779a9ef"},"vehicle_type_id":"4","last_reported":1760944315,"current_range_meters":16400,"station_id":"ce4bh012rcd13ifvqd10","pricing_plan_id":"cebpf4jnsgd1na2vs0mg"},{"bike_id":"32dbdba0-e039-4c71-9c95-70d7b309a29d","system_id":"levelo_inurba_marseille","lat":43.28193,"lon":5.35002,"is_reserved":false,"is_disabled":false,"rental_uris":{"android":"levelo://app?vid=32dbdba0-e039-4c71-9c95-70d7b309a29d","ios":"levelo://app?vid=32dbdba0-e039-4c71-9c95-70d7b309a29d"},"vehicle_type_id":"4","last_reported":1760944315,"current_range_meters":16400,"station_id":"","pricing_plan_id":"cebpf4jnsgd1na2vs0mg"},{"bike_id":"8758806c-a775-4e20-b8bd-1fb9bd76f1c5","system_id":"levelo_inurba_marseille","lat":43.296666,"lon":5.387036,"is_reserved":false,"is_disabled":false,"rental_uris":{"android":"levelo://app?vid=8758806c-a775-4e20-b8bd-1fb9bd76f1c5","ios":"levelo://app?vid=8758806c-a775-4e20-b8bd-1fb9bd76f1c5"},"vehicle_type_id":"4","last_reported":1760944315,"current_range_meters":16400,"station_id":"","pricing_plan_id":"cebpf4jnsgd1na2vs0mg"},{"bike_id":"10d8f9b2-43ec-44c7-ac26-a2089e0bb2c8","system_id":"levelo_inurba_marseille","lat":43.24687,"lon":5.38141,"is_reserved":false,"is_disabled":false,"rental_uris":{"android":"levelo://app?vid=10d8f9b2-43ec-44c7-ac26-a2089e0bb2c8","ios":"levelo://app?vid=10d8f9b2-43ec-44c7-ac26-a2089e0bb2c8"},"vehicle_type_id":"4","last_reported":1760944315,"current_range_meters":16400,"station_id":"ce4bhih2rcd13ifvqfr0","pricing_plan_id":"cebpf4jnsgd1na2vs0mg"},{"bike_id":"2ab235ce-ce1c-4e5a-b8f7-e903ac97becc","system_id":"levelo_inurba_marseille","lat":43.33469,"lon":5.39994,"is_reserved":false,"is_disabled":false,"rental_uris":{"android":"levelo://app?vid=2ab235ce-ce1c-4e5a-b8f7-e903ac97becc","ios":"levelo://app?vid=2ab235ce-ce1c-4e5a-b8f7-e903ac97becc"},"vehicle_type_id":"4","last_reported":1760944315,"current_range_meters":16400,"station_id":"","pricing_plan_id":"cebpf4jnsgd1na2vs0mg"},{"bike_id":"0fc9ba19-cae3-4b35-9a66-7b23c3313003","system_id":"levelo_inurba_marseille","lat":43.30274,"lon":5.40071,"is_reserved":false,"is_disabled":false,"rental_uris":{"android":"levelo://app?vid=0fc9ba19-cae3-4b35-9a66-7b23c3313003","ios":"levelo://app?vid=0fc9ba19-cae3-4b35-9a66-7b23c3313003"},"vehicle_type_id":"4","last_reported":1760944315,"current_range_meters":16400,"station_id":"","pricing_plan_id":"cebpf4jnsgd1na2vs0mg"},{"bike_id":"b795dcee-745f-4569-9cc0-ecc3631ffb10","system_id":"levelo_inurba_marseille","lat":43.30278,"lon":5.37793,"is_reserved":false,"is_disabled":false,"rental_uris":{"android":"levelo://app?vid=b795dcee-745f-4569-9cc0-ecc3631ffb10","ios":"levelo://app?vid=b795dcee-745f-4569-9cc0-ecc3631ffb10"},"vehicle_type_id":"4","last_reported":1760944315,"current_range_meters":16800,"station_id":"","pricing_plan_id":"cebpf4jnsgd1na2vs0mg"},{"bike_id":"50256437-f563-4e18-83ab-119789c51b86","system_id":"levelo_inurba_marseille","lat":43.31648,"lon":5.376139,"is_reserved":false,"is_disabled":false,"rental_uris":{"android":"levelo://app?vid=50256437-f563-4e18-83ab-119789c51b86","ios":"levelo://app?vid=50256437-f563-4e18-83ab-119789c51b86"},"vehicle_type_id":"4","last_reported":1760944315,"current_range_meters":16800,"station_id":"","pricing_plan_id":"cebpf4jnsgd1na2vs0mg"},{"bike_id":"6f3a5602-4450-462b-9a17-f00d77c9cbc7","system_id":"levelo_inurba_marseille","lat":43.29559,"lon":5.37533,"is_reserved":false,"is_disabled":false,"rental_uris":{"android":"levelo://app?vid=6f3a5602-4450-462b-9a17-f00d77c9cbc7","ios":"levelo://app?vid=6f3a5602-4450-462b-9a17-f00d77c9cbc7"},"vehicle_type_id":"4","last_reported":1760944315,"current_range_meters":16800,"station_id":"ce4bgh92rcd13ifvqb50","pricing_plan_id":"cebpf4jnsgd1na2vs0mg"},{"bike_id":"fa4da7d0-9f39-4083-9ce5-f84443fcf4b0","system_id":"levelo_inurba_marseille","lat":43.288595,"lon":5.425187,"is_reserved":false,"is_disabled":false,"rental_uris":{"android":"levelo://app?vid=fa4da7d0-9f39-4083-9ce5-f84443fcf4b0","ios":"levelo://app?vid=fa4da7d0-9f39-4083-9ce5-f84443fcf4b0"},"vehicle_type_id":"4","last_reported":1760944315,"current_range_meters":16800,"station_id":"st_d3b462108ojc7389ooeg","pricing_plan_id":"cebpf4jnsgd1na2vs0mg"},{"bike_id":"613c4be1-9e29-4850-8279-d79ebe2f6b96","system_id":"levelo_inurba_marseille","lat":43.2316,"lon":5.43699,"is_reserved":false,"is_disabled":false,"rental_uris":{"android":"levelo://app?vid=613c4be1-9e29-4850-8279-d79ebe2f6b96","ios":"levelo://app?vid=613c4be1-9e29-4850-8279-d79ebe2f6b96"},"vehicle_type_id":"4","last_reported":1760944315,"current_range_meters":16800,"station_id":"ce4bhmp2rcd13ifvqgog","pricing_plan_id":"cebpf4jnsgd1na2vs0mg"},{"bike_id":"490c187a-0098-44bd-9010-902ebf6f6ea9","system_id":"levelo_inurba_marseille","lat":43.28232,"lon":5.35085,"is_reserved":false,"is_disabled":true,"rental_uris":{"android":"levelo://app?vid=490c187a-0098-44bd-9010-902ebf6f6ea9","ios":"levelo://app?vid=490c187a-0098-44bd-9010-902ebf6f6ea9"},"vehicle_type_id":"4","last_reported":1760944315,"current_range_meters":16800,"station_id":"","pricing_plan_id":"cebpf4jnsgd1na2vs0mg"},{"bike_id":"506bca0f-d476-42af-a425-74ffd168b7c6","system_id":"levelo_inurba_marseille","lat":43.31324,"lon":5.39711,"is_reserved":false,"is_disabled":false,"rental_uris":{"android":"levelo://app?vid=506bca0f-d476-42af-a425-74ffd168b7c6","ios":"levelo://app?vid=506bca0f-d476-42af-a425-74ffd168b7c6"},"vehicle_type_id":"4","last_reported":1760944315,"current_range_meters":16800,"station_id":"ce4bgvp2rcd13ifvqcu0","pricing_plan_id":"cebpf4jnsgd1na2vs0mg"},{"bike_id":"f3efa22c-2579-4853-893c-124b5973ae90","system_id":"levelo_inurba_marseille","lat":43.30763,"lon":5.37655,"is_reserved":false,"is_disabled":false,"rental_uris":{"android":"levelo://app?vid=f3efa22c-2579-4853-893c-124b5973ae90","ios":"levelo://app?vid=f3efa22c-2579-4853-893c-124b5973ae90"},"vehicle_type_id":"4","last_reported":1760944315,"current_range_meters":16800,"station_id":"ce4bgv92rcd13ifvqcq0","pricing_plan_id":"cebpf4jnsgd1na2vs0mg"},{"bike_id":"24a55789-2d5e-403e-a21d-8560a28f517e","system_id":"levelo_inurba_marseille","lat":43.23154,"lon":5.43711,"is_reserved":false,"is_disabled":false,"rental_uris":{"android":"levelo://app?vid=24a55789-2d5e-403e-a21d-8560a28f517e","ios":"levelo://app?vid=24a55789-2d5e-403e-a21d-8560a28f517e"},"vehicle_type_id":"4","last_reported":1760944315,"current_range_meters":16800,"station_id":"ce4bhmp2rcd13ifvqgog","pricing_plan_id":"cebpf4jnsgd1na2vs0mg"},{"bike_id":"7c9f9928-86c8-40d2-b070-648cd4cefac8","system_id":"levelo_inurba_marseille","lat":43.30782,"lon":5.37625,"is_reserved":false,"is_disabled":false,"rental_uris":{"android":"levelo://app?vid=7c9f9928-86c8-40d2-b070-648cd4cefac8","ios":"levelo://app?vid=7c9f9928-86c8-40d2-b070-648cd4cefac8"},"vehicle_type_id":"4","last_reported":1760944315,"current_range_meters":16800,"station_id":"ce4bgv92rcd13ifvqcq0","pricing_plan_id":"cebpf4jnsgd1na2vs0mg"},{"bike_id":"f2344842-ad92-47b2-83fc-4747d03700b7","system_id":"levelo_inurba_marseille","lat":43.25105,"lon":5.40322,"is_reserved":false,"is_disabled":false,"rental_uris":{"android":"levelo://app?vid=f2344842-ad92-47b2-83fc-4747d03700b7","ios":"levelo://app?vid=f2344842-ad92-47b2-83fc-4747d03700b7"},"vehicle_type_id":"4","last_reported":1760944315,"current_range_meters":16800,"station_id":"ce4bhlh2rcd13ifvqgig","pricing_plan_id":"cebpf4jnsgd1na2vs0mg"},{"bike_id":"7659da69-8d23-470d-9b18-297d4edc943d","system_id":"levelo_inurba_marseille","lat":43.253876,"lon":5.418558,"is_reserved":false,"is_disabled":false,"rental_uris":{"android":"levelo://app?vid=7659da69-8d23-470d-9b18-297d4edc943d","ios":"levelo://app?vid=7659da69-8d23-470d-9b18-297d4edc943d"},"vehicle_type_id":"4","last_reported":1760944315,"current_range_meters":16800,"station_id":"","pricing_plan_id":"cebpf4jnsgd1na2vs0mg"},{"bike_id":"9855bf2e-ac22-4961-a285-8f095da01ced","system_id":"levelo_inurba_marseille","lat":43.284,"lon":5.37536,"is_reserved":false,"is_disabled":true,"rental_uris":{"android":"levelo://app?vid=9855bf2e-ac22-4961-a285-8f095da01ced","ios":"levelo://app?vid=9855bf2e-ac22-4961-a285-8f095da01ced"},"vehicle_type_id":"4","last_reported":1760944315,"current_range_meters":17200,"station_id":"ce4bh412rcd13ifvqds0","pricing_plan_id":"cebpf4jnsgd1na2vs0mg"},{"bike_id":"598dd51e-5071-4448-81a9-9ce4b36e7a72","system_id":"levelo_inurba_marseille","lat":43.29541,"lon":5.3856,"is_reserved":false,"is_disabled":true,"rental_uris":{"android":"levelo://app?vid=598dd51e-5071-4448-81a9-9ce4b36e7a72","ios":"levelo://app?vid=598dd51e-5071-4448-81a9-9ce4b36e7a72"},"vehicle_type_id":"4","last_reported":1760944315,"current_range_meters":17200,"station_id":"ce4bgih2rcd13ifvqba0","pricing_plan_id":"cebpf4jnsgd1na2vs0mg"},{"bike_id":"a27423e0-ceb0-4a8f-86e7-7b89077ab2b5","system_id":"levelo_inurba_marseille","lat":43.28182,"lon":5.36073,"is_reserved":false,"is_disabled":false,"rental_uris":{"android":"levelo://app?vid=a27423e0-ceb0-4a8f-86e7-7b89077ab2b5","ios":"levelo://app?vid=a27423e0-ceb0-4a8f-86e7-7b89077ab2b5"},"vehicle_type_id":"4","last_reported":1760944315,"current_range_meters":17200,"station_id":"","pricing_plan_id":"cebpf4jnsgd1na2vs0mg"},{"bike_id":"5c9adbc9-5624-4424-b872-2250651ff5aa","system_id":"levelo_inurba_marseille","lat":43.27061,"lon":5.38312,"is_reserved":false,"is_disabled":false,"rental_uris":{"android":"levelo://app?vid=5c9adbc9-5624-4424-b872-2250651ff5aa","ios":"levelo://app?vid=5c9adbc9-5624-4424-b872-2250651ff5aa"},"vehicle_type_id":"4","last_reported":1760944315,"current_range_meters":17200,"station_id":"st_d3n2fo6cfp8s73cte1j0","pricing_plan_id":"cebpf4jnsgd1na2vs0mg"},{"bike_id":"a7ba6a6a-8dda-4e76-8a63-3f1cbbb0d6aa","system_id":"levelo_inurba_marseille","lat":43.34133,"lon":5.40907,"is_reserved":false,"is_disabled":false,"rental_uris":{"android":"levelo://app?vid=a7ba6a6a-8dda-4e76-8a63-3f1cbbb0d6aa","ios":"levelo://app?vid=a7ba6a6a-8dda-4e76-8a63-3f1cbbb0d6aa"},"vehicle_type_id":"4","last_reported":1760944315,"current_range_meters":17200,"station_id":"ce4bhqh2rcd13ifvqhlg","pricing_plan_id":"cebpf4jnsgd1na2vs0mg"},{"bike_id":"2e67643b-d341-4102-ab0e-b8ecc435eb92","system_id":"levelo_inurba_marseille","lat":43.315409,"lon":5.387311,"is_reserved":false,"is_disabled":false,"rental_uris":{"android":"levelo://app?vid=2e67643b-d341-4102-ab0e-b8ecc435eb92","ios":"levelo://app?vid=2e67643b-d341-4102-ab0e-b8ecc435eb92"},"vehicle_type_id":"4","last_reported":1760944315,"current_range_meters":17200,"station_id":"","pricing_plan_id":"cebpf4jnsgd1na2vs0mg"},{"bike_id":"5f1015a4-e527-423a-8450-0f79576a99ad","system_id":"levelo_inurba_marseille","lat":43.30298,"lon":5.43515,"is_reserved":false,"is_disabled":false,"rental_uris":{"android":"levelo://app?vid=5f1015a4-e527-423a-8450-0f79576a99ad","ios":"levelo://app?vid=5f1015a4-e527-423a-8450-0f79576a99ad"},"vehicle_type_id":"4","last_reported":1760944315,"current_range_meters":17200,"station_id":"","pricing_plan_id":"cebpf4jnsgd1na2vs0mg"},{"bike_id":"15bd2618-731d-4ccc-ba77-10aa0ba78d82","system_id":"levelo_inurba_marseille","lat":43.28718,"lon":5.37934,"is_reserved":false,"is_disabled":false,"rental_uris":{"android":"levelo://app?vid=15bd2618-731d-4ccc-ba77-10aa0ba78d82","ios":"levelo://app?vid=15bd2618-731d-4ccc-ba77-10aa0ba78d82"},"vehicle_type_id":"4","last_reported":1760944315,"current_range_meters":17200,"station_id":"ce4bh9p2rcd13ifvqec0","pricing_plan_id":"cebpf4jnsgd1na2vs0mg"},{"bike_id":"47738a8a-1cb6-4dc6-8b61-1b856a0dbd08","system_id":"levelo_inurba_marseille","lat":43.30898,"lon":5.396334,"is_reserved":false,"is_disabled":false,"rental_uris":{"android":"levelo://app?vid=47738a8a-1cb6-4dc6-8b61-1b856a0dbd08","ios":"levelo://app?vid=47738a8a-1cb6-4dc6-8b61-1b856a0dbd08"},"vehicle_type_id":"4","last_reported":1760944315,"current_range_meters":17600,"station_id":"ce4bh012rcd13ifvqcv0","pricing_plan_id":"cebpf4jnsgd1na2vs0mg"},{"bike_id":"22cff708-9662-41a4-8667-64656bb5d03b","system_id":"levelo_inurba_marseille","lat":43.26228,"lon":5.40457,"is_reserved":false,"is_disabled":false,"rental_uris":{"android":"levelo://app?vid=22cff708-9662-41a4-8667-64656bb5d03b","ios":"levelo://app?vid=22cff708-9662-41a4-8667-64656bb5d03b"},"vehicle_type_id":"4","last_reported":1760944315,"current_range_meters":17600,"station_id":"ce4bhmh2rcd13ifvqgmg","pricing_plan_id":"cebpf4jnsgd1na2vs0mg"},{"bike_id":"1c3a62d6-9dc5-4b1d-b145-ff75c0ccb3b4","system_id":"levelo_inurba_marseille","lat":43.2827,"lon":5.35058,"is_reserved":false,"is_disabled":false,"rental_uris":{"android":"levelo://app?vid=1c3a62d6-9dc5-4b1d-b145-ff75c0ccb3b4","ios":"levelo://app?vid=1c3a62d6-9dc5-4b1d-b145-ff75c0ccb3b4"},"vehicle_type_id":"4","last_reported":1760944315,"current_range_meters":17600,"station_id":"","pricing_plan_id":"cebpf4jnsgd1na2vs0mg"},{"bike_id":"caf374fc-fa68-4a8a-8ba8-5e7b330c893d","system_id":"levelo_inurba_marseille","lat":43.28404,"lon":5.38634,"is_reserved":false,"is_disabled":true,"rental_uris":{"android":"levelo://app?vid=caf374fc-fa68-4a8a-8ba8-5e7b330c893d","ios":"levelo://app?vid=caf374fc-fa68-4a8a-8ba8-5e7b330c893d"},"vehicle_type_id":"4","last_reported":1760944315,"current_range_meters":17600,"station_id":"ce4bh492rcd13ifvqdvg","pricing_plan_id":"cebpf4jnsgd1na2vs0mg"},{"bike_id":"2f09c9be-359a-414b-9339-b6dbcd93427c","system_id":"levelo_inurba_marseille","lat":43.29594,"lon":5.38114,"is_reserved":false,"is_disabled":true,"rental_uris":{"android":"levelo://app?vid=2f09c9be-359a-414b-9339-b6dbcd93427c","ios":"levelo://app?vid=2f09c9be-359a-414b-9339-b6dbcd93427c"},"vehicle_type_id":"4","last_reported":1760944315,"current_range_meters":17600,"station_id":"ce4bgl12rcd13ifvqbo0","pricing_plan_id":"cebpf4jnsgd1na2vs0mg"},{"bike_id":"6a532365-f253-4288-bb95-e6d12d47f2f2","system_id":"levelo_inurba_marseille","lat":43.31361,"lon":5.36704,"is_reserved":false,"is_disabled":false,"rental_uris":{"android":"levelo://app?vid=6a532365-f253-4288-bb95-e6d12d47f2f2","ios":"levelo://app?vid=6a532365-f253-4288-bb95-e6d12d47f2f2"},"vehicle_type_id":"4","last_reported":1760944315,"current_range_meters":18000,"station_id":"ce4bgr92rcd13ifvqc6g","pricing_plan_id":"cebpf4jnsgd1na2vs0mg"},{"bike_id":"20d9d3c4-a46a-4dac-bafb-410f46cebfba","system_id":"levelo_inurba_marseille","lat":43.25848,"lon":5.39357,"is_reserved":false,"is_disabled":false,"rental_uris":{"android":"levelo://app?vid=20d9d3c4-a46a-4dac-bafb-410f46cebfba","ios":"levelo://app?vid=20d9d3c4-a46a-4dac-bafb-410f46cebfba"},"vehicle_type_id":"4","last_reported":1760944315,"current_range_meters":18000,"station_id":"","pricing_plan_id":"cebpf4jnsgd1na2vs0mg"},{"bike_id":"3500c908-297e-4054-9aba-70ee2962e831","system_id":"levelo_inurba_marseille","lat":43.31753,"lon":5.3902,"is_reserved":false,"is_disabled":false,"rental_uris":{"android":"levelo://app?vid=3500c908-297e-4054-9aba-70ee2962e831","ios":"levelo://app?vid=3500c908-297e-4054-9aba-70ee2962e831"},"vehicle_type_id":"4","last_reported":1760944315,"current_range_meters":18000,"station_id":"ce4bhqp2rcd13ifvqhng","pricing_plan_id":"cebpf4jnsgd1na2vs0mg"},{"bike_id":"bb0a544e-f6d9-40db-99f0-33086fd0d7e9","system_id":"levelo_inurba_marseille","lat":43.308,"lon":5.43528,"is_reserved":false,"is_disabled":true,"rental_uris":{"android":"levelo://app?vid=bb0a544e-f6d9-40db-99f0-33086fd0d7e9","ios":"levelo://app?vid=bb0a544e-f6d9-40db-99f0-33086fd0d7e9"},"vehicle_type_id":"4","last_reported":1760944315,"current_range_meters":18000,"station_id":"ce4bhph2rcd13ifvqheg","pricing_plan_id":"cebpf4jnsgd1na2vs0mg"},{"bike_id":"1476193b-f846-4812-b24e-901a9a9c810a","system_id":"levelo_inurba_marseille","lat":43.29031,"lon":5.38638,"is_reserved":false,"is_disabled":true,"rental_uris":{"android":"levelo://app?vid=1476193b-f846-4812-b24e-901a9a9c810a","ios":"levelo://app?vid=1476193b-f846-4812-b24e-901a9a9c810a"},"vehicle_type_id":"4","last_reported":1760944315,"current_range_meters":18000,"station_id":"ce4bh4p2rcd13ifvqe0g","pricing_plan_id":"cebpf4jnsgd1na2vs0mg"},{"bike_id":"12f2098a-b604-4f5b-83fa-b089bcafee44","system_id":"levelo_inurba_marseille","lat":43.30161,"lon":5.38111,"is_reserved":false,"is_disabled":false,"rental_uris":{"android":"levelo://app?vid=12f2098a-b604-4f5b-83fa-b089bcafee44","ios":"levelo://app?vid=12f2098a-b604-4f5b-83fa-b089bcafee44"},"vehicle_type_id":"4","last_reported":1760944315,"current_range_meters":18000,"station_id":"","pricing_plan_id":"cebpf4jnsgd1na2vs0mg"},{"bike_id":"f1b8e04f-457e-461e-a0a7-0d512845fe50","system_id":"levelo_inurba_marseille","lat":43.34091,"lon":5.4042,"is_reserved":false,"is_disabled":false,"rental_uris":{"android":"levelo://app?vid=f1b8e04f-457e-461e-a0a7-0d512845fe50","ios":"levelo://app?vid=f1b8e04f-457e-461e-a0a7-0d512845fe50"},"vehicle_type_id":"4","last_reported":1760944315,"current_range_meters":18000,"station_id":"","pricing_plan_id":"cebpf4jnsgd1na2vs0mg"},{"bike_id":"b63f4144-84f6-4ba1-b6df-f6ebabe9ef26","system_id":"levelo_inurba_marseille","lat":43.279034,"lon":5.404676,"is_reserved":false,"is_disabled":false,"rental_uris":{"android":"levelo://app?vid=b63f4144-84f6-4ba1-b6df-f6ebabe9ef26","ios":"levelo://app?vid=b63f4144-84f6-4ba1-b6df-f6ebabe9ef26"},"vehicle_type_id":"4","last_reported":1760944315,"current_range_meters":18000,"station_id":"","pricing_plan_id":"cebpf4jnsgd1na2vs0mg"},{"bike_id":"71212c75-900b-4a53-820c-455a2e9dd872","system_id":"levelo_inurba_marseille","lat":43.25728,"lon":5.41097,"is_reserved":false,"is_disabled":false,"rental_uris":{"android":"levelo://app?vid=71212c75-900b-4a53-820c-455a2e9dd872","ios":"levelo://app?vid=71212c75-900b-4a53-820c-455a2e9dd872"},"vehicle_type_id":"4","last_reported":1760944315,"current_range_meters":18000,"station_id":"ce4bhkp2rcd13ifvqgd0","pricing_plan_id":"cebpf4jnsgd1na2vs0mg"},{"bike_id":"1b433032-795e-42e4-8633-3ac19807b160","system_id":"levelo_inurba_marseille","lat":43.25933,"lon":5.40908,"is_reserved":false,"is_disabled":false,"rental_uris":{"android":"levelo://app?vid=1b433032-795e-42e4-8633-3ac19807b160","ios":"levelo://app?vid=1b433032-795e-42e4-8633-3ac19807b160"},"vehicle_type_id":"4","last_reported":1760944315,"current_range_meters":18000,"station_id":"ce4bhm92rcd13ifvqglg","pricing_plan_id":"cebpf4jnsgd1na2vs0mg"},{"bike_id":"2affe8d3-de97-4cde-bb95-e2b3f788b570","system_id":"levelo_inurba_marseille","lat":43.24958,"lon":5.40498,"is_reserved":false,"is_disabled":false,"rental_uris":{"android":"levelo://app?vid=2affe8d3-de97-4cde-bb95-e2b3f788b570","ios":"levelo://app?vid=2affe8d3-de97-4cde-bb95-e2b3f788b570"},"vehicle_type_id":"4","last_reported":1760944315,"current_range_meters":18800,"station_id":"st_d2ngiaodas8pm72gd1h0","pricing_plan_id":"cebpf4jnsgd1na2vs0mg"},{"bike_id":"9a3a0544-6ab5-4af6-968a-00914a8d38f5","system_id":"levelo_inurba_marseille","lat":43.30151,"lon":5.38107,"is_reserved":false,"is_disabled":false,"rental_uris":{"android":"levelo://app?vid=9a3a0544-6ab5-4af6-968a-00914a8d38f5","ios":"levelo://app?vid=9a3a0544-6ab5-4af6-968a-00914a8d38f5"},"vehicle_type_id":"4","last_reported":1760944315,"current_range_meters":18800,"station_id":"","pricing_plan_id":"cebpf4jnsgd1na2vs0mg"},{"bike_id":"d30da285-e009-408c-89fe-152b49543528","system_id":"levelo_inurba_marseille","lat":43.23049,"lon":5.35498,"is_reserved":false,"is_disabled":false,"rental_uris":{"android":"levelo://app?vid=d30da285-e009-408c-89fe-152b49543528","ios":"levelo://app?vid=d30da285-e009-408c-89fe-152b49543528"},"vehicle_type_id":"4","last_reported":1760944315,"current_range_meters":18800,"station_id":"cpo3342slgdg3j2ifvpg","pricing_plan_id":"cebpf4jnsgd1na2vs0mg"},{"bike_id":"7611d974-f3da-4686-9683-6d6484b75218","system_id":"levelo_inurba_marseille","lat":43.31494,"lon":5.37283,"is_reserved":false,"is_disabled":false,"rental_uris":{"android":"levelo://app?vid=7611d974-f3da-4686-9683-6d6484b75218","ios":"levelo://app?vid=7611d974-f3da-4686-9683-6d6484b75218"},"vehicle_type_id":"4","last_reported":1760944315,"current_range_meters":18800,"station_id":"ce4bgt12rcd13ifvqcd0","pricing_plan_id":"cebpf4jnsgd1na2vs0mg"},{"bike_id":"fc99aafc-4d77-4620-8435-c65cfb9a9524","system_id":"levelo_inurba_marseille","lat":43.25934,"lon":5.40902,"is_reserved":false,"is_disabled":false,"rental_uris":{"android":"levelo://app?vid=fc99aafc-4d77-4620-8435-c65cfb9a9524","ios":"levelo://app?vid=fc99aafc-4d77-4620-8435-c65cfb9a9524"},"vehicle_type_id":"4","last_reported":1760944315,"current_range_meters":18800,"station_id":"ce4bhm92rcd13ifvqglg","pricing_plan_id":"cebpf4jnsgd1na2vs0mg"},{"bike_id":"83a8b2fb-c7f5-4428-9bcc-2d60cbf36558","system_id":"levelo_inurba_marseille","lat":43.24171,"lon":5.39716,"is_reserved":false,"is_disabled":false,"rental_uris":{"android":"levelo://app?vid=83a8b2fb-c7f5-4428-9bcc-2d60cbf36558","ios":"levelo://app?vid=83a8b2fb-c7f5-4428-9bcc-2d60cbf36558"},"vehicle_type_id":"4","last_reported":1760944315,"current_range_meters":18800,"station_id":"ce4bhn12rcd13ifvqgpg","pricing_plan_id":"cebpf4jnsgd1na2vs0mg"},{"bike_id":"0902f8f5-2693-425a-bff3-5d901bf02c48","system_id":"levelo_inurba_marseille","lat":43.243863,"lon":5.370553,"is_reserved":false,"is_disabled":false,"rental_uris":{"android":"levelo://app?vid=0902f8f5-2693-425a-bff3-5d901bf02c48","ios":"levelo://app?vid=0902f8f5-2693-425a-bff3-5d901bf02c48"},"vehicle_type_id":"4","last_reported":1760944315,"current_range_meters":19200,"station_id":"","pricing_plan_id":"cebpf4jnsgd1na2vs0mg"},{"bike_id":"ecc71f2f-a8c8-48f2-a3d5-7917b274cd85","system_id":"levelo_inurba_marseille","lat":43.282906,"lon":5.396583,"is_reserved":false,"is_disabled":false,"rental_uris":{"android":"levelo://app?vid=ecc71f2f-a8c8-48f2-a3d5-7917b274cd85","ios":"levelo://app?vid=ecc71f2f-a8c8-48f2-a3d5-7917b274cd85"},"vehicle_type_id":"4","last_reported":1760944315,"current_range_meters":19200,"station_id":"","pricing_plan_id":"cebpf4jnsgd1na2vs0mg"},{"bike_id":"0dc26d74-9491-4fe4-8091-8361c7dfc2da","system_id":"levelo_inurba_marseille","lat":43.30958,"lon":5.39025,"is_reserved":false,"is_disabled":false,"rental_uris":{"android":"levelo://app?vid=0dc26d74-9491-4fe4-8091-8361c7dfc2da","ios":"levelo://app?vid=0dc26d74-9491-4fe4-8091-8361c7dfc2da"},"vehicle_type_id":"4","last_reported":1760944315,"current_range_meters":19200,"station_id":"ce4bgup2rcd13ifvqco0","pricing_plan_id":"cebpf4jnsgd1na2vs0mg"},{"bike_id":"0db9ab5d-e4b9-4e8d-8841-4099a10de2ae","system_id":"levelo_inurba_marseille","lat":43.28472,"lon":5.48407,"is_reserved":false,"is_disabled":false,"rental_uris":{"android":"levelo://app?vid=0db9ab5d-e4b9-4e8d-8841-4099a10de2ae","ios":"levelo://app?vid=0db9ab5d-e4b9-4e8d-8841-4099a10de2ae"},"vehicle_type_id":"4","last_reported":1760944315,"current_range_meters":19200,"station_id":"st_d3jp68qikq2c7381ktn0","pricing_plan_id":"cebpf4jnsgd1na2vs0mg"},{"bike_id":"ea6c53ae-c974-47a3-82c5-5e21e485fa96","system_id":"levelo_inurba_marseille","lat":43.28688,"lon":5.40001,"is_reserved":false,"is_disabled":false,"rental_uris":{"android":"levelo://app?vid=ea6c53ae-c974-47a3-82c5-5e21e485fa96","ios":"levelo://app?vid=ea6c53ae-c974-47a3-82c5-5e21e485fa96"},"vehicle_type_id":"4","last_reported":1760944315,"current_range_meters":19200,"station_id":"ce4bho92rcd13ifvqh3g","pricing_plan_id":"cebpf4jnsgd1na2vs0mg"},{"bike_id":"00c1ab0a-4883-4f75-89ea-e531d28dffd8","system_id":"levelo_inurba_marseille","lat":43.30142,"lon":5.38108,"is_reserved":false,"is_disabled":true,"rental_uris":{"android":"levelo://app?vid=00c1ab0a-4883-4f75-89ea-e531d28dffd8","ios":"levelo://app?vid=00c1ab0a-4883-4f75-89ea-e531d28dffd8"},"vehicle_type_id":"4","last_reported":1760944315,"current_range_meters":19200,"station_id":"ce4bgjp2rcd13ifvqbh0","pricing_plan_id":"cebpf4jnsgd1na2vs0mg"},{"bike_id":"737796b0-9eed-4879-8123-81b53466978c","system_id":"levelo_inurba_marseille","lat":43.27994,"lon":5.41658,"is_reserved":false,"is_disabled":false,"rental_uris":{"android":"levelo://app?vid=737796b0-9eed-4879-8123-81b53466978c","ios":"levelo://app?vid=737796b0-9eed-4879-8123-81b53466978c"},"vehicle_type_id":"4","last_reported":1760944315,"current_range_meters":19200,"station_id":"ce4bho12rcd13ifvqh1g","pricing_plan_id":"cebpf4jnsgd1na2vs0mg"},{"bike_id":"fa344610-9bdf-47a1-9d9d-a659d006d2c1","system_id":"levelo_inurba_marseille","lat":43.27612,"lon":5.36105,"is_reserved":false,"is_disabled":true,"rental_uris":{"android":"levelo://app?vid=fa344610-9bdf-47a1-9d9d-a659d006d2c1","ios":"levelo://app?vid=fa344610-9bdf-47a1-9d9d-a659d006d2c1"},"vehicle_type_id":"4","last_reported":1760944315,"current_range_meters":19200,"station_id":"ce4bgj92rcd13ifvqbe0","pricing_plan_id":"cebpf4jnsgd1na2vs0mg"},{"bike_id":"18388441-6ad8-4c35-813f-4bbb580e6f6a","system_id":"levelo_inurba_marseille","lat":43.24666,"lon":5.38155,"is_reserved":false,"is_disabled":false,"rental_uris":{"android":"levelo://app?vid=18388441-6ad8-4c35-813f-4bbb580e6f6a","ios":"levelo://app?vid=18388441-6ad8-4c35-813f-4bbb580e6f6a"},"vehicle_type_id":"4","last_reported":1760944315,"current_range_meters":19200,"station_id":"ce4bhih2rcd13ifvqfr0","pricing_plan_id":"cebpf4jnsgd1na2vs0mg"},{"bike_id":"c71062df-2e0b-4447-9245-37625669e5c2","system_id":"levelo_inurba_marseille","lat":43.29306,"lon":5.40329,"is_reserved":false,"is_disabled":true,"rental_uris":{"android":"levelo://app?vid=c71062df-2e0b-4447-9245-37625669e5c2","ios":"levelo://app?vid=c71062df-2e0b-4447-9245-37625669e5c2"},"vehicle_type_id":"4","last_reported":1760944315,"current_range_meters":19200,"station_id":"","pricing_plan_id":"cebpf4jnsgd1na2vs0mg"},{"bike_id":"97cb3fab-e199-4747-88ac-04d3b2206c69","system_id":"levelo_inurba_marseille","lat":43.2418,"lon":5.39733,"is_reserved":false,"is_disabled":false,"rental_uris":{"android":"levelo://app?vid=97cb3fab-e199-4747-88ac-04d3b2206c69","ios":"levelo://app?vid=97cb3fab-e199-4747-88ac-04d3b2206c69"},"vehicle_type_id":"4","last_reported":1760944315,"current_range_meters":19200,"station_id":"ce4bhn12rcd13ifvqgpg","pricing_plan_id":"cebpf4jnsgd1na2vs0mg"},{"bike_id":"9c882443-49a2-480d-8caf-b6fafbd1ba97","system_id":"levelo_inurba_marseille","lat":43.275393,"lon":5.427695,"is_reserved":false,"is_disabled":false,"rental_uris":{"android":"levelo://app?vid=9c882443-49a2-480d-8caf-b6fafbd1ba97","ios":"levelo://app?vid=9c882443-49a2-480d-8caf-b6fafbd1ba97"},"vehicle_type_id":"4","last_reported":1760944315,"current_range_meters":19200,"station_id":"","pricing_plan_id":"cebpf4jnsgd1na2vs0mg"},{"bike_id":"5b727575-fd4d-4995-91c2-a5a9f0907577","system_id":"levelo_inurba_marseille","lat":43.29074,"lon":5.3715,"is_reserved":false,"is_disabled":false,"rental_uris":{"android":"levelo://app?vid=5b727575-fd4d-4995-91c2-a5a9f0907577","ios":"levelo://app?vid=5b727575-fd4d-4995-91c2-a5a9f0907577"},"vehicle_type_id":"4","last_reported":1760944315,"current_range_meters":19200,"station_id":"ce4bh5p2rcd13ifvqe4g","pricing_plan_id":"cebpf4jnsgd1na2vs0mg"},{"bike_id":"c59c567f-c17d-4df7-a41f-7e8cec6e902f","system_id":"levelo_inurba_marseille","lat":43.29193,"lon":5.35808,"is_reserved":false,"is_disabled":true,"rental_uris":{"android":"levelo://app?vid=c59c567f-c17d-4df7-a41f-7e8cec6e902f","ios":"levelo://app?vid=c59c567f-c17d-4df7-a41f-7e8cec6e902f"},"vehicle_type_id":"4","last_reported":1760944315,"current_range_meters":19200,"station_id":"ce4bhb12rcd13ifvqel0","pricing_plan_id":"cebpf4jnsgd1na2vs0mg"},{"bike_id":"1e1f2733-7c9b-4860-beb6-6399d4ca1935","system_id":"levelo_inurba_marseille","lat":43.2871,"lon":5.39985,"is_reserved":false,"is_disabled":false,"rental_uris":{"android":"levelo://app?vid=1e1f2733-7c9b-4860-beb6-6399d4ca1935","ios":"levelo://app?vid=1e1f2733-7c9b-4860-beb6-6399d4ca1935"},"vehicle_type_id":"4","last_reported":1760944315,"current_range_meters":19200,"station_id":"ce4bho92rcd13ifvqh3g","pricing_plan_id":"cebpf4jnsgd1na2vs0mg"},{"bike_id":"71cee5ed-263d-4be4-bae8-d28c66bbdb4d","system_id":"levelo_inurba_marseille","lat":43.32012,"lon":5.38132,"is_reserved":false,"is_disabled":false,"rental_uris":{"android":"levelo://app?vid=71cee5ed-263d-4be4-bae8-d28c66bbdb4d","ios":"levelo://app?vid=71cee5ed-263d-4be4-bae8-d28c66bbdb4d"},"vehicle_type_id":"4","last_reported":1760944315,"current_range_meters":19200,"station_id":"ce4bhr12rcd13ifvqhpg","pricing_plan_id":"cebpf4jnsgd1na2vs0mg"},{"bike_id":"26a47936-248a-4509-9172-73bff6c9fadc","system_id":"levelo_inurba_marseille","lat":43.309998,"lon":5.389321,"is_reserved":false,"is_disabled":false,"rental_uris":{"android":"levelo://app?vid=26a47936-248a-4509-9172-73bff6c9fadc","ios":"levelo://app?vid=26a47936-248a-4509-9172-73bff6c9fadc"},"vehicle_type_id":"4","last_reported":1760944315,"current_range_meters":19600,"station_id":"ce4bgup2rcd13ifvqco0","pricing_plan_id":"cebpf4jnsgd1na2vs0mg"},{"bike_id":"e1f4e2e7-e979-4bb5-8ac3-370c17ac4622","system_id":"levelo_inurba_marseille","lat":43.28893,"lon":5.42503,"is_reserved":false,"is_disabled":false,"rental_uris":{"android":"levelo://app?vid=e1f4e2e7-e979-4bb5-8ac3-370c17ac4622","ios":"levelo://app?vid=e1f4e2e7-e979-4bb5-8ac3-370c17ac4622"},"vehicle_type_id":"4","last_reported":1760944315,"current_range_meters":19600,"station_id":"st_d3b462108ojc7389ooeg","pricing_plan_id":"cebpf4jnsgd1na2vs0mg"},{"bike_id":"c464bf8d-cb97-4d40-9429-d3105ca64b2a","system_id":"levelo_inurba_marseille","lat":43.313273,"lon":5.39709,"is_reserved":false,"is_disabled":false,"rental_uris":{"android":"levelo://app?vid=c464bf8d-cb97-4d40-9429-d3105ca64b2a","ios":"levelo://app?vid=c464bf8d-cb97-4d40-9429-d3105ca64b2a"},"vehicle_type_id":"4","last_reported":1760944315,"current_range_meters":19600,"station_id":"ce4bgvp2rcd13ifvqcu0","pricing_plan_id":"cebpf4jnsgd1na2vs0mg"},{"bike_id":"9685b534-3028-459a-908a-5c3c4b067a77","system_id":"levelo_inurba_marseille","lat":43.2795,"lon":5.38741,"is_reserved":false,"is_disabled":false,"rental_uris":{"android":"levelo://app?vid=9685b534-3028-459a-908a-5c3c4b067a77","ios":"levelo://app?vid=9685b534-3028-459a-908a-5c3c4b067a77"},"vehicle_type_id":"4","last_reported":1760944315,"current_range_meters":19600,"station_id":"ce4bhg12rcd13ifvqf80","pricing_plan_id":"cebpf4jnsgd1na2vs0mg"},{"bike_id":"b057797e-d767-4678-aca0-a8e2541d23f6","system_id":"levelo_inurba_marseille","lat":43.255834,"lon":5.382219,"is_reserved":false,"is_disabled":true,"rental_uris":{"android":"levelo://app?vid=b057797e-d767-4678-aca0-a8e2541d23f6","ios":"levelo://app?vid=b057797e-d767-4678-aca0-a8e2541d23f6"},"vehicle_type_id":"4","last_reported":1760944315,"current_range_meters":19600,"station_id":"ce4bhgp2rcd13ifvqfc0","pricing_plan_id":"cebpf4jnsgd1na2vs0mg"},{"bike_id":"99c56530-33f7-4a11-bac7-964fedcdd051","system_id":"levelo_inurba_marseille","lat":43.31498,"lon":5.37297,"is_reserved":false,"is_disabled":false,"rental_uris":{"android":"levelo://app?vid=99c56530-33f7-4a11-bac7-964fedcdd051","ios":"levelo://app?vid=99c56530-33f7-4a11-bac7-964fedcdd051"},"vehicle_type_id":"4","last_reported":1760944315,"current_range_meters":19600,"station_id":"ce4bgt12rcd13ifvqcd0","pricing_plan_id":"cebpf4jnsgd1na2vs0mg"},{"bike_id":"6188fe44-40c7-4786-92b7-e3fd92e74c97","system_id":"levelo_inurba_marseille","lat":43.26682,"lon":5.38267,"is_reserved":false,"is_disabled":false,"rental_uris":{"android":"levelo://app?vid=6188fe44-40c7-4786-92b7-e3fd92e74c97","ios":"levelo://app?vid=6188fe44-40c7-4786-92b7-e3fd92e74c97"},"vehicle_type_id":"4","last_reported":1760944315,"current_range_meters":19600,"station_id":"ce4bhg92rcd13ifvqf90","pricing_plan_id":"cebpf4jnsgd1na2vs0mg"},{"bike_id":"158f5c6c-d9a4-4452-9fb1-747cdf44f6e2","system_id":"levelo_inurba_marseille","lat":43.29977,"lon":5.37157,"is_reserved":false,"is_disabled":false,"rental_uris":{"android":"levelo://app?vid=158f5c6c-d9a4-4452-9fb1-747cdf44f6e2","ios":"levelo://app?vid=158f5c6c-d9a4-4452-9fb1-747cdf44f6e2"},"vehicle_type_id":"4","last_reported":1760944315,"current_range_meters":20000,"station_id":"ce4bgr92rcd13ifvqc7g","pricing_plan_id":"cebpf4jnsgd1na2vs0mg"},{"bike_id":"72d5bbb6-0721-4f71-9159-fb97b85cb230","system_id":"levelo_inurba_marseille","lat":43.32365,"lon":5.36749,"is_reserved":false,"is_disabled":false,"rental_uris":{"android":"levelo://app?vid=72d5bbb6-0721-4f71-9159-fb97b85cb230","ios":"levelo://app?vid=72d5bbb6-0721-4f71-9159-fb97b85cb230"},"vehicle_type_id":"4","last_reported":1760944315,"current_range_meters":20000,"station_id":"ce4bhsh2rcd13ifvqi2g","pricing_plan_id":"cebpf4jnsgd1na2vs0mg"},{"bike_id":"361b6c0d-762c-49d2-b9f3-6a159b39f503","system_id":"levelo_inurba_marseille","lat":43.32542,"lon":5.36518,"is_reserved":false,"is_disabled":false,"rental_uris":{"android":"levelo://app?vid=361b6c0d-762c-49d2-b9f3-6a159b39f503","ios":"levelo://app?vid=361b6c0d-762c-49d2-b9f3-6a159b39f503"},"vehicle_type_id":"4","last_reported":1760944315,"current_range_meters":20000,"station_id":"","pricing_plan_id":"cebpf4jnsgd1na2vs0mg"},{"bike_id":"c9c1af49-9e6d-4de6-adde-aea85d12b1bb","system_id":"levelo_inurba_marseille","lat":43.325473,"lon":5.424069,"is_reserved":false,"is_disabled":false,"rental_uris":{"android":"levelo://app?vid=c9c1af49-9e6d-4de6-adde-aea85d12b1bb","ios":"levelo://app?vid=c9c1af49-9e6d-4de6-adde-aea85d12b1bb"},"vehicle_type_id":"4","last_reported":1760944315,"current_range_meters":20000,"station_id":"","pricing_plan_id":"cebpf4jnsgd1na2vs0mg"},{"bike_id":"8b968423-85eb-407d-a3d1-d453de3f38b7","system_id":"levelo_inurba_marseille","lat":43.2668,"lon":5.38272,"is_reserved":false,"is_disabled":false,"rental_uris":{"android":"levelo://app?vid=8b968423-85eb-407d-a3d1-d453de3f38b7","ios":"levelo://app?vid=8b968423-85eb-407d-a3d1-d453de3f38b7"},"vehicle_type_id":"4","last_reported":1760944315,"current_range_meters":20000,"station_id":"ce4bhg92rcd13ifvqf90","pricing_plan_id":"cebpf4jnsgd1na2vs0mg"},{"bike_id":"b8615559-d0d7-4831-92cf-0aa3c697e049","system_id":"levelo_inurba_marseille","lat":43.25937,"lon":5.40889,"is_reserved":false,"is_disabled":false,"rental_uris":{"android":"levelo://app?vid=b8615559-d0d7-4831-92cf-0aa3c697e049","ios":"levelo://app?vid=b8615559-d0d7-4831-92cf-0aa3c697e049"},"vehicle_type_id":"4","last_reported":1760944315,"current_range_meters":20000,"station_id":"ce4bhm92rcd13ifvqglg","pricing_plan_id":"cebpf4jnsgd1na2vs0mg"},{"bike_id":"1de6ebd8-d371-4192-8a8a-740773cc8f40","system_id":"levelo_inurba_marseille","lat":43.28618,"lon":5.38536,"is_reserved":false,"is_disabled":false,"rental_uris":{"android":"levelo://app?vid=1de6ebd8-d371-4192-8a8a-740773cc8f40","ios":"levelo://app?vid=1de6ebd8-d371-4192-8a8a-740773cc8f40"},"vehicle_type_id":"4","last_reported":1760944315,"current_range_meters":20400,"station_id":"","pricing_plan_id":"cebpf4jnsgd1na2vs0mg"},{"bike_id":"9822b684-3972-4677-9312-c3bc35624cac","system_id":"levelo_inurba_marseille","lat":43.33601,"lon":5.41035,"is_reserved":false,"is_disabled":false,"rental_uris":{"android":"levelo://app?vid=9822b684-3972-4677-9312-c3bc35624cac","ios":"levelo://app?vid=9822b684-3972-4677-9312-c3bc35624cac"},"vehicle_type_id":"4","last_reported":1760944315,"current_range_meters":20400,"station_id":"ce4bhqh2rcd13ifvqhmg","pricing_plan_id":"cebpf4jnsgd1na2vs0mg"},{"bike_id":"4bc5b268-f3cc-42f9-b1b5-ce5629a64f46","system_id":"levelo_inurba_marseille","lat":43.31035,"lon":5.37923,"is_reserved":false,"is_disabled":true,"rental_uris":{"android":"levelo://app?vid=4bc5b268-f3cc-42f9-b1b5-ce5629a64f46","ios":"levelo://app?vid=4bc5b268-f3cc-42f9-b1b5-ce5629a64f46"},"vehicle_type_id":"4","last_reported":1760944315,"current_range_meters":20400,"station_id":"","pricing_plan_id":"cebpf4jnsgd1na2vs0mg"},{"bike_id":"ed53782e-3d46-428b-87f6-158eb37e575f","system_id":"levelo_inurba_marseille","lat":43.305448,"lon":5.367372,"is_reserved":false,"is_disabled":false,"rental_uris":{"android":"levelo://app?vid=ed53782e-3d46-428b-87f6-158eb37e575f","ios":"levelo://app?vid=ed53782e-3d46-428b-87f6-158eb37e575f"},"vehicle_type_id":"4","last_reported":1760944315,"current_range_meters":20400,"station_id":"ce4bgrp2rcd13ifvqc9g","pricing_plan_id":"cebpf4jnsgd1na2vs0mg"},{"bike_id":"c5da4514-3ec8-4b6c-8163-ee4d76a2dc12","system_id":"levelo_inurba_marseille","lat":43.32425,"lon":5.36566,"is_reserved":false,"is_disabled":true,"rental_uris":{"android":"levelo://app?vid=c5da4514-3ec8-4b6c-8163-ee4d76a2dc12","ios":"levelo://app?vid=c5da4514-3ec8-4b6c-8163-ee4d76a2dc12"},"vehicle_type_id":"4","last_reported":1760944315,"current_range_meters":20400,"station_id":"","pricing_plan_id":"cebpf4jnsgd1na2vs0mg"},{"bike_id":"300b6146-b630-45fd-a80d-f211d48c8e32","system_id":"levelo_inurba_marseille","lat":43.286113,"lon":5.351016,"is_reserved":false,"is_disabled":false,"rental_uris":{"android":"levelo://app?vid=300b6146-b630-45fd-a80d-f211d48c8e32","ios":"levelo://app?vid=300b6146-b630-45fd-a80d-f211d48c8e32"},"vehicle_type_id":"4","last_reported":1760944315,"current_range_meters":20400,"station_id":"","pricing_plan_id":"cebpf4jnsgd1na2vs0mg"},