{"last_updated":1758395169,"ttl":60,"version":"2.2","data":{"bikes":[{"bike_id":"221dfbcc-a045-4e1a-b929-967005db706c","system_id":"levelo_inurba_marseille","lat":43.29369,"lon":5.378433,"is_reserved":false,"is_disabled":false,"rental_uris":{"android":"levelo://app?vid=221dfbcc-a045-4e1a-b929-967005db706c","ios":"levelo://app?vid=221dfbcc-a045-4e1a-b929-967005db706c"},"vehicle_type_id":"4","last_reported":1758395169,"current_range_meters":0,"station_id":"ce4bgjh2rcd13ifvqbf0","pricing_plan_id":"cebpf4jnsgd1na2vs0mg"},{"bike_id":"5e1549e6-879c-42e0-8ce8-b9675e30105c","system_id":"levelo_inurba_marseille","lat":43.21185,"lon":5.3507,"is_reserved":false,"is_disabled":false,"rental_uris":{"android":"levelo://app?vid=5e1549e6-879c-42e0-8ce8-b9675e30105c","ios":"levelo://app?vid=5e1549e6-879c-42e0-8ce8-b9675e30105c"},"vehicle_type_id":"4","last_reported":1758395169,"current_range_meters":2800,"station_id":"st_cvj6sg6p6f1abm77japg","pricing_plan_id":"cebpf4jnsgd1na2vs0mg"},{"bike_id":"1910c873-c559-4068-8d6a-287d6041b7aa","system_id":"levelo_inurba_marseille","lat":43.29633,"lon":5.40601,"is_reserved":false,"is_disabled":false,"rental_uris":{"android":"levelo://app?vid=1910c873-c559-4068-8d6a-287d6041b7aa","ios":"levelo://app?vid=1910c873-c559-4068-8d6a-287d6041b7aa"},"vehicle_type_id":"4","last_reported":1758395169,"current_range_meters":2000,"station_id":"ce4bh0h2rcd13ifvqd60","pricing_plan_id":"cebpf4jnsgd1na2vs0mg"},{"bike_id":"d8789e4c-1240-4c5b-85c2-9630ad7b1aa5","system_id":"levelo_inurba_marseille","lat":43.304306,"lon":5.38901,"is_reserved":false,"is_disabled":false,"rental_uris":{"android":"levelo://app?vid=d8789e4c-1240-4c5b-85c2-9630ad7b1aa5","ios":"levelo://app?vid=d8789e4c-1240-4c5b-85c2-9630ad7b1aa5"},"vehicle_type_id":"4","last_reported":1758395169,"current_range_meters":2800,"station_id":"ce4bgk12rcd13ifvqbi0","pricing_plan_id":"cebpf4jnsgd1na2vs0mg"},{"bike_id":"a67b7ce9-20c4-47ec-8a66-3544765a05f3","system_id":"levelo_inurba_marseille","lat":43.29072,"lon":5.37173,"is_reserved":false,"is_disabled":false,"rental_uris":{"android":"levelo://app?vid=a67b7ce9-20c4-47ec-8a66-3544765a05f3","ios":"levelo://app?vid=a67b7ce9-20c4-47ec-8a66-3544765a05f3"},"vehicle_type_id":"4","last_reported":1758395169,"current_range_meters":2800,"station_id":"ce4bh5p2rcd13ifvqe4g","pricing_plan_id":"cebpf4jnsgd1na2vs0mg"},{"bike_id":"a3eb1dcd-c5cf-4391-8c07-776c1895713a","system_id":"levelo_inurba_marseille","lat":43.24638,"lon":5.43148,"is_reserved":false,"is_disabled":false,"rental_uris":{"android":"levelo://app?vid=a3eb1dcd-c5cf-4391-8c07-776c1895713a","ios":"levelo://app?vid=a3eb1dcd-c5cf-4391-8c07-776c1895713a"},"vehicle_type_id":"4","last_reported":1758395169,"current_range_meters":2800,"station_id":"st_d2m6c4gdas8pm72e190g","pricing_plan_id":"cebpf4jnsgd1na2vs0mg"},{"bike_id":"23e12771-cbc2-47fb-b681-994f3ba7525c","system_id":"levelo_inurba_marseille","lat":43.31988,"lon":5.38163,"is_reserved":false,"is_disabled":false,"rental_uris":{"android":"levelo://app?vid=23e12771-cbc2-47fb-b681-994f3ba7525c","ios":"levelo://app?vid=23e12771-cbc2-47fb-b681-994f3ba7525c"},"vehicle_type_id":"4","last_reported":1758395169,"current_range_meters":2800,"station_id":"ce4bhr12rcd13ifvqhpg","pricing_plan_id":"cebpf4jnsgd1na2vs0mg"},{"bike_id":"dbfbb06f-813d-436e-9cb7-7744a273ccd4","system_id":"levelo_inurba_marseille","lat":43.30884,"lon":5.39658,"is_reserved":false,"is_disabled":false,"rental_uris":{"android":"levelo://app?vid=dbfbb06f-813d-436e-9cb7-7744a273ccd4","ios":"levelo://app?vid=dbfbb06f-813d-436e-9cb7-7744a273ccd4"},"vehicle_type_id":"4","last_reported":1758395169,"current_range_meters":2800,"station_id":"ce4bh012rcd13ifvqcv0","pricing_plan_id":"cebpf4jnsgd1na2vs0mg"},{"bike_id":"85c8e685-734d-4760-966b-86b771a65d9b","system_id":"levelo_inurba_marseille","lat":43.21196,"lon":5.35078,"is_reserved":false,"is_disabled":true,"rental_uris":{"android":"levelo://app?vid=85c8e685-734d-4760-966b-86b771a65d9b","ios":"levelo://app?vid=85c8e685-734d-4760-966b-86b771a65d9b"},"vehicle_type_id":"4","last_reported":1758395169,"current_range_meters":3200,"station_id":"st_cvj6sg6p6f1abm77japg","pricing_plan_id":"cebpf4jnsgd1na2vs0mg"},{"bike_id":"db4286d7-bfe6-4216-aade-ccdf61d587dc","system_id":"levelo_inurba_marseille","lat":43.3014,"lon":5.38792,"is_reserved":false,"is_disabled":true,"rental_uris":{"android":"levelo://app?vid=db4286d7-bfe6-4216-aade-ccdf61d587dc","ios":"levelo://app?vid=db4286d7-bfe6-4216-aade-ccdf61d587dc"},"vehicle_type_id":"4","last_reported":1758395169,"current_range_meters":3200,"station_id":"ce4bghh2rcd13ifvqb60","pricing_plan_id":"cebpf4jnsgd1na2vs0mg"},{"bike_id":"50e1b4d7-57a8-4f20-bb66-afe171a04f97","system_id":"levelo_inurba_marseille","lat":43.2937,"lon":5.37855,"is_reserved":false,"is_disabled":false,"rental_uris":{"android":"levelo://app?vid=50e1b4d7-57a8-4f20-bb66-afe171a04f97","ios":"levelo://app?vid=50e1b4d7-57a8-4f20-bb66-afe171a04f97"},"vehicle_type_id":"4","last_reported":1758395169,"current_range_meters":3200,"station_id":"ce4bgjh2rcd13ifvqbf0","pricing_plan_id":"cebpf4jnsgd1na2vs0mg"},{"bike_id":"577d0e24-bf90-43b8-a759-bea08b7d7e19","system_id":"levelo_inurba_marseille","lat":43.21733,"lon":5.34601,"is_reserved":false,"is_disabled":true,"rental_uris":{"android":"levelo://app?vid=577d0e24-bf90-43b8-a759-bea08b7d7e19","ios":"levelo://app?vid=577d0e24-bf90-43b8-a759-bea08b7d7e19"},"vehicle_type_id":"4","last_reported":1758395169,"current_range_meters":3600,"station_id":"st_cvj6r9ubvosntc0bgbag","pricing_plan_id":"cebpf4jnsgd1na2vs0mg"},{"bike_id":"4bce8f09-463e-4b80-a86c-30833f84105d","system_id":"levelo_inurba_marseille","lat":43.241786,"lon":5.39736,"is_reserved":false,"is_disabled":false,"rental_uris":{"android":"levelo://app?vid=4bce8f09-463e-4b80-a86c-30833f84105d","ios":"levelo://app?vid=4bce8f09-463e-4b80-a86c-30833f84105d"},"vehicle_type_id":"4","last_reported":1758395169,"current_range_meters":2800,"station_id":"ce4bhn12rcd13ifvqgpg","pricing_plan_id":"cebpf4jnsgd1na2vs0mg"},{"bike_id":"d2765ec3-2ccc-42e8-84f5-a8df3ea2be87","system_id":"levelo_inurba_marseille","lat":43.293636,"lon":5.378409,"is_reserved":false,"is_disabled":false,"rental_uris":{"android":"levelo://app?vid=d2765ec3-2ccc-42e8-84f5-a8df3ea2be87","ios":"levelo://app?vid=d2765ec3-2ccc-42e8-84f5-a8df3ea2be87"},"vehicle_type_id":"4","last_reported":1758395169,"current_range_meters":3200,"station_id":"ce4bgjh2rcd13ifvqbf0","pricing_plan_id":"cebpf4jnsgd1na2vs0mg"},{"bike_id":"42470517-742e-487e-9dfa-565e81650f2f","system_id":"levelo_inurba_marseille","lat":43.240783,"lon":5.377557,"is_reserved":false,"is_disabled":false,"rental_uris":{"android":"levelo://app?vid=42470517-742e-487e-9dfa-565e81650f2f","ios":"levelo://app?vid=42470517-742e-487e-9dfa-565e81650f2f"},"vehicle_type_id":"4","last_reported":1758395169,"current_range_meters":3200,"station_id":"ce4bhnp2rcd13ifvqgvg","pricing_plan_id":"cebpf4jnsgd1na2vs0mg"},{"bike_id":"42323a1a-489c-43cb-90ae-c675b27444d5","system_id":"levelo_inurba_marseille","lat":43.21641,"lon":5.34377,"is_reserved":false,"is_disabled":false,"rental_uris":{"android":"levelo://app?vid=42323a1a-489c-43cb-90ae-c675b27444d5","ios":"levelo://app?vid=42323a1a-489c-43cb-90ae-c675b27444d5"},"vehicle_type_id":"4","last_reported":1758395169,"current_range_meters":3200,"station_id":"","pricing_plan_id":"cebpf4jnsgd1na2vs0mg"},{"bike_id":"0319c100-5c9c-49b7-9f2a-421506d58186","system_id":"levelo_inurba_marseille","lat":43.33025,"lon":5.39047,"is_reserved":false,"is_disabled":false,"rental_uris":{"android":"levelo://app?vid=0319c100-5c9c-49b7-9f2a-421506d58186","ios":"levelo://app?vid=0319c100-5c9c-49b7-9f2a-421506d58186"},"vehicle_type_id":"4","last_reported":1758395169,"current_range_meters":2800,"station_id":"ce4bhr92rcd13ifvqhrg","pricing_plan_id":"cebpf4jnsgd1na2vs0mg"},{"bike_id":"2967adcd-609b-4415-afe4-a6edb78238ba","system_id":"levelo_inurba_marseille","lat":43.30091,"lon":5.39076,"is_reserved":false,"is_disabled":false,"rental_uris":{"android":"levelo://app?vid=2967adcd-609b-4415-afe4-a6edb78238ba","ios":"levelo://app?vid=2967adcd-609b-4415-afe4-a6edb78238ba"},"vehicle_type_id":"4","last_reported":1758395169,"current_range_meters":3200,"station_id":"ce4bh192rcd13ifvqdb0","pricing_plan_id":"cebpf4jnsgd1na2vs0mg"},{"bike_id":"3adfa867-e040-49a8-a0f9-4b5f46df1aab","system_id":"levelo_inurba_marseille","lat":43.29278,"lon":5.3685,"is_reserved":false,"is_disabled":false,"rental_uris":{"android":"levelo://app?vid=3adfa867-e040-49a8-a0f9-4b5f46df1aab","ios":"levelo://app?vid=3adfa867-e040-49a8-a0f9-4b5f46df1aab"},"vehicle_type_id":"4","last_reported":1758395169,"current_range_meters":3200,"station_id":"ce4bhbp2rcd13ifvqesg","pricing_plan_id":"cebpf4jnsgd1na2vs0mg"},{"bike_id":"22e57f5f-41af-4b0d-b0f9-23aebb0fccc9","system_id":"levelo_inurba_marseille","lat":43.29965,"lon":5.38494,"is_reserved":false,"is_disabled":false,"rental_uris":{"android":"levelo://app?vid=22e57f5f-41af-4b0d-b0f9-23aebb0fccc9","ios":"levelo://app?vid=22e57f5f-41af-4b0d-b0f9-23aebb0fccc9"},"vehicle_type_id":"4","last_reported":1758395169,"current_range_meters":3600,"station_id":"ce4bgj92rcd13ifvqbd0","pricing_plan_id":"cebpf4jnsgd1na2vs0mg"},{"bike_id":"ed97c40a-0c52-4faf-be9a-fabed94d0ff2","system_id":"levelo_inurba_marseille","lat":43.28468,"lon":5.38411,"is_reserved":false,"is_disabled":false,"rental_uris":{"android":"levelo://app?vid=ed97c40a-0c52-4faf-be9a-fabed94d0ff2","ios":"levelo://app?vid=ed97c40a-0c52-4faf-be9a-fabed94d0ff2"},"vehicle_type_id":"4","last_reported":1758395169,"current_range_meters":3600,"station_id":"ce4bh512rcd13ifvqe3g","pricing_plan_id":"cebpf4jnsgd1na2vs0mg"},{"bike_id":"03bb461a-c8f1-41b4-8cb4-60047907e35f","system_id":"levelo_inurba_marseille","lat":43.23189,"lon":5.39991,"is_reserved":false,"is_disabled":false,"rental_uris":{"android":"levelo://app?vid=03bb461a-c8f1-41b4-8cb4-60047907e35f","ios":"levelo://app?vid=03bb461a-c8f1-41b4-8cb4-60047907e35f"},"vehicle_type_id":"4","last_reported":1758395169,"current_range_meters":3600,"station_id":"ce4bhn12rcd13ifvqgqg","pricing_plan_id":"cebpf4jnsgd1na2vs0mg"},{"bike_id":"05e8132a-7214-45c3-82e8-84bd64ec0ecb","system_id":"levelo_inurba_marseille","lat":43.29095,"lon":5.38121,"is_reserved":false,"is_disabled":false,"rental_uris":{"android":"levelo://app?vid=05e8132a-7214-45c3-82e8-84bd64ec0ecb","ios":"levelo://app?vid=05e8132a-7214-45c3-82e8-84bd64ec0ecb"},"vehicle_type_id":"4","last_reported":1758395169,"current_range_meters":4000,"station_id":"ce4bh512rcd13ifvqe2g","pricing_plan_id":"cebpf4jnsgd1na2vs0mg"},{"bike_id":"bf4a70a9-11a1-40f0-9ac4-fe19c24770ca","system_id":"levelo_inurba_marseille","lat":43.30058,"lon":5.375871,"is_reserved":false,"is_disabled":false,"rental_uris":{"android":"levelo://app?vid=bf4a70a9-11a1-40f0-9ac4-fe19c24770ca","ios":"levelo://app?vid=bf4a70a9-11a1-40f0-9ac4-fe19c24770ca"},"vehicle_type_id":"4","last_reported":1758395169,"current_range_meters":3600,"station_id":"","pricing_plan_id":"cebpf4jnsgd1na2vs0mg"},{"bike_id":"e0c4a626-1af0-4122-9c17-888d8c9d1304","system_id":"levelo_inurba_marseille","lat":43.29535,"lon":5.38541,"is_reserved":false,"is_disabled":false,"rental_uris":{"android":"levelo://app?vid=e0c4a626-1af0-4122-9c17-888d8c9d1304","ios":"levelo://app?vid=e0c4a626-1af0-4122-9c17-888d8c9d1304"},"vehicle_type_id":"4","last_reported":1758395169,"current_range_meters":3600,"station_id":"ce4bgih2rcd13ifvqba0","pricing_plan_id":"cebpf4jnsgd1na2vs0mg"},{"bike_id":"f23545a9-b66c-4850-bf50-80330e4d598b","system_id":"levelo_inurba_marseille","lat":43.31885,"lon":5.40744,"is_reserved":false,"is_disabled":false,"rental_uris":{"android":"levelo://app?vid=f23545a9-b66c-4850-bf50-80330e4d598b","ios":"levelo://app?vid=f23545a9-b66c-4850-bf50-80330e4d598b"},"vehicle_type_id":"4","last_reported":1758395169,"current_range_meters":3600,"station_id":"ce4bhq12rcd13ifvqhig","pricing_plan_id":"cebpf4jnsgd1na2vs0mg"},{"bike_id":"b53485c1-8096-4e7c-b661-1826b15f9324","system_id":"levelo_inurba_marseille","lat":43.217368,"lon":5.346223,"is_reserved":false,"is_disabled":false,"rental_uris":{"android":"levelo://app?vid=b53485c1-8096-4e7c-b661-1826b15f9324","ios":"levelo://app?vid=b53485c1-8096-4e7c-b661-1826b15f9324"},"vehicle_type_id":"4","last_reported":1758395169,"current_range_meters":3600,"station_id":"st_cvj6r9ubvosntc0bgbag","pricing_plan_id":"cebpf4jnsgd1na2vs0mg"},{"bike_id":"2df7c6e3-7848-4123-83a8-239dc7898df0","system_id":"levelo_inurba_marseille","lat":43.317383,"lon":5.423937,"is_reserved":false,"is_disabled":false,"rental_uris":{"android":"levelo://app?vid=2df7c6e3-7848-4123-83a8-239dc7898df0","ios":"levelo://app?vid=2df7c6e3-7848-4123-83a8-239dc7898df0"},"vehicle_type_id":"4","last_reported":1758395169,"current_range_meters":3600,"station_id":"ce4bhp92rcd13ifvqhbg","pricing_plan_id":"cebpf4jnsgd1na2vs0mg"},{"bike_id":"1bd4f27c-587f-4602-849d-29f27fb56339","system_id":"levelo_inurba_marseille","lat":43.262141,"lon":5.375599,"is_reserved":false,"is_disabled":false,"rental_uris":{"android":"levelo://app?vid=1bd4f27c-587f-4602-849d-29f27fb56339","ios":"levelo://app?vid=1bd4f27c-587f-4602-849d-29f27fb56339"},"vehicle_type_id":"4","last_reported":1758395169,"current_range_meters":3600,"station_id":"ce4bhgp2rcd13ifvqfc0","pricing_plan_id":"cebpf4jnsgd1na2vs0mg"},{"bike_id":"a9c3415e-62aa-4cdf-970d-2b88cbf83afe","system_id":"levelo_inurba_marseille","lat":43.2396,"lon":5.36626,"is_reserved":false,"is_disabled":true,"rental_uris":{"android":"levelo://app?vid=a9c3415e-62aa-4cdf-970d-2b88cbf83afe","ios":"levelo://app?vid=a9c3415e-62aa-4cdf-970d-2b88cbf83afe"},"vehicle_type_id":"4","last_reported":1758395169,"current_range_meters":3600,"station_id":"ce4bhi12rcd13ifvqfp0","pricing_plan_id":"cebpf4jnsgd1na2vs0mg"},{"bike_id":"4577a179-97b8-4c77-9969-11557aed3abb","system_id":"levelo_inurba_marseille","lat":43.29536,"lon":5.38556,"is_reserved":false,"is_disabled":false,"rental_uris":{"android":"levelo://app?vid=4577a179-97b8-4c77-9969-11557aed3abb","ios":"levelo://app?vid=4577a179-97b8-4c77-9969-11557aed3abb"},"vehicle_type_id":"4","last_reported":1758395169,"current_range_meters":4000,"station_id":"ce4bgih2rcd13ifvqba0","pricing_plan_id":"cebpf4jnsgd1na2vs0mg"},{"bike_id":"739f0c98-d768-4bad-a69d-1c45451182a4","system_id":"levelo_inurba_marseille","lat":43.2937,"lon":5.37857,"is_reserved":false,"is_disabled":false,"rental_uris":{"android":"levelo://app?vid=739f0c98-d768-4bad-a69d-1c45451182a4","ios":"levelo://app?vid=739f0c98-d768-4bad-a69d-1c45451182a4"},"vehicle_type_id":"4","last_reported":1758395169,"current_range_meters":4000,"station_id":"ce4bgjh2rcd13ifvqbf0","pricing_plan_id":"cebpf4jnsgd1na2vs0mg"},{"bike_id":"892a94cb-7307-4ee4-9eb6-cdfd54557dd8","system_id":"levelo_inurba_marseille","lat":43.29961,"lon":5.38498,"is_reserved":false,"is_disabled":false,"rental_uris":{"android":"levelo://app?vid=892a94cb-7307-4ee4-9eb6-cdfd54557dd8","ios":"levelo://app?vid=892a94cb-7307-4ee4-9eb6-cdfd54557dd8"},"vehicle_type_id":"4","last_reported":1758395169,"current_range_meters":3600,"station_id":"ce4bgj92rcd13ifvqbd0","pricing_plan_id":"cebpf4jnsgd1na2vs0mg"},{"bike_id":"e942f984-8fe7-48d1-8f04-3806656b9996","system_id":"levelo_inurba_marseille","lat":43.33628,"lon":5.37915,"is_reserved":false,"is_disabled":false,"rental_uris":{"android":"levelo://app?vid=e942f984-8fe7-48d1-8f04-3806656b9996","ios":"levelo://app?vid=e942f984-8fe7-48d1-8f04-3806656b9996"},"vehicle_type_id":"4","last_reported":1758395169,"current_range_meters":4000,"station_id":"","pricing_plan_id":"cebpf4jnsgd1na2vs0mg"},{"bike_id":"ba1d3b9c-ad7b-4bc4-a78b-800b3d17a5c5","system_id":"levelo_inurba_marseille","lat":43.26027,"lon":5.37549,"is_reserved":false,"is_disabled":false,"rental_uris":{"android":"levelo://app?vid=ba1d3b9c-ad7b-4bc4-a78b-800b3d17a5c5","ios":"levelo://app?vid=ba1d3b9c-ad7b-4bc4-a78b-800b3d17a5c5"},"vehicle_type_id":"4","last_reported":1758395169,"current_range_meters":3600,"station_id":"ce4bhgh2rcd13ifvqfa0","pricing_plan_id":"cebpf4jnsgd1na2vs0mg"},{"bike_id":"2d55d915-ea38-4a00-b67c-2189d7a8dfae","system_id":"levelo_inurba_marseille","lat":43.29198,"lon":5.39306,"is_reserved":false,"is_disabled":false,"rental_uris":{"android":"levelo://app?vid=2d55d915-ea38-4a00-b67c-2189d7a8dfae","ios":"levelo://app?vid=2d55d915-ea38-4a00-b67c-2189d7a8dfae"},"vehicle_type_id":"4","last_reported":1758395169,"current_range_meters":4400,"station_id":"ce4bh192rcd13ifvqdd0","pricing_plan_id":"cebpf4jnsgd1na2vs0mg"},{"bike_id":"618d815b-a5a1-4a7e-89ec-653134ae0a4f","system_id":"levelo_inurba_marseille","lat":43.21198,"lon":5.35084,"is_reserved":false,"is_disabled":false,"rental_uris":{"android":"levelo://app?vid=618d815b-a5a1-4a7e-89ec-653134ae0a4f","ios":"levelo://app?vid=618d815b-a5a1-4a7e-89ec-653134ae0a4f"},"vehicle_type_id":"4","last_reported":1758395169,"current_range_meters":4400,"station_id":"st_cvj6sg6p6f1abm77japg","pricing_plan_id":"cebpf4jnsgd1na2vs0mg"},{"bike_id":"13631fe9-17b3-4b2d-9a48-037250c1ce2a","system_id":"levelo_inurba_marseille","lat":43.31149,"lon":5.39477,"is_reserved":false,"is_disabled":false,"rental_uris":{"android":"levelo://app?vid=13631fe9-17b3-4b2d-9a48-037250c1ce2a","ios":"levelo://app?vid=13631fe9-17b3-4b2d-9a48-037250c1ce2a"},"vehicle_type_id":"4","last_reported":1758395169,"current_range_meters":4400,"station_id":"","pricing_plan_id":"cebpf4jnsgd1na2vs0mg"},{"bike_id":"73775c7c-283c-4ad1-8a20-b564a09955d5","system_id":"levelo_inurba_marseille","lat":43.285369,"lon":5.359034,"is_reserved":false,"is_disabled":false,"rental_uris":{"android":"levelo://app?vid=73775c7c-283c-4ad1-8a20-b564a09955d5","ios":"levelo://app?vid=73775c7c-283c-4ad1-8a20-b564a09955d5"},"vehicle_type_id":"4","last_reported":1758395169,"current_range_meters":4400,"station_id":"","pricing_plan_id":"cebpf4jnsgd1na2vs0mg"},{"bike_id":"ec56e1c8-eb86-4404-bed2-6e105029ecec","system_id":"levelo_inurba_marseille","lat":43.31165,"lon":5.38717,"is_reserved":false,"is_disabled":false,"rental_uris":{"android":"levelo://app?vid=ec56e1c8-eb86-4404-bed2-6e105029ecec","ios":"levelo://app?vid=ec56e1c8-eb86-4404-bed2-6e105029ecec"},"vehicle_type_id":"4","last_reported":1758395169,"current_range_meters":4400,"station_id":"ce4bgv12rcd13ifvqcp0","pricing_plan_id":"cebpf4jnsgd1na2vs0mg"},{"bike_id":"2f0c84be-e020-4960-9408-7685a02d0829","system_id":"levelo_inurba_marseille","lat":43.21742,"lon":5.34605,"is_reserved":false,"is_disabled":true,"rental_uris":{"android":"levelo://app?vid=2f0c84be-e020-4960-9408-7685a02d0829","ios":"levelo://app?vid=2f0c84be-e020-4960-9408-7685a02d0829"},"vehicle_type_id":"4","last_reported":1758395169,"current_range_meters":4400,"station_id":"st_cvj6r9ubvosntc0bgbag","pricing_plan_id":"cebpf4jnsgd1na2vs0mg"},{"bike_id":"b56e34d5-403d-4526-a33a-a87f58ac78d0","system_id":"levelo_inurba_marseille","lat":43.26805,"lon":5.40269,"is_reserved":false,"is_disabled":false,"rental_uris":{"android":"levelo://app?vid=b56e34d5-403d-4526-a33a-a87f58ac78d0","ios":"levelo://app?vid=b56e34d5-403d-4526-a33a-a87f58ac78d0"},"vehicle_type_id":"4","last_reported":1758395169,"current_range_meters":4000,"station_id":"ce501612rcd8frsf0b60","pricing_plan_id":"cebpf4jnsgd1na2vs0mg"},{"bike_id":"2a7a6f23-5e7b-41b6-bf2b-2f3b62afa0ed","system_id":"levelo_inurba_marseille","lat":43.29269,"lon":5.384343,"is_reserved":false,"is_disabled":false,"rental_uris":{"android":"levelo://app?vid=2a7a6f23-5e7b-41b6-bf2b-2f3b62afa0ed","ios":"levelo://app?vid=2a7a6f23-5e7b-41b6-bf2b-2f3b62afa0ed"},"vehicle_type_id":"4","last_reported":1758395169,"current_range_meters":4400,"station_id":"ce4bh692rcd13ifvqea0","pricing_plan_id":"cebpf4jnsgd1na2vs0mg"},{"bike_id":"b74182f7-6650-4148-ac22-3aaa43836632","system_id":"levelo_inurba_marseille","lat":43.29711,"lon":5.366046,"is_reserved":false,"is_disabled":false,"rental_uris":{"android":"levelo://app?vid=b74182f7-6650-4148-ac22-3aaa43836632","ios":"levelo://app?vid=b74182f7-6650-4148-ac22-3aaa43836632"},"vehicle_type_id":"4","last_reported":1758395169,"current_range_meters":3600,"station_id":"ce4bgn12rcd13ifvqbt0","pricing_plan_id":"cebpf4jnsgd1na2vs0mg"},{"bike_id":"095cd67b-0988-40ff-ab25-7cbfbd298c40","system_id":"levelo_inurba_marseille","lat":43.30942,"lon":5.39041,"is_reserved":false,"is_disabled":false,"rental_uris":{"android":"levelo://app?vid=095cd67b-0988-40ff-ab25-7cbfbd298c40","ios":"levelo://app?vid=095cd67b-0988-40ff-ab25-7cbfbd298c40"},"vehicle_type_id":"4","last_reported":1758395169,"current_range_meters":4800,"station_id":"ce4bgup2rcd13ifvqco0","pricing_plan_id":"cebpf4jnsgd1na2vs0mg"},{"bike_id":"cad97885-b582-49b2-8b83-0a6c3d079fc6","system_id":"levelo_inurba_marseille","lat":43.297018,"lon":5.365873,"is_reserved":false,"is_disabled":false,"rental_uris":{"android":"levelo://app?vid=cad97885-b582-49b2-8b83-0a6c3d079fc6","ios":"levelo://app?vid=cad97885-b582-49b2-8b83-0a6c3d079fc6"},"vehicle_type_id":"4","last_reported":1758395169,"current_range_meters":4800,"station_id":"ce4bgn12rcd13ifvqbt0","pricing_plan_id":"cebpf4jnsgd1na2vs0mg"},{"bike_id":"cd8fa31a-3c9f-42fe-a96d-49ed0a08819b","system_id":"levelo_inurba_marseille","lat":43.29264,"lon":5.38431,"is_reserved":false,"is_disabled":false,"rental_uris":{"android":"levelo://app?vid=cd8fa31a-3c9f-42fe-a96d-49ed0a08819b","ios":"levelo://app?vid=cd8fa31a-3c9f-42fe-a96d-49ed0a08819b"},"vehicle_type_id":"4","last_reported":1758395169,"current_range_meters":4800,"station_id":"ce4bh692rcd13ifvqea0","pricing_plan_id":"cebpf4jnsgd1na2vs0mg"},{"bike_id":"dd54508b-cebc-429e-947d-94cace74c022","system_id":"levelo_inurba_marseille","lat":43.23955,"lon":5.36613,"is_reserved":false,"is_disabled":true,"rental_uris":{"android":"levelo://app?vid=dd54508b-cebc-429e-947d-94cace74c022","ios":"levelo://app?vid=dd54508b-cebc-429e-947d-94cace74c022"},"vehicle_type_id":"4","last_reported":1758395169,"current_range_meters":4800,"station_id":"ce4bhi12rcd13ifvqfp0","pricing_plan_id":"cebpf4jnsgd1na2vs0mg"},{"bike_id":"6af9e05d-f779-452b-84c2-f4cf4fd6d486","system_id":"levelo_inurba_marseille","lat":43.30901,"lon":5.39658,"is_reserved":false,"is_disabled":false,"rental_uris":{"android":"levelo://app?vid=6af9e05d-f779-452b-84c2-f4cf4fd6d486","ios":"levelo://app?vid=6af9e05d-f779-452b-84c2-f4cf4fd6d486"},"vehicle_type_id":"4","last_reported":1758395169,"current_range_meters":4800,"station_id":"ce4bh012rcd13ifvqcv0","pricing_plan_id":"cebpf4jnsgd1na2vs0mg"},{"bike_id":"b9e66663-1555-4efb-b801-0649b1000e1b","system_id":"levelo_inurba_marseille","lat":43.32368,"lon":5.36747,"is_reserved":false,"is_disabled":false,"rental_uris":{"android":"levelo://app?vid=b9e66663-1555-4efb-b801-0649b1000e1b","ios":"levelo://app?vid=b9e66663-1555-4efb-b801-0649b1000e1b"},"vehicle_type_id":"4","last_reported":1758395169,"current_range_meters":4800,"station_id":"ce4bhsh2rcd13ifvqi2g","pricing_plan_id":"cebpf4jnsgd1na2vs0mg"},{"bike_id":"788a6880-e20c-423f-afc9-253f11712902","system_id":"levelo_inurba_marseille","lat":43.299832,"lon":5.371805,"is_reserved":false,"is_disabled":false,"rental_uris":{"android":"levelo://app?vid=788a6880-e20c-423f-afc9-253f11712902","ios":"levelo://app?vid=788a6880-e20c-423f-afc9-253f11712902"},"vehicle_type_id":"4","last_reported":1758395169,"current_range_meters":4800,"station_id":"ce4bgr92rcd13ifvqc7g","pricing_plan_id":"cebpf4jnsgd1na2vs0mg"},{"bike_id":"cb83822e-93dc-43d1-9279-f27ec023780c","system_id":"levelo_inurba_marseille","lat":43.29297,"lon":5.36859,"is_reserved":false,"is_disabled":false,"rental_uris":{"android":"levelo://app?vid=cb83822e-93dc-43d1-9279-f27ec023780c","ios":"levelo://app?vid=cb83822e-93dc-43d1-9279-f27ec023780c"},"vehicle_type_id":"4","last_reported":1758395169,"current_range_meters":4800,"station_id":"ce4bhbp2rcd13ifvqesg","pricing_plan_id":"cebpf4jnsgd1na2vs0mg"},{"bike_id":"4a42c3a7-350b-4a49-9c56-c4b3d7531c94","system_id":"levelo_inurba_marseille","lat":43.305533,"lon":5.366949,"is_reserved":false,"is_disabled":false,"rental_uris":{"android":"levelo://app?vid=4a42c3a7-350b-4a49-9c56-c4b3d7531c94","ios":"levelo://app?vid=4a42c3a7-350b-4a49-9c56-c4b3d7531c94"},"vehicle_type_id":"4","last_reported":1758395169,"current_range_meters":4800,"station_id":"ce4bgrp2rcd13ifvqc9g","pricing_plan_id":"cebpf4jnsgd1na2vs0mg"},{"bike_id":"25dbb859-78c5-4eda-811a-9a3e96dea219","system_id":"levelo_inurba_marseille","lat":43.2999,"lon":5.37185,"is_reserved":false,"is_disabled":false,"rental_uris":{"android":"levelo://app?vid=25dbb859-78c5-4eda-811a-9a3e96dea219","ios":"levelo://app?vid=25dbb859-78c5-4eda-811a-9a3e96dea219"},"vehicle_type_id":"4","last_reported":1758395169,"current_range_meters":4800,"station_id":"ce4bgr92rcd13ifvqc7g","pricing_plan_id":"cebpf4jnsgd1na2vs0mg"},{"bike_id":"23aefec5-fc4f-43cb-b9cd-f617d7043af5","system_id":"levelo_inurba_marseille","lat":43.28666,"lon":5.38662,"is_reserved":false,"is_disabled":false,"rental_uris":{"android":"levelo://app?vid=23aefec5-fc4f-43cb-b9cd-f617d7043af5","ios":"levelo://app?vid=23aefec5-fc4f-43cb-b9cd-f617d7043af5"},"vehicle_type_id":"4","last_reported":1758395169,"current_range_meters":4800,"station_id":"ce4bh492rcd13ifvqdug","pricing_plan_id":"cebpf4jnsgd1na2vs0mg"},{"bike_id":"eb748738-5bdc-4dcb-80a0-6e63cf7af9b3","system_id":"levelo_inurba_marseille","lat":43.28155,"lon":5.42642,"is_reserved":false,"is_disabled":false,"rental_uris":{"android":"levelo://app?vid=eb748738-5bdc-4dcb-80a0-6e63cf7af9b3","ios":"levelo://app?vid=eb748738-5bdc-4dcb-80a0-6e63cf7af9b3"},"vehicle_type_id":"4","last_reported":1758395169,"current_range_meters":5600,"station_id":"ce4bhnh2rcd13ifvqgug","pricing_plan_id":"cebpf4jnsgd1na2vs0mg"},{"bike_id":"e8aa4b24-58bd-442c-9943-2a45210da03a","system_id":"levelo_inurba_marseille","lat":43.27375,"lon":5.36257,"is_reserved":false,"is_disabled":false,"rental_uris":{"android":"levelo://app?vid=e8aa4b24-58bd-442c-9943-2a45210da03a","ios":"levelo://app?vid=e8aa4b24-58bd-442c-9943-2a45210da03a"},"vehicle_type_id":"4","last_reported":1758395169,"current_range_meters":5600,"station_id":"ce4bhbh2rcd13ifvqeo0","pricing_plan_id":"cebpf4jnsgd1na2vs0mg"},{"bike_id":"6dc49f8f-31b8-485c-b489-e3fd253e6676","system_id":"levelo_inurba_marseille","lat":43.326585,"lon":5.409859,"is_reserved":false,"is_disabled":true,"rental_uris":{"android":"levelo://app?vid=6dc49f8f-31b8-485c-b489-e3fd253e6676","ios":"levelo://app?vid=6dc49f8f-31b8-485c-b489-e3fd253e6676"},"vehicle_type_id":"4","last_reported":1758395169,"current_range_meters":5600,"station_id":"ce4bhpp2rcd13ifvqhgg","pricing_plan_id":"cebpf4jnsgd1na2vs0mg"},{"bike_id":"e5ed2bf9-0d54-457d-b4a5-05bffe4da8a6","system_id":"levelo_inurba_marseille","lat":43.31527,"lon":5.38039,"is_reserved":false,"is_disabled":false,"rental_uris":{"android":"levelo://app?vid=e5ed2bf9-0d54-457d-b4a5-05bffe4da8a6","ios":"levelo://app?vid=e5ed2bf9-0d54-457d-b4a5-05bffe4da8a6"},"vehicle_type_id":"4","last_reported":1758395169,"current_range_meters":5600,"station_id":"ce4bhsp2rcd13ifvqi50","pricing_plan_id":"cebpf4jnsgd1na2vs0mg"},{"bike_id":"791b28e4-b539-4374-a455-82f2bd26e971","system_id":"levelo_inurba_marseille","lat":43.29099,"lon":5.38152,"is_reserved":false,"is_disabled":false,"rental_uris":{"android":"levelo://app?vid=791b28e4-b539-4374-a455-82f2bd26e971","ios":"levelo://app?vid=791b28e4-b539-4374-a455-82f2bd26e971"},"vehicle_type_id":"4","last_reported":1758395169,"current_range_meters":4800,"station_id":"ce4bh512rcd13ifvqe2g","pricing_plan_id":"cebpf4jnsgd1na2vs0mg"},{"bike_id":"bf9deabc-977b-4273-8e7f-653b2346cb01","system_id":"levelo_inurba_marseille","lat":43.25103,"lon":5.3955,"is_reserved":false,"is_disabled":false,"rental_uris":{"android":"levelo://app?vid=bf9deabc-977b-4273-8e7f-653b2346cb01","ios":"levelo://app?vid=bf9deabc-977b-4273-8e7f-653b2346cb01"},"vehicle_type_id":"4","last_reported":1758395169,"current_range_meters":5600,"station_id":"ce4bhm12rcd13ifvqgkg","pricing_plan_id":"cebpf4jnsgd1na2vs0mg"},{"bike_id":"c5fe929e-25ea-4a5a-b8ba-181e848eb660","system_id":"levelo_inurba_marseille","lat":43.29303,"lon":5.37458,"is_reserved":false,"is_disabled":false,"rental_uris":{"android":"levelo://app?vid=c5fe929e-25ea-4a5a-b8ba-181e848eb660","ios":"levelo://app?vid=c5fe929e-25ea-4a5a-b8ba-181e848eb660"},"vehicle_type_id":"4","last_reported":1758395169,"current_range_meters":5600,"station_id":"ce4bgi12rcd13ifvqb70","pricing_plan_id":"cebpf4jnsgd1na2vs0mg"},{"bike_id":"cc4930d9-9463-44d8-9311-a96936bd699a","system_id":"levelo_inurba_marseille","lat":43.25816,"lon":5.39434,"is_reserved":false,"is_disabled":false,"rental_uris":{"android":"levelo://app?vid=cc4930d9-9463-44d8-9311-a96936bd699a","ios":"levelo://app?vid=cc4930d9-9463-44d8-9311-a96936bd699a"},"vehicle_type_id":"4","last_reported":1758395169,"current_range_meters":5600,"station_id":"ce4bhip2rcd13ifvqft0","pricing_plan_id":"cebpf4jnsgd1na2vs0mg"},{"bike_id":"f9316735-e17b-4ce1-8fbe-cd6eab7e2ddf","system_id":"levelo_inurba_marseille","lat":43.29554,"lon":5.42293,"is_reserved":false,"is_disabled":false,"rental_uris":{"android":"levelo://app?vid=f9316735-e17b-4ce1-8fbe-cd6eab7e2ddf","ios":"levelo://app?vid=f9316735-e17b-4ce1-8fbe-cd6eab7e2ddf"},"vehicle_type_id":"4","last_reported":1758395169,"current_range_meters":6000,"station_id":"ce4bhph2rcd13ifvqhdg","pricing_plan_id":"cebpf4jnsgd1na2vs0mg"},{"bike_id":"f605a5a2-2761-41b6-bf1d-e3bb017324fd","system_id":"levelo_inurba_marseille","lat":43.3059,"lon":5.39356,"is_reserved":false,"is_disabled":false,"rental_uris":{"android":"levelo://app?vid=f605a5a2-2761-41b6-bf1d-e3bb017324fd","ios":"levelo://app?vid=f605a5a2-2761-41b6-bf1d-e3bb017324fd"},"vehicle_type_id":"4","last_reported":1758395169,"current_range_meters":6000,"station_id":"ce4bh0p2rcd13ifvqd80","pricing_plan_id":"cebpf4jnsgd1na2vs0mg"},{"bike_id":"04ac4072-76af-404d-8a72-a8ffe8ae8fcc","system_id":"levelo_inurba_marseille","lat":43.32578,"lon":5.39201,"is_reserved":false,"is_disabled":false,"rental_uris":{"android":"levelo://app?vid=04ac4072-76af-404d-8a72-a8ffe8ae8fcc","ios":"levelo://app?vid=04ac4072-76af-404d-8a72-a8ffe8ae8fcc"},"vehicle_type_id":"4","last_reported":1758395169,"current_range_meters":6000,"station_id":"","pricing_plan_id":"cebpf4jnsgd1na2vs0mg"},{"bike_id":"7d2d163d-9aec-4bcb-b18e-7137de8e6d53","system_id":"levelo_inurba_marseille","lat":43.29369,"lon":5.37852,"is_reserved":false,"is_disabled":false,"rental_uris":{"android":"levelo://app?vid=7d2d163d-9aec-4bcb-b18e-7137de8e6d53","ios":"levelo://app?vid=7d2d163d-9aec-4bcb-b18e-7137de8e6d53"},"vehicle_type_id":"4","last_reported":1758395169,"current_range_meters":6000,"station_id":"ce4bgjh2rcd13ifvqbf0","pricing_plan_id":"cebpf4jnsgd1na2vs0mg"},{"bike_id":"1c851788-ac09-42a0-8fad-d564999199a5","system_id":"levelo_inurba_marseille","lat":43.2957,"lon":5.39964,"is_reserved":false,"is_disabled":false,"rental_uris":{"android":"levelo://app?vid=1c851788-ac09-42a0-8fad-d564999199a5","ios":"levelo://app?vid=1c851788-ac09-42a0-8fad-d564999199a5"},"vehicle_type_id":"4","last_reported":1758395169,"current_range_meters":6400,"station_id":"ce4bh312rcd13ifvqdj0","pricing_plan_id":"cebpf4jnsgd1na2vs0mg"},{"bike_id":"2f125b68-68da-4d1b-b5c3-eebfdc2701be","system_id":"levelo_inurba_marseille","lat":43.29266,"lon":5.38443,"is_reserved":false,"is_disabled":false,"rental_uris":{"android":"levelo://app?vid=2f125b68-68da-4d1b-b5c3-eebfdc2701be","ios":"levelo://app?vid=2f125b68-68da-4d1b-b5c3-eebfdc2701be"},"vehicle_type_id":"4","last_reported":1758395169,"current_range_meters":6400,"station_id":"ce4bh692rcd13ifvqea0","pricing_plan_id":"cebpf4jnsgd1na2vs0mg"},{"bike_id":"7b3fa1df-7851-4b7d-b04d-c1eb1b6a1e30","system_id":"levelo_inurba_marseille","lat":43.30635,"lon":5.40077,"is_reserved":false,"is_disabled":false,"rental_uris":{"android":"levelo://app?vid=7b3fa1df-7851-4b7d-b04d-c1eb1b6a1e30","ios":"levelo://app?vid=7b3fa1df-7851-4b7d-b04d-c1eb1b6a1e30"},"vehicle_type_id":"4","last_reported":1758395169,"current_range_meters":6000,"station_id":"ce4bh112rcd13ifvqda0","pricing_plan_id":"cebpf4jnsgd1na2vs0mg"},{"bike_id":"26d84eee-3090-45bd-a018-e378f71e309b","system_id":"levelo_inurba_marseille","lat":43.29262,"lon":5.38437,"is_reserved":false,"is_disabled":false,"rental_uris":{"android":"levelo://app?vid=26d84eee-3090-45bd-a018-e378f71e309b","ios":"levelo://app?vid=26d84eee-3090-45bd-a018-e378f71e309b"},"vehicle_type_id":"4","last_reported":1758395169,"current_range_meters":6000,"station_id":"ce4bh692rcd13ifvqea0","pricing_plan_id":"cebpf4jnsgd1na2vs0mg"},{"bike_id":"1fb11dcf-8d65-46a1-979a-bcd84a1435f6","system_id":"levelo_inurba_marseille","lat":43.30213,"lon":5.39473,"is_reserved":false,"is_disabled":false,"rental_uris":{"android":"levelo://app?vid=1fb11dcf-8d65-46a1-979a-bcd84a1435f6","ios":"levelo://app?vid=1fb11dcf-8d65-46a1-979a-bcd84a1435f6"},"vehicle_type_id":"4","last_reported":1758395169,"current_range_meters":3200,"station_id":"ce4bh0p2rcd13ifvqd70","pricing_plan_id":"cebpf4jnsgd1na2vs0mg"},{"bike_id":"2dc10f8e-2750-43ff-96c2-4440a4031993","system_id":"levelo_inurba_marseille","lat":43.25862,"lon":5.39901,"is_reserved":false,"is_disabled":false,"rental_uris":{"android":"levelo://app?vid=2dc10f8e-2750-43ff-96c2-4440a4031993","ios":"levelo://app?vid=2dc10f8e-2750-43ff-96c2-4440a4031993"},"vehicle_type_id":"4","last_reported":1758395169,"current_range_meters":6000,"station_id":"ce4bhl92rcd13ifvqghg","pricing_plan_id":"cebpf4jnsgd1na2vs0mg"},{"bike_id":"7e977cd1-cd3d-4f43-93d3-fe579cec95d8","system_id":"levelo_inurba_marseille","lat":43.29258,"lon":5.3843,"is_reserved":false,"is_disabled":false,"rental_uris":{"android":"levelo://app?vid=7e977cd1-cd3d-4f43-93d3-fe579cec95d8","ios":"levelo://app?vid=7e977cd1-cd3d-4f43-93d3-fe579cec95d8"},"vehicle_type_id":"4","last_reported":1758395169,"current_range_meters":6800,"station_id":"ce4bh692rcd13ifvqea0","pricing_plan_id":"cebpf4jnsgd1na2vs0mg"},{"bike_id":"873ca1be-7143-4928-abdc-c9f329df865e","system_id":"levelo_inurba_marseille","lat":43.31995,"lon":5.38169,"is_reserved":false,"is_disabled":false,"rental_uris":{"android":"levelo://app?vid=873ca1be-7143-4928-abdc-c9f329df865e","ios":"levelo://app?vid=873ca1be-7143-4928-abdc-c9f329df865e"},"vehicle_type_id":"4","last_reported":1758395169,"current_range_meters":6800,"station_id":"ce4bhr12rcd13ifvqhpg","pricing_plan_id":"cebpf4jnsgd1na2vs0mg"},{"bike_id":"5191aa49-3539-4fb3-9c39-a91714d6209d","system_id":"levelo_inurba_marseille","lat":43.29049,"lon":5.35918,"is_reserved":false,"is_disabled":false,"rental_uris":{"android":"levelo://app?vid=5191aa49-3539-4fb3-9c39-a91714d6209d","ios":"levelo://app?vid=5191aa49-3539-4fb3-9c39-a91714d6209d"},"vehicle_type_id":"4","last_reported":1758395169,"current_range_meters":6800,"station_id":"ce4bha92rcd13ifvqeg0","pricing_plan_id":"cebpf4jnsgd1na2vs0mg"},{"bike_id":"8188efe9-38e1-4288-a0be-16430cbc8ac6","system_id":"levelo_inurba_marseille","lat":43.32239,"lon":5.38283,"is_reserved":false,"is_disabled":false,"rental_uris":{"android":"levelo://app?vid=8188efe9-38e1-4288-a0be-16430cbc8ac6","ios":"levelo://app?vid=8188efe9-38e1-4288-a0be-16430cbc8ac6"},"vehicle_type_id":"4","last_reported":1758395169,"current_range_meters":6800,"station_id":"","pricing_plan_id":"cebpf4jnsgd1na2vs0mg"},{"bike_id":"c7a709fa-0baf-4a44-b63d-b0f2ecbfab47","system_id":"levelo_inurba_marseille","lat":43.22931,"lon":5.35374,"is_reserved":false,"is_disabled":false,"rental_uris":{"android":"levelo://app?vid=c7a709fa-0baf-4a44-b63d-b0f2ecbfab47","ios":"levelo://app?vid=c7a709fa-0baf-4a44-b63d-b0f2ecbfab47"},"vehicle_type_id":"4","last_reported":1758395169,"current_range_meters":6800,"station_id":"cpo3532slgdg3j2ikp40","pricing_plan_id":"cebpf4jnsgd1na2vs0mg"},{"bike_id":"18f14e8c-b281-464c-b02c-6a1a3ba06e05","system_id":"levelo_inurba_marseille","lat":43.292722,"lon":5.384336,"is_reserved":false,"is_disabled":false,"rental_uris":{"android":"levelo://app?vid=18f14e8c-b281-464c-b02c-6a1a3ba06e05","ios":"levelo://app?vid=18f14e8c-b281-464c-b02c-6a1a3ba06e05"},"vehicle_type_id":"4","last_reported":1758395169,"current_range_meters":6800,"station_id":"ce4bh692rcd13ifvqea0","pricing_plan_id":"cebpf4jnsgd1na2vs0mg"},{"bike_id":"08dd9bd8-f7be-453a-809b-6ca37de0a4e8","system_id":"levelo_inurba_marseille","lat":43.293,"lon":5.37159,"is_reserved":false,"is_disabled":false,"rental_uris":{"android":"levelo://app?vid=08dd9bd8-f7be-453a-809b-6ca37de0a4e8","ios":"levelo://app?vid=08dd9bd8-f7be-453a-809b-6ca37de0a4e8"},"vehicle_type_id":"4","last_reported":1758395169,"current_range_meters":6800,"station_id":"ce4bgh92rcd13ifvqb40","pricing_plan_id":"cebpf4jnsgd1na2vs0mg"},{"bike_id":"b22713a6-adcc-4ab9-b687-96b1f8575a53","system_id":"levelo_inurba_marseille","lat":43.3128,"lon":5.36889,"is_reserved":false,"is_disabled":false,"rental_uris":{"android":"levelo://app?vid=b22713a6-adcc-4ab9-b687-96b1f8575a53","ios":"levelo://app?vid=b22713a6-adcc-4ab9-b687-96b1f8575a53"},"vehicle_type_id":"4","last_reported":1758395169,"current_range_meters":6800,"station_id":"ce4bgl92rcd13ifvqbq0","pricing_plan_id":"cebpf4jnsgd1na2vs0mg"},{"bike_id":"b79d3b68-881e-4fd2-8763-875b52bebcce","system_id":"levelo_inurba_marseille","lat":43.28658,"lon":5.3636,"is_reserved":false,"is_disabled":false,"rental_uris":{"android":"levelo://app?vid=b79d3b68-881e-4fd2-8763-875b52bebcce","ios":"levelo://app?vid=b79d3b68-881e-4fd2-8763-875b52bebcce"},"vehicle_type_id":"4","last_reported":1758395169,"current_range_meters":6800,"station_id":"ce4bhah2rcd13ifvqej0","pricing_plan_id":"cebpf4jnsgd1na2vs0mg"},{"bike_id":"c5e2fc2b-f415-4dec-83d1-6ce7d98d1f70","system_id":"levelo_inurba_marseille","lat":43.29269,"lon":5.38436,"is_reserved":false,"is_disabled":false,"rental_uris":{"android":"levelo://app?vid=c5e2fc2b-f415-4dec-83d1-6ce7d98d1f70","ios":"levelo://app?vid=c5e2fc2b-f415-4dec-83d1-6ce7d98d1f70"},"vehicle_type_id":"4","last_reported":1758395169,"current_range_meters":6400,"station_id":"ce4bh692rcd13ifvqea0","pricing_plan_id":"cebpf4jnsgd1na2vs0mg"},{"bike_id":"ffa0e1ec-fd6c-4a58-b080-16d8c0d7a416","system_id":"levelo_inurba_marseille","lat":43.30944,"lon":5.39038,"is_reserved":false,"is_disabled":false,"rental_uris":{"android":"levelo://app?vid=ffa0e1ec-fd6c-4a58-b080-16d8c0d7a416","ios":"levelo://app?vid=ffa0e1ec-fd6c-4a58-b080-16d8c0d7a416"},"vehicle_type_id":"4","last_reported":1758395169,"current_range_meters":6800,"station_id":"ce4bgup2rcd13ifvqco0","pricing_plan_id":"cebpf4jnsgd1na2vs0mg"},{"bike_id":"c3268ca8-fe44-40c1-85d6-936469bcf798","system_id":"levelo_inurba_marseille","lat":43.23191,"lon":5.3555,"is_reserved":false,"is_disabled":false,"rental_uris":{"android":"levelo://app?vid=c3268ca8-fe44-40c1-85d6-936469bcf798","ios":"levelo://app?vid=c3268ca8-fe44-40c1-85d6-936469bcf798"},"vehicle_type_id":"4","last_reported":1758395169,"current_range_meters":6400,"station_id":"ce4bhu92rcd13ifvqi70","pricing_plan_id":"cebpf4jnsgd1na2vs0mg"},{"bike_id":"2c46598e-626d-4dc7-9951-d799d11aa2ee","system_id":"levelo_inurba_marseille","lat":43.28666,"lon":5.38674,"is_reserved":false,"is_disabled":false,"rental_uris":{"android":"levelo://app?vid=2c46598e-626d-4dc7-9951-d799d11aa2ee","ios":"levelo://app?vid=2c46598e-626d-4dc7-9951-d799d11aa2ee"},"vehicle_type_id":"4","last_reported":1758395169,"current_range_meters":6400,"station_id":"ce4bh492rcd13ifvqdug","pricing_plan_id":"cebpf4jnsgd1na2vs0mg"},{"bike_id":"3c9735e9-fd7e-4079-8199-725760347837","system_id":"levelo_inurba_marseille","lat":43.211938,"lon":5.350715,"is_reserved":false,"is_disabled":false,"rental_uris":{"android":"levelo://app?vid=3c9735e9-fd7e-4079-8199-725760347837","ios":"levelo://app?vid=3c9735e9-fd7e-4079-8199-725760347837"},"vehicle_type_id":"4","last_reported":1758395169,"current_range_meters":7200,"station_id":"st_cvj6sg6p6f1abm77japg","pricing_plan_id":"cebpf4jnsgd1na2vs0mg"},{"bike_id":"27aa108b-afd9-40e7-89c8-470c3e0fac59","system_id":"levelo_inurba_marseille","lat":43.292609,"lon":5.384374,"is_reserved":false,"is_disabled":false,"rental_uris":{"android":"levelo://app?vid=27aa108b-afd9-40e7-89c8-470c3e0fac59","ios":"levelo://app?vid=27aa108b-afd9-40e7-89c8-470c3e0fac59"},"vehicle_type_id":"4","last_reported":1758395169,"current_range_meters":7200,"station_id":"ce4bh692rcd13ifvqea0","pricing_plan_id":"cebpf4jnsgd1na2vs0mg"},{"bike_id":"e1065c32-ac19-477b-812a-39f964d50769","system_id":"levelo_inurba_marseille","lat":43.23181,"lon":5.35521,"is_reserved":false,"is_disabled":true,"rental_uris":{"android":"levelo://app?vid=e1065c32-ac19-477b-812a-39f964d50769","ios":"levelo://app?vid=e1065c32-ac19-477b-812a-39f964d50769"},"vehicle_type_id":"4","last_reported":1758395169,"current_range_meters":7200,"station_id":"ce4bhu92rcd13ifvqi70","pricing_plan_id":"cebpf4jnsgd1na2vs0mg"},{"bike_id":"3542d863-d64b-45d7-a301-ddb564ef7c4a","system_id":"levelo_inurba_marseille","lat":43.29262,"lon":5.38444,"is_reserved":false,"is_disabled":false,"rental_uris":{"android":"levelo://app?vid=3542d863-d64b-45d7-a301-ddb564ef7c4a","ios":"levelo://app?vid=3542d863-d64b-45d7-a301-ddb564ef7c4a"},"vehicle_type_id":"4","last_reported":1758395169,"current_range_meters":7200,"station_id":"ce4bh692rcd13ifvqea0","pricing_plan_id":"cebpf4jnsgd1na2vs0mg"},{"bike_id":"b5ef4ea7-aa9d-4d0b-809b-fa8a6dad2034","system_id":"levelo_inurba_marseille","lat":43.29525,"lon":5.38555,"is_reserved":false,"is_disabled":false,"rental_uris":{"android":"levelo://app?vid=b5ef4ea7-aa9d-4d0b-809b-fa8a6dad2034","ios":"levelo://app?vid=b5ef4ea7-aa9d-4d0b-809b-fa8a6dad2034"},"vehicle_type_id":"4","last_reported":1758395169,"current_range_meters":7200,"station_id":"ce4bgih2rcd13ifvqba0","pricing_plan_id":"cebpf4jnsgd1na2vs0mg"},{"bike_id":"5bb42022-0e19-48bc-a5b4-218bb1d7482e","system_id":"levelo_inurba_marseille","lat":43.31251,"lon":5.37743,"is_reserved":false,"is_disabled":false,"rental_uris":{"android":"levelo://app?vid=5bb42022-0e19-48bc-a5b4-218bb1d7482e","ios":"levelo://app?vid=5bb42022-0e19-48bc-a5b4-218bb1d7482e"},"vehicle_type_id":"4","last_reported":1758395169,"current_range_meters":7200,"station_id":"","pricing_plan_id":"cebpf4jnsgd1na2vs0mg"},{"bike_id":"4082b9a6-8680-43f0-98d7-4cebf14cb13e","system_id":"levelo_inurba_marseille","lat":43.29526,"lon":5.39054,"is_reserved":false,"is_disabled":false,"rental_uris":{"android":"levelo://app?vid=4082b9a6-8680-43f0-98d7-4cebf14cb13e","ios":"levelo://app?vid=4082b9a6-8680-43f0-98d7-4cebf14cb13e"},"vehicle_type_id":"4","last_reported":1758395169,"current_range_meters":7200,"station_id":"ce4bh3p2rcd13ifvqdp0","pricing_plan_id":"cebpf4jnsgd1na2vs0mg"},{"bike_id":"bf6e6d27-c09e-4725-9fbc-20073fd5a515","system_id":"levelo_inurba_marseille","lat":43.289376,"lon":5.396214,"is_reserved":false,"is_disabled":false,"rental_uris":{"android":"levelo://app?vid=bf6e6d27-c09e-4725-9fbc-20073fd5a515","ios":"levelo://app?vid=bf6e6d27-c09e-4725-9fbc-20073fd5a515"},"vehicle_type_id":"4","last_reported":1758395169,"current_range_meters":7200,"station_id":"","pricing_plan_id":"cebpf4jnsgd1na2vs0mg"},{"bike_id":"c555b165-d1aa-44eb-940a-02a9fc561c3c","system_id":"levelo_inurba_marseille","lat":43.29556,"lon":5.42289,"is_reserved":false,"is_disabled":false,"rental_uris":{"android":"levelo://app?vid=c555b165-d1aa-44eb-940a-02a9fc561c3c","ios":"levelo://app?vid=c555b165-d1aa-44eb-940a-02a9fc561c3c"},"vehicle_type_id":"4","last_reported":1758395169,"current_range_meters":6800,"station_id":"ce4bhph2rcd13ifvqhdg","pricing_plan_id":"cebpf4jnsgd1na2vs0mg"},{"bike_id":"0960e3dd-c358-4474-bd10-8223758e1f6b","system_id":"levelo_inurba_marseille","lat":43.296996,"lon":5.376855,"is_reserved":false,"is_disabled":false,"rental_uris":{"android":"levelo://app?vid=0960e3dd-c358-4474-bd10-8223758e1f6b","ios":"levelo://app?vid=0960e3dd-c358-4474-bd10-8223758e1f6b"},"vehicle_type_id":"4","last_reported":1758395169,"current_range_meters":7200,"station_id":"","pricing_plan_id":"cebpf4jnsgd1na2vs0mg"},{"bike_id":"1dbc6ff6-de1e-44f5-9332-c8820f81075d","system_id":"levelo_inurba_marseille","lat":43.21191,"lon":5.35074,"is_reserved":false,"is_disabled":true,"rental_uris":{"android":"levelo://app?vid=1dbc6ff6-de1e-44f5-9332-c8820f81075d","ios":"levelo://app?vid=1dbc6ff6-de1e-44f5-9332-c8820f81075d"},"vehicle_type_id":"4","last_reported":1758395169,"current_range_meters":8000,"station_id":"st_cvj6sg6p6f1abm77japg","pricing_plan_id":"cebpf4jnsgd1na2vs0mg"},{"bike_id":"2742bf77-6029-49f5-b447-71b4ce5a5534","system_id":"levelo_inurba_marseille","lat":43.29793,"lon":5.38121,"is_reserved":false,"is_disabled":false,"rental_uris":{"android":"levelo://app?vid=2742bf77-6029-49f5-b447-71b4ce5a5534","ios":"levelo://app?vid=2742bf77-6029-49f5-b447-71b4ce5a5534"},"vehicle_type_id":"4","last_reported":1758395169,"current_range_meters":8000,"station_id":"ce4bgip2rcd13ifvqbb0","pricing_plan_id":"cebpf4jnsgd1na2vs0mg"},{"bike_id":"82b3ddcc-fa23-42f2-a12b-433b8902a831","system_id":"levelo_inurba_marseille","lat":43.29177,"lon":5.37164,"is_reserved":false,"is_disabled":false,"rental_uris":{"android":"levelo://app?vid=82b3ddcc-fa23-42f2-a12b-433b8902a831","ios":"levelo://app?vid=82b3ddcc-fa23-42f2-a12b-433b8902a831"},"vehicle_type_id":"4","last_reported":1758395169,"current_range_meters":4000,"station_id":"ce4bha92rcd13ifvqeh0","pricing_plan_id":"cebpf4jnsgd1na2vs0mg"},{"bike_id":"296364ea-4bb9-41b0-8ecc-b2e6f66a7896","system_id":"levelo_inurba_marseille","lat":43.29145,"lon":5.37149,"is_reserved":false,"is_disabled":false,"rental_uris":{"android":"levelo://app?vid=296364ea-4bb9-41b0-8ecc-b2e6f66a7896","ios":"levelo://app?vid=296364ea-4bb9-41b0-8ecc-b2e6f66a7896"},"vehicle_type_id":"4","last_reported":1758395169,"current_range_meters":8000,"station_id":"ce4bha92rcd13ifvqeh0","pricing_plan_id":"cebpf4jnsgd1na2vs0mg"},{"bike_id":"656a56c8-2865-480b-9f9d-c45e8cd10c5e","system_id":"levelo_inurba_marseille","lat":43.2835,"lon":5.38111,"is_reserved":false,"is_disabled":false,"rental_uris":{"android":"levelo://app?vid=656a56c8-2865-480b-9f9d-c45e8cd10c5e","ios":"levelo://app?vid=656a56c8-2865-480b-9f9d-c45e8cd10c5e"},"vehicle_type_id":"4","last_reported":1758395169,"current_range_meters":8000,"station_id":"ce4bh412rcd13ifvqdr0","pricing_plan_id":"cebpf4jnsgd1na2vs0mg"},{"bike_id":"f134842a-f909-4246-a93d-785703fa5ec2","system_id":"levelo_inurba_marseille","lat":43.29539,"lon":5.38542,"is_reserved":false,"is_disabled":false,"rental_uris":{"android":"levelo://app?vid=f134842a-f909-4246-a93d-785703fa5ec2","ios":"levelo://app?vid=f134842a-f909-4246-a93d-785703fa5ec2"},"vehicle_type_id":"4","last_reported":1758395169,"current_range_meters":8000,"station_id":"ce4bgih2rcd13ifvqba0","pricing_plan_id":"cebpf4jnsgd1na2vs0mg"},{"bike_id":"c627b34a-8e81-4438-af3b-4fd0aab1c160","system_id":"levelo_inurba_marseille","lat":43.29721,"lon":5.36053,"is_reserved":false,"is_disabled":false,"rental_uris":{"android":"levelo://app?vid=c627b34a-8e81-4438-af3b-4fd0aab1c160","ios":"levelo://app?vid=c627b34a-8e81-4438-af3b-4fd0aab1c160"},"vehicle_type_id":"4","last_reported":1758395169,"current_range_meters":8000,"station_id":"","pricing_plan_id":"cebpf4jnsgd1na2vs0mg"},{"bike_id":"ab5b9659-77bc-417b-8f8b-7002662fbf28","system_id":"levelo_inurba_marseille","lat":43.2932,"lon":5.41151,"is_reserved":false,"is_disabled":false,"rental_uris":{"android":"levelo://app?vid=ab5b9659-77bc-417b-8f8b-7002662fbf28","ios":"levelo://app?vid=ab5b9659-77bc-417b-8f8b-7002662fbf28"},"vehicle_type_id":"4","last_reported":1758395169,"current_range_meters":8000,"station_id":"","pricing_plan_id":"cebpf4jnsgd1na2vs0mg"},{"bike_id":"403e5b9f-28e1-4b81-ae87-62eb9242f719","system_id":"levelo_inurba_marseille","lat":43.293732,"lon":5.378538,"is_reserved":false,"is_disabled":false,"rental_uris":{"android":"levelo://app?vid=403e5b9f-28e1-4b81-ae87-62eb9242f719","ios":"levelo://app?vid=403e5b9f-28e1-4b81-ae87-62eb9242f719"},"vehicle_type_id":"4","last_reported":1758395169,"current_range_meters":8000,"station_id":"ce4bgjh2rcd13ifvqbf0","pricing_plan_id":"cebpf4jnsgd1na2vs0mg"},{"bike_id":"7140711a-8998-48a8-9aab-4eba80881013","system_id":"levelo_inurba_marseille","lat":43.29191,"lon":5.39321,"is_reserved":false,"is_disabled":false,"rental_uris":{"android":"levelo://app?vid=7140711a-8998-48a8-9aab-4eba80881013","ios":"levelo://app?vid=7140711a-8998-48a8-9aab-4eba80881013"},"vehicle_type_id":"4","last_reported":1758395169,"current_range_meters":7200,"station_id":"ce4bh192rcd13ifvqdd0","pricing_plan_id":"cebpf4jnsgd1na2vs0mg"},{"bike_id":"7a3449d5-679f-48a0-97c7-ee63e485b9c6","system_id":"levelo_inurba_marseille","lat":43.25862,"lon":5.39902,"is_reserved":false,"is_disabled":false,"rental_uris":{"android":"levelo://app?vid=7a3449d5-679f-48a0-97c7-ee63e485b9c6","ios":"levelo://app?vid=7a3449d5-679f-48a0-97c7-ee63e485b9c6"},"vehicle_type_id":"4","last_reported":1758395169,"current_range_meters":8000,"station_id":"ce4bhl92rcd13ifvqghg","pricing_plan_id":"cebpf4jnsgd1na2vs0mg"},{"bike_id":"332c6a2d-a01c-456a-b271-04ecb7c698fe","system_id":"levelo_inurba_marseille","lat":43.29304,"lon":5.37463,"is_reserved":false,"is_disabled":false,"rental_uris":{"android":"levelo://app?vid=332c6a2d-a01c-456a-b271-04ecb7c698fe","ios":"levelo://app?vid=332c6a2d-a01c-456a-b271-04ecb7c698fe"},"vehicle_type_id":"4","last_reported":1758395169,"current_range_meters":7200,"station_id":"ce4bgi12rcd13ifvqb70","pricing_plan_id":"cebpf4jnsgd1na2vs0mg"},{"bike_id":"c3a161d3-0d00-4161-b668-b1ab2d3845cd","system_id":"levelo_inurba_marseille","lat":43.2957,"lon":5.375379,"is_reserved":false,"is_disabled":false,"rental_uris":{"android":"levelo://app?vid=c3a161d3-0d00-4161-b668-b1ab2d3845cd","ios":"levelo://app?vid=c3a161d3-0d00-4161-b668-b1ab2d3845cd"},"vehicle_type_id":"4","last_reported":1758395169,"current_range_meters":8000,"station_id":"ce4bgh92rcd13ifvqb50","pricing_plan_id":"cebpf4jnsgd1na2vs0mg"},{"bike_id":"36c3a07c-f949-4c84-b384-8f535c3c10cd","system_id":"levelo_inurba_marseille","lat":43.30588,"lon":5.39364,"is_reserved":false,"is_disabled":false,"rental_uris":{"android":"levelo://app?vid=36c3a07c-f949-4c84-b384-8f535c3c10cd","ios":"levelo://app?vid=36c3a07c-f949-4c84-b384-8f535c3c10cd"},"vehicle_type_id":"4","last_reported":1758395169,"current_range_meters":8400,"station_id":"ce4bh0p2rcd13ifvqd80","pricing_plan_id":"cebpf4jnsgd1na2vs0mg"},{"bike_id":"7dd65b1b-fb7b-4087-9803-34d477de11ae","system_id":"levelo_inurba_marseille","lat":43.2119,"lon":5.35069,"is_reserved":false,"is_disabled":false,"rental_uris":{"android":"levelo://app?vid=7dd65b1b-fb7b-4087-9803-34d477de11ae","ios":"levelo://app?vid=7dd65b1b-fb7b-4087-9803-34d477de11ae"},"vehicle_type_id":"4","last_reported":1758395169,"current_range_meters":8400,"station_id":"st_cvj6sg6p6f1abm77japg","pricing_plan_id":"cebpf4jnsgd1na2vs0mg"},{"bike_id":"b87141cc-8a50-47a9-ab11-9c2d665b63cb","system_id":"levelo_inurba_marseille","lat":43.29317,"lon":5.37176,"is_reserved":false,"is_disabled":false,"rental_uris":{"android":"levelo://app?vid=b87141cc-8a50-47a9-ab11-9c2d665b63cb","ios":"levelo://app?vid=b87141cc-8a50-47a9-ab11-9c2d665b63cb"},"vehicle_type_id":"4","last_reported":1758395169,"current_range_meters":8400,"station_id":"ce4bgh92rcd13ifvqb40","pricing_plan_id":"cebpf4jnsgd1na2vs0mg"},{"bike_id":"56ff19c2-5268-4b8c-b546-e552ad2d9993","system_id":"levelo_inurba_marseille","lat":43.2959,"lon":5.38115,"is_reserved":false,"is_disabled":false,"rental_uris":{"android":"levelo://app?vid=56ff19c2-5268-4b8c-b546-e552ad2d9993","ios":"levelo://app?vid=56ff19c2-5268-4b8c-b546-e552ad2d9993"},"vehicle_type_id":"4","last_reported":1758395169,"current_range_meters":8400,"station_id":"ce4bgl12rcd13ifvqbo0","pricing_plan_id":"cebpf4jnsgd1na2vs0mg"},{"bike_id":"3082f593-a5a6-48f9-afa8-383813f7af0b","system_id":"levelo_inurba_marseille","lat":43.21746,"lon":5.34601,"is_reserved":false,"is_disabled":true,"rental_uris":{"android":"levelo://app?vid=3082f593-a5a6-48f9-afa8-383813f7af0b","ios":"levelo://app?vid=3082f593-a5a6-48f9-afa8-383813f7af0b"},"vehicle_type_id":"4","last_reported":1758395169,"current_range_meters":8400,"station_id":"st_cvj6r9ubvosntc0bgbag","pricing_plan_id":"cebpf4jnsgd1na2vs0mg"},{"bike_id":"ba46dcc8-0edf-486f-b634-e449d6e8d641","system_id":"levelo_inurba_marseille","lat":43.29539,"lon":5.38546,"is_reserved":false,"is_disabled":false,"rental_uris":{"android":"levelo://app?vid=ba46dcc8-0edf-486f-b634-e449d6e8d641","ios":"levelo://app?vid=ba46dcc8-0edf-486f-b634-e449d6e8d641"},"vehicle_type_id":"4","last_reported":1758395169,"current_range_meters":8400,"station_id":"ce4bgih2rcd13ifvqba0","pricing_plan_id":"cebpf4jnsgd1na2vs0mg"},{"bike_id":"0e7612a4-3b2d-44eb-906b-f4504ffd2a7f","system_id":"levelo_inurba_marseille","lat":43.30241,"lon":5.40064,"is_reserved":false,"is_disabled":true,"rental_uris":{"android":"levelo://app?vid=0e7612a4-3b2d-44eb-906b-f4504ffd2a7f","ios":"levelo://app?vid=0e7612a4-3b2d-44eb-906b-f4504ffd2a7f"},"vehicle_type_id":"4","last_reported":1758395169,"current_range_meters":8400,"station_id":"ce4bgvh2rcd13ifvqcs0","pricing_plan_id":"cebpf4jnsgd1na2vs0mg"},{"bike_id":"2a68c755-1f8c-43a2-9384-e0c8c29326d9","system_id":"levelo_inurba_marseille","lat":43.28382,"lon":5.38626,"is_reserved":false,"is_disabled":false,"rental_uris":{"android":"levelo://app?vid=2a68c755-1f8c-43a2-9384-e0c8c29326d9","ios":"levelo://app?vid=2a68c755-1f8c-43a2-9384-e0c8c29326d9"},"vehicle_type_id":"4","last_reported":1758395169,"current_range_meters":8000,"station_id":"ce4bh492rcd13ifvqdvg","pricing_plan_id":"cebpf4jnsgd1na2vs0mg"},{"bike_id":"9a882c9d-4116-473a-a231-39aa73a40884","system_id":"levelo_inurba_marseille","lat":43.283452,"lon":5.381095,"is_reserved":false,"is_disabled":false,"rental_uris":{"android":"levelo://app?vid=9a882c9d-4116-473a-a231-39aa73a40884","ios":"levelo://app?vid=9a882c9d-4116-473a-a231-39aa73a40884"},"vehicle_type_id":"4","last_reported":1758395169,"current_range_meters":8400,"station_id":"ce4bh412rcd13ifvqdr0","pricing_plan_id":"cebpf4jnsgd1na2vs0mg"},{"bike_id":"c2c24a91-5c89-4788-9e7e-679df29b185d","system_id":"levelo_inurba_marseille","lat":43.31166,"lon":5.38715,"is_reserved":false,"is_disabled":false,"rental_uris":{"android":"levelo://app?vid=c2c24a91-5c89-4788-9e7e-679df29b185d","ios":"levelo://app?vid=c2c24a91-5c89-4788-9e7e-679df29b185d"},"vehicle_type_id":"4","last_reported":1758395169,"current_range_meters":8400,"station_id":"ce4bgv12rcd13ifvqcp0","pricing_plan_id":"cebpf4jnsgd1na2vs0mg"},{"bike_id":"0f98e986-93f8-4319-84bf-fc0efe4c4f99","system_id":"levelo_inurba_marseille","lat":43.29545,"lon":5.38548,"is_reserved":false,"is_disabled":false,"rental_uris":{"android":"levelo://app?vid=0f98e986-93f8-4319-84bf-fc0efe4c4f99","ios":"levelo://app?vid=0f98e986-93f8-4319-84bf-fc0efe4c4f99"},"vehicle_type_id":"4","last_reported":1758395169,"current_range_meters":8400,"station_id":"ce4bgih2rcd13ifvqba0","pricing_plan_id":"cebpf4jnsgd1na2vs0mg"},{"bike_id":"c960a4c2-2938-42f5-9b72-eae21c0769d0","system_id":"levelo_inurba_marseille","lat":43.29279,"lon":5.36846,"is_reserved":false,"is_disabled":false,"rental_uris":{"android":"levelo://app?vid=c960a4c2-2938-42f5-9b72-eae21c0769d0","ios":"levelo://app?vid=c960a4c2-2938-42f5-9b72-eae21c0769d0"},"vehicle_type_id":"4","last_reported":1758395169,"current_range_meters":8800,"station_id":"ce4bhbp2rcd13ifvqesg","pricing_plan_id":"cebpf4jnsgd1na2vs0mg"},{"bike_id":"1870752f-b716-4da7-9f98-f1a64c3a9448","system_id":"levelo_inurba_marseille","lat":43.29272,"lon":5.3846,"is_reserved":false,"is_disabled":false,"rental_uris":{"android":"levelo://app?vid=1870752f-b716-4da7-9f98-f1a64c3a9448","ios":"levelo://app?vid=1870752f-b716-4da7-9f98-f1a64c3a9448"},"vehicle_type_id":"4","last_reported":1758395169,"current_range_meters":8800,"station_id":"ce4bh692rcd13ifvqea0","pricing_plan_id":"cebpf4jnsgd1na2vs0mg"},{"bike_id":"5bc43869-8de6-4f6a-b467-4050153d11b0","system_id":"levelo_inurba_marseille","lat":43.29269,"lon":5.38449,"is_reserved":false,"is_disabled":false,"rental_uris":{"android":"levelo://app?vid=5bc43869-8de6-4f6a-b467-4050153d11b0","ios":"levelo://app?vid=5bc43869-8de6-4f6a-b467-4050153d11b0"},"vehicle_type_id":"4","last_reported":1758395169,"current_range_meters":8800,"station_id":"ce4bh692rcd13ifvqea0","pricing_plan_id":"cebpf4jnsgd1na2vs0mg"},{"bike_id":"a4470570-91b7-4133-b0de-9be39b1036a2","system_id":"levelo_inurba_marseille","lat":43.260859,"lon":5.394004,"is_reserved":false,"is_disabled":false,"rental_uris":{"android":"levelo://app?vid=a4470570-91b7-4133-b0de-9be39b1036a2","ios":"levelo://app?vid=a4470570-91b7-4133-b0de-9be39b1036a2"},"vehicle_type_id":"4","last_reported":1758395169,"current_range_meters":8400,"station_id":"ce4bhh92rcd13ifvqfj0","pricing_plan_id":"cebpf4jnsgd1na2vs0mg"},{"bike_id":"c06f205f-b149-48e1-af6e-4e386850564e","system_id":"levelo_inurba_marseille","lat":43.243733,"lon":5.370634,"is_reserved":false,"is_disabled":true,"rental_uris":{"android":"levelo://app?vid=c06f205f-b149-48e1-af6e-4e386850564e","ios":"levelo://app?vid=c06f205f-b149-48e1-af6e-4e386850564e"},"vehicle_type_id":"4","last_reported":1758395169,"current_range_meters":8800,"station_id":"ce4bhhh2rcd13ifvqfk0","pricing_plan_id":"cebpf4jnsgd1na2vs0mg"},{"bike_id":"78f21615-d323-4e56-b428-c281cc6f14db","system_id":"levelo_inurba_marseille","lat":43.311676,"lon":5.387186,"is_reserved":false,"is_disabled":false,"rental_uris":{"android":"levelo://app?vid=78f21615-d323-4e56-b428-c281cc6f14db","ios":"levelo://app?vid=78f21615-d323-4e56-b428-c281cc6f14db"},"vehicle_type_id":"4","last_reported":1758395169,"current_range_meters":9200,"station_id":"ce4bgv12rcd13ifvqcp0","pricing_plan_id":"cebpf4jnsgd1na2vs0mg"},{"bike_id":"4b35a965-8f27-43de-aa29-bbbc246c781d","system_id":"levelo_inurba_marseille","lat":43.29042,"lon":5.39955,"is_reserved":false,"is_disabled":false,"rental_uris":{"android":"levelo://app?vid=4b35a965-8f27-43de-aa29-bbbc246c781d","ios":"levelo://app?vid=4b35a965-8f27-43de-aa29-bbbc246c781d"},"vehicle_type_id":"4","last_reported":1758395169,"current_range_meters":8800,"station_id":"ce4bh392rcd13ifvqdm0","pricing_plan_id":"cebpf4jnsgd1na2vs0mg"},{"bike_id":"53264fdb-d3ce-412c-9b54-11908fde133c","system_id":"levelo_inurba_marseille","lat":43.25865,"lon":5.39902,"is_reserved":false,"is_disabled":true,"rental_uris":{"android":"levelo://app?vid=53264fdb-d3ce-412c-9b54-11908fde133c","ios":"levelo://app?vid=53264fdb-d3ce-412c-9b54-11908fde133c"},"vehicle_type_id":"4","last_reported":1758395169,"current_range_meters":8800,"station_id":"ce4bhl92rcd13ifvqghg","pricing_plan_id":"cebpf4jnsgd1na2vs0mg"},{"bike_id":"22c4615f-70c3-42b6-9c5f-dca5ecee3983","system_id":"levelo_inurba_marseille","lat":43.29519,"lon":5.39043,"is_reserved":false,"is_disabled":false,"rental_uris":{"android":"levelo://app?vid=22c4615f-70c3-42b6-9c5f-dca5ecee3983","ios":"levelo://app?vid=22c4615f-70c3-42b6-9c5f-dca5ecee3983"},"vehicle_type_id":"4","last_reported":1758395169,"current_range_meters":8800,"station_id":"ce4bh3p2rcd13ifvqdp0","pricing_plan_id":"cebpf4jnsgd1na2vs0mg"},{"bike_id":"53447d53-371e-4d5b-800e-f6b449f98a0d","system_id":"levelo_inurba_marseille","lat":43.29522,"lon":5.39028,"is_reserved":false,"is_disabled":false,"rental_uris":{"android":"levelo://app?vid=53447d53-371e-4d5b-800e-f6b449f98a0d","ios":"levelo://app?vid=53447d53-371e-4d5b-800e-f6b449f98a0d"},"vehicle_type_id":"4","last_reported":1758395169,"current_range_meters":8800,"station_id":"ce4bh3p2rcd13ifvqdp0","pricing_plan_id":"cebpf4jnsgd1na2vs0mg"},{"bike_id":"12ed6c49-784d-4e90-9587-47eae4f126ab","system_id":"levelo_inurba_marseille","lat":43.21732,"lon":5.34589,"is_reserved":false,"is_disabled":true,"rental_uris":{"android":"levelo://app?vid=12ed6c49-784d-4e90-9587-47eae4f126ab","ios":"levelo://app?vid=12ed6c49-784d-4e90-9587-47eae4f126ab"},"vehicle_type_id":"4","last_reported":1758395169,"current_range_meters":8800,"station_id":"st_cvj6r9ubvosntc0bgbag","pricing_plan_id":"cebpf4jnsgd1na2vs0mg"},{"bike_id":"d6f325df-d12a-41d8-b34c-646641dcd4bb","system_id":"levelo_inurba_marseille","lat":43.306051,"lon":5.372276,"is_reserved":false,"is_disabled":false,"rental_uris":{"android":"levelo://app?vid=d6f325df-d12a-41d8-b34c-646641dcd4bb","ios":"levelo://app?vid=d6f325df-d12a-41d8-b34c-646641dcd4bb"},"vehicle_type_id":"4","last_reported":1758395169,"current_range_meters":8400,"station_id":"ce4bgqh2rcd13ifvqc4g","pricing_plan_id":"cebpf4jnsgd1na2vs0mg"},{"bike_id":"fcb3f6af-c7d4-4ccc-be82-7f951e8865a2","system_id":"levelo_inurba_marseille","lat":43.2119,"lon":5.35096,"is_reserved":false,"is_disabled":false,"rental_uris":{"android":"levelo://app?vid=fcb3f6af-c7d4-4ccc-be82-7f951e8865a2","ios":"levelo://app?vid=fcb3f6af-c7d4-4ccc-be82-7f951e8865a2"},"vehicle_type_id":"4","last_reported":1758395169,"current_range_meters":9200,"station_id":"st_cvj6sg6p6f1abm77japg","pricing_plan_id":"cebpf4jnsgd1na2vs0mg"},{"bike_id":"874aa323-fed1-44aa-8a76-29936aa6ed3b","system_id":"levelo_inurba_marseille","lat":43.24171,"lon":5.36398,"is_reserved":false,"is_disabled":false,"rental_uris":{"android":"levelo://app?vid=874aa323-fed1-44aa-8a76-29936aa6ed3b","ios":"levelo://app?vid=874aa323-fed1-44aa-8a76-29936aa6ed3b"},"vehicle_type_id":"4","last_reported":1758395169,"current_range_meters":9200,"station_id":"cpo36qri1sfpv3e86is0","pricing_plan_id":"cebpf4jnsgd1na2vs0mg"},{"bike_id":"aaee9183-2d93-4a5f-86b0-8c8bf3a74a5c","system_id":"levelo_inurba_marseille","lat":43.32706,"lon":5.39223,"is_reserved":false,"is_disabled":false,"rental_uris":{"android":"levelo://app?vid=aaee9183-2d93-4a5f-86b0-8c8bf3a74a5c","ios":"levelo://app?vid=aaee9183-2d93-4a5f-86b0-8c8bf3a74a5c"},"vehicle_type_id":"4","last_reported":1758395169,"current_range_meters":9200,"station_id":"","pricing_plan_id":"cebpf4jnsgd1na2vs0mg"},{"bike_id":"8a64cf12-efe8-4308-b1be-9e9775fffcee","system_id":"levelo_inurba_marseille","lat":43.29362,"lon":5.37857,"is_reserved":false,"is_disabled":false,"rental_uris":{"android":"levelo://app?vid=8a64cf12-efe8-4308-b1be-9e9775fffcee","ios":"levelo://app?vid=8a64cf12-efe8-4308-b1be-9e9775fffcee"},"vehicle_type_id":"4","last_reported":1758395169,"current_range_meters":9200,"station_id":"ce4bgjh2rcd13ifvqbf0","pricing_plan_id":"cebpf4jnsgd1na2vs0mg"},{"bike_id":"6a208c6a-9b34-4668-951f-f3ddc638903b","system_id":"levelo_inurba_marseille","lat":43.282903,"lon":5.350471,"is_reserved":false,"is_disabled":false,"rental_uris":{"android":"levelo://app?vid=6a208c6a-9b34-4668-951f-f3ddc638903b","ios":"levelo://app?vid=6a208c6a-9b34-4668-951f-f3ddc638903b"},"vehicle_type_id":"4","last_reported":1758395169,"current_range_meters":9200,"station_id":"ce4bhbp2rcd13ifvqerg","pricing_plan_id":"cebpf4jnsgd1na2vs0mg"},{"bike_id":"fdc5a483-6d03-4d3b-a884-6bf10e526994","system_id":"levelo_inurba_marseille","lat":43.29976,"lon":5.3848,"is_reserved":false,"is_disabled":false,"rental_uris":{"android":"levelo://app?vid=fdc5a483-6d03-4d3b-a884-6bf10e526994","ios":"levelo://app?vid=fdc5a483-6d03-4d3b-a884-6bf10e526994"},"vehicle_type_id":"4","last_reported":1758395169,"current_range_meters":8800,"station_id":"ce4bgj92rcd13ifvqbd0","pricing_plan_id":"cebpf4jnsgd1na2vs0mg"},{"bike_id":"49477a47-5351-459f-a219-87c792ec50da","system_id":"levelo_inurba_marseille","lat":43.31722,"lon":5.42397,"is_reserved":false,"is_disabled":false,"rental_uris":{"android":"levelo://app?vid=49477a47-5351-459f-a219-87c792ec50da","ios":"levelo://app?vid=49477a47-5351-459f-a219-87c792ec50da"},"vehicle_type_id":"4","last_reported":1758395169,"current_range_meters":9200,"station_id":"ce4bhp92rcd13ifvqhbg","pricing_plan_id":"cebpf4jnsgd1na2vs0mg"},{"bike_id":"db11f9f4-7fe5-41ea-9bcd-19ae9ab5169f","system_id":"levelo_inurba_marseille","lat":43.3091,"lon":5.36846,"is_reserved":false,"is_disabled":false,"rental_uris":{"android":"levelo://app?vid=db11f9f4-7fe5-41ea-9bcd-19ae9ab5169f","ios":"levelo://app?vid=db11f9f4-7fe5-41ea-9bcd-19ae9ab5169f"},"vehicle_type_id":"4","last_reported":1758395169,"current_range_meters":9200,"station_id":"ce4bgn92rcd13ifvqbvg","pricing_plan_id":"cebpf4jnsgd1na2vs0mg"},{"bike_id":"ac540c54-d9e5-487b-9f77-9361c8a53973","system_id":"levelo_inurba_marseille","lat":43.29908,"lon":5.38144,"is_reserved":false,"is_disabled":false,"rental_uris":{"android":"levelo://app?vid=ac540c54-d9e5-487b-9f77-9361c8a53973","ios":"levelo://app?vid=ac540c54-d9e5-487b-9f77-9361c8a53973"},"vehicle_type_id":"4","last_reported":1758395169,"current_range_meters":8800,"station_id":"ce4bgj12rcd13ifvqbc0","pricing_plan_id":"cebpf4jnsgd1na2vs0mg"},{"bike_id":"575f379b-682e-45a6-a90b-e2da032a9ae0","system_id":"levelo_inurba_marseille","lat":43.21184,"lon":5.35075,"is_reserved":false,"is_disabled":false,"rental_uris":{"android":"levelo://app?vid=575f379b-682e-45a6-a90b-e2da032a9ae0","ios":"levelo://app?vid=575f379b-682e-45a6-a90b-e2da032a9ae0"},"vehicle_type_id":"4","last_reported":1758395169,"current_range_meters":9200,"station_id":"st_cvj6sg6p6f1abm77japg","pricing_plan_id":"cebpf4jnsgd1na2vs0mg"},{"bike_id":"0064b370-873b-4c46-b3c5-971e521f7c7c","system_id":"levelo_inurba_marseille","lat":43.292906,"lon":5.374648,"is_reserved":false,"is_disabled":false,"rental_uris":{"android":"levelo://app?vid=0064b370-873b-4c46-b3c5-971e521f7c7c","ios":"levelo://app?vid=0064b370-873b-4c46-b3c5-971e521f7c7c"},"vehicle_type_id":"4","last_reported":1758395169,"current_range_meters":9600,"station_id":"","pricing_plan_id":"cebpf4jnsgd1na2vs0mg"},{"bike_id":"5b84af94-a4d6-4b46-a63f-085ff5681f73","system_id":"levelo_inurba_marseille","lat":43.21183,"lon":5.35079,"is_reserved":false,"is_disabled":false,"rental_uris":{"android":"levelo://app?vid=5b84af94-a4d6-4b46-a63f-085ff5681f73","ios":"levelo://app?vid=5b84af94-a4d6-4b46-a63f-085ff5681f73"},"vehicle_type_id":"4","last_reported":1758395169,"current_range_meters":9600,"station_id":"st_cvj6sg6p6f1abm77japg","pricing_plan_id":"cebpf4jnsgd1na2vs0mg"},{"bike_id":"314afb76-e676-48b1-8d67-0c175e015d01","system_id":"levelo_inurba_marseille","lat":43.29628,"lon":5.37784,"is_reserved":false,"is_disabled":false,"rental_uris":{"android":"levelo://app?vid=314afb76-e676-48b1-8d67-0c175e015d01","ios":"levelo://app?vid=314afb76-e676-48b1-8d67-0c175e015d01"},"vehicle_type_id":"4","last_reported":1758395169,"current_range_meters":9600,"station_id":"ce4bgi92rcd13ifvqb90","pricing_plan_id":"cebpf4jnsgd1na2vs0mg"},{"bike_id":"773bdb1d-8d7a-46ff-af2f-8cc17b3cd372","system_id":"levelo_inurba_marseille","lat":43.29263,"lon":5.38438,"is_reserved":false,"is_disabled":false,"rental_uris":{"android":"levelo://app?vid=773bdb1d-8d7a-46ff-af2f-8cc17b3cd372","ios":"levelo://app?vid=773bdb1d-8d7a-46ff-af2f-8cc17b3cd372"},"vehicle_type_id":"4","last_reported":1758395169,"current_range_meters":9600,"station_id":"ce4bh692rcd13ifvqea0","pricing_plan_id":"cebpf4jnsgd1na2vs0mg"},{"bike_id":"fcc47e70-abeb-4182-94d8-59c96a2dfdeb","system_id":"levelo_inurba_marseille","lat":43.29863,"lon":5.39731,"is_reserved":false,"is_disabled":false,"rental_uris":{"android":"levelo://app?vid=fcc47e70-abeb-4182-94d8-59c96a2dfdeb","ios":"levelo://app?vid=fcc47e70-abeb-4182-94d8-59c96a2dfdeb"},"vehicle_type_id":"4","last_reported":1758395169,"current_range_meters":9600,"station_id":"ce4bh0h2rcd13ifvqd50","pricing_plan_id":"cebpf4jnsgd1na2vs0mg"},{"bike_id":"bf573684-97b1-461a-b65b-612a6c5dee73","system_id":"levelo_inurba_marseille","lat":43.319897,"lon":5.381517,"is_reserved":false,"is_disabled":false,"rental_uris":{"android":"levelo://app?vid=bf573684-97b1-461a-b65b-612a6c5dee73","ios":"levelo://app?vid=bf573684-97b1-461a-b65b-612a6c5dee73"},"vehicle_type_id":"4","last_reported":1758395169,"current_range_meters":9600,"station_id":"ce4bhr12rcd13ifvqhpg","pricing_plan_id":"cebpf4jnsgd1na2vs0mg"},{"bike_id":"fc4515ad-ad60-4378-8b42-05d040479552","system_id":"levelo_inurba_marseille","lat":43.290185,"lon":5.381333,"is_reserved":false,"is_disabled":false,"rental_uris":{"android":"levelo://app?vid=fc4515ad-ad60-4378-8b42-05d040479552","ios":"levelo://app?vid=fc4515ad-ad60-4378-8b42-05d040479552"},"vehicle_type_id":"4","last_reported":1758395169,"current_range_meters":9600,"station_id":"ce4bh4p2rcd13ifvqe1g","pricing_plan_id":"cebpf4jnsgd1na2vs0mg"},{"bike_id":"80fa7554-031c-4b18-94d6-cfb01420c332","system_id":"levelo_inurba_marseille","lat":43.29358,"lon":5.37851,"is_reserved":false,"is_disabled":false,"rental_uris":{"android":"levelo://app?vid=80fa7554-031c-4b18-94d6-cfb01420c332","ios":"levelo://app?vid=80fa7554-031c-4b18-94d6-cfb01420c332"},"vehicle_type_id":"4","last_reported":1758395169,"current_range_meters":9600,"station_id":"ce4bgjh2rcd13ifvqbf0","pricing_plan_id":"cebpf4jnsgd1na2vs0mg"},{"bike_id":"617dca4b-4508-4d52-9e62-d583d919ac44","system_id":"levelo_inurba_marseille","lat":43.2974,"lon":5.37121,"is_reserved":false,"is_disabled":false,"rental_uris":{"android":"levelo://app?vid=617dca4b-4508-4d52-9e62-d583d919ac44","ios":"levelo://app?vid=617dca4b-4508-4d52-9e62-d583d919ac44"},"vehicle_type_id":"4","last_reported":1758395169,"current_range_meters":9600,"station_id":"","pricing_plan_id":"cebpf4jnsgd1na2vs0mg"},{"bike_id":"66712782-3b98-4d4e-8c13-d8f3dbcc0715","system_id":"levelo_inurba_marseille","lat":43.29572,"lon":5.37528,"is_reserved":false,"is_disabled":false,"rental_uris":{"android":"levelo://app?vid=66712782-3b98-4d4e-8c13-d8f3dbcc0715","ios":"levelo://app?vid=66712782-3b98-4d4e-8c13-d8f3dbcc0715"},"vehicle_type_id":"4","last_reported":1758395169,"current_range_meters":10000,"station_id":"ce4bgh92rcd13ifvqb50","pricing_plan_id":"cebpf4jnsgd1na2vs0mg"},{"bike_id":"b766d582-d4f0-4f9a-9867-0ae0b8177870","system_id":"levelo_inurba_marseille","lat":43.21202,"lon":5.35078,"is_reserved":false,"is_disabled":false,"rental_uris":{"android":"levelo://app?vid=b766d582-d4f0-4f9a-9867-0ae0b8177870","ios":"levelo://app?vid=b766d582-d4f0-4f9a-9867-0ae0b8177870"},"vehicle_type_id":"4","last_reported":1758395169,"current_range_meters":10000,"station_id":"st_cvj6sg6p6f1abm77japg","pricing_plan_id":"cebpf4jnsgd1na2vs0mg"},{"bike_id":"e6f59a7f-e88f-4d65-bed3-135ed8be6983","system_id":"levelo_inurba_marseille","lat":43.32551,"lon":5.39103,"is_reserved":false,"is_disabled":false,"rental_uris":{"android":"levelo://app?vid=e6f59a7f-e88f-4d65-bed3-135ed8be6983","ios":"levelo://app?vid=e6f59a7f-e88f-4d65-bed3-135ed8be6983"},"vehicle_type_id":"4","last_reported":1758395169,"current_range_meters":10000,"station_id":"","pricing_plan_id":"cebpf4jnsgd1na2vs0mg"},{"bike_id":"21f2f42b-b53c-4921-99e5-44c3e7f313c0","system_id":"levelo_inurba_marseille","lat":43.29925,"lon":5.38154,"is_reserved":false,"is_disabled":false,"rental_uris":{"android":"levelo://app?vid=21f2f42b-b53c-4921-99e5-44c3e7f313c0","ios":"levelo://app?vid=21f2f42b-b53c-4921-99e5-44c3e7f313c0"},"vehicle_type_id":"4","last_reported":1758395169,"current_range_meters":10000,"station_id":"ce4bgj12rcd13ifvqbc0","pricing_plan_id":"cebpf4jnsgd1na2vs0mg"},{"bike_id":"41d41162-c451-4e5f-8bcf-1c9a70c5510c","system_id":"levelo_inurba_marseille","lat":43.29615,"lon":5.37713,"is_reserved":false,"is_disabled":true,"rental_uris":{"android":"levelo://app?vid=41d41162-c451-4e5f-8bcf-1c9a70c5510c","ios":"levelo://app?vid=41d41162-c451-4e5f-8bcf-1c9a70c5510c"},"vehicle_type_id":"4","last_reported":1758395169,"current_range_meters":10000,"station_id":"ce4bgi92rcd13ifvqb90","pricing_plan_id":"cebpf4jnsgd1na2vs0mg"},{"bike_id":"66d4afa6-14b4-41fa-86d4-7c7ac5d1107a","system_id":"levelo_inurba_marseille","lat":43.29529,"lon":5.38538,"is_reserved":false,"is_disabled":false,"rental_uris":{"android":"levelo://app?vid=66d4afa6-14b4-41fa-86d4-7c7ac5d1107a","ios":"levelo://app?vid=66d4afa6-14b4-41fa-86d4-7c7ac5d1107a"},"vehicle_type_id":"4","last_reported":1758395169,"current_range_meters":10000,"station_id":"ce4bgih2rcd13ifvqba0","pricing_plan_id":"cebpf4jnsgd1na2vs0mg"},{"bike_id":"17adb97b-82ed-4098-b347-87a785ef4323","system_id":"levelo_inurba_marseille","lat":43.304348,"lon":5.397411,"is_reserved":false,"is_disabled":false,"rental_uris":{"android":"levelo://app?vid=17adb97b-82ed-4098-b347-87a785ef4323","ios":"levelo://app?vid=17adb97b-82ed-4098-b347-87a785ef4323"},"vehicle_type_id":"4","last_reported":1758395169,"current_range_meters":10000,"station_id":"ce4bh092rcd13ifvqd20","pricing_plan_id":"cebpf4jnsgd1na2vs0mg"},{"bike_id":"a33a7d2b-3a19-4e17-8886-71256af367d3","system_id":"levelo_inurba_marseille","lat":43.28136,"lon":5.42651,"is_reserved":false,"is_disabled":true,"rental_uris":{"android":"levelo://app?vid=a33a7d2b-3a19-4e17-8886-71256af367d3","ios":"levelo://app?vid=a33a7d2b-3a19-4e17-8886-71256af367d3"},"vehicle_type_id":"4","last_reported":1758395169,"current_range_meters":10000,"station_id":"ce4bhnh2rcd13ifvqgug","pricing_plan_id":"cebpf4jnsgd1na2vs0mg"},{"bike_id":"d7f55dc2-1d6c-4af1-8837-c8b49e223995","system_id":"levelo_inurba_marseille","lat":43.29531,"lon":5.38553,"is_reserved":false,"is_disabled":false,"rental_uris":{"android":"levelo://app?vid=d7f55dc2-1d6c-4af1-8837-c8b49e223995","ios":"levelo://app?vid=d7f55dc2-1d6c-4af1-8837-c8b49e223995"},"vehicle_type_id":"4","last_reported":1758395169,"current_range_meters":10000,"station_id":"ce4bgih2rcd13ifvqba0","pricing_plan_id":"cebpf4jnsgd1na2vs0mg"},{"bike_id":"c6eddf82-4bee-4381-821d-3888d8c02b09","system_id":"levelo_inurba_marseille","lat":43.27374,"lon":5.36261,"is_reserved":false,"is_disabled":false,"rental_uris":{"android":"levelo://app?vid=c6eddf82-4bee-4381-821d-3888d8c02b09","ios":"levelo://app?vid=c6eddf82-4bee-4381-821d-3888d8c02b09"},"vehicle_type_id":"4","last_reported":1758395169,"current_range_meters":10000,"station_id":"ce4bhbh2rcd13ifvqeo0","pricing_plan_id":"cebpf4jnsgd1na2vs0mg"},{"bike_id":"9fe52d85-2f2f-4a9d-b0d1-5ded9361d9b6","system_id":"levelo_inurba_marseille","lat":43.24168,"lon":5.36397,"is_reserved":false,"is_disabled":false,"rental_uris":{"android":"levelo://app?vid=9fe52d85-2f2f-4a9d-b0d1-5ded9361d9b6","ios":"levelo://app?vid=9fe52d85-2f2f-4a9d-b0d1-5ded9361d9b6"},"vehicle_type_id":"4","last_reported":1758395169,"current_range_meters":14000,"station_id":"cpo36qri1sfpv3e86is0","pricing_plan_id":"cebpf4jnsgd1na2vs0mg"},{"bike_id":"b3733063-7d22-46d8-ab0e-768776d9dc42","system_id":"levelo_inurba_marseille","lat":43.29029,"lon":5.38627,"is_reserved":false,"is_disabled":false,"rental_uris":{"android":"levelo://app?vid=b3733063-7d22-46d8-ab0e-768776d9dc42","ios":"levelo://app?vid=b3733063-7d22-46d8-ab0e-768776d9dc42"},"vehicle_type_id":"4","last_reported":1758395169,"current_range_meters":9600,"station_id":"ce4bh4p2rcd13ifvqe0g","pricing_plan_id":"cebpf4jnsgd1na2vs0mg"},{"bike_id":"f3a20f97-8950-4786-8260-b3499cc44673","system_id":"levelo_inurba_marseille","lat":43.311676,"lon":5.387321,"is_reserved":false,"is_disabled":false,"rental_uris":{"android":"levelo://app?vid=f3a20f97-8950-4786-8260-b3499cc44673","ios":"levelo://app?vid=f3a20f97-8950-4786-8260-b3499cc44673"},"vehicle_type_id":"4","last_reported":1758395169,"current_range_meters":9600,"station_id":"ce4bgv12rcd13ifvqcp0","pricing_plan_id":"cebpf4jnsgd1na2vs0mg"},{"bike_id":"9ddca5ac-dd41-4d03-8bf1-6d16df5d2b4b","system_id":"levelo_inurba_marseille","lat":43.21752,"lon":5.34596,"is_reserved":false,"is_disabled":false,"rental_uris":{"android":"levelo://app?vid=9ddca5ac-dd41-4d03-8bf1-6d16df5d2b4b","ios":"levelo://app?vid=9ddca5ac-dd41-4d03-8bf1-6d16df5d2b4b"},"vehicle_type_id":"4","last_reported":1758395169,"current_range_meters":10800,"station_id":"st_cvj6r9ubvosntc0bgbag","pricing_plan_id":"cebpf4jnsgd1na2vs0mg"},{"bike_id":"74a4891d-b091-42a2-b384-ed5b0697504a","system_id":"levelo_inurba_marseille","lat":43.2984,"lon":5.38103,"is_reserved":false,"is_disabled":false,"rental_uris":{"android":"levelo://app?vid=74a4891d-b091-42a2-b384-ed5b0697504a","ios":"levelo://app?vid=74a4891d-b091-42a2-b384-ed5b0697504a"},"vehicle_type_id":"4","last_reported":1758395169,"current_range_meters":10800,"station_id":"ce4bgip2rcd13ifvqbb0","pricing_plan_id":"cebpf4jnsgd1na2vs0mg"},{"bike_id":"98e8af00-4b83-49fb-a286-0d2396c92bd0","system_id":"levelo_inurba_marseille","lat":43.30887,"lon":5.36846,"is_reserved":false,"is_disabled":true,"rental_uris":{"android":"levelo://app?vid=98e8af00-4b83-49fb-a286-0d2396c92bd0","ios":"levelo://app?vid=98e8af00-4b83-49fb-a286-0d2396c92bd0"},"vehicle_type_id":"4","last_reported":1758395169,"current_range_meters":10800,"station_id":"ce4bgn92rcd13ifvqbvg","pricing_plan_id":"cebpf4jnsgd1na2vs0mg"},{"bike_id":"5db425a8-dd5f-4ecb-8c73-36241eebadd3","system_id":"levelo_inurba_marseille","lat":43.26939,"lon":5.40257,"is_reserved":false,"is_disabled":false,"rental_uris":{"android":"levelo://app?vid=5db425a8-dd5f-4ecb-8c73-36241eebadd3","ios":"levelo://app?vid=5db425a8-dd5f-4ecb-8c73-36241eebadd3"},"vehicle_type_id":"4","last_reported":1758395169,"current_range_meters":10800,"station_id":"cjm6bp8fraef2m0cb0m0","pricing_plan_id":"cebpf4jnsgd1na2vs0mg"},{"bike_id":"85164f88-71c2-4771-820e-5f850676896c","system_id":"levelo_inurba_marseille","lat":43.31704,"lon":5.377205,"is_reserved":false,"is_disabled":false,"rental_uris":{"android":"levelo://app?vid=85164f88-71c2-4771-820e-5f850676896c","ios":"levelo://app?vid=85164f88-71c2-4771-820e-5f850676896c"},"vehicle_type_id":"4","last_reported":1758395169,"current_range_meters":10000,"station_id":"ce4bgth2rcd13ifvqch0","pricing_plan_id":"cebpf4jnsgd1na2vs0mg"},{"bike_id":"98c97462-3089-4bba-9378-b2b4dacfe40c","system_id":"levelo_inurba_marseille","lat":43.29268,"lon":5.38433,"is_reserved":false,"is_disabled":false,"rental_uris":{"android":"levelo://app?vid=98c97462-3089-4bba-9378-b2b4dacfe40c","ios":"levelo://app?vid=98c97462-3089-4bba-9378-b2b4dacfe40c"},"vehicle_type_id":"4","last_reported":1758395169,"current_range_meters":10800,"station_id":"ce4bh692rcd13ifvqea0","pricing_plan_id":"cebpf4jnsgd1na2vs0mg"},{"bike_id":"c1e70418-8725-4c16-a3b4-e33c21807ade","system_id":"levelo_inurba_marseille","lat":43.29517,"lon":5.39056,"is_reserved":false,"is_disabled":false,"rental_uris":{"android":"levelo://app?vid=c1e70418-8725-4c16-a3b4-e33c21807ade","ios":"levelo://app?vid=c1e70418-8725-4c16-a3b4-e33c21807ade"},"vehicle_type_id":"4","last_reported":1758395169,"current_range_meters":11200,"station_id":"ce4bh3p2rcd13ifvqdp0","pricing_plan_id":"cebpf4jnsgd1na2vs0mg"},{"bike_id":"3116075e-fa9b-423b-beef-aeee538d6e30","system_id":"levelo_inurba_marseille","lat":43.2174,"lon":5.34606,"is_reserved":false,"is_disabled":true,"rental_uris":{"android":"levelo://app?vid=3116075e-fa9b-423b-beef-aeee538d6e30","ios":"levelo://app?vid=3116075e-fa9b-423b-beef-aeee538d6e30"},"vehicle_type_id":"4","last_reported":1758395169,"current_range_meters":11600,"station_id":"st_cvj6r9ubvosntc0bgbag","pricing_plan_id":"cebpf4jnsgd1na2vs0mg"},{"bike_id":"c4706891-6ce1-4440-91ff-a3ecf2ff007e","system_id":"levelo_inurba_marseille","lat":43.26374,"lon":5.40075,"is_reserved":false,"is_disabled":false,"rental_uris":{"android":"levelo://app?vid=c4706891-6ce1-4440-91ff-a3ecf2ff007e","ios":"levelo://app?vid=c4706891-6ce1-4440-91ff-a3ecf2ff007e"},"vehicle_type_id":"4","last_reported":1758395169,"current_range_meters":11200,"station_id":"","pricing_plan_id":"cebpf4jnsgd1na2vs0mg"},{"bike_id":"b2b5f845-dd7f-4e8c-90ed-1a28957cff26","system_id":"levelo_inurba_marseille","lat":43.29364,"lon":5.37845,"is_reserved":false,"is_disabled":false,"rental_uris":{"android":"levelo://app?vid=b2b5f845-dd7f-4e8c-90ed-1a28957cff26","ios":"levelo://app?vid=b2b5f845-dd7f-4e8c-90ed-1a28957cff26"},"vehicle_type_id":"4","last_reported":1758395169,"current_range_meters":11200,"station_id":"ce4bgjh2rcd13ifvqbf0","pricing_plan_id":"cebpf4jnsgd1na2vs0mg"},{"bike_id":"07920f21-5b91-49b7-ae12-5924a70b4bef","system_id":"levelo_inurba_marseille","lat":43.29197,"lon":5.39333,"is_reserved":false,"is_disabled":false,"rental_uris":{"android":"levelo://app?vid=07920f21-5b91-49b7-ae12-5924a70b4bef","ios":"levelo://app?vid=07920f21-5b91-49b7-ae12-5924a70b4bef"},"vehicle_type_id":"4","last_reported":1758395169,"current_range_meters":11200,"station_id":"ce4bh192rcd13ifvqdd0","pricing_plan_id":"cebpf4jnsgd1na2vs0mg"},{"bike_id":"635df5c2-f919-457e-93b1-b0bd7802c26d","system_id":"levelo_inurba_marseille","lat":43.287178,"lon":5.379339,"is_reserved":false,"is_disabled":false,"rental_uris":{"android":"levelo://app?vid=635df5c2-f919-457e-93b1-b0bd7802c26d","ios":"levelo://app?vid=635df5c2-f919-457e-93b1-b0bd7802c26d"},"vehicle_type_id":"4","last_reported":1758395169,"current_range_meters":11200,"station_id":"ce4bh9p2rcd13ifvqec0","pricing_plan_id":"cebpf4jnsgd1na2vs0mg"},{"bike_id":"11f536f5-f858-4572-b106-c5cc3146e3cd","system_id":"levelo_inurba_marseille","lat":43.25338,"lon":5.42166,"is_reserved":false,"is_disabled":false,"rental_uris":{"android":"levelo://app?vid=11f536f5-f858-4572-b106-c5cc3146e3cd","ios":"levelo://app?vid=11f536f5-f858-4572-b106-c5cc3146e3cd"},"vehicle_type_id":"4","last_reported":1758395169,"current_range_meters":11200,"station_id":"st_d2m65c5bi1j21697t3ng","pricing_plan_id":"cebpf4jnsgd1na2vs0mg"},{"bike_id":"576f2039-00ac-4f2c-a68d-0faa97f37880","system_id":"levelo_inurba_marseille","lat":43.33185,"lon":5.39267,"is_reserved":false,"is_disabled":false,"rental_uris":{"android":"levelo://app?vid=576f2039-00ac-4f2c-a68d-0faa97f37880","ios":"levelo://app?vid=576f2039-00ac-4f2c-a68d-0faa97f37880"},"vehicle_type_id":"4","last_reported":1758395169,"current_range_meters":11600,"station_id":"","pricing_plan_id":"cebpf4jnsgd1na2vs0mg"},{"bike_id":"100fc699-7bc2-45de-9e70-967069e79569","system_id":"levelo_inurba_marseille","lat":43.27949,"lon":5.41044,"is_reserved":false,"is_disabled":false,"rental_uris":{"android":"levelo://app?vid=100fc699-7bc2-45de-9e70-967069e79569","ios":"levelo://app?vid=100fc699-7bc2-45de-9e70-967069e79569"},"vehicle_type_id":"4","last_reported":1758395169,"current_range_meters":11600,"station_id":"ce4bhnp2rcd13ifvqh0g","pricing_plan_id":"cebpf4jnsgd1na2vs0mg"},{"bike_id":"f01eab54-72af-4a60-a024-7540001f7a71","system_id":"levelo_inurba_marseille","lat":43.29982,"lon":5.37175,"is_reserved":false,"is_disabled":false,"rental_uris":{"android":"levelo://app?vid=f01eab54-72af-4a60-a024-7540001f7a71","ios":"levelo://app?vid=f01eab54-72af-4a60-a024-7540001f7a71"},"vehicle_type_id":"4","last_reported":1758395169,"current_range_meters":11600,"station_id":"ce4bgr92rcd13ifvqc7g","pricing_plan_id":"cebpf4jnsgd1na2vs0mg"},{"bike_id":"b0c0240f-7562-4cd7-914b-5ba1c1b002b8","system_id":"levelo_inurba_marseille","lat":43.29812,"lon":5.38091,"is_reserved":false,"is_disabled":false,"rental_uris":{"android":"levelo://app?vid=b0c0240f-7562-4cd7-914b-5ba1c1b002b8","ios":"levelo://app?vid=b0c0240f-7562-4cd7-914b-5ba1c1b002b8"},"vehicle_type_id":"4","last_reported":1758395169,"current_range_meters":11600,"station_id":"ce4bgip2rcd13ifvqbb0","pricing_plan_id":"cebpf4jnsgd1na2vs0mg"},{"bike_id":"e0350e70-2592-4f30-a29f-913a6972d66c","system_id":"levelo_inurba_marseille","lat":43.26243,"lon":5.40447,"is_reserved":false,"is_disabled":false,"rental_uris":{"android":"levelo://app?vid=e0350e70-2592-4f30-a29f-913a6972d66c","ios":"levelo://app?vid=e0350e70-2592-4f30-a29f-913a6972d66c"},"vehicle_type_id":"4","last_reported":1758395169,"current_range_meters":11600,"station_id":"ce4bhmh2rcd13ifvqgmg","pricing_plan_id":"cebpf4jnsgd1na2vs0mg"},{"bike_id":"24885cde-2d14-41d1-a776-f8760e67ea57","system_id":"levelo_inurba_marseille","lat":43.30953,"lon":5.39031,"is_reserved":false,"is_disabled":false,"rental_uris":{"android":"levelo://app?vid=24885cde-2d14-41d1-a776-f8760e67ea57","ios":"levelo://app?vid=24885cde-2d14-41d1-a776-f8760e67ea57"},"vehicle_type_id":"4","last_reported":1758395169,"current_range_meters":11600,"station_id":"ce4bgup2rcd13ifvqco0","pricing_plan_id":"cebpf4jnsgd1na2vs0mg"},{"bike_id":"55f7bf54-3e4f-45c6-9fb0-11d5c0687c13","system_id":"levelo_inurba_marseille","lat":43.29523,"lon":5.38547,"is_reserved":false,"is_disabled":false,"rental_uris":{"android":"levelo://app?vid=55f7bf54-3e4f-45c6-9fb0-11d5c0687c13","ios":"levelo://app?vid=55f7bf54-3e4f-45c6-9fb0-11d5c0687c13"},"vehicle_type_id":"4","last_reported":1758395169,"current_range_meters":11600,"station_id":"ce4bgih2rcd13ifvqba0","pricing_plan_id":"cebpf4jnsgd1na2vs0mg"},{"bike_id":"6b7f5438-5b95-4c3c-9c06-f39c612d15b0","system_id":"levelo_inurba_marseille","lat":43.30876,"lon":5.39655,"is_reserved":false,"is_disabled":false,"rental_uris":{"android":"levelo://app?vid=6b7f5438-5b95-4c3c-9c06-f39c612d15b0","ios":"levelo://app?vid=6b7f5438-5b95-4c3c-9c06-f39c612d15b0"},"vehicle_type_id":"4","last_reported":1758395169,"current_range_meters":12000,"station_id":"ce4bh012rcd13ifvqcv0","pricing_plan_id":"cebpf4jnsgd1na2vs0mg"},{"bike_id":"0f7caa9f-1d1a-40d7-9b4a-2f8720e63681","system_id":"levelo_inurba_marseille","lat":43.308622,"lon":5.375283,"is_reserved":false,"is_disabled":false,"rental_uris":{"android":"levelo://app?vid=0f7caa9f-1d1a-40d7-9b4a-2f8720e63681","ios":"levelo://app?vid=0f7caa9f-1d1a-40d7-9b4a-2f8720e63681"},"vehicle_type_id":"4","last_reported":1758395169,"current_range_meters":12400,"station_id":"","pricing_plan_id":"cebpf4jnsgd1na2vs0mg"},{"bike_id":"213f818a-2fc2-423a-8734-2921a1895f7c","system_id":"levelo_inurba_marseille","lat":43.21193,"lon":5.35076,"is_reserved":false,"is_disabled":false,"rental_uris":{"android":"levelo://app?vid=213f818a-2fc2-423a-8734-2921a1895f7c","ios":"levelo://app?vid=213f818a-2fc2-423a-8734-2921a1895f7c"},"vehicle_type_id":"4","last_reported":1758395169,"current_range_meters":12400,"station_id":"st_cvj6sg6p6f1abm77japg","pricing_plan_id":"cebpf4jnsgd1na2vs0mg"},{"bike_id":"2ca73456-0604-4b0f-81b4-68896162b7b0","system_id":"levelo_inurba_marseille","lat":43.30962,"lon":5.39043,"is_reserved":false,"is_disabled":false,"rental_uris":{"android":"levelo://app?vid=2ca73456-0604-4b0f-81b4-68896162b7b0","ios":"levelo://app?vid=2ca73456-0604-4b0f-81b4-68896162b7b0"},"vehicle_type_id":"4","last_reported":1758395169,"current_range_meters":12400,"station_id":"ce4bgup2rcd13ifvqco0","pricing_plan_id":"cebpf4jnsgd1na2vs0mg"},{"bike_id":"c1843d42-9f15-4235-8c7f-0c60147cb155","system_id":"levelo_inurba_marseille","lat":43.21197,"lon":5.35064,"is_reserved":false,"is_disabled":false,"rental_uris":{"android":"levelo://app?vid=c1843d42-9f15-4235-8c7f-0c60147cb155","ios":"levelo://app?vid=c1843d42-9f15-4235-8c7f-0c60147cb155"},"vehicle_type_id":"4","last_reported":1758395169,"current_range_meters":12400,"station_id":"st_cvj6sg6p6f1abm77japg","pricing_plan_id":"cebpf4jnsgd1na2vs0mg"},{"bike_id":"faabdb89-4fff-4090-81a7-b4301c0ee320","system_id":"levelo_inurba_marseille","lat":43.30959,"lon":5.39033,"is_reserved":false,"is_disabled":false,"rental_uris":{"android":"levelo://app?vid=faabdb89-4fff-4090-81a7-b4301c0ee320","ios":"levelo://app?vid=faabdb89-4fff-4090-81a7-b4301c0ee320"},"vehicle_type_id":"4","last_reported":1758395169,"current_range_meters":12400,"station_id":"ce4bgup2rcd13ifvqco0","pricing_plan_id":"cebpf4jnsgd1na2vs0mg"},{"bike_id":"9155b054-7f08-4dce-8ba2-214d1c0ccc28","system_id":"levelo_inurba_marseille","lat":43.29777,"lon":5.39343,"is_reserved":false,"is_disabled":false,"rental_uris":{"android":"levelo://app?vid=9155b054-7f08-4dce-8ba2-214d1c0ccc28","ios":"levelo://app?vid=9155b054-7f08-4dce-8ba2-214d1c0ccc28"},"vehicle_type_id":"4","last_reported":1758395169,"current_range_meters":12000,"station_id":"chh1huq6cuj3fo74tm60","pricing_plan_id":"cebpf4jnsgd1na2vs0mg"},{"bike_id":"33148061-b9b9-4937-9310-c51234e7f386","system_id":"levelo_inurba_marseille","lat":43.27846,"lon":5.39216,"is_reserved":false,"is_disabled":false,"rental_uris":{"android":"levelo://app?vid=33148061-b9b9-4937-9310-c51234e7f386","ios":"levelo://app?vid=33148061-b9b9-4937-9310-c51234e7f386"},"vehicle_type_id":"4","last_reported":1758395169,"current_range_meters":12400,"station_id":"ce4bhjp2rcd13ifvqga0","pricing_plan_id":"cebpf4jnsgd1na2vs0mg"},{"bike_id":"55d1bc08-fd54-4a82-afc7-2adcaa7b1c4e","system_id":"levelo_inurba_marseille","lat":43.30018,"lon":5.37717,"is_reserved":false,"is_disabled":false,"rental_uris":{"android":"levelo://app?vid=55d1bc08-fd54-4a82-afc7-2adcaa7b1c4e","ios":"levelo://app?vid=55d1bc08-fd54-4a82-afc7-2adcaa7b1c4e"},"vehicle_type_id":"4","last_reported":1758395169,"current_range_meters":12800,"station_id":"","pricing_plan_id":"cebpf4jnsgd1na2vs0mg"},{"bike_id":"c60d9b1b-11ba-4e19-8f32-cb8b61b70ed5","system_id":"levelo_inurba_marseille","lat":43.30417,"lon":5.41281,"is_reserved":false,"is_disabled":false,"rental_uris":{"android":"levelo://app?vid=c60d9b1b-11ba-4e19-8f32-cb8b61b70ed5","ios":"levelo://app?vid=c60d9b1b-11ba-4e19-8f32-cb8b61b70ed5"},"vehicle_type_id":"4","last_reported":1758395169,"current_range_meters":12800,"station_id":"ce4bhop2rcd13ifvqh8g","pricing_plan_id":"cebpf4jnsgd1na2vs0mg"},{"bike_id":"2d82061a-a240-43d1-93a6-ab71cf777b3c","system_id":"levelo_inurba_marseille","lat":43.21189,"lon":5.35074,"is_reserved":false,"is_disabled":false,"rental_uris":{"android":"levelo://app?vid=2d82061a-a240-43d1-93a6-ab71cf777b3c","ios":"levelo://app?vid=2d82061a-a240-43d1-93a6-ab71cf777b3c"},"vehicle_type_id":"4","last_reported":1758395169,"current_range_meters":12800,"station_id":"st_cvj6sg6p6f1abm77japg","pricing_plan_id":"cebpf4jnsgd1na2vs0mg"},{"bike_id":"20a4eeb4-67e3-4aac-8fcc-866b4e74006f","system_id":"levelo_inurba_marseille","lat":43.29977,"lon":5.37164,"is_reserved":false,"is_disabled":false,"rental_uris":{"android":"levelo://app?vid=20a4eeb4-67e3-4aac-8fcc-866b4e74006f","ios":"levelo://app?vid=20a4eeb4-67e3-4aac-8fcc-866b4e74006f"},"vehicle_type_id":"4","last_reported":1758395169,"current_range_meters":14800,"station_id":"ce4bgr92rcd13ifvqc7g","pricing_plan_id":"cebpf4jnsgd1na2vs0mg"},{"bike_id":"438ead59-de14-4fa0-a61d-03a70a4122ae","system_id":"levelo_inurba_marseille","lat":43.97261,"lon":4.89146,"is_reserved":false,"is_disabled":true,"rental_uris":{"android":"levelo://app?vid=438ead59-de14-4fa0-a61d-03a70a4122ae","ios":"levelo://app?vid=438ead59-de14-4fa0-a61d-03a70a4122ae"},"vehicle_type_id":"4","last_reported":1758395169,"current_range_meters":12800,"station_id":"","pricing_plan_id":"cebpf4jnsgd1na2vs0mg"},{"bike_id":"cb101519-6777-4203-8c73-6b5499a58593","system_id":"levelo_inurba_marseille","lat":43.31989,"lon":5.38159,"is_reserved":false,"is_disabled":false,"rental_uris":{"android":"levelo://app?vid=cb101519-6777-4203-8c73-6b5499a58593","ios":"levelo://app?vid=cb101519-6777-4203-8c73-6b5499a58593"},"vehicle_type_id":"4","last_reported":1758395169,"current_range_meters":12800,"station_id":"ce4bhr12rcd13ifvqhpg","pricing_plan_id":"cebpf4jnsgd1na2vs0mg"},{"bike_id":"a8ade63a-44b7-44f5-bd66-c09cf1cdf164","system_id":"levelo_inurba_marseille","lat":43.280015,"lon":5.400027,"is_reserved":false,"is_disabled":false,"rental_uris":{"android":"levelo://app?vid=a8ade63a-44b7-44f5-bd66-c09cf1cdf164","ios":"levelo://app?vid=a8ade63a-44b7-44f5-bd66-c09cf1cdf164"},"vehicle_type_id":"4","last_reported":1758395169,"current_range_meters":13600,"station_id":"ce4bho92rcd13ifvqh4g","pricing_plan_id":"cebpf4jnsgd1na2vs0mg"},{"bike_id":"d701ffb6-d985-42e1-8545-ee350fa0185e","system_id":"levelo_inurba_marseille","lat":43.28598,"lon":5.37087,"is_reserved":false,"is_disabled":true,"rental_uris":{"android":"levelo://app?vid=d701ffb6-d985-42e1-8545-ee350fa0185e","ios":"levelo://app?vid=d701ffb6-d985-42e1-8545-ee350fa0185e"},"vehicle_type_id":"4","last_reported":1758395169,"current_range_meters":13600,"station_id":"ce4bht12rcd13ifvqi60","pricing_plan_id":"cebpf4jnsgd1na2vs0mg"},{"bike_id":"6d56e565-bd88-4e2d-b6e5-9867a730f820","system_id":"levelo_inurba_marseille","lat":43.295675,"lon":5.375101,"is_reserved":false,"is_disabled":false,"rental_uris":{"android":"levelo://app?vid=6d56e565-bd88-4e2d-b6e5-9867a730f820","ios":"levelo://app?vid=6d56e565-bd88-4e2d-b6e5-9867a730f820"},"vehicle_type_id":"4","last_reported":1758395169,"current_range_meters":13600,"station_id":"ce4bgh92rcd13ifvqb50","pricing_plan_id":"cebpf4jnsgd1na2vs0mg"},{"bike_id":"b28536fb-1a1f-4c02-92d1-a68528fce61d","system_id":"levelo_inurba_marseille","lat":43.29307,"lon":5.37173,"is_reserved":false,"is_disabled":true,"rental_uris":{"android":"levelo://app?vid=b28536fb-1a1f-4c02-92d1-a68528fce61d","ios":"levelo://app?vid=b28536fb-1a1f-4c02-92d1-a68528fce61d"},"vehicle_type_id":"4","last_reported":1758395169,"current_range_meters":13600,"station_id":"ce4bgh92rcd13ifvqb40","pricing_plan_id":"cebpf4jnsgd1na2vs0mg"},{"bike_id":"daaf89e0-b11c-40ea-b8fb-8129ac2df5da","system_id":"levelo_inurba_marseille","lat":43.29911,"lon":5.38523,"is_reserved":false,"is_disabled":false,"rental_uris":{"android":"levelo://app?vid=daaf89e0-b11c-40ea-b8fb-8129ac2df5da","ios":"levelo://app?vid=daaf89e0-b11c-40ea-b8fb-8129ac2df5da"},"vehicle_type_id":"4","last_reported":1758395169,"current_range_meters":13600,"station_id":"","pricing_plan_id":"cebpf4jnsgd1na2vs0mg"},{"bike_id":"97893650-9a0c-47e4-baee-ec60bbc1b06d","system_id":"levelo_inurba_marseille","lat":43.257253,"lon":5.411069,"is_reserved":false,"is_disabled":true,"rental_uris":{"android":"levelo://app?vid=97893650-9a0c-47e4-baee-ec60bbc1b06d","ios":"levelo://app?vid=97893650-9a0c-47e4-baee-ec60bbc1b06d"},"vehicle_type_id":"4","last_reported":1758395169,"current_range_meters":13600,"station_id":"ce4bhkp2rcd13ifvqgd0","pricing_plan_id":"cebpf4jnsgd1na2vs0mg"},{"bike_id":"8e6747cf-b8c6-4cd7-bba9-81728939e96e","system_id":"levelo_inurba_marseille","lat":43.27814,"lon":5.4072,"is_reserved":false,"is_disabled":true,"rental_uris":{"android":"levelo://app?vid=8e6747cf-b8c6-4cd7-bba9-81728939e96e","ios":"levelo://app?vid=8e6747cf-b8c6-4cd7-bba9-81728939e96e"},"vehicle_type_id":"4","last_reported":1758395169,"current_range_meters":13600,"station_id":"ce4bhnh2rcd13ifvqgtg","pricing_plan_id":"cebpf4jnsgd1na2vs0mg"},{"bike_id":"d0c472e7-0af0-4292-8a45-74008a21c03d","system_id":"levelo_inurba_marseille","lat":43.30253,"lon":5.40079,"is_reserved":false,"is_disabled":false,"rental_uris":{"android":"levelo://app?vid=d0c472e7-0af0-4292-8a45-74008a21c03d","ios":"levelo://app?vid=d0c472e7-0af0-4292-8a45-74008a21c03d"},"vehicle_type_id":"4","last_reported":1758395169,"current_range_meters":13600,"station_id":"ce4bgvh2rcd13ifvqcs0","pricing_plan_id":"cebpf4jnsgd1na2vs0mg"},{"bike_id":"dc55f384-f715-44d2-877d-4988f4c28e85","system_id":"levelo_inurba_marseille","lat":43.290964,"lon":5.381342,"is_reserved":false,"is_disabled":false,"rental_uris":{"android":"levelo://app?vid=dc55f384-f715-44d2-877d-4988f4c28e85","ios":"levelo://app?vid=dc55f384-f715-44d2-877d-4988f4c28e85"},"vehicle_type_id":"4","last_reported":1758395169,"current_range_meters":12800,"station_id":"ce4bh512rcd13ifvqe2g","pricing_plan_id":"cebpf4jnsgd1na2vs0mg"},{"bike_id":"595e1e58-c9ac-4fc1-aa57-c82d557e8683","system_id":"levelo_inurba_marseille","lat":43.29594,"lon":5.38097,"is_reserved":false,"is_disabled":false,"rental_uris":{"android":"levelo://app?vid=595e1e58-c9ac-4fc1-aa57-c82d557e8683","ios":"levelo://app?vid=595e1e58-c9ac-4fc1-aa57-c82d557e8683"},"vehicle_type_id":"4","last_reported":1758395169,"current_range_meters":13600,"station_id":"ce4bgl12rcd13ifvqbo0","pricing_plan_id":"cebpf4jnsgd1na2vs0mg"},{"bike_id":"2015c1f2-c286-408a-b930-50d865ce0bb9","system_id":"levelo_inurba_marseille","lat":43.21181,"lon":5.35072,"is_reserved":false,"is_disabled":false,"rental_uris":{"android":"levelo://app?vid=2015c1f2-c286-408a-b930-50d865ce0bb9","ios":"levelo://app?vid=2015c1f2-c286-408a-b930-50d865ce0bb9"},"vehicle_type_id":"4","last_reported":1758395169,"current_range_meters":13600,"station_id":"st_cvj6sg6p6f1abm77japg","pricing_plan_id":"cebpf4jnsgd1na2vs0mg"},{"bike_id":"a07a513e-e5a9-4481-8592-d991379bc662","system_id":"levelo_inurba_marseille","lat":43.337536,"lon":5.374536,"is_reserved":false,"is_disabled":false,"rental_uris":{"android":"levelo://app?vid=a07a513e-e5a9-4481-8592-d991379bc662","ios":"levelo://app?vid=a07a513e-e5a9-4481-8592-d991379bc662"},"vehicle_type_id":"4","last_reported":1758395169,"current_range_meters":13600,"station_id":"","pricing_plan_id":"cebpf4jnsgd1na2vs0mg"},{"bike_id":"12cde005-a0d0-41c8-aedf-50f7e90b7a39","system_id":"levelo_inurba_marseille","lat":43.29302,"lon":5.371663,"is_reserved":false,"is_disabled":false,"rental_uris":{"android":"levelo://app?vid=12cde005-a0d0-41c8-aedf-50f7e90b7a39","ios":"levelo://app?vid=12cde005-a0d0-41c8-aedf-50f7e90b7a39"},"vehicle_type_id":"4","last_reported":1758395169,"current_range_meters":14000,"station_id":"ce4bgh92rcd13ifvqb40","pricing_plan_id":"cebpf4jnsgd1na2vs0mg"},{"bike_id":"c06ffcb6-7614-4cae-8f82-cea6390a68ef","system_id":"levelo_inurba_marseille","lat":43.29888,"lon":5.38151,"is_reserved":false,"is_disabled":false,"rental_uris":{"android":"levelo://app?vid=c06ffcb6-7614-4cae-8f82-cea6390a68ef","ios":"levelo://app?vid=c06ffcb6-7614-4cae-8f82-cea6390a68ef"},"vehicle_type_id":"4","last_reported":1758395169,"current_range_meters":14000,"station_id":"ce4bgj12rcd13ifvqbc0","pricing_plan_id":"cebpf4jnsgd1na2vs0mg"},{"bike_id":"88282de9-b169-4668-a617-00b53be0a3ea","system_id":"levelo_inurba_marseille","lat":43.29298,"lon":5.37173,"is_reserved":false,"is_disabled":false,"rental_uris":{"android":"levelo://app?vid=88282de9-b169-4668-a617-00b53be0a3ea","ios":"levelo://app?vid=88282de9-b169-4668-a617-00b53be0a3ea"},"vehicle_type_id":"4","last_reported":1758395169,"current_range_meters":14400,"station_id":"ce4bgh92rcd13ifvqb40","pricing_plan_id":"cebpf4jnsgd1na2vs0mg"},{"bike_id":"8f90c6e9-c2a0-414b-a280-ed01b517d1e8","system_id":"levelo_inurba_marseille","lat":43.21195,"lon":5.35069,"is_reserved":false,"is_disabled":false,"rental_uris":{"android":"levelo://app?vid=8f90c6e9-c2a0-414b-a280-ed01b517d1e8","ios":"levelo://app?vid=8f90c6e9-c2a0-414b-a280-ed01b517d1e8"},"vehicle_type_id":"4","last_reported":1758395169,"current_range_meters":14000,"station_id":"st_cvj6sg6p6f1abm77japg","pricing_plan_id":"cebpf4jnsgd1na2vs0mg"},{"bike_id":"82049ca9-159a-46d5-8e53-d2f45659ee65","system_id":"levelo_inurba_marseille","lat":43.29531,"lon":5.38537,"is_reserved":false,"is_disabled":false,"rental_uris":{"android":"levelo://app?vid=82049ca9-159a-46d5-8e53-d2f45659ee65","ios":"levelo://app?vid=82049ca9-159a-46d5-8e53-d2f45659ee65"},"vehicle_type_id":"4","last_reported":1758395169,"current_range_meters":14000,"station_id":"ce4bgih2rcd13ifvqba0","pricing_plan_id":"cebpf4jnsgd1na2vs0mg"},{"bike_id":"534ff5b4-9e83-493b-9063-104ef0af4212","system_id":"levelo_inurba_marseille","lat":43.27992,"lon":5.41672,"is_reserved":false,"is_disabled":true,"rental_uris":{"android":"levelo://app?vid=534ff5b4-9e83-493b-9063-104ef0af4212","ios":"levelo://app?vid=534ff5b4-9e83-493b-9063-104ef0af4212"},"vehicle_type_id":"4","last_reported":1758395169,"current_range_meters":14000,"station_id":"ce4bho12rcd13ifvqh1g","pricing_plan_id":"cebpf4jnsgd1na2vs0mg"},{"bike_id":"bbea20da-e5b9-4c9d-a2b5-b81c13865b5c","system_id":"levelo_inurba_marseille","lat":43.31239,"lon":5.36856,"is_reserved":false,"is_disabled":false,"rental_uris":{"android":"levelo://app?vid=bbea20da-e5b9-4c9d-a2b5-b81c13865b5c","ios":"levelo://app?vid=bbea20da-e5b9-4c9d-a2b5-b81c13865b5c"},"vehicle_type_id":"4","last_reported":1758395169,"current_range_meters":14000,"station_id":"ce4bgl92rcd13ifvqbq0","pricing_plan_id":"cebpf4jnsgd1na2vs0mg"},{"bike_id":"6e9042cf-83d9-4b58-970e-09a2949ba46c","system_id":"levelo_inurba_marseille","lat":43.29604,"lon":5.38113,"is_reserved":false,"is_disabled":false,"rental_uris":{"android":"levelo://app?vid=6e9042cf-83d9-4b58-970e-09a2949ba46c","ios":"levelo://app?vid=6e9042cf-83d9-4b58-970e-09a2949ba46c"},"vehicle_type_id":"4","last_reported":1758395169,"current_range_meters":14000,"station_id":"ce4bgl12rcd13ifvqbo0","pricing_plan_id":"cebpf4jnsgd1na2vs0mg"},{"bike_id":"6068237a-53c7-4954-ba3c-8bd01b37092a","system_id":"levelo_inurba_marseille","lat":43.29266,"lon":5.38446,"is_reserved":false,"is_disabled":false,"rental_uris":{"android":"levelo://app?vid=6068237a-53c7-4954-ba3c-8bd01b37092a","ios":"levelo://app?vid=6068237a-53c7-4954-ba3c-8bd01b37092a"},"vehicle_type_id":"4","last_reported":1758395169,"current_range_meters":14400,"station_id":"ce4bh692rcd13ifvqea0","pricing_plan_id":"cebpf4jnsgd1na2vs0mg"},{"bike_id":"9637c146-59d7-436a-a4f3-e8022fe36949","system_id":"levelo_inurba_marseille","lat":43.21196,"lon":5.35073,"is_reserved":false,"is_disabled":false,"rental_uris":{"android":"levelo://app?vid=9637c146-59d7-436a-a4f3-e8022fe36949","ios":"levelo://app?vid=9637c146-59d7-436a-a4f3-e8022fe36949"},