{"last_updated":1690481281,"ttl":30,"version":"2.2","data":{"bikes":[{"bike_id":"c2662c75-0e9f-4759-92fd-f76e2f33c57f","system_id":"levelo_inurba_marseille","lat":43.312239,"lon":5.368562,"is_reserved":false,"is_disabled":false,"rental_uris":{"android":"levelo://app?vid=c2662c75-0e9f-4759-92fd-f76e2f33c57f","ios":"levelo://app?vid=c2662c75-0e9f-4759-92fd-f76e2f33c57f"},"vehicle_type_id":"4","last_reported":1690481281,"current_range_meters":16000,"station_id":"ce4bgl92rcd13ifvqbq0","pricing_plan_id":"free"},{"bike_id":"e526d4e2-849c-44ae-a0d7-5572a62df909","system_id":"levelo_inurba_marseille","lat":43.312239,"lon":5.368562,"is_reserved":false,"is_disabled":false,"rental_uris":{"android":"levelo://app?vid=e526d4e2-849c-44ae-a0d7-5572a62df909","ios":"levelo://app?vid=e526d4e2-849c-44ae-a0d7-5572a62df909"},"vehicle_type_id":"4","last_reported":1690481281,"current_range_meters":31600,"station_id":"ce4bgl92rcd13ifvqbq0","pricing_plan_id":"free"},{"bike_id":"efffa7df-a225-4e7b-9f47-9ca2c3736bda","system_id":"levelo_inurba_marseille","lat":43.312239,"lon":5.368562,"is_reserved":false,"is_disabled":false,"rental_uris":{"android":"levelo://app?vid=efffa7df-a225-4e7b-9f47-9ca2c3736bda","ios":"levelo://app?vid=efffa7df-a225-4e7b-9f47-9ca2c3736bda"},"vehicle_type_id":"4","last_reported":1690481281,"current_range_meters":17200,"station_id":"ce4bgl92rcd13ifvqbq0","pricing_plan_id":"free"},{"bike_id":"99ed8914-8e38-44f5-a141-5c736510e7e5","system_id":"levelo_inurba_marseille","lat":43.312239,"lon":5.368562,"is_reserved":false,"is_disabled":false,"rental_uris":{"android":"levelo://app?vid=99ed8914-8e38-44f5-a141-5c736510e7e5","ios":"levelo://app?vid=99ed8914-8e38-44f5-a141-5c736510e7e5"},"vehicle_type_id":"4","last_reported":1690481281,"current_range_meters":29600,"station_id":"ce4bgl92rcd13ifvqbq0","pricing_plan_id":"free"},{"bike_id":"e63b1125-295c-44eb-b72c-fc3945365bb0","system_id":"levelo_inurba_marseille","lat":43.312239,"lon":5.368562,"is_reserved":false,"is_disabled":false,"rental_uris":{"android":"levelo://app?vid=e63b1125-295c-44eb-b72c-fc3945365bb0","ios":"levelo://app?vid=e63b1125-295c-44eb-b72c-fc3945365bb0"},"vehicle_type_id":"4","last_reported":1690481281,"current_range_meters":29200,"station_id":"ce4bgl92rcd13ifvqbq0","pricing_plan_id":"free"},{"bike_id":"edd0aebc-9e31-4443-a2be-78e77f644fb1","system_id":"levelo_inurba_marseille","lat":43.314811,"lon":5.373103,"is_reserved":false,"is_disabled":false,"rental_uris":{"android":"levelo://app?vid=edd0aebc-9e31-4443-a2be-78e77f644fb1","ios":"levelo://app?vid=edd0aebc-9e31-4443-a2be-78e77f644fb1"},"vehicle_type_id":"4","last_reported":1690481281,"current_range_meters":24800,"station_id":"ce4bgt12rcd13ifvqcd0","pricing_plan_id":"free"},{"bike_id":"5296086f-ae03-41e0-9e04-1aa649d720b4","system_id":"levelo_inurba_marseille","lat":43.314811,"lon":5.373103,"is_reserved":false,"is_disabled":false,"rental_uris":{"android":"levelo://app?vid=5296086f-ae03-41e0-9e04-1aa649d720b4","ios":"levelo://app?vid=5296086f-ae03-41e0-9e04-1aa649d720b4"},"vehicle_type_id":"4","last_reported":1690481281,"current_range_meters":16000,"station_id":"ce4bgt12rcd13ifvqcd0","pricing_plan_id":"free"},{"bike_id":"2dc02b09-e624-4df2-9a79-f4c3ca8b5b78","system_id":"levelo_inurba_marseille","lat":43.314811,"lon":5.373103,"is_reserved":false,"is_disabled":false,"rental_uris":{"android":"levelo://app?vid=2dc02b09-e624-4df2-9a79-f4c3ca8b5b78","ios":"levelo://app?vid=2dc02b09-e624-4df2-9a79-f4c3ca8b5b78"},"vehicle_type_id":"4","last_reported":1690481281,"current_range_meters":23200,"station_id":"ce4bgt12rcd13ifvqcd0","pricing_plan_id":"free"},{"bike_id":"86cf9da6-d348-492f-b011-6e9aaa1b1391","system_id":"levelo_inurba_marseille","lat":43.31498,"lon":5.37308,"is_reserved":false,"is_disabled":false,"rental_uris":{"android":"levelo://app?vid=86cf9da6-d348-492f-b011-6e9aaa1b1391","ios":"levelo://app?vid=86cf9da6-d348-492f-b011-6e9aaa1b1391"},"vehicle_type_id":"4","last_reported":1690481281,"current_range_meters":25200,"station_id":"ce4bgt12rcd13ifvqcd0","pricing_plan_id":"free"},{"bike_id":"f56ae1c4-29ef-4e22-9459-77ea82e027b7","system_id":"levelo_inurba_marseille","lat":43.31488,"lon":5.37315,"is_reserved":false,"is_disabled":false,"rental_uris":{"android":"levelo://app?vid=f56ae1c4-29ef-4e22-9459-77ea82e027b7","ios":"levelo://app?vid=f56ae1c4-29ef-4e22-9459-77ea82e027b7"},"vehicle_type_id":"4","last_reported":1690481281,"current_range_meters":25200,"station_id":"ce4bgt12rcd13ifvqcd0","pricing_plan_id":"free"},{"bike_id":"df7fb29a-65b8-44b6-829e-e9da17a99ae3","system_id":"levelo_inurba_marseille","lat":43.314811,"lon":5.373104,"is_reserved":false,"is_disabled":false,"rental_uris":{"android":"levelo://app?vid=df7fb29a-65b8-44b6-829e-e9da17a99ae3","ios":"levelo://app?vid=df7fb29a-65b8-44b6-829e-e9da17a99ae3"},"vehicle_type_id":"4","last_reported":1690481281,"current_range_meters":13200,"station_id":"ce4bgt12rcd13ifvqcd0","pricing_plan_id":"free"},{"bike_id":"737e36f8-b3bd-4e07-8acd-81d5a4bc85a0","system_id":"levelo_inurba_marseille","lat":43.30697,"lon":5.3655,"is_reserved":false,"is_disabled":false,"rental_uris":{"android":"levelo://app?vid=737e36f8-b3bd-4e07-8acd-81d5a4bc85a0","ios":"levelo://app?vid=737e36f8-b3bd-4e07-8acd-81d5a4bc85a0"},"vehicle_type_id":"4","last_reported":1690481281,"current_range_meters":12000,"station_id":"","pricing_plan_id":"free"},{"bike_id":"2f5f1106-3e56-44e9-a5dc-814294b85a3d","system_id":"levelo_inurba_marseille","lat":43.311131,"lon":5.377651,"is_reserved":false,"is_disabled":false,"rental_uris":{"android":"levelo://app?vid=2f5f1106-3e56-44e9-a5dc-814294b85a3d","ios":"levelo://app?vid=2f5f1106-3e56-44e9-a5dc-814294b85a3d"},"vehicle_type_id":"4","last_reported":1690481281,"current_range_meters":28800,"station_id":"ce4bgt92rcd13ifvqcg0","pricing_plan_id":"free"},{"bike_id":"f9b47dcf-52c8-47c2-9265-71554d1c0ea0","system_id":"levelo_inurba_marseille","lat":43.311125,"lon":5.377624,"is_reserved":false,"is_disabled":false,"rental_uris":{"android":"levelo://app?vid=f9b47dcf-52c8-47c2-9265-71554d1c0ea0","ios":"levelo://app?vid=f9b47dcf-52c8-47c2-9265-71554d1c0ea0"},"vehicle_type_id":"4","last_reported":1690481281,"current_range_meters":7600,"station_id":"ce4bgt92rcd13ifvqcg0","pricing_plan_id":"free"},{"bike_id":"4b5934f4-d20d-4130-a9b9-19bb06e4b2c5","system_id":"levelo_inurba_marseille","lat":43.31121,"lon":5.37779,"is_reserved":false,"is_disabled":false,"rental_uris":{"android":"levelo://app?vid=4b5934f4-d20d-4130-a9b9-19bb06e4b2c5","ios":"levelo://app?vid=4b5934f4-d20d-4130-a9b9-19bb06e4b2c5"},"vehicle_type_id":"4","last_reported":1690481281,"current_range_meters":0,"station_id":"ce4bgt92rcd13ifvqcg0","pricing_plan_id":"free"},{"bike_id":"787637a1-5fec-4694-b5bb-cd293e6cf8c5","system_id":"levelo_inurba_marseille","lat":43.3078,"lon":5.37652,"is_reserved":false,"is_disabled":false,"rental_uris":{"android":"levelo://app?vid=787637a1-5fec-4694-b5bb-cd293e6cf8c5","ios":"levelo://app?vid=787637a1-5fec-4694-b5bb-cd293e6cf8c5"},"vehicle_type_id":"4","last_reported":1690481281,"current_range_meters":22800,"station_id":"ce4bgv92rcd13ifvqcq0","pricing_plan_id":"free"},{"bike_id":"5beba453-9cc9-45f0-8f98-0e8615e6423a","system_id":"levelo_inurba_marseille","lat":43.307945,"lon":5.376487,"is_reserved":false,"is_disabled":false,"rental_uris":{"android":"levelo://app?vid=5beba453-9cc9-45f0-8f98-0e8615e6423a","ios":"levelo://app?vid=5beba453-9cc9-45f0-8f98-0e8615e6423a"},"vehicle_type_id":"4","last_reported":1690481281,"current_range_meters":8000,"station_id":"ce4bgv92rcd13ifvqcq0","pricing_plan_id":"free"},{"bike_id":"1a0f20fc-6aa6-45bb-923c-2c851266a59c","system_id":"levelo_inurba_marseille","lat":43.307945,"lon":5.376487,"is_reserved":false,"is_disabled":false,"rental_uris":{"android":"levelo://app?vid=1a0f20fc-6aa6-45bb-923c-2c851266a59c","ios":"levelo://app?vid=1a0f20fc-6aa6-45bb-923c-2c851266a59c"},"vehicle_type_id":"4","last_reported":1690481281,"current_range_meters":6000,"station_id":"ce4bgv92rcd13ifvqcq0","pricing_plan_id":"free"},{"bike_id":"3601c672-6142-453f-b718-ff0de50828d4","system_id":"levelo_inurba_marseille","lat":43.31706,"lon":5.3774,"is_reserved":false,"is_disabled":false,"rental_uris":{"android":"levelo://app?vid=3601c672-6142-453f-b718-ff0de50828d4","ios":"levelo://app?vid=3601c672-6142-453f-b718-ff0de50828d4"},"vehicle_type_id":"4","last_reported":1690481281,"current_range_meters":26000,"station_id":"ce4bgth2rcd13ifvqch0","pricing_plan_id":"free"},{"bike_id":"779140d3-bfc0-47f1-bc72-af3317c0a488","system_id":"levelo_inurba_marseille","lat":43.303046,"lon":5.368981,"is_reserved":false,"is_disabled":false,"rental_uris":{"android":"levelo://app?vid=779140d3-bfc0-47f1-bc72-af3317c0a488","ios":"levelo://app?vid=779140d3-bfc0-47f1-bc72-af3317c0a488"},"vehicle_type_id":"4","last_reported":1690481281,"current_range_meters":16800,"station_id":"ce4bgqh2rcd13ifvqc5g","pricing_plan_id":"free"},{"bike_id":"6bc369f5-6da9-4ef5-a152-12f11b99da4b","system_id":"levelo_inurba_marseille","lat":43.31899,"lon":5.37879,"is_reserved":false,"is_disabled":false,"rental_uris":{"android":"levelo://app?vid=6bc369f5-6da9-4ef5-a152-12f11b99da4b","ios":"levelo://app?vid=6bc369f5-6da9-4ef5-a152-12f11b99da4b"},"vehicle_type_id":"4","last_reported":1690481281,"current_range_meters":23600,"station_id":"","pricing_plan_id":"free"},{"bike_id":"e9e00e1c-7cac-42e2-9059-9dc5282d624c","system_id":"levelo_inurba_marseille","lat":43.304606,"lon":5.379026,"is_reserved":false,"is_disabled":false,"rental_uris":{"android":"levelo://app?vid=e9e00e1c-7cac-42e2-9059-9dc5282d624c","ios":"levelo://app?vid=e9e00e1c-7cac-42e2-9059-9dc5282d624c"},"vehicle_type_id":"4","last_reported":1690481281,"current_range_meters":0,"station_id":"ce4bgup2rcd13ifvqcn0","pricing_plan_id":"free"},{"bike_id":"2f7c656a-1ed8-481f-89b6-5e19f5f3170e","system_id":"levelo_inurba_marseille","lat":43.319935,"lon":5.381699,"is_reserved":false,"is_disabled":false,"rental_uris":{"android":"levelo://app?vid=2f7c656a-1ed8-481f-89b6-5e19f5f3170e","ios":"levelo://app?vid=2f7c656a-1ed8-481f-89b6-5e19f5f3170e"},"vehicle_type_id":"4","last_reported":1690481281,"current_range_meters":800,"station_id":"ce4bhr12rcd13ifvqhpg","pricing_plan_id":"free"},{"bike_id":"cf0ea1af-64d8-480f-9a1b-79465261b70f","system_id":"levelo_inurba_marseille","lat":43.313571,"lon":5.384829,"is_reserved":false,"is_disabled":false,"rental_uris":{"android":"levelo://app?vid=cf0ea1af-64d8-480f-9a1b-79465261b70f","ios":"levelo://app?vid=cf0ea1af-64d8-480f-9a1b-79465261b70f"},"vehicle_type_id":"4","last_reported":1690481281,"current_range_meters":20800,"station_id":"ce4bgt92rcd13ifvqcf0","pricing_plan_id":"free"},{"bike_id":"60edaba6-602b-408e-bec3-6a0af0d0e33b","system_id":"levelo_inurba_marseille","lat":43.29933,"lon":5.37467,"is_reserved":false,"is_disabled":false,"rental_uris":{"android":"levelo://app?vid=60edaba6-602b-408e-bec3-6a0af0d0e33b","ios":"levelo://app?vid=60edaba6-602b-408e-bec3-6a0af0d0e33b"},"vehicle_type_id":"4","last_reported":1690481281,"current_range_meters":21200,"station_id":"","pricing_plan_id":"free"},{"bike_id":"91e8e7e5-1713-4a86-a331-5c4b200d440a","system_id":"levelo_inurba_marseille","lat":43.29849,"lon":5.36285,"is_reserved":false,"is_disabled":false,"rental_uris":{"android":"levelo://app?vid=91e8e7e5-1713-4a86-a331-5c4b200d440a","ios":"levelo://app?vid=91e8e7e5-1713-4a86-a331-5c4b200d440a"},"vehicle_type_id":"4","last_reported":1690481281,"current_range_meters":4000,"station_id":"ce4bgpp2rcd13ifvqc3g","pricing_plan_id":"free"},{"bike_id":"7e499a19-96b0-4e6a-81d2-fdd0f8fe405e","system_id":"levelo_inurba_marseille","lat":43.29849,"lon":5.36285,"is_reserved":false,"is_disabled":false,"rental_uris":{"android":"levelo://app?vid=7e499a19-96b0-4e6a-81d2-fdd0f8fe405e","ios":"levelo://app?vid=7e499a19-96b0-4e6a-81d2-fdd0f8fe405e"},"vehicle_type_id":"4","last_reported":1690481281,"current_range_meters":12000,"station_id":"ce4bgpp2rcd13ifvqc3g","pricing_plan_id":"free"},{"bike_id":"9615c956-ab99-416b-88c4-2542cf685f0e","system_id":"levelo_inurba_marseille","lat":43.311722,"lon":5.387247,"is_reserved":false,"is_disabled":false,"rental_uris":{"android":"levelo://app?vid=9615c956-ab99-416b-88c4-2542cf685f0e","ios":"levelo://app?vid=9615c956-ab99-416b-88c4-2542cf685f0e"},"vehicle_type_id":"4","last_reported":1690481281,"current_range_meters":20000,"station_id":"ce4bgv12rcd13ifvqcp0","pricing_plan_id":"free"},{"bike_id":"d7282c71-8b99-4fbb-9bd1-169ec1261026","system_id":"levelo_inurba_marseille","lat":43.311722,"lon":5.387247,"is_reserved":false,"is_disabled":false,"rental_uris":{"android":"levelo://app?vid=d7282c71-8b99-4fbb-9bd1-169ec1261026","ios":"levelo://app?vid=d7282c71-8b99-4fbb-9bd1-169ec1261026"},"vehicle_type_id":"4","last_reported":1690481281,"current_range_meters":6000,"station_id":"ce4bgv12rcd13ifvqcp0","pricing_plan_id":"free"},{"bike_id":"7bcedb3d-3ccd-4b04-8272-83dfdeff650b","system_id":"levelo_inurba_marseille","lat":43.311722,"lon":5.387247,"is_reserved":false,"is_disabled":false,"rental_uris":{"android":"levelo://app?vid=7bcedb3d-3ccd-4b04-8272-83dfdeff650b","ios":"levelo://app?vid=7bcedb3d-3ccd-4b04-8272-83dfdeff650b"},"vehicle_type_id":"4","last_reported":1690481281,"current_range_meters":3600,"station_id":"ce4bgv12rcd13ifvqcp0","pricing_plan_id":"free"},{"bike_id":"6f76796d-a0ae-427d-8a1a-394474124fb1","system_id":"levelo_inurba_marseille","lat":43.30103,"lon":5.37991,"is_reserved":false,"is_disabled":false,"rental_uris":{"android":"levelo://app?vid=6f76796d-a0ae-427d-8a1a-394474124fb1","ios":"levelo://app?vid=6f76796d-a0ae-427d-8a1a-394474124fb1"},"vehicle_type_id":"4","last_reported":1690481281,"current_range_meters":15600,"station_id":"","pricing_plan_id":"free"},{"bike_id":"77e68a77-a9c2-4597-a8cb-0340bfbebfbb","system_id":"levelo_inurba_marseille","lat":43.29778,"lon":5.37105,"is_reserved":false,"is_disabled":false,"rental_uris":{"android":"levelo://app?vid=77e68a77-a9c2-4597-a8cb-0340bfbebfbb","ios":"levelo://app?vid=77e68a77-a9c2-4597-a8cb-0340bfbebfbb"},"vehicle_type_id":"4","last_reported":1690481281,"current_range_meters":1600,"station_id":"ce4bgop2rcd13ifvqc1g","pricing_plan_id":"free"},{"bike_id":"c8f6d41a-c553-4562-98a9-85488af92a6a","system_id":"levelo_inurba_marseille","lat":43.32824,"lon":5.36674,"is_reserved":false,"is_disabled":false,"rental_uris":{"android":"levelo://app?vid=c8f6d41a-c553-4562-98a9-85488af92a6a","ios":"levelo://app?vid=c8f6d41a-c553-4562-98a9-85488af92a6a"},"vehicle_type_id":"4","last_reported":1690481281,"current_range_meters":28400,"station_id":"ce4bhs92rcd13ifvqi0g","pricing_plan_id":"free"},{"bike_id":"2f4b42df-a3df-4439-a001-cfde16dcbf2c","system_id":"levelo_inurba_marseille","lat":43.328371,"lon":5.366909,"is_reserved":false,"is_disabled":false,"rental_uris":{"android":"levelo://app?vid=2f4b42df-a3df-4439-a001-cfde16dcbf2c","ios":"levelo://app?vid=2f4b42df-a3df-4439-a001-cfde16dcbf2c"},"vehicle_type_id":"4","last_reported":1690481281,"current_range_meters":29600,"station_id":"ce4bhs92rcd13ifvqi0g","pricing_plan_id":"free"},{"bike_id":"f1c127c5-b243-479e-9b5d-feb644a4add8","system_id":"levelo_inurba_marseille","lat":43.297163,"lon":5.365866,"is_reserved":false,"is_disabled":false,"rental_uris":{"android":"levelo://app?vid=f1c127c5-b243-479e-9b5d-feb644a4add8","ios":"levelo://app?vid=f1c127c5-b243-479e-9b5d-feb644a4add8"},"vehicle_type_id":"4","last_reported":1690481281,"current_range_meters":2000,"station_id":"ce4bgn12rcd13ifvqbt0","pricing_plan_id":"free"},{"bike_id":"2bbd79c2-353b-4118-91fc-2efd54ae6c44","system_id":"levelo_inurba_marseille","lat":43.32835,"lon":5.36687,"is_reserved":false,"is_disabled":false,"rental_uris":{"android":"levelo://app?vid=2bbd79c2-353b-4118-91fc-2efd54ae6c44","ios":"levelo://app?vid=2bbd79c2-353b-4118-91fc-2efd54ae6c44"},"vehicle_type_id":"4","last_reported":1690481281,"current_range_meters":28800,"station_id":"ce4bhs92rcd13ifvqi0g","pricing_plan_id":"free"},{"bike_id":"dd789220-e7b5-42c1-b9dc-dc4243148021","system_id":"levelo_inurba_marseille","lat":43.297163,"lon":5.365866,"is_reserved":false,"is_disabled":false,"rental_uris":{"android":"levelo://app?vid=dd789220-e7b5-42c1-b9dc-dc4243148021","ios":"levelo://app?vid=dd789220-e7b5-42c1-b9dc-dc4243148021"},"vehicle_type_id":"4","last_reported":1690481281,"current_range_meters":31600,"station_id":"ce4bgn12rcd13ifvqbt0","pricing_plan_id":"free"},{"bike_id":"d099489d-fe72-41d1-a15e-8f865bdbd725","system_id":"levelo_inurba_marseille","lat":43.297163,"lon":5.365866,"is_reserved":false,"is_disabled":false,"rental_uris":{"android":"levelo://app?vid=d099489d-fe72-41d1-a15e-8f865bdbd725","ios":"levelo://app?vid=d099489d-fe72-41d1-a15e-8f865bdbd725"},"vehicle_type_id":"4","last_reported":1690481281,"current_range_meters":22400,"station_id":"ce4bgn12rcd13ifvqbt0","pricing_plan_id":"free"},{"bike_id":"8c638f05-746b-42f9-a5b2-4560d5a65ae3","system_id":"levelo_inurba_marseille","lat":43.297163,"lon":5.365866,"is_reserved":false,"is_disabled":false,"rental_uris":{"android":"levelo://app?vid=8c638f05-746b-42f9-a5b2-4560d5a65ae3","ios":"levelo://app?vid=8c638f05-746b-42f9-a5b2-4560d5a65ae3"},"vehicle_type_id":"4","last_reported":1690481281,"current_range_meters":4800,"station_id":"ce4bgn12rcd13ifvqbt0","pricing_plan_id":"free"},{"bike_id":"a9ca91df-4b04-44ba-9501-0b9edd59e71f","system_id":"levelo_inurba_marseille","lat":43.297163,"lon":5.365866,"is_reserved":false,"is_disabled":false,"rental_uris":{"android":"levelo://app?vid=a9ca91df-4b04-44ba-9501-0b9edd59e71f","ios":"levelo://app?vid=a9ca91df-4b04-44ba-9501-0b9edd59e71f"},"vehicle_type_id":"4","last_reported":1690481281,"current_range_meters":19200,"station_id":"ce4bgn12rcd13ifvqbt0","pricing_plan_id":"free"},{"bike_id":"98eff4c6-ffdb-4f8d-9743-24f60aff0107","system_id":"levelo_inurba_marseille","lat":43.297163,"lon":5.365866,"is_reserved":false,"is_disabled":false,"rental_uris":{"android":"levelo://app?vid=98eff4c6-ffdb-4f8d-9743-24f60aff0107","ios":"levelo://app?vid=98eff4c6-ffdb-4f8d-9743-24f60aff0107"},"vehicle_type_id":"4","last_reported":1690481281,"current_range_meters":26800,"station_id":"ce4bgn12rcd13ifvqbt0","pricing_plan_id":"free"},{"bike_id":"1568c2e4-9ac5-4adf-a507-2fe370691422","system_id":"levelo_inurba_marseille","lat":43.296129,"lon":5.370777,"is_reserved":false,"is_disabled":false,"rental_uris":{"android":"levelo://app?vid=1568c2e4-9ac5-4adf-a507-2fe370691422","ios":"levelo://app?vid=1568c2e4-9ac5-4adf-a507-2fe370691422"},"vehicle_type_id":"4","last_reported":1690481281,"current_range_meters":18000,"station_id":"ce4bgnh2rcd13ifvqc0g","pricing_plan_id":"free"},{"bike_id":"be3ac29d-12a4-4229-afd0-e12f49567890","system_id":"levelo_inurba_marseille","lat":43.297138,"lon":5.37688,"is_reserved":false,"is_disabled":false,"rental_uris":{"android":"levelo://app?vid=be3ac29d-12a4-4229-afd0-e12f49567890","ios":"levelo://app?vid=be3ac29d-12a4-4229-afd0-e12f49567890"},"vehicle_type_id":"4","last_reported":1690481281,"current_range_meters":0,"station_id":"ce4bgkh2rcd13ifvqbl0","pricing_plan_id":"free"},{"bike_id":"2677c7a2-99bb-4275-8181-917cf1b81fcf","system_id":"levelo_inurba_marseille","lat":43.309589,"lon":5.390258,"is_reserved":false,"is_disabled":false,"rental_uris":{"android":"levelo://app?vid=2677c7a2-99bb-4275-8181-917cf1b81fcf","ios":"levelo://app?vid=2677c7a2-99bb-4275-8181-917cf1b81fcf"},"vehicle_type_id":"4","last_reported":1690481281,"current_range_meters":14800,"station_id":"ce4bgup2rcd13ifvqco0","pricing_plan_id":"free"},{"bike_id":"80996baf-8597-4552-b66a-a0139bedf903","system_id":"levelo_inurba_marseille","lat":43.309502,"lon":5.390365,"is_reserved":false,"is_disabled":false,"rental_uris":{"android":"levelo://app?vid=80996baf-8597-4552-b66a-a0139bedf903","ios":"levelo://app?vid=80996baf-8597-4552-b66a-a0139bedf903"},"vehicle_type_id":"4","last_reported":1690481281,"current_range_meters":9200,"station_id":"","pricing_plan_id":"free"},{"bike_id":"f0b1921d-8fc5-42f6-8214-26455e772ce5","system_id":"levelo_inurba_marseille","lat":43.309589,"lon":5.390258,"is_reserved":false,"is_disabled":false,"rental_uris":{"android":"levelo://app?vid=f0b1921d-8fc5-42f6-8214-26455e772ce5","ios":"levelo://app?vid=f0b1921d-8fc5-42f6-8214-26455e772ce5"},"vehicle_type_id":"4","last_reported":1690481281,"current_range_meters":28800,"station_id":"ce4bgup2rcd13ifvqco0","pricing_plan_id":"free"},{"bike_id":"5c81ff1f-f1e1-4b58-a7fc-5a7821cc07d9","system_id":"levelo_inurba_marseille","lat":43.317557,"lon":5.390173,"is_reserved":false,"is_disabled":false,"rental_uris":{"android":"levelo://app?vid=5c81ff1f-f1e1-4b58-a7fc-5a7821cc07d9","ios":"levelo://app?vid=5c81ff1f-f1e1-4b58-a7fc-5a7821cc07d9"},"vehicle_type_id":"4","last_reported":1690481281,"current_range_meters":30800,"station_id":"ce4bhqp2rcd13ifvqhng","pricing_plan_id":"free"},{"bike_id":"7d06e824-8c6e-42af-a43b-249becf12cd1","system_id":"levelo_inurba_marseille","lat":43.298037,"lon":5.381066,"is_reserved":false,"is_disabled":false,"rental_uris":{"android":"levelo://app?vid=7d06e824-8c6e-42af-a43b-249becf12cd1","ios":"levelo://app?vid=7d06e824-8c6e-42af-a43b-249becf12cd1"},"vehicle_type_id":"4","last_reported":1690481281,"current_range_meters":16800,"station_id":"ce4bgip2rcd13ifvqbb0","pricing_plan_id":"free"},{"bike_id":"d90f8dc7-7bbe-42de-925c-ce8190a1de89","system_id":"levelo_inurba_marseille","lat":43.298037,"lon":5.381066,"is_reserved":false,"is_disabled":false,"rental_uris":{"android":"levelo://app?vid=d90f8dc7-7bbe-42de-925c-ce8190a1de89","ios":"levelo://app?vid=d90f8dc7-7bbe-42de-925c-ce8190a1de89"},"vehicle_type_id":"4","last_reported":1690481281,"current_range_meters":4400,"station_id":"ce4bgip2rcd13ifvqbb0","pricing_plan_id":"free"},{"bike_id":"8f1f73a0-5e50-40b0-8ec2-e75c76725eed","system_id":"levelo_inurba_marseille","lat":43.298037,"lon":5.381066,"is_reserved":false,"is_disabled":false,"rental_uris":{"android":"levelo://app?vid=8f1f73a0-5e50-40b0-8ec2-e75c76725eed","ios":"levelo://app?vid=8f1f73a0-5e50-40b0-8ec2-e75c76725eed"},"vehicle_type_id":"4","last_reported":1690481281,"current_range_meters":23200,"station_id":"ce4bgip2rcd13ifvqbb0","pricing_plan_id":"free"},{"bike_id":"d7a5b13e-a8b3-4ea3-95a2-b2ea6076dde2","system_id":"levelo_inurba_marseille","lat":43.298037,"lon":5.381066,"is_reserved":false,"is_disabled":false,"rental_uris":{"android":"levelo://app?vid=d7a5b13e-a8b3-4ea3-95a2-b2ea6076dde2","ios":"levelo://app?vid=d7a5b13e-a8b3-4ea3-95a2-b2ea6076dde2"},"vehicle_type_id":"4","last_reported":1690481281,"current_range_meters":5200,"station_id":"ce4bgip2rcd13ifvqbb0","pricing_plan_id":"free"},{"bike_id":"c6d69b85-0479-497f-a3d0-900e15e9d444","system_id":"levelo_inurba_marseille","lat":43.298037,"lon":5.381066,"is_reserved":false,"is_disabled":false,"rental_uris":{"android":"levelo://app?vid=c6d69b85-0479-497f-a3d0-900e15e9d444","ios":"levelo://app?vid=c6d69b85-0479-497f-a3d0-900e15e9d444"},"vehicle_type_id":"4","last_reported":1690481281,"current_range_meters":5200,"station_id":"ce4bgip2rcd13ifvqbb0","pricing_plan_id":"free"},{"bike_id":"3acfc948-35eb-4026-940a-a95c80cf42c1","system_id":"levelo_inurba_marseille","lat":43.29576,"lon":5.37505,"is_reserved":false,"is_disabled":false,"rental_uris":{"android":"levelo://app?vid=3acfc948-35eb-4026-940a-a95c80cf42c1","ios":"levelo://app?vid=3acfc948-35eb-4026-940a-a95c80cf42c1"},"vehicle_type_id":"4","last_reported":1690481281,"current_range_meters":31200,"station_id":"ce4bgh92rcd13ifvqb50","pricing_plan_id":"free"},{"bike_id":"4d7cbf7d-cc30-4dce-bc39-08abbf442738","system_id":"levelo_inurba_marseille","lat":43.295748,"lon":5.37522,"is_reserved":false,"is_disabled":false,"rental_uris":{"android":"levelo://app?vid=4d7cbf7d-cc30-4dce-bc39-08abbf442738","ios":"levelo://app?vid=4d7cbf7d-cc30-4dce-bc39-08abbf442738"},"vehicle_type_id":"4","last_reported":1690481281,"current_range_meters":0,"station_id":"ce4bgh92rcd13ifvqb50","pricing_plan_id":"free"},{"bike_id":"da32cbfd-b345-406c-8603-0c0a96d229c9","system_id":"levelo_inurba_marseille","lat":43.30428,"lon":5.38882,"is_reserved":false,"is_disabled":false,"rental_uris":{"android":"levelo://app?vid=da32cbfd-b345-406c-8603-0c0a96d229c9","ios":"levelo://app?vid=da32cbfd-b345-406c-8603-0c0a96d229c9"},"vehicle_type_id":"4","last_reported":1690481281,"current_range_meters":6800,"station_id":"ce4bgk12rcd13ifvqbi0","pricing_plan_id":"free"},{"bike_id":"5d5cbd49-cbf3-47ac-bdb5-dbbf27456681","system_id":"levelo_inurba_marseille","lat":43.304278,"lon":5.388868,"is_reserved":false,"is_disabled":false,"rental_uris":{"android":"levelo://app?vid=5d5cbd49-cbf3-47ac-bdb5-dbbf27456681","ios":"levelo://app?vid=5d5cbd49-cbf3-47ac-bdb5-dbbf27456681"},"vehicle_type_id":"4","last_reported":1690481281,"current_range_meters":6000,"station_id":"ce4bgk12rcd13ifvqbi0","pricing_plan_id":"free"},{"bike_id":"6a443d1e-fe01-4d31-a86f-9c1b930f54cc","system_id":"levelo_inurba_marseille","lat":43.29567,"lon":5.37516,"is_reserved":false,"is_disabled":false,"rental_uris":{"android":"levelo://app?vid=6a443d1e-fe01-4d31-a86f-9c1b930f54cc","ios":"levelo://app?vid=6a443d1e-fe01-4d31-a86f-9c1b930f54cc"},"vehicle_type_id":"4","last_reported":1690481281,"current_range_meters":16000,"station_id":"ce4bgh92rcd13ifvqb50","pricing_plan_id":"free"},{"bike_id":"ee93d8f0-f70d-4f7b-894c-7fd38ebf6cef","system_id":"levelo_inurba_marseille","lat":43.304274,"lon":5.388873,"is_reserved":false,"is_disabled":false,"rental_uris":{"android":"levelo://app?vid=ee93d8f0-f70d-4f7b-894c-7fd38ebf6cef","ios":"levelo://app?vid=ee93d8f0-f70d-4f7b-894c-7fd38ebf6cef"},"vehicle_type_id":"4","last_reported":1690481281,"current_range_meters":14400,"station_id":"ce4bgk12rcd13ifvqbi0","pricing_plan_id":"free"},{"bike_id":"1ae4d3ce-c8a2-4d16-889e-6cbff5758e61","system_id":"levelo_inurba_marseille","lat":43.304274,"lon":5.388873,"is_reserved":false,"is_disabled":false,"rental_uris":{"android":"levelo://app?vid=1ae4d3ce-c8a2-4d16-889e-6cbff5758e61","ios":"levelo://app?vid=1ae4d3ce-c8a2-4d16-889e-6cbff5758e61"},"vehicle_type_id":"4","last_reported":1690481281,"current_range_meters":8400,"station_id":"ce4bgk12rcd13ifvqbi0","pricing_plan_id":"free"},{"bike_id":"beba5711-81e0-4079-ac05-85597fbb917e","system_id":"levelo_inurba_marseille","lat":43.304274,"lon":5.388873,"is_reserved":false,"is_disabled":false,"rental_uris":{"android":"levelo://app?vid=beba5711-81e0-4079-ac05-85597fbb917e","ios":"levelo://app?vid=beba5711-81e0-4079-ac05-85597fbb917e"},"vehicle_type_id":"4","last_reported":1690481281,"current_range_meters":18000,"station_id":"ce4bgk12rcd13ifvqbi0","pricing_plan_id":"free"},{"bike_id":"1195e75a-a7c0-4600-b3fe-38e1fc8aa616","system_id":"levelo_inurba_marseille","lat":43.299707,"lon":5.384859,"is_reserved":false,"is_disabled":false,"rental_uris":{"android":"levelo://app?vid=1195e75a-a7c0-4600-b3fe-38e1fc8aa616","ios":"levelo://app?vid=1195e75a-a7c0-4600-b3fe-38e1fc8aa616"},"vehicle_type_id":"4","last_reported":1690481281,"current_range_meters":12800,"station_id":"ce4bgj92rcd13ifvqbd0","pricing_plan_id":"free"},{"bike_id":"d2baacab-02c6-49e7-804c-98ccbc611a40","system_id":"levelo_inurba_marseille","lat":43.296263,"lon":5.377094,"is_reserved":false,"is_disabled":false,"rental_uris":{"android":"levelo://app?vid=d2baacab-02c6-49e7-804c-98ccbc611a40","ios":"levelo://app?vid=d2baacab-02c6-49e7-804c-98ccbc611a40"},"vehicle_type_id":"4","last_reported":1690481281,"current_range_meters":27600,"station_id":"ce4bgi92rcd13ifvqb90","pricing_plan_id":"free"},{"bike_id":"aaa16c14-18a4-4ae5-8b22-637526b6d7a1","system_id":"levelo_inurba_marseille","lat":43.299707,"lon":5.384859,"is_reserved":false,"is_disabled":false,"rental_uris":{"android":"levelo://app?vid=aaa16c14-18a4-4ae5-8b22-637526b6d7a1","ios":"levelo://app?vid=aaa16c14-18a4-4ae5-8b22-637526b6d7a1"},"vehicle_type_id":"4","last_reported":1690481281,"current_range_meters":3600,"station_id":"ce4bgj92rcd13ifvqbd0","pricing_plan_id":"free"},{"bike_id":"30342c62-15cf-4017-8bd0-43eae41666ea","system_id":"levelo_inurba_marseille","lat":43.2999,"lon":5.384966,"is_reserved":false,"is_disabled":false,"rental_uris":{"android":"levelo://app?vid=30342c62-15cf-4017-8bd0-43eae41666ea","ios":"levelo://app?vid=30342c62-15cf-4017-8bd0-43eae41666ea"},"vehicle_type_id":"4","last_reported":1690481281,"current_range_meters":27200,"station_id":"ce4bgj92rcd13ifvqbd0","pricing_plan_id":"free"},{"bike_id":"23aed3bc-51bb-4ea7-b21e-5f692e7d5988","system_id":"levelo_inurba_marseille","lat":43.295279,"lon":5.375048,"is_reserved":false,"is_disabled":false,"rental_uris":{"android":"levelo://app?vid=23aed3bc-51bb-4ea7-b21e-5f692e7d5988","ios":"levelo://app?vid=23aed3bc-51bb-4ea7-b21e-5f692e7d5988"},"vehicle_type_id":"4","last_reported":1690481281,"current_range_meters":6000,"station_id":"ce4bgkp2rcd13ifvqbmg","pricing_plan_id":"free"},{"bike_id":"d3ed21b5-1a2c-40b6-8ffc-2ce06bd750a1","system_id":"levelo_inurba_marseille","lat":43.299707,"lon":5.384859,"is_reserved":false,"is_disabled":false,"rental_uris":{"android":"levelo://app?vid=d3ed21b5-1a2c-40b6-8ffc-2ce06bd750a1","ios":"levelo://app?vid=d3ed21b5-1a2c-40b6-8ffc-2ce06bd750a1"},"vehicle_type_id":"4","last_reported":1690481281,"current_range_meters":12400,"station_id":"ce4bgj92rcd13ifvqbd0","pricing_plan_id":"free"},{"bike_id":"891b7811-82bc-4d9d-86a0-8954d423b097","system_id":"levelo_inurba_marseille","lat":43.32364,"lon":5.38888,"is_reserved":false,"is_disabled":false,"rental_uris":{"android":"levelo://app?vid=891b7811-82bc-4d9d-86a0-8954d423b097","ios":"levelo://app?vid=891b7811-82bc-4d9d-86a0-8954d423b097"},"vehicle_type_id":"4","last_reported":1690481281,"current_range_meters":30000,"station_id":"ce4bhqp2rcd13ifvqhog","pricing_plan_id":"free"},{"bike_id":"35271d95-c494-40dd-8da7-2203a22c9da1","system_id":"levelo_inurba_marseille","lat":43.32367,"lon":5.388836,"is_reserved":false,"is_disabled":false,"rental_uris":{"android":"levelo://app?vid=35271d95-c494-40dd-8da7-2203a22c9da1","ios":"levelo://app?vid=35271d95-c494-40dd-8da7-2203a22c9da1"},"vehicle_type_id":"4","last_reported":1690481281,"current_range_meters":28400,"station_id":"ce4bhqp2rcd13ifvqhog","pricing_plan_id":"free"},{"bike_id":"8cb10aff-5b12-4429-89af-bc8f5ed79456","system_id":"levelo_inurba_marseille","lat":43.32368,"lon":5.38888,"is_reserved":false,"is_disabled":false,"rental_uris":{"android":"levelo://app?vid=8cb10aff-5b12-4429-89af-bc8f5ed79456","ios":"levelo://app?vid=8cb10aff-5b12-4429-89af-bc8f5ed79456"},"vehicle_type_id":"4","last_reported":1690481281,"current_range_meters":26000,"station_id":"ce4bhqp2rcd13ifvqhog","pricing_plan_id":"free"},{"bike_id":"d1cb6120-4917-4b67-99b5-8ba454215da6","system_id":"levelo_inurba_marseille","lat":43.29601,"lon":5.381084,"is_reserved":false,"is_disabled":false,"rental_uris":{"android":"levelo://app?vid=d1cb6120-4917-4b67-99b5-8ba454215da6","ios":"levelo://app?vid=d1cb6120-4917-4b67-99b5-8ba454215da6"},"vehicle_type_id":"4","last_reported":1690481281,"current_range_meters":4400,"station_id":"ce4bgl12rcd13ifvqbo0","pricing_plan_id":"free"},{"bike_id":"00364ea2-4bfa-4515-b09e-fd8a0561f409","system_id":"levelo_inurba_marseille","lat":43.29602,"lon":5.381084,"is_reserved":false,"is_disabled":false,"rental_uris":{"android":"levelo://app?vid=00364ea2-4bfa-4515-b09e-fd8a0561f409","ios":"levelo://app?vid=00364ea2-4bfa-4515-b09e-fd8a0561f409"},"vehicle_type_id":"4","last_reported":1690481281,"current_range_meters":4000,"station_id":"ce4bgl12rcd13ifvqbo0","pricing_plan_id":"free"},{"bike_id":"22623ed4-8caf-40bc-ba38-b15f41499d10","system_id":"levelo_inurba_marseille","lat":43.292749,"lon":5.368402,"is_reserved":false,"is_disabled":false,"rental_uris":{"android":"levelo://app?vid=22623ed4-8caf-40bc-ba38-b15f41499d10","ios":"levelo://app?vid=22623ed4-8caf-40bc-ba38-b15f41499d10"},"vehicle_type_id":"4","last_reported":1690481281,"current_range_meters":31200,"station_id":"ce4bhbp2rcd13ifvqesg","pricing_plan_id":"free"},{"bike_id":"79d69bf2-dbd6-4feb-b751-bd8dc07abbe0","system_id":"levelo_inurba_marseille","lat":43.292749,"lon":5.368398,"is_reserved":false,"is_disabled":false,"rental_uris":{"android":"levelo://app?vid=79d69bf2-dbd6-4feb-b751-bd8dc07abbe0","ios":"levelo://app?vid=79d69bf2-dbd6-4feb-b751-bd8dc07abbe0"},"vehicle_type_id":"4","last_reported":1690481281,"current_range_meters":6800,"station_id":"ce4bhbp2rcd13ifvqesg","pricing_plan_id":"free"},{"bike_id":"8a9be04a-1d0d-44bf-95e7-842406b81141","system_id":"levelo_inurba_marseille","lat":43.293009,"lon":5.374584,"is_reserved":false,"is_disabled":false,"rental_uris":{"android":"levelo://app?vid=8a9be04a-1d0d-44bf-95e7-842406b81141","ios":"levelo://app?vid=8a9be04a-1d0d-44bf-95e7-842406b81141"},"vehicle_type_id":"4","last_reported":1690481281,"current_range_meters":30800,"station_id":"ce4bgi12rcd13ifvqb70","pricing_plan_id":"free"},{"bike_id":"2fc4e05a-179a-4fb1-9758-c961e9653634","system_id":"levelo_inurba_marseille","lat":43.30314,"lon":5.39204,"is_reserved":false,"is_disabled":false,"rental_uris":{"android":"levelo://app?vid=2fc4e05a-179a-4fb1-9758-c961e9653634","ios":"levelo://app?vid=2fc4e05a-179a-4fb1-9758-c961e9653634"},"vehicle_type_id":"4","last_reported":1690481281,"current_range_meters":12000,"station_id":"ce4bgkh2rcd13ifvqbk0","pricing_plan_id":"free"},{"bike_id":"52ea1077-be6f-4cb0-8a0c-29de9c9fd622","system_id":"levelo_inurba_marseille","lat":43.302992,"lon":5.392136,"is_reserved":false,"is_disabled":false,"rental_uris":{"android":"levelo://app?vid=52ea1077-be6f-4cb0-8a0c-29de9c9fd622","ios":"levelo://app?vid=52ea1077-be6f-4cb0-8a0c-29de9c9fd622"},"vehicle_type_id":"4","last_reported":1690481281,"current_range_meters":19200,"station_id":"ce4bgkh2rcd13ifvqbk0","pricing_plan_id":"free"},{"bike_id":"2574b97e-e91b-4c68-bb8f-acbd8667a77c","system_id":"levelo_inurba_marseille","lat":43.303002,"lon":5.392142,"is_reserved":false,"is_disabled":false,"rental_uris":{"android":"levelo://app?vid=2574b97e-e91b-4c68-bb8f-acbd8667a77c","ios":"levelo://app?vid=2574b97e-e91b-4c68-bb8f-acbd8667a77c"},"vehicle_type_id":"4","last_reported":1690481281,"current_range_meters":3600,"station_id":"ce4bgkh2rcd13ifvqbk0","pricing_plan_id":"free"},{"bike_id":"231a4be4-e982-4079-af27-c3d577513074","system_id":"levelo_inurba_marseille","lat":43.29268,"lon":5.35976,"is_reserved":false,"is_disabled":false,"rental_uris":{"android":"levelo://app?vid=231a4be4-e982-4079-af27-c3d577513074","ios":"levelo://app?vid=231a4be4-e982-4079-af27-c3d577513074"},"vehicle_type_id":"4","last_reported":1690481281,"current_range_meters":22800,"station_id":"","pricing_plan_id":"free"},{"bike_id":"20c5f1ba-c372-424b-afb2-105c30a935de","system_id":"levelo_inurba_marseille","lat":43.302992,"lon":5.392136,"is_reserved":false,"is_disabled":false,"rental_uris":{"android":"levelo://app?vid=20c5f1ba-c372-424b-afb2-105c30a935de","ios":"levelo://app?vid=20c5f1ba-c372-424b-afb2-105c30a935de"},"vehicle_type_id":"4","last_reported":1690481281,"current_range_meters":2400,"station_id":"ce4bgkh2rcd13ifvqbk0","pricing_plan_id":"free"},{"bike_id":"474aaca4-a805-422f-935a-441e6525f42a","system_id":"levelo_inurba_marseille","lat":43.30302,"lon":5.39212,"is_reserved":false,"is_disabled":false,"rental_uris":{"android":"levelo://app?vid=474aaca4-a805-422f-935a-441e6525f42a","ios":"levelo://app?vid=474aaca4-a805-422f-935a-441e6525f42a"},"vehicle_type_id":"4","last_reported":1690481281,"current_range_meters":9600,"station_id":"ce4bgkh2rcd13ifvqbk0","pricing_plan_id":"free"},{"bike_id":"fcffe597-7238-4c8a-aa02-e4e4152b8ca3","system_id":"levelo_inurba_marseille","lat":43.302992,"lon":5.392136,"is_reserved":false,"is_disabled":false,"rental_uris":{"android":"levelo://app?vid=fcffe597-7238-4c8a-aa02-e4e4152b8ca3","ios":"levelo://app?vid=fcffe597-7238-4c8a-aa02-e4e4152b8ca3"},"vehicle_type_id":"4","last_reported":1690481281,"current_range_meters":26400,"station_id":"ce4bgkh2rcd13ifvqbk0","pricing_plan_id":"free"},{"bike_id":"b95ccb9c-881c-4f06-b804-d9f592f202d0","system_id":"levelo_inurba_marseille","lat":43.30305,"lon":5.39219,"is_reserved":false,"is_disabled":false,"rental_uris":{"android":"levelo://app?vid=b95ccb9c-881c-4f06-b804-d9f592f202d0","ios":"levelo://app?vid=b95ccb9c-881c-4f06-b804-d9f592f202d0"},"vehicle_type_id":"4","last_reported":1690481281,"current_range_meters":27600,"station_id":"ce4bgkh2rcd13ifvqbk0","pricing_plan_id":"free"},{"bike_id":"a4be670c-387a-4685-9e39-af8f821a85e6","system_id":"levelo_inurba_marseille","lat":43.302992,"lon":5.392136,"is_reserved":false,"is_disabled":false,"rental_uris":{"android":"levelo://app?vid=a4be670c-387a-4685-9e39-af8f821a85e6","ios":"levelo://app?vid=a4be670c-387a-4685-9e39-af8f821a85e6"},"vehicle_type_id":"4","last_reported":1690481281,"current_range_meters":11200,"station_id":"ce4bgkh2rcd13ifvqbk0","pricing_plan_id":"free"},{"bike_id":"ae3225fa-1cbf-4aa8-94f1-508410583f78","system_id":"levelo_inurba_marseille","lat":43.302992,"lon":5.392136,"is_reserved":false,"is_disabled":false,"rental_uris":{"android":"levelo://app?vid=ae3225fa-1cbf-4aa8-94f1-508410583f78","ios":"levelo://app?vid=ae3225fa-1cbf-4aa8-94f1-508410583f78"},"vehicle_type_id":"4","last_reported":1690481281,"current_range_meters":0,"station_id":"ce4bgkh2rcd13ifvqbk0","pricing_plan_id":"free"},{"bike_id":"a9f3e3d9-8d31-4666-a1b6-4bba80dfe0f6","system_id":"levelo_inurba_marseille","lat":43.2936,"lon":5.37835,"is_reserved":false,"is_disabled":false,"rental_uris":{"android":"levelo://app?vid=a9f3e3d9-8d31-4666-a1b6-4bba80dfe0f6","ios":"levelo://app?vid=a9f3e3d9-8d31-4666-a1b6-4bba80dfe0f6"},"vehicle_type_id":"4","last_reported":1690481281,"current_range_meters":21200,"station_id":"ce4bgjh2rcd13ifvqbf0","pricing_plan_id":"free"},{"bike_id":"5c181e68-2619-4494-8fc3-18d0d3ece019","system_id":"levelo_inurba_marseille","lat":43.290104,"lon":5.356111,"is_reserved":false,"is_disabled":false,"rental_uris":{"android":"levelo://app?vid=5c181e68-2619-4494-8fc3-18d0d3ece019","ios":"levelo://app?vid=5c181e68-2619-4494-8fc3-18d0d3ece019"},"vehicle_type_id":"4","last_reported":1690481281,"current_range_meters":19600,"station_id":"ce4bhb92rcd13ifvqen0","pricing_plan_id":"free"},{"bike_id":"a99ccb00-c39f-4113-b822-bec5fba5eb61","system_id":"levelo_inurba_marseille","lat":43.300852,"lon":5.390859,"is_reserved":false,"is_disabled":false,"rental_uris":{"android":"levelo://app?vid=a99ccb00-c39f-4113-b822-bec5fba5eb61","ios":"levelo://app?vid=a99ccb00-c39f-4113-b822-bec5fba5eb61"},"vehicle_type_id":"4","last_reported":1690481281,"current_range_meters":14400,"station_id":"ce4bh192rcd13ifvqdb0","pricing_plan_id":"free"},{"bike_id":"82c9dbaf-2970-474e-8216-d162446860b7","system_id":"levelo_inurba_marseille","lat":43.291675,"lon":5.371583,"is_reserved":false,"is_disabled":false,"rental_uris":{"android":"levelo://app?vid=82c9dbaf-2970-474e-8216-d162446860b7","ios":"levelo://app?vid=82c9dbaf-2970-474e-8216-d162446860b7"},"vehicle_type_id":"4","last_reported":1690481281,"current_range_meters":27200,"station_id":"ce4bha92rcd13ifvqeh0","pricing_plan_id":"free"},{"bike_id":"30a06a3b-2ffa-453a-9846-d1b6d0ed8824","system_id":"levelo_inurba_marseille","lat":43.292663,"lon":5.376394,"is_reserved":false,"is_disabled":false,"rental_uris":{"android":"levelo://app?vid=30a06a3b-2ffa-453a-9846-d1b6d0ed8824","ios":"levelo://app?vid=30a06a3b-2ffa-453a-9846-d1b6d0ed8824"},"vehicle_type_id":"4","last_reported":1690481281,"current_range_meters":0,"station_id":"ce4bgi12rcd13ifvqb80","pricing_plan_id":"free"},{"bike_id":"6e045eaa-1315-4f9b-9194-ef784f333171","system_id":"levelo_inurba_marseille","lat":43.291675,"lon":5.371583,"is_reserved":false,"is_disabled":false,"rental_uris":{"android":"levelo://app?vid=6e045eaa-1315-4f9b-9194-ef784f333171","ios":"levelo://app?vid=6e045eaa-1315-4f9b-9194-ef784f333171"},"vehicle_type_id":"4","last_reported":1690481281,"current_range_meters":17200,"station_id":"ce4bha92rcd13ifvqeh0","pricing_plan_id":"free"},{"bike_id":"878da88b-d829-4acd-acf9-3a255d6a2856","system_id":"levelo_inurba_marseille","lat":43.291675,"lon":5.371583,"is_reserved":false,"is_disabled":false,"rental_uris":{"android":"levelo://app?vid=878da88b-d829-4acd-acf9-3a255d6a2856","ios":"levelo://app?vid=878da88b-d829-4acd-acf9-3a255d6a2856"},"vehicle_type_id":"4","last_reported":1690481281,"current_range_meters":11600,"station_id":"ce4bha92rcd13ifvqeh0","pricing_plan_id":"free"},{"bike_id":"e091f975-32bd-4618-b628-aa46dad0ca9c","system_id":"levelo_inurba_marseille","lat":43.291675,"lon":5.371583,"is_reserved":false,"is_disabled":false,"rental_uris":{"android":"levelo://app?vid=e091f975-32bd-4618-b628-aa46dad0ca9c","ios":"levelo://app?vid=e091f975-32bd-4618-b628-aa46dad0ca9c"},"vehicle_type_id":"4","last_reported":1690481281,"current_range_meters":22800,"station_id":"ce4bha92rcd13ifvqeh0","pricing_plan_id":"free"},{"bike_id":"3a8d79d7-794f-4571-9747-7ecf21e6cca7","system_id":"levelo_inurba_marseille","lat":43.291671,"lon":5.371575,"is_reserved":false,"is_disabled":false,"rental_uris":{"android":"levelo://app?vid=3a8d79d7-794f-4571-9747-7ecf21e6cca7","ios":"levelo://app?vid=3a8d79d7-794f-4571-9747-7ecf21e6cca7"},"vehicle_type_id":"4","last_reported":1690481281,"current_range_meters":18800,"station_id":"ce4bha92rcd13ifvqeh0","pricing_plan_id":"free"},{"bike_id":"b9b7d258-c1ac-4323-9297-87825b4c485a","system_id":"levelo_inurba_marseille","lat":43.30877,"lon":5.39632,"is_reserved":false,"is_disabled":false,"rental_uris":{"android":"levelo://app?vid=b9b7d258-c1ac-4323-9297-87825b4c485a","ios":"levelo://app?vid=b9b7d258-c1ac-4323-9297-87825b4c485a"},"vehicle_type_id":"4","last_reported":1690481281,"current_range_meters":31200,"station_id":"ce4bh012rcd13ifvqcv0","pricing_plan_id":"free"},{"bike_id":"073dacbc-fbfd-43c7-b7a7-b1bc59435e91","system_id":"levelo_inurba_marseille","lat":43.309038,"lon":5.396546,"is_reserved":false,"is_disabled":false,"rental_uris":{"android":"levelo://app?vid=073dacbc-fbfd-43c7-b7a7-b1bc59435e91","ios":"levelo://app?vid=073dacbc-fbfd-43c7-b7a7-b1bc59435e91"},"vehicle_type_id":"4","last_reported":1690481281,"current_range_meters":24800,"station_id":"ce4bh012rcd13ifvqcv0","pricing_plan_id":"free"},{"bike_id":"ca2ea53d-9ba3-4281-b9f4-0a1605aa186b","system_id":"levelo_inurba_marseille","lat":43.31328,"lon":5.39694,"is_reserved":false,"is_disabled":false,"rental_uris":{"android":"levelo://app?vid=ca2ea53d-9ba3-4281-b9f4-0a1605aa186b","ios":"levelo://app?vid=ca2ea53d-9ba3-4281-b9f4-0a1605aa186b"},"vehicle_type_id":"4","last_reported":1690481281,"current_range_meters":12000,"station_id":"ce4bgvp2rcd13ifvqcu0","pricing_plan_id":"free"},{"bike_id":"cde77e06-de57-48a6-9056-017655046aaf","system_id":"levelo_inurba_marseille","lat":43.30883,"lon":5.39647,"is_reserved":false,"is_disabled":false,"rental_uris":{"android":"levelo://app?vid=cde77e06-de57-48a6-9056-017655046aaf","ios":"levelo://app?vid=cde77e06-de57-48a6-9056-017655046aaf"},"vehicle_type_id":"4","last_reported":1690481281,"current_range_meters":1600,"station_id":"ce4bh012rcd13ifvqcv0","pricing_plan_id":"free"},{"bike_id":"c5e290ca-a731-497f-a849-3874caca4d07","system_id":"levelo_inurba_marseille","lat":43.31327,"lon":5.39703,"is_reserved":false,"is_disabled":false,"rental_uris":{"android":"levelo://app?vid=c5e290ca-a731-497f-a849-3874caca4d07","ios":"levelo://app?vid=c5e290ca-a731-497f-a849-3874caca4d07"},"vehicle_type_id":"4","last_reported":1690481281,"current_range_meters":7200,"station_id":"ce4bgvp2rcd13ifvqcu0","pricing_plan_id":"free"},{"bike_id":"cc9e45f5-89a3-4b42-8e95-be954b46672c","system_id":"levelo_inurba_marseille","lat":43.290779,"lon":5.371482,"is_reserved":false,"is_disabled":false,"rental_uris":{"android":"levelo://app?vid=cc9e45f5-89a3-4b42-8e95-be954b46672c","ios":"levelo://app?vid=cc9e45f5-89a3-4b42-8e95-be954b46672c"},"vehicle_type_id":"4","last_reported":1690481281,"current_range_meters":26800,"station_id":"ce4bh5p2rcd13ifvqe4g","pricing_plan_id":"free"},{"bike_id":"2b8c7555-84bf-4e19-b903-583de3e5f2dc","system_id":"levelo_inurba_marseille","lat":43.302008,"lon":5.394694,"is_reserved":false,"is_disabled":false,"rental_uris":{"android":"levelo://app?vid=2b8c7555-84bf-4e19-b903-583de3e5f2dc","ios":"levelo://app?vid=2b8c7555-84bf-4e19-b903-583de3e5f2dc"},"vehicle_type_id":"4","last_reported":1690481281,"current_range_meters":24800,"station_id":"ce4bh0p2rcd13ifvqd70","pricing_plan_id":"free"},{"bike_id":"4ef74ff4-63ef-4cf1-b2af-b07f8a3acb04","system_id":"levelo_inurba_marseille","lat":43.302008,"lon":5.394694,"is_reserved":false,"is_disabled":false,"rental_uris":{"android":"levelo://app?vid=4ef74ff4-63ef-4cf1-b2af-b07f8a3acb04","ios":"levelo://app?vid=4ef74ff4-63ef-4cf1-b2af-b07f8a3acb04"},"vehicle_type_id":"4","last_reported":1690481281,"current_range_meters":27600,"station_id":"ce4bh0p2rcd13ifvqd70","pricing_plan_id":"free"},{"bike_id":"413b042a-3c19-4d51-bc99-7be53fed6e4c","system_id":"levelo_inurba_marseille","lat":43.2943,"lon":5.38606,"is_reserved":false,"is_disabled":false,"rental_uris":{"android":"levelo://app?vid=413b042a-3c19-4d51-bc99-7be53fed6e4c","ios":"levelo://app?vid=413b042a-3c19-4d51-bc99-7be53fed6e4c"},"vehicle_type_id":"4","last_reported":1690481281,"current_range_meters":800,"station_id":"","pricing_plan_id":"free"},{"bike_id":"a97dc4f0-bfb3-40bb-a113-3f57182f05cc","system_id":"levelo_inurba_marseille","lat":43.2895,"lon":5.3662,"is_reserved":false,"is_disabled":false,"rental_uris":{"android":"levelo://app?vid=a97dc4f0-bfb3-40bb-a113-3f57182f05cc","ios":"levelo://app?vid=a97dc4f0-bfb3-40bb-a113-3f57182f05cc"},"vehicle_type_id":"4","last_reported":1690481281,"current_range_meters":20000,"station_id":"ce4bhap2rcd13ifvqek0","pricing_plan_id":"free"},{"bike_id":"71a593b1-8f06-415f-b514-b6a4f72a4d87","system_id":"levelo_inurba_marseille","lat":43.29418,"lon":5.38628,"is_reserved":false,"is_disabled":false,"rental_uris":{"android":"levelo://app?vid=71a593b1-8f06-415f-b514-b6a4f72a4d87","ios":"levelo://app?vid=71a593b1-8f06-415f-b514-b6a4f72a4d87"},"vehicle_type_id":"4","last_reported":1690481281,"current_range_meters":19600,"station_id":"ce4bh2h2rcd13ifvqdh0","pricing_plan_id":"free"},{"bike_id":"1f62ca59-4d3e-41c5-95df-ea936ba105d3","system_id":"levelo_inurba_marseille","lat":43.294162,"lon":5.386292,"is_reserved":false,"is_disabled":false,"rental_uris":{"android":"levelo://app?vid=1f62ca59-4d3e-41c5-95df-ea936ba105d3","ios":"levelo://app?vid=1f62ca59-4d3e-41c5-95df-ea936ba105d3"},"vehicle_type_id":"4","last_reported":1690481281,"current_range_meters":23600,"station_id":"ce4bh2h2rcd13ifvqdh0","pricing_plan_id":"free"},{"bike_id":"57f21d0b-a746-45ab-96ee-2423844d141f","system_id":"levelo_inurba_marseille","lat":43.29419,"lon":5.38633,"is_reserved":false,"is_disabled":false,"rental_uris":{"android":"levelo://app?vid=57f21d0b-a746-45ab-96ee-2423844d141f","ios":"levelo://app?vid=57f21d0b-a746-45ab-96ee-2423844d141f"},"vehicle_type_id":"4","last_reported":1690481281,"current_range_meters":4800,"station_id":"ce4bh2h2rcd13ifvqdh0","pricing_plan_id":"free"},{"bike_id":"d27f6a45-1e03-4ca0-8193-64b5f65a194f","system_id":"levelo_inurba_marseille","lat":43.29405,"lon":5.38609,"is_reserved":false,"is_disabled":false,"rental_uris":{"android":"levelo://app?vid=d27f6a45-1e03-4ca0-8193-64b5f65a194f","ios":"levelo://app?vid=d27f6a45-1e03-4ca0-8193-64b5f65a194f"},"vehicle_type_id":"4","last_reported":1690481281,"current_range_meters":17600,"station_id":"","pricing_plan_id":"free"},{"bike_id":"d4b5815f-11a8-4b41-bfab-461b192a9b2e","system_id":"levelo_inurba_marseille","lat":43.294147,"lon":5.386273,"is_reserved":false,"is_disabled":false,"rental_uris":{"android":"levelo://app?vid=d4b5815f-11a8-4b41-bfab-461b192a9b2e","ios":"levelo://app?vid=d4b5815f-11a8-4b41-bfab-461b192a9b2e"},"vehicle_type_id":"4","last_reported":1690481281,"current_range_meters":1200,"station_id":"ce4bh2h2rcd13ifvqdh0","pricing_plan_id":"free"},{"bike_id":"262f3490-cf15-495a-ba81-69c50709b8aa","system_id":"levelo_inurba_marseille","lat":43.29415,"lon":5.3863,"is_reserved":false,"is_disabled":false,"rental_uris":{"android":"levelo://app?vid=262f3490-cf15-495a-ba81-69c50709b8aa","ios":"levelo://app?vid=262f3490-cf15-495a-ba81-69c50709b8aa"},"vehicle_type_id":"4","last_reported":1690481281,"current_range_meters":10800,"station_id":"ce4bh2h2rcd13ifvqdh0","pricing_plan_id":"free"},{"bike_id":"e7e0e244-f460-44b6-9b24-6205f9e89771","system_id":"levelo_inurba_marseille","lat":43.294162,"lon":5.386292,"is_reserved":false,"is_disabled":false,"rental_uris":{"android":"levelo://app?vid=e7e0e244-f460-44b6-9b24-6205f9e89771","ios":"levelo://app?vid=e7e0e244-f460-44b6-9b24-6205f9e89771"},"vehicle_type_id":"4","last_reported":1690481281,"current_range_meters":6400,"station_id":"ce4bh2h2rcd13ifvqdh0","pricing_plan_id":"free"},{"bike_id":"8b008e18-2a82-4178-bcb3-a8e68535b67c","system_id":"levelo_inurba_marseille","lat":43.28937,"lon":5.36638,"is_reserved":false,"is_disabled":false,"rental_uris":{"android":"levelo://app?vid=8b008e18-2a82-4178-bcb3-a8e68535b67c","ios":"levelo://app?vid=8b008e18-2a82-4178-bcb3-a8e68535b67c"},"vehicle_type_id":"4","last_reported":1690481281,"current_range_meters":400,"station_id":"","pricing_plan_id":"free"},{"bike_id":"1ac16db6-5408-4b33-9b96-857ead7374da","system_id":"levelo_inurba_marseille","lat":43.28944,"lon":5.36356,"is_reserved":false,"is_disabled":false,"rental_uris":{"android":"levelo://app?vid=1ac16db6-5408-4b33-9b96-857ead7374da","ios":"levelo://app?vid=1ac16db6-5408-4b33-9b96-857ead7374da"},"vehicle_type_id":"4","last_reported":1690481281,"current_range_meters":27600,"station_id":"ce4bhc92rcd13ifvqetg","pricing_plan_id":"free"},{"bike_id":"d6ae78b2-50fd-4207-89c8-e0f366b4a322","system_id":"levelo_inurba_marseille","lat":43.304296,"lon":5.397513,"is_reserved":false,"is_disabled":false,"rental_uris":{"android":"levelo://app?vid=d6ae78b2-50fd-4207-89c8-e0f366b4a322","ios":"levelo://app?vid=d6ae78b2-50fd-4207-89c8-e0f366b4a322"},"vehicle_type_id":"4","last_reported":1690481281,"current_range_meters":4400,"station_id":"ce4bh092rcd13ifvqd20","pricing_plan_id":"free"},{"bike_id":"1ee50a69-15bf-40aa-9ecc-7340478d04ac","system_id":"levelo_inurba_marseille","lat":43.292642,"lon":5.384254,"is_reserved":false,"is_disabled":false,"rental_uris":{"android":"levelo://app?vid=1ee50a69-15bf-40aa-9ecc-7340478d04ac","ios":"levelo://app?vid=1ee50a69-15bf-40aa-9ecc-7340478d04ac"},"vehicle_type_id":"4","last_reported":1690481281,"current_range_meters":16400,"station_id":"ce4bh692rcd13ifvqea0","pricing_plan_id":"free"},{"bike_id":"f78a731d-ad20-4496-b561-0d6ab9afa0d4","system_id":"levelo_inurba_marseille","lat":43.29267,"lon":5.38444,"is_reserved":false,"is_disabled":false,"rental_uris":{"android":"levelo://app?vid=f78a731d-ad20-4496-b561-0d6ab9afa0d4","ios":"levelo://app?vid=f78a731d-ad20-4496-b561-0d6ab9afa0d4"},"vehicle_type_id":"4","last_reported":1690481281,"current_range_meters":11600,"station_id":"ce4bh692rcd13ifvqea0","pricing_plan_id":"free"},{"bike_id":"c7f19ec7-805d-40d4-be73-f45b5142a557","system_id":"levelo_inurba_marseille","lat":43.292629,"lon":5.384444,"is_reserved":false,"is_disabled":false,"rental_uris":{"android":"levelo://app?vid=c7f19ec7-805d-40d4-be73-f45b5142a557","ios":"levelo://app?vid=c7f19ec7-805d-40d4-be73-f45b5142a557"},"vehicle_type_id":"4","last_reported":1690481281,"current_range_meters":7200,"station_id":"ce4bh692rcd13ifvqea0","pricing_plan_id":"free"},{"bike_id":"3bae59ab-c7b4-48dd-a866-093437a6de24","system_id":"levelo_inurba_marseille","lat":43.30431,"lon":5.39756,"is_reserved":false,"is_disabled":false,"rental_uris":{"android":"levelo://app?vid=3bae59ab-c7b4-48dd-a866-093437a6de24","ios":"levelo://app?vid=3bae59ab-c7b4-48dd-a866-093437a6de24"},"vehicle_type_id":"4","last_reported":1690481281,"current_range_meters":20800,"station_id":"ce4bh092rcd13ifvqd20","pricing_plan_id":"free"},{"bike_id":"b528eeb9-bc6b-4d03-8839-5e2cc94aa5a3","system_id":"levelo_inurba_marseille","lat":43.292642,"lon":5.384254,"is_reserved":false,"is_disabled":false,"rental_uris":{"android":"levelo://app?vid=b528eeb9-bc6b-4d03-8839-5e2cc94aa5a3","ios":"levelo://app?vid=b528eeb9-bc6b-4d03-8839-5e2cc94aa5a3"},"vehicle_type_id":"4","last_reported":1690481281,"current_range_meters":25600,"station_id":"ce4bh692rcd13ifvqea0","pricing_plan_id":"free"},{"bike_id":"b9a047aa-94fe-400d-8aaa-574c06fcdeba","system_id":"levelo_inurba_marseille","lat":43.29261,"lon":5.3845,"is_reserved":false,"is_disabled":false,"rental_uris":{"android":"levelo://app?vid=b9a047aa-94fe-400d-8aaa-574c06fcdeba","ios":"levelo://app?vid=b9a047aa-94fe-400d-8aaa-574c06fcdeba"},"vehicle_type_id":"4","last_reported":1690481281,"current_range_meters":5600,"station_id":"ce4bh692rcd13ifvqea0","pricing_plan_id":"free"},{"bike_id":"8104bf8e-f86b-4476-9c08-8bb55304db57","system_id":"levelo_inurba_marseille","lat":43.29257,"lon":5.38442,"is_reserved":false,"is_disabled":false,"rental_uris":{"android":"levelo://app?vid=8104bf8e-f86b-4476-9c08-8bb55304db57","ios":"levelo://app?vid=8104bf8e-f86b-4476-9c08-8bb55304db57"},"vehicle_type_id":"4","last_reported":1690481281,"current_range_meters":0,"station_id":"ce4bh692rcd13ifvqea0","pricing_plan_id":"free"},{"bike_id":"1032df60-bf44-488b-8714-b1725aad4771","system_id":"levelo_inurba_marseille","lat":43.29259,"lon":5.38454,"is_reserved":false,"is_disabled":false,"rental_uris":{"android":"levelo://app?vid=1032df60-bf44-488b-8714-b1725aad4771","ios":"levelo://app?vid=1032df60-bf44-488b-8714-b1725aad4771"},"vehicle_type_id":"4","last_reported":1690481281,"current_range_meters":29600,"station_id":"ce4bh692rcd13ifvqea0","pricing_plan_id":"free"},{"bike_id":"e64f7185-9a6e-4425-8998-0959b4121792","system_id":"levelo_inurba_marseille","lat":43.29257,"lon":5.38454,"is_reserved":false,"is_disabled":false,"rental_uris":{"android":"levelo://app?vid=e64f7185-9a6e-4425-8998-0959b4121792","ios":"levelo://app?vid=e64f7185-9a6e-4425-8998-0959b4121792"},"vehicle_type_id":"4","last_reported":1690481281,"current_range_meters":3200,"station_id":"ce4bh692rcd13ifvqea0","pricing_plan_id":"free"},{"bike_id":"90f7b0ea-fbb5-40d3-814e-86e5fcbc456e","system_id":"levelo_inurba_marseille","lat":43.29014,"lon":5.35612,"is_reserved":false,"is_disabled":false,"rental_uris":{"android":"levelo://app?vid=90f7b0ea-fbb5-40d3-814e-86e5fcbc456e","ios":"levelo://app?vid=90f7b0ea-fbb5-40d3-814e-86e5fcbc456e"},"vehicle_type_id":"4","last_reported":1690481281,"current_range_meters":16000,"station_id":"ce4bhb92rcd13ifvqen0","pricing_plan_id":"free"},{"bike_id":"97da36c5-27ea-472f-8cbc-7fc89ccb0b45","system_id":"levelo_inurba_marseille","lat":43.330442,"lon":5.389148,"is_reserved":false,"is_disabled":false,"rental_uris":{"android":"levelo://app?vid=97da36c5-27ea-472f-8cbc-7fc89ccb0b45","ios":"levelo://app?vid=97da36c5-27ea-472f-8cbc-7fc89ccb0b45"},"vehicle_type_id":"4","last_reported":1690481281,"current_range_meters":29200,"station_id":"ce4bhr92rcd13ifvqhrg","pricing_plan_id":"free"},{"bike_id":"198a91cd-f90e-44b9-b124-d15f43d9259d","system_id":"levelo_inurba_marseille","lat":43.3304,"lon":5.38922,"is_reserved":false,"is_disabled":false,"rental_uris":{"android":"levelo://app?vid=198a91cd-f90e-44b9-b124-d15f43d9259d","ios":"levelo://app?vid=198a91cd-f90e-44b9-b124-d15f43d9259d"},"vehicle_type_id":"4","last_reported":1690481281,"current_range_meters":21600,"station_id":"ce4bhr92rcd13ifvqhrg","pricing_plan_id":"free"},{"bike_id":"82087fa7-45ea-4904-8467-939c0b4fa50c","system_id":"levelo_inurba_marseille","lat":43.3304,"lon":5.38923,"is_reserved":false,"is_disabled":false,"rental_uris":{"android":"levelo://app?vid=82087fa7-45ea-4904-8467-939c0b4fa50c","ios":"levelo://app?vid=82087fa7-45ea-4904-8467-939c0b4fa50c"},"vehicle_type_id":"4","last_reported":1690481281,"current_range_meters":12000,"station_id":"ce4bhr92rcd13ifvqhrg","pricing_plan_id":"free"},{"bike_id":"a846516f-cf51-4ac4-8674-44addcbde20b","system_id":"levelo_inurba_marseille","lat":43.33042,"lon":5.38921,"is_reserved":false,"is_disabled":false,"rental_uris":{"android":"levelo://app?vid=a846516f-cf51-4ac4-8674-44addcbde20b","ios":"levelo://app?vid=a846516f-cf51-4ac4-8674-44addcbde20b"},"vehicle_type_id":"4","last_reported":1690481281,"current_range_meters":31200,"station_id":"ce4bhr92rcd13ifvqhrg","pricing_plan_id":"free"},{"bike_id":"91fec792-a5a5-4820-af7d-3c6be3109af2","system_id":"levelo_inurba_marseille","lat":43.290104,"lon":5.356111,"is_reserved":false,"is_disabled":false,"rental_uris":{"android":"levelo://app?vid=91fec792-a5a5-4820-af7d-3c6be3109af2","ios":"levelo://app?vid=91fec792-a5a5-4820-af7d-3c6be3109af2"},"vehicle_type_id":"4","last_reported":1690481281,"current_range_meters":31600,"station_id":"ce4bhb92rcd13ifvqen0","pricing_plan_id":"free"},{"bike_id":"91968ac7-8a8f-40b0-b07b-8508661b31de","system_id":"levelo_inurba_marseille","lat":43.330442,"lon":5.389148,"is_reserved":false,"is_disabled":false,"rental_uris":{"android":"levelo://app?vid=91968ac7-8a8f-40b0-b07b-8508661b31de","ios":"levelo://app?vid=91968ac7-8a8f-40b0-b07b-8508661b31de"},"vehicle_type_id":"4","last_reported":1690481281,"current_range_meters":24800,"station_id":"ce4bhr92rcd13ifvqhrg","pricing_plan_id":"free"},{"bike_id":"2c914af5-3f76-4c26-ae2e-a98cca55902c","system_id":"levelo_inurba_marseille","lat":43.33043,"lon":5.38924,"is_reserved":false,"is_disabled":false,"rental_uris":{"android":"levelo://app?vid=2c914af5-3f76-4c26-ae2e-a98cca55902c","ios":"levelo://app?vid=2c914af5-3f76-4c26-ae2e-a98cca55902c"},"vehicle_type_id":"4","last_reported":1690481281,"current_range_meters":16400,"station_id":"ce4bhr92rcd13ifvqhrg","pricing_plan_id":"free"},{"bike_id":"766cd11b-923c-4640-ae67-2dfbbb18b931","system_id":"levelo_inurba_marseille","lat":43.33045,"lon":5.38925,"is_reserved":false,"is_disabled":false,"rental_uris":{"android":"levelo://app?vid=766cd11b-923c-4640-ae67-2dfbbb18b931","ios":"levelo://app?vid=766cd11b-923c-4640-ae67-2dfbbb18b931"},"vehicle_type_id":"4","last_reported":1690481281,"current_range_meters":18800,"station_id":"ce4bhr92rcd13ifvqhrg","pricing_plan_id":"free"},{"bike_id":"ce9f2bcb-5b9e-488e-8169-585bcb1cff8b","system_id":"levelo_inurba_marseille","lat":43.33041,"lon":5.38931,"is_reserved":false,"is_disabled":false,"rental_uris":{"android":"levelo://app?vid=ce9f2bcb-5b9e-488e-8169-585bcb1cff8b","ios":"levelo://app?vid=ce9f2bcb-5b9e-488e-8169-585bcb1cff8b"},"vehicle_type_id":"4","last_reported":1690481281,"current_range_meters":13600,"station_id":"ce4bhr92rcd13ifvqhrg","pricing_plan_id":"free"},{"bike_id":"e8e860f0-c13e-4f54-a031-2317c1b72356","system_id":"levelo_inurba_marseille","lat":43.291671,"lon":5.371575,"is_reserved":false,"is_disabled":false,"rental_uris":{"android":"levelo://app?vid=e8e860f0-c13e-4f54-a031-2317c1b72356","ios":"levelo://app?vid=e8e860f0-c13e-4f54-a031-2317c1b72356"},"vehicle_type_id":"4","last_reported":1690481281,"current_range_meters":26400,"station_id":"ce4bha92rcd13ifvqeh0","pricing_plan_id":"free"},{"bike_id":"49f6f205-1705-400f-9c77-868daecea66f","system_id":"levelo_inurba_marseille","lat":43.28987,"lon":5.37846,"is_reserved":false,"is_disabled":false,"rental_uris":{"android":"levelo://app?vid=49f6f205-1705-400f-9c77-868daecea66f","ios":"levelo://app?vid=49f6f205-1705-400f-9c77-868daecea66f"},"vehicle_type_id":"4","last_reported":1690481281,"current_range_meters":5200,"station_id":"ce4bh9p2rcd13ifvqed0","pricing_plan_id":"free"},{"bike_id":"e0a11386-be98-49f2-a8c7-5e963b0d0ece","system_id":"levelo_inurba_marseille","lat":43.289743,"lon":5.378304,"is_reserved":false,"is_disabled":false,"rental_uris":{"android":"levelo://app?vid=e0a11386-be98-49f2-a8c7-5e963b0d0ece","ios":"levelo://app?vid=e0a11386-be98-49f2-a8c7-5e963b0d0ece"},"vehicle_type_id":"4","last_reported":1690481281,"current_range_meters":6000,"station_id":"ce4bh9p2rcd13ifvqed0","pricing_plan_id":"free"},{"bike_id":"02c42d6b-1fb6-45bd-9753-2eb10767fbf1","system_id":"levelo_inurba_marseille","lat":43.289743,"lon":5.378304,"is_reserved":false,"is_disabled":false,"rental_uris":{"android":"levelo://app?vid=02c42d6b-1fb6-45bd-9753-2eb10767fbf1","ios":"levelo://app?vid=02c42d6b-1fb6-45bd-9753-2eb10767fbf1"},"vehicle_type_id":"4","last_reported":1690481281,"current_range_meters":18000,"station_id":"ce4bh9p2rcd13ifvqed0","pricing_plan_id":"free"},{"bike_id":"b9825a4a-673b-4d0a-a658-f0d184e75d75","system_id":"levelo_inurba_marseille","lat":43.289775,"lon":5.378369,"is_reserved":false,"is_disabled":false,"rental_uris":{"android":"levelo://app?vid=b9825a4a-673b-4d0a-a658-f0d184e75d75","ios":"levelo://app?vid=b9825a4a-673b-4d0a-a658-f0d184e75d75"},"vehicle_type_id":"4","last_reported":1690481281,"current_range_meters":22000,"station_id":"ce4bh9p2rcd13ifvqed0","pricing_plan_id":"free"},{"bike_id":"327fd515-2cf1-49c9-98b0-05e6be427fdb","system_id":"levelo_inurba_marseille","lat":43.295169,"lon":5.390426,"is_reserved":false,"is_disabled":false,"rental_uris":{"android":"levelo://app?vid=327fd515-2cf1-49c9-98b0-05e6be427fdb","ios":"levelo://app?vid=327fd515-2cf1-49c9-98b0-05e6be427fdb"},"vehicle_type_id":"4","last_reported":1690481281,"current_range_meters":6400,"station_id":"ce4bh3p2rcd13ifvqdp0","pricing_plan_id":"free"},{"bike_id":"cfbd1810-9f41-45b3-8c1d-aa77a96352cf","system_id":"levelo_inurba_marseille","lat":43.295169,"lon":5.390426,"is_reserved":false,"is_disabled":false,"rental_uris":{"android":"levelo://app?vid=cfbd1810-9f41-45b3-8c1d-aa77a96352cf","ios":"levelo://app?vid=cfbd1810-9f41-45b3-8c1d-aa77a96352cf"},"vehicle_type_id":"4","last_reported":1690481281,"current_range_meters":20000,"station_id":"ce4bh3p2rcd13ifvqdp0","pricing_plan_id":"free"},{"bike_id":"7d006b36-42be-4403-895f-794a8321c453","system_id":"levelo_inurba_marseille","lat":43.28856,"lon":5.358371,"is_reserved":false,"is_disabled":false,"rental_uris":{"android":"levelo://app?vid=7d006b36-42be-4403-895f-794a8321c453","ios":"levelo://app?vid=7d006b36-42be-4403-895f-794a8321c453"},"vehicle_type_id":"4","last_reported":1690481281,"current_range_meters":18400,"station_id":"ce4bhb12rcd13ifvqem0","pricing_plan_id":"free"},{"bike_id":"41cef441-1a8b-487f-b079-c1800a082cf1","system_id":"levelo_inurba_marseille","lat":43.309371,"lon":5.401449,"is_reserved":false,"is_disabled":false,"rental_uris":{"android":"levelo://app?vid=41cef441-1a8b-487f-b079-c1800a082cf1","ios":"levelo://app?vid=41cef441-1a8b-487f-b079-c1800a082cf1"},"vehicle_type_id":"4","last_reported":1690481281,"current_range_meters":24800,"station_id":"ce4bgvp2rcd13ifvqct0","pricing_plan_id":"free"},{"bike_id":"d01026d9-0b24-4901-892b-d85f4f77c50b","system_id":"levelo_inurba_marseille","lat":43.312609,"lon":5.401662,"is_reserved":false,"is_disabled":false,"rental_uris":{"android":"levelo://app?vid=d01026d9-0b24-4901-892b-d85f4f77c50b","ios":"levelo://app?vid=d01026d9-0b24-4901-892b-d85f4f77c50b"},"vehicle_type_id":"4","last_reported":1690481281,"current_range_meters":12400,"station_id":"ce4bh092rcd13ifvqd30","pricing_plan_id":"free"},{"bike_id":"800fc388-57a1-42c9-81cd-46ad6a07518f","system_id":"levelo_inurba_marseille","lat":43.312609,"lon":5.401662,"is_reserved":false,"is_disabled":false,"rental_uris":{"android":"levelo://app?vid=800fc388-57a1-42c9-81cd-46ad6a07518f","ios":"levelo://app?vid=800fc388-57a1-42c9-81cd-46ad6a07518f"},"vehicle_type_id":"4","last_reported":1690481281,"current_range_meters":0,"station_id":"ce4bh092rcd13ifvqd30","pricing_plan_id":"free"},{"bike_id":"5ae342ac-4ee7-484d-a3fa-6032684e123f","system_id":"levelo_inurba_marseille","lat":43.30926,"lon":5.40142,"is_reserved":false,"is_disabled":false,"rental_uris":{"android":"levelo://app?vid=5ae342ac-4ee7-484d-a3fa-6032684e123f","ios":"levelo://app?vid=5ae342ac-4ee7-484d-a3fa-6032684e123f"},"vehicle_type_id":"4","last_reported":1690481281,"current_range_meters":21200,"station_id":"ce4bgvp2rcd13ifvqct0","pricing_plan_id":"free"},{"bike_id":"1decd955-d844-4084-ae44-2c6d18b575e6","system_id":"levelo_inurba_marseille","lat":43.3093,"lon":5.40143,"is_reserved":false,"is_disabled":false,"rental_uris":{"android":"levelo://app?vid=1decd955-d844-4084-ae44-2c6d18b575e6","ios":"levelo://app?vid=1decd955-d844-4084-ae44-2c6d18b575e6"},"vehicle_type_id":"4","last_reported":1690481281,"current_range_meters":17600,"station_id":"ce4bgvp2rcd13ifvqct0","pricing_plan_id":"free"},{"bike_id":"9f120159-de13-4694-9216-9dc32678e820","system_id":"levelo_inurba_marseille","lat":43.309371,"lon":5.401449,"is_reserved":false,"is_disabled":false,"rental_uris":{"android":"levelo://app?vid=9f120159-de13-4694-9216-9dc32678e820","ios":"levelo://app?vid=9f120159-de13-4694-9216-9dc32678e820"},"vehicle_type_id":"4","last_reported":1690481281,"current_range_meters":24000,"station_id":"ce4bgvp2rcd13ifvqct0","pricing_plan_id":"free"},{"bike_id":"2252818b-22fa-4af3-8b6b-bdf7cc885b75","system_id":"levelo_inurba_marseille","lat":43.30915,"lon":5.40148,"is_reserved":false,"is_disabled":false,"rental_uris":{"android":"levelo://app?vid=2252818b-22fa-4af3-8b6b-bdf7cc885b75","ios":"levelo://app?vid=2252818b-22fa-4af3-8b6b-bdf7cc885b75"},"vehicle_type_id":"4","last_reported":1690481281,"current_range_meters":26400,"station_id":"ce4bgvp2rcd13ifvqct0","pricing_plan_id":"free"},{"bike_id":"eb6a362b-16a5-43c4-98c7-9efb9feec5de","system_id":"levelo_inurba_marseille","lat":43.30647,"lon":5.40081,"is_reserved":false,"is_disabled":false,"rental_uris":{"android":"levelo://app?vid=eb6a362b-16a5-43c4-98c7-9efb9feec5de","ios":"levelo://app?vid=eb6a362b-16a5-43c4-98c7-9efb9feec5de"},"vehicle_type_id":"4","last_reported":1690481281,"current_range_meters":29600,"station_id":"ce4bh112rcd13ifvqda0","pricing_plan_id":"free"},{"bike_id":"ca5fd2e1-8ffc-4b60-b61e-479d00af2a43","system_id":"levelo_inurba_marseille","lat":43.30645,"lon":5.40085,"is_reserved":false,"is_disabled":false,"rental_uris":{"android":"levelo://app?vid=ca5fd2e1-8ffc-4b60-b61e-479d00af2a43","ios":"levelo://app?vid=ca5fd2e1-8ffc-4b60-b61e-479d00af2a43"},"vehicle_type_id":"4","last_reported":1690481281,"current_range_meters":0,"station_id":"ce4bh112rcd13ifvqda0","pricing_plan_id":"free"},{"bike_id":"a89a4c38-1fd7-4eed-ab44-5c7173f6c938","system_id":"levelo_inurba_marseille","lat":43.30657,"lon":5.40095,"is_reserved":false,"is_disabled":false,"rental_uris":{"android":"levelo://app?vid=a89a4c38-1fd7-4eed-ab44-5c7173f6c938","ios":"levelo://app?vid=a89a4c38-1fd7-4eed-ab44-5c7173f6c938"},"vehicle_type_id":"4","last_reported":1690481281,"current_range_meters":19600,"station_id":"ce4bh112rcd13ifvqda0","pricing_plan_id":"free"},{"bike_id":"96c20ac0-81d4-4a1f-af61-4bcd66c038b7","system_id":"levelo_inurba_marseille","lat":43.30652,"lon":5.40097,"is_reserved":false,"is_disabled":false,"rental_uris":{"android":"levelo://app?vid=96c20ac0-81d4-4a1f-af61-4bcd66c038b7","ios":"levelo://app?vid=96c20ac0-81d4-4a1f-af61-4bcd66c038b7"},"vehicle_type_id":"4","last_reported":1690481281,"current_range_meters":12400,"station_id":"ce4bh112rcd13ifvqda0","pricing_plan_id":"free"},{"bike_id":"9595d50f-1ab2-4ee3-a9c1-830ca7c1e5da","system_id":"levelo_inurba_marseille","lat":43.301117,"lon":5.398795,"is_reserved":false,"is_disabled":false,"rental_uris":{"android":"levelo://app?vid=9595d50f-1ab2-4ee3-a9c1-830ca7c1e5da","ios":"levelo://app?vid=9595d50f-1ab2-4ee3-a9c1-830ca7c1e5da"},"vehicle_type_id":"4","last_reported":1690481281,"current_range_meters":19600,"station_id":"ce4bh0h2rcd13ifvqd40","pricing_plan_id":"free"},{"bike_id":"7338bccb-a0ea-42a0-a615-f06e81374f09","system_id":"levelo_inurba_marseille","lat":43.301117,"lon":5.398795,"is_reserved":false,"is_disabled":false,"rental_uris":{"android":"levelo://app?vid=7338bccb-a0ea-42a0-a615-f06e81374f09","ios":"levelo://app?vid=7338bccb-a0ea-42a0-a615-f06e81374f09"},"vehicle_type_id":"4","last_reported":1690481281,"current_range_meters":0,"station_id":"ce4bh0h2rcd13ifvqd40","pricing_plan_id":"free"},{"bike_id":"738535cb-4399-4b52-b837-a2fcf822b200","system_id":"levelo_inurba_marseille","lat":43.301117,"lon":5.398795,"is_reserved":false,"is_disabled":false,"rental_uris":{"android":"levelo://app?vid=738535cb-4399-4b52-b837-a2fcf822b200","ios":"levelo://app?vid=738535cb-4399-4b52-b837-a2fcf822b200"},"vehicle_type_id":"4","last_reported":1690481281,"current_range_meters":17600,"station_id":"ce4bh0h2rcd13ifvqd40","pricing_plan_id":"free"},{"bike_id":"13b18656-2e80-4089-ba13-66517be51597","system_id":"levelo_inurba_marseille","lat":43.30142,"lon":5.39865,"is_reserved":false,"is_disabled":false,"rental_uris":{"android":"levelo://app?vid=13b18656-2e80-4089-ba13-66517be51597","ios":"levelo://app?vid=13b18656-2e80-4089-ba13-66517be51597"},"vehicle_type_id":"4","last_reported":1690481281,"current_range_meters":18400,"station_id":"ce4bh0h2rcd13ifvqd40","pricing_plan_id":"free"},{"bike_id":"04bbd6dd-e0c9-4ef6-8c7e-f9d971e180e2","system_id":"levelo_inurba_marseille","lat":43.301276,"lon":5.398665,"is_reserved":false,"is_disabled":false,"rental_uris":{"android":"levelo://app?vid=04bbd6dd-e0c9-4ef6-8c7e-f9d971e180e2","ios":"levelo://app?vid=04bbd6dd-e0c9-4ef6-8c7e-f9d971e180e2"},"vehicle_type_id":"4","last_reported":1690481281,"current_range_meters":15600,"station_id":"ce4bh0h2rcd13ifvqd40","pricing_plan_id":"free"},{"bike_id":"a75d2ef2-f681-4862-a542-2077bb7b5d2b","system_id":"levelo_inurba_marseille","lat":43.30125,"lon":5.39873,"is_reserved":false,"is_disabled":false,"rental_uris":{"android":"levelo://app?vid=a75d2ef2-f681-4862-a542-2077bb7b5d2b","ios":"levelo://app?vid=a75d2ef2-f681-4862-a542-2077bb7b5d2b"},"vehicle_type_id":"4","last_reported":1690481281,"current_range_meters":13600,"station_id":"ce4bh0h2rcd13ifvqd40","pricing_plan_id":"free"},{"bike_id":"7eb678e8-3346-436a-b109-0679b9742d98","system_id":"levelo_inurba_marseille","lat":43.28708,"lon":5.37382,"is_reserved":false,"is_disabled":false,"rental_uris":{"android":"levelo://app?vid=7eb678e8-3346-436a-b109-0679b9742d98","ios":"levelo://app?vid=7eb678e8-3346-436a-b109-0679b9742d98"},"vehicle_type_id":"4","last_reported":1690481281,"current_range_meters":1600,"station_id":"ce4bh3p2rcd13ifvqdq0","pricing_plan_id":"free"},{"bike_id":"612f31bb-8008-463a-a06d-40f4c07a235f","system_id":"levelo_inurba_marseille","lat":43.298681,"lon":5.397225,"is_reserved":false,"is_disabled":false,"rental_uris":{"android":"levelo://app?vid=612f31bb-8008-463a-a06d-40f4c07a235f","ios":"levelo://app?vid=612f31bb-8008-463a-a06d-40f4c07a235f"},"vehicle_type_id":"4","last_reported":1690481281,"current_range_meters":31200,"station_id":"ce4bh0h2rcd13ifvqd50","pricing_plan_id":"free"},{"bike_id":"5956e35a-befc-4bb9-b42e-86f1c534f577","system_id":"levelo_inurba_marseille","lat":43.298681,"lon":5.397225,"is_reserved":false,"is_disabled":false,"rental_uris":{"android":"levelo://app?vid=5956e35a-befc-4bb9-b42e-86f1c534f577","ios":"levelo://app?vid=5956e35a-befc-4bb9-b42e-86f1c534f577"},"vehicle_type_id":"4","last_reported":1690481281,"current_range_meters":13600,"station_id":"ce4bh0h2rcd13ifvqd50","pricing_plan_id":"free"},{"bike_id":"c1861d4a-871c-45a2-beca-687df4edcd4e","system_id":"levelo_inurba_marseille","lat":43.28703,"lon":5.37386,"is_reserved":false,"is_disabled":false,"rental_uris":{"android":"levelo://app?vid=c1861d4a-871c-45a2-beca-687df4edcd4e","ios":"levelo://app?vid=c1861d4a-871c-45a2-beca-687df4edcd4e"},"vehicle_type_id":"4","last_reported":1690481281,"current_range_meters":12800,"station_id":"ce4bh3p2rcd13ifvqdq0","pricing_plan_id":"free"},{"bike_id":"c86bcada-2b94-4550-aece-df11546aea2b","system_id":"levelo_inurba_marseille","lat":43.2906,"lon":5.38624,"is_reserved":false,"is_disabled":false,"rental_uris":{"android":"levelo://app?vid=c86bcada-2b94-4550-aece-df11546aea2b","ios":"levelo://app?vid=c86bcada-2b94-4550-aece-df11546aea2b"},"vehicle_type_id":"4","last_reported":1690481281,"current_range_meters":8800,"station_id":"ce4bh4p2rcd13ifvqe0g","pricing_plan_id":"free"},{"bike_id":"75199276-b705-4ad7-b6a9-49aeaa84628a","system_id":"levelo_inurba_marseille","lat":43.286591,"lon":5.363346,"is_reserved":false,"is_disabled":false,"rental_uris":{"android":"levelo://app?vid=75199276-b705-4ad7-b6a9-49aeaa84628a","ios":"levelo://app?vid=75199276-b705-4ad7-b6a9-49aeaa84628a"},"vehicle_type_id":"4","last_reported":1690481281,"current_range_meters":31600,"station_id":"ce4bhah2rcd13ifvqej0","pricing_plan_id":"free"},{"bike_id":"b4cceab7-2802-4a5d-8640-eac185f4dad8","system_id":"levelo_inurba_marseille","lat":43.295196,"lon":5.39397,"is_reserved":false,"is_disabled":false,"rental_uris":{"android":"levelo://app?vid=b4cceab7-2802-4a5d-8640-eac185f4dad8","ios":"levelo://app?vid=b4cceab7-2802-4a5d-8640-eac185f4dad8"},"vehicle_type_id":"4","last_reported":1690481281,"current_range_meters":0,"station_id":"ce4bh292rcd13ifvqdf0","pricing_plan_id":"free"},{"bike_id":"83b359df-d257-4bd0-8a58-56026e2f0a9d","system_id":"levelo_inurba_marseille","lat":43.28695,"lon":5.37387,"is_reserved":false,"is_disabled":false,"rental_uris":{"android":"levelo://app?vid=83b359df-d257-4bd0-8a58-56026e2f0a9d","ios":"levelo://app?vid=83b359df-d257-4bd0-8a58-56026e2f0a9d"},"vehicle_type_id":"4","last_reported":1690481281,"current_range_meters":17200,"station_id":"ce4bh3p2rcd13ifvqdq0","pricing_plan_id":"free"},{"bike_id":"376c56fc-5e6d-4a80-b762-862c890aec17","system_id":"levelo_inurba_marseille","lat":43.28695,"lon":5.37389,"is_reserved":false,"is_disabled":false,"rental_uris":{"android":"levelo://app?vid=376c56fc-5e6d-4a80-b762-862c890aec17","ios":"levelo://app?vid=376c56fc-5e6d-4a80-b762-862c890aec17"},"vehicle_type_id":"4","last_reported":1690481281,"current_range_meters":13600,"station_id":"ce4bh3p2rcd13ifvqdq0","pricing_plan_id":"free"},{"bike_id":"c5e7803b-7237-4528-b205-13f9fc3c0f4b","system_id":"levelo_inurba_marseille","lat":43.295196,"lon":5.39397,"is_reserved":false,"is_disabled":false,"rental_uris":{"android":"levelo://app?vid=c5e7803b-7237-4528-b205-13f9fc3c0f4b","ios":"levelo://app?vid=c5e7803b-7237-4528-b205-13f9fc3c0f4b"},"vehicle_type_id":"4","last_reported":1690481281,"current_range_meters":14400,"station_id":"ce4bh292rcd13ifvqdf0","pricing_plan_id":"free"},{"bike_id":"0101a0d9-c408-424c-b132-7564996db118","system_id":"levelo_inurba_marseille","lat":43.295196,"lon":5.39397,"is_reserved":false,"is_disabled":false,"rental_uris":{"android":"levelo://app?vid=0101a0d9-c408-424c-b132-7564996db118","ios":"levelo://app?vid=0101a0d9-c408-424c-b132-7564996db118"},"vehicle_type_id":"4","last_reported":1690481281,"current_range_meters":24000,"station_id":"ce4bh292rcd13ifvqdf0","pricing_plan_id":"free"},{"bike_id":"5b88c9bd-3b3c-4544-8ffc-f63eaef8eaf3","system_id":"levelo_inurba_marseille","lat":43.290345,"lon":5.38646,"is_reserved":false,"is_disabled":false,"rental_uris":{"android":"levelo://app?vid=5b88c9bd-3b3c-4544-8ffc-f63eaef8eaf3","ios":"levelo://app?vid=5b88c9bd-3b3c-4544-8ffc-f63eaef8eaf3"},"vehicle_type_id":"4","last_reported":1690481281,"current_range_meters":31600,"station_id":"ce4bh4p2rcd13ifvqe0g","pricing_plan_id":"free"},{"bike_id":"88a67263-482c-447b-8f7b-485a46c1b42c","system_id":"levelo_inurba_marseille","lat":43.290345,"lon":5.38646,"is_reserved":false,"is_disabled":false,"rental_uris":{"android":"levelo://app?vid=88a67263-482c-447b-8f7b-485a46c1b42c","ios":"levelo://app?vid=88a67263-482c-447b-8f7b-485a46c1b42c"},"vehicle_type_id":"4","last_reported":1690481281,"current_range_meters":3600,"station_id":"ce4bh4p2rcd13ifvqe0g","pricing_plan_id":"free"},{"bike_id":"978ad347-e372-4fb2-adb9-bfcdf8952e8a","system_id":"levelo_inurba_marseille","lat":43.302759,"lon":5.400793,"is_reserved":false,"is_disabled":false,"rental_uris":{"android":"levelo://app?vid=978ad347-e372-4fb2-adb9-bfcdf8952e8a","ios":"levelo://app?vid=978ad347-e372-4fb2-adb9-bfcdf8952e8a"},"vehicle_type_id":"4","last_reported":1690481281,"current_range_meters":29200,"station_id":"ce4bgvh2rcd13ifvqcs0","pricing_plan_id":"free"},{"bike_id":"7f48914e-7b46-43eb-a7e5-9486b0f1d186","system_id":"levelo_inurba_marseille","lat":43.302759,"lon":5.400793,"is_reserved":false,"is_disabled":false,"rental_uris":{"android":"levelo://app?vid=7f48914e-7b46-43eb-a7e5-9486b0f1d186","ios":"levelo://app?vid=7f48914e-7b46-43eb-a7e5-9486b0f1d186"},"vehicle_type_id":"4","last_reported":1690481281,"current_range_meters":30800,"station_id":"ce4bgvh2rcd13ifvqcs0","pricing_plan_id":"free"},{"bike_id":"965fa4d2-69cc-4556-8dc5-800d32a9755f","system_id":"levelo_inurba_marseille","lat":43.302759,"lon":5.400793,"is_reserved":false,"is_disabled":false,"rental_uris":{"android":"levelo://app?vid=965fa4d2-69cc-4556-8dc5-800d32a9755f","ios":"levelo://app?vid=965fa4d2-69cc-4556-8dc5-800d32a9755f"},"vehicle_type_id":"4","last_reported":1690481281,"current_range_meters":4000,"station_id":"ce4bgvh2rcd13ifvqcs0","pricing_plan_id":"free"},{"bike_id":"9aaf5cc7-e882-4b88-aef0-e154a2217385","system_id":"levelo_inurba_marseille","lat":43.302759,"lon":5.400793,"is_reserved":false,"is_disabled":false,"rental_uris":{"android":"levelo://app?vid=9aaf5cc7-e882-4b88-aef0-e154a2217385","ios":"levelo://app?vid=9aaf5cc7-e882-4b88-aef0-e154a2217385"},"vehicle_type_id":"4","last_reported":1690481281,"current_range_meters":24400,"station_id":"ce4bgvh2rcd13ifvqcs0","pricing_plan_id":"free"},{"bike_id":"ee4963c2-c8bd-4596-90a1-a2903af29241","system_id":"levelo_inurba_marseille","lat":43.290336,"lon":5.386425,"is_reserved":false,"is_disabled":false,"rental_uris":{"android":"levelo://app?vid=ee4963c2-c8bd-4596-90a1-a2903af29241","ios":"levelo://app?vid=ee4963c2-c8bd-4596-90a1-a2903af29241"},"vehicle_type_id":"4","last_reported":1690481281,"current_range_meters":14800,"station_id":"ce4bh4p2rcd13ifvqe0g","pricing_plan_id":"free"},{"bike_id":"93b660b6-8297-43c2-904b-5947fe5deee0","system_id":"levelo_inurba_marseille","lat":43.286039,"lon":5.370679,"is_reserved":false,"is_disabled":false,"rental_uris":{"android":"levelo://app?vid=93b660b6-8297-43c2-904b-5947fe5deee0","ios":"levelo://app?vid=93b660b6-8297-43c2-904b-5947fe5deee0"},"vehicle_type_id":"4","last_reported":1690481281,"current_range_meters":14000,"station_id":"ce4bht12rcd13ifvqi60","pricing_plan_id":"free"},{"bike_id":"2a7f0f6e-8293-42c7-a9e1-c67d12cdc345","system_id":"levelo_inurba_marseille","lat":43.28611,"lon":5.37063,"is_reserved":false,"is_disabled":false,"rental_uris":{"android":"levelo://app?vid=2a7f0f6e-8293-42c7-a9e1-c67d12cdc345","ios":"levelo://app?vid=2a7f0f6e-8293-42c7-a9e1-c67d12cdc345"},"vehicle_type_id":"4","last_reported":1690481281,"current_range_meters":28000,"station_id":"ce4bht12rcd13ifvqi60","pricing_plan_id":"free"},{"bike_id":"f4e29829-5789-41a1-8bcc-2459621b0927","system_id":"levelo_inurba_marseille","lat":43.286039,"lon":5.370679,"is_reserved":false,"is_disabled":false,"rental_uris":{"android":"levelo://app?vid=f4e29829-5789-41a1-8bcc-2459621b0927","ios":"levelo://app?vid=f4e29829-5789-41a1-8bcc-2459621b0927"},"vehicle_type_id":"4","last_reported":1690481281,"current_range_meters":19600,"station_id":"ce4bht12rcd13ifvqi60","pricing_plan_id":"free"},{"bike_id":"1cd1397b-9b1a-4e06-aabf-3cccfe028d2c","system_id":"levelo_inurba_marseille","lat":43.286039,"lon":5.370679,"is_reserved":false,"is_disabled":false,"rental_uris":{"android":"levelo://app?vid=1cd1397b-9b1a-4e06-aabf-3cccfe028d2c","ios":"levelo://app?vid=1cd1397b-9b1a-4e06-aabf-3cccfe028d2c"},"vehicle_type_id":"4","last_reported":1690481281,"current_range_meters":6800,"station_id":"ce4bht12rcd13ifvqi60","pricing_plan_id":"free"},{"bike_id":"d34b67c9-a679-470c-a8b0-9df665a9aa73","system_id":"levelo_inurba_marseille","lat":43.286039,"lon":5.370679,"is_reserved":false,"is_disabled":false,"rental_uris":{"android":"levelo://app?vid=d34b67c9-a679-470c-a8b0-9df665a9aa73","ios":"levelo://app?vid=d34b67c9-a679-470c-a8b0-9df665a9aa73"},"vehicle_type_id":"4","last_reported":1690481281,"current_range_meters":30000,"station_id":"ce4bht12rcd13ifvqi60","pricing_plan_id":"free"},{"bike_id":"fdbd85af-fa8a-4b6f-9429-47c53bb40c9d","system_id":"levelo_inurba_marseille","lat":43.286039,"lon":5.370681,"is_reserved":false,"is_disabled":false,"rental_uris":{"android":"levelo://app?vid=fdbd85af-fa8a-4b6f-9429-47c53bb40c9d","ios":"levelo://app?vid=fdbd85af-fa8a-4b6f-9429-47c53bb40c9d"},"vehicle_type_id":"4","last_reported":1690481281,"current_range_meters":5600,"station_id":"ce4bht12rcd13ifvqi60","pricing_plan_id":"free"},{"bike_id":"aa6b5648-5cb5-4222-abcb-a25e4de66823","system_id":"levelo_inurba_marseille","lat":43.28605,"lon":5.37067,"is_reserved":false,"is_disabled":false,"rental_uris":{"android":"levelo://app?vid=aa6b5648-5cb5-4222-abcb-a25e4de66823","ios":"levelo://app?vid=aa6b5648-5cb5-4222-abcb-a25e4de66823"},"vehicle_type_id":"4","last_reported":1690481281,"current_range_meters":26000,"station_id":"ce4bht12rcd13ifvqi60","pricing_plan_id":"free"},{"bike_id":"c18491a9-dcc6-4dfa-8ec2-f308c6ce7364","system_id":"levelo_inurba_marseille","lat":43.287184,"lon":5.37937,"is_reserved":false,"is_disabled":false,"rental_uris":{"android":"levelo://app?vid=c18491a9-dcc6-4dfa-8ec2-f308c6ce7364","ios":"levelo://app?vid=c18491a9-dcc6-4dfa-8ec2-f308c6ce7364"},"vehicle_type_id":"4","last_reported":1690481281,"current_range_meters":10000,"station_id":"ce4bh9p2rcd13ifvqec0","pricing_plan_id":"free"},{"bike_id":"9059c98f-5478-4e0d-bf1a-3d2a5cb37f29","system_id":"levelo_inurba_marseille","lat":43.287184,"lon":5.37937,"is_reserved":false,"is_disabled":false,"rental_uris":{"android":"levelo://app?vid=9059c98f-5478-4e0d-bf1a-3d2a5cb37f29","ios":"levelo://app?vid=9059c98f-5478-4e0d-bf1a-3d2a5cb37f29"},"vehicle_type_id":"4","last_reported":1690481281,"current_range_meters":3600,"station_id":"ce4bh9p2rcd13ifvqec0","pricing_plan_id":"free"},{"bike_id":"5cc86f55-d920-4396-8602-7d4fe92ead2f","system_id":"levelo_inurba_marseille","lat":43.287184,"lon":5.37937,"is_reserved":false,"is_disabled":false,"rental_uris":{"android":"levelo://app?vid=5cc86f55-d920-4396-8602-7d4fe92ead2f","ios":"levelo://app?vid=5cc86f55-d920-4396-8602-7d4fe92ead2f"},"vehicle_type_id":"4","last_reported":1690481281,"current_range_meters":0,"station_id":"ce4bh9p2rcd13ifvqec0","pricing_plan_id":"free"},{"bike_id":"f8c8ff3a-6fd5-4cb2-8c20-4f40dd4137c3","system_id":"levelo_inurba_marseille","lat":43.28808,"lon":5.38338,"is_reserved":false,"is_disabled":false,"rental_uris":{"android":"levelo://app?vid=f8c8ff3a-6fd5-4cb2-8c20-4f40dd4137c3","ios":"levelo://app?vid=f8c8ff3a-6fd5-4cb2-8c20-4f40dd4137c3"},"vehicle_type_id":"4","last_reported":1690481281,"current_range_meters":28800,"station_id":"","pricing_plan_id":"free"},{"bike_id":"7777b886-281f-4b87-881e-b857ec88aa80","system_id":"levelo_inurba_marseille","lat":43.316523,"lon":5.404367,"is_reserved":false,"is_disabled":false,"rental_uris":{"android":"levelo://app?vid=7777b886-281f-4b87-881e-b857ec88aa80","ios":"levelo://app?vid=7777b886-281f-4b87-881e-b857ec88aa80"},"vehicle_type_id":"4","last_reported":1690481281,"current_range_meters":6800,"station_id":"ce4bh012rcd13ifvqd00","pricing_plan_id":"free"},{"bike_id":"8936aaf1-f7c2-4e76-a350-db5029e1a0d2","system_id":"levelo_inurba_marseille","lat":43.291994,"lon":5.392907,"is_reserved":false,"is_disabled":false,"rental_uris":{"android":"levelo://app?vid=8936aaf1-f7c2-4e76-a350-db5029e1a0d2","ios":"levelo://app?vid=8936aaf1-f7c2-4e76-a350-db5029e1a0d2"},"vehicle_type_id":"4","last_reported":1690481281,"current_range_meters":2400,"station_id":"ce4bh192rcd13ifvqdd0","pricing_plan_id":"free"},{"bike_id":"7fdda102-67e1-497d-8552-a9ce2978e2b0","system_id":"levelo_inurba_marseille","lat":43.28465,"lon":5.3589,"is_reserved":false,"is_disabled":false,"rental_uris":{"android":"levelo://app?vid=7fdda102-67e1-497d-8552-a9ce2978e2b0","ios":"levelo://app?vid=7fdda102-67e1-497d-8552-a9ce2978e2b0"},"vehicle_type_id":"4","last_reported":1690481281,"current_range_meters":17200,"station_id":"","pricing_plan_id":"free"},{"bike_id":"3431f745-6f79-4175-945c-8367e98cea3d","system_id":"levelo_inurba_marseille","lat":43.284538,"lon":5.358657,"is_reserved":false,"is_disabled":false,"rental_uris":{"android":"levelo://app?vid=3431f745-6f79-4175-945c-8367e98cea3d","ios":"levelo://app?vid=3431f745-6f79-4175-945c-8367e98cea3d"},"vehicle_type_id":"4","last_reported":1690481281,"current_range_meters":7200,"station_id":"ce4bhah2rcd13ifvqei0","pricing_plan_id":"free"},{"bike_id":"783303a5-1f8e-43a2-8e96-19976b9ba497","system_id":"levelo_inurba_marseille","lat":43.285856,"lon":5.350771,"is_reserved":false,"is_disabled":false,"rental_uris":{"android":"levelo://app?vid=783303a5-1f8e-43a2-8e96-19976b9ba497","ios":"levelo://app?vid=783303a5-1f8e-43a2-8e96-19976b9ba497"},"vehicle_type_id":"4","last_reported":1690481281,"current_range_meters":19200,"station_id":"ce4bhch2rcd13ifvqeug","pricing_plan_id":"free"},{"bike_id":"e9cd67a2-2898-4799-b008-b6b40babb538","system_id":"levelo_inurba_marseille","lat":43.283998,"lon":5.375062,"is_reserved":false,"is_disabled":false,"rental_uris":{"android":"levelo://app?vid=e9cd67a2-2898-4799-b008-b6b40babb538","ios":"levelo://app?vid=e9cd67a2-2898-4799-b008-b6b40babb538"},"vehicle_type_id":"4","last_reported":1690481281,"current_range_meters":22800,"station_id":"ce4bh412rcd13ifvqds0","pricing_plan_id":"free"},{"bike_id":"e9ce1ea4-3ecc-4f58-88d3-30a209db17ca","system_id":"levelo_inurba_marseille","lat":43.286195,"lon":5.351051,"is_reserved":false,"is_disabled":false,"rental_uris":{"android":"levelo://app?vid=e9ce1ea4-3ecc-4f58-88d3-30a209db17ca","ios":"levelo://app?vid=e9ce1ea4-3ecc-4f58-88d3-30a209db17ca"},"vehicle_type_id":"4","last_reported":1690481281,"current_range_meters":0,"station_id":"ce4bhch2rcd13ifvqeug","pricing_plan_id":"free"},{"bike_id":"5511ffed-055e-4d22-ad1e-0a937b205210","system_id":"levelo_inurba_marseille","lat":43.285856,"lon":5.350771,"is_reserved":false,"is_disabled":false,"rental_uris":{"android":"levelo://app?vid=5511ffed-055e-4d22-ad1e-0a937b205210","ios":"levelo://app?vid=5511ffed-055e-4d22-ad1e-0a937b205210"},"vehicle_type_id":"4","last_reported":1690481281,"current_range_meters":10800,"station_id":"ce4bhch2rcd13ifvqeug","pricing_plan_id":"free"},{"bike_id":"d349f50d-c2d2-4500-9629-91d9e0e366de","system_id":"levelo_inurba_marseille","lat":43.285856,"lon":5.350771,"is_reserved":false,"is_disabled":false,"rental_uris":{"android":"levelo://app?vid=d349f50d-c2d2-4500-9629-91d9e0e366de","ios":"levelo://app?vid=d349f50d-c2d2-4500-9629-91d9e0e366de"},"vehicle_type_id":"4","last_reported":1690481281,"current_range_meters":23200,"station_id":"ce4bhch2rcd13ifvqeug","pricing_plan_id":"free"},{"bike_id":"339cdf6e-a9e5-43b9-bd00-6a4c805a5e3c","system_id":"levelo_inurba_marseille","lat":43.28612,"lon":5.35099,"is_reserved":false,"is_disabled":false,"rental_uris":{"android":"levelo://app?vid=339cdf6e-a9e5-43b9-bd00-6a4c805a5e3c","ios":"levelo://app?vid=339cdf6e-a9e5-43b9-bd00-6a4c805a5e3c"},"vehicle_type_id":"4","last_reported":1690481281,"current_range_meters":31200,"station_id":"ce4bhch2rcd13ifvqeug","pricing_plan_id":"free"},{"bike_id":"6a671a03-0ffa-43e6-b8a9-a3ba24486448","system_id":"levelo_inurba_marseille","lat":43.283998,"lon":5.375062,"is_reserved":false,"is_disabled":false,"rental_uris":{"android":"levelo://app?vid=6a671a03-0ffa-43e6-b8a9-a3ba24486448","ios":"levelo://app?vid=6a671a03-0ffa-43e6-b8a9-a3ba24486448"},"vehicle_type_id":"4","last_reported":1690481281,"current_range_meters":0,"station_id":"ce4bh412rcd13ifvqds0","pricing_plan_id":"free"},{"bike_id":"d7374f7e-2ddd-4f78-917c-54ac5dd7554a","system_id":"levelo_inurba_marseille","lat":43.28607,"lon":5.35102,"is_reserved":false,"is_disabled":false,"rental_uris":{"android":"levelo://app?vid=d7374f7e-2ddd-4f78-917c-54ac5dd7554a","ios":"levelo://app?vid=d7374f7e-2ddd-4f78-917c-54ac5dd7554a"},"vehicle_type_id":"4","last_reported":1690481281,"current_range_meters":25600,"station_id":"ce4bhch2rcd13ifvqeug","pricing_plan_id":"free"},{"bike_id":"c0fe1d0a-56f7-4809-b5de-67bef3b41877","system_id":"levelo_inurba_marseille","lat":43.283998,"lon":5.375062,"is_reserved":false,"is_disabled":false,"rental_uris":{"android":"levelo://app?vid=c0fe1d0a-56f7-4809-b5de-67bef3b41877","ios":"levelo://app?vid=c0fe1d0a-56f7-4809-b5de-67bef3b41877"},"vehicle_type_id":"4","last_reported":1690481281,"current_range_meters":15200,"station_id":"ce4bh412rcd13ifvqds0","pricing_plan_id":"free"},{"bike_id":"f7927a6e-1a29-41ea-aabc-4a8c790b102c","system_id":"levelo_inurba_marseille","lat":43.283998,"lon":5.375062,"is_reserved":false,"is_disabled":false,"rental_uris":{"android":"levelo://app?vid=f7927a6e-1a29-41ea-aabc-4a8c790b102c","ios":"levelo://app?vid=f7927a6e-1a29-41ea-aabc-4a8c790b102c"},"vehicle_type_id":"4","last_reported":1690481281,"current_range_meters":14000,"station_id":"ce4bh412rcd13ifvqds0","pricing_plan_id":"free"},{"bike_id":"36d6f225-2837-4b8f-a98d-8578f2117a1b","system_id":"levelo_inurba_marseille","lat":43.28412,"lon":5.37519,"is_reserved":false,"is_disabled":false,"rental_uris":{"android":"levelo://app?vid=36d6f225-2837-4b8f-a98d-8578f2117a1b","ios":"levelo://app?vid=36d6f225-2837-4b8f-a98d-8578f2117a1b"},"vehicle_type_id":"4","last_reported":1690481281,"current_range_meters":16400,"station_id":"","pricing_plan_id":"free"},{"bike_id":"41826a94-2f48-431e-a9ad-06a0c35187a0","system_id":"levelo_inurba_marseille","lat":43.283998,"lon":5.375062,"is_reserved":false,"is_disabled":false,"rental_uris":{"android":"levelo://app?vid=41826a94-2f48-431e-a9ad-06a0c35187a0","ios":"levelo://app?vid=41826a94-2f48-431e-a9ad-06a0c35187a0"},"vehicle_type_id":"4","last_reported":1690481281,"current_range_meters":18800,"station_id":"ce4bh412rcd13ifvqds0","pricing_plan_id":"free"},{"bike_id":"7bfb8f24-eecd-49c5-be7a-18bdd0f9b7b0","system_id":"levelo_inurba_marseille","lat":43.283998,"lon":5.375062,"is_reserved":false,"is_disabled":false,"rental_uris":{"android":"levelo://app?vid=7bfb8f24-eecd-49c5-be7a-18bdd0f9b7b0","ios":"levelo://app?vid=7bfb8f24-eecd-49c5-be7a-18bdd0f9b7b0"},"vehicle_type_id":"4","last_reported":1690481281,"current_range_meters":14000,"station_id":"ce4bh412rcd13ifvqds0","pricing_plan_id":"free"},{"bike_id":"a9e0a82f-cf9e-48b2-ad23-37759621009c","system_id":"levelo_inurba_marseille","lat":43.283998,"lon":5.375062,"is_reserved":false,"is_disabled":false,"rental_uris":{"android":"levelo://app?vid=a9e0a82f-cf9e-48b2-ad23-37759621009c","ios":"levelo://app?vid=a9e0a82f-cf9e-48b2-ad23-37759621009c"},"vehicle_type_id":"4","last_reported":1690481281,"current_range_meters":14800,"station_id":"ce4bh412rcd13ifvqds0","pricing_plan_id":"free"},{"bike_id":"7433c76c-1add-4cbc-b51a-8a903805217b","system_id":"levelo_inurba_marseille","lat":43.283998,"lon":5.375062,"is_reserved":false,"is_disabled":false,"rental_uris":{"android":"levelo://app?vid=7433c76c-1add-4cbc-b51a-8a903805217b","ios":"levelo://app?vid=7433c76c-1add-4cbc-b51a-8a903805217b"},"vehicle_type_id":"4","last_reported":1690481281,"current_range_meters":10400,"station_id":"ce4bh412rcd13ifvqds0","pricing_plan_id":"free"},{"bike_id":"4e287193-6a92-43fa-9dba-90c821c6b507","system_id":"levelo_inurba_marseille","lat":43.286595,"lon":5.386795,"is_reserved":false,"is_disabled":false,"rental_uris":{"android":"levelo://app?vid=4e287193-6a92-43fa-9dba-90c821c6b507","ios":"levelo://app?vid=4e287193-6a92-43fa-9dba-90c821c6b507"},"vehicle_type_id":"4","last_reported":1690481281,"current_range_meters":12000,"station_id":"ce4bh492rcd13ifvqdug","pricing_plan_id":"free"},{"bike_id":"b148fb1f-5a23-40f3-b1fb-fb37bf63f092","system_id":"levelo_inurba_marseille","lat":43.319179,"lon":5.407725,"is_reserved":false,"is_disabled":false,"rental_uris":{"android":"levelo://app?vid=b148fb1f-5a23-40f3-b1fb-fb37bf63f092","ios":"levelo://app?vid=b148fb1f-5a23-40f3-b1fb-fb37bf63f092"},"vehicle_type_id":"4","last_reported":1690481281,"current_range_meters":11200,"station_id":"ce4bhq12rcd13ifvqhig","pricing_plan_id":"free"},{"bike_id":"267d896c-50e8-4744-aa04-c46481ad9a34","system_id":"levelo_inurba_marseille","lat":43.319179,"lon":5.407725,"is_reserved":false,"is_disabled":false,"rental_uris":{"android":"levelo://app?vid=267d896c-50e8-4744-aa04-c46481ad9a34","ios":"levelo://app?vid=267d896c-50e8-4744-aa04-c46481ad9a34"},"vehicle_type_id":"4","last_reported":1690481281,"current_range_meters":24800,"station_id":"ce4bhq12rcd13ifvqhig","pricing_plan_id":"free"},{"bike_id":"c0c8e2fd-0464-4388-9acf-19c0edc181ad","system_id":"levelo_inurba_marseille","lat":43.31892,"lon":5.40742,"is_reserved":false,"is_disabled":false,"rental_uris":{"android":"levelo://app?vid=c0c8e2fd-0464-4388-9acf-19c0edc181ad","ios":"levelo://app?vid=c0c8e2fd-0464-4388-9acf-19c0edc181ad"},"vehicle_type_id":"4","last_reported":1690481281,"current_range_meters":31200,"station_id":"ce4bhq12rcd13ifvqhig","pricing_plan_id":"free"},{"bike_id":"f2197b32-1790-4499-9acb-48b384ecc478","system_id":"levelo_inurba_marseille","lat":43.33713,"lon":5.39182,"is_reserved":false,"is_disabled":false,"rental_uris":{"android":"levelo://app?vid=f2197b32-1790-4499-9acb-48b384ecc478","ios":"levelo://app?vid=f2197b32-1790-4499-9acb-48b384ecc478"},"vehicle_type_id":"4","last_reported":1690481281,"current_range_meters":29600,"station_id":"ce4bhr92rcd13ifvqhsg","pricing_plan_id":"free"},{"bike_id":"7e209f61-3c45-427c-ae4d-e4269e2dda66","system_id":"levelo_inurba_marseille","lat":43.337168,"lon":5.391825,"is_reserved":false,"is_disabled":false,"rental_uris":{"android":"levelo://app?vid=7e209f61-3c45-427c-ae4d-e4269e2dda66","ios":"levelo://app?vid=7e209f61-3c45-427c-ae4d-e4269e2dda66"},"vehicle_type_id":"4","last_reported":1690481281,"current_range_meters":23200,"station_id":"ce4bhr92rcd13ifvqhsg","pricing_plan_id":"free"},{"bike_id":"838a4aae-6542-4395-bd1f-0c01c6ad5d93","system_id":"levelo_inurba_marseille","lat":43.33723,"lon":5.39176,"is_reserved":false,"is_disabled":false,"rental_uris":{"android":"levelo://app?vid=838a4aae-6542-4395-bd1f-0c01c6ad5d93","ios":"levelo://app?vid=838a4aae-6542-4395-bd1f-0c01c6ad5d93"},"vehicle_type_id":"4","last_reported":1690481281,"current_range_meters":16800,"station_id":"ce4bhr92rcd13ifvqhsg","pricing_plan_id":"free"},{"bike_id":"bfba1d51-c352-4de8-b042-a36245d6322f","system_id":"levelo_inurba_marseille","lat":43.337168,"lon":5.391825,"is_reserved":false,"is_disabled":false,"rental_uris":{"android":"levelo://app?vid=bfba1d51-c352-4de8-b042-a36245d6322f","ios":"levelo://app?vid=bfba1d51-c352-4de8-b042-a36245d6322f"},"vehicle_type_id":"4","last_reported":1690481281,"current_range_meters":30000,"station_id":"ce4bhr92rcd13ifvqhsg","pricing_plan_id":"free"},{"bike_id":"ee2e399c-5d81-4618-b3b6-2e52257eac7c","system_id":"levelo_inurba_marseille","lat":43.33725,"lon":5.39176,"is_reserved":false,"is_disabled":false,"rental_uris":{"android":"levelo://app?vid=ee2e399c-5d81-4618-b3b6-2e52257eac7c","ios":"levelo://app?vid=ee2e399c-5d81-4618-b3b6-2e52257eac7c"},"vehicle_type_id":"4","last_reported":1690481281,"current_range_meters":30800,"station_id":"ce4bhr92rcd13ifvqhsg","pricing_plan_id":"free"},{"bike_id":"b4201f45-72fc-4952-aba8-c29b26b5cb66","system_id":"levelo_inurba_marseille","lat":43.33726,"lon":5.39179,"is_reserved":false,"is_disabled":false,"rental_uris":{"android":"levelo://app?vid=b4201f45-72fc-4952-aba8-c29b26b5cb66","ios":"levelo://app?vid=b4201f45-72fc-4952-aba8-c29b26b5cb66"},"vehicle_type_id":"4","last_reported":1690481281,"current_range_meters":30800,"station_id":"ce4bhr92rcd13ifvqhsg","pricing_plan_id":"free"},{"bike_id":"a2c1a841-d1f9-400b-92eb-b47f93c74a3b","system_id":"levelo_inurba_marseille","lat":43.33726,"lon":5.39181,"is_reserved":false,"is_disabled":false,"rental_uris":{"android":"levelo://app?vid=a2c1a841-d1f9-400b-92eb-b47f93c74a3b","ios":"levelo://app?vid=a2c1a841-d1f9-400b-92eb-b47f93c74a3b"},"vehicle_type_id":"4","last_reported":1690481281,"current_range_meters":28400,"station_id":"ce4bhr92rcd13ifvqhsg","pricing_plan_id":"free"},{"bike_id":"fa201935-bc88-4796-b35e-043bd94a47de","system_id":"levelo_inurba_marseille","lat":43.33728,"lon":5.39178,"is_reserved":false,"is_disabled":false,"rental_uris":{"android":"levelo://app?vid=fa201935-bc88-4796-b35e-043bd94a47de","ios":"levelo://app?vid=fa201935-bc88-4796-b35e-043bd94a47de"},"vehicle_type_id":"4","last_reported":1690481281,"current_range_meters":30000,"station_id":"ce4bhr92rcd13ifvqhsg","pricing_plan_id":"free"},{"bike_id":"a48462d0-6c35-4ecf-95aa-419fdd359ff1","system_id":"levelo_inurba_marseille","lat":43.284793,"lon":5.384113,"is_reserved":false,"is_disabled":false,"rental_uris":{"android":"levelo://app?vid=a48462d0-6c35-4ecf-95aa-419fdd359ff1","ios":"levelo://app?vid=a48462d0-6c35-4ecf-95aa-419fdd359ff1"},"vehicle_type_id":"4","last_reported":1690481281,"current_range_meters":14400,"station_id":"ce4bh512rcd13ifvqe3g","pricing_plan_id":"free"},{"bike_id":"1e22156b-0610-4d20-af4a-7bf771b4fee0","system_id":"levelo_inurba_marseille","lat":43.32347,"lon":5.40616,"is_reserved":false,"is_disabled":false,"rental_uris":{"android":"levelo://app?vid=1e22156b-0610-4d20-af4a-7bf771b4fee0","ios":"levelo://app?vid=1e22156b-0610-4d20-af4a-7bf771b4fee0"},"vehicle_type_id":"4","last_reported":1690481281,"current_range_meters":29600,"station_id":"ce4bhq92rcd13ifvqhjg","pricing_plan_id":"free"},{"bike_id":"07355913-3475-48df-8d84-3e45dbf0e07b","system_id":"levelo_inurba_marseille","lat":43.33729,"lon":5.39183,"is_reserved":false,"is_disabled":false,"rental_uris":{"android":"levelo://app?vid=07355913-3475-48df-8d84-3e45dbf0e07b","ios":"levelo://app?vid=07355913-3475-48df-8d84-3e45dbf0e07b"},"vehicle_type_id":"4","last_reported":1690481281,"current_range_meters":29200,"station_id":"ce4bhr92rcd13ifvqhsg","pricing_plan_id":"free"},{"bike_id":"2c3e7f5e-651b-46e3-b925-fb0eb217a750","system_id":"levelo_inurba_marseille","lat":43.284793,"lon":5.384119,"is_reserved":false,"is_disabled":false,"rental_uris":{"android":"levelo://app?vid=2c3e7f5e-651b-46e3-b925-fb0eb217a750","ios":"levelo://app?vid=2c3e7f5e-651b-46e3-b925-fb0eb217a750"},"vehicle_type_id":"4","last_reported":1690481281,"current_range_meters":6800,"station_id":"ce4bh512rcd13ifvqe3g","pricing_plan_id":"free"},{"bike_id":"6720d563-ac72-4afa-8e10-3d3091e5155d","system_id":"levelo_inurba_marseille","lat":43.288497,"lon":5.393089,"is_reserved":false,"is_disabled":false,"rental_uris":{"android":"levelo://app?vid=6720d563-ac72-4afa-8e10-3d3091e5155d","ios":"levelo://app?vid=6720d563-ac72-4afa-8e10-3d3091e5155d"},"vehicle_type_id":"4","last_reported":1690481281,"current_range_meters":31200,"station_id":"ce4bh2p2rcd13ifvqdi0","pricing_plan_id":"free"},{"bike_id":"6eebc525-d143-491e-8bfc-369c576cf8d1","system_id":"levelo_inurba_marseille","lat":43.283494,"lon":5.380945,"is_reserved":false,"is_disabled":false,"rental_uris":{"android":"levelo://app?vid=6eebc525-d143-491e-8bfc-369c576cf8d1","ios":"levelo://app?vid=6eebc525-d143-491e-8bfc-369c576cf8d1"},"vehicle_type_id":"4","last_reported":1690481281,"current_range_meters":18800,"station_id":"ce4bh412rcd13ifvqdr0","pricing_plan_id":"free"},{"bike_id":"d814444e-2db9-42a3-9b5e-4c7863564547","system_id":"levelo_inurba_marseille","lat":43.28426,"lon":5.34998,"is_reserved":false,"is_disabled":false,"rental_uris":{"android":"levelo://app?vid=d814444e-2db9-42a3-9b5e-4c7863564547","ios":"levelo://app?vid=d814444e-2db9-42a3-9b5e-4c7863564547"},"vehicle_type_id":"4","last_reported":1690481281,"current_range_meters":13200,"station_id":"ce4bhbh2rcd13ifvqepg","pricing_plan_id":"free"},{"bike_id":"6bd0a873-a837-424a-a16e-71bbd9bc5739","system_id":"levelo_inurba_marseille","lat":43.284219,"lon":5.3497,"is_reserved":false,"is_disabled":false,"rental_uris":{"android":"levelo://app?vid=6bd0a873-a837-424a-a16e-71bbd9bc5739","ios":"levelo://app?vid=6bd0a873-a837-424a-a16e-71bbd9bc5739"},"vehicle_type_id":"4","last_reported":1690481281,"current_range_meters":31600,"station_id":"ce4bhbh2rcd13ifvqepg","pricing_plan_id":"free"},{"bike_id":"9413f83f-df18-4e08-91d1-94121b1295b5","system_id":"levelo_inurba_marseille","lat":43.28424,"lon":5.34994,"is_reserved":false,"is_disabled":false,"rental_uris":{"android":"levelo://app?vid=9413f83f-df18-4e08-91d1-94121b1295b5","ios":"levelo://app?vid=9413f83f-df18-4e08-91d1-94121b1295b5"},"vehicle_type_id":"4","last_reported":1690481281,"current_range_meters":19200,"station_id":"ce4bhbh2rcd13ifvqepg","pricing_plan_id":"free"},{"bike_id":"4bbf0318-07bf-481e-91aa-9d2b8b5969e5","system_id":"levelo_inurba_marseille","lat":43.284219,"lon":5.3497,"is_reserved":false,"is_disabled":false,"rental_uris":{"android":"levelo://app?vid=4bbf0318-07bf-481e-91aa-9d2b8b5969e5","ios":"levelo://app?vid=4bbf0318-07bf-481e-91aa-9d2b8b5969e5"},