{"last_updated":1727370536,"ttl":60,"version":"2.2","data":{"bikes":[{"bike_id":"13fd1d79-bf4f-4834-861d-3861e1e38b03","system_id":"levelo_inurba_marseille","lat":43.27495,"lon":5.42448,"is_reserved":false,"is_disabled":false,"rental_uris":{"android":"levelo://app?vid=13fd1d79-bf4f-4834-861d-3861e1e38b03","ios":"levelo://app?vid=13fd1d79-bf4f-4834-861d-3861e1e38b03"},"vehicle_type_id":"4","last_reported":1727370536,"current_range_meters":16400,"station_id":"ce4bhn92rcd13ifvqgrg","pricing_plan_id":"cebpf4jnsgd1na2vs0mg"},{"bike_id":"905d68bb-deeb-412f-a420-54978bccd139","system_id":"levelo_inurba_marseille","lat":43.28855,"lon":5.35865,"is_reserved":false,"is_disabled":false,"rental_uris":{"android":"levelo://app?vid=905d68bb-deeb-412f-a420-54978bccd139","ios":"levelo://app?vid=905d68bb-deeb-412f-a420-54978bccd139"},"vehicle_type_id":"4","last_reported":1727370536,"current_range_meters":38800,"station_id":"ce4bhb12rcd13ifvqem0","pricing_plan_id":"cebpf4jnsgd1na2vs0mg"},{"bike_id":"9a593db0-19bc-4883-bc8e-f35d82d51490","system_id":"levelo_inurba_marseille","lat":43.31081,"lon":5.42425,"is_reserved":false,"is_disabled":false,"rental_uris":{"android":"levelo://app?vid=9a593db0-19bc-4883-bc8e-f35d82d51490","ios":"levelo://app?vid=9a593db0-19bc-4883-bc8e-f35d82d51490"},"vehicle_type_id":"4","last_reported":1727370536,"current_range_meters":3200,"station_id":"ce4bhp92rcd13ifvqhag","pricing_plan_id":"cebpf4jnsgd1na2vs0mg"},{"bike_id":"83a44e94-16ed-4bb7-938e-5667ab4b235b","system_id":"levelo_inurba_marseille","lat":43.2841,"lon":5.37514,"is_reserved":false,"is_disabled":false,"rental_uris":{"android":"levelo://app?vid=83a44e94-16ed-4bb7-938e-5667ab4b235b","ios":"levelo://app?vid=83a44e94-16ed-4bb7-938e-5667ab4b235b"},"vehicle_type_id":"4","last_reported":1727370536,"current_range_meters":30800,"station_id":"ce4bh412rcd13ifvqds0","pricing_plan_id":"cebpf4jnsgd1na2vs0mg"},{"bike_id":"a9669d3a-c989-4bbf-988b-b787f6909497","system_id":"levelo_inurba_marseille","lat":43.32662,"lon":5.40977,"is_reserved":false,"is_disabled":false,"rental_uris":{"android":"levelo://app?vid=a9669d3a-c989-4bbf-988b-b787f6909497","ios":"levelo://app?vid=a9669d3a-c989-4bbf-988b-b787f6909497"},"vehicle_type_id":"4","last_reported":1727370536,"current_range_meters":38400,"station_id":"ce4bhpp2rcd13ifvqhgg","pricing_plan_id":"cebpf4jnsgd1na2vs0mg"},{"bike_id":"55f4f50b-d6dd-4e12-86b3-1486da4af7d9","system_id":"levelo_inurba_marseille","lat":43.22933,"lon":5.35372,"is_reserved":false,"is_disabled":false,"rental_uris":{"android":"levelo://app?vid=55f4f50b-d6dd-4e12-86b3-1486da4af7d9","ios":"levelo://app?vid=55f4f50b-d6dd-4e12-86b3-1486da4af7d9"},"vehicle_type_id":"4","last_reported":1727370536,"current_range_meters":38800,"station_id":"cpo3532slgdg3j2ikp40","pricing_plan_id":"cebpf4jnsgd1na2vs0mg"},{"bike_id":"e6de9d4c-7cab-4c41-82f2-237229014a2c","system_id":"levelo_inurba_marseille","lat":43.29526,"lon":5.39045,"is_reserved":false,"is_disabled":false,"rental_uris":{"android":"levelo://app?vid=e6de9d4c-7cab-4c41-82f2-237229014a2c","ios":"levelo://app?vid=e6de9d4c-7cab-4c41-82f2-237229014a2c"},"vehicle_type_id":"4","last_reported":1727370536,"current_range_meters":38800,"station_id":"ce4bh3p2rcd13ifvqdp0","pricing_plan_id":"cebpf4jnsgd1na2vs0mg"},{"bike_id":"2b92238c-63a2-415c-96c0-d94ff2a997c8","system_id":"levelo_inurba_marseille","lat":43.274139,"lon":5.390736,"is_reserved":false,"is_disabled":false,"rental_uris":{"android":"levelo://app?vid=2b92238c-63a2-415c-96c0-d94ff2a997c8","ios":"levelo://app?vid=2b92238c-63a2-415c-96c0-d94ff2a997c8"},"vehicle_type_id":"4","last_reported":1727370536,"current_range_meters":33200,"station_id":"ce4bhdp2rcd13ifvqf20","pricing_plan_id":"cebpf4jnsgd1na2vs0mg"},{"bike_id":"0523a820-3d94-40ce-aebb-c43e29640492","system_id":"levelo_inurba_marseille","lat":43.26942,"lon":5.40256,"is_reserved":false,"is_disabled":false,"rental_uris":{"android":"levelo://app?vid=0523a820-3d94-40ce-aebb-c43e29640492","ios":"levelo://app?vid=0523a820-3d94-40ce-aebb-c43e29640492"},"vehicle_type_id":"4","last_reported":1727370536,"current_range_meters":30000,"station_id":"cjm6bp8fraef2m0cb0m0","pricing_plan_id":"cebpf4jnsgd1na2vs0mg"},{"bike_id":"2307bcfe-5897-4814-8199-be9f3d33c5fd","system_id":"levelo_inurba_marseille","lat":43.25589,"lon":5.38253,"is_reserved":false,"is_disabled":false,"rental_uris":{"android":"levelo://app?vid=2307bcfe-5897-4814-8199-be9f3d33c5fd","ios":"levelo://app?vid=2307bcfe-5897-4814-8199-be9f3d33c5fd"},"vehicle_type_id":"4","last_reported":1727370536,"current_range_meters":21600,"station_id":"ce4bhih2rcd13ifvqfs0","pricing_plan_id":"cebpf4jnsgd1na2vs0mg"},{"bike_id":"161f50c7-3de2-4116-a91e-3d856209631f","system_id":"levelo_inurba_marseille","lat":43.28459,"lon":5.35888,"is_reserved":false,"is_disabled":false,"rental_uris":{"android":"levelo://app?vid=161f50c7-3de2-4116-a91e-3d856209631f","ios":"levelo://app?vid=161f50c7-3de2-4116-a91e-3d856209631f"},"vehicle_type_id":"4","last_reported":1727370536,"current_range_meters":8000,"station_id":"ce4bhah2rcd13ifvqei0","pricing_plan_id":"cebpf4jnsgd1na2vs0mg"},{"bike_id":"7737b815-6daf-41f0-8354-4b28ba75917f","system_id":"levelo_inurba_marseille","lat":43.301911,"lon":5.398227,"is_reserved":false,"is_disabled":false,"rental_uris":{"android":"levelo://app?vid=7737b815-6daf-41f0-8354-4b28ba75917f","ios":"levelo://app?vid=7737b815-6daf-41f0-8354-4b28ba75917f"},"vehicle_type_id":"4","last_reported":1727370536,"current_range_meters":10800,"station_id":"ce4bgvp2rcd13ifvqct0","pricing_plan_id":"cebpf4jnsgd1na2vs0mg"},{"bike_id":"41305414-5c91-4d4b-aedc-ac3dec4fdc62","system_id":"levelo_inurba_marseille","lat":43.28869,"lon":5.39334,"is_reserved":false,"is_disabled":false,"rental_uris":{"android":"levelo://app?vid=41305414-5c91-4d4b-aedc-ac3dec4fdc62","ios":"levelo://app?vid=41305414-5c91-4d4b-aedc-ac3dec4fdc62"},"vehicle_type_id":"4","last_reported":1727370536,"current_range_meters":38800,"station_id":"ce4bh2p2rcd13ifvqdi0","pricing_plan_id":"cebpf4jnsgd1na2vs0mg"},{"bike_id":"c94eb74e-4120-4eec-8ae5-2803f0b974ee","system_id":"levelo_inurba_marseille","lat":43.29039,"lon":5.375614,"is_reserved":false,"is_disabled":false,"rental_uris":{"android":"levelo://app?vid=c94eb74e-4120-4eec-8ae5-2803f0b974ee","ios":"levelo://app?vid=c94eb74e-4120-4eec-8ae5-2803f0b974ee"},"vehicle_type_id":"4","last_reported":1727370536,"current_range_meters":31200,"station_id":"ce4bh0p2rcd13ifvqd70","pricing_plan_id":"cebpf4jnsgd1na2vs0mg"},{"bike_id":"441f8262-2199-490f-809a-b25674a121e1","system_id":"levelo_inurba_marseille","lat":43.28154,"lon":5.42647,"is_reserved":false,"is_disabled":false,"rental_uris":{"android":"levelo://app?vid=441f8262-2199-490f-809a-b25674a121e1","ios":"levelo://app?vid=441f8262-2199-490f-809a-b25674a121e1"},"vehicle_type_id":"4","last_reported":1727370536,"current_range_meters":25200,"station_id":"ce4bhnh2rcd13ifvqgug","pricing_plan_id":"cebpf4jnsgd1na2vs0mg"},{"bike_id":"b6daf4df-7c90-4c5e-b397-06a87d15013f","system_id":"levelo_inurba_marseille","lat":43.33752,"lon":5.37361,"is_reserved":false,"is_disabled":false,"rental_uris":{"android":"levelo://app?vid=b6daf4df-7c90-4c5e-b397-06a87d15013f","ios":"levelo://app?vid=b6daf4df-7c90-4c5e-b397-06a87d15013f"},"vehicle_type_id":"4","last_reported":1727370536,"current_range_meters":30800,"station_id":"","pricing_plan_id":"cebpf4jnsgd1na2vs0mg"},{"bike_id":"38b64580-7182-4cb6-9709-2d3cf03f3c3c","system_id":"levelo_inurba_marseille","lat":43.28001,"lon":5.40018,"is_reserved":false,"is_disabled":false,"rental_uris":{"android":"levelo://app?vid=38b64580-7182-4cb6-9709-2d3cf03f3c3c","ios":"levelo://app?vid=38b64580-7182-4cb6-9709-2d3cf03f3c3c"},"vehicle_type_id":"4","last_reported":1727370536,"current_range_meters":22800,"station_id":"ce4bho92rcd13ifvqh4g","pricing_plan_id":"cebpf4jnsgd1na2vs0mg"},{"bike_id":"2a657801-35d1-4dc0-8ae6-ef25729ecb5d","system_id":"levelo_inurba_marseille","lat":43.28006,"lon":5.39983,"is_reserved":false,"is_disabled":false,"rental_uris":{"android":"levelo://app?vid=2a657801-35d1-4dc0-8ae6-ef25729ecb5d","ios":"levelo://app?vid=2a657801-35d1-4dc0-8ae6-ef25729ecb5d"},"vehicle_type_id":"4","last_reported":1727370536,"current_range_meters":38800,"station_id":"ce4bho92rcd13ifvqh4g","pricing_plan_id":"cebpf4jnsgd1na2vs0mg"},{"bike_id":"289c9d96-eb99-4235-bc28-477f33f8c391","system_id":"levelo_inurba_marseille","lat":43.31712,"lon":5.43705,"is_reserved":false,"is_disabled":false,"rental_uris":{"android":"levelo://app?vid=289c9d96-eb99-4235-bc28-477f33f8c391","ios":"levelo://app?vid=289c9d96-eb99-4235-bc28-477f33f8c391"},"vehicle_type_id":"4","last_reported":1727370536,"current_range_meters":17600,"station_id":"ce4bhp92rcd13ifvqhcg","pricing_plan_id":"cebpf4jnsgd1na2vs0mg"},{"bike_id":"7f15c31f-1377-4652-9641-e9f472a51ce1","system_id":"levelo_inurba_marseille","lat":43.2927,"lon":5.40113,"is_reserved":false,"is_disabled":false,"rental_uris":{"android":"levelo://app?vid=7f15c31f-1377-4652-9641-e9f472a51ce1","ios":"levelo://app?vid=7f15c31f-1377-4652-9641-e9f472a51ce1"},"vehicle_type_id":"4","last_reported":1727370536,"current_range_meters":28400,"station_id":"ce4bh312rcd13ifvqdk0","pricing_plan_id":"cebpf4jnsgd1na2vs0mg"},{"bike_id":"e3c5fbbf-73cf-4f2d-b2d6-f67ffdb80c53","system_id":"levelo_inurba_marseille","lat":43.3303,"lon":5.39036,"is_reserved":false,"is_disabled":false,"rental_uris":{"android":"levelo://app?vid=e3c5fbbf-73cf-4f2d-b2d6-f67ffdb80c53","ios":"levelo://app?vid=e3c5fbbf-73cf-4f2d-b2d6-f67ffdb80c53"},"vehicle_type_id":"4","last_reported":1727370536,"current_range_meters":28400,"station_id":"ce4bhr92rcd13ifvqhrg","pricing_plan_id":"cebpf4jnsgd1na2vs0mg"},{"bike_id":"436e6a1f-67cf-4d26-89a2-9f0986804f62","system_id":"levelo_inurba_marseille","lat":43.3237,"lon":5.38886,"is_reserved":false,"is_disabled":false,"rental_uris":{"android":"levelo://app?vid=436e6a1f-67cf-4d26-89a2-9f0986804f62","ios":"levelo://app?vid=436e6a1f-67cf-4d26-89a2-9f0986804f62"},"vehicle_type_id":"4","last_reported":1727370536,"current_range_meters":29600,"station_id":"ce4bhqp2rcd13ifvqhog","pricing_plan_id":"cebpf4jnsgd1na2vs0mg"},{"bike_id":"57bc1e84-e83e-4198-85b5-3e7f9c3f0b0b","system_id":"levelo_inurba_marseille","lat":43.24167,"lon":5.36392,"is_reserved":false,"is_disabled":false,"rental_uris":{"android":"levelo://app?vid=57bc1e84-e83e-4198-85b5-3e7f9c3f0b0b","ios":"levelo://app?vid=57bc1e84-e83e-4198-85b5-3e7f9c3f0b0b"},"vehicle_type_id":"4","last_reported":1727370536,"current_range_meters":27200,"station_id":"cpo36qri1sfpv3e86is0","pricing_plan_id":"cebpf4jnsgd1na2vs0mg"},{"bike_id":"7a8458d5-44ac-4f2e-abef-3f01eb31f7ca","system_id":"levelo_inurba_marseille","lat":43.337444,"lon":5.374475,"is_reserved":false,"is_disabled":false,"rental_uris":{"android":"levelo://app?vid=7a8458d5-44ac-4f2e-abef-3f01eb31f7ca","ios":"levelo://app?vid=7a8458d5-44ac-4f2e-abef-3f01eb31f7ca"},"vehicle_type_id":"4","last_reported":1727370536,"current_range_meters":20000,"station_id":"","pricing_plan_id":"cebpf4jnsgd1na2vs0mg"},{"bike_id":"6eeee8e0-5585-428d-aa78-8b1f110cd2ea","system_id":"levelo_inurba_marseille","lat":43.28155,"lon":5.42642,"is_reserved":false,"is_disabled":false,"rental_uris":{"android":"levelo://app?vid=6eeee8e0-5585-428d-aa78-8b1f110cd2ea","ios":"levelo://app?vid=6eeee8e0-5585-428d-aa78-8b1f110cd2ea"},"vehicle_type_id":"4","last_reported":1727370536,"current_range_meters":24800,"station_id":"ce4bhnh2rcd13ifvqgug","pricing_plan_id":"cebpf4jnsgd1na2vs0mg"},{"bike_id":"245322ad-98ce-4a03-920e-f8861ea4255a","system_id":"levelo_inurba_marseille","lat":43.23067,"lon":5.35491,"is_reserved":false,"is_disabled":false,"rental_uris":{"android":"levelo://app?vid=245322ad-98ce-4a03-920e-f8861ea4255a","ios":"levelo://app?vid=245322ad-98ce-4a03-920e-f8861ea4255a"},"vehicle_type_id":"4","last_reported":1727370536,"current_range_meters":38800,"station_id":"cpo3342slgdg3j2ifvpg","pricing_plan_id":"cebpf4jnsgd1na2vs0mg"},{"bike_id":"d59b21f0-7bec-4115-9189-e54b54589187","system_id":"levelo_inurba_marseille","lat":43.31698,"lon":5.37758,"is_reserved":false,"is_disabled":false,"rental_uris":{"android":"levelo://app?vid=d59b21f0-7bec-4115-9189-e54b54589187","ios":"levelo://app?vid=d59b21f0-7bec-4115-9189-e54b54589187"},"vehicle_type_id":"4","last_reported":1727370536,"current_range_meters":8800,"station_id":"ce4bgth2rcd13ifvqch0","pricing_plan_id":"cebpf4jnsgd1na2vs0mg"},{"bike_id":"6d454f9d-eb01-4b43-bd4c-02f944dcd91a","system_id":"levelo_inurba_marseille","lat":43.28421,"lon":5.3498,"is_reserved":false,"is_disabled":false,"rental_uris":{"android":"levelo://app?vid=6d454f9d-eb01-4b43-bd4c-02f944dcd91a","ios":"levelo://app?vid=6d454f9d-eb01-4b43-bd4c-02f944dcd91a"},"vehicle_type_id":"4","last_reported":1727370536,"current_range_meters":37600,"station_id":"ce4bhbh2rcd13ifvqepg","pricing_plan_id":"cebpf4jnsgd1na2vs0mg"},{"bike_id":"8f76b2ae-50a3-4cef-b079-641e370b64d9","system_id":"levelo_inurba_marseille","lat":43.25581,"lon":5.38239,"is_reserved":false,"is_disabled":false,"rental_uris":{"android":"levelo://app?vid=8f76b2ae-50a3-4cef-b079-641e370b64d9","ios":"levelo://app?vid=8f76b2ae-50a3-4cef-b079-641e370b64d9"},"vehicle_type_id":"4","last_reported":1727370536,"current_range_meters":8000,"station_id":"ce4bhih2rcd13ifvqfs0","pricing_plan_id":"cebpf4jnsgd1na2vs0mg"},{"bike_id":"a84cf677-28dc-4cb8-a48a-1c91c91fe28f","system_id":"levelo_inurba_marseille","lat":43.2439,"lon":5.37063,"is_reserved":false,"is_disabled":false,"rental_uris":{"android":"levelo://app?vid=a84cf677-28dc-4cb8-a48a-1c91c91fe28f","ios":"levelo://app?vid=a84cf677-28dc-4cb8-a48a-1c91c91fe28f"},"vehicle_type_id":"4","last_reported":1727370536,"current_range_meters":21600,"station_id":"ce4bhhh2rcd13ifvqfk0","pricing_plan_id":"cebpf4jnsgd1na2vs0mg"},{"bike_id":"50d4ec58-a42a-4450-844b-4e946465e51d","system_id":"levelo_inurba_marseille","lat":43.30804,"lon":5.43529,"is_reserved":false,"is_disabled":false,"rental_uris":{"android":"levelo://app?vid=50d4ec58-a42a-4450-844b-4e946465e51d","ios":"levelo://app?vid=50d4ec58-a42a-4450-844b-4e946465e51d"},"vehicle_type_id":"4","last_reported":1727370536,"current_range_meters":8000,"station_id":"ce4bhph2rcd13ifvqheg","pricing_plan_id":"cebpf4jnsgd1na2vs0mg"},{"bike_id":"14adfc04-e600-4cd9-aeff-df217a6f64cc","system_id":"levelo_inurba_marseille","lat":43.29201,"lon":5.39325,"is_reserved":false,"is_disabled":false,"rental_uris":{"android":"levelo://app?vid=14adfc04-e600-4cd9-aeff-df217a6f64cc","ios":"levelo://app?vid=14adfc04-e600-4cd9-aeff-df217a6f64cc"},"vehicle_type_id":"4","last_reported":1727370536,"current_range_meters":4400,"station_id":"ce4bh192rcd13ifvqdd0","pricing_plan_id":"cebpf4jnsgd1na2vs0mg"},{"bike_id":"db5eb744-f945-4011-b19c-52d49f2f93d8","system_id":"levelo_inurba_marseille","lat":43.29781,"lon":5.39337,"is_reserved":false,"is_disabled":false,"rental_uris":{"android":"levelo://app?vid=db5eb744-f945-4011-b19c-52d49f2f93d8","ios":"levelo://app?vid=db5eb744-f945-4011-b19c-52d49f2f93d8"},"vehicle_type_id":"4","last_reported":1727370536,"current_range_meters":6800,"station_id":"chh1huq6cuj3fo74tm60","pricing_plan_id":"cebpf4jnsgd1na2vs0mg"},{"bike_id":"8d17f10b-cb18-4a62-9a7c-043318106e2d","system_id":"levelo_inurba_marseille","lat":43.30251,"lon":5.36637,"is_reserved":false,"is_disabled":false,"rental_uris":{"android":"levelo://app?vid=8d17f10b-cb18-4a62-9a7c-043318106e2d","ios":"levelo://app?vid=8d17f10b-cb18-4a62-9a7c-043318106e2d"},"vehicle_type_id":"4","last_reported":1727370536,"current_range_meters":6800,"station_id":"","pricing_plan_id":"cebpf4jnsgd1na2vs0mg"},{"bike_id":"d348f73f-a285-424d-92a6-5b7db17fa1ac","system_id":"levelo_inurba_marseille","lat":43.30419,"lon":5.41288,"is_reserved":false,"is_disabled":false,"rental_uris":{"android":"levelo://app?vid=d348f73f-a285-424d-92a6-5b7db17fa1ac","ios":"levelo://app?vid=d348f73f-a285-424d-92a6-5b7db17fa1ac"},"vehicle_type_id":"4","last_reported":1727370536,"current_range_meters":30000,"station_id":"ce4bhop2rcd13ifvqh8g","pricing_plan_id":"cebpf4jnsgd1na2vs0mg"},{"bike_id":"28082669-74f9-4dd5-996c-c5fa73c8ddb2","system_id":"levelo_inurba_marseille","lat":43.33025,"lon":5.39047,"is_reserved":false,"is_disabled":false,"rental_uris":{"android":"levelo://app?vid=28082669-74f9-4dd5-996c-c5fa73c8ddb2","ios":"levelo://app?vid=28082669-74f9-4dd5-996c-c5fa73c8ddb2"},"vehicle_type_id":"4","last_reported":1727370536,"current_range_meters":23200,"station_id":"ce4bhr92rcd13ifvqhrg","pricing_plan_id":"cebpf4jnsgd1na2vs0mg"},{"bike_id":"3c6afdf7-67ea-4d82-aceb-813b791a20f5","system_id":"levelo_inurba_marseille","lat":43.29197,"lon":5.35818,"is_reserved":false,"is_disabled":false,"rental_uris":{"android":"levelo://app?vid=3c6afdf7-67ea-4d82-aceb-813b791a20f5","ios":"levelo://app?vid=3c6afdf7-67ea-4d82-aceb-813b791a20f5"},"vehicle_type_id":"4","last_reported":1727370536,"current_range_meters":36000,"station_id":"ce4bhb12rcd13ifvqel0","pricing_plan_id":"cebpf4jnsgd1na2vs0mg"},{"bike_id":"d6a0c9ad-88f0-428a-bbe8-2603aa5b5e9f","system_id":"levelo_inurba_marseille","lat":43.31073,"lon":5.38361,"is_reserved":false,"is_disabled":false,"rental_uris":{"android":"levelo://app?vid=d6a0c9ad-88f0-428a-bbe8-2603aa5b5e9f","ios":"levelo://app?vid=d6a0c9ad-88f0-428a-bbe8-2603aa5b5e9f"},"vehicle_type_id":"4","last_reported":1727370536,"current_range_meters":38800,"station_id":"ce4bgv92rcd13ifvqcr0","pricing_plan_id":"cebpf4jnsgd1na2vs0mg"},{"bike_id":"d5bbef54-0e76-4d64-bc8a-a1819238d1a7","system_id":"levelo_inurba_marseille","lat":43.23954,"lon":5.3663,"is_reserved":false,"is_disabled":false,"rental_uris":{"android":"levelo://app?vid=d5bbef54-0e76-4d64-bc8a-a1819238d1a7","ios":"levelo://app?vid=d5bbef54-0e76-4d64-bc8a-a1819238d1a7"},"vehicle_type_id":"4","last_reported":1727370536,"current_range_meters":38800,"station_id":"ce4bhi12rcd13ifvqfp0","pricing_plan_id":"cebpf4jnsgd1na2vs0mg"},{"bike_id":"4dd5dd37-9b9b-40e6-a52f-42fe7b0559cd","system_id":"levelo_inurba_marseille","lat":43.28414,"lon":5.37519,"is_reserved":false,"is_disabled":false,"rental_uris":{"android":"levelo://app?vid=4dd5dd37-9b9b-40e6-a52f-42fe7b0559cd","ios":"levelo://app?vid=4dd5dd37-9b9b-40e6-a52f-42fe7b0559cd"},"vehicle_type_id":"4","last_reported":1727370536,"current_range_meters":38800,"station_id":"ce4bh412rcd13ifvqds0","pricing_plan_id":"cebpf4jnsgd1na2vs0mg"},{"bike_id":"79a05bb1-ccec-47f0-8ebd-1f95854549f8","system_id":"levelo_inurba_marseille","lat":43.31282,"lon":5.380327,"is_reserved":false,"is_disabled":false,"rental_uris":{"android":"levelo://app?vid=79a05bb1-ccec-47f0-8ebd-1f95854549f8","ios":"levelo://app?vid=79a05bb1-ccec-47f0-8ebd-1f95854549f8"},"vehicle_type_id":"4","last_reported":1727370536,"current_range_meters":6400,"station_id":"","pricing_plan_id":"cebpf4jnsgd1na2vs0mg"},{"bike_id":"861ba51c-6a6b-46a6-947c-51f003818291","system_id":"levelo_inurba_marseille","lat":43.32364,"lon":5.38884,"is_reserved":false,"is_disabled":false,"rental_uris":{"android":"levelo://app?vid=861ba51c-6a6b-46a6-947c-51f003818291","ios":"levelo://app?vid=861ba51c-6a6b-46a6-947c-51f003818291"},"vehicle_type_id":"4","last_reported":1727370536,"current_range_meters":10800,"station_id":"ce4bhqp2rcd13ifvqhog","pricing_plan_id":"cebpf4jnsgd1na2vs0mg"},{"bike_id":"f01b3db8-763e-431a-bf1d-8e5514eeaef4","system_id":"levelo_inurba_marseille","lat":43.28362,"lon":5.38634,"is_reserved":false,"is_disabled":false,"rental_uris":{"android":"levelo://app?vid=f01b3db8-763e-431a-bf1d-8e5514eeaef4","ios":"levelo://app?vid=f01b3db8-763e-431a-bf1d-8e5514eeaef4"},"vehicle_type_id":"4","last_reported":1727370536,"current_range_meters":9200,"station_id":"ce4bh492rcd13ifvqdvg","pricing_plan_id":"cebpf4jnsgd1na2vs0mg"},{"bike_id":"1023a27a-031d-4b14-b356-5eeceba15122","system_id":"levelo_inurba_marseille","lat":43.28079,"lon":5.39665,"is_reserved":false,"is_disabled":false,"rental_uris":{"android":"levelo://app?vid=1023a27a-031d-4b14-b356-5eeceba15122","ios":"levelo://app?vid=1023a27a-031d-4b14-b356-5eeceba15122"},"vehicle_type_id":"4","last_reported":1727370536,"current_range_meters":5600,"station_id":"ce4bho12rcd13ifvqh2g","pricing_plan_id":"cebpf4jnsgd1na2vs0mg"},{"bike_id":"fcf70341-bf10-4301-b0d9-989fdf0a1a4d","system_id":"levelo_inurba_marseille","lat":43.25589,"lon":5.38238,"is_reserved":false,"is_disabled":false,"rental_uris":{"android":"levelo://app?vid=fcf70341-bf10-4301-b0d9-989fdf0a1a4d","ios":"levelo://app?vid=fcf70341-bf10-4301-b0d9-989fdf0a1a4d"},"vehicle_type_id":"4","last_reported":1727370536,"current_range_meters":8000,"station_id":"ce4bhih2rcd13ifvqfs0","pricing_plan_id":"cebpf4jnsgd1na2vs0mg"},{"bike_id":"f175651c-4ca7-4379-8838-bf50e2ed096c","system_id":"levelo_inurba_marseille","lat":43.29276,"lon":5.40113,"is_reserved":false,"is_disabled":false,"rental_uris":{"android":"levelo://app?vid=f175651c-4ca7-4379-8838-bf50e2ed096c","ios":"levelo://app?vid=f175651c-4ca7-4379-8838-bf50e2ed096c"},"vehicle_type_id":"4","last_reported":1727370536,"current_range_meters":8800,"station_id":"ce4bh312rcd13ifvqdk0","pricing_plan_id":"cebpf4jnsgd1na2vs0mg"},{"bike_id":"89e7dedb-87b3-4227-a9f3-f889cd8070d6","system_id":"levelo_inurba_marseille","lat":43.29648,"lon":5.38024,"is_reserved":false,"is_disabled":false,"rental_uris":{"android":"levelo://app?vid=89e7dedb-87b3-4227-a9f3-f889cd8070d6","ios":"levelo://app?vid=89e7dedb-87b3-4227-a9f3-f889cd8070d6"},"vehicle_type_id":"4","last_reported":1727370536,"current_range_meters":37600,"station_id":"","pricing_plan_id":"cebpf4jnsgd1na2vs0mg"},{"bike_id":"825dd3c1-923c-41c8-bf28-5f5e8f4efb8a","system_id":"levelo_inurba_marseille","lat":43.284567,"lon":5.358923,"is_reserved":false,"is_disabled":false,"rental_uris":{"android":"levelo://app?vid=825dd3c1-923c-41c8-bf28-5f5e8f4efb8a","ios":"levelo://app?vid=825dd3c1-923c-41c8-bf28-5f5e8f4efb8a"},"vehicle_type_id":"4","last_reported":1727370536,"current_range_meters":30800,"station_id":"ce4bhah2rcd13ifvqei0","pricing_plan_id":"cebpf4jnsgd1na2vs0mg"},{"bike_id":"d2a9af82-5192-44f6-9fef-d0455eb6c42f","system_id":"levelo_inurba_marseille","lat":43.30353,"lon":5.41875,"is_reserved":false,"is_disabled":false,"rental_uris":{"android":"levelo://app?vid=d2a9af82-5192-44f6-9fef-d0455eb6c42f","ios":"levelo://app?vid=d2a9af82-5192-44f6-9fef-d0455eb6c42f"},"vehicle_type_id":"4","last_reported":1727370536,"current_range_meters":31200,"station_id":"ce4bhop2rcd13ifvqh7g","pricing_plan_id":"cebpf4jnsgd1na2vs0mg"},{"bike_id":"8ea19e1d-542e-4c36-8ef4-1214facb9816","system_id":"levelo_inurba_marseille","lat":43.23951,"lon":5.36618,"is_reserved":false,"is_disabled":false,"rental_uris":{"android":"levelo://app?vid=8ea19e1d-542e-4c36-8ef4-1214facb9816","ios":"levelo://app?vid=8ea19e1d-542e-4c36-8ef4-1214facb9816"},"vehicle_type_id":"4","last_reported":1727370536,"current_range_meters":38800,"station_id":"ce4bhi12rcd13ifvqfp0","pricing_plan_id":"cebpf4jnsgd1na2vs0mg"},{"bike_id":"f3bf7448-e739-4978-bd33-4a56cc415f41","system_id":"levelo_inurba_marseille","lat":43.37251,"lon":5.36806,"is_reserved":false,"is_disabled":false,"rental_uris":{"android":"levelo://app?vid=f3bf7448-e739-4978-bd33-4a56cc415f41","ios":"levelo://app?vid=f3bf7448-e739-4978-bd33-4a56cc415f41"},"vehicle_type_id":"4","last_reported":1727370536,"current_range_meters":24400,"station_id":"","pricing_plan_id":"cebpf4jnsgd1na2vs0mg"},{"bike_id":"afcce393-4271-4ec6-b7bd-9d5dce20ac5a","system_id":"levelo_inurba_marseille","lat":43.29005,"lon":5.35616,"is_reserved":false,"is_disabled":false,"rental_uris":{"android":"levelo://app?vid=afcce393-4271-4ec6-b7bd-9d5dce20ac5a","ios":"levelo://app?vid=afcce393-4271-4ec6-b7bd-9d5dce20ac5a"},"vehicle_type_id":"4","last_reported":1727370536,"current_range_meters":23200,"station_id":"ce4bhb92rcd13ifvqen0","pricing_plan_id":"cebpf4jnsgd1na2vs0mg"},{"bike_id":"a0b4e1dc-b2d5-4e1d-a6e2-2b1fa04ed91c","system_id":"levelo_inurba_marseille","lat":43.2804,"lon":5.3694,"is_reserved":false,"is_disabled":false,"rental_uris":{"android":"levelo://app?vid=a0b4e1dc-b2d5-4e1d-a6e2-2b1fa04ed91c","ios":"levelo://app?vid=a0b4e1dc-b2d5-4e1d-a6e2-2b1fa04ed91c"},"vehicle_type_id":"4","last_reported":1727370536,"current_range_meters":36400,"station_id":"ce4bha12rcd13ifvqef0","pricing_plan_id":"cebpf4jnsgd1na2vs0mg"},{"bike_id":"4f79b95e-2fdc-43b2-97cd-fdd34c6e0b3c","system_id":"levelo_inurba_marseille","lat":43.26202,"lon":5.37932,"is_reserved":false,"is_disabled":false,"rental_uris":{"android":"levelo://app?vid=4f79b95e-2fdc-43b2-97cd-fdd34c6e0b3c","ios":"levelo://app?vid=4f79b95e-2fdc-43b2-97cd-fdd34c6e0b3c"},"vehicle_type_id":"4","last_reported":1727370536,"current_range_meters":8000,"station_id":"ce4bhjp2rcd13ifvqg90","pricing_plan_id":"cebpf4jnsgd1na2vs0mg"},{"bike_id":"4bce8fcb-7f1d-47d7-af21-a98b54a6588f","system_id":"levelo_inurba_marseille","lat":43.27187,"lon":5.40998,"is_reserved":false,"is_disabled":false,"rental_uris":{"android":"levelo://app?vid=4bce8fcb-7f1d-47d7-af21-a98b54a6588f","ios":"levelo://app?vid=4bce8fcb-7f1d-47d7-af21-a98b54a6588f"},"vehicle_type_id":"4","last_reported":1727370536,"current_range_meters":33600,"station_id":"ce4bhl12rcd13ifvqgf0","pricing_plan_id":"cebpf4jnsgd1na2vs0mg"},{"bike_id":"f50dc758-b39f-4bc8-8a68-d88095128774","system_id":"levelo_inurba_marseille","lat":43.28856,"lon":5.39329,"is_reserved":false,"is_disabled":false,"rental_uris":{"android":"levelo://app?vid=f50dc758-b39f-4bc8-8a68-d88095128774","ios":"levelo://app?vid=f50dc758-b39f-4bc8-8a68-d88095128774"},"vehicle_type_id":"4","last_reported":1727370536,"current_range_meters":38800,"station_id":"ce4bh2p2rcd13ifvqdi0","pricing_plan_id":"cebpf4jnsgd1na2vs0mg"},{"bike_id":"3b5cf40e-7617-4243-adcd-96ef0093aa9f","system_id":"levelo_inurba_marseille","lat":43.28404,"lon":5.37519,"is_reserved":false,"is_disabled":false,"rental_uris":{"android":"levelo://app?vid=3b5cf40e-7617-4243-adcd-96ef0093aa9f","ios":"levelo://app?vid=3b5cf40e-7617-4243-adcd-96ef0093aa9f"},"vehicle_type_id":"4","last_reported":1727370536,"current_range_meters":36400,"station_id":"ce4bh412rcd13ifvqds0","pricing_plan_id":"cebpf4jnsgd1na2vs0mg"},{"bike_id":"f64a0182-c7cb-4e89-8d12-d644dd7cd265","system_id":"levelo_inurba_marseille","lat":43.28455,"lon":5.35887,"is_reserved":false,"is_disabled":false,"rental_uris":{"android":"levelo://app?vid=f64a0182-c7cb-4e89-8d12-d644dd7cd265","ios":"levelo://app?vid=f64a0182-c7cb-4e89-8d12-d644dd7cd265"},"vehicle_type_id":"4","last_reported":1727370536,"current_range_meters":14000,"station_id":"ce4bhah2rcd13ifvqei0","pricing_plan_id":"cebpf4jnsgd1na2vs0mg"},{"bike_id":"b0a5c5c8-b96f-4d5c-ad0a-9a4c9139d21f","system_id":"levelo_inurba_marseille","lat":43.29787,"lon":5.3712,"is_reserved":false,"is_disabled":false,"rental_uris":{"android":"levelo://app?vid=b0a5c5c8-b96f-4d5c-ad0a-9a4c9139d21f","ios":"levelo://app?vid=b0a5c5c8-b96f-4d5c-ad0a-9a4c9139d21f"},"vehicle_type_id":"4","last_reported":1727370536,"current_range_meters":18000,"station_id":"ce4bgop2rcd13ifvqc1g","pricing_plan_id":"cebpf4jnsgd1na2vs0mg"},{"bike_id":"1a685174-d50d-4fbf-83b2-9b877596e793","system_id":"levelo_inurba_marseille","lat":43.24807,"lon":5.37455,"is_reserved":false,"is_disabled":false,"rental_uris":{"android":"levelo://app?vid=1a685174-d50d-4fbf-83b2-9b877596e793","ios":"levelo://app?vid=1a685174-d50d-4fbf-83b2-9b877596e793"},"vehicle_type_id":"4","last_reported":1727370536,"current_range_meters":8000,"station_id":"ce4bhgh2rcd13ifvqfb0","pricing_plan_id":"cebpf4jnsgd1na2vs0mg"},{"bike_id":"7eb231f1-ad29-47ce-819a-a37b17cba0e2","system_id":"levelo_inurba_marseille","lat":43.28614,"lon":5.35103,"is_reserved":false,"is_disabled":false,"rental_uris":{"android":"levelo://app?vid=7eb231f1-ad29-47ce-819a-a37b17cba0e2","ios":"levelo://app?vid=7eb231f1-ad29-47ce-819a-a37b17cba0e2"},"vehicle_type_id":"4","last_reported":1727370536,"current_range_meters":16000,"station_id":"ce4bhch2rcd13ifvqeug","pricing_plan_id":"cebpf4jnsgd1na2vs0mg"},{"bike_id":"d3adb14a-c98c-416b-9bb9-b0bb2efa1b16","system_id":"levelo_inurba_marseille","lat":43.24525,"lon":5.39538,"is_reserved":false,"is_disabled":false,"rental_uris":{"android":"levelo://app?vid=d3adb14a-c98c-416b-9bb9-b0bb2efa1b16","ios":"levelo://app?vid=d3adb14a-c98c-416b-9bb9-b0bb2efa1b16"},"vehicle_type_id":"4","last_reported":1727370536,"current_range_meters":20000,"station_id":"ce4bhlp2rcd13ifvqgjg","pricing_plan_id":"cebpf4jnsgd1na2vs0mg"},{"bike_id":"53f3d610-978c-41af-92f0-e5ab6dc70fcf","system_id":"levelo_inurba_marseille","lat":43.25718,"lon":5.41117,"is_reserved":false,"is_disabled":false,"rental_uris":{"android":"levelo://app?vid=53f3d610-978c-41af-92f0-e5ab6dc70fcf","ios":"levelo://app?vid=53f3d610-978c-41af-92f0-e5ab6dc70fcf"},"vehicle_type_id":"4","last_reported":1727370536,"current_range_meters":22000,"station_id":"ce4bhkp2rcd13ifvqgd0","pricing_plan_id":"cebpf4jnsgd1na2vs0mg"},{"bike_id":"12bb2fa0-def4-44f9-9009-061dd94ed221","system_id":"levelo_inurba_marseille","lat":43.24169,"lon":5.3639,"is_reserved":false,"is_disabled":false,"rental_uris":{"android":"levelo://app?vid=12bb2fa0-def4-44f9-9009-061dd94ed221","ios":"levelo://app?vid=12bb2fa0-def4-44f9-9009-061dd94ed221"},"vehicle_type_id":"4","last_reported":1727370536,"current_range_meters":7200,"station_id":"cpo36qri1sfpv3e86is0","pricing_plan_id":"cebpf4jnsgd1na2vs0mg"},{"bike_id":"2649922f-b34e-4f51-a86e-8e53994a99f6","system_id":"levelo_inurba_marseille","lat":43.28696,"lon":5.39982,"is_reserved":false,"is_disabled":false,"rental_uris":{"android":"levelo://app?vid=2649922f-b34e-4f51-a86e-8e53994a99f6","ios":"levelo://app?vid=2649922f-b34e-4f51-a86e-8e53994a99f6"},"vehicle_type_id":"4","last_reported":1727370536,"current_range_meters":15200,"station_id":"ce4bho92rcd13ifvqh3g","pricing_plan_id":"cebpf4jnsgd1na2vs0mg"},{"bike_id":"22e62d8e-900c-4ac2-912b-a83a559b662d","system_id":"levelo_inurba_marseille","lat":43.26059,"lon":5.39921,"is_reserved":false,"is_disabled":false,"rental_uris":{"android":"levelo://app?vid=22e62d8e-900c-4ac2-912b-a83a559b662d","ios":"levelo://app?vid=22e62d8e-900c-4ac2-912b-a83a559b662d"},"vehicle_type_id":"4","last_reported":1727370536,"current_range_meters":24400,"station_id":"ce4bhih2rcd13ifvqfs0","pricing_plan_id":"cebpf4jnsgd1na2vs0mg"},{"bike_id":"7b5017fe-e97d-4657-b0be-b7b4716f88e7","system_id":"levelo_inurba_marseille","lat":43.28685,"lon":5.38643,"is_reserved":false,"is_disabled":false,"rental_uris":{"android":"levelo://app?vid=7b5017fe-e97d-4657-b0be-b7b4716f88e7","ios":"levelo://app?vid=7b5017fe-e97d-4657-b0be-b7b4716f88e7"},"vehicle_type_id":"4","last_reported":1727370536,"current_range_meters":3200,"station_id":"ce4bh492rcd13ifvqdug","pricing_plan_id":"cebpf4jnsgd1na2vs0mg"},{"bike_id":"69e23370-714a-41db-92a3-162c1d0ec689","system_id":"levelo_inurba_marseille","lat":43.260101,"lon":5.375623,"is_reserved":false,"is_disabled":false,"rental_uris":{"android":"levelo://app?vid=69e23370-714a-41db-92a3-162c1d0ec689","ios":"levelo://app?vid=69e23370-714a-41db-92a3-162c1d0ec689"},"vehicle_type_id":"4","last_reported":1727370536,"current_range_meters":4400,"station_id":"ce4bhgh2rcd13ifvqfa0","pricing_plan_id":"cebpf4jnsgd1na2vs0mg"},{"bike_id":"c3361ebe-a725-47df-a28d-77e015746b5f","system_id":"levelo_inurba_marseille","lat":43.29012,"lon":5.35621,"is_reserved":false,"is_disabled":false,"rental_uris":{"android":"levelo://app?vid=c3361ebe-a725-47df-a28d-77e015746b5f","ios":"levelo://app?vid=c3361ebe-a725-47df-a28d-77e015746b5f"},"vehicle_type_id":"4","last_reported":1727370536,"current_range_meters":30000,"station_id":"ce4bhb92rcd13ifvqen0","pricing_plan_id":"cebpf4jnsgd1na2vs0mg"},{"bike_id":"6ffa163c-a476-46d2-ad24-0c23cc9e38cf","system_id":"levelo_inurba_marseille","lat":43.27184,"lon":5.40996,"is_reserved":false,"is_disabled":false,"rental_uris":{"android":"levelo://app?vid=6ffa163c-a476-46d2-ad24-0c23cc9e38cf","ios":"levelo://app?vid=6ffa163c-a476-46d2-ad24-0c23cc9e38cf"},"vehicle_type_id":"4","last_reported":1727370536,"current_range_meters":9200,"station_id":"ce4bhl12rcd13ifvqgf0","pricing_plan_id":"cebpf4jnsgd1na2vs0mg"},{"bike_id":"0610627c-3c26-4cf9-b337-9c2b3876a1cb","system_id":"levelo_inurba_marseille","lat":43.23967,"lon":5.36631,"is_reserved":false,"is_disabled":false,"rental_uris":{"android":"levelo://app?vid=0610627c-3c26-4cf9-b337-9c2b3876a1cb","ios":"levelo://app?vid=0610627c-3c26-4cf9-b337-9c2b3876a1cb"},"vehicle_type_id":"4","last_reported":1727370536,"current_range_meters":38800,"station_id":"ce4bhi12rcd13ifvqfp0","pricing_plan_id":"cebpf4jnsgd1na2vs0mg"},{"bike_id":"637beff3-55bd-4f15-99c0-4cb53d5dddb9","system_id":"levelo_inurba_marseille","lat":43.306563,"lon":5.395327,"is_reserved":false,"is_disabled":false,"rental_uris":{"android":"levelo://app?vid=637beff3-55bd-4f15-99c0-4cb53d5dddb9","ios":"levelo://app?vid=637beff3-55bd-4f15-99c0-4cb53d5dddb9"},"vehicle_type_id":"4","last_reported":1727370536,"current_range_meters":36400,"station_id":"","pricing_plan_id":"cebpf4jnsgd1na2vs0mg"},{"bike_id":"36448e77-b514-4ef4-80c4-8e1d0e4a4636","system_id":"levelo_inurba_marseille","lat":43.29255,"lon":5.40903,"is_reserved":false,"is_disabled":false,"rental_uris":{"android":"levelo://app?vid=36448e77-b514-4ef4-80c4-8e1d0e4a4636","ios":"levelo://app?vid=36448e77-b514-4ef4-80c4-8e1d0e4a4636"},"vehicle_type_id":"4","last_reported":1727370536,"current_range_meters":2800,"station_id":"ce4bh192rcd13ifvqdc0","pricing_plan_id":"cebpf4jnsgd1na2vs0mg"},{"bike_id":"d24e2d95-8de2-41ea-bf9b-d573878cb28f","system_id":"levelo_inurba_marseille","lat":43.30887,"lon":5.39659,"is_reserved":false,"is_disabled":false,"rental_uris":{"android":"levelo://app?vid=d24e2d95-8de2-41ea-bf9b-d573878cb28f","ios":"levelo://app?vid=d24e2d95-8de2-41ea-bf9b-d573878cb28f"},"vehicle_type_id":"4","last_reported":1727370536,"current_range_meters":24000,"station_id":"ce4bh012rcd13ifvqcv0","pricing_plan_id":"cebpf4jnsgd1na2vs0mg"},{"bike_id":"a622c907-46c5-434d-8fd0-7edd60f6603a","system_id":"levelo_inurba_marseille","lat":43.24393,"lon":5.37052,"is_reserved":false,"is_disabled":false,"rental_uris":{"android":"levelo://app?vid=a622c907-46c5-434d-8fd0-7edd60f6603a","ios":"levelo://app?vid=a622c907-46c5-434d-8fd0-7edd60f6603a"},"vehicle_type_id":"4","last_reported":1727370536,"current_range_meters":10800,"station_id":"ce4bhhh2rcd13ifvqfk0","pricing_plan_id":"cebpf4jnsgd1na2vs0mg"},{"bike_id":"594692ca-a4e4-4b59-a792-e9034c8f2cc4","system_id":"levelo_inurba_marseille","lat":43.310674,"lon":5.400434,"is_reserved":false,"is_disabled":false,"rental_uris":{"android":"levelo://app?vid=594692ca-a4e4-4b59-a792-e9034c8f2cc4","ios":"levelo://app?vid=594692ca-a4e4-4b59-a792-e9034c8f2cc4"},"vehicle_type_id":"4","last_reported":1727370536,"current_range_meters":4800,"station_id":"","pricing_plan_id":"cebpf4jnsgd1na2vs0mg"},{"bike_id":"dc0cad18-4618-4b66-9884-0a4ea1bd8144","system_id":"levelo_inurba_marseille","lat":43.31267,"lon":5.40167,"is_reserved":false,"is_disabled":false,"rental_uris":{"android":"levelo://app?vid=dc0cad18-4618-4b66-9884-0a4ea1bd8144","ios":"levelo://app?vid=dc0cad18-4618-4b66-9884-0a4ea1bd8144"},"vehicle_type_id":"4","last_reported":1727370536,"current_range_meters":22800,"station_id":"ce4bh092rcd13ifvqd30","pricing_plan_id":"cebpf4jnsgd1na2vs0mg"},{"bike_id":"b38c7c26-f9c7-4c7c-accb-6c4346178c27","system_id":"levelo_inurba_marseille","lat":43.26553,"lon":5.37292,"is_reserved":false,"is_disabled":false,"rental_uris":{"android":"levelo://app?vid=b38c7c26-f9c7-4c7c-accb-6c4346178c27","ios":"levelo://app?vid=b38c7c26-f9c7-4c7c-accb-6c4346178c27"},"vehicle_type_id":"4","last_reported":1727370536,"current_range_meters":38800,"station_id":"ce4bhg12rcd13ifvqf70","pricing_plan_id":"cebpf4jnsgd1na2vs0mg"},{"bike_id":"9ae09cc5-27b5-42d4-b370-6a617a491af6","system_id":"levelo_inurba_marseille","lat":43.26552,"lon":5.37284,"is_reserved":false,"is_disabled":false,"rental_uris":{"android":"levelo://app?vid=9ae09cc5-27b5-42d4-b370-6a617a491af6","ios":"levelo://app?vid=9ae09cc5-27b5-42d4-b370-6a617a491af6"},"vehicle_type_id":"4","last_reported":1727370536,"current_range_meters":38800,"station_id":"ce4bhg12rcd13ifvqf70","pricing_plan_id":"cebpf4jnsgd1na2vs0mg"},{"bike_id":"7cf787e5-a465-4226-ad49-dfc604dc315c","system_id":"levelo_inurba_marseille","lat":43.26783,"lon":5.39418,"is_reserved":false,"is_disabled":false,"rental_uris":{"android":"levelo://app?vid=7cf787e5-a465-4226-ad49-dfc604dc315c","ios":"levelo://app?vid=7cf787e5-a465-4226-ad49-dfc604dc315c"},"vehicle_type_id":"4","last_reported":1727370536,"current_range_meters":24000,"station_id":"ce4bhh12rcd13ifvqfg0","pricing_plan_id":"cebpf4jnsgd1na2vs0mg"},{"bike_id":"09ee1ef5-74f1-4274-8f26-e39e6ab7cf60","system_id":"levelo_inurba_marseille","lat":43.26193,"lon":5.37448,"is_reserved":false,"is_disabled":false,"rental_uris":{"android":"levelo://app?vid=09ee1ef5-74f1-4274-8f26-e39e6ab7cf60","ios":"levelo://app?vid=09ee1ef5-74f1-4274-8f26-e39e6ab7cf60"},"vehicle_type_id":"4","last_reported":1727370536,"current_range_meters":12400,"station_id":"ce4bhgp2rcd13ifvqfc0","pricing_plan_id":"cebpf4jnsgd1na2vs0mg"},{"bike_id":"10c51aa8-18c7-468e-98b2-4eb910a873bf","system_id":"levelo_inurba_marseille","lat":43.30913,"lon":5.36854,"is_reserved":false,"is_disabled":false,"rental_uris":{"android":"levelo://app?vid=10c51aa8-18c7-468e-98b2-4eb910a873bf","ios":"levelo://app?vid=10c51aa8-18c7-468e-98b2-4eb910a873bf"},"vehicle_type_id":"4","last_reported":1727370536,"current_range_meters":37600,"station_id":"ce4bgn92rcd13ifvqbvg","pricing_plan_id":"cebpf4jnsgd1na2vs0mg"},{"bike_id":"698cf46e-95c3-4070-928d-636d1eb991f0","system_id":"levelo_inurba_marseille","lat":43.29002,"lon":5.35619,"is_reserved":false,"is_disabled":false,"rental_uris":{"android":"levelo://app?vid=698cf46e-95c3-4070-928d-636d1eb991f0","ios":"levelo://app?vid=698cf46e-95c3-4070-928d-636d1eb991f0"},"vehicle_type_id":"4","last_reported":1727370536,"current_range_meters":33600,"station_id":"ce4bhb92rcd13ifvqen0","pricing_plan_id":"cebpf4jnsgd1na2vs0mg"},{"bike_id":"ed3c1bc6-8b01-4bc2-af65-a4b871c0d1c2","system_id":"levelo_inurba_marseille","lat":43.2558,"lon":5.38242,"is_reserved":false,"is_disabled":false,"rental_uris":{"android":"levelo://app?vid=ed3c1bc6-8b01-4bc2-af65-a4b871c0d1c2","ios":"levelo://app?vid=ed3c1bc6-8b01-4bc2-af65-a4b871c0d1c2"},"vehicle_type_id":"4","last_reported":1727370536,"current_range_meters":26000,"station_id":"ce4bhih2rcd13ifvqfs0","pricing_plan_id":"cebpf4jnsgd1na2vs0mg"},{"bike_id":"32dd9e02-9fc9-4a42-8779-2e4d1d15d111","system_id":"levelo_inurba_marseille","lat":43.27121,"lon":5.38896,"is_reserved":false,"is_disabled":false,"rental_uris":{"android":"levelo://app?vid=32dd9e02-9fc9-4a42-8779-2e4d1d15d111","ios":"levelo://app?vid=32dd9e02-9fc9-4a42-8779-2e4d1d15d111"},"vehicle_type_id":"4","last_reported":1727370536,"current_range_meters":9600,"station_id":"ce4bhg92rcd13ifvqf90","pricing_plan_id":"cebpf4jnsgd1na2vs0mg"},{"bike_id":"5962f709-a1d3-4d15-9681-a6e7ad916efa","system_id":"levelo_inurba_marseille","lat":43.26171,"lon":5.38741,"is_reserved":false,"is_disabled":false,"rental_uris":{"android":"levelo://app?vid=5962f709-a1d3-4d15-9681-a6e7ad916efa","ios":"levelo://app?vid=5962f709-a1d3-4d15-9681-a6e7ad916efa"},"vehicle_type_id":"4","last_reported":1727370536,"current_range_meters":20000,"station_id":"","pricing_plan_id":"cebpf4jnsgd1na2vs0mg"},{"bike_id":"806444d0-cc21-4904-8657-1968ade971da","system_id":"levelo_inurba_marseille","lat":43.28422,"lon":5.37513,"is_reserved":false,"is_disabled":false,"rental_uris":{"android":"levelo://app?vid=806444d0-cc21-4904-8657-1968ade971da","ios":"levelo://app?vid=806444d0-cc21-4904-8657-1968ade971da"},"vehicle_type_id":"4","last_reported":1727370536,"current_range_meters":38800,"station_id":"ce4bh412rcd13ifvqds0","pricing_plan_id":"cebpf4jnsgd1na2vs0mg"},{"bike_id":"ef45fa40-f862-4d43-9bb5-cff1c174d8d1","system_id":"levelo_inurba_marseille","lat":43.2842,"lon":5.34977,"is_reserved":false,"is_disabled":false,"rental_uris":{"android":"levelo://app?vid=ef45fa40-f862-4d43-9bb5-cff1c174d8d1","ios":"levelo://app?vid=ef45fa40-f862-4d43-9bb5-cff1c174d8d1"},"vehicle_type_id":"4","last_reported":1727370536,"current_range_meters":22800,"station_id":"ce4bhbh2rcd13ifvqepg","pricing_plan_id":"cebpf4jnsgd1na2vs0mg"},{"bike_id":"7a1e7a94-f1dc-49d5-b4a7-a89c2b01f8c0","system_id":"levelo_inurba_marseille","lat":43.311134,"lon":5.377679,"is_reserved":false,"is_disabled":false,"rental_uris":{"android":"levelo://app?vid=7a1e7a94-f1dc-49d5-b4a7-a89c2b01f8c0","ios":"levelo://app?vid=7a1e7a94-f1dc-49d5-b4a7-a89c2b01f8c0"},"vehicle_type_id":"4","last_reported":1727370536,"current_range_meters":38800,"station_id":"ce4bgt92rcd13ifvqcg0","pricing_plan_id":"cebpf4jnsgd1na2vs0mg"},{"bike_id":"32dc551c-7e09-49a8-b5eb-165fa9d7141b","system_id":"levelo_inurba_marseille","lat":43.28158,"lon":5.42651,"is_reserved":false,"is_disabled":false,"rental_uris":{"android":"levelo://app?vid=32dc551c-7e09-49a8-b5eb-165fa9d7141b","ios":"levelo://app?vid=32dc551c-7e09-49a8-b5eb-165fa9d7141b"},"vehicle_type_id":"4","last_reported":1727370536,"current_range_meters":8000,"station_id":"ce4bhnh2rcd13ifvqgug","pricing_plan_id":"cebpf4jnsgd1na2vs0mg"},{"bike_id":"da1eb4c8-eb55-4de4-b827-3bf3d60b89d8","system_id":"levelo_inurba_marseille","lat":43.28154,"lon":5.42647,"is_reserved":false,"is_disabled":false,"rental_uris":{"android":"levelo://app?vid=da1eb4c8-eb55-4de4-b827-3bf3d60b89d8","ios":"levelo://app?vid=da1eb4c8-eb55-4de4-b827-3bf3d60b89d8"},"vehicle_type_id":"4","last_reported":1727370536,"current_range_meters":27600,"station_id":"ce4bhnh2rcd13ifvqgug","pricing_plan_id":"cebpf4jnsgd1na2vs0mg"},{"bike_id":"92cade9c-b9be-430b-9474-69f9360d2375","system_id":"levelo_inurba_marseille","lat":43.28464,"lon":5.35888,"is_reserved":false,"is_disabled":false,"rental_uris":{"android":"levelo://app?vid=92cade9c-b9be-430b-9474-69f9360d2375","ios":"levelo://app?vid=92cade9c-b9be-430b-9474-69f9360d2375"},"vehicle_type_id":"4","last_reported":1727370536,"current_range_meters":18000,"station_id":"ce4bhah2rcd13ifvqei0","pricing_plan_id":"cebpf4jnsgd1na2vs0mg"},{"bike_id":"c77c91f6-96f8-482d-b20f-c36ca3fc312b","system_id":"levelo_inurba_marseille","lat":43.32003,"lon":5.38158,"is_reserved":false,"is_disabled":false,"rental_uris":{"android":"levelo://app?vid=c77c91f6-96f8-482d-b20f-c36ca3fc312b","ios":"levelo://app?vid=c77c91f6-96f8-482d-b20f-c36ca3fc312b"},"vehicle_type_id":"4","last_reported":1727370536,"current_range_meters":8800,"station_id":"ce4bhr12rcd13ifvqhpg","pricing_plan_id":"cebpf4jnsgd1na2vs0mg"},{"bike_id":"9238ad14-e0d5-4c32-9a08-f97260c3768d","system_id":"levelo_inurba_marseille","lat":43.32483,"lon":5.36577,"is_reserved":false,"is_disabled":false,"rental_uris":{"android":"levelo://app?vid=9238ad14-e0d5-4c32-9a08-f97260c3768d","ios":"levelo://app?vid=9238ad14-e0d5-4c32-9a08-f97260c3768d"},"vehicle_type_id":"4","last_reported":1727370536,"current_range_meters":27600,"station_id":"ce4bhs12rcd13ifvqhvg","pricing_plan_id":"cebpf4jnsgd1na2vs0mg"},{"bike_id":"c2e5a81e-6912-4cb0-98ad-5f3df477fa43","system_id":"levelo_inurba_marseille","lat":43.28992,"lon":5.37605,"is_reserved":false,"is_disabled":false,"rental_uris":{"android":"levelo://app?vid=c2e5a81e-6912-4cb0-98ad-5f3df477fa43","ios":"levelo://app?vid=c2e5a81e-6912-4cb0-98ad-5f3df477fa43"},"vehicle_type_id":"4","last_reported":1727370536,"current_range_meters":36800,"station_id":"","pricing_plan_id":"cebpf4jnsgd1na2vs0mg"},{"bike_id":"e8c75094-2d4a-445c-8136-091694a13350","system_id":"levelo_inurba_marseille","lat":43.30462,"lon":5.37907,"is_reserved":false,"is_disabled":false,"rental_uris":{"android":"levelo://app?vid=e8c75094-2d4a-445c-8136-091694a13350","ios":"levelo://app?vid=e8c75094-2d4a-445c-8136-091694a13350"},"vehicle_type_id":"4","last_reported":1727370536,"current_range_meters":20800,"station_id":"ce4bgup2rcd13ifvqcn0","pricing_plan_id":"cebpf4jnsgd1na2vs0mg"},{"bike_id":"95730e8f-fe43-49de-b3b5-c6a697db2698","system_id":"levelo_inurba_marseille","lat":43.27173,"lon":5.41005,"is_reserved":false,"is_disabled":false,"rental_uris":{"android":"levelo://app?vid=95730e8f-fe43-49de-b3b5-c6a697db2698","ios":"levelo://app?vid=95730e8f-fe43-49de-b3b5-c6a697db2698"},"vehicle_type_id":"4","last_reported":1727370536,"current_range_meters":20400,"station_id":"ce4bhl12rcd13ifvqgf0","pricing_plan_id":"cebpf4jnsgd1na2vs0mg"},{"bike_id":"32123b24-6c7b-4f3b-94e3-839e82fd0609","system_id":"levelo_inurba_marseille","lat":43.271306,"lon":5.386176,"is_reserved":false,"is_disabled":false,"rental_uris":{"android":"levelo://app?vid=32123b24-6c7b-4f3b-94e3-839e82fd0609","ios":"levelo://app?vid=32123b24-6c7b-4f3b-94e3-839e82fd0609"},"vehicle_type_id":"4","last_reported":1727370536,"current_range_meters":33600,"station_id":"ce4bhip2rcd13ifvqft0","pricing_plan_id":"cebpf4jnsgd1na2vs0mg"},{"bike_id":"beb2b48a-7c60-4faf-a8ab-ab0546d0ef67","system_id":"levelo_inurba_marseille","lat":43.31756,"lon":5.39024,"is_reserved":false,"is_disabled":false,"rental_uris":{"android":"levelo://app?vid=beb2b48a-7c60-4faf-a8ab-ab0546d0ef67","ios":"levelo://app?vid=beb2b48a-7c60-4faf-a8ab-ab0546d0ef67"},"vehicle_type_id":"4","last_reported":1727370536,"current_range_meters":6000,"station_id":"ce4bhqp2rcd13ifvqhng","pricing_plan_id":"cebpf4jnsgd1na2vs0mg"},{"bike_id":"a859ed76-c638-4c0e-9eaf-5a5a0e10a023","system_id":"levelo_inurba_marseille","lat":43.2815,"lon":5.42647,"is_reserved":false,"is_disabled":false,"rental_uris":{"android":"levelo://app?vid=a859ed76-c638-4c0e-9eaf-5a5a0e10a023","ios":"levelo://app?vid=a859ed76-c638-4c0e-9eaf-5a5a0e10a023"},"vehicle_type_id":"4","last_reported":1727370536,"current_range_meters":24400,"station_id":"ce4bhnh2rcd13ifvqgug","pricing_plan_id":"cebpf4jnsgd1na2vs0mg"},{"bike_id":"e9a50dd3-2cd8-4468-bd3e-203b869dae74","system_id":"levelo_inurba_marseille","lat":43.28039,"lon":5.36947,"is_reserved":false,"is_disabled":false,"rental_uris":{"android":"levelo://app?vid=e9a50dd3-2cd8-4468-bd3e-203b869dae74","ios":"levelo://app?vid=e9a50dd3-2cd8-4468-bd3e-203b869dae74"},"vehicle_type_id":"4","last_reported":1727370536,"current_range_meters":2800,"station_id":"ce4bha12rcd13ifvqef0","pricing_plan_id":"cebpf4jnsgd1na2vs0mg"},{"bike_id":"d89a6b44-b264-4a99-8b3c-f07b95bc3cb9","system_id":"levelo_inurba_marseille","lat":43.32297,"lon":5.38285,"is_reserved":false,"is_disabled":false,"rental_uris":{"android":"levelo://app?vid=d89a6b44-b264-4a99-8b3c-f07b95bc3cb9","ios":"levelo://app?vid=d89a6b44-b264-4a99-8b3c-f07b95bc3cb9"},"vehicle_type_id":"4","last_reported":1727370536,"current_range_meters":24400,"station_id":"ce4bhr12rcd13ifvqhqg","pricing_plan_id":"cebpf4jnsgd1na2vs0mg"},{"bike_id":"1f10c4fb-e782-4529-8e87-66f891bcf0b4","system_id":"levelo_inurba_marseille","lat":43.25588,"lon":5.3824,"is_reserved":false,"is_disabled":false,"rental_uris":{"android":"levelo://app?vid=1f10c4fb-e782-4529-8e87-66f891bcf0b4","ios":"levelo://app?vid=1f10c4fb-e782-4529-8e87-66f891bcf0b4"},"vehicle_type_id":"4","last_reported":1727370536,"current_range_meters":18800,"station_id":"ce4bhih2rcd13ifvqfs0","pricing_plan_id":"cebpf4jnsgd1na2vs0mg"},{"bike_id":"1f79ebbe-6c36-4af1-a538-69020c1878ae","system_id":"levelo_inurba_marseille","lat":43.27815,"lon":5.40719,"is_reserved":false,"is_disabled":false,"rental_uris":{"android":"levelo://app?vid=1f79ebbe-6c36-4af1-a538-69020c1878ae","ios":"levelo://app?vid=1f79ebbe-6c36-4af1-a538-69020c1878ae"},"vehicle_type_id":"4","last_reported":1727370536,"current_range_meters":10000,"station_id":"ce4bhnh2rcd13ifvqgtg","pricing_plan_id":"cebpf4jnsgd1na2vs0mg"},{"bike_id":"7d7affed-bee3-4ec4-bc1f-8c622b0b822f","system_id":"levelo_inurba_marseille","lat":43.24437,"lon":5.37998,"is_reserved":false,"is_disabled":false,"rental_uris":{"android":"levelo://app?vid=7d7affed-bee3-4ec4-bc1f-8c622b0b822f","ios":"levelo://app?vid=7d7affed-bee3-4ec4-bc1f-8c622b0b822f"},"vehicle_type_id":"4","last_reported":1727370536,"current_range_meters":32000,"station_id":"ce4bhhh2rcd13ifvqfk0","pricing_plan_id":"cebpf4jnsgd1na2vs0mg"},{"bike_id":"a7bca3df-0344-4204-86d7-b742d4769839","system_id":"levelo_inurba_marseille","lat":43.30863,"lon":5.3685,"is_reserved":false,"is_disabled":false,"rental_uris":{"android":"levelo://app?vid=a7bca3df-0344-4204-86d7-b742d4769839","ios":"levelo://app?vid=a7bca3df-0344-4204-86d7-b742d4769839"},"vehicle_type_id":"4","last_reported":1727370536,"current_range_meters":22000,"station_id":"ce4bgn92rcd13ifvqbvg","pricing_plan_id":"cebpf4jnsgd1na2vs0mg"},{"bike_id":"189a8e17-dc06-4f85-bbde-5afa18abad81","system_id":"levelo_inurba_marseille","lat":43.31758,"lon":5.39027,"is_reserved":false,"is_disabled":false,"rental_uris":{"android":"levelo://app?vid=189a8e17-dc06-4f85-bbde-5afa18abad81","ios":"levelo://app?vid=189a8e17-dc06-4f85-bbde-5afa18abad81"},"vehicle_type_id":"4","last_reported":1727370536,"current_range_meters":8400,"station_id":"ce4bhqp2rcd13ifvqhng","pricing_plan_id":"cebpf4jnsgd1na2vs0mg"},{"bike_id":"3c25da4a-8679-4bb1-9dab-62cae1920da8","system_id":"levelo_inurba_marseille","lat":43.33024,"lon":5.39037,"is_reserved":false,"is_disabled":false,"rental_uris":{"android":"levelo://app?vid=3c25da4a-8679-4bb1-9dab-62cae1920da8","ios":"levelo://app?vid=3c25da4a-8679-4bb1-9dab-62cae1920da8"},"vehicle_type_id":"4","last_reported":1727370536,"current_range_meters":9600,"station_id":"ce4bhr92rcd13ifvqhrg","pricing_plan_id":"cebpf4jnsgd1na2vs0mg"},{"bike_id":"fc725d6f-782f-4ce3-a557-e2575d53d79d","system_id":"levelo_inurba_marseille","lat":43.26068,"lon":5.39395,"is_reserved":false,"is_disabled":false,"rental_uris":{"android":"levelo://app?vid=fc725d6f-782f-4ce3-a557-e2575d53d79d","ios":"levelo://app?vid=fc725d6f-782f-4ce3-a557-e2575d53d79d"},"vehicle_type_id":"4","last_reported":1727370536,"current_range_meters":9200,"station_id":"ce4bhh92rcd13ifvqfj0","pricing_plan_id":"cebpf4jnsgd1na2vs0mg"},{"bike_id":"f003e14f-157c-4ee3-9725-b8f82b2ffafd","system_id":"levelo_inurba_marseille","lat":43.31264,"lon":5.40167,"is_reserved":false,"is_disabled":false,"rental_uris":{"android":"levelo://app?vid=f003e14f-157c-4ee3-9725-b8f82b2ffafd","ios":"levelo://app?vid=f003e14f-157c-4ee3-9725-b8f82b2ffafd"},"vehicle_type_id":"4","last_reported":1727370536,"current_range_meters":3200,"station_id":"ce4bh092rcd13ifvqd30","pricing_plan_id":"cebpf4jnsgd1na2vs0mg"},{"bike_id":"e55af39d-73c0-4316-bcbc-4a730eacc1df","system_id":"levelo_inurba_marseille","lat":43.26204,"lon":5.37937,"is_reserved":false,"is_disabled":false,"rental_uris":{"android":"levelo://app?vid=e55af39d-73c0-4316-bcbc-4a730eacc1df","ios":"levelo://app?vid=e55af39d-73c0-4316-bcbc-4a730eacc1df"},"vehicle_type_id":"4","last_reported":1727370536,"current_range_meters":11200,"station_id":"ce4bhjp2rcd13ifvqg90","pricing_plan_id":"cebpf4jnsgd1na2vs0mg"},{"bike_id":"2b1d5b93-d1a0-4279-a38d-759b6403405c","system_id":"levelo_inurba_marseille","lat":43.28421,"lon":5.34993,"is_reserved":false,"is_disabled":false,"rental_uris":{"android":"levelo://app?vid=2b1d5b93-d1a0-4279-a38d-759b6403405c","ios":"levelo://app?vid=2b1d5b93-d1a0-4279-a38d-759b6403405c"},"vehicle_type_id":"4","last_reported":1727370536,"current_range_meters":27200,"station_id":"ce4bhbh2rcd13ifvqepg","pricing_plan_id":"cebpf4jnsgd1na2vs0mg"},{"bike_id":"4a4bfd88-bdfc-4802-b3a8-e798e4274727","system_id":"levelo_inurba_marseille","lat":43.32296,"lon":5.38272,"is_reserved":false,"is_disabled":false,"rental_uris":{"android":"levelo://app?vid=4a4bfd88-bdfc-4802-b3a8-e798e4274727","ios":"levelo://app?vid=4a4bfd88-bdfc-4802-b3a8-e798e4274727"},"vehicle_type_id":"4","last_reported":1727370536,"current_range_meters":23200,"station_id":"ce4bhr12rcd13ifvqhqg","pricing_plan_id":"cebpf4jnsgd1na2vs0mg"},{"bike_id":"2ba09575-244f-487f-8743-7cdef664b4d1","system_id":"levelo_inurba_marseille","lat":43.29897,"lon":5.43669,"is_reserved":false,"is_disabled":false,"rental_uris":{"android":"levelo://app?vid=2ba09575-244f-487f-8743-7cdef664b4d1","ios":"levelo://app?vid=2ba09575-244f-487f-8743-7cdef664b4d1"},"vehicle_type_id":"4","last_reported":1727370536,"current_range_meters":17200,"station_id":"ce4bhpp2rcd13ifvqhfg","pricing_plan_id":"cebpf4jnsgd1na2vs0mg"},{"bike_id":"b8d4cfe5-fa00-4798-bb3b-a5cd96b0fee5","system_id":"levelo_inurba_marseille","lat":43.242165,"lon":5.384362,"is_reserved":false,"is_disabled":false,"rental_uris":{"android":"levelo://app?vid=b8d4cfe5-fa00-4798-bb3b-a5cd96b0fee5","ios":"levelo://app?vid=b8d4cfe5-fa00-4798-bb3b-a5cd96b0fee5"},"vehicle_type_id":"4","last_reported":1727370536,"current_range_meters":7200,"station_id":"","pricing_plan_id":"cebpf4jnsgd1na2vs0mg"},{"bike_id":"942b8e67-88f8-42e1-b336-5705b89d0b97","system_id":"levelo_inurba_marseille","lat":43.31172,"lon":5.38718,"is_reserved":false,"is_disabled":false,"rental_uris":{"android":"levelo://app?vid=942b8e67-88f8-42e1-b336-5705b89d0b97","ios":"levelo://app?vid=942b8e67-88f8-42e1-b336-5705b89d0b97"},"vehicle_type_id":"4","last_reported":1727370536,"current_range_meters":36800,"station_id":"ce4bgv12rcd13ifvqcp0","pricing_plan_id":"cebpf4jnsgd1na2vs0mg"},{"bike_id":"5b21067c-37f2-4d23-9f83-457b55ad2ffd","system_id":"levelo_inurba_marseille","lat":43.28343,"lon":5.38112,"is_reserved":false,"is_disabled":false,"rental_uris":{"android":"levelo://app?vid=5b21067c-37f2-4d23-9f83-457b55ad2ffd","ios":"levelo://app?vid=5b21067c-37f2-4d23-9f83-457b55ad2ffd"},"vehicle_type_id":"4","last_reported":1727370536,"current_range_meters":6800,"station_id":"ce4bh412rcd13ifvqdr0","pricing_plan_id":"cebpf4jnsgd1na2vs0mg"},{"bike_id":"bba867b1-2a94-4071-9b97-81045db64c47","system_id":"levelo_inurba_marseille","lat":43.25866,"lon":5.39897,"is_reserved":false,"is_disabled":false,"rental_uris":{"android":"levelo://app?vid=bba867b1-2a94-4071-9b97-81045db64c47","ios":"levelo://app?vid=bba867b1-2a94-4071-9b97-81045db64c47"},"vehicle_type_id":"4","last_reported":1727370536,"current_range_meters":35200,"station_id":"ce4bhl92rcd13ifvqghg","pricing_plan_id":"cebpf4jnsgd1na2vs0mg"},{"bike_id":"bf001fef-f9f9-4f8a-87af-76d9a338fbcf","system_id":"levelo_inurba_marseille","lat":43.29222,"lon":5.36061,"is_reserved":false,"is_disabled":false,"rental_uris":{"android":"levelo://app?vid=bf001fef-f9f9-4f8a-87af-76d9a338fbcf","ios":"levelo://app?vid=bf001fef-f9f9-4f8a-87af-76d9a338fbcf"},"vehicle_type_id":"4","last_reported":1727370536,"current_range_meters":5600,"station_id":"ce4bhbh2rcd13ifvqeqg","pricing_plan_id":"cebpf4jnsgd1na2vs0mg"},{"bike_id":"7be7c110-613e-418c-9775-8a467e455553","system_id":"levelo_inurba_marseille","lat":43.28459,"lon":5.35895,"is_reserved":false,"is_disabled":false,"rental_uris":{"android":"levelo://app?vid=7be7c110-613e-418c-9775-8a467e455553","ios":"levelo://app?vid=7be7c110-613e-418c-9775-8a467e455553"},"vehicle_type_id":"4","last_reported":1727370536,"current_range_meters":30400,"station_id":"ce4bhah2rcd13ifvqei0","pricing_plan_id":"cebpf4jnsgd1na2vs0mg"},{"bike_id":"10088906-eb0f-4605-81fa-ae753ce5956a","system_id":"levelo_inurba_marseille","lat":43.28613,"lon":5.37068,"is_reserved":false,"is_disabled":false,"rental_uris":{"android":"levelo://app?vid=10088906-eb0f-4605-81fa-ae753ce5956a","ios":"levelo://app?vid=10088906-eb0f-4605-81fa-ae753ce5956a"},"vehicle_type_id":"4","last_reported":1727370536,"current_range_meters":6800,"station_id":"ce4bht12rcd13ifvqi60","pricing_plan_id":"cebpf4jnsgd1na2vs0mg"},{"bike_id":"2a21d3bb-5053-48a5-bd2b-d68d39885301","system_id":"levelo_inurba_marseille","lat":43.244293,"lon":5.371518,"is_reserved":false,"is_disabled":false,"rental_uris":{"android":"levelo://app?vid=2a21d3bb-5053-48a5-bd2b-d68d39885301","ios":"levelo://app?vid=2a21d3bb-5053-48a5-bd2b-d68d39885301"},"vehicle_type_id":"4","last_reported":1727370536,"current_range_meters":24400,"station_id":"ce4bhhh2rcd13ifvqfk0","pricing_plan_id":"cebpf4jnsgd1na2vs0mg"},{"bike_id":"fdeb2ebc-dbc2-47d3-aa14-695efa1a6a75","system_id":"levelo_inurba_marseille","lat":43.295797,"lon":5.36741,"is_reserved":false,"is_disabled":false,"rental_uris":{"android":"levelo://app?vid=fdeb2ebc-dbc2-47d3-aa14-695efa1a6a75","ios":"levelo://app?vid=fdeb2ebc-dbc2-47d3-aa14-695efa1a6a75"},"vehicle_type_id":"4","last_reported":1727370536,"current_range_meters":20000,"station_id":"ce4bgph2rcd13ifvqc2g","pricing_plan_id":"cebpf4jnsgd1na2vs0mg"},{"bike_id":"dfeec0d2-49b3-4ba4-a93c-0ee860a284a0","system_id":"levelo_inurba_marseille","lat":43.28461,"lon":5.35887,"is_reserved":false,"is_disabled":false,"rental_uris":{"android":"levelo://app?vid=dfeec0d2-49b3-4ba4-a93c-0ee860a284a0","ios":"levelo://app?vid=dfeec0d2-49b3-4ba4-a93c-0ee860a284a0"},"vehicle_type_id":"4","last_reported":1727370536,"current_range_meters":3600,"station_id":"ce4bhah2rcd13ifvqei0","pricing_plan_id":"cebpf4jnsgd1na2vs0mg"},{"bike_id":"e8a0a681-7d78-4eb7-aeb0-75f752ae928b","system_id":"levelo_inurba_marseille","lat":43.3204,"lon":5.41555,"is_reserved":false,"is_disabled":false,"rental_uris":{"android":"levelo://app?vid=e8a0a681-7d78-4eb7-aeb0-75f752ae928b","ios":"levelo://app?vid=e8a0a681-7d78-4eb7-aeb0-75f752ae928b"},"vehicle_type_id":"4","last_reported":1727370536,"current_range_meters":12000,"station_id":"ce4bhq92rcd13ifvqhkg","pricing_plan_id":"cebpf4jnsgd1na2vs0mg"},{"bike_id":"c13252ce-a25f-4eaf-9b18-881a1d017066","system_id":"levelo_inurba_marseille","lat":43.28155,"lon":5.42646,"is_reserved":false,"is_disabled":false,"rental_uris":{"android":"levelo://app?vid=c13252ce-a25f-4eaf-9b18-881a1d017066","ios":"levelo://app?vid=c13252ce-a25f-4eaf-9b18-881a1d017066"},"vehicle_type_id":"4","last_reported":1727370536,"current_range_meters":27200,"station_id":"ce4bhnh2rcd13ifvqgug","pricing_plan_id":"cebpf4jnsgd1na2vs0mg"},{"bike_id":"b0edbbbb-ef0a-4a65-bb38-113ac03cbfc7","system_id":"levelo_inurba_marseille","lat":43.29787,"lon":5.38129,"is_reserved":false,"is_disabled":false,"rental_uris":{"android":"levelo://app?vid=b0edbbbb-ef0a-4a65-bb38-113ac03cbfc7","ios":"levelo://app?vid=b0edbbbb-ef0a-4a65-bb38-113ac03cbfc7"},"vehicle_type_id":"4","last_reported":1727370536,"current_range_meters":24400,"station_id":"ce4bgip2rcd13ifvqbb0","pricing_plan_id":"cebpf4jnsgd1na2vs0mg"},{"bike_id":"30ff597b-4112-446a-aa7a-1252b9fc2d70","system_id":"levelo_inurba_marseille","lat":43.25092,"lon":5.39525,"is_reserved":false,"is_disabled":false,"rental_uris":{"android":"levelo://app?vid=30ff597b-4112-446a-aa7a-1252b9fc2d70","ios":"levelo://app?vid=30ff597b-4112-446a-aa7a-1252b9fc2d70"},"vehicle_type_id":"4","last_reported":1727370536,"current_range_meters":9600,"station_id":"ce4bhm12rcd13ifvqgkg","pricing_plan_id":"cebpf4jnsgd1na2vs0mg"},{"bike_id":"4bb5b5ed-19be-491e-a373-c9e9bdd60811","system_id":"levelo_inurba_marseille","lat":43.29198,"lon":5.35808,"is_reserved":false,"is_disabled":false,"rental_uris":{"android":"levelo://app?vid=4bb5b5ed-19be-491e-a373-c9e9bdd60811","ios":"levelo://app?vid=4bb5b5ed-19be-491e-a373-c9e9bdd60811"},"vehicle_type_id":"4","last_reported":1727370536,"current_range_meters":10000,"station_id":"ce4bhb12rcd13ifvqel0","pricing_plan_id":"cebpf4jnsgd1na2vs0mg"},{"bike_id":"eee6d266-d969-459e-9def-2c03bdad6f10","system_id":"levelo_inurba_marseille","lat":43.31766,"lon":5.39028,"is_reserved":false,"is_disabled":false,"rental_uris":{"android":"levelo://app?vid=eee6d266-d969-459e-9def-2c03bdad6f10","ios":"levelo://app?vid=eee6d266-d969-459e-9def-2c03bdad6f10"},"vehicle_type_id":"4","last_reported":1727370536,"current_range_meters":10800,"station_id":"ce4bhqp2rcd13ifvqhng","pricing_plan_id":"cebpf4jnsgd1na2vs0mg"},{"bike_id":"26bd3a05-d57c-4b9a-8414-dd13781228a9","system_id":"levelo_inurba_marseille","lat":43.26555,"lon":5.37288,"is_reserved":false,"is_disabled":false,"rental_uris":{"android":"levelo://app?vid=26bd3a05-d57c-4b9a-8414-dd13781228a9","ios":"levelo://app?vid=26bd3a05-d57c-4b9a-8414-dd13781228a9"},"vehicle_type_id":"4","last_reported":1727370536,"current_range_meters":36000,"station_id":"ce4bhg12rcd13ifvqf70","pricing_plan_id":"cebpf4jnsgd1na2vs0mg"},{"bike_id":"68402a0f-a2f6-4003-bce7-ef770c8dc95b","system_id":"levelo_inurba_marseille","lat":43.27984,"lon":5.4167,"is_reserved":false,"is_disabled":false,"rental_uris":{"android":"levelo://app?vid=68402a0f-a2f6-4003-bce7-ef770c8dc95b","ios":"levelo://app?vid=68402a0f-a2f6-4003-bce7-ef770c8dc95b"},"vehicle_type_id":"4","last_reported":1727370536,"current_range_meters":37600,"station_id":"ce4bho12rcd13ifvqh1g","pricing_plan_id":"cebpf4jnsgd1na2vs0mg"},{"bike_id":"5ca0acd8-8f15-46f3-82ff-b2399150ed1d","system_id":"levelo_inurba_marseille","lat":43.26559,"lon":5.37284,"is_reserved":false,"is_disabled":false,"rental_uris":{"android":"levelo://app?vid=5ca0acd8-8f15-46f3-82ff-b2399150ed1d","ios":"levelo://app?vid=5ca0acd8-8f15-46f3-82ff-b2399150ed1d"},"vehicle_type_id":"4","last_reported":1727370536,"current_range_meters":38000,"station_id":"ce4bhg12rcd13ifvqf70","pricing_plan_id":"cebpf4jnsgd1na2vs0mg"},{"bike_id":"fe0f99d1-0f52-4c16-ac5f-21a5e3436247","system_id":"levelo_inurba_marseille","lat":43.27423,"lon":5.39425,"is_reserved":false,"is_disabled":false,"rental_uris":{"android":"levelo://app?vid=fe0f99d1-0f52-4c16-ac5f-21a5e3436247","ios":"levelo://app?vid=fe0f99d1-0f52-4c16-ac5f-21a5e3436247"},"vehicle_type_id":"4","last_reported":1727370536,"current_range_meters":24800,"station_id":"ce4bhdp2rcd13ifvqf20","pricing_plan_id":"cebpf4jnsgd1na2vs0mg"},{"bike_id":"6c1fda78-a27a-41ea-9d99-03a440f5f874","system_id":"levelo_inurba_marseille","lat":43.23065,"lon":5.35489,"is_reserved":false,"is_disabled":false,"rental_uris":{"android":"levelo://app?vid=6c1fda78-a27a-41ea-9d99-03a440f5f874","ios":"levelo://app?vid=6c1fda78-a27a-41ea-9d99-03a440f5f874"},"vehicle_type_id":"4","last_reported":1727370536,"current_range_meters":38800,"station_id":"cpo3342slgdg3j2ifvpg","pricing_plan_id":"cebpf4jnsgd1na2vs0mg"},{"bike_id":"9560daa0-c4e3-4ff9-8735-b7bf5fec25a2","system_id":"levelo_inurba_marseille","lat":43.3377,"lon":5.37479,"is_reserved":false,"is_disabled":false,"rental_uris":{"android":"levelo://app?vid=9560daa0-c4e3-4ff9-8735-b7bf5fec25a2","ios":"levelo://app?vid=9560daa0-c4e3-4ff9-8735-b7bf5fec25a2"},"vehicle_type_id":"4","last_reported":1727370536,"current_range_meters":7200,"station_id":"ce4bhg12rcd13ifvqf80","pricing_plan_id":"cebpf4jnsgd1na2vs0mg"},{"bike_id":"d0092989-34ab-4436-b4db-51a8ed6e19d9","system_id":"levelo_inurba_marseille","lat":43.31334,"lon":5.397,"is_reserved":false,"is_disabled":false,"rental_uris":{"android":"levelo://app?vid=d0092989-34ab-4436-b4db-51a8ed6e19d9","ios":"levelo://app?vid=d0092989-34ab-4436-b4db-51a8ed6e19d9"},"vehicle_type_id":"4","last_reported":1727370536,"current_range_meters":26800,"station_id":"ce4bgvp2rcd13ifvqcu0","pricing_plan_id":"cebpf4jnsgd1na2vs0mg"},{"bike_id":"1733a9b8-199d-4d51-a598-9fe907cb28a5","system_id":"levelo_inurba_marseille","lat":43.284445,"lon":5.39208,"is_reserved":false,"is_disabled":false,"rental_uris":{"android":"levelo://app?vid=1733a9b8-199d-4d51-a598-9fe907cb28a5","ios":"levelo://app?vid=1733a9b8-199d-4d51-a598-9fe907cb28a5"},"vehicle_type_id":"4","last_reported":1727370536,"current_range_meters":3600,"station_id":"ce4bhoh2rcd13ifvqh5g","pricing_plan_id":"cebpf4jnsgd1na2vs0mg"},{"bike_id":"3b7ee381-a1b5-48c9-afff-4acdee351e3b","system_id":"levelo_inurba_marseille","lat":43.26216,"lon":5.37439,"is_reserved":false,"is_disabled":false,"rental_uris":{"android":"levelo://app?vid=3b7ee381-a1b5-48c9-afff-4acdee351e3b","ios":"levelo://app?vid=3b7ee381-a1b5-48c9-afff-4acdee351e3b"},"vehicle_type_id":"4","last_reported":1727370536,"current_range_meters":14800,"station_id":"ce4bhgp2rcd13ifvqfc0","pricing_plan_id":"cebpf4jnsgd1na2vs0mg"},{"bike_id":"eeeb5776-d5d8-47a2-b08d-58dcf016671f","system_id":"levelo_inurba_marseille","lat":43.30883,"lon":5.37193,"is_reserved":false,"is_disabled":false,"rental_uris":{"android":"levelo://app?vid=eeeb5776-d5d8-47a2-b08d-58dcf016671f","ios":"levelo://app?vid=eeeb5776-d5d8-47a2-b08d-58dcf016671f"},"vehicle_type_id":"4","last_reported":1727370536,"current_range_meters":37600,"station_id":"ce4bguh2rcd13ifvqckg","pricing_plan_id":"cebpf4jnsgd1na2vs0mg"},{"bike_id":"2ad8f4e2-c3f7-43a2-9a77-be088a127558","system_id":"levelo_inurba_marseille","lat":43.29578,"lon":5.36746,"is_reserved":false,"is_disabled":false,"rental_uris":{"android":"levelo://app?vid=2ad8f4e2-c3f7-43a2-9a77-be088a127558","ios":"levelo://app?vid=2ad8f4e2-c3f7-43a2-9a77-be088a127558"},"vehicle_type_id":"4","last_reported":1727370536,"current_range_meters":2000,"station_id":"ce4bgph2rcd13ifvqc2g","pricing_plan_id":"cebpf4jnsgd1na2vs0mg"},{"bike_id":"de673da5-a4f0-41b3-be30-86114f5fdb56","system_id":"levelo_inurba_marseille","lat":43.28459,"lon":5.35889,"is_reserved":false,"is_disabled":false,"rental_uris":{"android":"levelo://app?vid=de673da5-a4f0-41b3-be30-86114f5fdb56","ios":"levelo://app?vid=de673da5-a4f0-41b3-be30-86114f5fdb56"},"vehicle_type_id":"4","last_reported":1727370536,"current_range_meters":30400,"station_id":"ce4bhah2rcd13ifvqei0","pricing_plan_id":"cebpf4jnsgd1na2vs0mg"},{"bike_id":"7636de0d-24ac-43ef-b05f-eceb64c8b199","system_id":"levelo_inurba_marseille","lat":43.29177,"lon":5.3581,"is_reserved":false,"is_disabled":false,"rental_uris":{"android":"levelo://app?vid=7636de0d-24ac-43ef-b05f-eceb64c8b199","ios":"levelo://app?vid=7636de0d-24ac-43ef-b05f-eceb64c8b199"},"vehicle_type_id":"4","last_reported":1727370536,"current_range_meters":38400,"station_id":"ce4bhb12rcd13ifvqel0","pricing_plan_id":"cebpf4jnsgd1na2vs0mg"},{"bike_id":"264f5e1a-910c-402c-8387-641549ff797c","system_id":"levelo_inurba_marseille","lat":43.28461,"lon":5.3589,"is_reserved":false,"is_disabled":false,"rental_uris":{"android":"levelo://app?vid=264f5e1a-910c-402c-8387-641549ff797c","ios":"levelo://app?vid=264f5e1a-910c-402c-8387-641549ff797c"},"vehicle_type_id":"4","last_reported":1727370536,"current_range_meters":8400,"station_id":"ce4bhah2rcd13ifvqei0","pricing_plan_id":"cebpf4jnsgd1na2vs0mg"},{"bike_id":"571c23f9-84b8-4dea-b2bc-06f7588d01ff","system_id":"levelo_inurba_marseille","lat":43.26805,"lon":5.40265,"is_reserved":false,"is_disabled":false,"rental_uris":{"android":"levelo://app?vid=571c23f9-84b8-4dea-b2bc-06f7588d01ff","ios":"levelo://app?vid=571c23f9-84b8-4dea-b2bc-06f7588d01ff"},"vehicle_type_id":"4","last_reported":1727370536,"current_range_meters":18800,"station_id":"ce501612rcd8frsf0b60","pricing_plan_id":"cebpf4jnsgd1na2vs0mg"},{"bike_id":"1d45c0e6-4838-4725-a029-71afa8e727bf","system_id":"levelo_inurba_marseille","lat":43.2846,"lon":5.35889,"is_reserved":false,"is_disabled":false,"rental_uris":{"android":"levelo://app?vid=1d45c0e6-4838-4725-a029-71afa8e727bf","ios":"levelo://app?vid=1d45c0e6-4838-4725-a029-71afa8e727bf"},"vehicle_type_id":"4","last_reported":1727370536,"current_range_meters":33600,"station_id":"ce4bhah2rcd13ifvqei0","pricing_plan_id":"cebpf4jnsgd1na2vs0mg"},{"bike_id":"9ba33055-1cec-4527-a03c-8597cd62cb59","system_id":"levelo_inurba_marseille","lat":43.25586,"lon":5.38239,"is_reserved":false,"is_disabled":false,"rental_uris":{"android":"levelo://app?vid=9ba33055-1cec-4527-a03c-8597cd62cb59","ios":"levelo://app?vid=9ba33055-1cec-4527-a03c-8597cd62cb59"},"vehicle_type_id":"4","last_reported":1727370536,"current_range_meters":9200,"station_id":"ce4bhih2rcd13ifvqfs0","pricing_plan_id":"cebpf4jnsgd1na2vs0mg"},{"bike_id":"d6e0c4a3-9804-46b9-a295-0df9259f4e20","system_id":"levelo_inurba_marseille","lat":43.30798,"lon":5.37342,"is_reserved":false,"is_disabled":false,"rental_uris":{"android":"levelo://app?vid=d6e0c4a3-9804-46b9-a295-0df9259f4e20","ios":"levelo://app?vid=d6e0c4a3-9804-46b9-a295-0df9259f4e20"},"vehicle_type_id":"4","last_reported":1727370536,"current_range_meters":31200,"station_id":"","pricing_plan_id":"cebpf4jnsgd1na2vs0mg"},{"bike_id":"49bd93fc-ad98-479e-9fbb-fc3a76a7f31e","system_id":"levelo_inurba_marseille","lat":43.31324,"lon":5.39696,"is_reserved":false,"is_disabled":false,"rental_uris":{"android":"levelo://app?vid=49bd93fc-ad98-479e-9fbb-fc3a76a7f31e","ios":"levelo://app?vid=49bd93fc-ad98-479e-9fbb-fc3a76a7f31e"},"vehicle_type_id":"4","last_reported":1727370536,"current_range_meters":20800,"station_id":"ce4bgvp2rcd13ifvqcu0","pricing_plan_id":"cebpf4jnsgd1na2vs0mg"},{"bike_id":"a15738b3-2d09-405a-8854-95b6c75a1421","system_id":"levelo_inurba_marseille","lat":43.28697,"lon":5.37395,"is_reserved":false,"is_disabled":false,"rental_uris":{"android":"levelo://app?vid=a15738b3-2d09-405a-8854-95b6c75a1421","ios":"levelo://app?vid=a15738b3-2d09-405a-8854-95b6c75a1421"},"vehicle_type_id":"4","last_reported":1727370536,"current_range_meters":38800,"station_id":"ce4bh3p2rcd13ifvqdq0","pricing_plan_id":"cebpf4jnsgd1na2vs0mg"},{"bike_id":"61a31504-78d6-4c5e-a8cd-14aed6b9fdf6","system_id":"levelo_inurba_marseille","lat":43.30421,"lon":5.41283,"is_reserved":false,"is_disabled":false,"rental_uris":{"android":"levelo://app?vid=61a31504-78d6-4c5e-a8cd-14aed6b9fdf6","ios":"levelo://app?vid=61a31504-78d6-4c5e-a8cd-14aed6b9fdf6"},"vehicle_type_id":"4","last_reported":1727370536,"current_range_meters":28400,"station_id":"ce4bhop2rcd13ifvqh8g","pricing_plan_id":"cebpf4jnsgd1na2vs0mg"},{"bike_id":"7d17ada8-1886-47bb-9154-0d0bdbca749b","system_id":"levelo_inurba_marseille","lat":43.33027,"lon":5.39047,"is_reserved":false,"is_disabled":false,"rental_uris":{"android":"levelo://app?vid=7d17ada8-1886-47bb-9154-0d0bdbca749b","ios":"levelo://app?vid=7d17ada8-1886-47bb-9154-0d0bdbca749b"},"vehicle_type_id":"4","last_reported":1727370536,"current_range_meters":22800,"station_id":"ce4bhr92rcd13ifvqhrg","pricing_plan_id":"cebpf4jnsgd1na2vs0mg"},{"bike_id":"f2e08b92-bc92-40fb-af4e-95c0a187494b","system_id":"levelo_inurba_marseille","lat":43.27815,"lon":5.40716,"is_reserved":false,"is_disabled":false,"rental_uris":{"android":"levelo://app?vid=f2e08b92-bc92-40fb-af4e-95c0a187494b","ios":"levelo://app?vid=f2e08b92-bc92-40fb-af4e-95c0a187494b"},"vehicle_type_id":"4","last_reported":1727370536,"current_range_meters":29600,"station_id":"ce4bhnh2rcd13ifvqgtg","pricing_plan_id":"cebpf4jnsgd1na2vs0mg"},{"bike_id":"d8accd1b-1f5b-4cfe-b394-0bc959748d34","system_id":"levelo_inurba_marseille","lat":43.306031,"lon":5.372324,"is_reserved":false,"is_disabled":false,"rental_uris":{"android":"levelo://app?vid=d8accd1b-1f5b-4cfe-b394-0bc959748d34","ios":"levelo://app?vid=d8accd1b-1f5b-4cfe-b394-0bc959748d34"},"vehicle_type_id":"4","last_reported":1727370536,"current_range_meters":9200,"station_id":"ce4bguh2rcd13ifvqckg","pricing_plan_id":"cebpf4jnsgd1na2vs0mg"},{"bike_id":"07030c9f-b220-4d67-b434-1d818d1c7394","system_id":"levelo_inurba_marseille","lat":43.29908,"lon":5.43663,"is_reserved":false,"is_disabled":false,"rental_uris":{"android":"levelo://app?vid=07030c9f-b220-4d67-b434-1d818d1c7394","ios":"levelo://app?vid=07030c9f-b220-4d67-b434-1d818d1c7394"},"vehicle_type_id":"4","last_reported":1727370536,"current_range_meters":36800,"station_id":"ce4bhpp2rcd13ifvqhfg","pricing_plan_id":"cebpf4jnsgd1na2vs0mg"},{"bike_id":"afb863ca-c350-4c89-a188-123c802b9162","system_id":"levelo_inurba_marseille","lat":43.28459,"lon":5.35885,"is_reserved":false,"is_disabled":false,"rental_uris":{"android":"levelo://app?vid=afb863ca-c350-4c89-a188-123c802b9162","ios":"levelo://app?vid=afb863ca-c350-4c89-a188-123c802b9162"},"vehicle_type_id":"4","last_reported":1727370536,"current_range_meters":8400,"station_id":"ce4bhah2rcd13ifvqei0","pricing_plan_id":"cebpf4jnsgd1na2vs0mg"},{"bike_id":"f17dbafc-151f-485c-a428-c0c83c10c6c9","system_id":"levelo_inurba_marseille","lat":43.29156,"lon":5.43981,"is_reserved":false,"is_disabled":false,"rental_uris":{"android":"levelo://app?vid=f17dbafc-151f-485c-a428-c0c83c10c6c9","ios":"levelo://app?vid=f17dbafc-151f-485c-a428-c0c83c10c6c9"},"vehicle_type_id":"4","last_reported":1727370536,"current_range_meters":20400,"station_id":"","pricing_plan_id":"cebpf4jnsgd1na2vs0mg"},{"bike_id":"55caec12-1fa8-4c1e-bf85-ede42b91b473","system_id":"levelo_inurba_marseille","lat":43.31762,"lon":5.39019,"is_reserved":false,"is_disabled":false,"rental_uris":{"android":"levelo://app?vid=55caec12-1fa8-4c1e-bf85-ede42b91b473","ios":"levelo://app?vid=55caec12-1fa8-4c1e-bf85-ede42b91b473"},"vehicle_type_id":"4","last_reported":1727370536,"current_range_meters":14800,"station_id":"ce4bhqp2rcd13ifvqhng","pricing_plan_id":"cebpf4jnsgd1na2vs0mg"},{"bike_id":"e673eefe-986d-4c7b-ad3a-a4b1c8dea5aa","system_id":"levelo_inurba_marseille","lat":43.28911,"lon":5.39539,"is_reserved":false,"is_disabled":false,"rental_uris":{"android":"levelo://app?vid=e673eefe-986d-4c7b-ad3a-a4b1c8dea5aa","ios":"levelo://app?vid=e673eefe-986d-4c7b-ad3a-a4b1c8dea5aa"},"vehicle_type_id":"4","last_reported":1727370536,"current_range_meters":24400,"station_id":"ce4bh112rcd13ifvqda0","pricing_plan_id":"cebpf4jnsgd1na2vs0mg"},{"bike_id":"ad10a6f4-fe76-4300-9fd9-c71ae41c0785","system_id":"levelo_inurba_marseille","lat":43.2418,"lon":5.39719,"is_reserved":false,"is_disabled":false,"rental_uris":{"android":"levelo://app?vid=ad10a6f4-fe76-4300-9fd9-c71ae41c0785","ios":"levelo://app?vid=ad10a6f4-fe76-4300-9fd9-c71ae41c0785"},"vehicle_type_id":"4","last_reported":1727370536,"current_range_meters":0,"station_id":"ce4bhn12rcd13ifvqgpg","pricing_plan_id":"cebpf4jnsgd1na2vs0mg"},{"bike_id":"7cb42e29-f9dd-416b-bdbf-cb3f6f142bc0","system_id":"levelo_inurba_marseille","lat":43.26557,"lon":5.37284,"is_reserved":false,"is_disabled":false,"rental_uris":{"android":"levelo://app?vid=7cb42e29-f9dd-416b-bdbf-cb3f6f142bc0","ios":"levelo://app?vid=7cb42e29-f9dd-416b-bdbf-cb3f6f142bc0"},"vehicle_type_id":"4","last_reported":1727370536,"current_range_meters":38800,"station_id":"ce4bhg12rcd13ifvqf70","pricing_plan_id":"cebpf4jnsgd1na2vs0mg"},{"bike_id":"ffdc2779-4a50-4590-99b0-2bb8bfbf9fd4","system_id":"levelo_inurba_marseille","lat":43.301788,"lon":5.366159,"is_reserved":false,"is_disabled":false,"rental_uris":{"android":"levelo://app?vid=ffdc2779-4a50-4590-99b0-2bb8bfbf9fd4","ios":"levelo://app?vid=ffdc2779-4a50-4590-99b0-2bb8bfbf9fd4"},"vehicle_type_id":"4","last_reported":1727370536,"current_range_meters":30400,"station_id":"ce4bgrh2rcd13ifvqc8g","pricing_plan_id":"cebpf4jnsgd1na2vs0mg"},{"bike_id":"1c309f55-1938-4599-882e-99b8a15b42b9","system_id":"levelo_inurba_marseille","lat":43.311206,"lon":5.377813,"is_reserved":false,"is_disabled":false,"rental_uris":{"android":"levelo://app?vid=1c309f55-1938-4599-882e-99b8a15b42b9","ios":"levelo://app?vid=1c309f55-1938-4599-882e-99b8a15b42b9"},"vehicle_type_id":"4","last_reported":1727370536,"current_range_meters":19200,"station_id":"ce4bgt92rcd13ifvqcg0","pricing_plan_id":"cebpf4jnsgd1na2vs0mg"},{"bike_id":"3b85eda8-4765-42a0-9eff-60cb2950e661","system_id":"levelo_inurba_marseille","lat":43.30639,"lon":5.401,"is_reserved":false,"is_disabled":false,"rental_uris":{"android":"levelo://app?vid=3b85eda8-4765-42a0-9eff-60cb2950e661","ios":"levelo://app?vid=3b85eda8-4765-42a0-9eff-60cb2950e661"},"vehicle_type_id":"4","last_reported":1727370536,"current_range_meters":18800,"station_id":"ce4bh112rcd13ifvqda0","pricing_plan_id":"cebpf4jnsgd1na2vs0mg"},{"bike_id":"e0428787-a4ea-4ea2-8e9d-b0d6741bbe55","system_id":"levelo_inurba_marseille","lat":43.32482,"lon":5.36563,"is_reserved":false,"is_disabled":false,"rental_uris":{"android":"levelo://app?vid=e0428787-a4ea-4ea2-8e9d-b0d6741bbe55","ios":"levelo://app?vid=e0428787-a4ea-4ea2-8e9d-b0d6741bbe55"},"vehicle_type_id":"4","last_reported":1727370536,"current_range_meters":38800,"station_id":"ce4bhs12rcd13ifvqhvg","pricing_plan_id":"cebpf4jnsgd1na2vs0mg"},{"bike_id":"4fd7b53a-1245-41d7-95f0-bbec7680b14e","system_id":"levelo_inurba_marseille","lat":43.308594,"lon":5.39647,"is_reserved":false,"is_disabled":false,"rental_uris":{"android":"levelo://app?vid=4fd7b53a-1245-41d7-95f0-bbec7680b14e","ios":"levelo://app?vid=4fd7b53a-1245-41d7-95f0-bbec7680b14e"},"vehicle_type_id":"4","last_reported":1727370536,"current_range_meters":34800,"station_id":"ce4bhg12rcd13ifvqf80","pricing_plan_id":"cebpf4jnsgd1na2vs0mg"},{"bike_id":"dd67e418-2dcd-4a45-90ad-006dc3dcaad3","system_id":"levelo_inurba_marseille","lat":43.2439,"lon":5.37064,"is_reserved":false,"is_disabled":false,"rental_uris":{"android":"levelo://app?vid=dd67e418-2dcd-4a45-90ad-006dc3dcaad3","ios":"levelo://app?vid=dd67e418-2dcd-4a45-90ad-006dc3dcaad3"},"vehicle_type_id":"4","last_reported":1727370536,"current_range_meters":24800,"station_id":"ce4bhhh2rcd13ifvqfk0","pricing_plan_id":"cebpf4jnsgd1na2vs0mg"},{"bike_id":"322036c3-f9cf-4607-893f-bcf44ef66061","system_id":"levelo_inurba_marseille","lat":43.24388,"lon":5.37062,"is_reserved":false,"is_disabled":false,"rental_uris":{"android":"levelo://app?vid=322036c3-f9cf-4607-893f-bcf44ef66061","ios":"levelo://app?vid=322036c3-f9cf-4607-893f-bcf44ef66061"},"vehicle_type_id":"4","last_reported":1727370536,"current_range_meters":16000,"station_id":"ce4bhhh2rcd13ifvqfk0","pricing_plan_id":"cebpf4jnsgd1na2vs0mg"},{"bike_id":"f0b02318-daba-4fcc-b969-1903106e76b5","system_id":"levelo_inurba_marseille","lat":43.31527,"lon":5.38046,"is_reserved":false,"is_disabled":false,"rental_uris":{"android":"levelo://app?vid=f0b02318-daba-4fcc-b969-1903106e76b5","ios":"levelo://app?vid=f0b02318-daba-4fcc-b969-1903106e76b5"},"vehicle_type_id":"4","last_reported":1727370536,"current_range_meters":7200,"station_id":"ce4bhsp2rcd13ifvqi50","pricing_plan_id":"cebpf4jnsgd1na2vs0mg"},{"bike_id":"bc2c4729-bbaf-4390-8ca5-4cd1d8130d4a","system_id":"levelo_inurba_marseille","lat":43.27192,"lon":5.40998,"is_reserved":false,"is_disabled":false,"rental_uris":{"android":"levelo://app?vid=bc2c4729-bbaf-4390-8ca5-4cd1d8130d4a","ios":"levelo://app?vid=bc2c4729-bbaf-4390-8ca5-4cd1d8130d4a"},"vehicle_type_id":"4","last_reported":1727370536,"current_range_meters":28800,"station_id":"ce4bhl12rcd13ifvqgf0","pricing_plan_id":"cebpf4jnsgd1na2vs0mg"},{"bike_id":"501788da-5be7-4ba6-b46e-93a94e3bd09e","system_id":"levelo_inurba_marseille","lat":43.29007,"lon":5.35619,"is_reserved":false,"is_disabled":false,"rental_uris":{"android":"levelo://app?vid=501788da-5be7-4ba6-b46e-93a94e3bd09e","ios":"levelo://app?vid=501788da-5be7-4ba6-b46e-93a94e3bd09e"},"vehicle_type_id":"4","last_reported":1727370536,"current_range_meters":13600,"station_id":"ce4bhb92rcd13ifvqen0","pricing_plan_id":"cebpf4jnsgd1na2vs0mg"},{"bike_id":"7463e4a6-4be3-4e02-8861-138b4cc626d0","system_id":"levelo_inurba_marseille","lat":43.26781,"lon":5.3942,"is_reserved":false,"is_disabled":false,"rental_uris":{"android":"levelo://app?vid=7463e4a6-4be3-4e02-8861-138b4cc626d0","ios":"levelo://app?vid=7463e4a6-4be3-4e02-8861-138b4cc626d0"},"vehicle_type_id":"4","last_reported":1727370536,"current_range_meters":38800,"station_id":"ce4bhh12rcd13ifvqfg0","pricing_plan_id":"cebpf4jnsgd1na2vs0mg"},{"bike_id":"c455844d-af94-413b-9bad-e337dc9b66e2","system_id":"levelo_inurba_marseille","lat":43.27559,"lon":5.38419,"is_reserved":false,"is_disabled":false,"rental_uris":{"android":"levelo://app?vid=c455844d-af94-413b-9bad-e337dc9b66e2","ios":"levelo://app?vid=c455844d-af94-413b-9bad-e337dc9b66e2"},"vehicle_type_id":"4","last_reported":1727370536,"current_range_meters":6800,"station_id":"ce4bhh92rcd13ifvqfi0","pricing_plan_id":"cebpf4jnsgd1na2vs0mg"},{"bike_id":"1a8d240b-cd7f-4cf8-ae06-bdc69cda6fc6","system_id":"levelo_inurba_marseille","lat":43.29675,"lon":5.37289,"is_reserved":false,"is_disabled":false,"rental_uris":{"android":"levelo://app?vid=1a8d240b-cd7f-4cf8-ae06-bdc69cda6fc6","ios":"levelo://app?vid=1a8d240b-cd7f-4cf8-ae06-bdc69cda6fc6"},"vehicle_type_id":"4","last_reported":1727370536,"current_range_meters":22800,"station_id":"ce4bgk12rcd13ifvqbj0","pricing_plan_id":"cebpf4jnsgd1na2vs0mg"},{"bike_id":"6ee148d5-e62a-4631-bad8-a694db030bcc","system_id":"levelo_inurba_marseille","lat":43.2872,"lon":5.36088,"is_reserved":false,"is_disabled":false,"rental_uris":{"android":"levelo://app?vid=6ee148d5-e62a-4631-bad8-a694db030bcc","ios":"levelo://app?vid=6ee148d5-e62a-4631-bad8-a694db030bcc"},"vehicle_type_id":"4","last_reported":1727370536,"current_range_meters":6000,"station_id":"cki0cbj6b192h4jlfktg","pricing_plan_id":"cebpf4jnsgd1na2vs0mg"},{"bike_id":"9ac76b5c-eb50-457c-95de-63bd83438267","system_id":"levelo_inurba_marseille","lat":43.28081,"lon":5.3966,"is_reserved":false,"is_disabled":false,"rental_uris":{"android":"levelo://app?vid=9ac76b5c-eb50-457c-95de-63bd83438267","ios":"levelo://app?vid=9ac76b5c-eb50-457c-95de-63bd83438267"},"vehicle_type_id":"4","last_reported":1727370536,"current_range_meters":6000,"station_id":"ce4bho12rcd13ifvqh2g","pricing_plan_id":"cebpf4jnsgd1na2vs0mg"},{"bike_id":"fe9249a1-e1f3-4e84-ac2f-b79c3f9b42ec","system_id":"levelo_inurba_marseille","lat":43.3204,"lon":5.41557,"is_reserved":false,"is_disabled":false,"rental_uris":{"android":"levelo://app?vid=fe9249a1-e1f3-4e84-ac2f-b79c3f9b42ec","ios":"levelo://app?vid=fe9249a1-e1f3-4e84-ac2f-b79c3f9b42ec"},"vehicle_type_id":"4","last_reported":1727370536,"current_range_meters":12400,"station_id":"ce4bhq92rcd13ifvqhkg","pricing_plan_id":"cebpf4jnsgd1na2vs0mg"},{"bike_id":"4826a5d1-a298-4070-a5c0-bf223012d48a","system_id":"levelo_inurba_marseille","lat":43.28671,"lon":5.3867,"is_reserved":false,"is_disabled":false,"rental_uris":{"android":"levelo://app?vid=4826a5d1-a298-4070-a5c0-bf223012d48a","ios":"levelo://app?vid=4826a5d1-a298-4070-a5c0-bf223012d48a"},"vehicle_type_id":"4","last_reported":1727370536,"current_range_meters":20400,"station_id":"ce4bh492rcd13ifvqdug","pricing_plan_id":"cebpf4jnsgd1na2vs0mg"},{"bike_id":"e29f32f3-b543-4889-a5c3-39699a72d291","system_id":"levelo_inurba_marseille","lat":43.29543,"lon":5.37518,"is_reserved":false,"is_disabled":false,"rental_uris":{"android":"levelo://app?vid=e29f32f3-b543-4889-a5c3-39699a72d291","ios":"levelo://app?vid=e29f32f3-b543-4889-a5c3-39699a72d291"},"vehicle_type_id":"4","last_reported":1727370536,"current_range_meters":37600,"station_id":"ce4bgkp2rcd13ifvqbmg","pricing_plan_id":"cebpf4jnsgd1na2vs0mg"},{"bike_id":"24279ee3-c0f7-4586-9774-2fa1d74d9fa3","system_id":"levelo_inurba_marseille","lat":43.2958,"lon":5.36743,"is_reserved":false,"is_disabled":false,"rental_uris":{"android":"levelo://app?vid=24279ee3-c0f7-4586-9774-2fa1d74d9fa3","ios":"levelo://app?vid=24279ee3-c0f7-4586-9774-2fa1d74d9fa3"},"vehicle_type_id":"4","last_reported":1727370536,"current_range_meters":10000,"station_id":"ce4bgph2rcd13ifvqc2g","pricing_plan_id":"cebpf4jnsgd1na2vs0mg"},{"bike_id":"5bee84f0-576d-4e5b-88d2-dda61e081a4c","system_id":"levelo_inurba_marseille","lat":43.29579,"lon":5.39984,"is_reserved":false,"is_disabled":false,"rental_uris":{"android":"levelo://app?vid=5bee84f0-576d-4e5b-88d2-dda61e081a4c","ios":"levelo://app?vid=5bee84f0-576d-4e5b-88d2-dda61e081a4c"},"vehicle_type_id":"4","last_reported":1727370536,"current_range_meters":13600,"station_id":"ce4bh312rcd13ifvqdj0","pricing_plan_id":"cebpf4jnsgd1na2vs0mg"},{"bike_id":"c8accb22-b05a-41e8-986d-14589c2611a2","system_id":"levelo_inurba_marseille","lat":43.28459,"lon":5.358788,"is_reserved":false,"is_disabled":false,"rental_uris":{"android":"levelo://app?vid=c8accb22-b05a-41e8-986d-14589c2611a2","ios":"levelo://app?vid=c8accb22-b05a-41e8-986d-14589c2611a2"},"vehicle_type_id":"4","last_reported":1727370536,"current_range_meters":14400,"station_id":"ce4bhah2rcd13ifvqei0","pricing_plan_id":"cebpf4jnsgd1na2vs0mg"},{"bike_id":"f7228a19-bbe7-4c74-acc1-6d1c69e62dd7","system_id":"levelo_inurba_marseille","lat":43.30274,"lon":5.36807,"is_reserved":false,"is_disabled":false,"rental_uris":{"android":"levelo://app?vid=f7228a19-bbe7-4c74-acc1-6d1c69e62dd7","ios":"levelo://app?vid=f7228a19-bbe7-4c74-acc1-6d1c69e62dd7"},"vehicle_type_id":"4","last_reported":1727370536,"current_range_meters":9200,"station_id":"","pricing_plan_id":"cebpf4jnsgd1na2vs0mg"},{"bike_id":"5bf59c45-8888-4b06-84b8-cd1cdc05c5ef","system_id":"levelo_inurba_marseille","lat":43.29878,"lon":5.38913,"is_reserved":false,"is_disabled":false,"rental_uris":{"android":"levelo://app?vid=5bf59c45-8888-4b06-84b8-cd1cdc05c5ef","ios":"levelo://app?vid=5bf59c45-8888-4b06-84b8-cd1cdc05c5ef"},"vehicle_type_id":"4","last_reported":1727370536,"current_range_meters":13600,"station_id":"ce4bh392rcd13ifvqdl0","pricing_plan_id":"cebpf4jnsgd1na2vs0mg"},{"bike_id":"b477bf7d-6c09-42e2-9688-93549973f9e9","system_id":"levelo_inurba_marseille","lat":43.29011,"lon":5.35614,"is_reserved":false,"is_disabled":false,"rental_uris":{"android":"levelo://app?vid=b477bf7d-6c09-42e2-9688-93549973f9e9","ios":"levelo://app?vid=b477bf7d-6c09-42e2-9688-93549973f9e9"},"vehicle_type_id":"4","last_reported":1727370536,"current_range_meters":38000,"station_id":"ce4bhb92rcd13ifvqen0","pricing_plan_id":"cebpf4jnsgd1na2vs0mg"},{"bike_id":"6896a837-f732-4b2a-a70e-7b4f44850070","system_id":"levelo_inurba_marseille","lat":43.29203,"lon":5.39325,"is_reserved":false,"is_disabled":false,"rental_uris":{"android":"levelo://app?vid=6896a837-f732-4b2a-a70e-7b4f44850070","ios":"levelo://app?vid=6896a837-f732-4b2a-a70e-7b4f44850070"},"vehicle_type_id":"4","last_reported":1727370536,"current_range_meters":38800,"station_id":"ce4bh192rcd13ifvqdd0","pricing_plan_id":"cebpf4jnsgd1na2vs0mg"},{"bike_id":"73cacff7-2c30-4f3c-a068-c0c022305d44","system_id":"levelo_inurba_marseille","lat":43.24179,"lon":5.39722,"is_reserved":false,"is_disabled":false,"rental_uris":{"android":"levelo://app?vid=73cacff7-2c30-4f3c-a068-c0c022305d44","ios":"levelo://app?vid=73cacff7-2c30-4f3c-a068-c0c022305d44"},"vehicle_type_id":"4","last_reported":1727370536,"current_range_meters":39200,"station_id":"ce4bhn12rcd13ifvqgpg","pricing_plan_id":"cebpf4jnsgd1na2vs0mg"},{"bike_id":"495af44c-305f-45f7-a848-444063c1500c","system_id":"levelo_inurba_marseille","lat":43.31719,"lon":5.4371,"is_reserved":false,"is_disabled":false,"rental_uris":{"android":"levelo://app?vid=495af44c-305f-45f7-a848-444063c1500c","ios":"levelo://app?vid=495af44c-305f-45f7-a848-444063c1500c"},"vehicle_type_id":"4","last_reported":1727370536,"current_range_meters":38800,"station_id":"ce4bhp92rcd13ifvqhcg","pricing_plan_id":"cebpf4jnsgd1na2vs0mg"},{"bike_id":"82b208b1-f43c-4285-90b4-ea701e6f9cf2","system_id":"levelo_inurba_marseille","lat":43.292,"lon":5.35808,"is_reserved":false,"is_disabled":false,"rental_uris":{"android":"levelo://app?vid=82b208b1-f43c-4285-90b4-ea701e6f9cf2","ios":"levelo://app?vid=82b208b1-f43c-4285-90b4-ea701e6f9cf2"},"vehicle_type_id":"4","last_reported":1727370536,"current_range_meters":26000,"station_id":"ce4bhb12rcd13ifvqel0","pricing_plan_id":"cebpf4jnsgd1na2vs0mg"},{"bike_id":"67495f20-abfe-4984-b1f8-7dab4561f834","system_id":"levelo_inurba_marseille","lat":43.2465,"lon":5.38894,"is_reserved":false,"is_disabled":false,"rental_uris":{"android":"levelo://app?vid=67495f20-abfe-4984-b1f8-7dab4561f834","ios":"levelo://app?vid=67495f20-abfe-4984-b1f8-7dab4561f834"},"vehicle_type_id":"4","last_reported":1727370536,"current_range_meters":19600,"station_id":"ce4bhg12rcd13ifvqf60","pricing_plan_id":"cebpf4jnsgd1na2vs0mg"},{"bike_id":"6edd732d-49ef-413b-bb92-fb98db3d1f67","system_id":"levelo_inurba_marseille","lat":43.3248,"lon":5.3656,"is_reserved":false,"is_disabled":false,"rental_uris":{"android":"levelo://app?vid=6edd732d-49ef-413b-bb92-fb98db3d1f67","ios":"levelo://app?vid=6edd732d-49ef-413b-bb92-fb98db3d1f67"},"vehicle_type_id":"4","last_reported":1727370536,"current_range_meters":38800,"station_id":"ce4bhs12rcd13ifvqhvg","pricing_plan_id":"cebpf4jnsgd1na2vs0mg"},{"bike_id":"4c95557c-dccd-41d7-8887-5d6fa89e0ec8","system_id":"levelo_inurba_marseille","lat":43.24385,"lon":5.37057,"is_reserved":false,"is_disabled":false,"rental_uris":{"android":"levelo://app?vid=4c95557c-dccd-41d7-8887-5d6fa89e0ec8","ios":"levelo://app?vid=4c95557c-dccd-41d7-8887-5d6fa89e0ec8"},"vehicle_type_id":"4","last_reported":1727370536,"current_range_meters":38800,"station_id":"ce4bhhh2rcd13ifvqfk0","pricing_plan_id":"cebpf4jnsgd1na2vs0mg"},{"bike_id":"9afa3cd2-4d48-4306-b66e-7f64b8a62b88","system_id":"levelo_inurba_marseille","lat":43.32661,"lon":5.40996,"is_reserved":false,"is_disabled":false,"rental_uris":{"android":"levelo://app?vid=9afa3cd2-4d48-4306-b66e-7f64b8a62b88","ios":"levelo://app?vid=9afa3cd2-4d48-4306-b66e-7f64b8a62b88"},"vehicle_type_id":"4","last_reported":1727370536,"current_range_meters":9600,"station_id":"ce4bhpp2rcd13ifvqhgg","pricing_plan_id":"cebpf4jnsgd1na2vs0mg"},{"bike_id":"fb6c2cf3-759b-4710-b739-4cc0a0eeaca9","system_id":"levelo_inurba_marseille","lat":43.31888,"lon":5.40745,"is_reserved":false,"is_disabled":false,"rental_uris":{"android":"levelo://app?vid=fb6c2cf3-759b-4710-b739-4cc0a0eeaca9","ios":"levelo://app?vid=fb6c2cf3-759b-4710-b739-4cc0a0eeaca9"},"vehicle_type_id":"4","last_reported":1727370536,"current_range_meters":4400,"station_id":"ce4bhq12rcd13ifvqhig","pricing_plan_id":"cebpf4jnsgd1na2vs0mg"},{"bike_id":"b8994d55-2d04-4917-9d38-01dd899bf521","system_id":"levelo_inurba_marseille","lat":43.23968,"lon":5.36632,"is_reserved":false,"is_disabled":false,"rental_uris":{"android":"levelo://app?vid=b8994d55-2d04-4917-9d38-01dd899bf521","ios":"levelo://app?vid=b8994d55-2d04-4917-9d38-01dd899bf521"},"vehicle_type_id":"4","last_reported":1727370536,"current_range_meters":38800,"station_id":"ce4bhi12rcd13ifvqfp0","pricing_plan_id":"cebpf4jnsgd1na2vs0mg"},{"bike_id":"8180e8c8-dfc9-41ba-a8e9-00e26bb4e708","system_id":"levelo_inurba_marseille","lat":43.31726,"lon":5.423913,"is_reserved":false,"is_disabled":false,"rental_uris":{"android":"levelo://app?vid=8180e8c8-dfc9-41ba-a8e9-00e26bb4e708","ios":"levelo://app?vid=8180e8c8-dfc9-41ba-a8e9-00e26bb4e708"},"vehicle_type_id":"4","last_reported":1727370536,"current_range_meters":24400,"station_id":"ce4bhp92rcd13ifvqhbg","pricing_plan_id":"cebpf4jnsgd1na2vs0mg"},{"bike_id":"fd955c41-0c09-41eb-8b91-cd6da7bb671a","system_id":"levelo_inurba_marseille","lat":43.28155,"lon":5.42646,"is_reserved":false,"is_disabled":false,"rental_uris":{"android":"levelo://app?vid=fd955c41-0c09-41eb-8b91-cd6da7bb671a","ios":"levelo://app?vid=fd955c41-0c09-41eb-8b91-cd6da7bb671a"},"vehicle_type_id":"4","last_reported":1727370536,"current_range_meters":26800,"station_id":"ce4bhnh2rcd13ifvqgug","pricing_plan_id":"cebpf4jnsgd1na2vs0mg"},{"bike_id":"8656eb52-6e49-4b69-9d7e-577bcb4301c6","system_id":"levelo_inurba_marseille","lat":43.32113,"lon":5.36777,"is_reserved":false,"is_disabled":false,"rental_uris":{"android":"levelo://app?vid=8656eb52-6e49-4b69-9d7e-577bcb4301c6","ios":"levelo://app?vid=8656eb52-6e49-4b69-9d7e-577bcb4301c6"},"vehicle_type_id":"4","last_reported":1727370536,"current_range_meters":34000,"station_id":"ce4bhrh2rcd13ifvqhug","pricing_plan_id":"cebpf4jnsgd1na2vs0mg"},{"bike_id":"f205bbcd-191a-4ed0-bf0e-cdde12636a27","system_id":"levelo_inurba_marseille","lat":43.28004,"lon":5.40012,"is_reserved":false,"is_disabled":false,"rental_uris":{"android":"levelo://app?vid=f205bbcd-191a-4ed0-bf0e-cdde12636a27","ios":"levelo://app?vid=f205bbcd-191a-4ed0-bf0e-cdde12636a27"},"vehicle_type_id":"4","last_reported":1727370536,"current_range_meters":8000,"station_id":"ce4bho92rcd13ifvqh4g","pricing_plan_id":"cebpf4jnsgd1na2vs0mg"},{"bike_id":"affc44ac-d8aa-44ab-b1a5-025392daad77","system_id":"levelo_inurba_marseille","lat":43.31993,"lon":5.3815,"is_reserved":false,"is_disabled":false,"rental_uris":{"android":"levelo://app?vid=affc44ac-d8aa-44ab-b1a5-025392daad77","ios":"levelo://app?vid=affc44ac-d8aa-44ab-b1a5-025392daad77"},"vehicle_type_id":"4","last_reported":1727370536,"current_range_meters":30400,"station_id":"ce4bhr12rcd13ifvqhpg","pricing_plan_id":"cebpf4jnsgd1na2vs0mg"},{"bike_id":"ae7496aa-2fd9-4228-93eb-59179f4ca647","system_id":"levelo_inurba_marseille","lat":43.29909,"lon":5.43672,"is_reserved":false,"is_disabled":false,"rental_uris":{"android":"levelo://app?vid=ae7496aa-2fd9-4228-93eb-59179f4ca647","ios":"levelo://app?vid=ae7496aa-2fd9-4228-93eb-59179f4ca647"},"vehicle_type_id":"4","last_reported":1727370536,"current_range_meters":28800,"station_id":"ce4bhpp2rcd13ifvqhfg","pricing_plan_id":"cebpf4jnsgd1na2vs0mg"},{"bike_id":"05d2c2ae-0640-4e6d-ad1a-e26c53bbda81","system_id":"levelo_inurba_marseille","lat":43.2931,"lon":5.37183,"is_reserved":false,"is_disabled":false,"rental_uris":{"android":"levelo://app?vid=05d2c2ae-0640-4e6d-ad1a-e26c53bbda81","ios":"levelo://app?vid=05d2c2ae-0640-4e6d-ad1a-e26c53bbda81"},"vehicle_type_id":"4","last_reported":1727370536,"current_range_meters":25600,"station_id":"ce4bgh92rcd13ifvqb40","pricing_plan_id":"cebpf4jnsgd1na2vs0mg"},{"bike_id":"bfef6900-53b9-4dd1-bd3c-e722e8c58c60","system_id":"levelo_inurba_marseille","lat":43.29242,"lon":5.40913,"is_reserved":false,"is_disabled":false,"rental_uris":{"android":"levelo://app?vid=bfef6900-53b9-4dd1-bd3c-e722e8c58c60","ios":"levelo://app?vid=bfef6900-53b9-4dd1-bd3c-e722e8c58c60"},"vehicle_type_id":"4","last_reported":1727370536,"current_range_meters":16800,"station_id":"ce4bh192rcd13ifvqdc0","pricing_plan_id":"cebpf4jnsgd1na2vs0mg"},{"bike_id":"6957c0f4-e4fd-49fc-919b-b7edecd069c5","system_id":"levelo_inurba_marseille","lat":43.29293,"lon":5.37507,"is_reserved":false,"is_disabled":false,"rental_uris":{"android":"levelo://app?vid=6957c0f4-e4fd-49fc-919b-b7edecd069c5","ios":"levelo://app?vid=6957c0f4-e4fd-49fc-919b-b7edecd069c5"},"vehicle_type_id":"4","last_reported":1727370536,"current_range_meters":24400,"station_id":"","pricing_plan_id":"cebpf4jnsgd1na2vs0mg"},{"bike_id":"09c066d0-b55d-4051-b473-6516efbb725c","system_id":"levelo_inurba_marseille","lat":43.31718,"lon":5.37765,"is_reserved":false,"is_disabled":false,"rental_uris":{"android":"levelo://app?vid=09c066d0-b55d-4051-b473-6516efbb725c","ios":"levelo://app?vid=09c066d0-b55d-4051-b473-6516efbb725c"},"vehicle_type_id":"4","last_reported":1727370536,"current_range_meters":10800,"station_id":"ce4bgth2rcd13ifvqch0","pricing_plan_id":"cebpf4jnsgd1na2vs0mg"},{"bike_id":"7e822a2c-9219-4f5f-b1d0-47ed17b18df9","system_id":"levelo_inurba_marseille","lat":43.32472,"lon":5.3657,"is_reserved":false,"is_disabled":false,"rental_uris":{"android":"levelo://app?vid=7e822a2c-9219-4f5f-b1d0-47ed17b18df9","ios":"levelo://app?vid=7e822a2c-9219-4f5f-b1d0-47ed17b18df9"},"vehicle_type_id":"4","last_reported":1727370536,"current_range_meters":28000,"station_id":"ce4bhs12rcd13ifvqhvg","pricing_plan_id":"cebpf4jnsgd1na2vs0mg"},{"bike_id":"bcc9c574-7fcb-45a0-b860-b20f66a59eef","system_id":"levelo_inurba_marseille","lat":43.23846,"lon":5.431,"is_reserved":false,"is_disabled":false,"rental_uris":{"android":"levelo://app?vid=bcc9c574-7fcb-45a0-b860-b20f66a59eef","ios":"levelo://app?vid=bcc9c574-7fcb-45a0-b860-b20f66a59eef"},"vehicle_type_id":"4","last_reported":1727370536,"current_range_meters":17200,"station_id":"","pricing_plan_id":"cebpf4jnsgd1na2vs0mg"},{"bike_id":"01f61ff2-4034-416f-b11b-4d312eac6dbc","system_id":"levelo_inurba_marseille","lat":43.28701,"lon":5.37391,"is_reserved":false,"is_disabled":false,"rental_uris":{"android":"levelo://app?vid=01f61ff2-4034-416f-b11b-4d312eac6dbc","ios":"levelo://app?vid=01f61ff2-4034-416f-b11b-4d312eac6dbc"},"vehicle_type_id":"4","last_reported":1727370536,"current_range_meters":38800,"station_id":"ce4bh3p2rcd13ifvqdq0","pricing_plan_id":"cebpf4jnsgd1na2vs0mg"},{"bike_id":"0ee984ca-3984-441a-b09c-f0fb3169f9f5","system_id":"levelo_inurba_marseille","lat":43.28421,"lon":5.37519,"is_reserved":false,"is_disabled":false,"rental_uris":{"android":"levelo://app?vid=0ee984ca-3984-441a-b09c-f0fb3169f9f5","ios":"levelo://app?vid=0ee984ca-3984-441a-b09c-f0fb3169f9f5"},"vehicle_type_id":"4","last_reported":1727370536,"current_range_meters":3200,"station_id":"ce4bh412rcd13ifvqds0","pricing_plan_id":"cebpf4jnsgd1na2vs0mg"},{"bike_id":"d1bc7ee8-81b7-40b3-947b-1197a7b5273c","system_id":"levelo_inurba_marseille","lat":43.29892,"lon":5.43677,"is_reserved":false,"is_disabled":false,"rental_uris":{"android":"levelo://app?vid=d1bc7ee8-81b7-40b3-947b-1197a7b5273c","ios":"levelo://app?vid=d1bc7ee8-81b7-40b3-947b-1197a7b5273c"},"vehicle_type_id":"4","last_reported":1727370536,"current_range_meters":3200,"station_id":"ce4bhpp2rcd13ifvqhfg","pricing_plan_id":"cebpf4jnsgd1na2vs0mg"},{"bike_id":"5f442181-59a1-4553-ad1c-1018f4c0f497","system_id":"levelo_inurba_marseille","lat":43.28729,"lon":5.3609,"is_reserved":false,"is_disabled":false,"rental_uris":{"android":"levelo://app?vid=5f442181-59a1-4553-ad1c-1018f4c0f497","ios":"levelo://app?vid=5f442181-59a1-4553-ad1c-1018f4c0f497"},"vehicle_type_id":"4","last_reported":1727370536,"current_range_meters":38800,"station_id":"cki0cbj6b192h4jlfktg","pricing_plan_id":"cebpf4jnsgd1na2vs0mg"},{"bike_id":"3336d0f7-2956-4fea-9c3e-b942521fe8ab","system_id":"levelo_inurba_marseille","lat":43.29902,"lon":5.43655,"is_reserved":false,"is_disabled":false,"rental_uris":{"android":"levelo://app?vid=3336d0f7-2956-4fea-9c3e-b942521fe8ab","ios":"levelo://app?vid=3336d0f7-2956-4fea-9c3e-b942521fe8ab"},"vehicle_type_id":"4","last_reported":1727370536,"current_range_meters":36800,"station_id":"ce4bhpp2rcd13ifvqhfg","pricing_plan_id":"cebpf4jnsgd1na2vs0mg"},{"bike_id":"5a8b61c2-93ad-41ce-ac42-8978ab785c21","system_id":"levelo_inurba_marseille","lat":43.2481,"lon":5.37459,"is_reserved":false,"is_disabled":false,"rental_uris":{"android":"levelo://app?vid=5a8b61c2-93ad-41ce-ac42-8978ab785c21","ios":"levelo://app?vid=5a8b61c2-93ad-41ce-ac42-8978ab785c21"},"vehicle_type_id":"4","last_reported":1727370536,"current_range_meters":10000,"station_id":"ce4bhgh2rcd13ifvqfb0","pricing_plan_id":"cebpf4jnsgd1na2vs0mg"},{"bike_id":"74d41914-cae9-4cb6-b9e9-6d87d7f95109","system_id":"levelo_inurba_marseille","lat":43.31326,"lon":5.39697,"is_reserved":false,"is_disabled":false,"rental_uris":{"android":"levelo://app?vid=74d41914-cae9-4cb6-b9e9-6d87d7f95109","ios":"levelo://app?vid=74d41914-cae9-4cb6-b9e9-6d87d7f95109"},"vehicle_type_id":"4","last_reported":1727370536,"current_range_meters":17600,"station_id":"ce4bgvp2rcd13ifvqcu0","pricing_plan_id":"cebpf4jnsgd1na2vs0mg"},{"bike_id":"74f412a3-ec54-45c0-91a6-b2ec3060caaa","system_id":"levelo_inurba_marseille","lat":43.32366,"lon":5.38889,"is_reserved":false,"is_disabled":false,"rental_uris":{"android":"levelo://app?vid=74f412a3-ec54-45c0-91a6-b2ec3060caaa","ios":"levelo://app?vid=74f412a3-ec54-45c0-91a6-b2ec3060caaa"},"vehicle_type_id":"4","last_reported":1727370536,"current_range_meters":10000,"station_id":"ce4bhqp2rcd13ifvqhog","pricing_plan_id":"cebpf4jnsgd1na2vs0mg"},{"bike_id":"e6e24b42-f58c-47c4-9cbe-93e423bb2511","system_id":"levelo_inurba_marseille","lat":43.30538,"lon":5.36726,"is_reserved":false,"is_disabled":false,"rental_uris":{"android":"levelo://app?vid=e6e24b42-f58c-47c4-9cbe-93e423bb2511","ios":"levelo://app?vid=e6e24b42-f58c-47c4-9cbe-93e423bb2511"},"vehicle_type_id":"4","last_reported":1727370536,"current_range_meters":22400,"station_id":"ce4bgrp2rcd13ifvqc9g","pricing_plan_id":"cebpf4jnsgd1na2vs0mg"},{"bike_id":"df1f7e65-220d-43a9-ab70-8b434e2a92be","system_id":"levelo_inurba_marseille","lat":43.295337,"lon":5.372854,"is_reserved":false,"is_disabled":false,"rental_uris":{"android":"levelo://app?vid=df1f7e65-220d-43a9-ab70-8b434e2a92be","ios":"levelo://app?vid=df1f7e65-220d-43a9-ab70-8b434e2a92be"},"vehicle_type_id":"4","last_reported":1727370536,"current_range_meters":6000,"station_id":"ce4bhb12rcd13ifvqel0","pricing_plan_id":"cebpf4jnsgd1na2vs0mg"},{"bike_id":"9eb3330a-e08e-4da3-8ed1-9a5614460517","system_id":"levelo_inurba_marseille","lat":43.26552,"lon":5.37285,"is_reserved":false,"is_disabled":false,"rental_uris":{"android":"levelo://app?vid=9eb3330a-e08e-4da3-8ed1-9a5614460517","ios":"levelo://app?vid=9eb3330a-e08e-4da3-8ed1-9a5614460517"},"vehicle_type_id":"4","last_reported":1727370536,"current_range_meters":9200,"station_id":"ce4bhg12rcd13ifvqf70","pricing_plan_id":"cebpf4jnsgd1na2vs0mg"},{"bike_id":"4a0c6460-3536-458d-b0b5-ef8cb207aaf2","system_id":"levelo_inurba_marseille","lat":43.32299,"lon":5.38266,"is_reserved":false,"is_disabled":false,"rental_uris":{"android":"levelo://app?vid=4a0c6460-3536-458d-b0b5-ef8cb207aaf2","ios":"levelo://app?vid=4a0c6460-3536-458d-b0b5-ef8cb207aaf2"},"vehicle_type_id":"4","last_reported":1727370536,"current_range_meters":29600,"station_id":"ce4bhr12rcd13ifvqhqg","pricing_plan_id":"cebpf4jnsgd1na2vs0mg"},