{"last_updated":1762373516,"ttl":60,"version":"2.2","data":{"bikes":[{"bike_id":"b7c5e96f-2666-418c-b8cc-36dfc613348c","system_id":"levelo_inurba_marseille","lat":43.337444,"lon":5.374475,"is_reserved":false,"is_disabled":false,"rental_uris":{"android":"levelo://app?vid=b7c5e96f-2666-418c-b8cc-36dfc613348c","ios":"levelo://app?vid=b7c5e96f-2666-418c-b8cc-36dfc613348c"},"vehicle_type_id":"4","last_reported":1762373516,"current_range_meters":0,"station_id":"","pricing_plan_id":"cebpf4jnsgd1na2vs0mg"},{"bike_id":"9c46a9f5-39cb-461a-ac28-286dc216524b","system_id":"levelo_inurba_marseille","lat":43.337444,"lon":5.374475,"is_reserved":false,"is_disabled":false,"rental_uris":{"android":"levelo://app?vid=9c46a9f5-39cb-461a-ac28-286dc216524b","ios":"levelo://app?vid=9c46a9f5-39cb-461a-ac28-286dc216524b"},"vehicle_type_id":"4","last_reported":1762373516,"current_range_meters":0,"station_id":"","pricing_plan_id":"cebpf4jnsgd1na2vs0mg"},{"bike_id":"2aa95e42-5a8c-4825-81d0-40d356e0168e","system_id":"levelo_inurba_marseille","lat":43.337444,"lon":5.374475,"is_reserved":false,"is_disabled":false,"rental_uris":{"android":"levelo://app?vid=2aa95e42-5a8c-4825-81d0-40d356e0168e","ios":"levelo://app?vid=2aa95e42-5a8c-4825-81d0-40d356e0168e"},"vehicle_type_id":"4","last_reported":1762373516,"current_range_meters":0,"station_id":"","pricing_plan_id":"cebpf4jnsgd1na2vs0mg"},{"bike_id":"23f7c00c-abd3-4b9e-b454-b625ef68ddce","system_id":"levelo_inurba_marseille","lat":43.337444,"lon":5.374475,"is_reserved":false,"is_disabled":false,"rental_uris":{"android":"levelo://app?vid=23f7c00c-abd3-4b9e-b454-b625ef68ddce","ios":"levelo://app?vid=23f7c00c-abd3-4b9e-b454-b625ef68ddce"},"vehicle_type_id":"4","last_reported":1762373516,"current_range_meters":0,"station_id":"","pricing_plan_id":"cebpf4jnsgd1na2vs0mg"},{"bike_id":"a3451d83-9c80-4ffa-96f9-a14c25634465","system_id":"levelo_inurba_marseille","lat":43.337444,"lon":5.374475,"is_reserved":false,"is_disabled":false,"rental_uris":{"android":"levelo://app?vid=a3451d83-9c80-4ffa-96f9-a14c25634465","ios":"levelo://app?vid=a3451d83-9c80-4ffa-96f9-a14c25634465"},"vehicle_type_id":"4","last_reported":1762373516,"current_range_meters":0,"station_id":"","pricing_plan_id":"cebpf4jnsgd1na2vs0mg"},{"bike_id":"19649598-fd0f-4237-a302-8b748132eb30","system_id":"levelo_inurba_marseille","lat":43.337444,"lon":5.374475,"is_reserved":false,"is_disabled":false,"rental_uris":{"android":"levelo://app?vid=19649598-fd0f-4237-a302-8b748132eb30","ios":"levelo://app?vid=19649598-fd0f-4237-a302-8b748132eb30"},"vehicle_type_id":"4","last_reported":1762373516,"current_range_meters":0,"station_id":"","pricing_plan_id":"cebpf4jnsgd1na2vs0mg"},{"bike_id":"79f0199f-1fbb-40b2-9337-191d82b520a7","system_id":"levelo_inurba_marseille","lat":43.337444,"lon":5.374475,"is_reserved":false,"is_disabled":false,"rental_uris":{"android":"levelo://app?vid=79f0199f-1fbb-40b2-9337-191d82b520a7","ios":"levelo://app?vid=79f0199f-1fbb-40b2-9337-191d82b520a7"},"vehicle_type_id":"4","last_reported":1762373516,"current_range_meters":0,"station_id":"","pricing_plan_id":"cebpf4jnsgd1na2vs0mg"},{"bike_id":"34a0d96e-bbf5-4ab6-8de8-a56cc767fd57","system_id":"levelo_inurba_marseille","lat":43.337444,"lon":5.374475,"is_reserved":false,"is_disabled":false,"rental_uris":{"android":"levelo://app?vid=34a0d96e-bbf5-4ab6-8de8-a56cc767fd57","ios":"levelo://app?vid=34a0d96e-bbf5-4ab6-8de8-a56cc767fd57"},"vehicle_type_id":"4","last_reported":1762373516,"current_range_meters":0,"station_id":"","pricing_plan_id":"cebpf4jnsgd1na2vs0mg"},{"bike_id":"30c4756b-2e3a-4ac9-b1fb-aa08283eecaa","system_id":"levelo_inurba_marseille","lat":43.337444,"lon":5.374475,"is_reserved":false,"is_disabled":false,"rental_uris":{"android":"levelo://app?vid=30c4756b-2e3a-4ac9-b1fb-aa08283eecaa","ios":"levelo://app?vid=30c4756b-2e3a-4ac9-b1fb-aa08283eecaa"},"vehicle_type_id":"4","last_reported":1762373516,"current_range_meters":0,"station_id":"","pricing_plan_id":"cebpf4jnsgd1na2vs0mg"},{"bike_id":"cb5b6ee7-3ef8-4299-a38d-cc32f035098b","system_id":"levelo_inurba_marseille","lat":43.337444,"lon":5.374475,"is_reserved":false,"is_disabled":false,"rental_uris":{"android":"levelo://app?vid=cb5b6ee7-3ef8-4299-a38d-cc32f035098b","ios":"levelo://app?vid=cb5b6ee7-3ef8-4299-a38d-cc32f035098b"},"vehicle_type_id":"4","last_reported":1762373516,"current_range_meters":0,"station_id":"","pricing_plan_id":"cebpf4jnsgd1na2vs0mg"},{"bike_id":"0dbf8834-1963-4427-879a-60d5139a1252","system_id":"levelo_inurba_marseille","lat":43.337444,"lon":5.374475,"is_reserved":false,"is_disabled":false,"rental_uris":{"android":"levelo://app?vid=0dbf8834-1963-4427-879a-60d5139a1252","ios":"levelo://app?vid=0dbf8834-1963-4427-879a-60d5139a1252"},"vehicle_type_id":"4","last_reported":1762373516,"current_range_meters":0,"station_id":"","pricing_plan_id":"cebpf4jnsgd1na2vs0mg"},{"bike_id":"c3d3ce5c-8075-4b42-9455-beadd1468f17","system_id":"levelo_inurba_marseille","lat":43.337444,"lon":5.374475,"is_reserved":false,"is_disabled":false,"rental_uris":{"android":"levelo://app?vid=c3d3ce5c-8075-4b42-9455-beadd1468f17","ios":"levelo://app?vid=c3d3ce5c-8075-4b42-9455-beadd1468f17"},"vehicle_type_id":"4","last_reported":1762373516,"current_range_meters":0,"station_id":"","pricing_plan_id":"cebpf4jnsgd1na2vs0mg"},{"bike_id":"2177a091-7ad7-4fcd-ad08-e78406d1a8ef","system_id":"levelo_inurba_marseille","lat":43.337444,"lon":5.374475,"is_reserved":false,"is_disabled":false,"rental_uris":{"android":"levelo://app?vid=2177a091-7ad7-4fcd-ad08-e78406d1a8ef","ios":"levelo://app?vid=2177a091-7ad7-4fcd-ad08-e78406d1a8ef"},"vehicle_type_id":"4","last_reported":1762373516,"current_range_meters":0,"station_id":"","pricing_plan_id":"cebpf4jnsgd1na2vs0mg"},{"bike_id":"ed2dc6ad-7a96-47d2-b4d0-3deee38fd62c","system_id":"levelo_inurba_marseille","lat":43.337444,"lon":5.374475,"is_reserved":false,"is_disabled":false,"rental_uris":{"android":"levelo://app?vid=ed2dc6ad-7a96-47d2-b4d0-3deee38fd62c","ios":"levelo://app?vid=ed2dc6ad-7a96-47d2-b4d0-3deee38fd62c"},"vehicle_type_id":"4","last_reported":1762373516,"current_range_meters":0,"station_id":"","pricing_plan_id":"cebpf4jnsgd1na2vs0mg"},{"bike_id":"42735ee1-244b-4d96-8480-f9806199924f","system_id":"levelo_inurba_marseille","lat":43.337444,"lon":5.374475,"is_reserved":false,"is_disabled":false,"rental_uris":{"android":"levelo://app?vid=42735ee1-244b-4d96-8480-f9806199924f","ios":"levelo://app?vid=42735ee1-244b-4d96-8480-f9806199924f"},"vehicle_type_id":"4","last_reported":1762373516,"current_range_meters":0,"station_id":"","pricing_plan_id":"cebpf4jnsgd1na2vs0mg"},{"bike_id":"0d7ab61a-02ec-456f-ab23-ba92f34594d5","system_id":"levelo_inurba_marseille","lat":43.337444,"lon":5.374475,"is_reserved":false,"is_disabled":false,"rental_uris":{"android":"levelo://app?vid=0d7ab61a-02ec-456f-ab23-ba92f34594d5","ios":"levelo://app?vid=0d7ab61a-02ec-456f-ab23-ba92f34594d5"},"vehicle_type_id":"4","last_reported":1762373516,"current_range_meters":0,"station_id":"","pricing_plan_id":"cebpf4jnsgd1na2vs0mg"},{"bike_id":"f68022fa-eb0a-4aac-8aea-6f2e14d0afb9","system_id":"levelo_inurba_marseille","lat":43.337444,"lon":5.374475,"is_reserved":false,"is_disabled":false,"rental_uris":{"android":"levelo://app?vid=f68022fa-eb0a-4aac-8aea-6f2e14d0afb9","ios":"levelo://app?vid=f68022fa-eb0a-4aac-8aea-6f2e14d0afb9"},"vehicle_type_id":"4","last_reported":1762373516,"current_range_meters":0,"station_id":"","pricing_plan_id":"cebpf4jnsgd1na2vs0mg"},{"bike_id":"386a9781-f1f4-4d33-8679-4d1163c3b9de","system_id":"levelo_inurba_marseille","lat":43.337444,"lon":5.374475,"is_reserved":false,"is_disabled":false,"rental_uris":{"android":"levelo://app?vid=386a9781-f1f4-4d33-8679-4d1163c3b9de","ios":"levelo://app?vid=386a9781-f1f4-4d33-8679-4d1163c3b9de"},"vehicle_type_id":"4","last_reported":1762373516,"current_range_meters":0,"station_id":"","pricing_plan_id":"cebpf4jnsgd1na2vs0mg"},{"bike_id":"4692d694-8a80-47c7-a7c6-1264ca94c6df","system_id":"levelo_inurba_marseille","lat":43.337444,"lon":5.374475,"is_reserved":false,"is_disabled":false,"rental_uris":{"android":"levelo://app?vid=4692d694-8a80-47c7-a7c6-1264ca94c6df","ios":"levelo://app?vid=4692d694-8a80-47c7-a7c6-1264ca94c6df"},"vehicle_type_id":"4","last_reported":1762373516,"current_range_meters":0,"station_id":"","pricing_plan_id":"cebpf4jnsgd1na2vs0mg"},{"bike_id":"4706d18d-408c-4dc1-a44f-b0f99f27bdf0","system_id":"levelo_inurba_marseille","lat":43.337444,"lon":5.374475,"is_reserved":false,"is_disabled":false,"rental_uris":{"android":"levelo://app?vid=4706d18d-408c-4dc1-a44f-b0f99f27bdf0","ios":"levelo://app?vid=4706d18d-408c-4dc1-a44f-b0f99f27bdf0"},"vehicle_type_id":"4","last_reported":1762373516,"current_range_meters":0,"station_id":"","pricing_plan_id":"cebpf4jnsgd1na2vs0mg"},{"bike_id":"abb77335-fe7b-4b75-9b2f-be4bb45cbb0d","system_id":"levelo_inurba_marseille","lat":43.337444,"lon":5.374475,"is_reserved":false,"is_disabled":false,"rental_uris":{"android":"levelo://app?vid=abb77335-fe7b-4b75-9b2f-be4bb45cbb0d","ios":"levelo://app?vid=abb77335-fe7b-4b75-9b2f-be4bb45cbb0d"},"vehicle_type_id":"4","last_reported":1762373516,"current_range_meters":0,"station_id":"","pricing_plan_id":"cebpf4jnsgd1na2vs0mg"},{"bike_id":"4bde9393-6919-41f3-8fef-f4b40f375cc0","system_id":"levelo_inurba_marseille","lat":43.337444,"lon":5.374475,"is_reserved":false,"is_disabled":false,"rental_uris":{"android":"levelo://app?vid=4bde9393-6919-41f3-8fef-f4b40f375cc0","ios":"levelo://app?vid=4bde9393-6919-41f3-8fef-f4b40f375cc0"},"vehicle_type_id":"4","last_reported":1762373516,"current_range_meters":0,"station_id":"","pricing_plan_id":"cebpf4jnsgd1na2vs0mg"},{"bike_id":"51f4e824-5009-4c5b-9283-cfda2d34404c","system_id":"levelo_inurba_marseille","lat":43.337444,"lon":5.374475,"is_reserved":false,"is_disabled":false,"rental_uris":{"android":"levelo://app?vid=51f4e824-5009-4c5b-9283-cfda2d34404c","ios":"levelo://app?vid=51f4e824-5009-4c5b-9283-cfda2d34404c"},"vehicle_type_id":"4","last_reported":1762373516,"current_range_meters":0,"station_id":"","pricing_plan_id":"cebpf4jnsgd1na2vs0mg"},{"bike_id":"d155d58c-f50a-4469-b126-b5af1b8d3f8a","system_id":"levelo_inurba_marseille","lat":43.337444,"lon":5.374475,"is_reserved":false,"is_disabled":false,"rental_uris":{"android":"levelo://app?vid=d155d58c-f50a-4469-b126-b5af1b8d3f8a","ios":"levelo://app?vid=d155d58c-f50a-4469-b126-b5af1b8d3f8a"},"vehicle_type_id":"4","last_reported":1762373516,"current_range_meters":0,"station_id":"","pricing_plan_id":"cebpf4jnsgd1na2vs0mg"},{"bike_id":"16f471c2-a8ed-4e61-ba2a-d83085a9c284","system_id":"levelo_inurba_marseille","lat":43.337444,"lon":5.374475,"is_reserved":false,"is_disabled":false,"rental_uris":{"android":"levelo://app?vid=16f471c2-a8ed-4e61-ba2a-d83085a9c284","ios":"levelo://app?vid=16f471c2-a8ed-4e61-ba2a-d83085a9c284"},"vehicle_type_id":"4","last_reported":1762373516,"current_range_meters":0,"station_id":"","pricing_plan_id":"cebpf4jnsgd1na2vs0mg"},{"bike_id":"b8bd4cc4-f519-43de-b194-2cc2cf75483c","system_id":"levelo_inurba_marseille","lat":43.337444,"lon":5.374475,"is_reserved":false,"is_disabled":false,"rental_uris":{"android":"levelo://app?vid=b8bd4cc4-f519-43de-b194-2cc2cf75483c","ios":"levelo://app?vid=b8bd4cc4-f519-43de-b194-2cc2cf75483c"},"vehicle_type_id":"4","last_reported":1762373516,"current_range_meters":0,"station_id":"","pricing_plan_id":"cebpf4jnsgd1na2vs0mg"},{"bike_id":"591b062c-0423-40a0-9120-f7c30f97e98f","system_id":"levelo_inurba_marseille","lat":43.337444,"lon":5.374475,"is_reserved":false,"is_disabled":false,"rental_uris":{"android":"levelo://app?vid=591b062c-0423-40a0-9120-f7c30f97e98f","ios":"levelo://app?vid=591b062c-0423-40a0-9120-f7c30f97e98f"},"vehicle_type_id":"4","last_reported":1762373516,"current_range_meters":0,"station_id":"","pricing_plan_id":"cebpf4jnsgd1na2vs0mg"},{"bike_id":"8fbb8d57-565e-4232-a867-846a316b3375","system_id":"levelo_inurba_marseille","lat":43.337444,"lon":5.374475,"is_reserved":false,"is_disabled":false,"rental_uris":{"android":"levelo://app?vid=8fbb8d57-565e-4232-a867-846a316b3375","ios":"levelo://app?vid=8fbb8d57-565e-4232-a867-846a316b3375"},"vehicle_type_id":"4","last_reported":1762373516,"current_range_meters":0,"station_id":"","pricing_plan_id":"cebpf4jnsgd1na2vs0mg"},{"bike_id":"e6134458-396f-46c5-87ab-a79cf2b6424c","system_id":"levelo_inurba_marseille","lat":43.337444,"lon":5.374475,"is_reserved":false,"is_disabled":false,"rental_uris":{"android":"levelo://app?vid=e6134458-396f-46c5-87ab-a79cf2b6424c","ios":"levelo://app?vid=e6134458-396f-46c5-87ab-a79cf2b6424c"},"vehicle_type_id":"4","last_reported":1762373516,"current_range_meters":0,"station_id":"","pricing_plan_id":"cebpf4jnsgd1na2vs0mg"},{"bike_id":"0a0d4295-fe5b-4614-b2ca-f5579d5190b0","system_id":"levelo_inurba_marseille","lat":43.337444,"lon":5.374475,"is_reserved":false,"is_disabled":false,"rental_uris":{"android":"levelo://app?vid=0a0d4295-fe5b-4614-b2ca-f5579d5190b0","ios":"levelo://app?vid=0a0d4295-fe5b-4614-b2ca-f5579d5190b0"},"vehicle_type_id":"4","last_reported":1762373516,"current_range_meters":0,"station_id":"","pricing_plan_id":"cebpf4jnsgd1na2vs0mg"},{"bike_id":"15a0b5ec-4d83-443e-87fd-6e2e81f86e78","system_id":"levelo_inurba_marseille","lat":43.30421,"lon":5.41289,"is_reserved":false,"is_disabled":false,"rental_uris":{"android":"levelo://app?vid=15a0b5ec-4d83-443e-87fd-6e2e81f86e78","ios":"levelo://app?vid=15a0b5ec-4d83-443e-87fd-6e2e81f86e78"},"vehicle_type_id":"4","last_reported":1762373516,"current_range_meters":2800,"station_id":"ce4bhop2rcd13ifvqh8g","pricing_plan_id":"cebpf4jnsgd1na2vs0mg"},{"bike_id":"4206fd1c-fca5-4468-81b6-1c50d2a4a589","system_id":"levelo_inurba_marseille","lat":43.29783,"lon":5.43811,"is_reserved":false,"is_disabled":false,"rental_uris":{"android":"levelo://app?vid=4206fd1c-fca5-4468-81b6-1c50d2a4a589","ios":"levelo://app?vid=4206fd1c-fca5-4468-81b6-1c50d2a4a589"},"vehicle_type_id":"4","last_reported":1762373516,"current_range_meters":2800,"station_id":"","pricing_plan_id":"cebpf4jnsgd1na2vs0mg"},{"bike_id":"b0418e68-97f3-4215-b387-3e8df0a28e30","system_id":"levelo_inurba_marseille","lat":43.303,"lon":5.39198,"is_reserved":false,"is_disabled":false,"rental_uris":{"android":"levelo://app?vid=b0418e68-97f3-4215-b387-3e8df0a28e30","ios":"levelo://app?vid=b0418e68-97f3-4215-b387-3e8df0a28e30"},"vehicle_type_id":"4","last_reported":1762373516,"current_range_meters":2800,"station_id":"ce4bgkh2rcd13ifvqbk0","pricing_plan_id":"cebpf4jnsgd1na2vs0mg"},{"bike_id":"4e27acb6-3b75-44f3-ad47-5b18d83a951a","system_id":"levelo_inurba_marseille","lat":43.2511,"lon":5.40328,"is_reserved":false,"is_disabled":false,"rental_uris":{"android":"levelo://app?vid=4e27acb6-3b75-44f3-ad47-5b18d83a951a","ios":"levelo://app?vid=4e27acb6-3b75-44f3-ad47-5b18d83a951a"},"vehicle_type_id":"4","last_reported":1762373516,"current_range_meters":2800,"station_id":"ce4bhlh2rcd13ifvqgig","pricing_plan_id":"cebpf4jnsgd1na2vs0mg"},{"bike_id":"f92a4c54-97d6-43bc-b8be-b7d9858ec53f","system_id":"levelo_inurba_marseille","lat":43.25336,"lon":5.42169,"is_reserved":false,"is_disabled":false,"rental_uris":{"android":"levelo://app?vid=f92a4c54-97d6-43bc-b8be-b7d9858ec53f","ios":"levelo://app?vid=f92a4c54-97d6-43bc-b8be-b7d9858ec53f"},"vehicle_type_id":"4","last_reported":1762373516,"current_range_meters":2800,"station_id":"","pricing_plan_id":"cebpf4jnsgd1na2vs0mg"},{"bike_id":"df901744-052b-4596-be21-45d27cbc1916","system_id":"levelo_inurba_marseille","lat":43.2855,"lon":5.44086,"is_reserved":false,"is_disabled":false,"rental_uris":{"android":"levelo://app?vid=df901744-052b-4596-be21-45d27cbc1916","ios":"levelo://app?vid=df901744-052b-4596-be21-45d27cbc1916"},"vehicle_type_id":"4","last_reported":1762373516,"current_range_meters":3200,"station_id":"st_d3j3df2ikq2c7380ej80","pricing_plan_id":"cebpf4jnsgd1na2vs0mg"},{"bike_id":"f62f5640-12bb-411c-b8bc-f538e42a7bd8","system_id":"levelo_inurba_marseille","lat":43.2928,"lon":5.40123,"is_reserved":false,"is_disabled":false,"rental_uris":{"android":"levelo://app?vid=f62f5640-12bb-411c-b8bc-f538e42a7bd8","ios":"levelo://app?vid=f62f5640-12bb-411c-b8bc-f538e42a7bd8"},"vehicle_type_id":"4","last_reported":1762373516,"current_range_meters":3200,"station_id":"ce4bh312rcd13ifvqdk0","pricing_plan_id":"cebpf4jnsgd1na2vs0mg"},{"bike_id":"d8617524-dd90-4d45-8358-94d45024fd38","system_id":"levelo_inurba_marseille","lat":43.31285,"lon":5.4014,"is_reserved":false,"is_disabled":false,"rental_uris":{"android":"levelo://app?vid=d8617524-dd90-4d45-8358-94d45024fd38","ios":"levelo://app?vid=d8617524-dd90-4d45-8358-94d45024fd38"},"vehicle_type_id":"4","last_reported":1762373516,"current_range_meters":3200,"station_id":"ce4bh092rcd13ifvqd30","pricing_plan_id":"cebpf4jnsgd1na2vs0mg"},{"bike_id":"d456b96b-ba95-4c97-b335-35f95d7d62c9","system_id":"levelo_inurba_marseille","lat":43.29515,"lon":5.394,"is_reserved":false,"is_disabled":false,"rental_uris":{"android":"levelo://app?vid=d456b96b-ba95-4c97-b335-35f95d7d62c9","ios":"levelo://app?vid=d456b96b-ba95-4c97-b335-35f95d7d62c9"},"vehicle_type_id":"4","last_reported":1762373516,"current_range_meters":3200,"station_id":"ce4bh292rcd13ifvqdf0","pricing_plan_id":"cebpf4jnsgd1na2vs0mg"},{"bike_id":"86f85ab4-b65b-4a1e-970d-24ea2872d8d8","system_id":"levelo_inurba_marseille","lat":43.24648,"lon":5.38887,"is_reserved":false,"is_disabled":false,"rental_uris":{"android":"levelo://app?vid=86f85ab4-b65b-4a1e-970d-24ea2872d8d8","ios":"levelo://app?vid=86f85ab4-b65b-4a1e-970d-24ea2872d8d8"},"vehicle_type_id":"4","last_reported":1762373516,"current_range_meters":3200,"station_id":"ce4bhg12rcd13ifvqf60","pricing_plan_id":"cebpf4jnsgd1na2vs0mg"},{"bike_id":"0acdce5f-d418-42b9-ba16-830bca4e085c","system_id":"levelo_inurba_marseille","lat":43.3065,"lon":5.40066,"is_reserved":false,"is_disabled":false,"rental_uris":{"android":"levelo://app?vid=0acdce5f-d418-42b9-ba16-830bca4e085c","ios":"levelo://app?vid=0acdce5f-d418-42b9-ba16-830bca4e085c"},"vehicle_type_id":"4","last_reported":1762373516,"current_range_meters":3200,"station_id":"","pricing_plan_id":"cebpf4jnsgd1na2vs0mg"},{"bike_id":"90e1baec-3013-4a7e-ab21-e0da7a74a8b6","system_id":"levelo_inurba_marseille","lat":43.3042,"lon":5.39732,"is_reserved":false,"is_disabled":false,"rental_uris":{"android":"levelo://app?vid=90e1baec-3013-4a7e-ab21-e0da7a74a8b6","ios":"levelo://app?vid=90e1baec-3013-4a7e-ab21-e0da7a74a8b6"},"vehicle_type_id":"4","last_reported":1762373516,"current_range_meters":3600,"station_id":"ce4bh092rcd13ifvqd20","pricing_plan_id":"cebpf4jnsgd1na2vs0mg"},{"bike_id":"28b85111-1e3c-4e94-9d4a-5a837507bfee","system_id":"levelo_inurba_marseille","lat":43.29714,"lon":5.42635,"is_reserved":false,"is_disabled":false,"rental_uris":{"android":"levelo://app?vid=28b85111-1e3c-4e94-9d4a-5a837507bfee","ios":"levelo://app?vid=28b85111-1e3c-4e94-9d4a-5a837507bfee"},"vehicle_type_id":"4","last_reported":1762373516,"current_range_meters":4000,"station_id":"","pricing_plan_id":"cebpf4jnsgd1na2vs0mg"},{"bike_id":"4f3747fa-ff3c-4c92-b438-60a81060f823","system_id":"levelo_inurba_marseille","lat":43.27207,"lon":5.39179,"is_reserved":false,"is_disabled":false,"rental_uris":{"android":"levelo://app?vid=4f3747fa-ff3c-4c92-b438-60a81060f823","ios":"levelo://app?vid=4f3747fa-ff3c-4c92-b438-60a81060f823"},"vehicle_type_id":"4","last_reported":1762373516,"current_range_meters":4000,"station_id":"ce4bhhp2rcd13ifvqfm0","pricing_plan_id":"cebpf4jnsgd1na2vs0mg"},{"bike_id":"ebddb370-d644-4dfb-a2c2-26834be21211","system_id":"levelo_inurba_marseille","lat":43.26927,"lon":5.39281,"is_reserved":false,"is_disabled":false,"rental_uris":{"android":"levelo://app?vid=ebddb370-d644-4dfb-a2c2-26834be21211","ios":"levelo://app?vid=ebddb370-d644-4dfb-a2c2-26834be21211"},"vehicle_type_id":"4","last_reported":1762373516,"current_range_meters":4000,"station_id":"","pricing_plan_id":"cebpf4jnsgd1na2vs0mg"},{"bike_id":"3f1b2ab2-cd04-4610-86eb-9a545a9229bb","system_id":"levelo_inurba_marseille","lat":43.27057,"lon":5.40261,"is_reserved":false,"is_disabled":false,"rental_uris":{"android":"levelo://app?vid=3f1b2ab2-cd04-4610-86eb-9a545a9229bb","ios":"levelo://app?vid=3f1b2ab2-cd04-4610-86eb-9a545a9229bb"},"vehicle_type_id":"4","last_reported":1762373516,"current_range_meters":4000,"station_id":"ce4bhk92rcd13ifvqgc0","pricing_plan_id":"cebpf4jnsgd1na2vs0mg"},{"bike_id":"055afc8f-3162-4111-ba40-c9ccd5e01fac","system_id":"levelo_inurba_marseille","lat":43.28,"lon":5.41661,"is_reserved":false,"is_disabled":false,"rental_uris":{"android":"levelo://app?vid=055afc8f-3162-4111-ba40-c9ccd5e01fac","ios":"levelo://app?vid=055afc8f-3162-4111-ba40-c9ccd5e01fac"},"vehicle_type_id":"4","last_reported":1762373516,"current_range_meters":4000,"station_id":"ce4bho12rcd13ifvqh1g","pricing_plan_id":"cebpf4jnsgd1na2vs0mg"},{"bike_id":"c76b2c5b-16e9-4c55-870e-400171fa768d","system_id":"levelo_inurba_marseille","lat":43.29567,"lon":5.42262,"is_reserved":false,"is_disabled":false,"rental_uris":{"android":"levelo://app?vid=c76b2c5b-16e9-4c55-870e-400171fa768d","ios":"levelo://app?vid=c76b2c5b-16e9-4c55-870e-400171fa768d"},"vehicle_type_id":"4","last_reported":1762373516,"current_range_meters":4400,"station_id":"ce4bhph2rcd13ifvqhdg","pricing_plan_id":"cebpf4jnsgd1na2vs0mg"},{"bike_id":"5c0897a1-671b-4705-8967-4c5a43bc394a","system_id":"levelo_inurba_marseille","lat":43.24948,"lon":5.40499,"is_reserved":false,"is_disabled":false,"rental_uris":{"android":"levelo://app?vid=5c0897a1-671b-4705-8967-4c5a43bc394a","ios":"levelo://app?vid=5c0897a1-671b-4705-8967-4c5a43bc394a"},"vehicle_type_id":"4","last_reported":1762373516,"current_range_meters":4400,"station_id":"st_d2ngiaodas8pm72gd1h0","pricing_plan_id":"cebpf4jnsgd1na2vs0mg"},{"bike_id":"0ff958d9-090b-4bf1-8151-6715fcc1ff0a","system_id":"levelo_inurba_marseille","lat":43.32277,"lon":5.38268,"is_reserved":false,"is_disabled":false,"rental_uris":{"android":"levelo://app?vid=0ff958d9-090b-4bf1-8151-6715fcc1ff0a","ios":"levelo://app?vid=0ff958d9-090b-4bf1-8151-6715fcc1ff0a"},"vehicle_type_id":"4","last_reported":1762373516,"current_range_meters":4400,"station_id":"ce4bhr12rcd13ifvqhqg","pricing_plan_id":"cebpf4jnsgd1na2vs0mg"},{"bike_id":"66ce82ad-0c74-48cb-8d84-0d85676fdd27","system_id":"levelo_inurba_marseille","lat":43.27977,"lon":5.4167,"is_reserved":false,"is_disabled":false,"rental_uris":{"android":"levelo://app?vid=66ce82ad-0c74-48cb-8d84-0d85676fdd27","ios":"levelo://app?vid=66ce82ad-0c74-48cb-8d84-0d85676fdd27"},"vehicle_type_id":"4","last_reported":1762373516,"current_range_meters":4800,"station_id":"ce4bho12rcd13ifvqh1g","pricing_plan_id":"cebpf4jnsgd1na2vs0mg"},{"bike_id":"55eb6411-d7ee-4be5-b30d-df2c88700b15","system_id":"levelo_inurba_marseille","lat":43.27944,"lon":5.41047,"is_reserved":false,"is_disabled":false,"rental_uris":{"android":"levelo://app?vid=55eb6411-d7ee-4be5-b30d-df2c88700b15","ios":"levelo://app?vid=55eb6411-d7ee-4be5-b30d-df2c88700b15"},"vehicle_type_id":"4","last_reported":1762373516,"current_range_meters":4800,"station_id":"ce4bhnp2rcd13ifvqh0g","pricing_plan_id":"cebpf4jnsgd1na2vs0mg"},{"bike_id":"2685a6d9-ac11-4ea0-907e-75b0c860c792","system_id":"levelo_inurba_marseille","lat":43.304288,"lon":5.388897,"is_reserved":false,"is_disabled":false,"rental_uris":{"android":"levelo://app?vid=2685a6d9-ac11-4ea0-907e-75b0c860c792","ios":"levelo://app?vid=2685a6d9-ac11-4ea0-907e-75b0c860c792"},"vehicle_type_id":"4","last_reported":1762373516,"current_range_meters":4800,"station_id":"ce4bgk12rcd13ifvqbi0","pricing_plan_id":"cebpf4jnsgd1na2vs0mg"},{"bike_id":"3ac41fca-6f80-4e3f-8c88-8657f5fdaf09","system_id":"levelo_inurba_marseille","lat":43.284097,"lon":5.375045,"is_reserved":false,"is_disabled":false,"rental_uris":{"android":"levelo://app?vid=3ac41fca-6f80-4e3f-8c88-8657f5fdaf09","ios":"levelo://app?vid=3ac41fca-6f80-4e3f-8c88-8657f5fdaf09"},"vehicle_type_id":"4","last_reported":1762373516,"current_range_meters":4800,"station_id":"ce4bh412rcd13ifvqds0","pricing_plan_id":"cebpf4jnsgd1na2vs0mg"},{"bike_id":"dc94cbf0-a7dc-49d0-af22-8056548a33b8","system_id":"levelo_inurba_marseille","lat":43.28524,"lon":5.44103,"is_reserved":false,"is_disabled":false,"rental_uris":{"android":"levelo://app?vid=dc94cbf0-a7dc-49d0-af22-8056548a33b8","ios":"levelo://app?vid=dc94cbf0-a7dc-49d0-af22-8056548a33b8"},"vehicle_type_id":"4","last_reported":1762373516,"current_range_meters":5600,"station_id":"st_d3j3df2ikq2c7380ej80","pricing_plan_id":"cebpf4jnsgd1na2vs0mg"},{"bike_id":"0105a9a2-b497-4901-9eea-6cc385d37530","system_id":"levelo_inurba_marseille","lat":43.32538,"lon":5.41423,"is_reserved":false,"is_disabled":false,"rental_uris":{"android":"levelo://app?vid=0105a9a2-b497-4901-9eea-6cc385d37530","ios":"levelo://app?vid=0105a9a2-b497-4901-9eea-6cc385d37530"},"vehicle_type_id":"4","last_reported":1762373516,"current_range_meters":5600,"station_id":"ce4bhq12rcd13ifvqhhg","pricing_plan_id":"cebpf4jnsgd1na2vs0mg"},{"bike_id":"5f5d804e-0782-4c11-bcfe-9ffb7deba76e","system_id":"levelo_inurba_marseille","lat":43.296173,"lon":5.405943,"is_reserved":false,"is_disabled":false,"rental_uris":{"android":"levelo://app?vid=5f5d804e-0782-4c11-bcfe-9ffb7deba76e","ios":"levelo://app?vid=5f5d804e-0782-4c11-bcfe-9ffb7deba76e"},"vehicle_type_id":"4","last_reported":1762373516,"current_range_meters":5600,"station_id":"ce4bh0h2rcd13ifvqd60","pricing_plan_id":"cebpf4jnsgd1na2vs0mg"},{"bike_id":"d26200f9-fbad-41d6-88cc-4878b3d38dc2","system_id":"levelo_inurba_marseille","lat":43.2781,"lon":5.40713,"is_reserved":false,"is_disabled":false,"rental_uris":{"android":"levelo://app?vid=d26200f9-fbad-41d6-88cc-4878b3d38dc2","ios":"levelo://app?vid=d26200f9-fbad-41d6-88cc-4878b3d38dc2"},"vehicle_type_id":"4","last_reported":1762373516,"current_range_meters":6000,"station_id":"ce4bhnh2rcd13ifvqgtg","pricing_plan_id":"cebpf4jnsgd1na2vs0mg"},{"bike_id":"ca027186-72c6-4358-8d7a-70b219e6273a","system_id":"levelo_inurba_marseille","lat":43.35097,"lon":5.38084,"is_reserved":false,"is_disabled":false,"rental_uris":{"android":"levelo://app?vid=ca027186-72c6-4358-8d7a-70b219e6273a","ios":"levelo://app?vid=ca027186-72c6-4358-8d7a-70b219e6273a"},"vehicle_type_id":"4","last_reported":1762373516,"current_range_meters":6400,"station_id":"","pricing_plan_id":"cebpf4jnsgd1na2vs0mg"},{"bike_id":"654dc482-8458-4686-a09b-a5e21a822232","system_id":"levelo_inurba_marseille","lat":43.23191,"lon":5.35577,"is_reserved":false,"is_disabled":true,"rental_uris":{"android":"levelo://app?vid=654dc482-8458-4686-a09b-a5e21a822232","ios":"levelo://app?vid=654dc482-8458-4686-a09b-a5e21a822232"},"vehicle_type_id":"4","last_reported":1762373516,"current_range_meters":6400,"station_id":"ce4bhu92rcd13ifvqi70","pricing_plan_id":"cebpf4jnsgd1na2vs0mg"},{"bike_id":"e5170a12-094a-4cbd-98e0-7900d9024634","system_id":"levelo_inurba_marseille","lat":43.307828,"lon":5.372517,"is_reserved":false,"is_disabled":false,"rental_uris":{"android":"levelo://app?vid=e5170a12-094a-4cbd-98e0-7900d9024634","ios":"levelo://app?vid=e5170a12-094a-4cbd-98e0-7900d9024634"},"vehicle_type_id":"4","last_reported":1762373516,"current_range_meters":6400,"station_id":"ce4bguh2rcd13ifvqckg","pricing_plan_id":"cebpf4jnsgd1na2vs0mg"},{"bike_id":"0a75f09b-a853-48ad-a01f-c03927cf5a46","system_id":"levelo_inurba_marseille","lat":43.27208,"lon":5.39183,"is_reserved":false,"is_disabled":false,"rental_uris":{"android":"levelo://app?vid=0a75f09b-a853-48ad-a01f-c03927cf5a46","ios":"levelo://app?vid=0a75f09b-a853-48ad-a01f-c03927cf5a46"},"vehicle_type_id":"4","last_reported":1762373516,"current_range_meters":6400,"station_id":"ce4bhhp2rcd13ifvqfm0","pricing_plan_id":"cebpf4jnsgd1na2vs0mg"},{"bike_id":"ff420896-190c-4469-a623-7541d4f33707","system_id":"levelo_inurba_marseille","lat":43.27833,"lon":5.3919,"is_reserved":false,"is_disabled":false,"rental_uris":{"android":"levelo://app?vid=ff420896-190c-4469-a623-7541d4f33707","ios":"levelo://app?vid=ff420896-190c-4469-a623-7541d4f33707"},"vehicle_type_id":"4","last_reported":1762373516,"current_range_meters":6800,"station_id":"ce4bhjp2rcd13ifvqga0","pricing_plan_id":"cebpf4jnsgd1na2vs0mg"},{"bike_id":"68306d4b-effe-4afe-a78b-58d7f0a5aebc","system_id":"levelo_inurba_marseille","lat":43.27825,"lon":5.4069,"is_reserved":false,"is_disabled":false,"rental_uris":{"android":"levelo://app?vid=68306d4b-effe-4afe-a78b-58d7f0a5aebc","ios":"levelo://app?vid=68306d4b-effe-4afe-a78b-58d7f0a5aebc"},"vehicle_type_id":"4","last_reported":1762373516,"current_range_meters":6800,"station_id":"ce4bhnh2rcd13ifvqgtg","pricing_plan_id":"cebpf4jnsgd1na2vs0mg"},{"bike_id":"e929df9d-cd92-4fb5-8728-4e59e9728703","system_id":"levelo_inurba_marseille","lat":43.295746,"lon":5.399744,"is_reserved":false,"is_disabled":false,"rental_uris":{"android":"levelo://app?vid=e929df9d-cd92-4fb5-8728-4e59e9728703","ios":"levelo://app?vid=e929df9d-cd92-4fb5-8728-4e59e9728703"},"vehicle_type_id":"4","last_reported":1762373516,"current_range_meters":6800,"station_id":"ce4bh312rcd13ifvqdj0","pricing_plan_id":"cebpf4jnsgd1na2vs0mg"},{"bike_id":"5e6b5e6b-9f8a-43ab-9eb8-b69e41a6c1e6","system_id":"levelo_inurba_marseille","lat":43.225298,"lon":5.348365,"is_reserved":false,"is_disabled":false,"rental_uris":{"android":"levelo://app?vid=5e6b5e6b-9f8a-43ab-9eb8-b69e41a6c1e6","ios":"levelo://app?vid=5e6b5e6b-9f8a-43ab-9eb8-b69e41a6c1e6"},"vehicle_type_id":"4","last_reported":1762373516,"current_range_meters":7200,"station_id":"","pricing_plan_id":"cebpf4jnsgd1na2vs0mg"},{"bike_id":"3f8c732a-c3ba-495c-84dc-67f52c9e8d41","system_id":"levelo_inurba_marseille","lat":43.27994,"lon":5.41664,"is_reserved":false,"is_disabled":false,"rental_uris":{"android":"levelo://app?vid=3f8c732a-c3ba-495c-84dc-67f52c9e8d41","ios":"levelo://app?vid=3f8c732a-c3ba-495c-84dc-67f52c9e8d41"},"vehicle_type_id":"4","last_reported":1762373516,"current_range_meters":7200,"station_id":"ce4bho12rcd13ifvqh1g","pricing_plan_id":"cebpf4jnsgd1na2vs0mg"},{"bike_id":"c7173e1f-51a6-40ff-979f-aca44a8cad2b","system_id":"levelo_inurba_marseille","lat":43.266815,"lon":5.38284,"is_reserved":false,"is_disabled":false,"rental_uris":{"android":"levelo://app?vid=c7173e1f-51a6-40ff-979f-aca44a8cad2b","ios":"levelo://app?vid=c7173e1f-51a6-40ff-979f-aca44a8cad2b"},"vehicle_type_id":"4","last_reported":1762373516,"current_range_meters":7200,"station_id":"ce4bhbh2rcd13ifvqeqg","pricing_plan_id":"cebpf4jnsgd1na2vs0mg"},{"bike_id":"d6d02890-e7bf-45ab-91f6-96746905c4d2","system_id":"levelo_inurba_marseille","lat":43.27978,"lon":5.38731,"is_reserved":false,"is_disabled":false,"rental_uris":{"android":"levelo://app?vid=d6d02890-e7bf-45ab-91f6-96746905c4d2","ios":"levelo://app?vid=d6d02890-e7bf-45ab-91f6-96746905c4d2"},"vehicle_type_id":"4","last_reported":1762373516,"current_range_meters":7200,"station_id":"ce4bhg12rcd13ifvqf80","pricing_plan_id":"cebpf4jnsgd1na2vs0mg"},{"bike_id":"7c572724-d246-444c-a818-2550f93cae1a","system_id":"levelo_inurba_marseille","lat":43.28823,"lon":5.38619,"is_reserved":false,"is_disabled":false,"rental_uris":{"android":"levelo://app?vid=7c572724-d246-444c-a818-2550f93cae1a","ios":"levelo://app?vid=7c572724-d246-444c-a818-2550f93cae1a"},"vehicle_type_id":"4","last_reported":1762373516,"current_range_meters":7200,"station_id":"","pricing_plan_id":"cebpf4jnsgd1na2vs0mg"},{"bike_id":"dbe83fc1-5783-48c3-91aa-350328eabbc6","system_id":"levelo_inurba_marseille","lat":43.279944,"lon":5.400108,"is_reserved":false,"is_disabled":false,"rental_uris":{"android":"levelo://app?vid=dbe83fc1-5783-48c3-91aa-350328eabbc6","ios":"levelo://app?vid=dbe83fc1-5783-48c3-91aa-350328eabbc6"},"vehicle_type_id":"4","last_reported":1762373516,"current_range_meters":7200,"station_id":"ce4bhdp2rcd13ifvqf20","pricing_plan_id":"cebpf4jnsgd1na2vs0mg"},{"bike_id":"0fd9a4f6-3e68-4532-b998-4e8283147a80","system_id":"levelo_inurba_marseille","lat":43.314832,"lon":5.372002,"is_reserved":false,"is_disabled":false,"rental_uris":{"android":"levelo://app?vid=0fd9a4f6-3e68-4532-b998-4e8283147a80","ios":"levelo://app?vid=0fd9a4f6-3e68-4532-b998-4e8283147a80"},"vehicle_type_id":"4","last_reported":1762373516,"current_range_meters":7200,"station_id":"ce4bgt12rcd13ifvqcd0","pricing_plan_id":"cebpf4jnsgd1na2vs0mg"},{"bike_id":"43241b2a-4cb5-4e4c-8865-8a8693625499","system_id":"levelo_inurba_marseille","lat":43.31267,"lon":5.37865,"is_reserved":false,"is_disabled":false,"rental_uris":{"android":"levelo://app?vid=43241b2a-4cb5-4e4c-8865-8a8693625499","ios":"levelo://app?vid=43241b2a-4cb5-4e4c-8865-8a8693625499"},"vehicle_type_id":"4","last_reported":1762373516,"current_range_meters":7200,"station_id":"","pricing_plan_id":"cebpf4jnsgd1na2vs0mg"},{"bike_id":"b3b3fcde-ef29-4ae9-9661-53fb5ec40466","system_id":"levelo_inurba_marseille","lat":43.31114,"lon":5.39389,"is_reserved":false,"is_disabled":false,"rental_uris":{"android":"levelo://app?vid=b3b3fcde-ef29-4ae9-9661-53fb5ec40466","ios":"levelo://app?vid=b3b3fcde-ef29-4ae9-9661-53fb5ec40466"},"vehicle_type_id":"4","last_reported":1762373516,"current_range_meters":8000,"station_id":"","pricing_plan_id":"cebpf4jnsgd1na2vs0mg"},{"bike_id":"2ff4e5c1-72e3-46ac-b47f-7d507bf191b8","system_id":"levelo_inurba_marseille","lat":43.26552,"lon":5.37278,"is_reserved":false,"is_disabled":false,"rental_uris":{"android":"levelo://app?vid=2ff4e5c1-72e3-46ac-b47f-7d507bf191b8","ios":"levelo://app?vid=2ff4e5c1-72e3-46ac-b47f-7d507bf191b8"},"vehicle_type_id":"4","last_reported":1762373516,"current_range_meters":8000,"station_id":"ce4bhg12rcd13ifvqf70","pricing_plan_id":"cebpf4jnsgd1na2vs0mg"},{"bike_id":"f7a192fe-ecfa-451f-8d3a-3c4f39209fc4","system_id":"levelo_inurba_marseille","lat":43.32368,"lon":5.38886,"is_reserved":false,"is_disabled":false,"rental_uris":{"android":"levelo://app?vid=f7a192fe-ecfa-451f-8d3a-3c4f39209fc4","ios":"levelo://app?vid=f7a192fe-ecfa-451f-8d3a-3c4f39209fc4"},"vehicle_type_id":"4","last_reported":1762373516,"current_range_meters":8000,"station_id":"ce4bhqp2rcd13ifvqhog","pricing_plan_id":"cebpf4jnsgd1na2vs0mg"},{"bike_id":"37c890a1-77b8-4d6a-bdb3-3b3ccd99e141","system_id":"levelo_inurba_marseille","lat":43.28408,"lon":5.37509,"is_reserved":false,"is_disabled":false,"rental_uris":{"android":"levelo://app?vid=37c890a1-77b8-4d6a-bdb3-3b3ccd99e141","ios":"levelo://app?vid=37c890a1-77b8-4d6a-bdb3-3b3ccd99e141"},"vehicle_type_id":"4","last_reported":1762373516,"current_range_meters":8000,"station_id":"ce4bh412rcd13ifvqds0","pricing_plan_id":"cebpf4jnsgd1na2vs0mg"},{"bike_id":"547244af-9811-43f3-89a5-463f758e281f","system_id":"levelo_inurba_marseille","lat":43.32285,"lon":5.3827,"is_reserved":false,"is_disabled":false,"rental_uris":{"android":"levelo://app?vid=547244af-9811-43f3-89a5-463f758e281f","ios":"levelo://app?vid=547244af-9811-43f3-89a5-463f758e281f"},"vehicle_type_id":"4","last_reported":1762373516,"current_range_meters":8000,"station_id":"ce4bhr12rcd13ifvqhqg","pricing_plan_id":"cebpf4jnsgd1na2vs0mg"},{"bike_id":"6963bbcf-10e1-4c1c-9f62-f9a65d370418","system_id":"levelo_inurba_marseille","lat":43.28528,"lon":5.44101,"is_reserved":false,"is_disabled":false,"rental_uris":{"android":"levelo://app?vid=6963bbcf-10e1-4c1c-9f62-f9a65d370418","ios":"levelo://app?vid=6963bbcf-10e1-4c1c-9f62-f9a65d370418"},"vehicle_type_id":"4","last_reported":1762373516,"current_range_meters":8000,"station_id":"st_d3j3df2ikq2c7380ej80","pricing_plan_id":"cebpf4jnsgd1na2vs0mg"},{"bike_id":"d11680f9-14a9-41bf-ae70-b3dff108d58a","system_id":"levelo_inurba_marseille","lat":43.29551,"lon":5.42274,"is_reserved":false,"is_disabled":false,"rental_uris":{"android":"levelo://app?vid=d11680f9-14a9-41bf-ae70-b3dff108d58a","ios":"levelo://app?vid=d11680f9-14a9-41bf-ae70-b3dff108d58a"},"vehicle_type_id":"4","last_reported":1762373516,"current_range_meters":8000,"station_id":"ce4bhph2rcd13ifvqhdg","pricing_plan_id":"cebpf4jnsgd1na2vs0mg"},{"bike_id":"ad483091-7411-4e16-8cc4-09042e8161f5","system_id":"levelo_inurba_marseille","lat":43.273468,"lon":5.385179,"is_reserved":false,"is_disabled":true,"rental_uris":{"android":"levelo://app?vid=ad483091-7411-4e16-8cc4-09042e8161f5","ios":"levelo://app?vid=ad483091-7411-4e16-8cc4-09042e8161f5"},"vehicle_type_id":"4","last_reported":1762373516,"current_range_meters":8000,"station_id":"","pricing_plan_id":"cebpf4jnsgd1na2vs0mg"},{"bike_id":"db4ed77d-e29d-483c-8641-df9968452d3b","system_id":"levelo_inurba_marseille","lat":43.29774,"lon":5.39335,"is_reserved":false,"is_disabled":false,"rental_uris":{"android":"levelo://app?vid=db4ed77d-e29d-483c-8641-df9968452d3b","ios":"levelo://app?vid=db4ed77d-e29d-483c-8641-df9968452d3b"},"vehicle_type_id":"4","last_reported":1762373516,"current_range_meters":8400,"station_id":"chh1huq6cuj3fo74tm60","pricing_plan_id":"cebpf4jnsgd1na2vs0mg"},{"bike_id":"03bad676-1b6f-4669-81b0-f770a9a0be26","system_id":"levelo_inurba_marseille","lat":43.249481,"lon":5.404893,"is_reserved":false,"is_disabled":false,"rental_uris":{"android":"levelo://app?vid=03bad676-1b6f-4669-81b0-f770a9a0be26","ios":"levelo://app?vid=03bad676-1b6f-4669-81b0-f770a9a0be26"},"vehicle_type_id":"4","last_reported":1762373516,"current_range_meters":8400,"station_id":"st_d2ngiaodas8pm72gd1h0","pricing_plan_id":"cebpf4jnsgd1na2vs0mg"},{"bike_id":"cd9c6c8f-813a-4b2c-b0c7-7a3265cb2fa0","system_id":"levelo_inurba_marseille","lat":43.24235,"lon":5.39327,"is_reserved":false,"is_disabled":false,"rental_uris":{"android":"levelo://app?vid=cd9c6c8f-813a-4b2c-b0c7-7a3265cb2fa0","ios":"levelo://app?vid=cd9c6c8f-813a-4b2c-b0c7-7a3265cb2fa0"},"vehicle_type_id":"4","last_reported":1762373516,"current_range_meters":8400,"station_id":"","pricing_plan_id":"cebpf4jnsgd1na2vs0mg"},{"bike_id":"8238b597-6943-47b1-846e-b6ceb3bf4468","system_id":"levelo_inurba_marseille","lat":43.2844,"lon":5.376,"is_reserved":false,"is_disabled":false,"rental_uris":{"android":"levelo://app?vid=8238b597-6943-47b1-846e-b6ceb3bf4468","ios":"levelo://app?vid=8238b597-6943-47b1-846e-b6ceb3bf4468"},"vehicle_type_id":"4","last_reported":1762373516,"current_range_meters":8400,"station_id":"","pricing_plan_id":"cebpf4jnsgd1na2vs0mg"},{"bike_id":"e1d510dc-978c-4640-afb1-06538cda7701","system_id":"levelo_inurba_marseille","lat":43.29816,"lon":5.44055,"is_reserved":false,"is_disabled":false,"rental_uris":{"android":"levelo://app?vid=e1d510dc-978c-4640-afb1-06538cda7701","ios":"levelo://app?vid=e1d510dc-978c-4640-afb1-06538cda7701"},"vehicle_type_id":"4","last_reported":1762373516,"current_range_meters":8400,"station_id":"st_d3jp68qikq2c7381ktn0","pricing_plan_id":"cebpf4jnsgd1na2vs0mg"},{"bike_id":"55553344-8045-49e7-979b-c6157014e42e","system_id":"levelo_inurba_marseille","lat":43.27052,"lon":5.40261,"is_reserved":false,"is_disabled":false,"rental_uris":{"android":"levelo://app?vid=55553344-8045-49e7-979b-c6157014e42e","ios":"levelo://app?vid=55553344-8045-49e7-979b-c6157014e42e"},"vehicle_type_id":"4","last_reported":1762373516,"current_range_meters":8400,"station_id":"ce4bhk92rcd13ifvqgc0","pricing_plan_id":"cebpf4jnsgd1na2vs0mg"},{"bike_id":"adbcc620-7ee6-4893-82c8-b40faad39569","system_id":"levelo_inurba_marseille","lat":43.3021,"lon":5.39461,"is_reserved":false,"is_disabled":false,"rental_uris":{"android":"levelo://app?vid=adbcc620-7ee6-4893-82c8-b40faad39569","ios":"levelo://app?vid=adbcc620-7ee6-4893-82c8-b40faad39569"},"vehicle_type_id":"4","last_reported":1762373516,"current_range_meters":8400,"station_id":"","pricing_plan_id":"cebpf4jnsgd1na2vs0mg"},{"bike_id":"ca584d85-ea53-4fc9-8766-879c1f2fd079","system_id":"levelo_inurba_marseille","lat":43.28847,"lon":5.35842,"is_reserved":false,"is_disabled":false,"rental_uris":{"android":"levelo://app?vid=ca584d85-ea53-4fc9-8766-879c1f2fd079","ios":"levelo://app?vid=ca584d85-ea53-4fc9-8766-879c1f2fd079"},"vehicle_type_id":"4","last_reported":1762373516,"current_range_meters":8800,"station_id":"ce4bhb12rcd13ifvqem0","pricing_plan_id":"cebpf4jnsgd1na2vs0mg"},{"bike_id":"db3260fc-58bf-49e3-9771-08246ed6629f","system_id":"levelo_inurba_marseille","lat":43.29633,"lon":5.40593,"is_reserved":false,"is_disabled":false,"rental_uris":{"android":"levelo://app?vid=db3260fc-58bf-49e3-9771-08246ed6629f","ios":"levelo://app?vid=db3260fc-58bf-49e3-9771-08246ed6629f"},"vehicle_type_id":"4","last_reported":1762373516,"current_range_meters":8800,"station_id":"ce4bh0h2rcd13ifvqd60","pricing_plan_id":"cebpf4jnsgd1na2vs0mg"},{"bike_id":"b579db75-ebf7-4998-afc1-09fa40e4fa10","system_id":"levelo_inurba_marseille","lat":43.268064,"lon":5.402702,"is_reserved":false,"is_disabled":false,"rental_uris":{"android":"levelo://app?vid=b579db75-ebf7-4998-afc1-09fa40e4fa10","ios":"levelo://app?vid=b579db75-ebf7-4998-afc1-09fa40e4fa10"},"vehicle_type_id":"4","last_reported":1762373516,"current_range_meters":8800,"station_id":"ce501612rcd8frsf0b60","pricing_plan_id":"cebpf4jnsgd1na2vs0mg"},{"bike_id":"4d1966fe-6fb3-4ba6-8a4d-b7b6cbb644e5","system_id":"levelo_inurba_marseille","lat":43.27422,"lon":5.39411,"is_reserved":false,"is_disabled":false,"rental_uris":{"android":"levelo://app?vid=4d1966fe-6fb3-4ba6-8a4d-b7b6cbb644e5","ios":"levelo://app?vid=4d1966fe-6fb3-4ba6-8a4d-b7b6cbb644e5"},"vehicle_type_id":"4","last_reported":1762373516,"current_range_meters":8800,"station_id":"ce4bhdp2rcd13ifvqf20","pricing_plan_id":"cebpf4jnsgd1na2vs0mg"},{"bike_id":"9465d862-db38-45cb-98a3-e49ecdfda4db","system_id":"levelo_inurba_marseille","lat":43.29489,"lon":5.43302,"is_reserved":false,"is_disabled":true,"rental_uris":{"android":"levelo://app?vid=9465d862-db38-45cb-98a3-e49ecdfda4db","ios":"levelo://app?vid=9465d862-db38-45cb-98a3-e49ecdfda4db"},"vehicle_type_id":"4","last_reported":1762373516,"current_range_meters":8800,"station_id":"st_d3j5ugp08ojc73fj9d10","pricing_plan_id":"cebpf4jnsgd1na2vs0mg"},{"bike_id":"7dd0a1b1-116d-4fee-bfcb-0eb5c293dfac","system_id":"levelo_inurba_marseille","lat":43.25825,"lon":5.3942,"is_reserved":false,"is_disabled":false,"rental_uris":{"android":"levelo://app?vid=7dd0a1b1-116d-4fee-bfcb-0eb5c293dfac","ios":"levelo://app?vid=7dd0a1b1-116d-4fee-bfcb-0eb5c293dfac"},"vehicle_type_id":"4","last_reported":1762373516,"current_range_meters":8800,"station_id":"ce4bhip2rcd13ifvqft0","pricing_plan_id":"cebpf4jnsgd1na2vs0mg"},{"bike_id":"cff40b69-0345-4cf3-9e99-c8a6c91633c2","system_id":"levelo_inurba_marseille","lat":43.30156,"lon":5.38088,"is_reserved":false,"is_disabled":false,"rental_uris":{"android":"levelo://app?vid=cff40b69-0345-4cf3-9e99-c8a6c91633c2","ios":"levelo://app?vid=cff40b69-0345-4cf3-9e99-c8a6c91633c2"},"vehicle_type_id":"4","last_reported":1762373516,"current_range_meters":8800,"station_id":"ce4bgjp2rcd13ifvqbh0","pricing_plan_id":"cebpf4jnsgd1na2vs0mg"},{"bike_id":"62b81545-2e0a-4d4a-95eb-e01d27043401","system_id":"levelo_inurba_marseille","lat":43.27653,"lon":5.38871,"is_reserved":false,"is_disabled":false,"rental_uris":{"android":"levelo://app?vid=62b81545-2e0a-4d4a-95eb-e01d27043401","ios":"levelo://app?vid=62b81545-2e0a-4d4a-95eb-e01d27043401"},"vehicle_type_id":"4","last_reported":1762373516,"current_range_meters":8800,"station_id":"ce4bhi12rcd13ifvqfo0","pricing_plan_id":"cebpf4jnsgd1na2vs0mg"},{"bike_id":"34f5f03d-b26e-43b4-a5ac-a7bbe6115a1f","system_id":"levelo_inurba_marseille","lat":43.24082,"lon":5.37761,"is_reserved":false,"is_disabled":false,"rental_uris":{"android":"levelo://app?vid=34f5f03d-b26e-43b4-a5ac-a7bbe6115a1f","ios":"levelo://app?vid=34f5f03d-b26e-43b4-a5ac-a7bbe6115a1f"},"vehicle_type_id":"4","last_reported":1762373516,"current_range_meters":8800,"station_id":"ce4bhnp2rcd13ifvqgvg","pricing_plan_id":"cebpf4jnsgd1na2vs0mg"},{"bike_id":"2a56320a-0ebb-4a50-92bc-218516def051","system_id":"levelo_inurba_marseille","lat":43.319883,"lon":5.381618,"is_reserved":false,"is_disabled":false,"rental_uris":{"android":"levelo://app?vid=2a56320a-0ebb-4a50-92bc-218516def051","ios":"levelo://app?vid=2a56320a-0ebb-4a50-92bc-218516def051"},"vehicle_type_id":"4","last_reported":1762373516,"current_range_meters":9200,"station_id":"ce4bhr12rcd13ifvqhpg","pricing_plan_id":"cebpf4jnsgd1na2vs0mg"},{"bike_id":"0f8ff35c-743d-4d54-a7f7-e5cc108ffd8a","system_id":"levelo_inurba_marseille","lat":43.29986,"lon":5.39927,"is_reserved":false,"is_disabled":false,"rental_uris":{"android":"levelo://app?vid=0f8ff35c-743d-4d54-a7f7-e5cc108ffd8a","ios":"levelo://app?vid=0f8ff35c-743d-4d54-a7f7-e5cc108ffd8a"},"vehicle_type_id":"4","last_reported":1762373516,"current_range_meters":9200,"station_id":"","pricing_plan_id":"cebpf4jnsgd1na2vs0mg"},{"bike_id":"36dadbf7-a228-4f6f-8b08-391008b68693","system_id":"levelo_inurba_marseille","lat":43.345526,"lon":5.368441,"is_reserved":false,"is_disabled":false,"rental_uris":{"android":"levelo://app?vid=36dadbf7-a228-4f6f-8b08-391008b68693","ios":"levelo://app?vid=36dadbf7-a228-4f6f-8b08-391008b68693"},"vehicle_type_id":"4","last_reported":1762373516,"current_range_meters":9200,"station_id":"","pricing_plan_id":"cebpf4jnsgd1na2vs0mg"},{"bike_id":"ea4f4b84-78b0-4180-a7f8-ecb8c6182713","system_id":"levelo_inurba_marseille","lat":43.2953,"lon":5.36104,"is_reserved":false,"is_disabled":true,"rental_uris":{"android":"levelo://app?vid=ea4f4b84-78b0-4180-a7f8-ecb8c6182713","ios":"levelo://app?vid=ea4f4b84-78b0-4180-a7f8-ecb8c6182713"},"vehicle_type_id":"4","last_reported":1762373516,"current_range_meters":9200,"station_id":"","pricing_plan_id":"cebpf4jnsgd1na2vs0mg"},{"bike_id":"055a004e-97a3-4fb5-aa7c-3be5307b0da9","system_id":"levelo_inurba_marseille","lat":43.28932,"lon":5.36632,"is_reserved":false,"is_disabled":false,"rental_uris":{"android":"levelo://app?vid=055a004e-97a3-4fb5-aa7c-3be5307b0da9","ios":"levelo://app?vid=055a004e-97a3-4fb5-aa7c-3be5307b0da9"},"vehicle_type_id":"4","last_reported":1762373516,"current_range_meters":9200,"station_id":"ce4bhap2rcd13ifvqek0","pricing_plan_id":"cebpf4jnsgd1na2vs0mg"},{"bike_id":"a10a2907-0c49-4f0a-be54-5c2d2c04bdb1","system_id":"levelo_inurba_marseille","lat":43.27193,"lon":5.39171,"is_reserved":false,"is_disabled":false,"rental_uris":{"android":"levelo://app?vid=a10a2907-0c49-4f0a-be54-5c2d2c04bdb1","ios":"levelo://app?vid=a10a2907-0c49-4f0a-be54-5c2d2c04bdb1"},"vehicle_type_id":"4","last_reported":1762373516,"current_range_meters":9200,"station_id":"","pricing_plan_id":"cebpf4jnsgd1na2vs0mg"},{"bike_id":"1f16b7e5-1eee-40b0-bef9-f1c4c100dfde","system_id":"levelo_inurba_marseille","lat":43.32366,"lon":5.38868,"is_reserved":false,"is_disabled":false,"rental_uris":{"android":"levelo://app?vid=1f16b7e5-1eee-40b0-bef9-f1c4c100dfde","ios":"levelo://app?vid=1f16b7e5-1eee-40b0-bef9-f1c4c100dfde"},"vehicle_type_id":"4","last_reported":1762373516,"current_range_meters":9600,"station_id":"ce4bhqp2rcd13ifvqhog","pricing_plan_id":"cebpf4jnsgd1na2vs0mg"},{"bike_id":"b6ca4410-31f2-4bfa-a6d3-2f0a4f6b5118","system_id":"levelo_inurba_marseille","lat":43.29261,"lon":5.38417,"is_reserved":false,"is_disabled":true,"rental_uris":{"android":"levelo://app?vid=b6ca4410-31f2-4bfa-a6d3-2f0a4f6b5118","ios":"levelo://app?vid=b6ca4410-31f2-4bfa-a6d3-2f0a4f6b5118"},"vehicle_type_id":"4","last_reported":1762373516,"current_range_meters":9600,"station_id":"ce4bh692rcd13ifvqea0","pricing_plan_id":"cebpf4jnsgd1na2vs0mg"},{"bike_id":"715a28d9-9b2c-4da4-87c1-46e720ab47f7","system_id":"levelo_inurba_marseille","lat":43.31263,"lon":5.40165,"is_reserved":false,"is_disabled":false,"rental_uris":{"android":"levelo://app?vid=715a28d9-9b2c-4da4-87c1-46e720ab47f7","ios":"levelo://app?vid=715a28d9-9b2c-4da4-87c1-46e720ab47f7"},"vehicle_type_id":"4","last_reported":1762373516,"current_range_meters":9600,"station_id":"ce4bh092rcd13ifvqd30","pricing_plan_id":"cebpf4jnsgd1na2vs0mg"},{"bike_id":"3a504f41-9351-4999-935e-ef8adc7693a6","system_id":"levelo_inurba_marseille","lat":43.27804,"lon":5.40698,"is_reserved":false,"is_disabled":false,"rental_uris":{"android":"levelo://app?vid=3a504f41-9351-4999-935e-ef8adc7693a6","ios":"levelo://app?vid=3a504f41-9351-4999-935e-ef8adc7693a6"},"vehicle_type_id":"4","last_reported":1762373516,"current_range_meters":9600,"station_id":"ce4bhnh2rcd13ifvqgtg","pricing_plan_id":"cebpf4jnsgd1na2vs0mg"},{"bike_id":"bf9f305b-8503-4f1d-bda9-75b7fa5272a7","system_id":"levelo_inurba_marseille","lat":43.29308,"lon":5.37173,"is_reserved":false,"is_disabled":false,"rental_uris":{"android":"levelo://app?vid=bf9f305b-8503-4f1d-bda9-75b7fa5272a7","ios":"levelo://app?vid=bf9f305b-8503-4f1d-bda9-75b7fa5272a7"},"vehicle_type_id":"4","last_reported":1762373516,"current_range_meters":9600,"station_id":"ce4bgh92rcd13ifvqb40","pricing_plan_id":"cebpf4jnsgd1na2vs0mg"},{"bike_id":"d4dd6511-4dd4-439e-b285-f9df54431fe8","system_id":"levelo_inurba_marseille","lat":43.28522,"lon":5.44111,"is_reserved":false,"is_disabled":false,"rental_uris":{"android":"levelo://app?vid=d4dd6511-4dd4-439e-b285-f9df54431fe8","ios":"levelo://app?vid=d4dd6511-4dd4-439e-b285-f9df54431fe8"},"vehicle_type_id":"4","last_reported":1762373516,"current_range_meters":9600,"station_id":"st_d3j3df2ikq2c7380ej80","pricing_plan_id":"cebpf4jnsgd1na2vs0mg"},{"bike_id":"4944b1f2-302c-415a-a0a3-9198ef0af247","system_id":"levelo_inurba_marseille","lat":43.30641,"lon":5.40091,"is_reserved":false,"is_disabled":false,"rental_uris":{"android":"levelo://app?vid=4944b1f2-302c-415a-a0a3-9198ef0af247","ios":"levelo://app?vid=4944b1f2-302c-415a-a0a3-9198ef0af247"},"vehicle_type_id":"4","last_reported":1762373516,"current_range_meters":10000,"station_id":"ce4bh112rcd13ifvqda0","pricing_plan_id":"cebpf4jnsgd1na2vs0mg"},{"bike_id":"02c565c9-e1be-4475-b1a9-b37751cdb830","system_id":"levelo_inurba_marseille","lat":43.34374,"lon":5.34888,"is_reserved":false,"is_disabled":false,"rental_uris":{"android":"levelo://app?vid=02c565c9-e1be-4475-b1a9-b37751cdb830","ios":"levelo://app?vid=02c565c9-e1be-4475-b1a9-b37751cdb830"},"vehicle_type_id":"4","last_reported":1762373516,"current_range_meters":10000,"station_id":"","pricing_plan_id":"cebpf4jnsgd1na2vs0mg"},{"bike_id":"dceb4beb-6bb5-4225-ae7e-d3c4b9815bbe","system_id":"levelo_inurba_marseille","lat":43.28483,"lon":5.48373,"is_reserved":false,"is_disabled":false,"rental_uris":{"android":"levelo://app?vid=dceb4beb-6bb5-4225-ae7e-d3c4b9815bbe","ios":"levelo://app?vid=dceb4beb-6bb5-4225-ae7e-d3c4b9815bbe"},"vehicle_type_id":"4","last_reported":1762373516,"current_range_meters":10000,"station_id":"st_d3svhcjqgbts73a3dn0g","pricing_plan_id":"cebpf4jnsgd1na2vs0mg"},{"bike_id":"7479cfee-6f68-4a59-afc8-ceca6b83dba4","system_id":"levelo_inurba_marseille","lat":43.25575,"lon":5.38235,"is_reserved":false,"is_disabled":false,"rental_uris":{"android":"levelo://app?vid=7479cfee-6f68-4a59-afc8-ceca6b83dba4","ios":"levelo://app?vid=7479cfee-6f68-4a59-afc8-ceca6b83dba4"},"vehicle_type_id":"4","last_reported":1762373516,"current_range_meters":10000,"station_id":"ce4bhih2rcd13ifvqfs0","pricing_plan_id":"cebpf4jnsgd1na2vs0mg"},{"bike_id":"0efcd18a-8960-4933-9d9f-cf775ef41afd","system_id":"levelo_inurba_marseille","lat":43.30036,"lon":5.38872,"is_reserved":false,"is_disabled":false,"rental_uris":{"android":"levelo://app?vid=0efcd18a-8960-4933-9d9f-cf775ef41afd","ios":"levelo://app?vid=0efcd18a-8960-4933-9d9f-cf775ef41afd"},"vehicle_type_id":"4","last_reported":1762373516,"current_range_meters":10000,"station_id":"","pricing_plan_id":"cebpf4jnsgd1na2vs0mg"},{"bike_id":"765b9661-2b24-4c0f-a9fb-732d7409b10c","system_id":"levelo_inurba_marseille","lat":43.21615,"lon":5.34428,"is_reserved":false,"is_disabled":false,"rental_uris":{"android":"levelo://app?vid=765b9661-2b24-4c0f-a9fb-732d7409b10c","ios":"levelo://app?vid=765b9661-2b24-4c0f-a9fb-732d7409b10c"},"vehicle_type_id":"4","last_reported":1762373516,"current_range_meters":10000,"station_id":"","pricing_plan_id":"cebpf4jnsgd1na2vs0mg"},{"bike_id":"44a4c161-605d-4438-b884-ab0763184b99","system_id":"levelo_inurba_marseille","lat":43.265692,"lon":5.389983,"is_reserved":false,"is_disabled":false,"rental_uris":{"android":"levelo://app?vid=44a4c161-605d-4438-b884-ab0763184b99","ios":"levelo://app?vid=44a4c161-605d-4438-b884-ab0763184b99"},"vehicle_type_id":"4","last_reported":1762373516,"current_range_meters":10000,"station_id":"ce4bhe12rcd13ifvqf30","pricing_plan_id":"cebpf4jnsgd1na2vs0mg"},{"bike_id":"7c8c77e6-611f-4f5e-8374-da326e1729a3","system_id":"levelo_inurba_marseille","lat":43.29809,"lon":5.44054,"is_reserved":false,"is_disabled":false,"rental_uris":{"android":"levelo://app?vid=7c8c77e6-611f-4f5e-8374-da326e1729a3","ios":"levelo://app?vid=7c8c77e6-611f-4f5e-8374-da326e1729a3"},"vehicle_type_id":"4","last_reported":1762373516,"current_range_meters":10000,"station_id":"st_d3jp68qikq2c7381ktn0","pricing_plan_id":"cebpf4jnsgd1na2vs0mg"},{"bike_id":"e7002296-a724-4792-9c77-9aa7da662e7d","system_id":"levelo_inurba_marseille","lat":43.29752,"lon":5.36248,"is_reserved":false,"is_disabled":false,"rental_uris":{"android":"levelo://app?vid=e7002296-a724-4792-9c77-9aa7da662e7d","ios":"levelo://app?vid=e7002296-a724-4792-9c77-9aa7da662e7d"},"vehicle_type_id":"4","last_reported":1762373516,"current_range_meters":10000,"station_id":"","pricing_plan_id":"cebpf4jnsgd1na2vs0mg"},{"bike_id":"aa283fb4-a41e-4ab1-8a8e-e851db7bebb6","system_id":"levelo_inurba_marseille","lat":43.25823,"lon":5.39436,"is_reserved":false,"is_disabled":false,"rental_uris":{"android":"levelo://app?vid=aa283fb4-a41e-4ab1-8a8e-e851db7bebb6","ios":"levelo://app?vid=aa283fb4-a41e-4ab1-8a8e-e851db7bebb6"},"vehicle_type_id":"4","last_reported":1762373516,"current_range_meters":10000,"station_id":"ce4bhip2rcd13ifvqft0","pricing_plan_id":"cebpf4jnsgd1na2vs0mg"},{"bike_id":"ac3661dd-248f-4b92-ad04-1fbf8e5c6660","system_id":"levelo_inurba_marseille","lat":43.28036,"lon":5.36935,"is_reserved":false,"is_disabled":true,"rental_uris":{"android":"levelo://app?vid=ac3661dd-248f-4b92-ad04-1fbf8e5c6660","ios":"levelo://app?vid=ac3661dd-248f-4b92-ad04-1fbf8e5c6660"},"vehicle_type_id":"4","last_reported":1762373516,"current_range_meters":10000,"station_id":"ce4bha12rcd13ifvqef0","pricing_plan_id":"cebpf4jnsgd1na2vs0mg"},{"bike_id":"d80f1210-f80d-4144-8541-e1fe92f84f5f","system_id":"levelo_inurba_marseille","lat":43.24071,"lon":5.37761,"is_reserved":false,"is_disabled":false,"rental_uris":{"android":"levelo://app?vid=d80f1210-f80d-4144-8541-e1fe92f84f5f","ios":"levelo://app?vid=d80f1210-f80d-4144-8541-e1fe92f84f5f"},"vehicle_type_id":"4","last_reported":1762373516,"current_range_meters":10000,"station_id":"ce4bhnp2rcd13ifvqgvg","pricing_plan_id":"cebpf4jnsgd1na2vs0mg"},{"bike_id":"4b24dbba-41a5-4ecf-ade9-ac15d69f3a39","system_id":"levelo_inurba_marseille","lat":43.30277,"lon":5.37689,"is_reserved":false,"is_disabled":false,"rental_uris":{"android":"levelo://app?vid=4b24dbba-41a5-4ecf-ade9-ac15d69f3a39","ios":"levelo://app?vid=4b24dbba-41a5-4ecf-ade9-ac15d69f3a39"},"vehicle_type_id":"4","last_reported":1762373516,"current_range_meters":10800,"station_id":"ce4bguh2rcd13ifvqcj0","pricing_plan_id":"cebpf4jnsgd1na2vs0mg"},{"bike_id":"75a0e7d0-a4d6-4f7c-adce-b5f633c7cb4f","system_id":"levelo_inurba_marseille","lat":43.3062,"lon":5.37246,"is_reserved":false,"is_disabled":true,"rental_uris":{"android":"levelo://app?vid=75a0e7d0-a4d6-4f7c-adce-b5f633c7cb4f","ios":"levelo://app?vid=75a0e7d0-a4d6-4f7c-adce-b5f633c7cb4f"},"vehicle_type_id":"4","last_reported":1762373516,"current_range_meters":10800,"station_id":"ce4bgqh2rcd13ifvqc4g","pricing_plan_id":"cebpf4jnsgd1na2vs0mg"},{"bike_id":"079172f5-8ae1-4072-b9af-ac47ffa3ce10","system_id":"levelo_inurba_marseille","lat":43.29534,"lon":5.38545,"is_reserved":false,"is_disabled":false,"rental_uris":{"android":"levelo://app?vid=079172f5-8ae1-4072-b9af-ac47ffa3ce10","ios":"levelo://app?vid=079172f5-8ae1-4072-b9af-ac47ffa3ce10"},"vehicle_type_id":"4","last_reported":1762373516,"current_range_meters":10800,"station_id":"ce4bgih2rcd13ifvqba0","pricing_plan_id":"cebpf4jnsgd1na2vs0mg"},{"bike_id":"2361f7d3-0b93-4da3-ad96-4ddaea17bb24","system_id":"levelo_inurba_marseille","lat":43.26783,"lon":5.39422,"is_reserved":false,"is_disabled":false,"rental_uris":{"android":"levelo://app?vid=2361f7d3-0b93-4da3-ad96-4ddaea17bb24","ios":"levelo://app?vid=2361f7d3-0b93-4da3-ad96-4ddaea17bb24"},"vehicle_type_id":"4","last_reported":1762373516,"current_range_meters":10800,"station_id":"ce4bhh12rcd13ifvqfg0","pricing_plan_id":"cebpf4jnsgd1na2vs0mg"},{"bike_id":"709ac22e-2e97-49bc-8ecd-b53546fa35d2","system_id":"levelo_inurba_marseille","lat":43.24657,"lon":5.38153,"is_reserved":false,"is_disabled":false,"rental_uris":{"android":"levelo://app?vid=709ac22e-2e97-49bc-8ecd-b53546fa35d2","ios":"levelo://app?vid=709ac22e-2e97-49bc-8ecd-b53546fa35d2"},"vehicle_type_id":"4","last_reported":1762373516,"current_range_meters":10800,"station_id":"ce4bhih2rcd13ifvqfr0","pricing_plan_id":"cebpf4jnsgd1na2vs0mg"},{"bike_id":"633cb954-9acf-49a5-82b1-8ab23a0e70c4","system_id":"levelo_inurba_marseille","lat":43.305554,"lon":5.365407,"is_reserved":false,"is_disabled":false,"rental_uris":{"android":"levelo://app?vid=633cb954-9acf-49a5-82b1-8ab23a0e70c4","ios":"levelo://app?vid=633cb954-9acf-49a5-82b1-8ab23a0e70c4"},"vehicle_type_id":"4","last_reported":1762373516,"current_range_meters":10800,"station_id":"ce4bgs12rcd13ifvqcag","pricing_plan_id":"cebpf4jnsgd1na2vs0mg"},{"bike_id":"a95bc6b3-7367-42d4-a4d1-d96a2b7438a0","system_id":"levelo_inurba_marseille","lat":43.308848,"lon":5.396611,"is_reserved":false,"is_disabled":false,"rental_uris":{"android":"levelo://app?vid=a95bc6b3-7367-42d4-a4d1-d96a2b7438a0","ios":"levelo://app?vid=a95bc6b3-7367-42d4-a4d1-d96a2b7438a0"},"vehicle_type_id":"4","last_reported":1762373516,"current_range_meters":10800,"station_id":"ce4bh012rcd13ifvqcv0","pricing_plan_id":"cebpf4jnsgd1na2vs0mg"},{"bike_id":"e2104b6a-7e12-4a20-ae1b-cf4b446d5e26","system_id":"levelo_inurba_marseille","lat":43.28488,"lon":5.48393,"is_reserved":false,"is_disabled":false,"rental_uris":{"android":"levelo://app?vid=e2104b6a-7e12-4a20-ae1b-cf4b446d5e26","ios":"levelo://app?vid=e2104b6a-7e12-4a20-ae1b-cf4b446d5e26"},"vehicle_type_id":"4","last_reported":1762373516,"current_range_meters":10800,"station_id":"st_d3svhcjqgbts73a3dn0g","pricing_plan_id":"cebpf4jnsgd1na2vs0mg"},{"bike_id":"c259e04f-30ae-4004-813c-bfcf3bba2dbc","system_id":"levelo_inurba_marseille","lat":43.282295,"lon":5.390748,"is_reserved":false,"is_disabled":false,"rental_uris":{"android":"levelo://app?vid=c259e04f-30ae-4004-813c-bfcf3bba2dbc","ios":"levelo://app?vid=c259e04f-30ae-4004-813c-bfcf3bba2dbc"},"vehicle_type_id":"4","last_reported":1762373516,"current_range_meters":10800,"station_id":"ce4bhn92rcd13ifvqgsg","pricing_plan_id":"cebpf4jnsgd1na2vs0mg"},{"bike_id":"fe44332d-f174-4305-8b3e-4a7e2f538693","system_id":"levelo_inurba_marseille","lat":43.28151,"lon":5.42638,"is_reserved":false,"is_disabled":false,"rental_uris":{"android":"levelo://app?vid=fe44332d-f174-4305-8b3e-4a7e2f538693","ios":"levelo://app?vid=fe44332d-f174-4305-8b3e-4a7e2f538693"},"vehicle_type_id":"4","last_reported":1762373516,"current_range_meters":10800,"station_id":"ce4bhnh2rcd13ifvqgug","pricing_plan_id":"cebpf4jnsgd1na2vs0mg"},{"bike_id":"a68232b8-0460-4943-9e59-aee4437433bc","system_id":"levelo_inurba_marseille","lat":43.22934,"lon":5.3538,"is_reserved":false,"is_disabled":false,"rental_uris":{"android":"levelo://app?vid=a68232b8-0460-4943-9e59-aee4437433bc","ios":"levelo://app?vid=a68232b8-0460-4943-9e59-aee4437433bc"},"vehicle_type_id":"4","last_reported":1762373516,"current_range_meters":11200,"station_id":"cpo3532slgdg3j2ikp40","pricing_plan_id":"cebpf4jnsgd1na2vs0mg"},{"bike_id":"8f5c5e28-dca5-4cf0-8947-a5cfbda88464","system_id":"levelo_inurba_marseille","lat":43.2319,"lon":5.39985,"is_reserved":false,"is_disabled":false,"rental_uris":{"android":"levelo://app?vid=8f5c5e28-dca5-4cf0-8947-a5cfbda88464","ios":"levelo://app?vid=8f5c5e28-dca5-4cf0-8947-a5cfbda88464"},"vehicle_type_id":"4","last_reported":1762373516,"current_range_meters":11200,"station_id":"ce4bhn12rcd13ifvqgqg","pricing_plan_id":"cebpf4jnsgd1na2vs0mg"},{"bike_id":"8f25a143-418a-41a1-891f-7a031ecff0cc","system_id":"levelo_inurba_marseille","lat":43.27903,"lon":5.37985,"is_reserved":false,"is_disabled":false,"rental_uris":{"android":"levelo://app?vid=8f25a143-418a-41a1-891f-7a031ecff0cc","ios":"levelo://app?vid=8f25a143-418a-41a1-891f-7a031ecff0cc"},"vehicle_type_id":"4","last_reported":1762373516,"current_range_meters":11200,"station_id":"ce4bhf92rcd13ifvqf50","pricing_plan_id":"cebpf4jnsgd1na2vs0mg"},{"bike_id":"d1cb2722-4f97-46fe-ac1b-f3f6997a9e64","system_id":"levelo_inurba_marseille","lat":43.30899,"lon":5.37194,"is_reserved":false,"is_disabled":false,"rental_uris":{"android":"levelo://app?vid=d1cb2722-4f97-46fe-ac1b-f3f6997a9e64","ios":"levelo://app?vid=d1cb2722-4f97-46fe-ac1b-f3f6997a9e64"},"vehicle_type_id":"4","last_reported":1762373516,"current_range_meters":11200,"station_id":"ce4bguh2rcd13ifvqckg","pricing_plan_id":"cebpf4jnsgd1na2vs0mg"},{"bike_id":"44420edd-ab41-44f9-b3d6-ed24fc498e94","system_id":"levelo_inurba_marseille","lat":43.29869,"lon":5.39734,"is_reserved":false,"is_disabled":false,"rental_uris":{"android":"levelo://app?vid=44420edd-ab41-44f9-b3d6-ed24fc498e94","ios":"levelo://app?vid=44420edd-ab41-44f9-b3d6-ed24fc498e94"},"vehicle_type_id":"4","last_reported":1762373516,"current_range_meters":11200,"station_id":"ce4bh0h2rcd13ifvqd50","pricing_plan_id":"cebpf4jnsgd1na2vs0mg"},{"bike_id":"8390cc25-302e-4848-9eeb-54ee31dd6fc5","system_id":"levelo_inurba_marseille","lat":43.28412,"lon":5.37523,"is_reserved":false,"is_disabled":false,"rental_uris":{"android":"levelo://app?vid=8390cc25-302e-4848-9eeb-54ee31dd6fc5","ios":"levelo://app?vid=8390cc25-302e-4848-9eeb-54ee31dd6fc5"},"vehicle_type_id":"4","last_reported":1762373516,"current_range_meters":11200,"station_id":"ce4bh412rcd13ifvqds0","pricing_plan_id":"cebpf4jnsgd1na2vs0mg"},{"bike_id":"3ca5c5ea-86f9-4eb0-82b8-2904b75f9ee3","system_id":"levelo_inurba_marseille","lat":43.27915,"lon":5.39579,"is_reserved":false,"is_disabled":false,"rental_uris":{"android":"levelo://app?vid=3ca5c5ea-86f9-4eb0-82b8-2904b75f9ee3","ios":"levelo://app?vid=3ca5c5ea-86f9-4eb0-82b8-2904b75f9ee3"},"vehicle_type_id":"4","last_reported":1762373516,"current_range_meters":11200,"station_id":"ce4bhf92rcd13ifvqf40","pricing_plan_id":"cebpf4jnsgd1na2vs0mg"},{"bike_id":"86792475-6b56-456a-8e0c-ade4dfac1d23","system_id":"levelo_inurba_marseille","lat":43.25,"lon":5.38922,"is_reserved":false,"is_disabled":false,"rental_uris":{"android":"levelo://app?vid=86792475-6b56-456a-8e0c-ade4dfac1d23","ios":"levelo://app?vid=86792475-6b56-456a-8e0c-ade4dfac1d23"},"vehicle_type_id":"4","last_reported":1762373516,"current_range_meters":11200,"station_id":"ce4bhgp2rcd13ifvqfd0","pricing_plan_id":"cebpf4jnsgd1na2vs0mg"},{"bike_id":"087d2484-d64f-48b1-b876-6675c5b4ec21","system_id":"levelo_inurba_marseille","lat":43.28722,"lon":5.37932,"is_reserved":false,"is_disabled":false,"rental_uris":{"android":"levelo://app?vid=087d2484-d64f-48b1-b876-6675c5b4ec21","ios":"levelo://app?vid=087d2484-d64f-48b1-b876-6675c5b4ec21"},"vehicle_type_id":"4","last_reported":1762373516,"current_range_meters":11600,"station_id":"ce4bh9p2rcd13ifvqec0","pricing_plan_id":"cebpf4jnsgd1na2vs0mg"},{"bike_id":"359c0f3a-4e42-42b5-8ca9-4a59256db590","system_id":"levelo_inurba_marseille","lat":43.29272,"lon":5.3843,"is_reserved":false,"is_disabled":false,"rental_uris":{"android":"levelo://app?vid=359c0f3a-4e42-42b5-8ca9-4a59256db590","ios":"levelo://app?vid=359c0f3a-4e42-42b5-8ca9-4a59256db590"},"vehicle_type_id":"4","last_reported":1762373516,"current_range_meters":11600,"station_id":"ce4bh692rcd13ifvqea0","pricing_plan_id":"cebpf4jnsgd1na2vs0mg"},{"bike_id":"d3f934d8-97cb-4416-93fd-f748c8c54459","system_id":"levelo_inurba_marseille","lat":43.24391,"lon":5.37044,"is_reserved":false,"is_disabled":false,"rental_uris":{"android":"levelo://app?vid=d3f934d8-97cb-4416-93fd-f748c8c54459","ios":"levelo://app?vid=d3f934d8-97cb-4416-93fd-f748c8c54459"},"vehicle_type_id":"4","last_reported":1762373516,"current_range_meters":11600,"station_id":"ce4bhhh2rcd13ifvqfk0","pricing_plan_id":"cebpf4jnsgd1na2vs0mg"},{"bike_id":"b90f60e8-e50f-4fb6-be58-8530e5490ea2","system_id":"levelo_inurba_marseille","lat":43.29797,"lon":5.40397,"is_reserved":false,"is_disabled":false,"rental_uris":{"android":"levelo://app?vid=b90f60e8-e50f-4fb6-be58-8530e5490ea2","ios":"levelo://app?vid=b90f60e8-e50f-4fb6-be58-8530e5490ea2"},"vehicle_type_id":"4","last_reported":1762373516,"current_range_meters":11600,"station_id":"ce4bh112rcd13ifvqd90","pricing_plan_id":"cebpf4jnsgd1na2vs0mg"},{"bike_id":"3ea0857b-7a8f-4f15-afce-1bc91a63b9f9","system_id":"levelo_inurba_marseille","lat":43.29017,"lon":5.38645,"is_reserved":false,"is_disabled":false,"rental_uris":{"android":"levelo://app?vid=3ea0857b-7a8f-4f15-afce-1bc91a63b9f9","ios":"levelo://app?vid=3ea0857b-7a8f-4f15-afce-1bc91a63b9f9"},"vehicle_type_id":"4","last_reported":1762373516,"current_range_meters":11600,"station_id":"ce4bh4p2rcd13ifvqe0g","pricing_plan_id":"cebpf4jnsgd1na2vs0mg"},{"bike_id":"f0b05c3c-8d11-4b5c-a3f5-12ecc6a0d47b","system_id":"levelo_inurba_marseille","lat":43.24071,"lon":5.37758,"is_reserved":false,"is_disabled":false,"rental_uris":{"android":"levelo://app?vid=f0b05c3c-8d11-4b5c-a3f5-12ecc6a0d47b","ios":"levelo://app?vid=f0b05c3c-8d11-4b5c-a3f5-12ecc6a0d47b"},"vehicle_type_id":"4","last_reported":1762373516,"current_range_meters":11600,"station_id":"ce4bhnp2rcd13ifvqgvg","pricing_plan_id":"cebpf4jnsgd1na2vs0mg"},{"bike_id":"f85cea3a-16db-4f19-81d2-30ec5c591db6","system_id":"levelo_inurba_marseille","lat":43.2926,"lon":5.38437,"is_reserved":false,"is_disabled":false,"rental_uris":{"android":"levelo://app?vid=f85cea3a-16db-4f19-81d2-30ec5c591db6","ios":"levelo://app?vid=f85cea3a-16db-4f19-81d2-30ec5c591db6"},"vehicle_type_id":"4","last_reported":1762373516,"current_range_meters":12000,"station_id":"ce4bh692rcd13ifvqea0","pricing_plan_id":"cebpf4jnsgd1na2vs0mg"},{"bike_id":"a4714919-184e-4dbf-9568-0811ed04a30c","system_id":"levelo_inurba_marseille","lat":43.29437,"lon":5.39756,"is_reserved":false,"is_disabled":false,"rental_uris":{"android":"levelo://app?vid=a4714919-184e-4dbf-9568-0811ed04a30c","ios":"levelo://app?vid=a4714919-184e-4dbf-9568-0811ed04a30c"},"vehicle_type_id":"4","last_reported":1762373516,"current_range_meters":12000,"station_id":"ce4bh3h2rcd13ifvqdo0","pricing_plan_id":"cebpf4jnsgd1na2vs0mg"},{"bike_id":"571bd3a6-912b-44a3-9841-50c558a61481","system_id":"levelo_inurba_marseille","lat":43.28122,"lon":5.40547,"is_reserved":false,"is_disabled":false,"rental_uris":{"android":"levelo://app?vid=571bd3a6-912b-44a3-9841-50c558a61481","ios":"levelo://app?vid=571bd3a6-912b-44a3-9841-50c558a61481"},"vehicle_type_id":"4","last_reported":1762373516,"current_range_meters":12000,"station_id":"","pricing_plan_id":"cebpf4jnsgd1na2vs0mg"},{"bike_id":"c24db8f8-7b44-40d8-8d41-ee28db740104","system_id":"levelo_inurba_marseille","lat":43.26561,"lon":5.39008,"is_reserved":false,"is_disabled":false,"rental_uris":{"android":"levelo://app?vid=c24db8f8-7b44-40d8-8d41-ee28db740104","ios":"levelo://app?vid=c24db8f8-7b44-40d8-8d41-ee28db740104"},"vehicle_type_id":"4","last_reported":1762373516,"current_range_meters":12000,"station_id":"ce4bhe12rcd13ifvqf30","pricing_plan_id":"cebpf4jnsgd1na2vs0mg"},{"bike_id":"b6aef37f-713a-4777-a6a6-331d7dc9b156","system_id":"levelo_inurba_marseille","lat":43.30323,"lon":5.40436,"is_reserved":false,"is_disabled":false,"rental_uris":{"android":"levelo://app?vid=b6aef37f-713a-4777-a6a6-331d7dc9b156","ios":"levelo://app?vid=b6aef37f-713a-4777-a6a6-331d7dc9b156"},"vehicle_type_id":"4","last_reported":1762373516,"current_range_meters":12000,"station_id":"ce4bh012rcd13ifvqd10","pricing_plan_id":"cebpf4jnsgd1na2vs0mg"},{"bike_id":"aa82f1ce-de3a-44f1-b71c-e2edd10cd370","system_id":"levelo_inurba_marseille","lat":43.273198,"lon":5.39077,"is_reserved":false,"is_disabled":false,"rental_uris":{"android":"levelo://app?vid=aa82f1ce-de3a-44f1-b71c-e2edd10cd370","ios":"levelo://app?vid=aa82f1ce-de3a-44f1-b71c-e2edd10cd370"},"vehicle_type_id":"4","last_reported":1762373516,"current_range_meters":12000,"station_id":"ce4bhgp2rcd13ifvqfe0","pricing_plan_id":"cebpf4jnsgd1na2vs0mg"},{"bike_id":"ab9b2bcc-ea75-449d-adbb-4add292d38c4","system_id":"levelo_inurba_marseille","lat":43.340898,"lon":5.380168,"is_reserved":false,"is_disabled":false,"rental_uris":{"android":"levelo://app?vid=ab9b2bcc-ea75-449d-adbb-4add292d38c4","ios":"levelo://app?vid=ab9b2bcc-ea75-449d-adbb-4add292d38c4"},"vehicle_type_id":"4","last_reported":1762373516,"current_range_meters":12000,"station_id":"","pricing_plan_id":"cebpf4jnsgd1na2vs0mg"},{"bike_id":"3ef77562-e038-46d5-8a3f-883603c6ce1e","system_id":"levelo_inurba_marseille","lat":43.25717,"lon":5.41112,"is_reserved":false,"is_disabled":false,"rental_uris":{"android":"levelo://app?vid=3ef77562-e038-46d5-8a3f-883603c6ce1e","ios":"levelo://app?vid=3ef77562-e038-46d5-8a3f-883603c6ce1e"},"vehicle_type_id":"4","last_reported":1762373516,"current_range_meters":12000,"station_id":"ce4bhkp2rcd13ifvqgd0","pricing_plan_id":"cebpf4jnsgd1na2vs0mg"},{"bike_id":"4d9b445e-b2f1-4caa-9a1e-bae0beaf3a29","system_id":"levelo_inurba_marseille","lat":43.27046,"lon":5.40281,"is_reserved":false,"is_disabled":false,"rental_uris":{"android":"levelo://app?vid=4d9b445e-b2f1-4caa-9a1e-bae0beaf3a29","ios":"levelo://app?vid=4d9b445e-b2f1-4caa-9a1e-bae0beaf3a29"},"vehicle_type_id":"4","last_reported":1762373516,"current_range_meters":12000,"station_id":"ce4bhk92rcd13ifvqgc0","pricing_plan_id":"cebpf4jnsgd1na2vs0mg"},{"bike_id":"db8c3628-8abe-49bc-997c-fd3f6489998a","system_id":"levelo_inurba_marseille","lat":43.28103,"lon":5.37837,"is_reserved":false,"is_disabled":false,"rental_uris":{"android":"levelo://app?vid=db8c3628-8abe-49bc-997c-fd3f6489998a","ios":"levelo://app?vid=db8c3628-8abe-49bc-997c-fd3f6489998a"},"vehicle_type_id":"4","last_reported":1762373516,"current_range_meters":12000,"station_id":"ce4bha12rcd13ifvqee0","pricing_plan_id":"cebpf4jnsgd1na2vs0mg"},{"bike_id":"a14c5624-7741-4b9c-8eee-ee3bd63c1df9","system_id":"levelo_inurba_marseille","lat":43.31702,"lon":5.40461,"is_reserved":false,"is_disabled":false,"rental_uris":{"android":"levelo://app?vid=a14c5624-7741-4b9c-8eee-ee3bd63c1df9","ios":"levelo://app?vid=a14c5624-7741-4b9c-8eee-ee3bd63c1df9"},"vehicle_type_id":"4","last_reported":1762373516,"current_range_meters":12400,"station_id":"ce4bh012rcd13ifvqd00","pricing_plan_id":"cebpf4jnsgd1na2vs0mg"},{"bike_id":"b7b95029-4355-4eee-a218-2f181c6142a6","system_id":"levelo_inurba_marseille","lat":43.3089,"lon":5.37196,"is_reserved":false,"is_disabled":false,"rental_uris":{"android":"levelo://app?vid=b7b95029-4355-4eee-a218-2f181c6142a6","ios":"levelo://app?vid=b7b95029-4355-4eee-a218-2f181c6142a6"},"vehicle_type_id":"4","last_reported":1762373516,"current_range_meters":12400,"station_id":"ce4bguh2rcd13ifvqckg","pricing_plan_id":"cebpf4jnsgd1na2vs0mg"},{"bike_id":"dae30738-204c-4787-a9b5-e056fa94e0c9","system_id":"levelo_inurba_marseille","lat":43.22569,"lon":5.41618,"is_reserved":false,"is_disabled":false,"rental_uris":{"android":"levelo://app?vid=dae30738-204c-4787-a9b5-e056fa94e0c9","ios":"levelo://app?vid=dae30738-204c-4787-a9b5-e056fa94e0c9"},"vehicle_type_id":"4","last_reported":1762373516,"current_range_meters":12400,"station_id":"st_d2o4gvlbi1j2169b742g","pricing_plan_id":"cebpf4jnsgd1na2vs0mg"},{"bike_id":"8db420a7-407a-4cd3-9095-5a8e96625979","system_id":"levelo_inurba_marseille","lat":43.22945,"lon":5.35371,"is_reserved":false,"is_disabled":false,"rental_uris":{"android":"levelo://app?vid=8db420a7-407a-4cd3-9095-5a8e96625979","ios":"levelo://app?vid=8db420a7-407a-4cd3-9095-5a8e96625979"},"vehicle_type_id":"4","last_reported":1762373516,"current_range_meters":12400,"station_id":"cpo3532slgdg3j2ikp40","pricing_plan_id":"cebpf4jnsgd1na2vs0mg"},{"bike_id":"23704d21-dcb4-4524-a0e7-782c68706e98","system_id":"levelo_inurba_marseille","lat":43.27933,"lon":5.41035,"is_reserved":false,"is_disabled":false,"rental_uris":{"android":"levelo://app?vid=23704d21-dcb4-4524-a0e7-782c68706e98","ios":"levelo://app?vid=23704d21-dcb4-4524-a0e7-782c68706e98"},"vehicle_type_id":"4","last_reported":1762373516,"current_range_meters":12800,"station_id":"ce4bhnp2rcd13ifvqh0g","pricing_plan_id":"cebpf4jnsgd1na2vs0mg"},{"bike_id":"b78a3f58-aa58-46ec-81b6-5811d8a0dc36","system_id":"levelo_inurba_marseille","lat":43.28921,"lon":5.38391,"is_reserved":false,"is_disabled":false,"rental_uris":{"android":"levelo://app?vid=b78a3f58-aa58-46ec-81b6-5811d8a0dc36","ios":"levelo://app?vid=b78a3f58-aa58-46ec-81b6-5811d8a0dc36"},"vehicle_type_id":"4","last_reported":1762373516,"current_range_meters":12800,"station_id":"ce4bh612rcd13ifvqe6g","pricing_plan_id":"cebpf4jnsgd1na2vs0mg"},{"bike_id":"bd408cf1-bd80-4313-bc3b-bf5982071536","system_id":"levelo_inurba_marseille","lat":43.290083,"lon":5.356147,"is_reserved":false,"is_disabled":false,"rental_uris":{"android":"levelo://app?vid=bd408cf1-bd80-4313-bc3b-bf5982071536","ios":"levelo://app?vid=bd408cf1-bd80-4313-bc3b-bf5982071536"},"vehicle_type_id":"4","last_reported":1762373516,"current_range_meters":12800,"station_id":"ce4bhb92rcd13ifvqen0","pricing_plan_id":"cebpf4jnsgd1na2vs0mg"},{"bike_id":"b37f884f-0f9f-495c-9d36-dfd4a5e58ece","system_id":"levelo_inurba_marseille","lat":43.3171,"lon":5.43709,"is_reserved":false,"is_disabled":false,"rental_uris":{"android":"levelo://app?vid=b37f884f-0f9f-495c-9d36-dfd4a5e58ece","ios":"levelo://app?vid=b37f884f-0f9f-495c-9d36-dfd4a5e58ece"},"vehicle_type_id":"4","last_reported":1762373516,"current_range_meters":12800,"station_id":"ce4bhp92rcd13ifvqhcg","pricing_plan_id":"cebpf4jnsgd1na2vs0mg"},{"bike_id":"27346f7c-aaa4-4baa-ad09-fca665d79d4e","system_id":"levelo_inurba_marseille","lat":43.29629,"lon":5.40598,"is_reserved":false,"is_disabled":false,"rental_uris":{"android":"levelo://app?vid=27346f7c-aaa4-4baa-ad09-fca665d79d4e","ios":"levelo://app?vid=27346f7c-aaa4-4baa-ad09-fca665d79d4e"},"vehicle_type_id":"4","last_reported":1762373516,"current_range_meters":12800,"station_id":"ce4bh0h2rcd13ifvqd60","pricing_plan_id":"cebpf4jnsgd1na2vs0mg"},{"bike_id":"60d93f54-c012-4b72-aea4-b57dec05303b","system_id":"levelo_inurba_marseille","lat":43.27055,"lon":5.40259,"is_reserved":false,"is_disabled":false,"rental_uris":{"android":"levelo://app?vid=60d93f54-c012-4b72-aea4-b57dec05303b","ios":"levelo://app?vid=60d93f54-c012-4b72-aea4-b57dec05303b"},"vehicle_type_id":"4","last_reported":1762373516,"current_range_meters":12800,"station_id":"ce4bhk92rcd13ifvqgc0","pricing_plan_id":"cebpf4jnsgd1na2vs0mg"},{"bike_id":"bcb3c39b-ec48-48ef-9eac-eb8b71840959","system_id":"levelo_inurba_marseille","lat":43.33757,"lon":5.37464,"is_reserved":false,"is_disabled":false,"rental_uris":{"android":"levelo://app?vid=bcb3c39b-ec48-48ef-9eac-eb8b71840959","ios":"levelo://app?vid=bcb3c39b-ec48-48ef-9eac-eb8b71840959"},"vehicle_type_id":"4","last_reported":1762373516,"current_range_meters":13600,"station_id":"","pricing_plan_id":"cebpf4jnsgd1na2vs0mg"},{"bike_id":"813d84df-d28e-442a-86a4-2693a3f1117d","system_id":"levelo_inurba_marseille","lat":43.23044,"lon":5.355,"is_reserved":false,"is_disabled":false,"rental_uris":{"android":"levelo://app?vid=813d84df-d28e-442a-86a4-2693a3f1117d","ios":"levelo://app?vid=813d84df-d28e-442a-86a4-2693a3f1117d"},"vehicle_type_id":"4","last_reported":1762373516,"current_range_meters":13600,"station_id":"cpo3342slgdg3j2ifvpg","pricing_plan_id":"cebpf4jnsgd1na2vs0mg"},{"bike_id":"cff64f4e-5f37-43ea-ae7e-1ca574864a38","system_id":"levelo_inurba_marseille","lat":43.32449,"lon":5.42808,"is_reserved":false,"is_disabled":false,"rental_uris":{"android":"levelo://app?vid=cff64f4e-5f37-43ea-ae7e-1ca574864a38","ios":"levelo://app?vid=cff64f4e-5f37-43ea-ae7e-1ca574864a38"},"vehicle_type_id":"4","last_reported":1762373516,"current_range_meters":13600,"station_id":"","pricing_plan_id":"cebpf4jnsgd1na2vs0mg"},{"bike_id":"13d984c8-48d8-4dfc-aa86-5f78c707cacf","system_id":"levelo_inurba_marseille","lat":43.280358,"lon":5.369483,"is_reserved":false,"is_disabled":true,"rental_uris":{"android":"levelo://app?vid=13d984c8-48d8-4dfc-aa86-5f78c707cacf","ios":"levelo://app?vid=13d984c8-48d8-4dfc-aa86-5f78c707cacf"},"vehicle_type_id":"4","last_reported":1762373516,"current_range_meters":13600,"station_id":"ce4bha12rcd13ifvqef0","pricing_plan_id":"cebpf4jnsgd1na2vs0mg"},{"bike_id":"42d2792a-88bd-48e5-afe0-4b6400cd337a","system_id":"levelo_inurba_marseille","lat":43.31662,"lon":5.38187,"is_reserved":false,"is_disabled":false,"rental_uris":{"android":"levelo://app?vid=42d2792a-88bd-48e5-afe0-4b6400cd337a","ios":"levelo://app?vid=42d2792a-88bd-48e5-afe0-4b6400cd337a"},"vehicle_type_id":"4","last_reported":1762373516,"current_range_meters":13600,"station_id":"","pricing_plan_id":"cebpf4jnsgd1na2vs0mg"},{"bike_id":"05494d81-4a86-4ffa-98b4-159d396ed055","system_id":"levelo_inurba_marseille","lat":43.31333,"lon":5.39687,"is_reserved":false,"is_disabled":false,"rental_uris":{"android":"levelo://app?vid=05494d81-4a86-4ffa-98b4-159d396ed055","ios":"levelo://app?vid=05494d81-4a86-4ffa-98b4-159d396ed055"},"vehicle_type_id":"4","last_reported":1762373516,"current_range_meters":13600,"station_id":"ce4bgvp2rcd13ifvqcu0","pricing_plan_id":"cebpf4jnsgd1na2vs0mg"},{"bike_id":"0379e505-fdfb-4d03-8e89-1b46252a589a","system_id":"levelo_inurba_marseille","lat":43.28101,"lon":5.37826,"is_reserved":false,"is_disabled":false,"rental_uris":{"android":"levelo://app?vid=0379e505-fdfb-4d03-8e89-1b46252a589a","ios":"levelo://app?vid=0379e505-fdfb-4d03-8e89-1b46252a589a"},"vehicle_type_id":"4","last_reported":1762373516,"current_range_meters":13600,"station_id":"ce4bha12rcd13ifvqee0","pricing_plan_id":"cebpf4jnsgd1na2vs0mg"},{"bike_id":"81dcc136-dea2-46c0-98af-42dbdee92b54","system_id":"levelo_inurba_marseille","lat":43.28469,"lon":5.48392,"is_reserved":false,"is_disabled":false,"rental_uris":{"android":"levelo://app?vid=81dcc136-dea2-46c0-98af-42dbdee92b54","ios":"levelo://app?vid=81dcc136-dea2-46c0-98af-42dbdee92b54"},"vehicle_type_id":"4","last_reported":1762373516,"current_range_meters":13600,"station_id":"st_d3svhcjqgbts73a3dn0g","pricing_plan_id":"cebpf4jnsgd1na2vs0mg"},{"bike_id":"8f66d37b-14d2-4b98-a82d-3df5be6e6cb7","system_id":"levelo_inurba_marseille","lat":43.26939,"lon":5.40257,"is_reserved":false,"is_disabled":false,"rental_uris":{"android":"levelo://app?vid=8f66d37b-14d2-4b98-a82d-3df5be6e6cb7","ios":"levelo://app?vid=8f66d37b-14d2-4b98-a82d-3df5be6e6cb7"},"vehicle_type_id":"4","last_reported":1762373516,"current_range_meters":13600,"station_id":"cjm6bp8fraef2m0cb0m0","pricing_plan_id":"cebpf4jnsgd1na2vs0mg"},{"bike_id":"94b06f3e-9c43-404e-899a-d1e48d6d7a76","system_id":"levelo_inurba_marseille","lat":43.287102,"lon":5.399967,"is_reserved":false,"is_disabled":false,"rental_uris":{"android":"levelo://app?vid=94b06f3e-9c43-404e-899a-d1e48d6d7a76","ios":"levelo://app?vid=94b06f3e-9c43-404e-899a-d1e48d6d7a76"},"vehicle_type_id":"4","last_reported":1762373516,"current_range_meters":14000,"station_id":"ce4bho92rcd13ifvqh3g","pricing_plan_id":"cebpf4jnsgd1na2vs0mg"},{"bike_id":"1b2e3542-e437-4188-9eda-632c7cbb8c02","system_id":"levelo_inurba_marseille","lat":43.27422,"lon":5.39391,"is_reserved":false,"is_disabled":false,"rental_uris":{"android":"levelo://app?vid=1b2e3542-e437-4188-9eda-632c7cbb8c02","ios":"levelo://app?vid=1b2e3542-e437-4188-9eda-632c7cbb8c02"},"vehicle_type_id":"4","last_reported":1762373516,"current_range_meters":14000,"station_id":"ce4bhdp2rcd13ifvqf20","pricing_plan_id":"cebpf4jnsgd1na2vs0mg"},{"bike_id":"8d9583f5-13d4-4bd8-9fd0-8797edcf3040","system_id":"levelo_inurba_marseille","lat":43.24389,"lon":5.37064,"is_reserved":false,"is_disabled":false,"rental_uris":{"android":"levelo://app?vid=8d9583f5-13d4-4bd8-9fd0-8797edcf3040","ios":"levelo://app?vid=8d9583f5-13d4-4bd8-9fd0-8797edcf3040"},"vehicle_type_id":"4","last_reported":1762373516,"current_range_meters":14000,"station_id":"ce4bhhh2rcd13ifvqfk0","pricing_plan_id":"cebpf4jnsgd1na2vs0mg"},{"bike_id":"72d6d1aa-ee60-4366-a03f-3d0244ccfd08","system_id":"levelo_inurba_marseille","lat":43.288564,"lon":5.393305,"is_reserved":false,"is_disabled":true,"rental_uris":{"android":"levelo://app?vid=72d6d1aa-ee60-4366-a03f-3d0244ccfd08","ios":"levelo://app?vid=72d6d1aa-ee60-4366-a03f-3d0244ccfd08"},"vehicle_type_id":"4","last_reported":1762373516,"current_range_meters":14000,"station_id":"ce4bh2p2rcd13ifvqdi0","pricing_plan_id":"cebpf4jnsgd1na2vs0mg"},{"bike_id":"c14b70b2-98d4-4848-a2d9-32722b8d1daf","system_id":"levelo_inurba_marseille","lat":43.321233,"lon":5.36762,"is_reserved":false,"is_disabled":false,"rental_uris":{"android":"levelo://app?vid=c14b70b2-98d4-4848-a2d9-32722b8d1daf","ios":"levelo://app?vid=c14b70b2-98d4-4848-a2d9-32722b8d1daf"},"vehicle_type_id":"4","last_reported":1762373516,"current_range_meters":14000,"station_id":"","pricing_plan_id":"cebpf4jnsgd1na2vs0mg"},{"bike_id":"7168191e-7c5f-4bd1-bbea-b46a429771e5","system_id":"levelo_inurba_marseille","lat":43.285285,"lon":5.440962,"is_reserved":false,"is_disabled":false,"rental_uris":{"android":"levelo://app?vid=7168191e-7c5f-4bd1-bbea-b46a429771e5","ios":"levelo://app?vid=7168191e-7c5f-4bd1-bbea-b46a429771e5"},"vehicle_type_id":"4","last_reported":1762373516,"current_range_meters":14000,"station_id":"st_d3j3df2ikq2c7380ej80","pricing_plan_id":"cebpf4jnsgd1na2vs0mg"},{"bike_id":"89668189-b95b-43c4-a0b4-cad5f1f90638","system_id":"levelo_inurba_marseille","lat":43.30165,"lon":5.38106,"is_reserved":false,"is_disabled":true,"rental_uris":{"android":"levelo://app?vid=89668189-b95b-43c4-a0b4-cad5f1f90638","ios":"levelo://app?vid=89668189-b95b-43c4-a0b4-cad5f1f90638"},"vehicle_type_id":"4","last_reported":1762373516,"current_range_meters":14000,"station_id":"ce4bgjp2rcd13ifvqbh0","pricing_plan_id":"cebpf4jnsgd1na2vs0mg"},{"bike_id":"2942c800-3594-4e5c-87aa-bf875e41a55c","system_id":"levelo_inurba_marseille","lat":43.27811,"lon":5.40718,"is_reserved":false,"is_disabled":false,"rental_uris":{"android":"levelo://app?vid=2942c800-3594-4e5c-87aa-bf875e41a55c","ios":"levelo://app?vid=2942c800-3594-4e5c-87aa-bf875e41a55c"},"vehicle_type_id":"4","last_reported":1762373516,"current_range_meters":14000,"station_id":"ce4bhnh2rcd13ifvqgtg","pricing_plan_id":"cebpf4jnsgd1na2vs0mg"},{"bike_id":"27aefe03-bbd2-43d3-8d72-3a7105da9194","system_id":"levelo_inurba_marseille","lat":43.31356,"lon":5.37911,"is_reserved":false,"is_disabled":false,"rental_uris":{"android":"levelo://app?vid=27aefe03-bbd2-43d3-8d72-3a7105da9194","ios":"levelo://app?vid=27aefe03-bbd2-43d3-8d72-3a7105da9194"},"vehicle_type_id":"4","last_reported":1762373516,"current_range_meters":14000,"station_id":"","pricing_plan_id":"cebpf4jnsgd1na2vs0mg"},{"bike_id":"fc495c3a-911a-4143-9e82-5a1f0d9524fc","system_id":"levelo_inurba_marseille","lat":43.27428,"lon":5.39418,"is_reserved":false,"is_disabled":false,"rental_uris":{"android":"levelo://app?vid=fc495c3a-911a-4143-9e82-5a1f0d9524fc","ios":"levelo://app?vid=fc495c3a-911a-4143-9e82-5a1f0d9524fc"},"vehicle_type_id":"4","last_reported":1762373516,"current_range_meters":14000,"station_id":"ce4bhdp2rcd13ifvqf20","pricing_plan_id":"cebpf4jnsgd1na2vs0mg"},{"bike_id":"278466b1-45b9-4a67-a122-065355a861d9","system_id":"levelo_inurba_marseille","lat":43.29264,"lon":5.38438,"is_reserved":false,"is_disabled":false,"rental_uris":{"android":"levelo://app?vid=278466b1-45b9-4a67-a122-065355a861d9","ios":"levelo://app?vid=278466b1-45b9-4a67-a122-065355a861d9"},"vehicle_type_id":"4","last_reported":1762373516,"current_range_meters":14000,"station_id":"ce4bh692rcd13ifvqea0","pricing_plan_id":"cebpf4jnsgd1na2vs0mg"},{"bike_id":"3c96401f-d3c3-49df-bdca-2c73cef328cb","system_id":"levelo_inurba_marseille","lat":43.27053,"lon":5.40261,"is_reserved":false,"is_disabled":false,"rental_uris":{"android":"levelo://app?vid=3c96401f-d3c3-49df-bdca-2c73cef328cb","ios":"levelo://app?vid=3c96401f-d3c3-49df-bdca-2c73cef328cb"},"vehicle_type_id":"4","last_reported":1762373516,"current_range_meters":14000,"station_id":"ce4bhk92rcd13ifvqgc0","pricing_plan_id":"cebpf4jnsgd1na2vs0mg"},{"bike_id":"d05e3da8-8106-4f59-8bbd-be54a04dadf0","system_id":"levelo_inurba_marseille","lat":43.292582,"lon":5.409119,"is_reserved":false,"is_disabled":false,"rental_uris":{"android":"levelo://app?vid=d05e3da8-8106-4f59-8bbd-be54a04dadf0","ios":"levelo://app?vid=d05e3da8-8106-4f59-8bbd-be54a04dadf0"},"vehicle_type_id":"4","last_reported":1762373516,"current_range_meters":14000,"station_id":"ce4bhih2rcd13ifvqfs0","pricing_plan_id":"cebpf4jnsgd1na2vs0mg"},{"bike_id":"8cf54d33-efb5-4166-8509-df2cb57488b1","system_id":"levelo_inurba_marseille","lat":43.3343,"lon":5.40018,"is_reserved":false,"is_disabled":false,"rental_uris":{"android":"levelo://app?vid=8cf54d33-efb5-4166-8509-df2cb57488b1","ios":"levelo://app?vid=8cf54d33-efb5-4166-8509-df2cb57488b1"},"vehicle_type_id":"4","last_reported":1762373516,"current_range_meters":14000,"station_id":"","pricing_plan_id":"cebpf4jnsgd1na2vs0mg"},{"bike_id":"d02d7ddb-1895-4f1f-b1e2-862b2f1b0833","system_id":"levelo_inurba_marseille","lat":43.295298,"lon":5.385371,"is_reserved":false,"is_disabled":false,"rental_uris":{"android":"levelo://app?vid=d02d7ddb-1895-4f1f-b1e2-862b2f1b0833","ios":"levelo://app?vid=d02d7ddb-1895-4f1f-b1e2-862b2f1b0833"},"vehicle_type_id":"4","last_reported":1762373516,"current_range_meters":14400,"station_id":"ce4bgih2rcd13ifvqba0","pricing_plan_id":"cebpf4jnsgd1na2vs0mg"},{"bike_id":"a6010974-670e-49c0-b408-8e5fee4c2775","system_id":"levelo_inurba_marseille","lat":43.24168,"lon":5.36394,"is_reserved":false,"is_disabled":false,"rental_uris":{"android":"levelo://app?vid=a6010974-670e-49c0-b408-8e5fee4c2775","ios":"levelo://app?vid=a6010974-670e-49c0-b408-8e5fee4c2775"},"vehicle_type_id":"4","last_reported":1762373516,"current_range_meters":14400,"station_id":"cpo36qri1sfpv3e86is0","pricing_plan_id":"cebpf4jnsgd1na2vs0mg"},{"bike_id":"d1dda1a3-56ec-411a-af14-ce9e6583b8d3","system_id":"levelo_inurba_marseille","lat":43.24657,"lon":5.38161,"is_reserved":false,"is_disabled":false,"rental_uris":{"android":"levelo://app?vid=d1dda1a3-56ec-411a-af14-ce9e6583b8d3","ios":"levelo://app?vid=d1dda1a3-56ec-411a-af14-ce9e6583b8d3"},"vehicle_type_id":"4","last_reported":1762373516,"current_range_meters":14400,"station_id":"ce4bhih2rcd13ifvqfr0","pricing_plan_id":"cebpf4jnsgd1na2vs0mg"},{"bike_id":"ca46fdbd-ac89-432a-9c58-507605a7d54c","system_id":"levelo_inurba_marseille","lat":43.29269,"lon":5.37629,"is_reserved":false,"is_disabled":false,"rental_uris":{"android":"levelo://app?vid=ca46fdbd-ac89-432a-9c58-507605a7d54c","ios":"levelo://app?vid=ca46fdbd-ac89-432a-9c58-507605a7d54c"},"vehicle_type_id":"4","last_reported":1762373516,"current_range_meters":14400,"station_id":"ce4bgi12rcd13ifvqb80","pricing_plan_id":"cebpf4jnsgd1na2vs0mg"},{"bike_id":"cb9c2b7b-ee4e-4e1c-ac32-992867150fd4","system_id":"levelo_inurba_marseille","lat":43.287094,"lon":5.373805,"is_reserved":false,"is_disabled":false,"rental_uris":{"android":"levelo://app?vid=cb9c2b7b-ee4e-4e1c-ac32-992867150fd4","ios":"levelo://app?vid=cb9c2b7b-ee4e-4e1c-ac32-992867150fd4"},"vehicle_type_id":"4","last_reported":1762373516,"current_range_meters":14400,"station_id":"ce4bh3p2rcd13ifvqdq0","pricing_plan_id":"cebpf4jnsgd1na2vs0mg"},{"bike_id":"9a7e02d4-5f41-42ac-bc30-bacb18ad2120","system_id":"levelo_inurba_marseille","lat":43.28929,"lon":5.36624,"is_reserved":false,"is_disabled":false,"rental_uris":{"android":"levelo://app?vid=9a7e02d4-5f41-42ac-bc30-bacb18ad2120","ios":"levelo://app?vid=9a7e02d4-5f41-42ac-bc30-bacb18ad2120"},"vehicle_type_id":"4","last_reported":1762373516,"current_range_meters":14400,"station_id":"ce4bhap2rcd13ifvqek0","pricing_plan_id":"cebpf4jnsgd1na2vs0mg"},{"bike_id":"c0462bdf-2858-4914-a377-421987398d1e","system_id":"levelo_inurba_marseille","lat":43.30117,"lon":5.43117,"is_reserved":false,"is_disabled":false,"rental_uris":{"android":"levelo://app?vid=c0462bdf-2858-4914-a377-421987398d1e","ios":"levelo://app?vid=c0462bdf-2858-4914-a377-421987398d1e"},"vehicle_type_id":"4","last_reported":1762373516,"current_range_meters":14400,"station_id":"st_d3js3co5814s73ftftug","pricing_plan_id":"cebpf4jnsgd1na2vs0mg"},{"bike_id":"bda62a0d-e285-4468-a90a-40c415b7cc05","system_id":"levelo_inurba_marseille","lat":43.27328,"lon":5.39083,"is_reserved":false,"is_disabled":false,"rental_uris":{"android":"levelo://app?vid=bda62a0d-e285-4468-a90a-40c415b7cc05","ios":"levelo://app?vid=bda62a0d-e285-4468-a90a-40c415b7cc05"},"vehicle_type_id":"4","last_reported":1762373516,"current_range_meters":14400,"station_id":"ce4bhgp2rcd13ifvqfe0","pricing_plan_id":"cebpf4jnsgd1na2vs0mg"},{"bike_id":"d1dc1395-8a1c-426c-9982-b99941fa2e2c","system_id":"levelo_inurba_marseille","lat":43.29021,"lon":5.38639,"is_reserved":false,"is_disabled":false,"rental_uris":{"android":"levelo://app?vid=d1dc1395-8a1c-426c-9982-b99941fa2e2c","ios":"levelo://app?vid=d1dc1395-8a1c-426c-9982-b99941fa2e2c"},"vehicle_type_id":"4","last_reported":1762373516,"current_range_meters":14400,"station_id":"ce4bh4p2rcd13ifvqe0g","pricing_plan_id":"cebpf4jnsgd1na2vs0mg"},{"bike_id":"78896351-6f0a-4176-a1a1-97455193eba0","system_id":"levelo_inurba_marseille","lat":43.28477,"lon":5.38418,"is_reserved":false,"is_disabled":false,"rental_uris":{"android":"levelo://app?vid=78896351-6f0a-4176-a1a1-97455193eba0","ios":"levelo://app?vid=78896351-6f0a-4176-a1a1-97455193eba0"},"vehicle_type_id":"4","last_reported":1762373516,"current_range_meters":14400,"station_id":"ce4bh512rcd13ifvqe3g","pricing_plan_id":"cebpf4jnsgd1na2vs0mg"},{"bike_id":"945e96b7-fc8b-4042-b636-1cb46e8c6c47","system_id":"levelo_inurba_marseille","lat":43.30892,"lon":5.3718,"is_reserved":false,"is_disabled":false,"rental_uris":{"android":"levelo://app?vid=945e96b7-fc8b-4042-b636-1cb46e8c6c47","ios":"levelo://app?vid=945e96b7-fc8b-4042-b636-1cb46e8c6c47"},"vehicle_type_id":"4","last_reported":1762373516,"current_range_meters":14800,"station_id":"ce4bguh2rcd13ifvqckg","pricing_plan_id":"cebpf4jnsgd1na2vs0mg"},{"bike_id":"9ff06bf0-2943-4b58-bdcf-59c03cfcf618","system_id":"levelo_inurba_marseille","lat":43.28663,"lon":5.36349,"is_reserved":false,"is_disabled":false,"rental_uris":{"android":"levelo://app?vid=9ff06bf0-2943-4b58-bdcf-59c03cfcf618","ios":"levelo://app?vid=9ff06bf0-2943-4b58-bdcf-59c03cfcf618"},"vehicle_type_id":"4","last_reported":1762373516,"current_range_meters":14800,"station_id":"ce4bhah2rcd13ifvqej0","pricing_plan_id":"cebpf4jnsgd1na2vs0mg"},{"bike_id":"dcd7cc05-09ca-451c-b5c3-aec30ed844a3","system_id":"levelo_inurba_marseille","lat":43.29379,"lon":5.39868,"is_reserved":false,"is_disabled":false,"rental_uris":{"android":"levelo://app?vid=dcd7cc05-09ca-451c-b5c3-aec30ed844a3","ios":"levelo://app?vid=dcd7cc05-09ca-451c-b5c3-aec30ed844a3"},"vehicle_type_id":"4","last_reported":1762373516,"current_range_meters":14800,"station_id":"","pricing_plan_id":"cebpf4jnsgd1na2vs0mg"},{"bike_id":"09f24637-12c3-4644-bd54-3504eacee420","system_id":"levelo_inurba_marseille","lat":43.31725,"lon":5.42414,"is_reserved":false,"is_disabled":false,"rental_uris":{"android":"levelo://app?vid=09f24637-12c3-4644-bd54-3504eacee420","ios":"levelo://app?vid=09f24637-12c3-4644-bd54-3504eacee420"},"vehicle_type_id":"4","last_reported":1762373516,"current_range_meters":14800,"station_id":"ce4bhp92rcd13ifvqhbg","pricing_plan_id":"cebpf4jnsgd1na2vs0mg"},{"bike_id":"1630b2ec-950a-417d-ae10-91104c051d51","system_id":"levelo_inurba_marseille","lat":43.27809,"lon":5.4071,"is_reserved":false,"is_disabled":false,"rental_uris":{"android":"levelo://app?vid=1630b2ec-950a-417d-ae10-91104c051d51","ios":"levelo://app?vid=1630b2ec-950a-417d-ae10-91104c051d51"},"vehicle_type_id":"4","last_reported":1762373516,"current_range_meters":14800,"station_id":"ce4bhnh2rcd13ifvqgtg","pricing_plan_id":"cebpf4jnsgd1na2vs0mg"},{"bike_id":"34766c65-aa4c-4509-be73-0e560cece71b","system_id":"levelo_inurba_marseille","lat":43.269294,"lon":5.40261,"is_reserved":false,"is_disabled":false,"rental_uris":{"android":"levelo://app?vid=34766c65-aa4c-4509-be73-0e560cece71b","ios":"levelo://app?vid=34766c65-aa4c-4509-be73-0e560cece71b"},"vehicle_type_id":"4","last_reported":1762373516,"current_range_meters":14800,"station_id":"cjm6bp8fraef2m0cb0m0","pricing_plan_id":"cebpf4jnsgd1na2vs0mg"},{"bike_id":"d003dd43-341c-4d5c-a6f7-c9637153b2a6","system_id":"levelo_inurba_marseille","lat":43.29523,"lon":5.385257,"is_reserved":false,"is_disabled":false,"rental_uris":{"android":"levelo://app?vid=d003dd43-341c-4d5c-a6f7-c9637153b2a6","ios":"levelo://app?vid=d003dd43-341c-4d5c-a6f7-c9637153b2a6"},"vehicle_type_id":"4","last_reported":1762373516,"current_range_meters":14800,"station_id":"ce4bgih2rcd13ifvqba0","pricing_plan_id":"cebpf4jnsgd1na2vs0mg"},{"bike_id":"5e6ec26b-85bb-44f7-9ae0-e1368234eaa7","system_id":"levelo_inurba_marseille","lat":43.27815,"lon":5.40711,"is_reserved":false,"is_disabled":false,"rental_uris":{"android":"levelo://app?vid=5e6ec26b-85bb-44f7-9ae0-e1368234eaa7","ios":"levelo://app?vid=5e6ec26b-85bb-44f7-9ae0-e1368234eaa7"},"vehicle_type_id":"4","last_reported":1762373516,"current_range_meters":14800,"station_id":"ce4bhnh2rcd13ifvqgtg","pricing_plan_id":"cebpf4jnsgd1na2vs0mg"},{"bike_id":"815f6c5e-c259-40bc-a2f0-13fb20795193","system_id":"levelo_inurba_marseille","lat":43.24074,"lon":5.37758,"is_reserved":false,"is_disabled":false,"rental_uris":{"android":"levelo://app?vid=815f6c5e-c259-40bc-a2f0-13fb20795193","ios":"levelo://app?vid=815f6c5e-c259-40bc-a2f0-13fb20795193"},"vehicle_type_id":"4","last_reported":1762373516,"current_range_meters":15200,"station_id":"ce4bhnp2rcd13ifvqgvg","pricing_plan_id":"cebpf4jnsgd1na2vs0mg"},{"bike_id":"7f8aabb2-ae55-43a4-9256-b2065bdaa753","system_id":"levelo_inurba_marseille","lat":43.246474,"lon":5.388901,"is_reserved":false,"is_disabled":false,"rental_uris":{"android":"levelo://app?vid=7f8aabb2-ae55-43a4-9256-b2065bdaa753","ios":"levelo://app?vid=7f8aabb2-ae55-43a4-9256-b2065bdaa753"},"vehicle_type_id":"4","last_reported":1762373516,"current_range_meters":15200,"station_id":"ce4bhg12rcd13ifvqf60","pricing_plan_id":"cebpf4jnsgd1na2vs0mg"},{"bike_id":"3d1e06ad-9d59-40de-8772-2d3bbcaab9f0","system_id":"levelo_inurba_marseille","lat":43.29705,"lon":5.36598,"is_reserved":false,"is_disabled":false,"rental_uris":{"android":"levelo://app?vid=3d1e06ad-9d59-40de-8772-2d3bbcaab9f0","ios":"levelo://app?vid=3d1e06ad-9d59-40de-8772-2d3bbcaab9f0"},"vehicle_type_id":"4","last_reported":1762373516,"current_range_meters":15200,"station_id":"ce4bgn12rcd13ifvqbt0","pricing_plan_id":"cebpf4jnsgd1na2vs0mg"},{"bike_id":"1186e388-3957-4e6a-8137-fd19f22b4e14","system_id":"levelo_inurba_marseille","lat":43.32368,"lon":5.38883,"is_reserved":false,"is_disabled":false,"rental_uris":{"android":"levelo://app?vid=1186e388-3957-4e6a-8137-fd19f22b4e14","ios":"levelo://app?vid=1186e388-3957-4e6a-8137-fd19f22b4e14"},"vehicle_type_id":"4","last_reported":1762373516,"current_range_meters":15200,"station_id":"ce4bhqp2rcd13ifvqhog","pricing_plan_id":"cebpf4jnsgd1na2vs0mg"},{"bike_id":"eae235d5-3e68-4694-9a71-cfe15ffb411b","system_id":"levelo_inurba_marseille","lat":43.26964,"lon":5.38624,"is_reserved":false,"is_disabled":false,"rental_uris":{"android":"levelo://app?vid=eae235d5-3e68-4694-9a71-cfe15ffb411b","ios":"levelo://app?vid=eae235d5-3e68-4694-9a71-cfe15ffb411b"},"vehicle_type_id":"4","last_reported":1762373516,"current_range_meters":15200,"station_id":"ce4bhh92rcd13ifvqfh0","pricing_plan_id":"cebpf4jnsgd1na2vs0mg"},{"bike_id":"8cbfebfc-6d68-4b68-8270-d866ef29a005","system_id":"levelo_inurba_marseille","lat":43.295288,"lon":5.385316,"is_reserved":false,"is_disabled":false,"rental_uris":{"android":"levelo://app?vid=8cbfebfc-6d68-4b68-8270-d866ef29a005","ios":"levelo://app?vid=8cbfebfc-6d68-4b68-8270-d866ef29a005"},"vehicle_type_id":"4","last_reported":1762373516,"current_range_meters":15200,"station_id":"ce4bgih2rcd13ifvqba0","pricing_plan_id":"cebpf4jnsgd1na2vs0mg"},{"bike_id":"3cf19423-4f24-4709-adcb-e1ca70cf4cef","system_id":"levelo_inurba_marseille","lat":43.31684,"lon":5.40484,"is_reserved":false,"is_disabled":true,"rental_uris":{"android":"levelo://app?vid=3cf19423-4f24-4709-adcb-e1ca70cf4cef","ios":"levelo://app?vid=3cf19423-4f24-4709-adcb-e1ca70cf4cef"},"vehicle_type_id":"4","last_reported":1762373516,"current_range_meters":16000,"station_id":"ce4bh012rcd13ifvqd00","pricing_plan_id":"cebpf4jnsgd1na2vs0mg"},{"bike_id":"b8bf2799-1db9-47dd-b7c3-5c4dffca3ddf","system_id":"levelo_inurba_marseille","lat":43.23775,"lon":5.36631,"is_reserved":false,"is_disabled":false,"rental_uris":{"android":"levelo://app?vid=b8bf2799-1db9-47dd-b7c3-5c4dffca3ddf","ios":"levelo://app?vid=b8bf2799-1db9-47dd-b7c3-5c4dffca3ddf"},"vehicle_type_id":"4","last_reported":1762373516,"current_range_meters":16000,"station_id":"st_d3nk18o9ro0c73en2l3g","pricing_plan_id":"cebpf4jnsgd1na2vs0mg"},{"bike_id":"ed28fdbf-00db-48d2-8457-90a9a5ce0d70","system_id":"levelo_inurba_marseille","lat":43.29871,"lon":5.39733,"is_reserved":false,"is_disabled":false,"rental_uris":{"android":"levelo://app?vid=ed28fdbf-00db-48d2-8457-90a9a5ce0d70","ios":"levelo://app?vid=ed28fdbf-00db-48d2-8457-90a9a5ce0d70"},"vehicle_type_id":"4","last_reported":1762373516,"current_range_meters":16000,"station_id":"ce4bh0h2rcd13ifvqd50","pricing_plan_id":"cebpf4jnsgd1na2vs0mg"},{"bike_id":"a234ee40-d560-4c25-b385-8e12967041a7","system_id":"levelo_inurba_marseille","lat":43.27614,"lon":5.36101,"is_reserved":false,"is_disabled":false,"rental_uris":{"android":"levelo://app?vid=a234ee40-d560-4c25-b385-8e12967041a7","ios":"levelo://app?vid=a234ee40-d560-4c25-b385-8e12967041a7"},"vehicle_type_id":"4","last_reported":1762373516,"current_range_meters":16000,"station_id":"ce4bgj92rcd13ifvqbe0","pricing_plan_id":"cebpf4jnsgd1na2vs0mg"},{"bike_id":"d77a88e5-20b9-4fe1-89df-69baec122738","system_id":"levelo_inurba_marseille","lat":43.29748,"lon":5.38075,"is_reserved":false,"is_disabled":false,"rental_uris":{"android":"levelo://app?vid=d77a88e5-20b9-4fe1-89df-69baec122738","ios":"levelo://app?vid=d77a88e5-20b9-4fe1-89df-69baec122738"},"vehicle_type_id":"4","last_reported":1762373516,"current_range_meters":16000,"station_id":"","pricing_plan_id":"cebpf4jnsgd1na2vs0mg"},{"bike_id":"929999a6-b071-4278-81b4-e68a96607eec","system_id":"levelo_inurba_marseille","lat":43.24059,"lon":5.37723,"is_reserved":false,"is_disabled":false,"rental_uris":{"android":"levelo://app?vid=929999a6-b071-4278-81b4-e68a96607eec","ios":"levelo://app?vid=929999a6-b071-4278-81b4-e68a96607eec"},"vehicle_type_id":"4","last_reported":1762373516,"current_range_meters":16000,"station_id":"ce4bhnp2rcd13ifvqgvg","pricing_plan_id":"cebpf4jnsgd1na2vs0mg"},{"bike_id":"376d879c-b18b-4d8c-8432-51ed24b99976","system_id":"levelo_inurba_marseille","lat":43.268053,"lon":5.402702,"is_reserved":false,"is_disabled":false,"rental_uris":{"android":"levelo://app?vid=376d879c-b18b-4d8c-8432-51ed24b99976","ios":"levelo://app?vid=376d879c-b18b-4d8c-8432-51ed24b99976"},"vehicle_type_id":"4","last_reported":1762373516,"current_range_meters":16400,"station_id":"ce501612rcd8frsf0b60","pricing_plan_id":"cebpf4jnsgd1na2vs0mg"},{"bike_id":"6697cbb2-7c65-42f6-9d1c-52bcd2753258","system_id":"levelo_inurba_marseille","lat":43.29569,"lon":5.42259,"is_reserved":false,"is_disabled":false,"rental_uris":{"android":"levelo://app?vid=6697cbb2-7c65-42f6-9d1c-52bcd2753258","ios":"levelo://app?vid=6697cbb2-7c65-42f6-9d1c-52bcd2753258"},"vehicle_type_id":"4","last_reported":1762373516,"current_range_meters":16400,"station_id":"ce4bhph2rcd13ifvqhdg","pricing_plan_id":"cebpf4jnsgd1na2vs0mg"},{"bike_id":"c6d2dafc-fb2c-4b82-8b78-f3d7d347211b","system_id":"levelo_inurba_marseille","lat":43.32352,"lon":5.36756,"is_reserved":false,"is_disabled":false,"rental_uris":{"android":"levelo://app?vid=c6d2dafc-fb2c-4b82-8b78-f3d7d347211b","ios":"levelo://app?vid=c6d2dafc-fb2c-4b82-8b78-f3d7d347211b"},"vehicle_type_id":"4","last_reported":1762373516,"current_range_meters":16400,"station_id":"ce4bhsh2rcd13ifvqi2g","pricing_plan_id":"cebpf4jnsgd1na2vs0mg"},