{"last_updated":1747004950,"ttl":60,"version":"2.2","data":{"bikes":[{"bike_id":"c0b9fd4f-e181-46ce-b0bf-f5119973334f","system_id":"levelo_inurba_marseille","lat":43.33771,"lon":5.37424,"is_reserved":false,"is_disabled":false,"rental_uris":{"android":"levelo://app?vid=c0b9fd4f-e181-46ce-b0bf-f5119973334f","ios":"levelo://app?vid=c0b9fd4f-e181-46ce-b0bf-f5119973334f"},"vehicle_type_id":"4","last_reported":1747004950,"current_range_meters":30800,"station_id":"","pricing_plan_id":"cebpf4jnsgd1na2vs0mg"},{"bike_id":"229001d2-7627-43e0-aeea-2d75580fd339","system_id":"levelo_inurba_marseille","lat":43.28288,"lon":5.43239,"is_reserved":false,"is_disabled":true,"rental_uris":{"android":"levelo://app?vid=229001d2-7627-43e0-aeea-2d75580fd339","ios":"levelo://app?vid=229001d2-7627-43e0-aeea-2d75580fd339"},"vehicle_type_id":"4","last_reported":1747004950,"current_range_meters":0,"station_id":"","pricing_plan_id":"cebpf4jnsgd1na2vs0mg"},{"bike_id":"ad17c5b4-973a-4cb5-ad8c-32068ccae9d2","system_id":"levelo_inurba_marseille","lat":43.289658,"lon":5.432245,"is_reserved":false,"is_disabled":true,"rental_uris":{"android":"levelo://app?vid=ad17c5b4-973a-4cb5-ad8c-32068ccae9d2","ios":"levelo://app?vid=ad17c5b4-973a-4cb5-ad8c-32068ccae9d2"},"vehicle_type_id":"4","last_reported":1747004950,"current_range_meters":0,"station_id":"","pricing_plan_id":"cebpf4jnsgd1na2vs0mg"},{"bike_id":"a72028ca-425b-4f2c-9e2d-16be28a01f65","system_id":"levelo_inurba_marseille","lat":43.26026,"lon":5.41736,"is_reserved":false,"is_disabled":true,"rental_uris":{"android":"levelo://app?vid=a72028ca-425b-4f2c-9e2d-16be28a01f65","ios":"levelo://app?vid=a72028ca-425b-4f2c-9e2d-16be28a01f65"},"vehicle_type_id":"4","last_reported":1747004950,"current_range_meters":0,"station_id":"","pricing_plan_id":"cebpf4jnsgd1na2vs0mg"},{"bike_id":"e43d995b-a136-4201-b650-ca62eacfe18a","system_id":"levelo_inurba_marseille","lat":43.27135,"lon":5.36371,"is_reserved":false,"is_disabled":true,"rental_uris":{"android":"levelo://app?vid=e43d995b-a136-4201-b650-ca62eacfe18a","ios":"levelo://app?vid=e43d995b-a136-4201-b650-ca62eacfe18a"},"vehicle_type_id":"4","last_reported":1747004950,"current_range_meters":0,"station_id":"","pricing_plan_id":"cebpf4jnsgd1na2vs0mg"},{"bike_id":"e7fa570d-84b5-4cf9-a1d8-279172e9675f","system_id":"levelo_inurba_marseille","lat":43.30145,"lon":5.39876,"is_reserved":false,"is_disabled":true,"rental_uris":{"android":"levelo://app?vid=e7fa570d-84b5-4cf9-a1d8-279172e9675f","ios":"levelo://app?vid=e7fa570d-84b5-4cf9-a1d8-279172e9675f"},"vehicle_type_id":"4","last_reported":1747004950,"current_range_meters":800,"station_id":"ce4bh0h2rcd13ifvqd40","pricing_plan_id":"cebpf4jnsgd1na2vs0mg"},{"bike_id":"c7e49f24-e3ee-4dae-9794-2cd6113e9290","system_id":"levelo_inurba_marseille","lat":43.30612,"lon":5.37219,"is_reserved":false,"is_disabled":false,"rental_uris":{"android":"levelo://app?vid=c7e49f24-e3ee-4dae-9794-2cd6113e9290","ios":"levelo://app?vid=c7e49f24-e3ee-4dae-9794-2cd6113e9290"},"vehicle_type_id":"4","last_reported":1747004950,"current_range_meters":3200,"station_id":"ce4bgqh2rcd13ifvqc4g","pricing_plan_id":"cebpf4jnsgd1na2vs0mg"},{"bike_id":"59bbc484-ce81-45fc-9ad9-76ee5bc49652","system_id":"levelo_inurba_marseille","lat":43.2656,"lon":5.37281,"is_reserved":false,"is_disabled":false,"rental_uris":{"android":"levelo://app?vid=59bbc484-ce81-45fc-9ad9-76ee5bc49652","ios":"levelo://app?vid=59bbc484-ce81-45fc-9ad9-76ee5bc49652"},"vehicle_type_id":"4","last_reported":1747004950,"current_range_meters":3200,"station_id":"ce4bhg12rcd13ifvqf70","pricing_plan_id":"cebpf4jnsgd1na2vs0mg"},{"bike_id":"35556d0d-c412-462b-a9ac-1e498ca348ef","system_id":"levelo_inurba_marseille","lat":43.28711,"lon":5.39992,"is_reserved":false,"is_disabled":false,"rental_uris":{"android":"levelo://app?vid=35556d0d-c412-462b-a9ac-1e498ca348ef","ios":"levelo://app?vid=35556d0d-c412-462b-a9ac-1e498ca348ef"},"vehicle_type_id":"4","last_reported":1747004950,"current_range_meters":3600,"station_id":"ce4bho92rcd13ifvqh3g","pricing_plan_id":"cebpf4jnsgd1na2vs0mg"},{"bike_id":"b639e3ef-1110-4c97-a908-ecdeaf1f634f","system_id":"levelo_inurba_marseille","lat":43.29422,"lon":5.38626,"is_reserved":false,"is_disabled":false,"rental_uris":{"android":"levelo://app?vid=b639e3ef-1110-4c97-a908-ecdeaf1f634f","ios":"levelo://app?vid=b639e3ef-1110-4c97-a908-ecdeaf1f634f"},"vehicle_type_id":"4","last_reported":1747004950,"current_range_meters":4000,"station_id":"ce4bh2h2rcd13ifvqdh0","pricing_plan_id":"cebpf4jnsgd1na2vs0mg"},{"bike_id":"a67b9eb8-4970-4f7b-971b-9730c78c2f18","system_id":"levelo_inurba_marseille","lat":43.27671,"lon":5.3888,"is_reserved":false,"is_disabled":false,"rental_uris":{"android":"levelo://app?vid=a67b9eb8-4970-4f7b-971b-9730c78c2f18","ios":"levelo://app?vid=a67b9eb8-4970-4f7b-971b-9730c78c2f18"},"vehicle_type_id":"4","last_reported":1747004950,"current_range_meters":4000,"station_id":"ce4bhi12rcd13ifvqfo0","pricing_plan_id":"cebpf4jnsgd1na2vs0mg"},{"bike_id":"712c3a92-936e-42bc-8c2c-8b4dac8faebc","system_id":"levelo_inurba_marseille","lat":43.25871,"lon":5.398997,"is_reserved":false,"is_disabled":false,"rental_uris":{"android":"levelo://app?vid=712c3a92-936e-42bc-8c2c-8b4dac8faebc","ios":"levelo://app?vid=712c3a92-936e-42bc-8c2c-8b4dac8faebc"},"vehicle_type_id":"4","last_reported":1747004950,"current_range_meters":4000,"station_id":"ce4bhl92rcd13ifvqghg","pricing_plan_id":"cebpf4jnsgd1na2vs0mg"},{"bike_id":"c7b2effd-ed37-4223-a0c6-29d0e842dbd5","system_id":"levelo_inurba_marseille","lat":43.30049,"lon":5.37819,"is_reserved":false,"is_disabled":false,"rental_uris":{"android":"levelo://app?vid=c7b2effd-ed37-4223-a0c6-29d0e842dbd5","ios":"levelo://app?vid=c7b2effd-ed37-4223-a0c6-29d0e842dbd5"},"vehicle_type_id":"4","last_reported":1747004950,"current_range_meters":4400,"station_id":"","pricing_plan_id":"cebpf4jnsgd1na2vs0mg"},{"bike_id":"a56fb59c-734b-47d4-95f8-eb040692ba64","system_id":"levelo_inurba_marseille","lat":43.28348,"lon":5.380927,"is_reserved":false,"is_disabled":false,"rental_uris":{"android":"levelo://app?vid=a56fb59c-734b-47d4-95f8-eb040692ba64","ios":"levelo://app?vid=a56fb59c-734b-47d4-95f8-eb040692ba64"},"vehicle_type_id":"4","last_reported":1747004950,"current_range_meters":4400,"station_id":"ce4bh412rcd13ifvqdr0","pricing_plan_id":"cebpf4jnsgd1na2vs0mg"},{"bike_id":"22932bc6-1947-449b-a3ce-701d2ddc38d2","system_id":"levelo_inurba_marseille","lat":43.240707,"lon":5.377603,"is_reserved":false,"is_disabled":false,"rental_uris":{"android":"levelo://app?vid=22932bc6-1947-449b-a3ce-701d2ddc38d2","ios":"levelo://app?vid=22932bc6-1947-449b-a3ce-701d2ddc38d2"},"vehicle_type_id":"4","last_reported":1747004950,"current_range_meters":6800,"station_id":"ce4bhnp2rcd13ifvqgvg","pricing_plan_id":"cebpf4jnsgd1na2vs0mg"},{"bike_id":"7753263f-606c-41a4-b4f7-9d9f687b4068","system_id":"levelo_inurba_marseille","lat":43.26951,"lon":5.38627,"is_reserved":false,"is_disabled":false,"rental_uris":{"android":"levelo://app?vid=7753263f-606c-41a4-b4f7-9d9f687b4068","ios":"levelo://app?vid=7753263f-606c-41a4-b4f7-9d9f687b4068"},"vehicle_type_id":"4","last_reported":1747004950,"current_range_meters":7200,"station_id":"ce4bhh92rcd13ifvqfh0","pricing_plan_id":"cebpf4jnsgd1na2vs0mg"},{"bike_id":"349ab267-2d63-414f-8605-837bf3d40763","system_id":"levelo_inurba_marseille","lat":43.26495,"lon":5.39534,"is_reserved":false,"is_disabled":false,"rental_uris":{"android":"levelo://app?vid=349ab267-2d63-414f-8605-837bf3d40763","ios":"levelo://app?vid=349ab267-2d63-414f-8605-837bf3d40763"},"vehicle_type_id":"4","last_reported":1747004950,"current_range_meters":8000,"station_id":"ce4bhi12rcd13ifvqfq0","pricing_plan_id":"cebpf4jnsgd1na2vs0mg"},{"bike_id":"63bdd50a-b728-4d10-9320-dbc9bfa5973f","system_id":"levelo_inurba_marseille","lat":43.270707,"lon":5.422764,"is_reserved":false,"is_disabled":false,"rental_uris":{"android":"levelo://app?vid=63bdd50a-b728-4d10-9320-dbc9bfa5973f","ios":"levelo://app?vid=63bdd50a-b728-4d10-9320-dbc9bfa5973f"},"vehicle_type_id":"4","last_reported":1747004950,"current_range_meters":8000,"station_id":"ce4bhk92rcd13ifvqgb0","pricing_plan_id":"cebpf4jnsgd1na2vs0mg"},{"bike_id":"a2caaaf9-7893-49ed-8650-aedce0e60aba","system_id":"levelo_inurba_marseille","lat":43.25082,"lon":5.39508,"is_reserved":false,"is_disabled":false,"rental_uris":{"android":"levelo://app?vid=a2caaaf9-7893-49ed-8650-aedce0e60aba","ios":"levelo://app?vid=a2caaaf9-7893-49ed-8650-aedce0e60aba"},"vehicle_type_id":"4","last_reported":1747004950,"current_range_meters":8000,"station_id":"ce4bhm12rcd13ifvqgkg","pricing_plan_id":"cebpf4jnsgd1na2vs0mg"},{"bike_id":"fc2577e7-1497-425b-9d4f-ab8d7dc843c6","system_id":"levelo_inurba_marseille","lat":43.33771,"lon":5.37485,"is_reserved":false,"is_disabled":false,"rental_uris":{"android":"levelo://app?vid=fc2577e7-1497-425b-9d4f-ab8d7dc843c6","ios":"levelo://app?vid=fc2577e7-1497-425b-9d4f-ab8d7dc843c6"},"vehicle_type_id":"4","last_reported":1747004950,"current_range_meters":8400,"station_id":"","pricing_plan_id":"cebpf4jnsgd1na2vs0mg"},{"bike_id":"06f516e2-a624-409e-9fe6-be2ca00c1950","system_id":"levelo_inurba_marseille","lat":43.24663,"lon":5.38163,"is_reserved":false,"is_disabled":false,"rental_uris":{"android":"levelo://app?vid=06f516e2-a624-409e-9fe6-be2ca00c1950","ios":"levelo://app?vid=06f516e2-a624-409e-9fe6-be2ca00c1950"},"vehicle_type_id":"4","last_reported":1747004950,"current_range_meters":8400,"station_id":"ce4bhih2rcd13ifvqfr0","pricing_plan_id":"cebpf4jnsgd1na2vs0mg"},{"bike_id":"4be526c1-c099-4e56-8476-6a072fafda70","system_id":"levelo_inurba_marseille","lat":43.25119,"lon":5.403125,"is_reserved":false,"is_disabled":false,"rental_uris":{"android":"levelo://app?vid=4be526c1-c099-4e56-8476-6a072fafda70","ios":"levelo://app?vid=4be526c1-c099-4e56-8476-6a072fafda70"},"vehicle_type_id":"4","last_reported":1747004950,"current_range_meters":8400,"station_id":"ce4bhlh2rcd13ifvqgig","pricing_plan_id":"cebpf4jnsgd1na2vs0mg"},{"bike_id":"bfd5e787-a75e-4dab-9738-e35cbb0c870a","system_id":"levelo_inurba_marseille","lat":43.32491,"lon":5.36584,"is_reserved":false,"is_disabled":false,"rental_uris":{"android":"levelo://app?vid=bfd5e787-a75e-4dab-9738-e35cbb0c870a","ios":"levelo://app?vid=bfd5e787-a75e-4dab-9738-e35cbb0c870a"},"vehicle_type_id":"4","last_reported":1747004950,"current_range_meters":8400,"station_id":"ce4bhs12rcd13ifvqhvg","pricing_plan_id":"cebpf4jnsgd1na2vs0mg"},{"bike_id":"9a29c3b8-81e5-477e-a423-b490dc7740bd","system_id":"levelo_inurba_marseille","lat":43.31163,"lon":5.38709,"is_reserved":false,"is_disabled":false,"rental_uris":{"android":"levelo://app?vid=9a29c3b8-81e5-477e-a423-b490dc7740bd","ios":"levelo://app?vid=9a29c3b8-81e5-477e-a423-b490dc7740bd"},"vehicle_type_id":"4","last_reported":1747004950,"current_range_meters":8800,"station_id":"ce4bgv12rcd13ifvqcp0","pricing_plan_id":"cebpf4jnsgd1na2vs0mg"},{"bike_id":"79ae0aca-448b-4e6b-b2a5-1eca06e4ee41","system_id":"levelo_inurba_marseille","lat":43.27373,"lon":5.36258,"is_reserved":false,"is_disabled":false,"rental_uris":{"android":"levelo://app?vid=79ae0aca-448b-4e6b-b2a5-1eca06e4ee41","ios":"levelo://app?vid=79ae0aca-448b-4e6b-b2a5-1eca06e4ee41"},"vehicle_type_id":"4","last_reported":1747004950,"current_range_meters":8800,"station_id":"ce4bhbh2rcd13ifvqeo0","pricing_plan_id":"cebpf4jnsgd1na2vs0mg"},{"bike_id":"3aa75863-fce6-4b94-9f5b-9c0ad58d1acf","system_id":"levelo_inurba_marseille","lat":43.2419,"lon":5.36381,"is_reserved":false,"is_disabled":false,"rental_uris":{"android":"levelo://app?vid=3aa75863-fce6-4b94-9f5b-9c0ad58d1acf","ios":"levelo://app?vid=3aa75863-fce6-4b94-9f5b-9c0ad58d1acf"},"vehicle_type_id":"4","last_reported":1747004950,"current_range_meters":8800,"station_id":"cpo36qri1sfpv3e86is0","pricing_plan_id":"cebpf4jnsgd1na2vs0mg"},{"bike_id":"a02ff3d0-dabc-4f80-a7ca-75d2665902bc","system_id":"levelo_inurba_marseille","lat":43.28412,"lon":5.37525,"is_reserved":false,"is_disabled":false,"rental_uris":{"android":"levelo://app?vid=a02ff3d0-dabc-4f80-a7ca-75d2665902bc","ios":"levelo://app?vid=a02ff3d0-dabc-4f80-a7ca-75d2665902bc"},"vehicle_type_id":"4","last_reported":1747004950,"current_range_meters":9200,"station_id":"ce4bh412rcd13ifvqds0","pricing_plan_id":"cebpf4jnsgd1na2vs0mg"},{"bike_id":"f9d16859-c623-411e-bbcb-c426981ab6d7","system_id":"levelo_inurba_marseille","lat":43.26545,"lon":5.38997,"is_reserved":false,"is_disabled":false,"rental_uris":{"android":"levelo://app?vid=f9d16859-c623-411e-bbcb-c426981ab6d7","ios":"levelo://app?vid=f9d16859-c623-411e-bbcb-c426981ab6d7"},"vehicle_type_id":"4","last_reported":1747004950,"current_range_meters":9200,"station_id":"ce4bhe12rcd13ifvqf30","pricing_plan_id":"cebpf4jnsgd1na2vs0mg"},{"bike_id":"56b24ea4-14cf-476b-bd30-98ab9dfa02c6","system_id":"levelo_inurba_marseille","lat":43.24663,"lon":5.38161,"is_reserved":false,"is_disabled":false,"rental_uris":{"android":"levelo://app?vid=56b24ea4-14cf-476b-bd30-98ab9dfa02c6","ios":"levelo://app?vid=56b24ea4-14cf-476b-bd30-98ab9dfa02c6"},"vehicle_type_id":"4","last_reported":1747004950,"current_range_meters":9200,"station_id":"ce4bhih2rcd13ifvqfr0","pricing_plan_id":"cebpf4jnsgd1na2vs0mg"},{"bike_id":"237c3cfb-c5b3-4b77-a847-367a3775064d","system_id":"levelo_inurba_marseille","lat":43.32008,"lon":5.38117,"is_reserved":false,"is_disabled":false,"rental_uris":{"android":"levelo://app?vid=237c3cfb-c5b3-4b77-a847-367a3775064d","ios":"levelo://app?vid=237c3cfb-c5b3-4b77-a847-367a3775064d"},"vehicle_type_id":"4","last_reported":1747004950,"current_range_meters":9200,"station_id":"ce4bhr12rcd13ifvqhpg","pricing_plan_id":"cebpf4jnsgd1na2vs0mg"},{"bike_id":"c781db57-0d15-4bd3-ae62-a55ba5955038","system_id":"levelo_inurba_marseille","lat":43.231945,"lon":5.399851,"is_reserved":false,"is_disabled":false,"rental_uris":{"android":"levelo://app?vid=c781db57-0d15-4bd3-ae62-a55ba5955038","ios":"levelo://app?vid=c781db57-0d15-4bd3-ae62-a55ba5955038"},"vehicle_type_id":"4","last_reported":1747004950,"current_range_meters":9600,"station_id":"ce4bhn12rcd13ifvqgqg","pricing_plan_id":"cebpf4jnsgd1na2vs0mg"},{"bike_id":"a1121b36-b5cd-4dda-96ef-13a3dfaa55e1","system_id":"levelo_inurba_marseille","lat":43.301401,"lon":5.387791,"is_reserved":false,"is_disabled":false,"rental_uris":{"android":"levelo://app?vid=a1121b36-b5cd-4dda-96ef-13a3dfaa55e1","ios":"levelo://app?vid=a1121b36-b5cd-4dda-96ef-13a3dfaa55e1"},"vehicle_type_id":"4","last_reported":1747004950,"current_range_meters":10000,"station_id":"","pricing_plan_id":"cebpf4jnsgd1na2vs0mg"},{"bike_id":"d83b7170-8eed-47c1-b0ec-1140d3a45dea","system_id":"levelo_inurba_marseille","lat":43.308209,"lon":5.43528,"is_reserved":false,"is_disabled":false,"rental_uris":{"android":"levelo://app?vid=d83b7170-8eed-47c1-b0ec-1140d3a45dea","ios":"levelo://app?vid=d83b7170-8eed-47c1-b0ec-1140d3a45dea"},"vehicle_type_id":"4","last_reported":1747004950,"current_range_meters":10000,"station_id":"ce4bhph2rcd13ifvqheg","pricing_plan_id":"cebpf4jnsgd1na2vs0mg"},{"bike_id":"e52bd7d4-e04d-400f-87c6-90264f742d5d","system_id":"levelo_inurba_marseille","lat":43.28416,"lon":5.37522,"is_reserved":false,"is_disabled":false,"rental_uris":{"android":"levelo://app?vid=e52bd7d4-e04d-400f-87c6-90264f742d5d","ios":"levelo://app?vid=e52bd7d4-e04d-400f-87c6-90264f742d5d"},"vehicle_type_id":"4","last_reported":1747004950,"current_range_meters":10800,"station_id":"ce4bh412rcd13ifvqds0","pricing_plan_id":"cebpf4jnsgd1na2vs0mg"},{"bike_id":"9c54648a-e987-4681-990c-bc1749d61914","system_id":"levelo_inurba_marseille","lat":43.251104,"lon":5.403265,"is_reserved":false,"is_disabled":false,"rental_uris":{"android":"levelo://app?vid=9c54648a-e987-4681-990c-bc1749d61914","ios":"levelo://app?vid=9c54648a-e987-4681-990c-bc1749d61914"},"vehicle_type_id":"4","last_reported":1747004950,"current_range_meters":10800,"station_id":"ce4bhlh2rcd13ifvqgig","pricing_plan_id":"cebpf4jnsgd1na2vs0mg"},{"bike_id":"3ee007b4-701a-43a3-a268-87c67c8eea49","system_id":"levelo_inurba_marseille","lat":43.262321,"lon":5.404502,"is_reserved":false,"is_disabled":false,"rental_uris":{"android":"levelo://app?vid=3ee007b4-701a-43a3-a268-87c67c8eea49","ios":"levelo://app?vid=3ee007b4-701a-43a3-a268-87c67c8eea49"},"vehicle_type_id":"4","last_reported":1747004950,"current_range_meters":10800,"station_id":"ce4bhmh2rcd13ifvqgmg","pricing_plan_id":"cebpf4jnsgd1na2vs0mg"},{"bike_id":"b1b013fd-f0df-4fdf-b291-26a881a8b080","system_id":"levelo_inurba_marseille","lat":43.231849,"lon":5.399889,"is_reserved":false,"is_disabled":false,"rental_uris":{"android":"levelo://app?vid=b1b013fd-f0df-4fdf-b291-26a881a8b080","ios":"levelo://app?vid=b1b013fd-f0df-4fdf-b291-26a881a8b080"},"vehicle_type_id":"4","last_reported":1747004950,"current_range_meters":10800,"station_id":"ce4bhn12rcd13ifvqgqg","pricing_plan_id":"cebpf4jnsgd1na2vs0mg"},{"bike_id":"9a892d3c-b3eb-435d-a189-a0c7090eab98","system_id":"levelo_inurba_marseille","lat":43.31121,"lon":5.3777,"is_reserved":false,"is_disabled":false,"rental_uris":{"android":"levelo://app?vid=9a892d3c-b3eb-435d-a189-a0c7090eab98","ios":"levelo://app?vid=9a892d3c-b3eb-435d-a189-a0c7090eab98"},"vehicle_type_id":"4","last_reported":1747004950,"current_range_meters":11200,"station_id":"ce4bgt92rcd13ifvqcg0","pricing_plan_id":"cebpf4jnsgd1na2vs0mg"},{"bike_id":"de4a530f-3b17-41b9-bd98-d22e64d46bdc","system_id":"levelo_inurba_marseille","lat":43.321093,"lon":5.367647,"is_reserved":false,"is_disabled":false,"rental_uris":{"android":"levelo://app?vid=de4a530f-3b17-41b9-bd98-d22e64d46bdc","ios":"levelo://app?vid=de4a530f-3b17-41b9-bd98-d22e64d46bdc"},"vehicle_type_id":"4","last_reported":1747004950,"current_range_meters":11200,"station_id":"ce4bhrh2rcd13ifvqhug","pricing_plan_id":"cebpf4jnsgd1na2vs0mg"},{"bike_id":"19708695-a8ee-4716-9e14-a794ed2f1a40","system_id":"levelo_inurba_marseille","lat":43.265599,"lon":5.390266,"is_reserved":false,"is_disabled":false,"rental_uris":{"android":"levelo://app?vid=19708695-a8ee-4716-9e14-a794ed2f1a40","ios":"levelo://app?vid=19708695-a8ee-4716-9e14-a794ed2f1a40"},"vehicle_type_id":"4","last_reported":1747004950,"current_range_meters":12000,"station_id":"ce4bhe12rcd13ifvqf30","pricing_plan_id":"cebpf4jnsgd1na2vs0mg"},{"bike_id":"f52c819d-ca4b-4640-b458-b877db1bf990","system_id":"levelo_inurba_marseille","lat":43.298643,"lon":5.410193,"is_reserved":false,"is_disabled":false,"rental_uris":{"android":"levelo://app?vid=f52c819d-ca4b-4640-b458-b877db1bf990","ios":"levelo://app?vid=f52c819d-ca4b-4640-b458-b877db1bf990"},"vehicle_type_id":"4","last_reported":1747004950,"current_range_meters":12400,"station_id":"","pricing_plan_id":"cebpf4jnsgd1na2vs0mg"},{"bike_id":"591438c6-b10d-429b-8b82-8c14fe20332c","system_id":"levelo_inurba_marseille","lat":43.31229,"lon":5.36857,"is_reserved":false,"is_disabled":false,"rental_uris":{"android":"levelo://app?vid=591438c6-b10d-429b-8b82-8c14fe20332c","ios":"levelo://app?vid=591438c6-b10d-429b-8b82-8c14fe20332c"},"vehicle_type_id":"4","last_reported":1747004950,"current_range_meters":12400,"station_id":"ce4bgl92rcd13ifvqbq0","pricing_plan_id":"cebpf4jnsgd1na2vs0mg"},{"bike_id":"e101a0a2-4f7b-4a1e-bde8-88c09e8fecd6","system_id":"levelo_inurba_marseille","lat":43.307964,"lon":5.376398,"is_reserved":false,"is_disabled":false,"rental_uris":{"android":"levelo://app?vid=e101a0a2-4f7b-4a1e-bde8-88c09e8fecd6","ios":"levelo://app?vid=e101a0a2-4f7b-4a1e-bde8-88c09e8fecd6"},"vehicle_type_id":"4","last_reported":1747004950,"current_range_meters":12400,"station_id":"ce4bgv92rcd13ifvqcq0","pricing_plan_id":"cebpf4jnsgd1na2vs0mg"},{"bike_id":"fe8a300c-df4c-42e1-b092-cce77e5975ce","system_id":"levelo_inurba_marseille","lat":43.25732,"lon":5.41095,"is_reserved":false,"is_disabled":false,"rental_uris":{"android":"levelo://app?vid=fe8a300c-df4c-42e1-b092-cce77e5975ce","ios":"levelo://app?vid=fe8a300c-df4c-42e1-b092-cce77e5975ce"},"vehicle_type_id":"4","last_reported":1747004950,"current_range_meters":12400,"station_id":"ce4bhkp2rcd13ifvqgd0","pricing_plan_id":"cebpf4jnsgd1na2vs0mg"},{"bike_id":"350f96e5-9d35-4552-ab8b-75cc94649a94","system_id":"levelo_inurba_marseille","lat":43.25137,"lon":5.40363,"is_reserved":false,"is_disabled":false,"rental_uris":{"android":"levelo://app?vid=350f96e5-9d35-4552-ab8b-75cc94649a94","ios":"levelo://app?vid=350f96e5-9d35-4552-ab8b-75cc94649a94"},"vehicle_type_id":"4","last_reported":1747004950,"current_range_meters":12800,"station_id":"ce4bhlh2rcd13ifvqgig","pricing_plan_id":"cebpf4jnsgd1na2vs0mg"},{"bike_id":"83a5dddc-f08f-476e-a316-d0e0dfb65037","system_id":"levelo_inurba_marseille","lat":43.31717,"lon":5.424,"is_reserved":false,"is_disabled":false,"rental_uris":{"android":"levelo://app?vid=83a5dddc-f08f-476e-a316-d0e0dfb65037","ios":"levelo://app?vid=83a5dddc-f08f-476e-a316-d0e0dfb65037"},"vehicle_type_id":"4","last_reported":1747004950,"current_range_meters":12800,"station_id":"ce4bhp92rcd13ifvqhbg","pricing_plan_id":"cebpf4jnsgd1na2vs0mg"},{"bike_id":"ef551541-9d23-4760-a47c-ef4b9d35b0ec","system_id":"levelo_inurba_marseille","lat":43.26571,"lon":5.39001,"is_reserved":false,"is_disabled":false,"rental_uris":{"android":"levelo://app?vid=ef551541-9d23-4760-a47c-ef4b9d35b0ec","ios":"levelo://app?vid=ef551541-9d23-4760-a47c-ef4b9d35b0ec"},"vehicle_type_id":"4","last_reported":1747004950,"current_range_meters":13600,"station_id":"ce4bhe12rcd13ifvqf30","pricing_plan_id":"cebpf4jnsgd1na2vs0mg"},{"bike_id":"9401e170-3654-4a41-bf35-9a468db0c37f","system_id":"levelo_inurba_marseille","lat":43.25107,"lon":5.40329,"is_reserved":false,"is_disabled":false,"rental_uris":{"android":"levelo://app?vid=9401e170-3654-4a41-bf35-9a468db0c37f","ios":"levelo://app?vid=9401e170-3654-4a41-bf35-9a468db0c37f"},"vehicle_type_id":"4","last_reported":1747004950,"current_range_meters":13600,"station_id":"ce4bhlh2rcd13ifvqgig","pricing_plan_id":"cebpf4jnsgd1na2vs0mg"},{"bike_id":"aa81dda7-4d92-4e75-8e3c-3c1bf1df7bb3","system_id":"levelo_inurba_marseille","lat":43.30235,"lon":5.4002,"is_reserved":false,"is_disabled":false,"rental_uris":{"android":"levelo://app?vid=aa81dda7-4d92-4e75-8e3c-3c1bf1df7bb3","ios":"levelo://app?vid=aa81dda7-4d92-4e75-8e3c-3c1bf1df7bb3"},"vehicle_type_id":"4","last_reported":1747004950,"current_range_meters":14000,"station_id":"ce4bgvh2rcd13ifvqcs0","pricing_plan_id":"cebpf4jnsgd1na2vs0mg"},{"bike_id":"9c67cdc9-dcc1-47d1-b2b7-305db13e83da","system_id":"levelo_inurba_marseille","lat":43.28929,"lon":5.38409,"is_reserved":false,"is_disabled":false,"rental_uris":{"android":"levelo://app?vid=9c67cdc9-dcc1-47d1-b2b7-305db13e83da","ios":"levelo://app?vid=9c67cdc9-dcc1-47d1-b2b7-305db13e83da"},"vehicle_type_id":"4","last_reported":1747004950,"current_range_meters":14000,"station_id":"ce4bh612rcd13ifvqe6g","pricing_plan_id":"cebpf4jnsgd1na2vs0mg"},{"bike_id":"9018dac0-013d-41e2-94b1-9adff24ed86b","system_id":"levelo_inurba_marseille","lat":43.25122,"lon":5.40312,"is_reserved":false,"is_disabled":false,"rental_uris":{"android":"levelo://app?vid=9018dac0-013d-41e2-94b1-9adff24ed86b","ios":"levelo://app?vid=9018dac0-013d-41e2-94b1-9adff24ed86b"},"vehicle_type_id":"4","last_reported":1747004950,"current_range_meters":14000,"station_id":"ce4bhlh2rcd13ifvqgig","pricing_plan_id":"cebpf4jnsgd1na2vs0mg"},{"bike_id":"d9937dd6-e4c2-4ca6-b3ad-8e2542d9c843","system_id":"levelo_inurba_marseille","lat":43.302697,"lon":5.40071,"is_reserved":false,"is_disabled":false,"rental_uris":{"android":"levelo://app?vid=d9937dd6-e4c2-4ca6-b3ad-8e2542d9c843","ios":"levelo://app?vid=d9937dd6-e4c2-4ca6-b3ad-8e2542d9c843"},"vehicle_type_id":"4","last_reported":1747004950,"current_range_meters":14400,"station_id":"ce4bgvh2rcd13ifvqcs0","pricing_plan_id":"cebpf4jnsgd1na2vs0mg"},{"bike_id":"fedd6fb9-2c7e-403d-9f52-1e84f1e88c43","system_id":"levelo_inurba_marseille","lat":43.25109,"lon":5.40367,"is_reserved":false,"is_disabled":false,"rental_uris":{"android":"levelo://app?vid=fedd6fb9-2c7e-403d-9f52-1e84f1e88c43","ios":"levelo://app?vid=fedd6fb9-2c7e-403d-9f52-1e84f1e88c43"},"vehicle_type_id":"4","last_reported":1747004950,"current_range_meters":14400,"station_id":"ce4bhlh2rcd13ifvqgig","pricing_plan_id":"cebpf4jnsgd1na2vs0mg"},{"bike_id":"f3bc9fe4-a9bd-43c8-8a47-ffaeebc00913","system_id":"levelo_inurba_marseille","lat":43.323387,"lon":5.406152,"is_reserved":false,"is_disabled":false,"rental_uris":{"android":"levelo://app?vid=f3bc9fe4-a9bd-43c8-8a47-ffaeebc00913","ios":"levelo://app?vid=f3bc9fe4-a9bd-43c8-8a47-ffaeebc00913"},"vehicle_type_id":"4","last_reported":1747004950,"current_range_meters":14800,"station_id":"ce4bhq92rcd13ifvqhjg","pricing_plan_id":"cebpf4jnsgd1na2vs0mg"},{"bike_id":"36d0038b-6d93-4373-9089-48635aba4dfb","system_id":"levelo_inurba_marseille","lat":43.29708,"lon":5.36605,"is_reserved":false,"is_disabled":false,"rental_uris":{"android":"levelo://app?vid=36d0038b-6d93-4373-9089-48635aba4dfb","ios":"levelo://app?vid=36d0038b-6d93-4373-9089-48635aba4dfb"},"vehicle_type_id":"4","last_reported":1747004950,"current_range_meters":15200,"station_id":"ce4bgn12rcd13ifvqbt0","pricing_plan_id":"cebpf4jnsgd1na2vs0mg"},{"bike_id":"5a887c7d-f6a0-42fb-a17f-21172866132c","system_id":"levelo_inurba_marseille","lat":43.28619,"lon":5.35107,"is_reserved":false,"is_disabled":false,"rental_uris":{"android":"levelo://app?vid=5a887c7d-f6a0-42fb-a17f-21172866132c","ios":"levelo://app?vid=5a887c7d-f6a0-42fb-a17f-21172866132c"},"vehicle_type_id":"4","last_reported":1747004950,"current_range_meters":15200,"station_id":"ce4bhch2rcd13ifvqeug","pricing_plan_id":"cebpf4jnsgd1na2vs0mg"},{"bike_id":"ab38ef62-870b-4715-a349-e205eeb08a6e","system_id":"levelo_inurba_marseille","lat":43.323654,"lon":5.367684,"is_reserved":false,"is_disabled":false,"rental_uris":{"android":"levelo://app?vid=ab38ef62-870b-4715-a349-e205eeb08a6e","ios":"levelo://app?vid=ab38ef62-870b-4715-a349-e205eeb08a6e"},"vehicle_type_id":"4","last_reported":1747004950,"current_range_meters":15200,"station_id":"ce4bhsh2rcd13ifvqi2g","pricing_plan_id":"cebpf4jnsgd1na2vs0mg"},{"bike_id":"f73cf722-6d28-410b-96d0-7787b89b0f79","system_id":"levelo_inurba_marseille","lat":43.28859,"lon":5.39304,"is_reserved":false,"is_disabled":false,"rental_uris":{"android":"levelo://app?vid=f73cf722-6d28-410b-96d0-7787b89b0f79","ios":"levelo://app?vid=f73cf722-6d28-410b-96d0-7787b89b0f79"},"vehicle_type_id":"4","last_reported":1747004950,"current_range_meters":16000,"station_id":"ce4bh2p2rcd13ifvqdi0","pricing_plan_id":"cebpf4jnsgd1na2vs0mg"},{"bike_id":"0b1c8292-c329-4aa8-92d1-c391c9c0fef8","system_id":"levelo_inurba_marseille","lat":43.278459,"lon":5.421579,"is_reserved":false,"is_disabled":false,"rental_uris":{"android":"levelo://app?vid=0b1c8292-c329-4aa8-92d1-c391c9c0fef8","ios":"levelo://app?vid=0b1c8292-c329-4aa8-92d1-c391c9c0fef8"},"vehicle_type_id":"4","last_reported":1747004950,"current_range_meters":16400,"station_id":"","pricing_plan_id":"cebpf4jnsgd1na2vs0mg"},{"bike_id":"60512959-6991-44e5-b4c6-284f5149eb0d","system_id":"levelo_inurba_marseille","lat":43.25574,"lon":5.3823,"is_reserved":false,"is_disabled":false,"rental_uris":{"android":"levelo://app?vid=60512959-6991-44e5-b4c6-284f5149eb0d","ios":"levelo://app?vid=60512959-6991-44e5-b4c6-284f5149eb0d"},"vehicle_type_id":"4","last_reported":1747004950,"current_range_meters":16400,"station_id":"ce4bhih2rcd13ifvqfs0","pricing_plan_id":"cebpf4jnsgd1na2vs0mg"},{"bike_id":"c2d26363-c111-4e54-98d2-ac34f8d787a8","system_id":"levelo_inurba_marseille","lat":43.251149,"lon":5.403265,"is_reserved":false,"is_disabled":false,"rental_uris":{"android":"levelo://app?vid=c2d26363-c111-4e54-98d2-ac34f8d787a8","ios":"levelo://app?vid=c2d26363-c111-4e54-98d2-ac34f8d787a8"},"vehicle_type_id":"4","last_reported":1747004950,"current_range_meters":16400,"station_id":"ce4bhlh2rcd13ifvqgig","pricing_plan_id":"cebpf4jnsgd1na2vs0mg"},{"bike_id":"5348d4a8-c265-4e72-9e16-e28ef128fad4","system_id":"levelo_inurba_marseille","lat":43.28701,"lon":5.3998,"is_reserved":false,"is_disabled":false,"rental_uris":{"android":"levelo://app?vid=5348d4a8-c265-4e72-9e16-e28ef128fad4","ios":"levelo://app?vid=5348d4a8-c265-4e72-9e16-e28ef128fad4"},"vehicle_type_id":"4","last_reported":1747004950,"current_range_meters":16400,"station_id":"ce4bho92rcd13ifvqh3g","pricing_plan_id":"cebpf4jnsgd1na2vs0mg"},{"bike_id":"58d6adba-6679-41d8-bdc9-d9413f61af87","system_id":"levelo_inurba_marseille","lat":43.31466,"lon":5.36935,"is_reserved":false,"is_disabled":false,"rental_uris":{"android":"levelo://app?vid=58d6adba-6679-41d8-bdc9-d9413f61af87","ios":"levelo://app?vid=58d6adba-6679-41d8-bdc9-d9413f61af87"},"vehicle_type_id":"4","last_reported":1747004950,"current_range_meters":16800,"station_id":"","pricing_plan_id":"cebpf4jnsgd1na2vs0mg"},{"bike_id":"b6f0504a-f7d7-4a97-b810-e7c9e7b1c671","system_id":"levelo_inurba_marseille","lat":43.27888,"lon":5.412,"is_reserved":false,"is_disabled":false,"rental_uris":{"android":"levelo://app?vid=b6f0504a-f7d7-4a97-b810-e7c9e7b1c671","ios":"levelo://app?vid=b6f0504a-f7d7-4a97-b810-e7c9e7b1c671"},"vehicle_type_id":"4","last_reported":1747004950,"current_range_meters":16800,"station_id":"","pricing_plan_id":"cebpf4jnsgd1na2vs0mg"},{"bike_id":"2a2e92a8-9be2-42a0-8f8b-e8c99ed20b3a","system_id":"levelo_inurba_marseille","lat":43.23156,"lon":5.39924,"is_reserved":false,"is_disabled":false,"rental_uris":{"android":"levelo://app?vid=2a2e92a8-9be2-42a0-8f8b-e8c99ed20b3a","ios":"levelo://app?vid=2a2e92a8-9be2-42a0-8f8b-e8c99ed20b3a"},"vehicle_type_id":"4","last_reported":1747004950,"current_range_meters":17200,"station_id":"","pricing_plan_id":"cebpf4jnsgd1na2vs0mg"},{"bike_id":"a7cd4073-a883-4aad-acc4-778fd72fe9e7","system_id":"levelo_inurba_marseille","lat":43.30792,"lon":5.38155,"is_reserved":false,"is_disabled":false,"rental_uris":{"android":"levelo://app?vid=a7cd4073-a883-4aad-acc4-778fd72fe9e7","ios":"levelo://app?vid=a7cd4073-a883-4aad-acc4-778fd72fe9e7"},"vehicle_type_id":"4","last_reported":1747004950,"current_range_meters":17200,"station_id":"ce4bgt12rcd13ifvqce0","pricing_plan_id":"cebpf4jnsgd1na2vs0mg"},{"bike_id":"923bc3c8-9653-42f6-ab2d-a12cb585d499","system_id":"levelo_inurba_marseille","lat":43.294555,"lon":5.386923,"is_reserved":false,"is_disabled":false,"rental_uris":{"android":"levelo://app?vid=923bc3c8-9653-42f6-ab2d-a12cb585d499","ios":"levelo://app?vid=923bc3c8-9653-42f6-ab2d-a12cb585d499"},"vehicle_type_id":"4","last_reported":1747004950,"current_range_meters":17600,"station_id":"","pricing_plan_id":"cebpf4jnsgd1na2vs0mg"},{"bike_id":"d03ecfbd-67b2-4b9a-8cb7-50731ba0a2cc","system_id":"levelo_inurba_marseille","lat":43.28414,"lon":5.37519,"is_reserved":false,"is_disabled":false,"rental_uris":{"android":"levelo://app?vid=d03ecfbd-67b2-4b9a-8cb7-50731ba0a2cc","ios":"levelo://app?vid=d03ecfbd-67b2-4b9a-8cb7-50731ba0a2cc"},"vehicle_type_id":"4","last_reported":1747004950,"current_range_meters":17600,"station_id":"ce4bh412rcd13ifvqds0","pricing_plan_id":"cebpf4jnsgd1na2vs0mg"},{"bike_id":"aca142bd-2716-4ee3-8c04-bd27c952c647","system_id":"levelo_inurba_marseille","lat":43.264688,"lon":5.374958,"is_reserved":false,"is_disabled":false,"rental_uris":{"android":"levelo://app?vid=aca142bd-2716-4ee3-8c04-bd27c952c647","ios":"levelo://app?vid=aca142bd-2716-4ee3-8c04-bd27c952c647"},"vehicle_type_id":"4","last_reported":1747004950,"current_range_meters":18000,"station_id":"","pricing_plan_id":"cebpf4jnsgd1na2vs0mg"},{"bike_id":"b07bfc09-4ee4-480d-951d-bf310d1d8d6c","system_id":"levelo_inurba_marseille","lat":43.321403,"lon":5.384731,"is_reserved":false,"is_disabled":false,"rental_uris":{"android":"levelo://app?vid=b07bfc09-4ee4-480d-951d-bf310d1d8d6c","ios":"levelo://app?vid=b07bfc09-4ee4-480d-951d-bf310d1d8d6c"},"vehicle_type_id":"4","last_reported":1747004950,"current_range_meters":18000,"station_id":"","pricing_plan_id":"cebpf4jnsgd1na2vs0mg"},{"bike_id":"f38dbfb2-4b2c-49d8-b825-d3246ee3dd23","system_id":"levelo_inurba_marseille","lat":43.31486,"lon":5.37311,"is_reserved":false,"is_disabled":false,"rental_uris":{"android":"levelo://app?vid=f38dbfb2-4b2c-49d8-b825-d3246ee3dd23","ios":"levelo://app?vid=f38dbfb2-4b2c-49d8-b825-d3246ee3dd23"},"vehicle_type_id":"4","last_reported":1747004950,"current_range_meters":18000,"station_id":"ce4bgt12rcd13ifvqcd0","pricing_plan_id":"cebpf4jnsgd1na2vs0mg"},{"bike_id":"58ca3082-502b-4f40-858f-4a60772f8be9","system_id":"levelo_inurba_marseille","lat":43.305979,"lon":5.393649,"is_reserved":false,"is_disabled":false,"rental_uris":{"android":"levelo://app?vid=58ca3082-502b-4f40-858f-4a60772f8be9","ios":"levelo://app?vid=58ca3082-502b-4f40-858f-4a60772f8be9"},"vehicle_type_id":"4","last_reported":1747004950,"current_range_meters":18000,"station_id":"ce4bh0p2rcd13ifvqd80","pricing_plan_id":"cebpf4jnsgd1na2vs0mg"},{"bike_id":"4b6c1528-1d2a-4eef-acaf-0e2c8aa28257","system_id":"levelo_inurba_marseille","lat":43.30596,"lon":5.39351,"is_reserved":false,"is_disabled":false,"rental_uris":{"android":"levelo://app?vid=4b6c1528-1d2a-4eef-acaf-0e2c8aa28257","ios":"levelo://app?vid=4b6c1528-1d2a-4eef-acaf-0e2c8aa28257"},"vehicle_type_id":"4","last_reported":1747004950,"current_range_meters":18000,"station_id":"ce4bh0p2rcd13ifvqd80","pricing_plan_id":"cebpf4jnsgd1na2vs0mg"},{"bike_id":"4d7e69b3-fd69-4c4f-9d4c-d3a4ecae472a","system_id":"levelo_inurba_marseille","lat":43.30601,"lon":5.39354,"is_reserved":false,"is_disabled":false,"rental_uris":{"android":"levelo://app?vid=4d7e69b3-fd69-4c4f-9d4c-d3a4ecae472a","ios":"levelo://app?vid=4d7e69b3-fd69-4c4f-9d4c-d3a4ecae472a"},"vehicle_type_id":"4","last_reported":1747004950,"current_range_meters":18800,"station_id":"ce4bh0p2rcd13ifvqd80","pricing_plan_id":"cebpf4jnsgd1na2vs0mg"},{"bike_id":"c1a87d98-ae1b-4a96-8676-6f3473b69ff6","system_id":"levelo_inurba_marseille","lat":43.28409,"lon":5.37504,"is_reserved":false,"is_disabled":false,"rental_uris":{"android":"levelo://app?vid=c1a87d98-ae1b-4a96-8676-6f3473b69ff6","ios":"levelo://app?vid=c1a87d98-ae1b-4a96-8676-6f3473b69ff6"},"vehicle_type_id":"4","last_reported":1747004950,"current_range_meters":18800,"station_id":"ce4bh412rcd13ifvqds0","pricing_plan_id":"cebpf4jnsgd1na2vs0mg"},{"bike_id":"99dbe6a3-f5d7-427a-b808-17b5bb6cd725","system_id":"levelo_inurba_marseille","lat":43.29782,"lon":5.39338,"is_reserved":false,"is_disabled":false,"rental_uris":{"android":"levelo://app?vid=99dbe6a3-f5d7-427a-b808-17b5bb6cd725","ios":"levelo://app?vid=99dbe6a3-f5d7-427a-b808-17b5bb6cd725"},"vehicle_type_id":"4","last_reported":1747004950,"current_range_meters":18800,"station_id":"chh1huq6cuj3fo74tm60","pricing_plan_id":"cebpf4jnsgd1na2vs0mg"},{"bike_id":"8991474d-a140-434e-8397-6b91aba5ea94","system_id":"levelo_inurba_marseille","lat":43.30435,"lon":5.38897,"is_reserved":false,"is_disabled":false,"rental_uris":{"android":"levelo://app?vid=8991474d-a140-434e-8397-6b91aba5ea94","ios":"levelo://app?vid=8991474d-a140-434e-8397-6b91aba5ea94"},"vehicle_type_id":"4","last_reported":1747004950,"current_range_meters":19200,"station_id":"ce4bgk12rcd13ifvqbi0","pricing_plan_id":"cebpf4jnsgd1na2vs0mg"},{"bike_id":"e58e2ce6-f326-47d4-94dc-2a7bac20a6f5","system_id":"levelo_inurba_marseille","lat":43.2841,"lon":5.37519,"is_reserved":false,"is_disabled":false,"rental_uris":{"android":"levelo://app?vid=e58e2ce6-f326-47d4-94dc-2a7bac20a6f5","ios":"levelo://app?vid=e58e2ce6-f326-47d4-94dc-2a7bac20a6f5"},"vehicle_type_id":"4","last_reported":1747004950,"current_range_meters":19200,"station_id":"ce4bh412rcd13ifvqds0","pricing_plan_id":"cebpf4jnsgd1na2vs0mg"},{"bike_id":"552a2edc-97c2-4e6b-be49-82bbd491069a","system_id":"levelo_inurba_marseille","lat":43.284103,"lon":5.375209,"is_reserved":false,"is_disabled":false,"rental_uris":{"android":"levelo://app?vid=552a2edc-97c2-4e6b-be49-82bbd491069a","ios":"levelo://app?vid=552a2edc-97c2-4e6b-be49-82bbd491069a"},"vehicle_type_id":"4","last_reported":1747004950,"current_range_meters":19600,"station_id":"ce4bh412rcd13ifvqds0","pricing_plan_id":"cebpf4jnsgd1na2vs0mg"},{"bike_id":"188758f6-692a-41e7-8487-79133bbf1856","system_id":"levelo_inurba_marseille","lat":43.284302,"lon":5.375008,"is_reserved":false,"is_disabled":false,"rental_uris":{"android":"levelo://app?vid=188758f6-692a-41e7-8487-79133bbf1856","ios":"levelo://app?vid=188758f6-692a-41e7-8487-79133bbf1856"},"vehicle_type_id":"4","last_reported":1747004950,"current_range_meters":19600,"station_id":"ce4bh412rcd13ifvqds0","pricing_plan_id":"cebpf4jnsgd1na2vs0mg"},{"bike_id":"341051c3-f228-4962-8d87-86cbcfdb4313","system_id":"levelo_inurba_marseille","lat":43.28846,"lon":5.39326,"is_reserved":false,"is_disabled":false,"rental_uris":{"android":"levelo://app?vid=341051c3-f228-4962-8d87-86cbcfdb4313","ios":"levelo://app?vid=341051c3-f228-4962-8d87-86cbcfdb4313"},"vehicle_type_id":"4","last_reported":1747004950,"current_range_meters":20000,"station_id":"ce4bh2p2rcd13ifvqdi0","pricing_plan_id":"cebpf4jnsgd1na2vs0mg"},{"bike_id":"b563129d-dbe8-41ec-ad41-e58670601124","system_id":"levelo_inurba_marseille","lat":43.28355,"lon":5.38111,"is_reserved":false,"is_disabled":false,"rental_uris":{"android":"levelo://app?vid=b563129d-dbe8-41ec-ad41-e58670601124","ios":"levelo://app?vid=b563129d-dbe8-41ec-ad41-e58670601124"},"vehicle_type_id":"4","last_reported":1747004950,"current_range_meters":20000,"station_id":"ce4bh412rcd13ifvqdr0","pricing_plan_id":"cebpf4jnsgd1na2vs0mg"},{"bike_id":"612c7ea0-f8ad-43bd-932c-356cdf4015f0","system_id":"levelo_inurba_marseille","lat":43.276816,"lon":5.399323,"is_reserved":false,"is_disabled":false,"rental_uris":{"android":"levelo://app?vid=612c7ea0-f8ad-43bd-932c-356cdf4015f0","ios":"levelo://app?vid=612c7ea0-f8ad-43bd-932c-356cdf4015f0"},"vehicle_type_id":"4","last_reported":1747004950,"current_range_meters":20000,"station_id":"ce4bhgp2rcd13ifvqfe0","pricing_plan_id":"cebpf4jnsgd1na2vs0mg"},{"bike_id":"b336a229-0bf1-452c-97d8-afd000b0f02e","system_id":"levelo_inurba_marseille","lat":43.324737,"lon":5.365877,"is_reserved":false,"is_disabled":false,"rental_uris":{"android":"levelo://app?vid=b336a229-0bf1-452c-97d8-afd000b0f02e","ios":"levelo://app?vid=b336a229-0bf1-452c-97d8-afd000b0f02e"},"vehicle_type_id":"4","last_reported":1747004950,"current_range_meters":20000,"station_id":"ce4bhs12rcd13ifvqhvg","pricing_plan_id":"cebpf4jnsgd1na2vs0mg"},{"bike_id":"0ac4699c-2936-47e4-a58a-a815c837d0ea","system_id":"levelo_inurba_marseille","lat":43.3059,"lon":5.39346,"is_reserved":false,"is_disabled":false,"rental_uris":{"android":"levelo://app?vid=0ac4699c-2936-47e4-a58a-a815c837d0ea","ios":"levelo://app?vid=0ac4699c-2936-47e4-a58a-a815c837d0ea"},"vehicle_type_id":"4","last_reported":1747004950,"current_range_meters":20400,"station_id":"ce4bh0p2rcd13ifvqd80","pricing_plan_id":"cebpf4jnsgd1na2vs0mg"},{"bike_id":"c6f94e68-7c7b-43ef-8184-27f8965ee836","system_id":"levelo_inurba_marseille","lat":43.25118,"lon":5.4031,"is_reserved":false,"is_disabled":false,"rental_uris":{"android":"levelo://app?vid=c6f94e68-7c7b-43ef-8184-27f8965ee836","ios":"levelo://app?vid=c6f94e68-7c7b-43ef-8184-27f8965ee836"},"vehicle_type_id":"4","last_reported":1747004950,"current_range_meters":20400,"station_id":"ce4bhlh2rcd13ifvqgig","pricing_plan_id":"cebpf4jnsgd1na2vs0mg"},{"bike_id":"d32841e3-f626-4121-9f27-b747ff448f2d","system_id":"levelo_inurba_marseille","lat":43.24078,"lon":5.37757,"is_reserved":false,"is_disabled":false,"rental_uris":{"android":"levelo://app?vid=d32841e3-f626-4121-9f27-b747ff448f2d","ios":"levelo://app?vid=d32841e3-f626-4121-9f27-b747ff448f2d"},"vehicle_type_id":"4","last_reported":1747004950,"current_range_meters":20400,"station_id":"ce4bhnp2rcd13ifvqgvg","pricing_plan_id":"cebpf4jnsgd1na2vs0mg"},{"bike_id":"873127f0-5960-43b7-af15-7b68eacdf132","system_id":"levelo_inurba_marseille","lat":43.313319,"lon":5.396983,"is_reserved":false,"is_disabled":false,"rental_uris":{"android":"levelo://app?vid=873127f0-5960-43b7-af15-7b68eacdf132","ios":"levelo://app?vid=873127f0-5960-43b7-af15-7b68eacdf132"},"vehicle_type_id":"4","last_reported":1747004950,"current_range_meters":20800,"station_id":"ce4bgvp2rcd13ifvqcu0","pricing_plan_id":"cebpf4jnsgd1na2vs0mg"},{"bike_id":"7aab6e21-5b14-4648-99c5-d3a099671233","system_id":"levelo_inurba_marseille","lat":43.29257,"lon":5.40138,"is_reserved":false,"is_disabled":false,"rental_uris":{"android":"levelo://app?vid=7aab6e21-5b14-4648-99c5-d3a099671233","ios":"levelo://app?vid=7aab6e21-5b14-4648-99c5-d3a099671233"},"vehicle_type_id":"4","last_reported":1747004950,"current_range_meters":20800,"station_id":"ce4bh312rcd13ifvqdk0","pricing_plan_id":"cebpf4jnsgd1na2vs0mg"},{"bike_id":"12fd312b-a236-4b26-878b-0432501ea6fd","system_id":"levelo_inurba_marseille","lat":43.302542,"lon":5.400684,"is_reserved":false,"is_disabled":false,"rental_uris":{"android":"levelo://app?vid=12fd312b-a236-4b26-878b-0432501ea6fd","ios":"levelo://app?vid=12fd312b-a236-4b26-878b-0432501ea6fd"},"vehicle_type_id":"4","last_reported":1747004950,"current_range_meters":21600,"station_id":"ce4bgvh2rcd13ifvqcs0","pricing_plan_id":"cebpf4jnsgd1na2vs0mg"},{"bike_id":"d99afe62-41a1-4367-a50e-55727c42a2a5","system_id":"levelo_inurba_marseille","lat":43.28702,"lon":5.39992,"is_reserved":false,"is_disabled":false,"rental_uris":{"android":"levelo://app?vid=d99afe62-41a1-4367-a50e-55727c42a2a5","ios":"levelo://app?vid=d99afe62-41a1-4367-a50e-55727c42a2a5"},"vehicle_type_id":"4","last_reported":1747004950,"current_range_meters":21600,"station_id":"ce4bho92rcd13ifvqh3g","pricing_plan_id":"cebpf4jnsgd1na2vs0mg"},{"bike_id":"729bec37-9512-4dbf-8ec0-9debdadae745","system_id":"levelo_inurba_marseille","lat":43.26957,"lon":5.38646,"is_reserved":false,"is_disabled":false,"rental_uris":{"android":"levelo://app?vid=729bec37-9512-4dbf-8ec0-9debdadae745","ios":"levelo://app?vid=729bec37-9512-4dbf-8ec0-9debdadae745"},"vehicle_type_id":"4","last_reported":1747004950,"current_range_meters":22000,"station_id":"ce4bhh92rcd13ifvqfh0","pricing_plan_id":"cebpf4jnsgd1na2vs0mg"},{"bike_id":"e6adc396-be82-4a12-97e0-95dd6dbe63be","system_id":"levelo_inurba_marseille","lat":43.262358,"lon":5.404702,"is_reserved":false,"is_disabled":false,"rental_uris":{"android":"levelo://app?vid=e6adc396-be82-4a12-97e0-95dd6dbe63be","ios":"levelo://app?vid=e6adc396-be82-4a12-97e0-95dd6dbe63be"},"vehicle_type_id":"4","last_reported":1747004950,"current_range_meters":22000,"station_id":"ce4bhmh2rcd13ifvqgmg","pricing_plan_id":"cebpf4jnsgd1na2vs0mg"},{"bike_id":"bf8ab2b3-a5b8-4b44-9ccf-e0d7e23d9454","system_id":"levelo_inurba_marseille","lat":43.284606,"lon":5.358891,"is_reserved":false,"is_disabled":false,"rental_uris":{"android":"levelo://app?vid=bf8ab2b3-a5b8-4b44-9ccf-e0d7e23d9454","ios":"levelo://app?vid=bf8ab2b3-a5b8-4b44-9ccf-e0d7e23d9454"},"vehicle_type_id":"4","last_reported":1747004950,"current_range_meters":22400,"station_id":"ce4bhah2rcd13ifvqei0","pricing_plan_id":"cebpf4jnsgd1na2vs0mg"},{"bike_id":"bf04c912-4efc-4db8-bc9f-08cba475759c","system_id":"levelo_inurba_marseille","lat":43.24656,"lon":5.388883,"is_reserved":false,"is_disabled":false,"rental_uris":{"android":"levelo://app?vid=bf04c912-4efc-4db8-bc9f-08cba475759c","ios":"levelo://app?vid=bf04c912-4efc-4db8-bc9f-08cba475759c"},"vehicle_type_id":"4","last_reported":1747004950,"current_range_meters":22800,"station_id":"ce4bhg12rcd13ifvqf60","pricing_plan_id":"cebpf4jnsgd1na2vs0mg"},{"bike_id":"fcf9463b-401b-4157-a5a9-4c36ca7d015d","system_id":"levelo_inurba_marseille","lat":43.30717,"lon":5.37056,"is_reserved":false,"is_disabled":false,"rental_uris":{"android":"levelo://app?vid=fcf9463b-401b-4157-a5a9-4c36ca7d015d","ios":"levelo://app?vid=fcf9463b-401b-4157-a5a9-4c36ca7d015d"},"vehicle_type_id":"4","last_reported":1747004950,"current_range_meters":24000,"station_id":"","pricing_plan_id":"cebpf4jnsgd1na2vs0mg"},{"bike_id":"239c6068-a61f-4265-9895-7dd0a628dc8d","system_id":"levelo_inurba_marseille","lat":43.29973,"lon":5.37191,"is_reserved":false,"is_disabled":false,"rental_uris":{"android":"levelo://app?vid=239c6068-a61f-4265-9895-7dd0a628dc8d","ios":"levelo://app?vid=239c6068-a61f-4265-9895-7dd0a628dc8d"},"vehicle_type_id":"4","last_reported":1747004950,"current_range_meters":24000,"station_id":"ce4bgr92rcd13ifvqc7g","pricing_plan_id":"cebpf4jnsgd1na2vs0mg"},{"bike_id":"01064440-d6ec-4518-b756-454acd08f67a","system_id":"levelo_inurba_marseille","lat":43.30874,"lon":5.39629,"is_reserved":false,"is_disabled":false,"rental_uris":{"android":"levelo://app?vid=01064440-d6ec-4518-b756-454acd08f67a","ios":"levelo://app?vid=01064440-d6ec-4518-b756-454acd08f67a"},"vehicle_type_id":"4","last_reported":1747004950,"current_range_meters":24400,"station_id":"ce4bh012rcd13ifvqcv0","pricing_plan_id":"cebpf4jnsgd1na2vs0mg"},{"bike_id":"e9616221-7423-4bfb-9840-191e8a239b7d","system_id":"levelo_inurba_marseille","lat":43.28406,"lon":5.37527,"is_reserved":false,"is_disabled":false,"rental_uris":{"android":"levelo://app?vid=e9616221-7423-4bfb-9840-191e8a239b7d","ios":"levelo://app?vid=e9616221-7423-4bfb-9840-191e8a239b7d"},"vehicle_type_id":"4","last_reported":1747004950,"current_range_meters":24400,"station_id":"ce4bh412rcd13ifvqds0","pricing_plan_id":"cebpf4jnsgd1na2vs0mg"},{"bike_id":"94643c87-a910-464c-8beb-f9e9d8854450","system_id":"levelo_inurba_marseille","lat":43.28083,"lon":5.3966,"is_reserved":false,"is_disabled":false,"rental_uris":{"android":"levelo://app?vid=94643c87-a910-464c-8beb-f9e9d8854450","ios":"levelo://app?vid=94643c87-a910-464c-8beb-f9e9d8854450"},"vehicle_type_id":"4","last_reported":1747004950,"current_range_meters":24400,"station_id":"ce4bho12rcd13ifvqh2g","pricing_plan_id":"cebpf4jnsgd1na2vs0mg"},{"bike_id":"bf0c4a52-4226-46a9-ba4c-0bc9d19b1429","system_id":"levelo_inurba_marseille","lat":43.292605,"lon":5.376172,"is_reserved":false,"is_disabled":false,"rental_uris":{"android":"levelo://app?vid=bf0c4a52-4226-46a9-ba4c-0bc9d19b1429","ios":"levelo://app?vid=bf0c4a52-4226-46a9-ba4c-0bc9d19b1429"},"vehicle_type_id":"4","last_reported":1747004950,"current_range_meters":24800,"station_id":"ce4bgi12rcd13ifvqb80","pricing_plan_id":"cebpf4jnsgd1na2vs0mg"},{"bike_id":"beddbda8-0767-4a2f-b616-0d0902992c51","system_id":"levelo_inurba_marseille","lat":43.31686,"lon":5.40474,"is_reserved":false,"is_disabled":false,"rental_uris":{"android":"levelo://app?vid=beddbda8-0767-4a2f-b616-0d0902992c51","ios":"levelo://app?vid=beddbda8-0767-4a2f-b616-0d0902992c51"},"vehicle_type_id":"4","last_reported":1747004950,"current_range_meters":24800,"station_id":"ce4bh012rcd13ifvqd00","pricing_plan_id":"cebpf4jnsgd1na2vs0mg"},{"bike_id":"dacedaeb-dc46-4911-8f83-935864864d66","system_id":"levelo_inurba_marseille","lat":43.28566,"lon":5.39495,"is_reserved":false,"is_disabled":false,"rental_uris":{"android":"levelo://app?vid=dacedaeb-dc46-4911-8f83-935864864d66","ios":"levelo://app?vid=dacedaeb-dc46-4911-8f83-935864864d66"},"vehicle_type_id":"4","last_reported":1747004950,"current_range_meters":24800,"station_id":"ce4bh292rcd13ifvqdg0","pricing_plan_id":"cebpf4jnsgd1na2vs0mg"},{"bike_id":"29e16365-5965-4ec3-8bb4-6648ec3e22c6","system_id":"levelo_inurba_marseille","lat":43.2582,"lon":5.39421,"is_reserved":false,"is_disabled":false,"rental_uris":{"android":"levelo://app?vid=29e16365-5965-4ec3-8bb4-6648ec3e22c6","ios":"levelo://app?vid=29e16365-5965-4ec3-8bb4-6648ec3e22c6"},"vehicle_type_id":"4","last_reported":1747004950,"current_range_meters":24800,"station_id":"ce4bhip2rcd13ifvqft0","pricing_plan_id":"cebpf4jnsgd1na2vs0mg"},{"bike_id":"3cefa205-9db3-403f-9466-99653a0c908b","system_id":"levelo_inurba_marseille","lat":43.25108,"lon":5.4032,"is_reserved":false,"is_disabled":false,"rental_uris":{"android":"levelo://app?vid=3cefa205-9db3-403f-9466-99653a0c908b","ios":"levelo://app?vid=3cefa205-9db3-403f-9466-99653a0c908b"},"vehicle_type_id":"4","last_reported":1747004950,"current_range_meters":24800,"station_id":"ce4bhlh2rcd13ifvqgig","pricing_plan_id":"cebpf4jnsgd1na2vs0mg"},{"bike_id":"81e56a83-0f38-4053-8247-0af6d61d1407","system_id":"levelo_inurba_marseille","lat":43.318792,"lon":5.407438,"is_reserved":false,"is_disabled":false,"rental_uris":{"android":"levelo://app?vid=81e56a83-0f38-4053-8247-0af6d61d1407","ios":"levelo://app?vid=81e56a83-0f38-4053-8247-0af6d61d1407"},"vehicle_type_id":"4","last_reported":1747004950,"current_range_meters":24800,"station_id":"ce4bhq12rcd13ifvqhig","pricing_plan_id":"cebpf4jnsgd1na2vs0mg"},{"bike_id":"8299a242-932f-4b34-a184-d914d33afd41","system_id":"levelo_inurba_marseille","lat":43.27189,"lon":5.41002,"is_reserved":false,"is_disabled":false,"rental_uris":{"android":"levelo://app?vid=8299a242-932f-4b34-a184-d914d33afd41","ios":"levelo://app?vid=8299a242-932f-4b34-a184-d914d33afd41"},"vehicle_type_id":"4","last_reported":1747004950,"current_range_meters":25200,"station_id":"ce4bhl12rcd13ifvqgf0","pricing_plan_id":"cebpf4jnsgd1na2vs0mg"},{"bike_id":"36fd7042-62d9-493c-8a59-a394652c22d0","system_id":"levelo_inurba_marseille","lat":43.251076,"lon":5.403156,"is_reserved":false,"is_disabled":false,"rental_uris":{"android":"levelo://app?vid=36fd7042-62d9-493c-8a59-a394652c22d0","ios":"levelo://app?vid=36fd7042-62d9-493c-8a59-a394652c22d0"},"vehicle_type_id":"4","last_reported":1747004950,"current_range_meters":25200,"station_id":"ce4bhlh2rcd13ifvqgig","pricing_plan_id":"cebpf4jnsgd1na2vs0mg"},{"bike_id":"581a76c6-406f-436c-80cf-424046378536","system_id":"levelo_inurba_marseille","lat":43.23141,"lon":5.43724,"is_reserved":false,"is_disabled":false,"rental_uris":{"android":"levelo://app?vid=581a76c6-406f-436c-80cf-424046378536","ios":"levelo://app?vid=581a76c6-406f-436c-80cf-424046378536"},"vehicle_type_id":"4","last_reported":1747004950,"current_range_meters":25200,"station_id":"ce4bhmp2rcd13ifvqgog","pricing_plan_id":"cebpf4jnsgd1na2vs0mg"},{"bike_id":"e3cd6c73-5b35-4790-aac4-22e9aabaa69e","system_id":"levelo_inurba_marseille","lat":43.30429,"lon":5.388887,"is_reserved":false,"is_disabled":false,"rental_uris":{"android":"levelo://app?vid=e3cd6c73-5b35-4790-aac4-22e9aabaa69e","ios":"levelo://app?vid=e3cd6c73-5b35-4790-aac4-22e9aabaa69e"},"vehicle_type_id":"4","last_reported":1747004950,"current_range_meters":25600,"station_id":"ce4bgk12rcd13ifvqbi0","pricing_plan_id":"cebpf4jnsgd1na2vs0mg"},{"bike_id":"e49ed292-ac25-4dc5-87e7-7cff6914461d","system_id":"levelo_inurba_marseille","lat":43.29858,"lon":5.39748,"is_reserved":false,"is_disabled":false,"rental_uris":{"android":"levelo://app?vid=e49ed292-ac25-4dc5-87e7-7cff6914461d","ios":"levelo://app?vid=e49ed292-ac25-4dc5-87e7-7cff6914461d"},"vehicle_type_id":"4","last_reported":1747004950,"current_range_meters":25600,"station_id":"ce4bh0h2rcd13ifvqd50","pricing_plan_id":"cebpf4jnsgd1na2vs0mg"},{"bike_id":"ce934962-e8a9-4a38-bf4a-e85149105ca9","system_id":"levelo_inurba_marseille","lat":43.305347,"lon":5.384217,"is_reserved":false,"is_disabled":false,"rental_uris":{"android":"levelo://app?vid=ce934962-e8a9-4a38-bf4a-e85149105ca9","ios":"levelo://app?vid=ce934962-e8a9-4a38-bf4a-e85149105ca9"},"vehicle_type_id":"4","last_reported":1747004950,"current_range_meters":26000,"station_id":"ce4bgg92rcd13ifvqb30","pricing_plan_id":"cebpf4jnsgd1na2vs0mg"},{"bike_id":"c2f46fcf-2d98-4a53-915b-9b0e7a792171","system_id":"levelo_inurba_marseille","lat":43.265653,"lon":5.390233,"is_reserved":false,"is_disabled":false,"rental_uris":{"android":"levelo://app?vid=c2f46fcf-2d98-4a53-915b-9b0e7a792171","ios":"levelo://app?vid=c2f46fcf-2d98-4a53-915b-9b0e7a792171"},"vehicle_type_id":"4","last_reported":1747004950,"current_range_meters":26800,"station_id":"ce4bhe12rcd13ifvqf30","pricing_plan_id":"cebpf4jnsgd1na2vs0mg"},{"bike_id":"fd8f2c60-0cee-402f-86bd-bf9f27ea9ecc","system_id":"levelo_inurba_marseille","lat":43.287064,"lon":5.399907,"is_reserved":false,"is_disabled":false,"rental_uris":{"android":"levelo://app?vid=fd8f2c60-0cee-402f-86bd-bf9f27ea9ecc","ios":"levelo://app?vid=fd8f2c60-0cee-402f-86bd-bf9f27ea9ecc"},"vehicle_type_id":"4","last_reported":1747004950,"current_range_meters":26800,"station_id":"ce4bho92rcd13ifvqh3g","pricing_plan_id":"cebpf4jnsgd1na2vs0mg"},{"bike_id":"9d828475-a348-47a0-9366-9751984af581","system_id":"levelo_inurba_marseille","lat":43.304216,"lon":5.412763,"is_reserved":false,"is_disabled":false,"rental_uris":{"android":"levelo://app?vid=9d828475-a348-47a0-9366-9751984af581","ios":"levelo://app?vid=9d828475-a348-47a0-9366-9751984af581"},"vehicle_type_id":"4","last_reported":1747004950,"current_range_meters":26800,"station_id":"ce4bhop2rcd13ifvqh8g","pricing_plan_id":"cebpf4jnsgd1na2vs0mg"},{"bike_id":"d02e6451-e516-4f8c-9a29-efbb81ab4a82","system_id":"levelo_inurba_marseille","lat":43.30446,"lon":5.38882,"is_reserved":false,"is_disabled":false,"rental_uris":{"android":"levelo://app?vid=d02e6451-e516-4f8c-9a29-efbb81ab4a82","ios":"levelo://app?vid=d02e6451-e516-4f8c-9a29-efbb81ab4a82"},"vehicle_type_id":"4","last_reported":1747004950,"current_range_meters":27200,"station_id":"ce4bgk12rcd13ifvqbi0","pricing_plan_id":"cebpf4jnsgd1na2vs0mg"},{"bike_id":"a6403b24-ff7b-431e-a040-d2ab370a8e38","system_id":"levelo_inurba_marseille","lat":43.3121,"lon":5.38914,"is_reserved":false,"is_disabled":false,"rental_uris":{"android":"levelo://app?vid=a6403b24-ff7b-431e-a040-d2ab370a8e38","ios":"levelo://app?vid=a6403b24-ff7b-431e-a040-d2ab370a8e38"},"vehicle_type_id":"4","last_reported":1747004950,"current_range_meters":27200,"station_id":"ce4bgv12rcd13ifvqcp0","pricing_plan_id":"cebpf4jnsgd1na2vs0mg"},{"bike_id":"09f04a62-ce78-48cf-8cdf-38bb2bf3eac8","system_id":"levelo_inurba_marseille","lat":43.29887,"lon":5.397354,"is_reserved":false,"is_disabled":false,"rental_uris":{"android":"levelo://app?vid=09f04a62-ce78-48cf-8cdf-38bb2bf3eac8","ios":"levelo://app?vid=09f04a62-ce78-48cf-8cdf-38bb2bf3eac8"},"vehicle_type_id":"4","last_reported":1747004950,"current_range_meters":27200,"station_id":"ce4bh0h2rcd13ifvqd50","pricing_plan_id":"cebpf4jnsgd1na2vs0mg"},{"bike_id":"2aff00df-3d4f-4caa-90ca-4c8fb72f5c08","system_id":"levelo_inurba_marseille","lat":43.31304,"lon":5.37325,"is_reserved":false,"is_disabled":false,"rental_uris":{"android":"levelo://app?vid=2aff00df-3d4f-4caa-90ca-4c8fb72f5c08","ios":"levelo://app?vid=2aff00df-3d4f-4caa-90ca-4c8fb72f5c08"},"vehicle_type_id":"4","last_reported":1747004950,"current_range_meters":27600,"station_id":"","pricing_plan_id":"cebpf4jnsgd1na2vs0mg"},{"bike_id":"1297402a-0699-4324-a067-80a0da342625","system_id":"levelo_inurba_marseille","lat":43.25728,"lon":5.4111,"is_reserved":false,"is_disabled":false,"rental_uris":{"android":"levelo://app?vid=1297402a-0699-4324-a067-80a0da342625","ios":"levelo://app?vid=1297402a-0699-4324-a067-80a0da342625"},"vehicle_type_id":"4","last_reported":1747004950,"current_range_meters":27600,"station_id":"ce4bhkp2rcd13ifvqgd0","pricing_plan_id":"cebpf4jnsgd1na2vs0mg"},{"bike_id":"460de707-94bc-4939-a26c-73b40618a709","system_id":"levelo_inurba_marseille","lat":43.262259,"lon":5.40456,"is_reserved":false,"is_disabled":false,"rental_uris":{"android":"levelo://app?vid=460de707-94bc-4939-a26c-73b40618a709","ios":"levelo://app?vid=460de707-94bc-4939-a26c-73b40618a709"},"vehicle_type_id":"4","last_reported":1747004950,"current_range_meters":27600,"station_id":"ce4bhmh2rcd13ifvqgmg","pricing_plan_id":"cebpf4jnsgd1na2vs0mg"},{"bike_id":"1806c447-b7d4-41de-ab1b-359589127fc7","system_id":"levelo_inurba_marseille","lat":43.323415,"lon":5.406261,"is_reserved":false,"is_disabled":false,"rental_uris":{"android":"levelo://app?vid=1806c447-b7d4-41de-ab1b-359589127fc7","ios":"levelo://app?vid=1806c447-b7d4-41de-ab1b-359589127fc7"},"vehicle_type_id":"4","last_reported":1747004950,"current_range_meters":27600,"station_id":"ce4bhq92rcd13ifvqhjg","pricing_plan_id":"cebpf4jnsgd1na2vs0mg"},{"bike_id":"39f8556c-fc3b-4fef-971d-c77343533f87","system_id":"levelo_inurba_marseille","lat":43.33601,"lon":5.41016,"is_reserved":false,"is_disabled":false,"rental_uris":{"android":"levelo://app?vid=39f8556c-fc3b-4fef-971d-c77343533f87","ios":"levelo://app?vid=39f8556c-fc3b-4fef-971d-c77343533f87"},"vehicle_type_id":"4","last_reported":1747004950,"current_range_meters":27600,"station_id":"ce4bhqh2rcd13ifvqhmg","pricing_plan_id":"cebpf4jnsgd1na2vs0mg"},{"bike_id":"9cf47c32-671b-4aca-946f-3cdac9ab6f3c","system_id":"levelo_inurba_marseille","lat":43.30309,"lon":5.36906,"is_reserved":false,"is_disabled":false,"rental_uris":{"android":"levelo://app?vid=9cf47c32-671b-4aca-946f-3cdac9ab6f3c","ios":"levelo://app?vid=9cf47c32-671b-4aca-946f-3cdac9ab6f3c"},"vehicle_type_id":"4","last_reported":1747004950,"current_range_meters":28000,"station_id":"ce4bgqh2rcd13ifvqc5g","pricing_plan_id":"cebpf4jnsgd1na2vs0mg"},{"bike_id":"caca998f-38aa-4983-b099-0f025ff387d7","system_id":"levelo_inurba_marseille","lat":43.31171,"lon":5.38704,"is_reserved":false,"is_disabled":false,"rental_uris":{"android":"levelo://app?vid=caca998f-38aa-4983-b099-0f025ff387d7","ios":"levelo://app?vid=caca998f-38aa-4983-b099-0f025ff387d7"},"vehicle_type_id":"4","last_reported":1747004950,"current_range_meters":28000,"station_id":"ce4bgv12rcd13ifvqcp0","pricing_plan_id":"cebpf4jnsgd1na2vs0mg"},{"bike_id":"e387dba6-e784-4638-af80-a7c3d47f838d","system_id":"levelo_inurba_marseille","lat":43.31316,"lon":5.39695,"is_reserved":false,"is_disabled":false,"rental_uris":{"android":"levelo://app?vid=e387dba6-e784-4638-af80-a7c3d47f838d","ios":"levelo://app?vid=e387dba6-e784-4638-af80-a7c3d47f838d"},"vehicle_type_id":"4","last_reported":1747004950,"current_range_meters":28000,"station_id":"ce4bgvp2rcd13ifvqcu0","pricing_plan_id":"cebpf4jnsgd1na2vs0mg"},{"bike_id":"15d7f89e-da13-4954-8ce5-17ab1bd9181f","system_id":"levelo_inurba_marseille","lat":43.27364,"lon":5.36251,"is_reserved":false,"is_disabled":false,"rental_uris":{"android":"levelo://app?vid=15d7f89e-da13-4954-8ce5-17ab1bd9181f","ios":"levelo://app?vid=15d7f89e-da13-4954-8ce5-17ab1bd9181f"},"vehicle_type_id":"4","last_reported":1747004950,"current_range_meters":28000,"station_id":"ce4bhbh2rcd13ifvqeo0","pricing_plan_id":"cebpf4jnsgd1na2vs0mg"},{"bike_id":"15c429a6-f364-4d0a-a6e5-8ce4b35ac061","system_id":"levelo_inurba_marseille","lat":43.2871,"lon":5.399763,"is_reserved":false,"is_disabled":false,"rental_uris":{"android":"levelo://app?vid=15c429a6-f364-4d0a-a6e5-8ce4b35ac061","ios":"levelo://app?vid=15c429a6-f364-4d0a-a6e5-8ce4b35ac061"},"vehicle_type_id":"4","last_reported":1747004950,"current_range_meters":28000,"station_id":"ce4bho92rcd13ifvqh3g","pricing_plan_id":"cebpf4jnsgd1na2vs0mg"},{"bike_id":"15d99e4b-34d7-473a-ac95-6c9542f80136","system_id":"levelo_inurba_marseille","lat":43.31364,"lon":5.3849,"is_reserved":false,"is_disabled":false,"rental_uris":{"android":"levelo://app?vid=15d99e4b-34d7-473a-ac95-6c9542f80136","ios":"levelo://app?vid=15d99e4b-34d7-473a-ac95-6c9542f80136"},"vehicle_type_id":"4","last_reported":1747004950,"current_range_meters":28400,"station_id":"ce4bgt92rcd13ifvqcf0","pricing_plan_id":"cebpf4jnsgd1na2vs0mg"},{"bike_id":"cbdcf005-6e74-4edd-bc9f-0084869f35cb","system_id":"levelo_inurba_marseille","lat":43.308844,"lon":5.396473,"is_reserved":false,"is_disabled":false,"rental_uris":{"android":"levelo://app?vid=cbdcf005-6e74-4edd-bc9f-0084869f35cb","ios":"levelo://app?vid=cbdcf005-6e74-4edd-bc9f-0084869f35cb"},"vehicle_type_id":"4","last_reported":1747004950,"current_range_meters":28400,"station_id":"ce4bh012rcd13ifvqcv0","pricing_plan_id":"cebpf4jnsgd1na2vs0mg"},{"bike_id":"ea92c411-d560-4476-833d-81d8858f3a16","system_id":"levelo_inurba_marseille","lat":43.29893,"lon":5.3972,"is_reserved":false,"is_disabled":false,"rental_uris":{"android":"levelo://app?vid=ea92c411-d560-4476-833d-81d8858f3a16","ios":"levelo://app?vid=ea92c411-d560-4476-833d-81d8858f3a16"},"vehicle_type_id":"4","last_reported":1747004950,"current_range_meters":28400,"station_id":"ce4bh0h2rcd13ifvqd50","pricing_plan_id":"cebpf4jnsgd1na2vs0mg"},{"bike_id":"010945c0-9e1e-444b-bbcc-86fe469cc7bb","system_id":"levelo_inurba_marseille","lat":43.29874,"lon":5.397367,"is_reserved":false,"is_disabled":false,"rental_uris":{"android":"levelo://app?vid=010945c0-9e1e-444b-bbcc-86fe469cc7bb","ios":"levelo://app?vid=010945c0-9e1e-444b-bbcc-86fe469cc7bb"},"vehicle_type_id":"4","last_reported":1747004950,"current_range_meters":28400,"station_id":"ce4bh0h2rcd13ifvqd50","pricing_plan_id":"cebpf4jnsgd1na2vs0mg"},{"bike_id":"f202ef3b-390d-4222-9c53-b7b067de17c2","system_id":"levelo_inurba_marseille","lat":43.28441,"lon":5.39166,"is_reserved":false,"is_disabled":false,"rental_uris":{"android":"levelo://app?vid=f202ef3b-390d-4222-9c53-b7b067de17c2","ios":"levelo://app?vid=f202ef3b-390d-4222-9c53-b7b067de17c2"},"vehicle_type_id":"4","last_reported":1747004950,"current_range_meters":28400,"station_id":"ce4bhoh2rcd13ifvqh5g","pricing_plan_id":"cebpf4jnsgd1na2vs0mg"},{"bike_id":"8d280afa-9953-4524-8857-a23231819228","system_id":"levelo_inurba_marseille","lat":43.288506,"lon":5.393134,"is_reserved":false,"is_disabled":false,"rental_uris":{"android":"levelo://app?vid=8d280afa-9953-4524-8857-a23231819228","ios":"levelo://app?vid=8d280afa-9953-4524-8857-a23231819228"},"vehicle_type_id":"4","last_reported":1747004950,"current_range_meters":28800,"station_id":"ce4bh2p2rcd13ifvqdi0","pricing_plan_id":"cebpf4jnsgd1na2vs0mg"},{"bike_id":"9a6c67d6-6dd0-42ec-ba7a-5d03082fdbea","system_id":"levelo_inurba_marseille","lat":43.2872,"lon":5.40021,"is_reserved":false,"is_disabled":false,"rental_uris":{"android":"levelo://app?vid=9a6c67d6-6dd0-42ec-ba7a-5d03082fdbea","ios":"levelo://app?vid=9a6c67d6-6dd0-42ec-ba7a-5d03082fdbea"},"vehicle_type_id":"4","last_reported":1747004950,"current_range_meters":28800,"station_id":"ce4bho92rcd13ifvqh3g","pricing_plan_id":"cebpf4jnsgd1na2vs0mg"},{"bike_id":"4c553312-7a56-4420-94be-4db995548186","system_id":"levelo_inurba_marseille","lat":43.29346,"lon":5.4342,"is_reserved":false,"is_disabled":false,"rental_uris":{"android":"levelo://app?vid=4c553312-7a56-4420-94be-4db995548186","ios":"levelo://app?vid=4c553312-7a56-4420-94be-4db995548186"},"vehicle_type_id":"4","last_reported":1747004950,"current_range_meters":29600,"station_id":"","pricing_plan_id":"cebpf4jnsgd1na2vs0mg"},{"bike_id":"a54f9bbf-6ecf-4cab-b322-35c36879a63e","system_id":"levelo_inurba_marseille","lat":43.31501,"lon":5.37303,"is_reserved":false,"is_disabled":false,"rental_uris":{"android":"levelo://app?vid=a54f9bbf-6ecf-4cab-b322-35c36879a63e","ios":"levelo://app?vid=a54f9bbf-6ecf-4cab-b322-35c36879a63e"},"vehicle_type_id":"4","last_reported":1747004950,"current_range_meters":29600,"station_id":"ce4bgt12rcd13ifvqcd0","pricing_plan_id":"cebpf4jnsgd1na2vs0mg"},{"bike_id":"8eb50512-73b2-46d6-9f67-56aaa2c034c5","system_id":"levelo_inurba_marseille","lat":43.30935,"lon":5.401413,"is_reserved":false,"is_disabled":false,"rental_uris":{"android":"levelo://app?vid=8eb50512-73b2-46d6-9f67-56aaa2c034c5","ios":"levelo://app?vid=8eb50512-73b2-46d6-9f67-56aaa2c034c5"},"vehicle_type_id":"4","last_reported":1747004950,"current_range_meters":29600,"station_id":"ce4bgvp2rcd13ifvqct0","pricing_plan_id":"cebpf4jnsgd1na2vs0mg"},{"bike_id":"94711b95-b181-4c4e-ae63-d6e9deccc5dd","system_id":"levelo_inurba_marseille","lat":43.31322,"lon":5.39715,"is_reserved":false,"is_disabled":false,"rental_uris":{"android":"levelo://app?vid=94711b95-b181-4c4e-ae63-d6e9deccc5dd","ios":"levelo://app?vid=94711b95-b181-4c4e-ae63-d6e9deccc5dd"},"vehicle_type_id":"4","last_reported":1747004950,"current_range_meters":29600,"station_id":"ce4bgvp2rcd13ifvqcu0","pricing_plan_id":"cebpf4jnsgd1na2vs0mg"},{"bike_id":"2c2c42db-b911-491f-8432-39de642c84c5","system_id":"levelo_inurba_marseille","lat":43.285764,"lon":5.395029,"is_reserved":false,"is_disabled":false,"rental_uris":{"android":"levelo://app?vid=2c2c42db-b911-491f-8432-39de642c84c5","ios":"levelo://app?vid=2c2c42db-b911-491f-8432-39de642c84c5"},"vehicle_type_id":"4","last_reported":1747004950,"current_range_meters":29600,"station_id":"ce4bh292rcd13ifvqdg0","pricing_plan_id":"cebpf4jnsgd1na2vs0mg"},{"bike_id":"c1804f9f-9f2d-4342-98f5-bc656b529f81","system_id":"levelo_inurba_marseille","lat":43.270719,"lon":5.422776,"is_reserved":false,"is_disabled":false,"rental_uris":{"android":"levelo://app?vid=c1804f9f-9f2d-4342-98f5-bc656b529f81","ios":"levelo://app?vid=c1804f9f-9f2d-4342-98f5-bc656b529f81"},"vehicle_type_id":"4","last_reported":1747004950,"current_range_meters":29600,"station_id":"ce4bhk92rcd13ifvqgb0","pricing_plan_id":"cebpf4jnsgd1na2vs0mg"},{"bike_id":"447d10d0-d530-47a3-bd10-036a1c0ef5cd","system_id":"levelo_inurba_marseille","lat":43.27055,"lon":5.40261,"is_reserved":false,"is_disabled":false,"rental_uris":{"android":"levelo://app?vid=447d10d0-d530-47a3-bd10-036a1c0ef5cd","ios":"levelo://app?vid=447d10d0-d530-47a3-bd10-036a1c0ef5cd"},"vehicle_type_id":"4","last_reported":1747004950,"current_range_meters":29600,"station_id":"ce4bhk92rcd13ifvqgc0","pricing_plan_id":"cebpf4jnsgd1na2vs0mg"},{"bike_id":"8ca7f4be-37fb-47ec-8f0d-00dcb483855b","system_id":"levelo_inurba_marseille","lat":43.28275,"lon":5.42392,"is_reserved":false,"is_disabled":false,"rental_uris":{"android":"levelo://app?vid=8ca7f4be-37fb-47ec-8f0d-00dcb483855b","ios":"levelo://app?vid=8ca7f4be-37fb-47ec-8f0d-00dcb483855b"},"vehicle_type_id":"4","last_reported":1747004950,"current_range_meters":30000,"station_id":"","pricing_plan_id":"cebpf4jnsgd1na2vs0mg"},{"bike_id":"dda131ce-52f0-4ed7-b5eb-c2b8fe4fcc14","system_id":"levelo_inurba_marseille","lat":43.29964,"lon":5.385,"is_reserved":false,"is_disabled":false,"rental_uris":{"android":"levelo://app?vid=dda131ce-52f0-4ed7-b5eb-c2b8fe4fcc14","ios":"levelo://app?vid=dda131ce-52f0-4ed7-b5eb-c2b8fe4fcc14"},"vehicle_type_id":"4","last_reported":1747004950,"current_range_meters":30000,"station_id":"ce4bgj92rcd13ifvqbd0","pricing_plan_id":"cebpf4jnsgd1na2vs0mg"},{"bike_id":"8814ab9f-e39e-4331-9fde-2c6fe551cb85","system_id":"levelo_inurba_marseille","lat":43.30788,"lon":5.37664,"is_reserved":false,"is_disabled":false,"rental_uris":{"android":"levelo://app?vid=8814ab9f-e39e-4331-9fde-2c6fe551cb85","ios":"levelo://app?vid=8814ab9f-e39e-4331-9fde-2c6fe551cb85"},"vehicle_type_id":"4","last_reported":1747004950,"current_range_meters":30000,"station_id":"ce4bgv92rcd13ifvqcq0","pricing_plan_id":"cebpf4jnsgd1na2vs0mg"},{"bike_id":"0f8e003d-a6f5-41bf-802a-9bf6bd0f5198","system_id":"levelo_inurba_marseille","lat":43.30924,"lon":5.40151,"is_reserved":false,"is_disabled":false,"rental_uris":{"android":"levelo://app?vid=0f8e003d-a6f5-41bf-802a-9bf6bd0f5198","ios":"levelo://app?vid=0f8e003d-a6f5-41bf-802a-9bf6bd0f5198"},"vehicle_type_id":"4","last_reported":1747004950,"current_range_meters":30000,"station_id":"ce4bgvp2rcd13ifvqct0","pricing_plan_id":"cebpf4jnsgd1na2vs0mg"},{"bike_id":"136b433b-b0c6-4ce4-aa46-4974fd56094e","system_id":"levelo_inurba_marseille","lat":43.27434,"lon":5.39413,"is_reserved":false,"is_disabled":false,"rental_uris":{"android":"levelo://app?vid=136b433b-b0c6-4ce4-aa46-4974fd56094e","ios":"levelo://app?vid=136b433b-b0c6-4ce4-aa46-4974fd56094e"},"vehicle_type_id":"4","last_reported":1747004950,"current_range_meters":30000,"station_id":"ce4bhdp2rcd13ifvqf20","pricing_plan_id":"cebpf4jnsgd1na2vs0mg"},{"bike_id":"038313a3-112e-48a0-bc50-49bd013fc08a","system_id":"levelo_inurba_marseille","lat":43.28712,"lon":5.39987,"is_reserved":false,"is_disabled":false,"rental_uris":{"android":"levelo://app?vid=038313a3-112e-48a0-bc50-49bd013fc08a","ios":"levelo://app?vid=038313a3-112e-48a0-bc50-49bd013fc08a"},"vehicle_type_id":"4","last_reported":1747004950,"current_range_meters":30000,"station_id":"ce4bho92rcd13ifvqh3g","pricing_plan_id":"cebpf4jnsgd1na2vs0mg"},{"bike_id":"b5af14f9-6bf0-4bf0-995f-7a16ea11cee2","system_id":"levelo_inurba_marseille","lat":43.27058,"lon":5.40264,"is_reserved":false,"is_disabled":false,"rental_uris":{"android":"levelo://app?vid=b5af14f9-6bf0-4bf0-995f-7a16ea11cee2","ios":"levelo://app?vid=b5af14f9-6bf0-4bf0-995f-7a16ea11cee2"},"vehicle_type_id":"4","last_reported":1747004950,"current_range_meters":30400,"station_id":"ce4bhk92rcd13ifvqgc0","pricing_plan_id":"cebpf4jnsgd1na2vs0mg"},{"bike_id":"e28853be-a8af-4d81-9bc0-d5634df77fba","system_id":"levelo_inurba_marseille","lat":43.28419,"lon":5.39175,"is_reserved":false,"is_disabled":false,"rental_uris":{"android":"levelo://app?vid=e28853be-a8af-4d81-9bc0-d5634df77fba","ios":"levelo://app?vid=e28853be-a8af-4d81-9bc0-d5634df77fba"},"vehicle_type_id":"4","last_reported":1747004950,"current_range_meters":30400,"station_id":"ce4bhoh2rcd13ifvqh5g","pricing_plan_id":"cebpf4jnsgd1na2vs0mg"},{"bike_id":"cdc62916-98c5-4459-a4cd-4b71ee75b9fc","system_id":"levelo_inurba_marseille","lat":43.26009,"lon":5.41744,"is_reserved":false,"is_disabled":false,"rental_uris":{"android":"levelo://app?vid=cdc62916-98c5-4459-a4cd-4b71ee75b9fc","ios":"levelo://app?vid=cdc62916-98c5-4459-a4cd-4b71ee75b9fc"},"vehicle_type_id":"4","last_reported":1747004950,"current_range_meters":30800,"station_id":"","pricing_plan_id":"cebpf4jnsgd1na2vs0mg"},{"bike_id":"8f4a6b66-d486-4af6-a10a-1531e5a36789","system_id":"levelo_inurba_marseille","lat":43.32337,"lon":5.40622,"is_reserved":false,"is_disabled":false,"rental_uris":{"android":"levelo://app?vid=8f4a6b66-d486-4af6-a10a-1531e5a36789","ios":"levelo://app?vid=8f4a6b66-d486-4af6-a10a-1531e5a36789"},"vehicle_type_id":"4","last_reported":1747004950,"current_range_meters":30800,"station_id":"ce4bhq92rcd13ifvqhjg","pricing_plan_id":"cebpf4jnsgd1na2vs0mg"},{"bike_id":"a85bd4b9-4621-43d4-83f7-4ad07d6befec","system_id":"levelo_inurba_marseille","lat":43.32344,"lon":5.40617,"is_reserved":false,"is_disabled":false,"rental_uris":{"android":"levelo://app?vid=a85bd4b9-4621-43d4-83f7-4ad07d6befec","ios":"levelo://app?vid=a85bd4b9-4621-43d4-83f7-4ad07d6befec"},"vehicle_type_id":"4","last_reported":1747004950,"current_range_meters":30800,"station_id":"ce4bhq92rcd13ifvqhjg","pricing_plan_id":"cebpf4jnsgd1na2vs0mg"},{"bike_id":"b45d0263-ed17-4f84-a74e-d15c84857ce8","system_id":"levelo_inurba_marseille","lat":43.28568,"lon":5.3948,"is_reserved":false,"is_disabled":false,"rental_uris":{"android":"levelo://app?vid=b45d0263-ed17-4f84-a74e-d15c84857ce8","ios":"levelo://app?vid=b45d0263-ed17-4f84-a74e-d15c84857ce8"},"vehicle_type_id":"4","last_reported":1747004950,"current_range_meters":31200,"station_id":"ce4bh292rcd13ifvqdg0","pricing_plan_id":"cebpf4jnsgd1na2vs0mg"},{"bike_id":"8db095cb-8b2d-4a95-a68d-abce79fbcf29","system_id":"levelo_inurba_marseille","lat":43.24998,"lon":5.3893,"is_reserved":false,"is_disabled":false,"rental_uris":{"android":"levelo://app?vid=8db095cb-8b2d-4a95-a68d-abce79fbcf29","ios":"levelo://app?vid=8db095cb-8b2d-4a95-a68d-abce79fbcf29"},"vehicle_type_id":"4","last_reported":1747004950,"current_range_meters":31200,"station_id":"ce4bhgp2rcd13ifvqfd0","pricing_plan_id":"cebpf4jnsgd1na2vs0mg"},{"bike_id":"e613626b-0ba7-4a6e-84b7-46810540ba9b","system_id":"levelo_inurba_marseille","lat":43.24683,"lon":5.3818,"is_reserved":false,"is_disabled":false,"rental_uris":{"android":"levelo://app?vid=e613626b-0ba7-4a6e-84b7-46810540ba9b","ios":"levelo://app?vid=e613626b-0ba7-4a6e-84b7-46810540ba9b"},"vehicle_type_id":"4","last_reported":1747004950,"current_range_meters":31200,"station_id":"ce4bhih2rcd13ifvqfr0","pricing_plan_id":"cebpf4jnsgd1na2vs0mg"},{"bike_id":"39ef88b7-4503-4f42-926d-fbb958a9dc24","system_id":"levelo_inurba_marseille","lat":43.271741,"lon":5.409925,"is_reserved":false,"is_disabled":false,"rental_uris":{"android":"levelo://app?vid=39ef88b7-4503-4f42-926d-fbb958a9dc24","ios":"levelo://app?vid=39ef88b7-4503-4f42-926d-fbb958a9dc24"},"vehicle_type_id":"4","last_reported":1747004950,"current_range_meters":31200,"station_id":"ce4bhl12rcd13ifvqgf0","pricing_plan_id":"cebpf4jnsgd1na2vs0mg"},{"bike_id":"eacaa53e-f4d4-4a72-bd34-9e30dbd3c32f","system_id":"levelo_inurba_marseille","lat":43.317707,"lon":5.390048,"is_reserved":false,"is_disabled":false,"rental_uris":{"android":"levelo://app?vid=eacaa53e-f4d4-4a72-bd34-9e30dbd3c32f","ios":"levelo://app?vid=eacaa53e-f4d4-4a72-bd34-9e30dbd3c32f"},"vehicle_type_id":"4","last_reported":1747004950,"current_range_meters":31200,"station_id":"ce4bhqp2rcd13ifvqhng","pricing_plan_id":"cebpf4jnsgd1na2vs0mg"},{"bike_id":"5c046693-3fbd-4755-81fd-1c6b34ebf07b","system_id":"levelo_inurba_marseille","lat":43.337605,"lon":5.374426,"is_reserved":false,"is_disabled":false,"rental_uris":{"android":"levelo://app?vid=5c046693-3fbd-4755-81fd-1c6b34ebf07b","ios":"levelo://app?vid=5c046693-3fbd-4755-81fd-1c6b34ebf07b"},"vehicle_type_id":"4","last_reported":1747004950,"current_range_meters":32000,"station_id":"","pricing_plan_id":"cebpf4jnsgd1na2vs0mg"},{"bike_id":"005bb5d7-d40c-416f-82d1-4004759c841b","system_id":"levelo_inurba_marseille","lat":43.29892,"lon":5.39725,"is_reserved":false,"is_disabled":false,"rental_uris":{"android":"levelo://app?vid=005bb5d7-d40c-416f-82d1-4004759c841b","ios":"levelo://app?vid=005bb5d7-d40c-416f-82d1-4004759c841b"},"vehicle_type_id":"4","last_reported":1747004950,"current_range_meters":32000,"station_id":"ce4bh0h2rcd13ifvqd50","pricing_plan_id":"cebpf4jnsgd1na2vs0mg"},{"bike_id":"de77d504-95c2-4991-9418-4e5c0c5fd5fb","system_id":"levelo_inurba_marseille","lat":43.280373,"lon":5.369512,"is_reserved":false,"is_disabled":false,"rental_uris":{"android":"levelo://app?vid=de77d504-95c2-4991-9418-4e5c0c5fd5fb","ios":"levelo://app?vid=de77d504-95c2-4991-9418-4e5c0c5fd5fb"},"vehicle_type_id":"4","last_reported":1747004950,"current_range_meters":32000,"station_id":"ce4bha12rcd13ifvqef0","pricing_plan_id":"cebpf4jnsgd1na2vs0mg"},{"bike_id":"577a00ad-d6f2-4c19-b097-aee95e242500","system_id":"levelo_inurba_marseille","lat":43.255832,"lon":5.382376,"is_reserved":false,"is_disabled":false,"rental_uris":{"android":"levelo://app?vid=577a00ad-d6f2-4c19-b097-aee95e242500","ios":"levelo://app?vid=577a00ad-d6f2-4c19-b097-aee95e242500"},"vehicle_type_id":"4","last_reported":1747004950,"current_range_meters":32400,"station_id":"ce4bhih2rcd13ifvqfs0","pricing_plan_id":"cebpf4jnsgd1na2vs0mg"},{"bike_id":"3e5f282e-b6c7-489d-9c5b-6ba24372d546","system_id":"levelo_inurba_marseille","lat":43.33594,"lon":5.40953,"is_reserved":false,"is_disabled":false,"rental_uris":{"android":"levelo://app?vid=3e5f282e-b6c7-489d-9c5b-6ba24372d546","ios":"levelo://app?vid=3e5f282e-b6c7-489d-9c5b-6ba24372d546"},"vehicle_type_id":"4","last_reported":1747004950,"current_range_meters":32400,"station_id":"ce4bhqh2rcd13ifvqhmg","pricing_plan_id":"cebpf4jnsgd1na2vs0mg"},{"bike_id":"f35a3999-63d9-455b-8709-a6592690e9d3","system_id":"levelo_inurba_marseille","lat":43.30323,"lon":5.40425,"is_reserved":false,"is_disabled":false,"rental_uris":{"android":"levelo://app?vid=f35a3999-63d9-455b-8709-a6592690e9d3","ios":"levelo://app?vid=f35a3999-63d9-455b-8709-a6592690e9d3"},"vehicle_type_id":"4","last_reported":1747004950,"current_range_meters":32800,"station_id":"ce4bh012rcd13ifvqd10","pricing_plan_id":"cebpf4jnsgd1na2vs0mg"},{"bike_id":"0f7324d5-be48-4484-95dd-ad0a0c58767c","system_id":"levelo_inurba_marseille","lat":43.25118,"lon":5.403312,"is_reserved":false,"is_disabled":false,"rental_uris":{"android":"levelo://app?vid=0f7324d5-be48-4484-95dd-ad0a0c58767c","ios":"levelo://app?vid=0f7324d5-be48-4484-95dd-ad0a0c58767c"},"vehicle_type_id":"4","last_reported":1747004950,"current_range_meters":32800,"station_id":"ce4bhlh2rcd13ifvqgig","pricing_plan_id":"cebpf4jnsgd1na2vs0mg"},{"bike_id":"81c5cc67-f513-4ff6-95a4-1fcf1b55cbb3","system_id":"levelo_inurba_marseille","lat":43.31718,"lon":5.42421,"is_reserved":false,"is_disabled":false,"rental_uris":{"android":"levelo://app?vid=81c5cc67-f513-4ff6-95a4-1fcf1b55cbb3","ios":"levelo://app?vid=81c5cc67-f513-4ff6-95a4-1fcf1b55cbb3"},"vehicle_type_id":"4","last_reported":1747004950,"current_range_meters":32800,"station_id":"ce4bhp92rcd13ifvqhbg","pricing_plan_id":"cebpf4jnsgd1na2vs0mg"},{"bike_id":"561dec04-c84c-4699-85cb-54a9453d50dd","system_id":"levelo_inurba_marseille","lat":43.307854,"lon":5.376491,"is_reserved":false,"is_disabled":false,"rental_uris":{"android":"levelo://app?vid=561dec04-c84c-4699-85cb-54a9453d50dd","ios":"levelo://app?vid=561dec04-c84c-4699-85cb-54a9453d50dd"},"vehicle_type_id":"4","last_reported":1747004950,"current_range_meters":33200,"station_id":"ce4bgv92rcd13ifvqcq0","pricing_plan_id":"cebpf4jnsgd1na2vs0mg"},{"bike_id":"97ed3292-cd8b-423f-8aab-dbc6065e3323","system_id":"levelo_inurba_marseille","lat":43.30888,"lon":5.39616,"is_reserved":false,"is_disabled":false,"rental_uris":{"android":"levelo://app?vid=97ed3292-cd8b-423f-8aab-dbc6065e3323","ios":"levelo://app?vid=97ed3292-cd8b-423f-8aab-dbc6065e3323"},"vehicle_type_id":"4","last_reported":1747004950,"current_range_meters":33200,"station_id":"ce4bh012rcd13ifvqcv0","pricing_plan_id":"cebpf4jnsgd1na2vs0mg"},{"bike_id":"0af5df5f-efbc-4619-a61a-dac17353642c","system_id":"levelo_inurba_marseille","lat":43.29886,"lon":5.38917,"is_reserved":false,"is_disabled":false,"rental_uris":{"android":"levelo://app?vid=0af5df5f-efbc-4619-a61a-dac17353642c","ios":"levelo://app?vid=0af5df5f-efbc-4619-a61a-dac17353642c"},"vehicle_type_id":"4","last_reported":1747004950,"current_range_meters":33200,"station_id":"ce4bh392rcd13ifvqdl0","pricing_plan_id":"cebpf4jnsgd1na2vs0mg"},{"bike_id":"10b9a039-dd7e-4a20-9e80-3ea6aa75ce6b","system_id":"levelo_inurba_marseille","lat":43.31726,"lon":5.424036,"is_reserved":false,"is_disabled":false,"rental_uris":{"android":"levelo://app?vid=10b9a039-dd7e-4a20-9e80-3ea6aa75ce6b","ios":"levelo://app?vid=10b9a039-dd7e-4a20-9e80-3ea6aa75ce6b"},"vehicle_type_id":"4","last_reported":1747004950,"current_range_meters":33200,"station_id":"ce4bhp92rcd13ifvqhbg","pricing_plan_id":"cebpf4jnsgd1na2vs0mg"},{"bike_id":"90bc692b-24d3-4076-99e6-3e95c95a3c14","system_id":"levelo_inurba_marseille","lat":43.29882,"lon":5.39723,"is_reserved":false,"is_disabled":false,"rental_uris":{"android":"levelo://app?vid=90bc692b-24d3-4076-99e6-3e95c95a3c14","ios":"levelo://app?vid=90bc692b-24d3-4076-99e6-3e95c95a3c14"},"vehicle_type_id":"4","last_reported":1747004950,"current_range_meters":33600,"station_id":"ce4bh0h2rcd13ifvqd50","pricing_plan_id":"cebpf4jnsgd1na2vs0mg"},{"bike_id":"b1eb6202-8298-4c5f-9842-6196fe01aace","system_id":"levelo_inurba_marseille","lat":43.28853,"lon":5.39316,"is_reserved":false,"is_disabled":false,"rental_uris":{"android":"levelo://app?vid=b1eb6202-8298-4c5f-9842-6196fe01aace","ios":"levelo://app?vid=b1eb6202-8298-4c5f-9842-6196fe01aace"},"vehicle_type_id":"4","last_reported":1747004950,"current_range_meters":33600,"station_id":"ce4bh2p2rcd13ifvqdi0","pricing_plan_id":"cebpf4jnsgd1na2vs0mg"},{"bike_id":"c4621528-343d-49b2-aa7b-0af1f81deaa7","system_id":"levelo_inurba_marseille","lat":43.28855,"lon":5.35846,"is_reserved":false,"is_disabled":false,"rental_uris":{"android":"levelo://app?vid=c4621528-343d-49b2-aa7b-0af1f81deaa7","ios":"levelo://app?vid=c4621528-343d-49b2-aa7b-0af1f81deaa7"},"vehicle_type_id":"4","last_reported":1747004950,"current_range_meters":33600,"station_id":"ce4bhb12rcd13ifvqem0","pricing_plan_id":"cebpf4jnsgd1na2vs0mg"},{"bike_id":"98da9520-9f48-4410-8987-3d95171c25d6","system_id":"levelo_inurba_marseille","lat":43.25006,"lon":5.38931,"is_reserved":false,"is_disabled":false,"rental_uris":{"android":"levelo://app?vid=98da9520-9f48-4410-8987-3d95171c25d6","ios":"levelo://app?vid=98da9520-9f48-4410-8987-3d95171c25d6"},"vehicle_type_id":"4","last_reported":1747004950,"current_range_meters":33600,"station_id":"ce4bhgp2rcd13ifvqfd0","pricing_plan_id":"cebpf4jnsgd1na2vs0mg"},{"bike_id":"760e6e61-479b-4d7f-bdb6-66eaf909b131","system_id":"levelo_inurba_marseille","lat":43.23156,"lon":5.43696,"is_reserved":false,"is_disabled":false,"rental_uris":{"android":"levelo://app?vid=760e6e61-479b-4d7f-bdb6-66eaf909b131","ios":"levelo://app?vid=760e6e61-479b-4d7f-bdb6-66eaf909b131"},"vehicle_type_id":"4","last_reported":1747004950,"current_range_meters":33600,"station_id":"ce4bhmp2rcd13ifvqgog","pricing_plan_id":"cebpf4jnsgd1na2vs0mg"},{"bike_id":"95f50264-81a1-4332-a7c4-13e6f2a6134d","system_id":"levelo_inurba_marseille","lat":43.28721,"lon":5.36087,"is_reserved":false,"is_disabled":false,"rental_uris":{"android":"levelo://app?vid=95f50264-81a1-4332-a7c4-13e6f2a6134d","ios":"levelo://app?vid=95f50264-81a1-4332-a7c4-13e6f2a6134d"},"vehicle_type_id":"4","last_reported":1747004950,"current_range_meters":33600,"station_id":"cki0cbj6b192h4jlfktg","pricing_plan_id":"cebpf4jnsgd1na2vs0mg"},{"bike_id":"bbcc9f5a-b5a5-4629-9f12-85c011033058","system_id":"levelo_inurba_marseille","lat":43.31174,"lon":5.38716,"is_reserved":false,"is_disabled":false,"rental_uris":{"android":"levelo://app?vid=bbcc9f5a-b5a5-4629-9f12-85c011033058","ios":"levelo://app?vid=bbcc9f5a-b5a5-4629-9f12-85c011033058"},"vehicle_type_id":"4","last_reported":1747004950,"current_range_meters":34000,"station_id":"ce4bgv12rcd13ifvqcp0","pricing_plan_id":"cebpf4jnsgd1na2vs0mg"},{"bike_id":"698cd362-d962-4e16-a27a-6cffe77a494b","system_id":"levelo_inurba_marseille","lat":43.29887,"lon":5.39731,"is_reserved":false,"is_disabled":false,"rental_uris":{"android":"levelo://app?vid=698cd362-d962-4e16-a27a-6cffe77a494b","ios":"levelo://app?vid=698cd362-d962-4e16-a27a-6cffe77a494b"},"vehicle_type_id":"4","last_reported":1747004950,"current_range_meters":34000,"station_id":"ce4bh0h2rcd13ifvqd50","pricing_plan_id":"cebpf4jnsgd1na2vs0mg"},{"bike_id":"1510557f-0c2f-4e01-9814-9652d7428595","system_id":"levelo_inurba_marseille","lat":43.24665,"lon":5.38153,"is_reserved":false,"is_disabled":false,"rental_uris":{"android":"levelo://app?vid=1510557f-0c2f-4e01-9814-9652d7428595","ios":"levelo://app?vid=1510557f-0c2f-4e01-9814-9652d7428595"},"vehicle_type_id":"4","last_reported":1747004950,"current_range_meters":34000,"station_id":"ce4bhih2rcd13ifvqfr0","pricing_plan_id":"cebpf4jnsgd1na2vs0mg"},{"bike_id":"11171f27-f5e6-4c43-b45d-c3c7c335c7e3","system_id":"levelo_inurba_marseille","lat":43.284354,"lon":5.391956,"is_reserved":false,"is_disabled":false,"rental_uris":{"android":"levelo://app?vid=11171f27-f5e6-4c43-b45d-c3c7c335c7e3","ios":"levelo://app?vid=11171f27-f5e6-4c43-b45d-c3c7c335c7e3"},"vehicle_type_id":"4","last_reported":1747004950,"current_range_meters":34000,"station_id":"ce4bhoh2rcd13ifvqh5g","pricing_plan_id":"cebpf4jnsgd1na2vs0mg"},{"bike_id":"2182db16-b350-4283-8ae0-209071785631","system_id":"levelo_inurba_marseille","lat":43.30944,"lon":5.367426,"is_reserved":false,"is_disabled":false,"rental_uris":{"android":"levelo://app?vid=2182db16-b350-4283-8ae0-209071785631","ios":"levelo://app?vid=2182db16-b350-4283-8ae0-209071785631"},"vehicle_type_id":"4","last_reported":1747004950,"current_range_meters":34800,"station_id":"","pricing_plan_id":"cebpf4jnsgd1na2vs0mg"},{"bike_id":"a52974aa-e3ee-4017-bef0-bcbd7ff9546e","system_id":"levelo_inurba_marseille","lat":43.27951,"lon":5.41128,"is_reserved":false,"is_disabled":false,"rental_uris":{"android":"levelo://app?vid=a52974aa-e3ee-4017-bef0-bcbd7ff9546e","ios":"levelo://app?vid=a52974aa-e3ee-4017-bef0-bcbd7ff9546e"},"vehicle_type_id":"4","last_reported":1747004950,"current_range_meters":34800,"station_id":"","pricing_plan_id":"cebpf4jnsgd1na2vs0mg"},{"bike_id":"503b0f45-d81a-433e-bb09-8187d3b9e4f2","system_id":"levelo_inurba_marseille","lat":43.29037,"lon":5.39967,"is_reserved":false,"is_disabled":false,"rental_uris":{"android":"levelo://app?vid=503b0f45-d81a-433e-bb09-8187d3b9e4f2","ios":"levelo://app?vid=503b0f45-d81a-433e-bb09-8187d3b9e4f2"},"vehicle_type_id":"4","last_reported":1747004950,"current_range_meters":34800,"station_id":"ce4bh392rcd13ifvqdm0","pricing_plan_id":"cebpf4jnsgd1na2vs0mg"},{"bike_id":"ff099131-0e3e-4e66-a5e3-5030332515d6","system_id":"levelo_inurba_marseille","lat":43.26567,"lon":5.38998,"is_reserved":false,"is_disabled":false,"rental_uris":{"android":"levelo://app?vid=ff099131-0e3e-4e66-a5e3-5030332515d6","ios":"levelo://app?vid=ff099131-0e3e-4e66-a5e3-5030332515d6"},"vehicle_type_id":"4","last_reported":1747004950,"current_range_meters":34800,"station_id":"ce4bhe12rcd13ifvqf30","pricing_plan_id":"cebpf4jnsgd1na2vs0mg"},{"bike_id":"38b2db02-1c31-4494-bdb6-f68fa693acf3","system_id":"levelo_inurba_marseille","lat":43.30322,"lon":5.404387,"is_reserved":false,"is_disabled":false,"rental_uris":{"android":"levelo://app?vid=38b2db02-1c31-4494-bdb6-f68fa693acf3","ios":"levelo://app?vid=38b2db02-1c31-4494-bdb6-f68fa693acf3"},"vehicle_type_id":"4","last_reported":1747004950,"current_range_meters":35200,"station_id":"ce4bh012rcd13ifvqd10","pricing_plan_id":"cebpf4jnsgd1na2vs0mg"},{"bike_id":"69736cf9-985e-44f8-af32-d0047726827b","system_id":"levelo_inurba_marseille","lat":43.31271,"lon":5.40163,"is_reserved":false,"is_disabled":false,"rental_uris":{"android":"levelo://app?vid=69736cf9-985e-44f8-af32-d0047726827b","ios":"levelo://app?vid=69736cf9-985e-44f8-af32-d0047726827b"},"vehicle_type_id":"4","last_reported":1747004950,"current_range_meters":35200,"station_id":"ce4bh092rcd13ifvqd30","pricing_plan_id":"cebpf4jnsgd1na2vs0mg"},{"bike_id":"07ffa4f1-182f-4286-b0df-1e8e4502ad09","system_id":"levelo_inurba_marseille","lat":43.324862,"lon":5.365617,"is_reserved":false,"is_disabled":false,"rental_uris":{"android":"levelo://app?vid=07ffa4f1-182f-4286-b0df-1e8e4502ad09","ios":"levelo://app?vid=07ffa4f1-182f-4286-b0df-1e8e4502ad09"},"vehicle_type_id":"4","last_reported":1747004950,"current_range_meters":35200,"station_id":"ce4bhs12rcd13ifvqhvg","pricing_plan_id":"cebpf4jnsgd1na2vs0mg"},{"bike_id":"7a1bbf1b-6190-4d0a-b203-09fe7bf4d3b0","system_id":"levelo_inurba_marseille","lat":43.28718,"lon":5.36084,"is_reserved":false,"is_disabled":false,"rental_uris":{"android":"levelo://app?vid=7a1bbf1b-6190-4d0a-b203-09fe7bf4d3b0","ios":"levelo://app?vid=7a1bbf1b-6190-4d0a-b203-09fe7bf4d3b0"},"vehicle_type_id":"4","last_reported":1747004950,"current_range_meters":35200,"station_id":"cki0cbj6b192h4jlfktg","pricing_plan_id":"cebpf4jnsgd1na2vs0mg"},{"bike_id":"c08ee814-0b5b-49fa-9fc9-5f46a02b8c94","system_id":"levelo_inurba_marseille","lat":43.30424,"lon":5.38886,"is_reserved":false,"is_disabled":false,"rental_uris":{"android":"levelo://app?vid=c08ee814-0b5b-49fa-9fc9-5f46a02b8c94","ios":"levelo://app?vid=c08ee814-0b5b-49fa-9fc9-5f46a02b8c94"},"vehicle_type_id":"4","last_reported":1747004950,"current_range_meters":35600,"station_id":"ce4bgk12rcd13ifvqbi0","pricing_plan_id":"cebpf4jnsgd1na2vs0mg"},{"bike_id":"9e90a0e0-a05a-4a5d-8f2b-cccd81114608","system_id":"levelo_inurba_marseille","lat":43.28669,"lon":5.36359,"is_reserved":false,"is_disabled":false,"rental_uris":{"android":"levelo://app?vid=9e90a0e0-a05a-4a5d-8f2b-cccd81114608","ios":"levelo://app?vid=9e90a0e0-a05a-4a5d-8f2b-cccd81114608"},"vehicle_type_id":"4","last_reported":1747004950,"current_range_meters":35600,"station_id":"ce4bhah2rcd13ifvqej0","pricing_plan_id":"cebpf4jnsgd1na2vs0mg"},{"bike_id":"f10b6d9e-749b-4332-9181-128f019fe725","system_id":"levelo_inurba_marseille","lat":43.28996,"lon":5.35614,"is_reserved":false,"is_disabled":false,"rental_uris":{"android":"levelo://app?vid=f10b6d9e-749b-4332-9181-128f019fe725","ios":"levelo://app?vid=f10b6d9e-749b-4332-9181-128f019fe725"},"vehicle_type_id":"4","last_reported":1747004950,"current_range_meters":35600,"station_id":"ce4bhb92rcd13ifvqen0","pricing_plan_id":"cebpf4jnsgd1na2vs0mg"},{"bike_id":"47e4e028-9bba-4ff7-9b4b-0918dc355bbb","system_id":"levelo_inurba_marseille","lat":43.255,"lon":5.37652,"is_reserved":false,"is_disabled":false,"rental_uris":{"android":"levelo://app?vid=47e4e028-9bba-4ff7-9b4b-0918dc355bbb","ios":"levelo://app?vid=47e4e028-9bba-4ff7-9b4b-0918dc355bbb"},"vehicle_type_id":"4","last_reported":1747004950,"current_range_meters":35600,"station_id":"ce4bhh12rcd13ifvqff0","pricing_plan_id":"cebpf4jnsgd1na2vs0mg"},{"bike_id":"254cc13b-da4f-4dfa-a9e5-6f196c9df249","system_id":"levelo_inurba_marseille","lat":43.2872,"lon":5.39976,"is_reserved":false,"is_disabled":false,"rental_uris":{"android":"levelo://app?vid=254cc13b-da4f-4dfa-a9e5-6f196c9df249","ios":"levelo://app?vid=254cc13b-da4f-4dfa-a9e5-6f196c9df249"},"vehicle_type_id":"4","last_reported":1747004950,"current_range_meters":35600,"station_id":"ce4bho92rcd13ifvqh3g","pricing_plan_id":"cebpf4jnsgd1na2vs0mg"},{"bike_id":"7d1e6df6-cc8c-41a0-8b07-dffd8111f276","system_id":"levelo_inurba_marseille","lat":43.31765,"lon":5.39005,"is_reserved":false,"is_disabled":false,"rental_uris":{"android":"levelo://app?vid=7d1e6df6-cc8c-41a0-8b07-dffd8111f276","ios":"levelo://app?vid=7d1e6df6-cc8c-41a0-8b07-dffd8111f276"},"vehicle_type_id":"4","last_reported":1747004950,"current_range_meters":35600,"station_id":"ce4bhqp2rcd13ifvqhng","pricing_plan_id":"cebpf4jnsgd1na2vs0mg"},{"bike_id":"14ac466a-8628-46a8-8466-2d2847d108b4","system_id":"levelo_inurba_marseille","lat":43.3025,"lon":5.40045,"is_reserved":false,"is_disabled":false,"rental_uris":{"android":"levelo://app?vid=14ac466a-8628-46a8-8466-2d2847d108b4","ios":"levelo://app?vid=14ac466a-8628-46a8-8466-2d2847d108b4"},"vehicle_type_id":"4","last_reported":1747004950,"current_range_meters":36000,"station_id":"ce4bgvh2rcd13ifvqcs0","pricing_plan_id":"cebpf4jnsgd1na2vs0mg"},{"bike_id":"ef2801cc-b208-4c28-a0a3-29c51b3b7698","system_id":"levelo_inurba_marseille","lat":43.286698,"lon":5.363547,"is_reserved":false,"is_disabled":false,"rental_uris":{"android":"levelo://app?vid=ef2801cc-b208-4c28-a0a3-29c51b3b7698","ios":"levelo://app?vid=ef2801cc-b208-4c28-a0a3-29c51b3b7698"},"vehicle_type_id":"4","last_reported":1747004950,"current_range_meters":36000,"station_id":"ce4bhah2rcd13ifvqej0","pricing_plan_id":"cebpf4jnsgd1na2vs0mg"},{"bike_id":"eab3d0ed-5573-4b5c-924d-89e991fb9815","system_id":"levelo_inurba_marseille","lat":43.2648,"lon":5.39573,"is_reserved":false,"is_disabled":false,"rental_uris":{"android":"levelo://app?vid=eab3d0ed-5573-4b5c-924d-89e991fb9815","ios":"levelo://app?vid=eab3d0ed-5573-4b5c-924d-89e991fb9815"},"vehicle_type_id":"4","last_reported":1747004950,"current_range_meters":36000,"station_id":"ce4bhi12rcd13ifvqfq0","pricing_plan_id":"cebpf4jnsgd1na2vs0mg"},{"bike_id":"3cd9ddf8-cdb9-41f4-b9f8-1906610f5e85","system_id":"levelo_inurba_marseille","lat":43.27076,"lon":5.422783,"is_reserved":false,"is_disabled":false,"rental_uris":{"android":"levelo://app?vid=3cd9ddf8-cdb9-41f4-b9f8-1906610f5e85","ios":"levelo://app?vid=3cd9ddf8-cdb9-41f4-b9f8-1906610f5e85"},"vehicle_type_id":"4","last_reported":1747004950,"current_range_meters":36000,"station_id":"ce4bhk92rcd13ifvqgb0","pricing_plan_id":"cebpf4jnsgd1na2vs0mg"},{"bike_id":"eedccd53-0700-44cb-b54c-7af6cbc70cda","system_id":"levelo_inurba_marseille","lat":43.33608,"lon":5.41016,"is_reserved":false,"is_disabled":false,"rental_uris":{"android":"levelo://app?vid=eedccd53-0700-44cb-b54c-7af6cbc70cda","ios":"levelo://app?vid=eedccd53-0700-44cb-b54c-7af6cbc70cda"},"vehicle_type_id":"4","last_reported":1747004950,"current_range_meters":36000,"station_id":"ce4bhqh2rcd13ifvqhmg","pricing_plan_id":"cebpf4jnsgd1na2vs0mg"},{"bike_id":"eb6911e1-1124-4aec-9fe0-abc1e92df897","system_id":"levelo_inurba_marseille","lat":43.315308,"lon":5.380305,"is_reserved":false,"is_disabled":false,"rental_uris":{"android":"levelo://app?vid=eb6911e1-1124-4aec-9fe0-abc1e92df897","ios":"levelo://app?vid=eb6911e1-1124-4aec-9fe0-abc1e92df897"},"vehicle_type_id":"4","last_reported":1747004950,"current_range_meters":36000,"station_id":"ce4bhsp2rcd13ifvqi50","pricing_plan_id":"cebpf4jnsgd1na2vs0mg"},{"bike_id":"907d895f-74c8-47f1-b487-9221cba2a3f7","system_id":"levelo_inurba_marseille","lat":43.26944,"lon":5.40246,"is_reserved":false,"is_disabled":false,"rental_uris":{"android":"levelo://app?vid=907d895f-74c8-47f1-b487-9221cba2a3f7","ios":"levelo://app?vid=907d895f-74c8-47f1-b487-9221cba2a3f7"},"vehicle_type_id":"4","last_reported":1747004950,"current_range_meters":36000,"station_id":"cjm6bp8fraef2m0cb0m0","pricing_plan_id":"cebpf4jnsgd1na2vs0mg"},{"bike_id":"97a251a4-906e-43f1-bf37-4c64a938d990","system_id":"levelo_inurba_marseille","lat":43.3025,"lon":5.40114,"is_reserved":false,"is_disabled":false,"rental_uris":{"android":"levelo://app?vid=97a251a4-906e-43f1-bf37-4c64a938d990","ios":"levelo://app?vid=97a251a4-906e-43f1-bf37-4c64a938d990"},"vehicle_type_id":"4","last_reported":1747004950,"current_range_meters":36400,"station_id":"ce4bgvh2rcd13ifvqcs0","pricing_plan_id":"cebpf4jnsgd1na2vs0mg"},{"bike_id":"784c7ce9-aad4-45f6-83bf-c5a9d5fc34e9","system_id":"levelo_inurba_marseille","lat":43.30935,"lon":5.40148,"is_reserved":false,"is_disabled":false,"rental_uris":{"android":"levelo://app?vid=784c7ce9-aad4-45f6-83bf-c5a9d5fc34e9","ios":"levelo://app?vid=784c7ce9-aad4-45f6-83bf-c5a9d5fc34e9"},"vehicle_type_id":"4","last_reported":1747004950,"current_range_meters":36400,"station_id":"ce4bgvp2rcd13ifvqct0","pricing_plan_id":"cebpf4jnsgd1na2vs0mg"},{"bike_id":"4326929d-dc82-4c83-9c23-b0285927e933","system_id":"levelo_inurba_marseille","lat":43.3059,"lon":5.39369,"is_reserved":false,"is_disabled":false,"rental_uris":{"android":"levelo://app?vid=4326929d-dc82-4c83-9c23-b0285927e933","ios":"levelo://app?vid=4326929d-dc82-4c83-9c23-b0285927e933"},"vehicle_type_id":"4","last_reported":1747004950,"current_range_meters":36400,"station_id":"ce4bh0p2rcd13ifvqd80","pricing_plan_id":"cebpf4jnsgd1na2vs0mg"},{"bike_id":"1629bb5b-340a-4d23-a4ac-967a3ec04b0a","system_id":"levelo_inurba_marseille","lat":43.29259,"lon":5.40899,"is_reserved":false,"is_disabled":false,"rental_uris":{"android":"levelo://app?vid=1629bb5b-340a-4d23-a4ac-967a3ec04b0a","ios":"levelo://app?vid=1629bb5b-340a-4d23-a4ac-967a3ec04b0a"},"vehicle_type_id":"4","last_reported":1747004950,"current_range_meters":36400,"station_id":"ce4bh192rcd13ifvqdc0","pricing_plan_id":"cebpf4jnsgd1na2vs0mg"},{"bike_id":"63c52e72-6951-4d67-a522-1687b25db877","system_id":"levelo_inurba_marseille","lat":43.28855,"lon":5.39319,"is_reserved":false,"is_disabled":false,"rental_uris":{"android":"levelo://app?vid=63c52e72-6951-4d67-a522-1687b25db877","ios":"levelo://app?vid=63c52e72-6951-4d67-a522-1687b25db877"},"vehicle_type_id":"4","last_reported":1747004950,"current_range_meters":36400,"station_id":"ce4bh2p2rcd13ifvqdi0","pricing_plan_id":"cebpf4jnsgd1na2vs0mg"},{"bike_id":"45be4e43-f09d-4f33-8f92-d0ac3a0e463e","system_id":"levelo_inurba_marseille","lat":43.27907,"lon":5.38001,"is_reserved":false,"is_disabled":false,"rental_uris":{"android":"levelo://app?vid=45be4e43-f09d-4f33-8f92-d0ac3a0e463e","ios":"levelo://app?vid=45be4e43-f09d-4f33-8f92-d0ac3a0e463e"},"vehicle_type_id":"4","last_reported":1747004950,"current_range_meters":36400,"station_id":"ce4bhf92rcd13ifvqf50","pricing_plan_id":"cebpf4jnsgd1na2vs0mg"},{"bike_id":"e4a5b668-49d2-4f80-87ea-9e8892a9ca4c","system_id":"levelo_inurba_marseille","lat":43.320523,"lon":5.415537,"is_reserved":false,"is_disabled":false,"rental_uris":{"android":"levelo://app?vid=e4a5b668-49d2-4f80-87ea-9e8892a9ca4c","ios":"levelo://app?vid=e4a5b668-49d2-4f80-87ea-9e8892a9ca4c"},"vehicle_type_id":"4","last_reported":1747004950,"current_range_meters":36400,"station_id":"ce4bhq92rcd13ifvqhkg","pricing_plan_id":"cebpf4jnsgd1na2vs0mg"},{"bike_id":"f034fb25-a413-4b3d-8a7e-3facd62258d3","system_id":"levelo_inurba_marseille","lat":43.32286,"lon":5.38278,"is_reserved":false,"is_disabled":false,"rental_uris":{"android":"levelo://app?vid=f034fb25-a413-4b3d-8a7e-3facd62258d3","ios":"levelo://app?vid=f034fb25-a413-4b3d-8a7e-3facd62258d3"},"vehicle_type_id":"4","last_reported":1747004950,"current_range_meters":36400,"station_id":"ce4bhr12rcd13ifvqhqg","pricing_plan_id":"cebpf4jnsgd1na2vs0mg"},{"bike_id":"7ff58ec2-0df0-4258-a0cd-10521225c440","system_id":"levelo_inurba_marseille","lat":43.31486,"lon":5.3731,"is_reserved":false,"is_disabled":false,"rental_uris":{"android":"levelo://app?vid=7ff58ec2-0df0-4258-a0cd-10521225c440","ios":"levelo://app?vid=7ff58ec2-0df0-4258-a0cd-10521225c440"},"vehicle_type_id":"4","last_reported":1747004950,"current_range_meters":36800,"station_id":"ce4bgt12rcd13ifvqcd0","pricing_plan_id":"cebpf4jnsgd1na2vs0mg"},{"bike_id":"4975ccc1-965c-448c-87d9-ed0a16969927","system_id":"levelo_inurba_marseille","lat":43.29902,"lon":5.39711,"is_reserved":false,"is_disabled":false,"rental_uris":{"android":"levelo://app?vid=4975ccc1-965c-448c-87d9-ed0a16969927","ios":"levelo://app?vid=4975ccc1-965c-448c-87d9-ed0a16969927"},"vehicle_type_id":"4","last_reported":1747004950,"current_range_meters":36800,"station_id":"ce4bh0h2rcd13ifvqd50","pricing_plan_id":"cebpf4jnsgd1na2vs0mg"},{"bike_id":"2690d7b3-4cbf-4754-9dec-f9bfe5c72cd4","system_id":"levelo_inurba_marseille","lat":43.290343,"lon":5.3996,"is_reserved":false,"is_disabled":false,"rental_uris":{"android":"levelo://app?vid=2690d7b3-4cbf-4754-9dec-f9bfe5c72cd4","ios":"levelo://app?vid=2690d7b3-4cbf-4754-9dec-f9bfe5c72cd4"},"vehicle_type_id":"4","last_reported":1747004950,"current_range_meters":36800,"station_id":"ce4bh392rcd13ifvqdm0","pricing_plan_id":"cebpf4jnsgd1na2vs0mg"},{"bike_id":"af0b2712-6a5f-4350-8152-209465d0c5be","system_id":"levelo_inurba_marseille","lat":43.27915,"lon":5.39578,"is_reserved":false,"is_disabled":false,"rental_uris":{"android":"levelo://app?vid=af0b2712-6a5f-4350-8152-209465d0c5be","ios":"levelo://app?vid=af0b2712-6a5f-4350-8152-209465d0c5be"},"vehicle_type_id":"4","last_reported":1747004950,"current_range_meters":36800,"station_id":"ce4bhf92rcd13ifvqf40","pricing_plan_id":"cebpf4jnsgd1na2vs0mg"},{"bike_id":"a2aa4846-b664-4062-9b56-c5f69f159974","system_id":"levelo_inurba_marseille","lat":43.25494,"lon":5.37638,"is_reserved":false,"is_disabled":false,"rental_uris":{"android":"levelo://app?vid=a2aa4846-b664-4062-9b56-c5f69f159974","ios":"levelo://app?vid=a2aa4846-b664-4062-9b56-c5f69f159974"},"vehicle_type_id":"4","last_reported":1747004950,"current_range_meters":36800,"station_id":"ce4bhh12rcd13ifvqff0","pricing_plan_id":"cebpf4jnsgd1na2vs0mg"},{"bike_id":"f4c123cb-30aa-42cd-87a6-10da448252b4","system_id":"levelo_inurba_marseille","lat":43.275,"lon":5.42443,"is_reserved":false,"is_disabled":false,"rental_uris":{"android":"levelo://app?vid=f4c123cb-30aa-42cd-87a6-10da448252b4","ios":"levelo://app?vid=f4c123cb-30aa-42cd-87a6-10da448252b4"},"vehicle_type_id":"4","last_reported":1747004950,"current_range_meters":36800,"station_id":"ce4bhn92rcd13ifvqgrg","pricing_plan_id":"cebpf4jnsgd1na2vs0mg"},{"bike_id":"f474478a-9b6b-4824-89b5-7fd42d6193c2","system_id":"levelo_inurba_marseille","lat":43.287108,"lon":5.399846,"is_reserved":false,"is_disabled":false,"rental_uris":{"android":"levelo://app?vid=f474478a-9b6b-4824-89b5-7fd42d6193c2","ios":"levelo://app?vid=f474478a-9b6b-4824-89b5-7fd42d6193c2"},"vehicle_type_id":"4","last_reported":1747004950,"current_range_meters":36800,"station_id":"ce4bho92rcd13ifvqh3g","pricing_plan_id":"cebpf4jnsgd1na2vs0mg"},{"bike_id":"db4dfccc-5ea8-4d52-b10d-fe4c5d53bcc1","system_id":"levelo_inurba_marseille","lat":43.284397,"lon":5.39193,"is_reserved":false,"is_disabled":false,"rental_uris":{"android":"levelo://app?vid=db4dfccc-5ea8-4d52-b10d-fe4c5d53bcc1","ios":"levelo://app?vid=db4dfccc-5ea8-4d52-b10d-fe4c5d53bcc1"},"vehicle_type_id":"4","last_reported":1747004950,"current_range_meters":36800,"station_id":"ce4bhoh2rcd13ifvqh5g","pricing_plan_id":"cebpf4jnsgd1na2vs0mg"},{"bike_id":"4df9daef-0799-4493-bd6d-0419f3d02ab7","system_id":"levelo_inurba_marseille","lat":43.30415,"lon":5.41274,"is_reserved":false,"is_disabled":false,"rental_uris":{"android":"levelo://app?vid=4df9daef-0799-4493-bd6d-0419f3d02ab7","ios":"levelo://app?vid=4df9daef-0799-4493-bd6d-0419f3d02ab7"},"vehicle_type_id":"4","last_reported":1747004950,"current_range_meters":36800,"station_id":"ce4bhop2rcd13ifvqh8g","pricing_plan_id":"cebpf4jnsgd1na2vs0mg"},{"bike_id":"7940c0d6-e844-4d87-824b-6d8453dcde0f","system_id":"levelo_inurba_marseille","lat":43.32659,"lon":5.40986,"is_reserved":false,"is_disabled":false,"rental_uris":{"android":"levelo://app?vid=7940c0d6-e844-4d87-824b-6d8453dcde0f","ios":"levelo://app?vid=7940c0d6-e844-4d87-824b-6d8453dcde0f"},"vehicle_type_id":"4","last_reported":1747004950,"current_range_meters":36800,"station_id":"ce4bhpp2rcd13ifvqhgg","pricing_plan_id":"cebpf4jnsgd1na2vs0mg"},