{"last_updated":1732781613,"ttl":60,"version":"2.2","data":{"bikes":[{"bike_id":"2a75e0b5-ea55-47da-90e1-27ddaec067b7","system_id":"levelo_inurba_marseille","lat":43.30139,"lon":5.37417,"is_reserved":false,"is_disabled":false,"rental_uris":{"android":"levelo://app?vid=2a75e0b5-ea55-47da-90e1-27ddaec067b7","ios":"levelo://app?vid=2a75e0b5-ea55-47da-90e1-27ddaec067b7"},"vehicle_type_id":"4","last_reported":1732781614,"current_range_meters":12000,"station_id":"ce4bgs92rcd13ifvqcc0","pricing_plan_id":"cebpf4jnsgd1na2vs0mg"},{"bike_id":"439859a0-37e6-4b63-a5ed-4e543b91defb","system_id":"levelo_inurba_marseille","lat":43.33609,"lon":5.41001,"is_reserved":false,"is_disabled":true,"rental_uris":{"android":"levelo://app?vid=439859a0-37e6-4b63-a5ed-4e543b91defb","ios":"levelo://app?vid=439859a0-37e6-4b63-a5ed-4e543b91defb"},"vehicle_type_id":"4","last_reported":1732781614,"current_range_meters":36400,"station_id":"ce4bhqh2rcd13ifvqhmg","pricing_plan_id":"cebpf4jnsgd1na2vs0mg"},{"bike_id":"927924fc-8a74-47c2-8b69-b7e14b1090b9","system_id":"levelo_inurba_marseille","lat":43.27819,"lon":5.40721,"is_reserved":false,"is_disabled":true,"rental_uris":{"android":"levelo://app?vid=927924fc-8a74-47c2-8b69-b7e14b1090b9","ios":"levelo://app?vid=927924fc-8a74-47c2-8b69-b7e14b1090b9"},"vehicle_type_id":"4","last_reported":1732781614,"current_range_meters":10800,"station_id":"ce4bhnh2rcd13ifvqgtg","pricing_plan_id":"cebpf4jnsgd1na2vs0mg"},{"bike_id":"b856c8b4-412d-4c25-bdd4-e6b29aed04cb","system_id":"levelo_inurba_marseille","lat":43.22932,"lon":5.35379,"is_reserved":false,"is_disabled":false,"rental_uris":{"android":"levelo://app?vid=b856c8b4-412d-4c25-bdd4-e6b29aed04cb","ios":"levelo://app?vid=b856c8b4-412d-4c25-bdd4-e6b29aed04cb"},"vehicle_type_id":"4","last_reported":1732781614,"current_range_meters":38800,"station_id":"cpo3532slgdg3j2ikp40","pricing_plan_id":"cebpf4jnsgd1na2vs0mg"},{"bike_id":"863c9696-d78b-4e98-be5f-966913ade150","system_id":"levelo_inurba_marseille","lat":43.26943,"lon":5.38918,"is_reserved":false,"is_disabled":true,"rental_uris":{"android":"levelo://app?vid=863c9696-d78b-4e98-be5f-966913ade150","ios":"levelo://app?vid=863c9696-d78b-4e98-be5f-966913ade150"},"vehicle_type_id":"4","last_reported":1732781614,"current_range_meters":30400,"station_id":"ce4bhhh2rcd13ifvqfl0","pricing_plan_id":"cebpf4jnsgd1na2vs0mg"},{"bike_id":"dea3a423-b5cd-4518-8c14-557dd912bebc","system_id":"levelo_inurba_marseille","lat":43.31761,"lon":5.39019,"is_reserved":false,"is_disabled":false,"rental_uris":{"android":"levelo://app?vid=dea3a423-b5cd-4518-8c14-557dd912bebc","ios":"levelo://app?vid=dea3a423-b5cd-4518-8c14-557dd912bebc"},"vehicle_type_id":"4","last_reported":1732781614,"current_range_meters":38000,"station_id":"ce4bhqp2rcd13ifvqhng","pricing_plan_id":"cebpf4jnsgd1na2vs0mg"},{"bike_id":"fa2ab0aa-936a-4413-b089-be10aff2487b","system_id":"levelo_inurba_marseille","lat":43.24067,"lon":5.37765,"is_reserved":false,"is_disabled":false,"rental_uris":{"android":"levelo://app?vid=fa2ab0aa-936a-4413-b089-be10aff2487b","ios":"levelo://app?vid=fa2ab0aa-936a-4413-b089-be10aff2487b"},"vehicle_type_id":"4","last_reported":1732781614,"current_range_meters":38000,"station_id":"ce4bhnp2rcd13ifvqgvg","pricing_plan_id":"cebpf4jnsgd1na2vs0mg"},{"bike_id":"f8ac00ad-4fd1-4f46-a28a-20e0b73fee9d","system_id":"levelo_inurba_marseille","lat":43.28084,"lon":5.39663,"is_reserved":false,"is_disabled":false,"rental_uris":{"android":"levelo://app?vid=f8ac00ad-4fd1-4f46-a28a-20e0b73fee9d","ios":"levelo://app?vid=f8ac00ad-4fd1-4f46-a28a-20e0b73fee9d"},"vehicle_type_id":"4","last_reported":1732781614,"current_range_meters":14400,"station_id":"ce4bho12rcd13ifvqh2g","pricing_plan_id":"cebpf4jnsgd1na2vs0mg"},{"bike_id":"4dd7424d-7207-4aea-b728-1ac783687a17","system_id":"levelo_inurba_marseille","lat":43.33769,"lon":5.37429,"is_reserved":false,"is_disabled":false,"rental_uris":{"android":"levelo://app?vid=4dd7424d-7207-4aea-b728-1ac783687a17","ios":"levelo://app?vid=4dd7424d-7207-4aea-b728-1ac783687a17"},"vehicle_type_id":"4","last_reported":1732781614,"current_range_meters":35600,"station_id":"","pricing_plan_id":"cebpf4jnsgd1na2vs0mg"},{"bike_id":"890f737b-cd69-4ea1-b121-1a499e00f5b8","system_id":"levelo_inurba_marseille","lat":43.27069,"lon":5.42282,"is_reserved":false,"is_disabled":false,"rental_uris":{"android":"levelo://app?vid=890f737b-cd69-4ea1-b121-1a499e00f5b8","ios":"levelo://app?vid=890f737b-cd69-4ea1-b121-1a499e00f5b8"},"vehicle_type_id":"4","last_reported":1732781614,"current_range_meters":25200,"station_id":"ce4bhk92rcd13ifvqgb0","pricing_plan_id":"cebpf4jnsgd1na2vs0mg"},{"bike_id":"048557ff-d27c-43d1-b8d2-0505b10745a5","system_id":"levelo_inurba_marseille","lat":43.28715,"lon":5.37402,"is_reserved":false,"is_disabled":true,"rental_uris":{"android":"levelo://app?vid=048557ff-d27c-43d1-b8d2-0505b10745a5","ios":"levelo://app?vid=048557ff-d27c-43d1-b8d2-0505b10745a5"},"vehicle_type_id":"4","last_reported":1732781614,"current_range_meters":400,"station_id":"ce4bh3p2rcd13ifvqdq0","pricing_plan_id":"cebpf4jnsgd1na2vs0mg"},{"bike_id":"5a769ab6-6537-4d03-ab16-ba3286f41743","system_id":"levelo_inurba_marseille","lat":43.30884,"lon":5.37199,"is_reserved":false,"is_disabled":false,"rental_uris":{"android":"levelo://app?vid=5a769ab6-6537-4d03-ab16-ba3286f41743","ios":"levelo://app?vid=5a769ab6-6537-4d03-ab16-ba3286f41743"},"vehicle_type_id":"4","last_reported":1732781614,"current_range_meters":38800,"station_id":"ce4bguh2rcd13ifvqckg","pricing_plan_id":"cebpf4jnsgd1na2vs0mg"},{"bike_id":"41e53bad-9423-47c3-8583-825ffc9e72cd","system_id":"levelo_inurba_marseille","lat":43.27958,"lon":5.38709,"is_reserved":false,"is_disabled":true,"rental_uris":{"android":"levelo://app?vid=41e53bad-9423-47c3-8583-825ffc9e72cd","ios":"levelo://app?vid=41e53bad-9423-47c3-8583-825ffc9e72cd"},"vehicle_type_id":"4","last_reported":1732781614,"current_range_meters":34000,"station_id":"ce4bhg12rcd13ifvqf80","pricing_plan_id":"cebpf4jnsgd1na2vs0mg"},{"bike_id":"113ec61c-057a-4335-a2b2-22183d6987e0","system_id":"levelo_inurba_marseille","lat":43.27493,"lon":5.4245,"is_reserved":false,"is_disabled":true,"rental_uris":{"android":"levelo://app?vid=113ec61c-057a-4335-a2b2-22183d6987e0","ios":"levelo://app?vid=113ec61c-057a-4335-a2b2-22183d6987e0"},"vehicle_type_id":"4","last_reported":1732781614,"current_range_meters":12400,"station_id":"ce4bhn92rcd13ifvqgrg","pricing_plan_id":"cebpf4jnsgd1na2vs0mg"},{"bike_id":"e2fcd88a-5b50-4059-b110-891c7847ea5f","system_id":"levelo_inurba_marseille","lat":43.30679,"lon":5.36851,"is_reserved":false,"is_disabled":true,"rental_uris":{"android":"levelo://app?vid=e2fcd88a-5b50-4059-b110-891c7847ea5f","ios":"levelo://app?vid=e2fcd88a-5b50-4059-b110-891c7847ea5f"},"vehicle_type_id":"4","last_reported":1732781614,"current_range_meters":0,"station_id":"","pricing_plan_id":"cebpf4jnsgd1na2vs0mg"},{"bike_id":"2e912540-8917-42c0-a200-917afa7a5eb9","system_id":"levelo_inurba_marseille","lat":43.28079,"lon":5.3967,"is_reserved":false,"is_disabled":false,"rental_uris":{"android":"levelo://app?vid=2e912540-8917-42c0-a200-917afa7a5eb9","ios":"levelo://app?vid=2e912540-8917-42c0-a200-917afa7a5eb9"},"vehicle_type_id":"4","last_reported":1732781614,"current_range_meters":8400,"station_id":"ce4bho12rcd13ifvqh2g","pricing_plan_id":"cebpf4jnsgd1na2vs0mg"},{"bike_id":"a7b0b007-96bf-4a90-a18e-84c7e32f615d","system_id":"levelo_inurba_marseille","lat":43.29197,"lon":5.39316,"is_reserved":false,"is_disabled":false,"rental_uris":{"android":"levelo://app?vid=a7b0b007-96bf-4a90-a18e-84c7e32f615d","ios":"levelo://app?vid=a7b0b007-96bf-4a90-a18e-84c7e32f615d"},"vehicle_type_id":"4","last_reported":1732781614,"current_range_meters":37600,"station_id":"ce4bh192rcd13ifvqdd0","pricing_plan_id":"cebpf4jnsgd1na2vs0mg"},{"bike_id":"f402a0ab-1e48-487d-9a63-492662563942","system_id":"levelo_inurba_marseille","lat":43.283437,"lon":5.381056,"is_reserved":false,"is_disabled":true,"rental_uris":{"android":"levelo://app?vid=f402a0ab-1e48-487d-9a63-492662563942","ios":"levelo://app?vid=f402a0ab-1e48-487d-9a63-492662563942"},"vehicle_type_id":"4","last_reported":1732781614,"current_range_meters":38800,"station_id":"","pricing_plan_id":"cebpf4jnsgd1na2vs0mg"},{"bike_id":"02f937c3-681a-41c4-a04e-d4667e8340e1","system_id":"levelo_inurba_marseille","lat":43.29584,"lon":5.36737,"is_reserved":false,"is_disabled":false,"rental_uris":{"android":"levelo://app?vid=02f937c3-681a-41c4-a04e-d4667e8340e1","ios":"levelo://app?vid=02f937c3-681a-41c4-a04e-d4667e8340e1"},"vehicle_type_id":"4","last_reported":1732781614,"current_range_meters":31200,"station_id":"ce4bgph2rcd13ifvqc2g","pricing_plan_id":"cebpf4jnsgd1na2vs0mg"},{"bike_id":"ce15a521-8a1d-47b7-92c8-091ca367d00e","system_id":"levelo_inurba_marseille","lat":43.3368,"lon":5.37194,"is_reserved":false,"is_disabled":false,"rental_uris":{"android":"levelo://app?vid=ce15a521-8a1d-47b7-92c8-091ca367d00e","ios":"levelo://app?vid=ce15a521-8a1d-47b7-92c8-091ca367d00e"},"vehicle_type_id":"4","last_reported":1732781614,"current_range_meters":38800,"station_id":"","pricing_plan_id":"cebpf4jnsgd1na2vs0mg"},{"bike_id":"ec09b0cc-3621-4afa-bff4-debce0b2cc37","system_id":"levelo_inurba_marseille","lat":43.27185,"lon":5.40997,"is_reserved":false,"is_disabled":true,"rental_uris":{"android":"levelo://app?vid=ec09b0cc-3621-4afa-bff4-debce0b2cc37","ios":"levelo://app?vid=ec09b0cc-3621-4afa-bff4-debce0b2cc37"},"vehicle_type_id":"4","last_reported":1732781614,"current_range_meters":20400,"station_id":"ce4bhl12rcd13ifvqgf0","pricing_plan_id":"cebpf4jnsgd1na2vs0mg"},{"bike_id":"e8dbd01c-2523-4294-a9d8-3d223240b761","system_id":"levelo_inurba_marseille","lat":43.22929,"lon":5.3538,"is_reserved":false,"is_disabled":false,"rental_uris":{"android":"levelo://app?vid=e8dbd01c-2523-4294-a9d8-3d223240b761","ios":"levelo://app?vid=e8dbd01c-2523-4294-a9d8-3d223240b761"},"vehicle_type_id":"4","last_reported":1732781614,"current_range_meters":36400,"station_id":"cpo3532slgdg3j2ikp40","pricing_plan_id":"cebpf4jnsgd1na2vs0mg"},{"bike_id":"49d93f30-3698-463f-a6ff-07f30736ddd5","system_id":"levelo_inurba_marseille","lat":43.29918,"lon":5.37452,"is_reserved":false,"is_disabled":true,"rental_uris":{"android":"levelo://app?vid=49d93f30-3698-463f-a6ff-07f30736ddd5","ios":"levelo://app?vid=49d93f30-3698-463f-a6ff-07f30736ddd5"},"vehicle_type_id":"4","last_reported":1732781614,"current_range_meters":38800,"station_id":"ce4bgjh2rcd13ifvqbg0","pricing_plan_id":"cebpf4jnsgd1na2vs0mg"},{"bike_id":"908a91b4-f74f-4175-9a94-be2178948b1b","system_id":"levelo_inurba_marseille","lat":43.25931,"lon":5.40911,"is_reserved":false,"is_disabled":true,"rental_uris":{"android":"levelo://app?vid=908a91b4-f74f-4175-9a94-be2178948b1b","ios":"levelo://app?vid=908a91b4-f74f-4175-9a94-be2178948b1b"},"vehicle_type_id":"4","last_reported":1732781614,"current_range_meters":400,"station_id":"ce4bhm92rcd13ifvqglg","pricing_plan_id":"cebpf4jnsgd1na2vs0mg"},{"bike_id":"f2abe65f-4732-433c-9e57-5fb7bffe6ff7","system_id":"levelo_inurba_marseille","lat":43.27495,"lon":5.42458,"is_reserved":false,"is_disabled":false,"rental_uris":{"android":"levelo://app?vid=f2abe65f-4732-433c-9e57-5fb7bffe6ff7","ios":"levelo://app?vid=f2abe65f-4732-433c-9e57-5fb7bffe6ff7"},"vehicle_type_id":"4","last_reported":1732781614,"current_range_meters":33600,"station_id":"ce4bhn92rcd13ifvqgrg","pricing_plan_id":"cebpf4jnsgd1na2vs0mg"},{"bike_id":"0d8ed8d3-62fd-4993-8fec-97b4baee77da","system_id":"levelo_inurba_marseille","lat":43.27815,"lon":5.40708,"is_reserved":false,"is_disabled":false,"rental_uris":{"android":"levelo://app?vid=0d8ed8d3-62fd-4993-8fec-97b4baee77da","ios":"levelo://app?vid=0d8ed8d3-62fd-4993-8fec-97b4baee77da"},"vehicle_type_id":"4","last_reported":1732781614,"current_range_meters":9200,"station_id":"ce4bhnh2rcd13ifvqgtg","pricing_plan_id":"cebpf4jnsgd1na2vs0mg"},{"bike_id":"cf95e0d2-25e6-4a6b-8cbc-44ced9e844d2","system_id":"levelo_inurba_marseille","lat":43.23185,"lon":5.39989,"is_reserved":false,"is_disabled":true,"rental_uris":{"android":"levelo://app?vid=cf95e0d2-25e6-4a6b-8cbc-44ced9e844d2","ios":"levelo://app?vid=cf95e0d2-25e6-4a6b-8cbc-44ced9e844d2"},"vehicle_type_id":"4","last_reported":1732781614,"current_range_meters":0,"station_id":"ce4bhn12rcd13ifvqgqg","pricing_plan_id":"cebpf4jnsgd1na2vs0mg"},{"bike_id":"6f7949e1-de87-4a49-8620-fec27e04447f","system_id":"levelo_inurba_marseille","lat":43.33705,"lon":5.39194,"is_reserved":false,"is_disabled":false,"rental_uris":{"android":"levelo://app?vid=6f7949e1-de87-4a49-8620-fec27e04447f","ios":"levelo://app?vid=6f7949e1-de87-4a49-8620-fec27e04447f"},"vehicle_type_id":"4","last_reported":1732781614,"current_range_meters":36000,"station_id":"ce4bhr92rcd13ifvqhsg","pricing_plan_id":"cebpf4jnsgd1na2vs0mg"},{"bike_id":"13363970-23be-4c1d-b032-bf93e6eb5052","system_id":"levelo_inurba_marseille","lat":43.29674,"lon":5.37298,"is_reserved":false,"is_disabled":false,"rental_uris":{"android":"levelo://app?vid=13363970-23be-4c1d-b032-bf93e6eb5052","ios":"levelo://app?vid=13363970-23be-4c1d-b032-bf93e6eb5052"},"vehicle_type_id":"4","last_reported":1732781614,"current_range_meters":23200,"station_id":"ce4bgk12rcd13ifvqbj0","pricing_plan_id":"cebpf4jnsgd1na2vs0mg"},{"bike_id":"db061391-173a-46a3-8c7f-679ed9d30a0c","system_id":"levelo_inurba_marseille","lat":43.30539,"lon":5.36548,"is_reserved":false,"is_disabled":false,"rental_uris":{"android":"levelo://app?vid=db061391-173a-46a3-8c7f-679ed9d30a0c","ios":"levelo://app?vid=db061391-173a-46a3-8c7f-679ed9d30a0c"},"vehicle_type_id":"4","last_reported":1732781614,"current_range_meters":22000,"station_id":"ce4bgs12rcd13ifvqcag","pricing_plan_id":"cebpf4jnsgd1na2vs0mg"},{"bike_id":"5b997f62-e5bb-4621-b026-9e3c9248383b","system_id":"levelo_inurba_marseille","lat":43.294831,"lon":5.375171,"is_reserved":false,"is_disabled":false,"rental_uris":{"android":"levelo://app?vid=5b997f62-e5bb-4621-b026-9e3c9248383b","ios":"levelo://app?vid=5b997f62-e5bb-4621-b026-9e3c9248383b"},"vehicle_type_id":"4","last_reported":1732781614,"current_range_meters":6400,"station_id":"ce4bgkp2rcd13ifvqbmg","pricing_plan_id":"cebpf4jnsgd1na2vs0mg"},{"bike_id":"88c0a23c-decf-469d-95fc-e70f9cd8eb3b","system_id":"levelo_inurba_marseille","lat":43.33754,"lon":5.37437,"is_reserved":false,"is_disabled":false,"rental_uris":{"android":"levelo://app?vid=88c0a23c-decf-469d-95fc-e70f9cd8eb3b","ios":"levelo://app?vid=88c0a23c-decf-469d-95fc-e70f9cd8eb3b"},"vehicle_type_id":"4","last_reported":1732781614,"current_range_meters":31200,"station_id":"","pricing_plan_id":"cebpf4jnsgd1na2vs0mg"},{"bike_id":"2f0cb11d-2f6f-49b3-9f8d-4f2c839a038d","system_id":"levelo_inurba_marseille","lat":43.30146,"lon":5.37412,"is_reserved":false,"is_disabled":false,"rental_uris":{"android":"levelo://app?vid=2f0cb11d-2f6f-49b3-9f8d-4f2c839a038d","ios":"levelo://app?vid=2f0cb11d-2f6f-49b3-9f8d-4f2c839a038d"},"vehicle_type_id":"4","last_reported":1732781614,"current_range_meters":33600,"station_id":"ce4bgs92rcd13ifvqcc0","pricing_plan_id":"cebpf4jnsgd1na2vs0mg"},{"bike_id":"8fc742f5-da2b-49b8-a520-e46801290770","system_id":"levelo_inurba_marseille","lat":43.26058,"lon":5.39399,"is_reserved":false,"is_disabled":false,"rental_uris":{"android":"levelo://app?vid=8fc742f5-da2b-49b8-a520-e46801290770","ios":"levelo://app?vid=8fc742f5-da2b-49b8-a520-e46801290770"},"vehicle_type_id":"4","last_reported":1732781614,"current_range_meters":8000,"station_id":"ce4bhh92rcd13ifvqfj0","pricing_plan_id":"cebpf4jnsgd1na2vs0mg"},{"bike_id":"56d86ab7-968f-4c20-9359-241791eb84a0","system_id":"levelo_inurba_marseille","lat":43.32547,"lon":5.41469,"is_reserved":false,"is_disabled":false,"rental_uris":{"android":"levelo://app?vid=56d86ab7-968f-4c20-9359-241791eb84a0","ios":"levelo://app?vid=56d86ab7-968f-4c20-9359-241791eb84a0"},"vehicle_type_id":"4","last_reported":1732781614,"current_range_meters":40000,"station_id":"ce4bhq12rcd13ifvqhhg","pricing_plan_id":"cebpf4jnsgd1na2vs0mg"},{"bike_id":"d208b70b-cfeb-47de-81b0-222dbd574cb7","system_id":"levelo_inurba_marseille","lat":43.23067,"lon":5.35494,"is_reserved":false,"is_disabled":false,"rental_uris":{"android":"levelo://app?vid=d208b70b-cfeb-47de-81b0-222dbd574cb7","ios":"levelo://app?vid=d208b70b-cfeb-47de-81b0-222dbd574cb7"},"vehicle_type_id":"4","last_reported":1732781614,"current_range_meters":37600,"station_id":"cpo3342slgdg3j2ifvpg","pricing_plan_id":"cebpf4jnsgd1na2vs0mg"},{"bike_id":"a0f844a0-1165-4a98-b19b-6a707f1ae693","system_id":"levelo_inurba_marseille","lat":43.26506,"lon":5.39534,"is_reserved":false,"is_disabled":false,"rental_uris":{"android":"levelo://app?vid=a0f844a0-1165-4a98-b19b-6a707f1ae693","ios":"levelo://app?vid=a0f844a0-1165-4a98-b19b-6a707f1ae693"},"vehicle_type_id":"4","last_reported":1732781614,"current_range_meters":6400,"station_id":"ce4bhi12rcd13ifvqfq0","pricing_plan_id":"cebpf4jnsgd1na2vs0mg"},{"bike_id":"5249c720-4ecf-407f-95ee-f4da1041dcb5","system_id":"levelo_inurba_marseille","lat":43.26688,"lon":5.38271,"is_reserved":false,"is_disabled":true,"rental_uris":{"android":"levelo://app?vid=5249c720-4ecf-407f-95ee-f4da1041dcb5","ios":"levelo://app?vid=5249c720-4ecf-407f-95ee-f4da1041dcb5"},"vehicle_type_id":"4","last_reported":1732781614,"current_range_meters":30400,"station_id":"ce4bhg92rcd13ifvqf90","pricing_plan_id":"cebpf4jnsgd1na2vs0mg"},{"bike_id":"b1422ff8-74e2-4dc1-94ac-a145ceea1d5e","system_id":"levelo_inurba_marseille","lat":43.32378,"lon":5.36779,"is_reserved":false,"is_disabled":false,"rental_uris":{"android":"levelo://app?vid=b1422ff8-74e2-4dc1-94ac-a145ceea1d5e","ios":"levelo://app?vid=b1422ff8-74e2-4dc1-94ac-a145ceea1d5e"},"vehicle_type_id":"4","last_reported":1732781614,"current_range_meters":14800,"station_id":"ce4bhsh2rcd13ifvqi2g","pricing_plan_id":"cebpf4jnsgd1na2vs0mg"},{"bike_id":"1e527cbd-42bc-495d-a38e-80a8c3b7278f","system_id":"levelo_inurba_marseille","lat":43.29578,"lon":5.3751,"is_reserved":false,"is_disabled":true,"rental_uris":{"android":"levelo://app?vid=1e527cbd-42bc-495d-a38e-80a8c3b7278f","ios":"levelo://app?vid=1e527cbd-42bc-495d-a38e-80a8c3b7278f"},"vehicle_type_id":"4","last_reported":1732781614,"current_range_meters":0,"station_id":"ce4bgh92rcd13ifvqb50","pricing_plan_id":"cebpf4jnsgd1na2vs0mg"},{"bike_id":"4709c438-f4af-415a-a919-d27302b75dca","system_id":"levelo_inurba_marseille","lat":43.23196,"lon":5.35553,"is_reserved":false,"is_disabled":false,"rental_uris":{"android":"levelo://app?vid=4709c438-f4af-415a-a919-d27302b75dca","ios":"levelo://app?vid=4709c438-f4af-415a-a919-d27302b75dca"},"vehicle_type_id":"4","last_reported":1732781614,"current_range_meters":39200,"station_id":"ce4bhu92rcd13ifvqi70","pricing_plan_id":"cebpf4jnsgd1na2vs0mg"},{"bike_id":"2b921899-1359-49b6-a793-ffb9ef50e656","system_id":"levelo_inurba_marseille","lat":43.296017,"lon":5.37722,"is_reserved":false,"is_disabled":true,"rental_uris":{"android":"levelo://app?vid=2b921899-1359-49b6-a793-ffb9ef50e656","ios":"levelo://app?vid=2b921899-1359-49b6-a793-ffb9ef50e656"},"vehicle_type_id":"4","last_reported":1732781614,"current_range_meters":38000,"station_id":"ce4bgi92rcd13ifvqb90","pricing_plan_id":"cebpf4jnsgd1na2vs0mg"},{"bike_id":"eccc2b38-428e-448c-a061-33d23a7d1135","system_id":"levelo_inurba_marseille","lat":43.30173,"lon":5.3662,"is_reserved":false,"is_disabled":false,"rental_uris":{"android":"levelo://app?vid=eccc2b38-428e-448c-a061-33d23a7d1135","ios":"levelo://app?vid=eccc2b38-428e-448c-a061-33d23a7d1135"},"vehicle_type_id":"4","last_reported":1732781614,"current_range_meters":27600,"station_id":"ce4bgrh2rcd13ifvqc8g","pricing_plan_id":"cebpf4jnsgd1na2vs0mg"},{"bike_id":"7038d522-6e63-43eb-a8d9-6ce2f64e2ae3","system_id":"levelo_inurba_marseille","lat":43.30799,"lon":5.38164,"is_reserved":false,"is_disabled":false,"rental_uris":{"android":"levelo://app?vid=7038d522-6e63-43eb-a8d9-6ce2f64e2ae3","ios":"levelo://app?vid=7038d522-6e63-43eb-a8d9-6ce2f64e2ae3"},"vehicle_type_id":"4","last_reported":1732781614,"current_range_meters":8800,"station_id":"ce4bgt12rcd13ifvqce0","pricing_plan_id":"cebpf4jnsgd1na2vs0mg"},{"bike_id":"c6974d8a-fa0d-413f-a1ad-1956b49fc8fb","system_id":"levelo_inurba_marseille","lat":43.337444,"lon":5.374475,"is_reserved":false,"is_disabled":false,"rental_uris":{"android":"levelo://app?vid=c6974d8a-fa0d-413f-a1ad-1956b49fc8fb","ios":"levelo://app?vid=c6974d8a-fa0d-413f-a1ad-1956b49fc8fb"},"vehicle_type_id":"4","last_reported":1732781614,"current_range_meters":38800,"station_id":"ce4bho12rcd13ifvqh2g","pricing_plan_id":"cebpf4jnsgd1na2vs0mg"},{"bike_id":"869146c7-107f-4a8d-a9de-076457eea766","system_id":"levelo_inurba_marseille","lat":43.216758,"lon":5.346391,"is_reserved":false,"is_disabled":false,"rental_uris":{"android":"levelo://app?vid=869146c7-107f-4a8d-a9de-076457eea766","ios":"levelo://app?vid=869146c7-107f-4a8d-a9de-076457eea766"},"vehicle_type_id":"4","last_reported":1732781614,"current_range_meters":11200,"station_id":"","pricing_plan_id":"cebpf4jnsgd1na2vs0mg"},{"bike_id":"ec846015-248e-4cc3-bd4b-dea1ec57eabc","system_id":"levelo_inurba_marseille","lat":43.25935,"lon":5.40911,"is_reserved":false,"is_disabled":false,"rental_uris":{"android":"levelo://app?vid=ec846015-248e-4cc3-bd4b-dea1ec57eabc","ios":"levelo://app?vid=ec846015-248e-4cc3-bd4b-dea1ec57eabc"},"vehicle_type_id":"4","last_reported":1732781614,"current_range_meters":28800,"station_id":"ce4bhm92rcd13ifvqglg","pricing_plan_id":"cebpf4jnsgd1na2vs0mg"},{"bike_id":"72d6e1cd-95a6-4161-b11a-570ee8a1f3a8","system_id":"levelo_inurba_marseille","lat":43.29272,"lon":5.40119,"is_reserved":false,"is_disabled":true,"rental_uris":{"android":"levelo://app?vid=72d6e1cd-95a6-4161-b11a-570ee8a1f3a8","ios":"levelo://app?vid=72d6e1cd-95a6-4161-b11a-570ee8a1f3a8"},"vehicle_type_id":"4","last_reported":1732781614,"current_range_meters":37600,"station_id":"ce4bh312rcd13ifvqdk0","pricing_plan_id":"cebpf4jnsgd1na2vs0mg"},{"bike_id":"c283b5f8-3130-489e-b2be-8acbbe840512","system_id":"levelo_inurba_marseille","lat":43.29272,"lon":5.40111,"is_reserved":false,"is_disabled":true,"rental_uris":{"android":"levelo://app?vid=c283b5f8-3130-489e-b2be-8acbbe840512","ios":"levelo://app?vid=c283b5f8-3130-489e-b2be-8acbbe840512"},"vehicle_type_id":"4","last_reported":1732781614,"current_range_meters":20400,"station_id":"ce4bh312rcd13ifvqdk0","pricing_plan_id":"cebpf4jnsgd1na2vs0mg"},{"bike_id":"52b29791-6d7c-4dc5-9efe-0b3ca6d735fd","system_id":"levelo_inurba_marseille","lat":43.28449,"lon":5.39206,"is_reserved":false,"is_disabled":false,"rental_uris":{"android":"levelo://app?vid=52b29791-6d7c-4dc5-9efe-0b3ca6d735fd","ios":"levelo://app?vid=52b29791-6d7c-4dc5-9efe-0b3ca6d735fd"},"vehicle_type_id":"4","last_reported":1732781614,"current_range_meters":26800,"station_id":"ce4bhoh2rcd13ifvqh5g","pricing_plan_id":"cebpf4jnsgd1na2vs0mg"},{"bike_id":"1ee8ca89-a27b-412b-b790-b2c24db2b11e","system_id":"levelo_inurba_marseille","lat":43.26505,"lon":5.39544,"is_reserved":false,"is_disabled":false,"rental_uris":{"android":"levelo://app?vid=1ee8ca89-a27b-412b-b790-b2c24db2b11e","ios":"levelo://app?vid=1ee8ca89-a27b-412b-b790-b2c24db2b11e"},"vehicle_type_id":"4","last_reported":1732781614,"current_range_meters":12400,"station_id":"ce4bhi12rcd13ifvqfq0","pricing_plan_id":"cebpf4jnsgd1na2vs0mg"},{"bike_id":"995b0ed7-e911-4cbd-af8f-c24ace9993ac","system_id":"levelo_inurba_marseille","lat":43.30897,"lon":5.3719,"is_reserved":false,"is_disabled":false,"rental_uris":{"android":"levelo://app?vid=995b0ed7-e911-4cbd-af8f-c24ace9993ac","ios":"levelo://app?vid=995b0ed7-e911-4cbd-af8f-c24ace9993ac"},"vehicle_type_id":"4","last_reported":1732781614,"current_range_meters":24400,"station_id":"ce4bguh2rcd13ifvqckg","pricing_plan_id":"cebpf4jnsgd1na2vs0mg"},{"bike_id":"f55ec180-dbd7-4667-921c-25040ac5bf5a","system_id":"levelo_inurba_marseille","lat":43.30185,"lon":5.36627,"is_reserved":false,"is_disabled":false,"rental_uris":{"android":"levelo://app?vid=f55ec180-dbd7-4667-921c-25040ac5bf5a","ios":"levelo://app?vid=f55ec180-dbd7-4667-921c-25040ac5bf5a"},"vehicle_type_id":"4","last_reported":1732781614,"current_range_meters":8400,"station_id":"ce4bgrh2rcd13ifvqc8g","pricing_plan_id":"cebpf4jnsgd1na2vs0mg"},{"bike_id":"775aba22-baf5-4ce5-b645-5941a20cb104","system_id":"levelo_inurba_marseille","lat":43.27381,"lon":5.36256,"is_reserved":false,"is_disabled":true,"rental_uris":{"android":"levelo://app?vid=775aba22-baf5-4ce5-b645-5941a20cb104","ios":"levelo://app?vid=775aba22-baf5-4ce5-b645-5941a20cb104"},"vehicle_type_id":"4","last_reported":1732781614,"current_range_meters":38000,"station_id":"ce4bhbh2rcd13ifvqeo0","pricing_plan_id":"cebpf4jnsgd1na2vs0mg"},{"bike_id":"95ae37b5-add4-404e-b606-18569c489f38","system_id":"levelo_inurba_marseille","lat":43.23151,"lon":5.43712,"is_reserved":false,"is_disabled":false,"rental_uris":{"android":"levelo://app?vid=95ae37b5-add4-404e-b606-18569c489f38","ios":"levelo://app?vid=95ae37b5-add4-404e-b606-18569c489f38"},"vehicle_type_id":"4","last_reported":1732781614,"current_range_meters":16000,"station_id":"ce4bhmp2rcd13ifvqgog","pricing_plan_id":"cebpf4jnsgd1na2vs0mg"},{"bike_id":"9a0d92ca-9d17-493c-8662-281d5ca64075","system_id":"levelo_inurba_marseille","lat":43.2816,"lon":5.36799,"is_reserved":false,"is_disabled":false,"rental_uris":{"android":"levelo://app?vid=9a0d92ca-9d17-493c-8662-281d5ca64075","ios":"levelo://app?vid=9a0d92ca-9d17-493c-8662-281d5ca64075"},"vehicle_type_id":"4","last_reported":1732781614,"current_range_meters":27600,"station_id":"ce4bha12rcd13ifvqef0","pricing_plan_id":"cebpf4jnsgd1na2vs0mg"},{"bike_id":"10515226-3d19-49b0-b8c2-7bbf5cbf72e4","system_id":"levelo_inurba_marseille","lat":43.29006,"lon":5.35617,"is_reserved":false,"is_disabled":true,"rental_uris":{"android":"levelo://app?vid=10515226-3d19-49b0-b8c2-7bbf5cbf72e4","ios":"levelo://app?vid=10515226-3d19-49b0-b8c2-7bbf5cbf72e4"},"vehicle_type_id":"4","last_reported":1732781614,"current_range_meters":800,"station_id":"","pricing_plan_id":"cebpf4jnsgd1na2vs0mg"},{"bike_id":"1446bae8-3f07-4142-b9c8-6c974638d2db","system_id":"levelo_inurba_marseille","lat":43.32547,"lon":5.41438,"is_reserved":false,"is_disabled":false,"rental_uris":{"android":"levelo://app?vid=1446bae8-3f07-4142-b9c8-6c974638d2db","ios":"levelo://app?vid=1446bae8-3f07-4142-b9c8-6c974638d2db"},"vehicle_type_id":"4","last_reported":1732781614,"current_range_meters":35200,"station_id":"ce4bhq12rcd13ifvqhhg","pricing_plan_id":"cebpf4jnsgd1na2vs0mg"},{"bike_id":"3a500bba-bea3-4199-a1bb-bd3b852762d1","system_id":"levelo_inurba_marseille","lat":43.30918,"lon":5.36849,"is_reserved":false,"is_disabled":false,"rental_uris":{"android":"levelo://app?vid=3a500bba-bea3-4199-a1bb-bd3b852762d1","ios":"levelo://app?vid=3a500bba-bea3-4199-a1bb-bd3b852762d1"},"vehicle_type_id":"4","last_reported":1732781614,"current_range_meters":26800,"station_id":"ce4bgn92rcd13ifvqbvg","pricing_plan_id":"cebpf4jnsgd1na2vs0mg"},{"bike_id":"4d4c884f-6933-49c0-8899-f9856d90f44d","system_id":"levelo_inurba_marseille","lat":43.29748,"lon":5.37971,"is_reserved":false,"is_disabled":true,"rental_uris":{"android":"levelo://app?vid=4d4c884f-6933-49c0-8899-f9856d90f44d","ios":"levelo://app?vid=4d4c884f-6933-49c0-8899-f9856d90f44d"},"vehicle_type_id":"4","last_reported":1732781614,"current_range_meters":0,"station_id":"","pricing_plan_id":"cebpf4jnsgd1na2vs0mg"},{"bike_id":"497503fe-5efc-49a3-b750-0eb1d7c8980e","system_id":"levelo_inurba_marseille","lat":43.23067,"lon":5.35495,"is_reserved":false,"is_disabled":false,"rental_uris":{"android":"levelo://app?vid=497503fe-5efc-49a3-b750-0eb1d7c8980e","ios":"levelo://app?vid=497503fe-5efc-49a3-b750-0eb1d7c8980e"},"vehicle_type_id":"4","last_reported":1732781614,"current_range_meters":26800,"station_id":"cpo3342slgdg3j2ifvpg","pricing_plan_id":"cebpf4jnsgd1na2vs0mg"},{"bike_id":"8f48471c-b518-41c1-9d16-66c6ceee942c","system_id":"levelo_inurba_marseille","lat":43.30437,"lon":5.38884,"is_reserved":false,"is_disabled":false,"rental_uris":{"android":"levelo://app?vid=8f48471c-b518-41c1-9d16-66c6ceee942c","ios":"levelo://app?vid=8f48471c-b518-41c1-9d16-66c6ceee942c"},"vehicle_type_id":"4","last_reported":1732781614,"current_range_meters":8000,"station_id":"ce4bgk12rcd13ifvqbi0","pricing_plan_id":"cebpf4jnsgd1na2vs0mg"},{"bike_id":"9009be37-c6b1-406b-b0a8-fbab355f715e","system_id":"levelo_inurba_marseille","lat":43.33762,"lon":5.37493,"is_reserved":false,"is_disabled":false,"rental_uris":{"android":"levelo://app?vid=9009be37-c6b1-406b-b0a8-fbab355f715e","ios":"levelo://app?vid=9009be37-c6b1-406b-b0a8-fbab355f715e"},"vehicle_type_id":"4","last_reported":1732781614,"current_range_meters":38000,"station_id":"","pricing_plan_id":"cebpf4jnsgd1na2vs0mg"},{"bike_id":"698a4486-2082-4411-9bb5-26cb3d238d76","system_id":"levelo_inurba_marseille","lat":43.32546,"lon":5.41444,"is_reserved":false,"is_disabled":false,"rental_uris":{"android":"levelo://app?vid=698a4486-2082-4411-9bb5-26cb3d238d76","ios":"levelo://app?vid=698a4486-2082-4411-9bb5-26cb3d238d76"},"vehicle_type_id":"4","last_reported":1732781614,"current_range_meters":36000,"station_id":"ce4bhq12rcd13ifvqhhg","pricing_plan_id":"cebpf4jnsgd1na2vs0mg"},{"bike_id":"8c07b2d6-b638-4c88-af21-494db1c30b1f","system_id":"levelo_inurba_marseille","lat":43.29572,"lon":5.39963,"is_reserved":false,"is_disabled":false,"rental_uris":{"android":"levelo://app?vid=8c07b2d6-b638-4c88-af21-494db1c30b1f","ios":"levelo://app?vid=8c07b2d6-b638-4c88-af21-494db1c30b1f"},"vehicle_type_id":"4","last_reported":1732781614,"current_range_meters":35600,"station_id":"ce4bh312rcd13ifvqdj0","pricing_plan_id":"cebpf4jnsgd1na2vs0mg"},{"bike_id":"af0acac0-8fdb-4638-84d0-671159a94129","system_id":"levelo_inurba_marseille","lat":43.30311,"lon":5.3691,"is_reserved":false,"is_disabled":false,"rental_uris":{"android":"levelo://app?vid=af0acac0-8fdb-4638-84d0-671159a94129","ios":"levelo://app?vid=af0acac0-8fdb-4638-84d0-671159a94129"},"vehicle_type_id":"4","last_reported":1732781614,"current_range_meters":27200,"station_id":"ce4bgqh2rcd13ifvqc5g","pricing_plan_id":"cebpf4jnsgd1na2vs0mg"},{"bike_id":"ceb58516-bc8c-40df-9da4-368ee1d8d8aa","system_id":"levelo_inurba_marseille","lat":43.24071,"lon":5.37768,"is_reserved":false,"is_disabled":false,"rental_uris":{"android":"levelo://app?vid=ceb58516-bc8c-40df-9da4-368ee1d8d8aa","ios":"levelo://app?vid=ceb58516-bc8c-40df-9da4-368ee1d8d8aa"},"vehicle_type_id":"4","last_reported":1732781614,"current_range_meters":30400,"station_id":"ce4bhnp2rcd13ifvqgvg","pricing_plan_id":"cebpf4jnsgd1na2vs0mg"},{"bike_id":"cc39417c-9fe6-4314-b916-d5d5360bfdd4","system_id":"levelo_inurba_marseille","lat":43.32542,"lon":5.41443,"is_reserved":false,"is_disabled":false,"rental_uris":{"android":"levelo://app?vid=cc39417c-9fe6-4314-b916-d5d5360bfdd4","ios":"levelo://app?vid=cc39417c-9fe6-4314-b916-d5d5360bfdd4"},"vehicle_type_id":"4","last_reported":1732781614,"current_range_meters":40000,"station_id":"ce4bhq12rcd13ifvqhhg","pricing_plan_id":"cebpf4jnsgd1na2vs0mg"},{"bike_id":"eaa3c0ba-d328-455e-9234-65294ece450b","system_id":"levelo_inurba_marseille","lat":43.27478,"lon":5.42462,"is_reserved":false,"is_disabled":false,"rental_uris":{"android":"levelo://app?vid=eaa3c0ba-d328-455e-9234-65294ece450b","ios":"levelo://app?vid=eaa3c0ba-d328-455e-9234-65294ece450b"},"vehicle_type_id":"4","last_reported":1732781614,"current_range_meters":36800,"station_id":"ce4bhn92rcd13ifvqgrg","pricing_plan_id":"cebpf4jnsgd1na2vs0mg"},{"bike_id":"4d809776-4d2b-4bf5-8aa6-666b5b1fd18f","system_id":"levelo_inurba_marseille","lat":43.33722,"lon":5.391808,"is_reserved":false,"is_disabled":false,"rental_uris":{"android":"levelo://app?vid=4d809776-4d2b-4bf5-8aa6-666b5b1fd18f","ios":"levelo://app?vid=4d809776-4d2b-4bf5-8aa6-666b5b1fd18f"},"vehicle_type_id":"4","last_reported":1732781614,"current_range_meters":34800,"station_id":"ce4bhr92rcd13ifvqhsg","pricing_plan_id":"cebpf4jnsgd1na2vs0mg"},{"bike_id":"2b539107-529c-4a94-900a-48d38a7e5032","system_id":"levelo_inurba_marseille","lat":43.30146,"lon":5.37415,"is_reserved":false,"is_disabled":false,"rental_uris":{"android":"levelo://app?vid=2b539107-529c-4a94-900a-48d38a7e5032","ios":"levelo://app?vid=2b539107-529c-4a94-900a-48d38a7e5032"},"vehicle_type_id":"4","last_reported":1732781614,"current_range_meters":27600,"station_id":"ce4bgs92rcd13ifvqcc0","pricing_plan_id":"cebpf4jnsgd1na2vs0mg"},{"bike_id":"edb4117f-41fd-4a2e-81d4-b5e52ee24c45","system_id":"levelo_inurba_marseille","lat":43.27486,"lon":5.42454,"is_reserved":false,"is_disabled":false,"rental_uris":{"android":"levelo://app?vid=edb4117f-41fd-4a2e-81d4-b5e52ee24c45","ios":"levelo://app?vid=edb4117f-41fd-4a2e-81d4-b5e52ee24c45"},"vehicle_type_id":"4","last_reported":1732781614,"current_range_meters":29600,"station_id":"ce4bhn92rcd13ifvqgrg","pricing_plan_id":"cebpf4jnsgd1na2vs0mg"},{"bike_id":"24b2d706-14f2-4a05-a5fd-2a7358cbae81","system_id":"levelo_inurba_marseille","lat":43.24645,"lon":5.38893,"is_reserved":false,"is_disabled":true,"rental_uris":{"android":"levelo://app?vid=24b2d706-14f2-4a05-a5fd-2a7358cbae81","ios":"levelo://app?vid=24b2d706-14f2-4a05-a5fd-2a7358cbae81"},"vehicle_type_id":"4","last_reported":1732781614,"current_range_meters":0,"station_id":"ce4bhg12rcd13ifvqf60","pricing_plan_id":"cebpf4jnsgd1na2vs0mg"},{"bike_id":"7dccca16-9c81-46ba-8ec7-8ac114550316","system_id":"levelo_inurba_marseille","lat":43.337444,"lon":5.374475,"is_reserved":false,"is_disabled":false,"rental_uris":{"android":"levelo://app?vid=7dccca16-9c81-46ba-8ec7-8ac114550316","ios":"levelo://app?vid=7dccca16-9c81-46ba-8ec7-8ac114550316"},"vehicle_type_id":"4","last_reported":1732781614,"current_range_meters":34000,"station_id":"","pricing_plan_id":"cebpf4jnsgd1na2vs0mg"},{"bike_id":"ca76a201-f66a-4daa-8658-bffa4fbb7afa","system_id":"levelo_inurba_marseille","lat":43.30901,"lon":5.372,"is_reserved":false,"is_disabled":false,"rental_uris":{"android":"levelo://app?vid=ca76a201-f66a-4daa-8658-bffa4fbb7afa","ios":"levelo://app?vid=ca76a201-f66a-4daa-8658-bffa4fbb7afa"},"vehicle_type_id":"4","last_reported":1732781614,"current_range_meters":38000,"station_id":"ce4bguh2rcd13ifvqckg","pricing_plan_id":"cebpf4jnsgd1na2vs0mg"},{"bike_id":"c5d2d69c-31d7-463b-9568-fc19bed23f6e","system_id":"levelo_inurba_marseille","lat":43.305827,"lon":5.393523,"is_reserved":false,"is_disabled":true,"rental_uris":{"android":"levelo://app?vid=c5d2d69c-31d7-463b-9568-fc19bed23f6e","ios":"levelo://app?vid=c5d2d69c-31d7-463b-9568-fc19bed23f6e"},"vehicle_type_id":"4","last_reported":1732781614,"current_range_meters":8400,"station_id":"ce4bh0p2rcd13ifvqd80","pricing_plan_id":"cebpf4jnsgd1na2vs0mg"},{"bike_id":"c611a17a-f2d3-4f60-8464-809b1bcd4c11","system_id":"levelo_inurba_marseille","lat":43.2407,"lon":5.37759,"is_reserved":false,"is_disabled":false,"rental_uris":{"android":"levelo://app?vid=c611a17a-f2d3-4f60-8464-809b1bcd4c11","ios":"levelo://app?vid=c611a17a-f2d3-4f60-8464-809b1bcd4c11"},"vehicle_type_id":"4","last_reported":1732781614,"current_range_meters":19600,"station_id":"ce4bhnp2rcd13ifvqgvg","pricing_plan_id":"cebpf4jnsgd1na2vs0mg"},{"bike_id":"c6503f95-a2da-4b3b-82b1-0e08a76abfd0","system_id":"levelo_inurba_marseille","lat":43.25934,"lon":5.40912,"is_reserved":false,"is_disabled":false,"rental_uris":{"android":"levelo://app?vid=c6503f95-a2da-4b3b-82b1-0e08a76abfd0","ios":"levelo://app?vid=c6503f95-a2da-4b3b-82b1-0e08a76abfd0"},"vehicle_type_id":"4","last_reported":1732781614,"current_range_meters":26000,"station_id":"ce4bhm92rcd13ifvqglg","pricing_plan_id":"cebpf4jnsgd1na2vs0mg"},{"bike_id":"95c39abd-631b-4674-8877-bb71fdbca347","system_id":"levelo_inurba_marseille","lat":43.29618,"lon":5.37693,"is_reserved":false,"is_disabled":true,"rental_uris":{"android":"levelo://app?vid=95c39abd-631b-4674-8877-bb71fdbca347","ios":"levelo://app?vid=95c39abd-631b-4674-8877-bb71fdbca347"},"vehicle_type_id":"4","last_reported":1732781614,"current_range_meters":9600,"station_id":"ce4bgi92rcd13ifvqb90","pricing_plan_id":"cebpf4jnsgd1na2vs0mg"},{"bike_id":"35637c9f-d6c4-4d75-82b5-13284fd1c1f7","system_id":"levelo_inurba_marseille","lat":43.31225,"lon":5.36855,"is_reserved":false,"is_disabled":false,"rental_uris":{"android":"levelo://app?vid=35637c9f-d6c4-4d75-82b5-13284fd1c1f7","ios":"levelo://app?vid=35637c9f-d6c4-4d75-82b5-13284fd1c1f7"},"vehicle_type_id":"4","last_reported":1732781614,"current_range_meters":20000,"station_id":"ce4bgl92rcd13ifvqbq0","pricing_plan_id":"cebpf4jnsgd1na2vs0mg"},{"bike_id":"d44f0a8b-3c56-4ae3-be77-5eeebf3bc09a","system_id":"levelo_inurba_marseille","lat":43.30143,"lon":5.38081,"is_reserved":false,"is_disabled":false,"rental_uris":{"android":"levelo://app?vid=d44f0a8b-3c56-4ae3-be77-5eeebf3bc09a","ios":"levelo://app?vid=d44f0a8b-3c56-4ae3-be77-5eeebf3bc09a"},"vehicle_type_id":"4","last_reported":1732781614,"current_range_meters":38800,"station_id":"ce4bgjp2rcd13ifvqbh0","pricing_plan_id":"cebpf4jnsgd1na2vs0mg"},{"bike_id":"8429aac6-e205-4db7-b830-738d1a402a04","system_id":"levelo_inurba_marseille","lat":43.31093,"lon":5.37484,"is_reserved":false,"is_disabled":false,"rental_uris":{"android":"levelo://app?vid=8429aac6-e205-4db7-b830-738d1a402a04","ios":"levelo://app?vid=8429aac6-e205-4db7-b830-738d1a402a04"},"vehicle_type_id":"4","last_reported":1732781614,"current_range_meters":14400,"station_id":"","pricing_plan_id":"cebpf4jnsgd1na2vs0mg"},{"bike_id":"1dee5398-ece1-4217-b5b9-984f22c2ff59","system_id":"levelo_inurba_marseille","lat":43.2925,"lon":5.38438,"is_reserved":false,"is_disabled":true,"rental_uris":{"android":"levelo://app?vid=1dee5398-ece1-4217-b5b9-984f22c2ff59","ios":"levelo://app?vid=1dee5398-ece1-4217-b5b9-984f22c2ff59"},"vehicle_type_id":"4","last_reported":1732781614,"current_range_meters":0,"station_id":"ce4bh692rcd13ifvqea0","pricing_plan_id":"cebpf4jnsgd1na2vs0mg"},{"bike_id":"bb0105e5-ee6b-493b-a800-a080dd391fe9","system_id":"levelo_inurba_marseille","lat":43.31485,"lon":5.3731,"is_reserved":false,"is_disabled":false,"rental_uris":{"android":"levelo://app?vid=bb0105e5-ee6b-493b-a800-a080dd391fe9","ios":"levelo://app?vid=bb0105e5-ee6b-493b-a800-a080dd391fe9"},"vehicle_type_id":"4","last_reported":1732781614,"current_range_meters":37600,"station_id":"ce4bgt12rcd13ifvqcd0","pricing_plan_id":"cebpf4jnsgd1na2vs0mg"},{"bike_id":"5e606358-6ec5-4ba1-b7a5-4160b77dadb0","system_id":"levelo_inurba_marseille","lat":43.2439,"lon":5.37062,"is_reserved":false,"is_disabled":false,"rental_uris":{"android":"levelo://app?vid=5e606358-6ec5-4ba1-b7a5-4160b77dadb0","ios":"levelo://app?vid=5e606358-6ec5-4ba1-b7a5-4160b77dadb0"},"vehicle_type_id":"4","last_reported":1732781614,"current_range_meters":38800,"station_id":"ce4bhhh2rcd13ifvqfk0","pricing_plan_id":"cebpf4jnsgd1na2vs0mg"},{"bike_id":"1eb7a3f5-63ef-4922-a889-6ee76205273c","system_id":"levelo_inurba_marseille","lat":43.24392,"lon":5.37059,"is_reserved":false,"is_disabled":false,"rental_uris":{"android":"levelo://app?vid=1eb7a3f5-63ef-4922-a889-6ee76205273c","ios":"levelo://app?vid=1eb7a3f5-63ef-4922-a889-6ee76205273c"},"vehicle_type_id":"4","last_reported":1732781614,"current_range_meters":38800,"station_id":"ce4bhhh2rcd13ifvqfk0","pricing_plan_id":"cebpf4jnsgd1na2vs0mg"},{"bike_id":"80f4ea0a-f40f-482d-ad25-da02fbec78bb","system_id":"levelo_inurba_marseille","lat":43.30135,"lon":5.37422,"is_reserved":false,"is_disabled":false,"rental_uris":{"android":"levelo://app?vid=80f4ea0a-f40f-482d-ad25-da02fbec78bb","ios":"levelo://app?vid=80f4ea0a-f40f-482d-ad25-da02fbec78bb"},"vehicle_type_id":"4","last_reported":1732781614,"current_range_meters":38800,"station_id":"ce4bgs92rcd13ifvqcc0","pricing_plan_id":"cebpf4jnsgd1na2vs0mg"},{"bike_id":"ae27d36e-a736-4bd0-9e1e-8d7ee12e2e51","system_id":"levelo_inurba_marseille","lat":43.296126,"lon":5.377174,"is_reserved":false,"is_disabled":true,"rental_uris":{"android":"levelo://app?vid=ae27d36e-a736-4bd0-9e1e-8d7ee12e2e51","ios":"levelo://app?vid=ae27d36e-a736-4bd0-9e1e-8d7ee12e2e51"},"vehicle_type_id":"4","last_reported":1732781614,"current_range_meters":0,"station_id":"ce4bgi92rcd13ifvqb90","pricing_plan_id":"cebpf4jnsgd1na2vs0mg"},{"bike_id":"286907ce-55d8-429e-8d28-51db38915fbb","system_id":"levelo_inurba_marseille","lat":43.31483,"lon":5.37314,"is_reserved":false,"is_disabled":false,"rental_uris":{"android":"levelo://app?vid=286907ce-55d8-429e-8d28-51db38915fbb","ios":"levelo://app?vid=286907ce-55d8-429e-8d28-51db38915fbb"},"vehicle_type_id":"4","last_reported":1732781614,"current_range_meters":6400,"station_id":"ce4bgt12rcd13ifvqcd0","pricing_plan_id":"cebpf4jnsgd1na2vs0mg"},{"bike_id":"0d6ad86a-d679-4803-96ca-14041613c9a8","system_id":"levelo_inurba_marseille","lat":43.2984,"lon":5.36267,"is_reserved":false,"is_disabled":false,"rental_uris":{"android":"levelo://app?vid=0d6ad86a-d679-4803-96ca-14041613c9a8","ios":"levelo://app?vid=0d6ad86a-d679-4803-96ca-14041613c9a8"},"vehicle_type_id":"4","last_reported":1732781614,"current_range_meters":28000,"station_id":"ce4bgpp2rcd13ifvqc3g","pricing_plan_id":"cebpf4jnsgd1na2vs0mg"},{"bike_id":"d77bd1a9-3dbe-4806-8d0d-9ad10656f516","system_id":"levelo_inurba_marseille","lat":43.30474,"lon":5.37904,"is_reserved":false,"is_disabled":false,"rental_uris":{"android":"levelo://app?vid=d77bd1a9-3dbe-4806-8d0d-9ad10656f516","ios":"levelo://app?vid=d77bd1a9-3dbe-4806-8d0d-9ad10656f516"},"vehicle_type_id":"4","last_reported":1732781614,"current_range_meters":38800,"station_id":"ce4bgup2rcd13ifvqcn0","pricing_plan_id":"cebpf4jnsgd1na2vs0mg"},{"bike_id":"39b04c21-6a6a-40a7-a489-741c2b67c9bd","system_id":"levelo_inurba_marseille","lat":43.337267,"lon":5.391906,"is_reserved":false,"is_disabled":false,"rental_uris":{"android":"levelo://app?vid=39b04c21-6a6a-40a7-a489-741c2b67c9bd","ios":"levelo://app?vid=39b04c21-6a6a-40a7-a489-741c2b67c9bd"},"vehicle_type_id":"4","last_reported":1732781614,"current_range_meters":6800,"station_id":"ce4bhr92rcd13ifvqhsg","pricing_plan_id":"cebpf4jnsgd1na2vs0mg"},{"bike_id":"573f1a32-0100-4632-81f0-9f78c4587cd4","system_id":"levelo_inurba_marseille","lat":43.284143,"lon":5.37517,"is_reserved":false,"is_disabled":true,"rental_uris":{"android":"levelo://app?vid=573f1a32-0100-4632-81f0-9f78c4587cd4","ios":"levelo://app?vid=573f1a32-0100-4632-81f0-9f78c4587cd4"},"vehicle_type_id":"4","last_reported":1732781614,"current_range_meters":0,"station_id":"ce4bh412rcd13ifvqds0","pricing_plan_id":"cebpf4jnsgd1na2vs0mg"},{"bike_id":"b4098760-fadc-478e-8560-91752f964faf","system_id":"levelo_inurba_marseille","lat":43.27494,"lon":5.42453,"is_reserved":false,"is_disabled":false,"rental_uris":{"android":"levelo://app?vid=b4098760-fadc-478e-8560-91752f964faf","ios":"levelo://app?vid=b4098760-fadc-478e-8560-91752f964faf"},"vehicle_type_id":"4","last_reported":1732781614,"current_range_meters":38000,"station_id":"ce4bhn92rcd13ifvqgrg","pricing_plan_id":"cebpf4jnsgd1na2vs0mg"},{"bike_id":"59310c24-aada-47db-9c55-db87d9c8f60e","system_id":"levelo_inurba_marseille","lat":43.28979,"lon":5.37837,"is_reserved":false,"is_disabled":true,"rental_uris":{"android":"levelo://app?vid=59310c24-aada-47db-9c55-db87d9c8f60e","ios":"levelo://app?vid=59310c24-aada-47db-9c55-db87d9c8f60e"},"vehicle_type_id":"4","last_reported":1732781614,"current_range_meters":4000,"station_id":"ce4bh9p2rcd13ifvqed0","pricing_plan_id":"cebpf4jnsgd1na2vs0mg"},{"bike_id":"9a41ab40-241e-4f79-ad94-804edc8c73af","system_id":"levelo_inurba_marseille","lat":43.30609,"lon":5.39353,"is_reserved":false,"is_disabled":false,"rental_uris":{"android":"levelo://app?vid=9a41ab40-241e-4f79-ad94-804edc8c73af","ios":"levelo://app?vid=9a41ab40-241e-4f79-ad94-804edc8c73af"},"vehicle_type_id":"4","last_reported":1732781614,"current_range_meters":34800,"station_id":"ce4bh0p2rcd13ifvqd80","pricing_plan_id":"cebpf4jnsgd1na2vs0mg"},{"bike_id":"d00201b4-3045-42a6-baab-97b71694fceb","system_id":"levelo_inurba_marseille","lat":43.24081,"lon":5.37743,"is_reserved":false,"is_disabled":true,"rental_uris":{"android":"levelo://app?vid=d00201b4-3045-42a6-baab-97b71694fceb","ios":"levelo://app?vid=d00201b4-3045-42a6-baab-97b71694fceb"},"vehicle_type_id":"4","last_reported":1732781614,"current_range_meters":38000,"station_id":"ce4bhnp2rcd13ifvqgvg","pricing_plan_id":"cebpf4jnsgd1na2vs0mg"},{"bike_id":"a82dab2e-61b2-4c0a-b790-4e29c947ab8d","system_id":"levelo_inurba_marseille","lat":43.25944,"lon":5.409,"is_reserved":false,"is_disabled":false,"rental_uris":{"android":"levelo://app?vid=a82dab2e-61b2-4c0a-b790-4e29c947ab8d","ios":"levelo://app?vid=a82dab2e-61b2-4c0a-b790-4e29c947ab8d"},"vehicle_type_id":"4","last_reported":1732781614,"current_range_meters":8000,"station_id":"ce4bhm92rcd13ifvqglg","pricing_plan_id":"cebpf4jnsgd1na2vs0mg"},{"bike_id":"6b4b8fe7-5b4f-485b-93bd-dbec0a3ccc42","system_id":"levelo_inurba_marseille","lat":43.29005,"lon":5.35617,"is_reserved":false,"is_disabled":true,"rental_uris":{"android":"levelo://app?vid=6b4b8fe7-5b4f-485b-93bd-dbec0a3ccc42","ios":"levelo://app?vid=6b4b8fe7-5b4f-485b-93bd-dbec0a3ccc42"},"vehicle_type_id":"4","last_reported":1732781614,"current_range_meters":0,"station_id":"ce4bhb92rcd13ifvqen0","pricing_plan_id":"cebpf4jnsgd1na2vs0mg"},{"bike_id":"e2aa56d9-70ff-4a87-b5d7-eee3dcd91418","system_id":"levelo_inurba_marseille","lat":43.24071,"lon":5.37756,"is_reserved":false,"is_disabled":false,"rental_uris":{"android":"levelo://app?vid=e2aa56d9-70ff-4a87-b5d7-eee3dcd91418","ios":"levelo://app?vid=e2aa56d9-70ff-4a87-b5d7-eee3dcd91418"},"vehicle_type_id":"4","last_reported":1732781614,"current_range_meters":11200,"station_id":"ce4bhnp2rcd13ifvqgvg","pricing_plan_id":"cebpf4jnsgd1na2vs0mg"},{"bike_id":"e163bcfa-3686-4530-b9d7-a14cbd1893ab","system_id":"levelo_inurba_marseille","lat":43.32525,"lon":5.41454,"is_reserved":false,"is_disabled":false,"rental_uris":{"android":"levelo://app?vid=e163bcfa-3686-4530-b9d7-a14cbd1893ab","ios":"levelo://app?vid=e163bcfa-3686-4530-b9d7-a14cbd1893ab"},"vehicle_type_id":"4","last_reported":1732781614,"current_range_meters":31200,"station_id":"ce4bhq12rcd13ifvqhhg","pricing_plan_id":"cebpf4jnsgd1na2vs0mg"},{"bike_id":"220ce8bf-6055-439a-932f-70112f24c52b","system_id":"levelo_inurba_marseille","lat":43.32111,"lon":5.36768,"is_reserved":false,"is_disabled":false,"rental_uris":{"android":"levelo://app?vid=220ce8bf-6055-439a-932f-70112f24c52b","ios":"levelo://app?vid=220ce8bf-6055-439a-932f-70112f24c52b"},"vehicle_type_id":"4","last_reported":1732781614,"current_range_meters":11200,"station_id":"ce4bhrh2rcd13ifvqhug","pricing_plan_id":"cebpf4jnsgd1na2vs0mg"},{"bike_id":"24404b8c-92d5-4ffc-a704-f49736075a77","system_id":"levelo_inurba_marseille","lat":43.32364,"lon":5.38872,"is_reserved":false,"is_disabled":true,"rental_uris":{"android":"levelo://app?vid=24404b8c-92d5-4ffc-a704-f49736075a77","ios":"levelo://app?vid=24404b8c-92d5-4ffc-a704-f49736075a77"},"vehicle_type_id":"4","last_reported":1732781614,"current_range_meters":19600,"station_id":"ce4bhqp2rcd13ifvqhog","pricing_plan_id":"cebpf4jnsgd1na2vs0mg"},{"bike_id":"db508db4-5989-4d56-8ff3-52352e57ed7c","system_id":"levelo_inurba_marseille","lat":43.31889,"lon":5.40733,"is_reserved":false,"is_disabled":false,"rental_uris":{"android":"levelo://app?vid=db508db4-5989-4d56-8ff3-52352e57ed7c","ios":"levelo://app?vid=db508db4-5989-4d56-8ff3-52352e57ed7c"},"vehicle_type_id":"4","last_reported":1732781614,"current_range_meters":38800,"station_id":"ce4bhq12rcd13ifvqhig","pricing_plan_id":"cebpf4jnsgd1na2vs0mg"},{"bike_id":"55def45f-9948-4148-8f9c-11a0cb8de0cb","system_id":"levelo_inurba_marseille","lat":43.30941,"lon":5.39041,"is_reserved":false,"is_disabled":true,"rental_uris":{"android":"levelo://app?vid=55def45f-9948-4148-8f9c-11a0cb8de0cb","ios":"levelo://app?vid=55def45f-9948-4148-8f9c-11a0cb8de0cb"},"vehicle_type_id":"4","last_reported":1732781614,"current_range_meters":38400,"station_id":"ce4bgup2rcd13ifvqco0","pricing_plan_id":"cebpf4jnsgd1na2vs0mg"},{"bike_id":"befd70af-0170-4a22-9cf7-bc67e949484d","system_id":"levelo_inurba_marseille","lat":43.25823,"lon":5.39425,"is_reserved":false,"is_disabled":false,"rental_uris":{"android":"levelo://app?vid=befd70af-0170-4a22-9cf7-bc67e949484d","ios":"levelo://app?vid=befd70af-0170-4a22-9cf7-bc67e949484d"},"vehicle_type_id":"4","last_reported":1732781614,"current_range_meters":2800,"station_id":"ce4bhip2rcd13ifvqft0","pricing_plan_id":"cebpf4jnsgd1na2vs0mg"},{"bike_id":"d4f2b80e-deb0-4225-9b05-088e4ed4dd4b","system_id":"levelo_inurba_marseille","lat":43.303131,"lon":5.369098,"is_reserved":false,"is_disabled":true,"rental_uris":{"android":"levelo://app?vid=d4f2b80e-deb0-4225-9b05-088e4ed4dd4b","ios":"levelo://app?vid=d4f2b80e-deb0-4225-9b05-088e4ed4dd4b"},"vehicle_type_id":"4","last_reported":1732781614,"current_range_meters":0,"station_id":"ce4bgqh2rcd13ifvqc5g","pricing_plan_id":"cebpf4jnsgd1na2vs0mg"},{"bike_id":"b0065511-be90-4856-a2b9-5e10eaef39f2","system_id":"levelo_inurba_marseille","lat":43.281455,"lon":5.424865,"is_reserved":false,"is_disabled":false,"rental_uris":{"android":"levelo://app?vid=b0065511-be90-4856-a2b9-5e10eaef39f2","ios":"levelo://app?vid=b0065511-be90-4856-a2b9-5e10eaef39f2"},"vehicle_type_id":"4","last_reported":1732781614,"current_range_meters":7200,"station_id":"ce4bhnh2rcd13ifvqgug","pricing_plan_id":"cebpf4jnsgd1na2vs0mg"},{"bike_id":"394222ca-330d-4796-8c52-f534acf24f05","system_id":"levelo_inurba_marseille","lat":43.27663,"lon":5.38902,"is_reserved":false,"is_disabled":true,"rental_uris":{"android":"levelo://app?vid=394222ca-330d-4796-8c52-f534acf24f05","ios":"levelo://app?vid=394222ca-330d-4796-8c52-f534acf24f05"},"vehicle_type_id":"4","last_reported":1732781614,"current_range_meters":36800,"station_id":"ce4bhi12rcd13ifvqfo0","pricing_plan_id":"cebpf4jnsgd1na2vs0mg"},{"bike_id":"1cd78e3c-eca2-430e-a00b-3450b52eb373","system_id":"levelo_inurba_marseille","lat":43.22931,"lon":5.35377,"is_reserved":false,"is_disabled":false,"rental_uris":{"android":"levelo://app?vid=1cd78e3c-eca2-430e-a00b-3450b52eb373","ios":"levelo://app?vid=1cd78e3c-eca2-430e-a00b-3450b52eb373"},"vehicle_type_id":"4","last_reported":1732781614,"current_range_meters":34000,"station_id":"cpo3532slgdg3j2ikp40","pricing_plan_id":"cebpf4jnsgd1na2vs0mg"},{"bike_id":"e8a8f6ce-56ed-4695-a217-49bcb5a1326f","system_id":"levelo_inurba_marseille","lat":43.3123,"lon":5.36853,"is_reserved":false,"is_disabled":false,"rental_uris":{"android":"levelo://app?vid=e8a8f6ce-56ed-4695-a217-49bcb5a1326f","ios":"levelo://app?vid=e8a8f6ce-56ed-4695-a217-49bcb5a1326f"},"vehicle_type_id":"4","last_reported":1732781614,"current_range_meters":31200,"station_id":"ce4bgl92rcd13ifvqbq0","pricing_plan_id":"cebpf4jnsgd1na2vs0mg"},{"bike_id":"681460a9-806c-471b-88e8-ce403c82f10b","system_id":"levelo_inurba_marseille","lat":43.30672,"lon":5.36857,"is_reserved":false,"is_disabled":true,"rental_uris":{"android":"levelo://app?vid=681460a9-806c-471b-88e8-ce403c82f10b","ios":"levelo://app?vid=681460a9-806c-471b-88e8-ce403c82f10b"},"vehicle_type_id":"4","last_reported":1732781614,"current_range_meters":0,"station_id":"","pricing_plan_id":"cebpf4jnsgd1na2vs0mg"},{"bike_id":"5fcc6948-12f5-45af-9698-69cf2a3e3f77","system_id":"levelo_inurba_marseille","lat":43.25497,"lon":5.37653,"is_reserved":false,"is_disabled":false,"rental_uris":{"android":"levelo://app?vid=5fcc6948-12f5-45af-9698-69cf2a3e3f77","ios":"levelo://app?vid=5fcc6948-12f5-45af-9698-69cf2a3e3f77"},"vehicle_type_id":"4","last_reported":1732781614,"current_range_meters":16800,"station_id":"ce4bhh12rcd13ifvqff0","pricing_plan_id":"cebpf4jnsgd1na2vs0mg"},{"bike_id":"8057ed49-e09d-4d52-928f-21b1a2b65995","system_id":"levelo_inurba_marseille","lat":43.29756,"lon":5.38106,"is_reserved":false,"is_disabled":false,"rental_uris":{"android":"levelo://app?vid=8057ed49-e09d-4d52-928f-21b1a2b65995","ios":"levelo://app?vid=8057ed49-e09d-4d52-928f-21b1a2b65995"},"vehicle_type_id":"4","last_reported":1732781614,"current_range_meters":36400,"station_id":"ce4bgnh2rcd13ifvqc0g","pricing_plan_id":"cebpf4jnsgd1na2vs0mg"},{"bike_id":"72e9b362-8964-4b55-9333-adf9980c180f","system_id":"levelo_inurba_marseille","lat":43.30461,"lon":5.37912,"is_reserved":false,"is_disabled":false,"rental_uris":{"android":"levelo://app?vid=72e9b362-8964-4b55-9333-adf9980c180f","ios":"levelo://app?vid=72e9b362-8964-4b55-9333-adf9980c180f"},"vehicle_type_id":"4","last_reported":1732781614,"current_range_meters":37600,"station_id":"ce4bgup2rcd13ifvqcn0","pricing_plan_id":"cebpf4jnsgd1na2vs0mg"},{"bike_id":"98daba67-b20d-4c9d-bea3-f2dfcc7a1b03","system_id":"levelo_inurba_marseille","lat":43.2749,"lon":5.42453,"is_reserved":false,"is_disabled":false,"rental_uris":{"android":"levelo://app?vid=98daba67-b20d-4c9d-bea3-f2dfcc7a1b03","ios":"levelo://app?vid=98daba67-b20d-4c9d-bea3-f2dfcc7a1b03"},"vehicle_type_id":"4","last_reported":1732781614,"current_range_meters":27600,"station_id":"ce4bhn92rcd13ifvqgrg","pricing_plan_id":"cebpf4jnsgd1na2vs0mg"},{"bike_id":"3dd27f14-51ec-4d1e-8d64-1ea7632555f3","system_id":"levelo_inurba_marseille","lat":43.32111,"lon":5.3677,"is_reserved":false,"is_disabled":false,"rental_uris":{"android":"levelo://app?vid=3dd27f14-51ec-4d1e-8d64-1ea7632555f3","ios":"levelo://app?vid=3dd27f14-51ec-4d1e-8d64-1ea7632555f3"},"vehicle_type_id":"4","last_reported":1732781614,"current_range_meters":35600,"station_id":"ce4bhrh2rcd13ifvqhug","pricing_plan_id":"cebpf4jnsgd1na2vs0mg"},{"bike_id":"ef7faf07-a670-4e15-b564-bded5c7ce834","system_id":"levelo_inurba_marseille","lat":43.32367,"lon":5.36766,"is_reserved":false,"is_disabled":false,"rental_uris":{"android":"levelo://app?vid=ef7faf07-a670-4e15-b564-bded5c7ce834","ios":"levelo://app?vid=ef7faf07-a670-4e15-b564-bded5c7ce834"},"vehicle_type_id":"4","last_reported":1732781614,"current_range_meters":37600,"station_id":"ce4bhsh2rcd13ifvqi2g","pricing_plan_id":"cebpf4jnsgd1na2vs0mg"},{"bike_id":"26c5a90d-aa2c-4df7-b5b6-5638cd41d0a7","system_id":"levelo_inurba_marseille","lat":43.2439,"lon":5.37052,"is_reserved":false,"is_disabled":false,"rental_uris":{"android":"levelo://app?vid=26c5a90d-aa2c-4df7-b5b6-5638cd41d0a7","ios":"levelo://app?vid=26c5a90d-aa2c-4df7-b5b6-5638cd41d0a7"},"vehicle_type_id":"4","last_reported":1732781614,"current_range_meters":38800,"station_id":"ce4bhhh2rcd13ifvqfk0","pricing_plan_id":"cebpf4jnsgd1na2vs0mg"},{"bike_id":"a4a44eea-7afa-4c63-a662-beba7965732a","system_id":"levelo_inurba_marseille","lat":43.29618,"lon":5.37147,"is_reserved":false,"is_disabled":true,"rental_uris":{"android":"levelo://app?vid=a4a44eea-7afa-4c63-a662-beba7965732a","ios":"levelo://app?vid=a4a44eea-7afa-4c63-a662-beba7965732a"},"vehicle_type_id":"4","last_reported":1732781614,"current_range_meters":400,"station_id":"ce4bgnh2rcd13ifvqc0g","pricing_plan_id":"cebpf4jnsgd1na2vs0mg"},{"bike_id":"3d09f206-225d-4ef6-835a-a8c04f4350e8","system_id":"levelo_inurba_marseille","lat":43.2875,"lon":5.37647,"is_reserved":false,"is_disabled":true,"rental_uris":{"android":"levelo://app?vid=3d09f206-225d-4ef6-835a-a8c04f4350e8","ios":"levelo://app?vid=3d09f206-225d-4ef6-835a-a8c04f4350e8"},"vehicle_type_id":"4","last_reported":1732781614,"current_range_meters":32800,"station_id":"","pricing_plan_id":"cebpf4jnsgd1na2vs0mg"},{"bike_id":"dbfa7f95-56c1-4b5c-8ade-89a5463b3921","system_id":"levelo_inurba_marseille","lat":43.2695,"lon":5.38629,"is_reserved":false,"is_disabled":false,"rental_uris":{"android":"levelo://app?vid=dbfa7f95-56c1-4b5c-8ade-89a5463b3921","ios":"levelo://app?vid=dbfa7f95-56c1-4b5c-8ade-89a5463b3921"},"vehicle_type_id":"4","last_reported":1732781614,"current_range_meters":3200,"station_id":"ce4bhh92rcd13ifvqfh0","pricing_plan_id":"cebpf4jnsgd1na2vs0mg"},{"bike_id":"7acf64e6-102c-4b24-bfca-4cd2f2ab9f83","system_id":"levelo_inurba_marseille","lat":43.305459,"lon":5.365491,"is_reserved":false,"is_disabled":true,"rental_uris":{"android":"levelo://app?vid=7acf64e6-102c-4b24-bfca-4cd2f2ab9f83","ios":"levelo://app?vid=7acf64e6-102c-4b24-bfca-4cd2f2ab9f83"},"vehicle_type_id":"4","last_reported":1732781614,"current_range_meters":0,"station_id":"ce4bgs12rcd13ifvqcag","pricing_plan_id":"cebpf4jnsgd1na2vs0mg"},{"bike_id":"2e95a691-d7d8-426b-8dba-47b6b56c6a41","system_id":"levelo_inurba_marseille","lat":43.28151,"lon":5.42641,"is_reserved":false,"is_disabled":true,"rental_uris":{"android":"levelo://app?vid=2e95a691-d7d8-426b-8dba-47b6b56c6a41","ios":"levelo://app?vid=2e95a691-d7d8-426b-8dba-47b6b56c6a41"},"vehicle_type_id":"4","last_reported":1732781614,"current_range_meters":2800,"station_id":"ce4bhnh2rcd13ifvqgug","pricing_plan_id":"cebpf4jnsgd1na2vs0mg"},{"bike_id":"aa262170-281b-4556-817d-784dc19f9c9b","system_id":"levelo_inurba_marseille","lat":43.3248,"lon":5.36564,"is_reserved":false,"is_disabled":false,"rental_uris":{"android":"levelo://app?vid=aa262170-281b-4556-817d-784dc19f9c9b","ios":"levelo://app?vid=aa262170-281b-4556-817d-784dc19f9c9b"},"vehicle_type_id":"4","last_reported":1732781614,"current_range_meters":38800,"station_id":"ce4bhs12rcd13ifvqhvg","pricing_plan_id":"cebpf4jnsgd1na2vs0mg"},{"bike_id":"99c466b5-9cda-47c1-8443-acea5e202e09","system_id":"levelo_inurba_marseille","lat":43.30424,"lon":5.39742,"is_reserved":false,"is_disabled":false,"rental_uris":{"android":"levelo://app?vid=99c466b5-9cda-47c1-8443-acea5e202e09","ios":"levelo://app?vid=99c466b5-9cda-47c1-8443-acea5e202e09"},"vehicle_type_id":"4","last_reported":1732781614,"current_range_meters":26000,"station_id":"ce4bh092rcd13ifvqd20","pricing_plan_id":"cebpf4jnsgd1na2vs0mg"},{"bike_id":"48a97e07-bd1e-4284-a0a9-41ce086ce527","system_id":"levelo_inurba_marseille","lat":43.23186,"lon":5.39976,"is_reserved":false,"is_disabled":false,"rental_uris":{"android":"levelo://app?vid=48a97e07-bd1e-4284-a0a9-41ce086ce527","ios":"levelo://app?vid=48a97e07-bd1e-4284-a0a9-41ce086ce527"},"vehicle_type_id":"4","last_reported":1732781614,"current_range_meters":38800,"station_id":"ce4bhn12rcd13ifvqgqg","pricing_plan_id":"cebpf4jnsgd1na2vs0mg"},{"bike_id":"1b908449-a99d-47f7-97f5-3dd280327366","system_id":"levelo_inurba_marseille","lat":43.25927,"lon":5.40911,"is_reserved":false,"is_disabled":false,"rental_uris":{"android":"levelo://app?vid=1b908449-a99d-47f7-97f5-3dd280327366","ios":"levelo://app?vid=1b908449-a99d-47f7-97f5-3dd280327366"},"vehicle_type_id":"4","last_reported":1732781614,"current_range_meters":22400,"station_id":"ce4bhm92rcd13ifvqglg","pricing_plan_id":"cebpf4jnsgd1na2vs0mg"},{"bike_id":"8fafd22e-e92a-46d4-b6d4-05e1b926875e","system_id":"levelo_inurba_marseille","lat":43.30159,"lon":5.38085,"is_reserved":false,"is_disabled":false,"rental_uris":{"android":"levelo://app?vid=8fafd22e-e92a-46d4-b6d4-05e1b926875e","ios":"levelo://app?vid=8fafd22e-e92a-46d4-b6d4-05e1b926875e"},"vehicle_type_id":"4","last_reported":1732781614,"current_range_meters":38800,"station_id":"ce4bgjp2rcd13ifvqbh0","pricing_plan_id":"cebpf4jnsgd1na2vs0mg"},{"bike_id":"40321efd-dd7f-40ce-a00b-4914fd36f84f","system_id":"levelo_inurba_marseille","lat":43.30912,"lon":5.36854,"is_reserved":false,"is_disabled":false,"rental_uris":{"android":"levelo://app?vid=40321efd-dd7f-40ce-a00b-4914fd36f84f","ios":"levelo://app?vid=40321efd-dd7f-40ce-a00b-4914fd36f84f"},"vehicle_type_id":"4","last_reported":1732781614,"current_range_meters":32000,"station_id":"ce4bgn92rcd13ifvqbvg","pricing_plan_id":"cebpf4jnsgd1na2vs0mg"},{"bike_id":"858b65e1-94fc-4151-a71e-8b168cb19dcb","system_id":"levelo_inurba_marseille","lat":43.32249,"lon":5.39241,"is_reserved":false,"is_disabled":true,"rental_uris":{"android":"levelo://app?vid=858b65e1-94fc-4151-a71e-8b168cb19dcb","ios":"levelo://app?vid=858b65e1-94fc-4151-a71e-8b168cb19dcb"},"vehicle_type_id":"4","last_reported":1732781614,"current_range_meters":0,"station_id":"","pricing_plan_id":"cebpf4jnsgd1na2vs0mg"},{"bike_id":"01b93923-340e-49e1-bd86-d2463565502f","system_id":"levelo_inurba_marseille","lat":43.293157,"lon":5.38571,"is_reserved":false,"is_disabled":true,"rental_uris":{"android":"levelo://app?vid=01b93923-340e-49e1-bd86-d2463565502f","ios":"levelo://app?vid=01b93923-340e-49e1-bd86-d2463565502f"},"vehicle_type_id":"4","last_reported":1732781614,"current_range_meters":0,"station_id":"","pricing_plan_id":"cebpf4jnsgd1na2vs0mg"},{"bike_id":"e51b2acb-d883-446b-9ce9-347608453ece","system_id":"levelo_inurba_marseille","lat":43.22928,"lon":5.35375,"is_reserved":false,"is_disabled":false,"rental_uris":{"android":"levelo://app?vid=e51b2acb-d883-446b-9ce9-347608453ece","ios":"levelo://app?vid=e51b2acb-d883-446b-9ce9-347608453ece"},"vehicle_type_id":"4","last_reported":1732781614,"current_range_meters":32800,"station_id":"cpo3532slgdg3j2ikp40","pricing_plan_id":"cebpf4jnsgd1na2vs0mg"},{"bike_id":"29a108d2-9f7c-4c19-997e-d2c124f3f93b","system_id":"levelo_inurba_marseille","lat":43.27523,"lon":5.42475,"is_reserved":false,"is_disabled":false,"rental_uris":{"android":"levelo://app?vid=29a108d2-9f7c-4c19-997e-d2c124f3f93b","ios":"levelo://app?vid=29a108d2-9f7c-4c19-997e-d2c124f3f93b"},"vehicle_type_id":"4","last_reported":1732781614,"current_range_meters":17600,"station_id":"ce4bhn92rcd13ifvqgrg","pricing_plan_id":"cebpf4jnsgd1na2vs0mg"},{"bike_id":"54d92e45-0c73-4cef-bfa3-0fc84870e3ef","system_id":"levelo_inurba_marseille","lat":43.25936,"lon":5.40897,"is_reserved":false,"is_disabled":false,"rental_uris":{"android":"levelo://app?vid=54d92e45-0c73-4cef-bfa3-0fc84870e3ef","ios":"levelo://app?vid=54d92e45-0c73-4cef-bfa3-0fc84870e3ef"},"vehicle_type_id":"4","last_reported":1732781614,"current_range_meters":14000,"station_id":"ce4bhm92rcd13ifvqglg","pricing_plan_id":"cebpf4jnsgd1na2vs0mg"},{"bike_id":"68c7134d-88af-43d1-a5f9-ec4a6d4de3cd","system_id":"levelo_inurba_marseille","lat":43.2908,"lon":5.37168,"is_reserved":false,"is_disabled":false,"rental_uris":{"android":"levelo://app?vid=68c7134d-88af-43d1-a5f9-ec4a6d4de3cd","ios":"levelo://app?vid=68c7134d-88af-43d1-a5f9-ec4a6d4de3cd"},"vehicle_type_id":"4","last_reported":1732781614,"current_range_meters":27600,"station_id":"ce4bh5p2rcd13ifvqe4g","pricing_plan_id":"cebpf4jnsgd1na2vs0mg"},{"bike_id":"0e7e4835-5337-4a02-b13c-883889b0f8d3","system_id":"levelo_inurba_marseille","lat":43.29763,"lon":5.37109,"is_reserved":false,"is_disabled":false,"rental_uris":{"android":"levelo://app?vid=0e7e4835-5337-4a02-b13c-883889b0f8d3","ios":"levelo://app?vid=0e7e4835-5337-4a02-b13c-883889b0f8d3"},"vehicle_type_id":"4","last_reported":1732781614,"current_range_meters":21600,"station_id":"ce4bgop2rcd13ifvqc1g","pricing_plan_id":"cebpf4jnsgd1na2vs0mg"},{"bike_id":"6a4001d6-d444-4013-81f0-795a143d0522","system_id":"levelo_inurba_marseille","lat":43.30188,"lon":5.38722,"is_reserved":false,"is_disabled":true,"rental_uris":{"android":"levelo://app?vid=6a4001d6-d444-4013-81f0-795a143d0522","ios":"levelo://app?vid=6a4001d6-d444-4013-81f0-795a143d0522"},"vehicle_type_id":"4","last_reported":1732781614,"current_range_meters":29600,"station_id":"","pricing_plan_id":"cebpf4jnsgd1na2vs0mg"},{"bike_id":"81fa6f45-b32c-4af4-8127-34570b5fbe9a","system_id":"levelo_inurba_marseille","lat":43.28935,"lon":5.36398,"is_reserved":false,"is_disabled":false,"rental_uris":{"android":"levelo://app?vid=81fa6f45-b32c-4af4-8127-34570b5fbe9a","ios":"levelo://app?vid=81fa6f45-b32c-4af4-8127-34570b5fbe9a"},"vehicle_type_id":"4","last_reported":1732781614,"current_range_meters":24400,"station_id":"ce4bhc92rcd13ifvqetg","pricing_plan_id":"cebpf4jnsgd1na2vs0mg"},{"bike_id":"36c2e099-818d-4574-9908-042aa295646a","system_id":"levelo_inurba_marseille","lat":43.25941,"lon":5.409,"is_reserved":false,"is_disabled":true,"rental_uris":{"android":"levelo://app?vid=36c2e099-818d-4574-9908-042aa295646a","ios":"levelo://app?vid=36c2e099-818d-4574-9908-042aa295646a"},"vehicle_type_id":"4","last_reported":1732781614,"current_range_meters":38800,"station_id":"ce4bhm92rcd13ifvqglg","pricing_plan_id":"cebpf4jnsgd1na2vs0mg"},{"bike_id":"f7f3756c-1ec7-4782-9c87-6273f87b6774","system_id":"levelo_inurba_marseille","lat":43.337444,"lon":5.374475,"is_reserved":false,"is_disabled":true,"rental_uris":{"android":"levelo://app?vid=f7f3756c-1ec7-4782-9c87-6273f87b6774","ios":"levelo://app?vid=f7f3756c-1ec7-4782-9c87-6273f87b6774"},"vehicle_type_id":"4","last_reported":1732781614,"current_range_meters":11200,"station_id":"","pricing_plan_id":"cebpf4jnsgd1na2vs0mg"},{"bike_id":"6f2a38ef-79ff-4cdf-ab91-c3f7588216eb","system_id":"levelo_inurba_marseille","lat":43.29182,"lon":5.37145,"is_reserved":false,"is_disabled":false,"rental_uris":{"android":"levelo://app?vid=6f2a38ef-79ff-4cdf-ab91-c3f7588216eb","ios":"levelo://app?vid=6f2a38ef-79ff-4cdf-ab91-c3f7588216eb"},"vehicle_type_id":"4","last_reported":1732781614,"current_range_meters":34000,"station_id":"ce4bha92rcd13ifvqeh0","pricing_plan_id":"cebpf4jnsgd1na2vs0mg"},{"bike_id":"66c51a98-0a17-4d1f-80ab-64a12da501b6","system_id":"levelo_inurba_marseille","lat":43.29035,"lon":5.37555,"is_reserved":false,"is_disabled":true,"rental_uris":{"android":"levelo://app?vid=66c51a98-0a17-4d1f-80ab-64a12da501b6","ios":"levelo://app?vid=66c51a98-0a17-4d1f-80ab-64a12da501b6"},"vehicle_type_id":"4","last_reported":1732781614,"current_range_meters":0,"station_id":"ce4bh692rcd13ifvqe90","pricing_plan_id":"cebpf4jnsgd1na2vs0mg"},{"bike_id":"791bec6d-3c3b-4d18-8591-b9f656448fbd","system_id":"levelo_inurba_marseille","lat":43.32365,"lon":5.38878,"is_reserved":false,"is_disabled":false,"rental_uris":{"android":"levelo://app?vid=791bec6d-3c3b-4d18-8591-b9f656448fbd","ios":"levelo://app?vid=791bec6d-3c3b-4d18-8591-b9f656448fbd"},"vehicle_type_id":"4","last_reported":1732781614,"current_range_meters":24400,"station_id":"ce4bhqp2rcd13ifvqhog","pricing_plan_id":"cebpf4jnsgd1na2vs0mg"},{"bike_id":"74749a9e-2eb9-4384-8219-d8ddc9589408","system_id":"levelo_inurba_marseille","lat":43.32478,"lon":5.36577,"is_reserved":false,"is_disabled":false,"rental_uris":{"android":"levelo://app?vid=74749a9e-2eb9-4384-8219-d8ddc9589408","ios":"levelo://app?vid=74749a9e-2eb9-4384-8219-d8ddc9589408"},"vehicle_type_id":"4","last_reported":1732781614,"current_range_meters":13600,"station_id":"ce4bhs12rcd13ifvqhvg","pricing_plan_id":"cebpf4jnsgd1na2vs0mg"},{"bike_id":"51911d07-4e00-461e-927c-1e2f6553d26b","system_id":"levelo_inurba_marseille","lat":43.30434,"lon":5.37902,"is_reserved":false,"is_disabled":true,"rental_uris":{"android":"levelo://app?vid=51911d07-4e00-461e-927c-1e2f6553d26b","ios":"levelo://app?vid=51911d07-4e00-461e-927c-1e2f6553d26b"},"vehicle_type_id":"4","last_reported":1732781614,"current_range_meters":11600,"station_id":"ce4bgup2rcd13ifvqcn0","pricing_plan_id":"cebpf4jnsgd1na2vs0mg"},{"bike_id":"40153f7e-e943-44f9-9a5c-c9c0bbb9caee","system_id":"levelo_inurba_marseille","lat":43.27492,"lon":5.42453,"is_reserved":false,"is_disabled":false,"rental_uris":{"android":"levelo://app?vid=40153f7e-e943-44f9-9a5c-c9c0bbb9caee","ios":"levelo://app?vid=40153f7e-e943-44f9-9a5c-c9c0bbb9caee"},"vehicle_type_id":"4","last_reported":1732781614,"current_range_meters":8400,"station_id":"ce4bhn92rcd13ifvqgrg","pricing_plan_id":"cebpf4jnsgd1na2vs0mg"},{"bike_id":"1430bcba-b921-48d4-94e7-c400b9d380c7","system_id":"levelo_inurba_marseille","lat":43.27314,"lon":5.39075,"is_reserved":false,"is_disabled":false,"rental_uris":{"android":"levelo://app?vid=1430bcba-b921-48d4-94e7-c400b9d380c7","ios":"levelo://app?vid=1430bcba-b921-48d4-94e7-c400b9d380c7"},"vehicle_type_id":"4","last_reported":1732781614,"current_range_meters":38800,"station_id":"ce4bhgp2rcd13ifvqfe0","pricing_plan_id":"cebpf4jnsgd1na2vs0mg"},{"bike_id":"df744899-6467-4a2d-8132-101284d5d795","system_id":"levelo_inurba_marseille","lat":43.27841,"lon":5.39198,"is_reserved":false,"is_disabled":false,"rental_uris":{"android":"levelo://app?vid=df744899-6467-4a2d-8132-101284d5d795","ios":"levelo://app?vid=df744899-6467-4a2d-8132-101284d5d795"},"vehicle_type_id":"4","last_reported":1732781614,"current_range_meters":36400,"station_id":"ce4bhjp2rcd13ifvqga0","pricing_plan_id":"cebpf4jnsgd1na2vs0mg"},{"bike_id":"bc6040f1-df60-4d6f-99de-06d4962fb67a","system_id":"levelo_inurba_marseille","lat":43.30139,"lon":5.37422,"is_reserved":false,"is_disabled":false,"rental_uris":{"android":"levelo://app?vid=bc6040f1-df60-4d6f-99de-06d4962fb67a","ios":"levelo://app?vid=bc6040f1-df60-4d6f-99de-06d4962fb67a"},"vehicle_type_id":"4","last_reported":1732781614,"current_range_meters":15200,"station_id":"ce4bgs92rcd13ifvqcc0","pricing_plan_id":"cebpf4jnsgd1na2vs0mg"},{"bike_id":"a7d21e0b-9544-42dc-a0c6-5e884f578af9","system_id":"levelo_inurba_marseille","lat":43.246331,"lon":5.434991,"is_reserved":false,"is_disabled":true,"rental_uris":{"android":"levelo://app?vid=a7d21e0b-9544-42dc-a0c6-5e884f578af9","ios":"levelo://app?vid=a7d21e0b-9544-42dc-a0c6-5e884f578af9"},"vehicle_type_id":"4","last_reported":1732781614,"current_range_meters":0,"station_id":"","pricing_plan_id":"cebpf4jnsgd1na2vs0mg"},{"bike_id":"9ac766bd-5744-4402-b1ae-e2ac07e1ee27","system_id":"levelo_inurba_marseille","lat":43.29045,"lon":5.3996,"is_reserved":false,"is_disabled":false,"rental_uris":{"android":"levelo://app?vid=9ac766bd-5744-4402-b1ae-e2ac07e1ee27","ios":"levelo://app?vid=9ac766bd-5744-4402-b1ae-e2ac07e1ee27"},"vehicle_type_id":"4","last_reported":1732781614,"current_range_meters":38800,"station_id":"ce4bh392rcd13ifvqdm0","pricing_plan_id":"cebpf4jnsgd1na2vs0mg"},{"bike_id":"a5909545-3e09-4859-9fda-9ffe4e6e4883","system_id":"levelo_inurba_marseille","lat":43.23067,"lon":5.35489,"is_reserved":false,"is_disabled":false,"rental_uris":{"android":"levelo://app?vid=a5909545-3e09-4859-9fda-9ffe4e6e4883","ios":"levelo://app?vid=a5909545-3e09-4859-9fda-9ffe4e6e4883"},"vehicle_type_id":"4","last_reported":1732781614,"current_range_meters":24000,"station_id":"cpo3342slgdg3j2ifvpg","pricing_plan_id":"cebpf4jnsgd1na2vs0mg"},{"bike_id":"c125dd6f-3ad5-427c-a31b-f983259d1b39","system_id":"levelo_inurba_marseille","lat":43.3373,"lon":5.39185,"is_reserved":false,"is_disabled":false,"rental_uris":{"android":"levelo://app?vid=c125dd6f-3ad5-427c-a31b-f983259d1b39","ios":"levelo://app?vid=c125dd6f-3ad5-427c-a31b-f983259d1b39"},"vehicle_type_id":"4","last_reported":1732781614,"current_range_meters":39200,"station_id":"ce4bhr92rcd13ifvqhsg","pricing_plan_id":"cebpf4jnsgd1na2vs0mg"},{"bike_id":"636c38c7-b57f-44ef-879f-37f296bc8e0a","system_id":"levelo_inurba_marseille","lat":43.32098,"lon":5.36779,"is_reserved":false,"is_disabled":false,"rental_uris":{"android":"levelo://app?vid=636c38c7-b57f-44ef-879f-37f296bc8e0a","ios":"levelo://app?vid=636c38c7-b57f-44ef-879f-37f296bc8e0a"},"vehicle_type_id":"4","last_reported":1732781614,"current_range_meters":20400,"station_id":"ce4bhrh2rcd13ifvqhug","pricing_plan_id":"cebpf4jnsgd1na2vs0mg"},{"bike_id":"fd5a7c51-c856-4f9f-8523-5a1da995905e","system_id":"levelo_inurba_marseille","lat":43.30469,"lon":5.37902,"is_reserved":false,"is_disabled":false,"rental_uris":{"android":"levelo://app?vid=fd5a7c51-c856-4f9f-8523-5a1da995905e","ios":"levelo://app?vid=fd5a7c51-c856-4f9f-8523-5a1da995905e"},"vehicle_type_id":"4","last_reported":1732781614,"current_range_meters":28400,"station_id":"ce4bgup2rcd13ifvqcn0","pricing_plan_id":"cebpf4jnsgd1na2vs0mg"},{"bike_id":"bfe1eb72-d0ad-4e63-bc4b-f4d3ac6727ba","system_id":"levelo_inurba_marseille","lat":43.24396,"lon":5.37058,"is_reserved":false,"is_disabled":false,"rental_uris":{"android":"levelo://app?vid=bfe1eb72-d0ad-4e63-bc4b-f4d3ac6727ba","ios":"levelo://app?vid=bfe1eb72-d0ad-4e63-bc4b-f4d3ac6727ba"},"vehicle_type_id":"4","last_reported":1732781614,"current_range_meters":38800,"station_id":"ce4bhhh2rcd13ifvqfk0","pricing_plan_id":"cebpf4jnsgd1na2vs0mg"},{"bike_id":"efb5e29c-9ff8-4ae8-ab32-2321245b8365","system_id":"levelo_inurba_marseille","lat":43.23187,"lon":5.39977,"is_reserved":false,"is_disabled":false,"rental_uris":{"android":"levelo://app?vid=efb5e29c-9ff8-4ae8-ab32-2321245b8365","ios":"levelo://app?vid=efb5e29c-9ff8-4ae8-ab32-2321245b8365"},"vehicle_type_id":"4","last_reported":1732781614,"current_range_meters":8800,"station_id":"ce4bhn12rcd13ifvqgqg","pricing_plan_id":"cebpf4jnsgd1na2vs0mg"},{"bike_id":"ae934905-edbe-426a-b615-778d21c28ba5","system_id":"levelo_inurba_marseille","lat":43.31354,"lon":5.36708,"is_reserved":false,"is_disabled":false,"rental_uris":{"android":"levelo://app?vid=ae934905-edbe-426a-b615-778d21c28ba5","ios":"levelo://app?vid=ae934905-edbe-426a-b615-778d21c28ba5"},"vehicle_type_id":"4","last_reported":1732781614,"current_range_meters":38800,"station_id":"ce4bgr92rcd13ifvqc6g","pricing_plan_id":"cebpf4jnsgd1na2vs0mg"},{"bike_id":"e5951ee3-4a5a-4ebb-b469-096c5188dfa3","system_id":"levelo_inurba_marseille","lat":43.23192,"lon":5.3558,"is_reserved":false,"is_disabled":false,"rental_uris":{"android":"levelo://app?vid=e5951ee3-4a5a-4ebb-b469-096c5188dfa3","ios":"levelo://app?vid=e5951ee3-4a5a-4ebb-b469-096c5188dfa3"},"vehicle_type_id":"4","last_reported":1732781614,"current_range_meters":28400,"station_id":"ce4bhu92rcd13ifvqi70","pricing_plan_id":"cebpf4jnsgd1na2vs0mg"},{"bike_id":"a1f77444-ef16-4ca0-b202-de4073cedd35","system_id":"levelo_inurba_marseille","lat":43.30465,"lon":5.37898,"is_reserved":false,"is_disabled":false,"rental_uris":{"android":"levelo://app?vid=a1f77444-ef16-4ca0-b202-de4073cedd35","ios":"levelo://app?vid=a1f77444-ef16-4ca0-b202-de4073cedd35"},"vehicle_type_id":"4","last_reported":1732781614,"current_range_meters":8800,"station_id":"ce4bgup2rcd13ifvqcn0","pricing_plan_id":"cebpf4jnsgd1na2vs0mg"},{"bike_id":"551079ac-62f6-4029-9579-63ffc464325f","system_id":"levelo_inurba_marseille","lat":43.23225,"lon":5.35543,"is_reserved":false,"is_disabled":false,"rental_uris":{"android":"levelo://app?vid=551079ac-62f6-4029-9579-63ffc464325f","ios":"levelo://app?vid=551079ac-62f6-4029-9579-63ffc464325f"},"vehicle_type_id":"4","last_reported":1732781614,"current_range_meters":38800,"station_id":"ce4bhu92rcd13ifvqi70","pricing_plan_id":"cebpf4jnsgd1na2vs0mg"},{"bike_id":"5b61f630-6fba-49ef-81ed-fe83e897b828","system_id":"levelo_inurba_marseille","lat":43.29558,"lon":5.37528,"is_reserved":false,"is_disabled":false,"rental_uris":{"android":"levelo://app?vid=5b61f630-6fba-49ef-81ed-fe83e897b828","ios":"levelo://app?vid=5b61f630-6fba-49ef-81ed-fe83e897b828"},"vehicle_type_id":"4","last_reported":1732781614,"current_range_meters":34000,"station_id":"ce4bgh92rcd13ifvqb50","pricing_plan_id":"cebpf4jnsgd1na2vs0mg"},{"bike_id":"6c948e9c-d5b3-4fe5-a918-1bd2f7c83b02","system_id":"levelo_inurba_marseille","lat":43.32111,"lon":5.36782,"is_reserved":false,"is_disabled":false,"rental_uris":{"android":"levelo://app?vid=6c948e9c-d5b3-4fe5-a918-1bd2f7c83b02","ios":"levelo://app?vid=6c948e9c-d5b3-4fe5-a918-1bd2f7c83b02"},"vehicle_type_id":"4","last_reported":1732781614,"current_range_meters":8800,"station_id":"ce4bhrh2rcd13ifvqhug","pricing_plan_id":"cebpf4jnsgd1na2vs0mg"},{"bike_id":"d62cca3a-d7c7-4fe7-84f1-2d0237b15498","system_id":"levelo_inurba_marseille","lat":43.337444,"lon":5.374475,"is_reserved":false,"is_disabled":false,"rental_uris":{"android":"levelo://app?vid=d62cca3a-d7c7-4fe7-84f1-2d0237b15498","ios":"levelo://app?vid=d62cca3a-d7c7-4fe7-84f1-2d0237b15498"},"vehicle_type_id":"4","last_reported":1732781614,"current_range_meters":36400,"station_id":"","pricing_plan_id":"cebpf4jnsgd1na2vs0mg"},{"bike_id":"79cbdda0-2eff-47cd-9b37-93ae421cbcd8","system_id":"levelo_inurba_marseille","lat":43.30947,"lon":5.39026,"is_reserved":false,"is_disabled":false,"rental_uris":{"android":"levelo://app?vid=79cbdda0-2eff-47cd-9b37-93ae421cbcd8","ios":"levelo://app?vid=79cbdda0-2eff-47cd-9b37-93ae421cbcd8"},"vehicle_type_id":"4","last_reported":1732781614,"current_range_meters":30000,"station_id":"ce4bgup2rcd13ifvqco0","pricing_plan_id":"cebpf4jnsgd1na2vs0mg"},{"bike_id":"6b25304f-521e-415b-9d99-a6421be0cff8","system_id":"levelo_inurba_marseille","lat":43.27071,"lon":5.42279,"is_reserved":false,"is_disabled":false,"rental_uris":{"android":"levelo://app?vid=6b25304f-521e-415b-9d99-a6421be0cff8","ios":"levelo://app?vid=6b25304f-521e-415b-9d99-a6421be0cff8"},"vehicle_type_id":"4","last_reported":1732781614,"current_range_meters":8400,"station_id":"ce4bhk92rcd13ifvqgb0","pricing_plan_id":"cebpf4jnsgd1na2vs0mg"},{"bike_id":"a266235d-36a2-424d-b11a-6faa3aaa9904","system_id":"levelo_inurba_marseille","lat":43.25938,"lon":5.40905,"is_reserved":false,"is_disabled":false,"rental_uris":{"android":"levelo://app?vid=a266235d-36a2-424d-b11a-6faa3aaa9904","ios":"levelo://app?vid=a266235d-36a2-424d-b11a-6faa3aaa9904"},"vehicle_type_id":"4","last_reported":1732781614,"current_range_meters":8400,"station_id":"ce4bhm92rcd13ifvqglg","pricing_plan_id":"cebpf4jnsgd1na2vs0mg"},{"bike_id":"e5a2aa86-a214-44f1-a6db-bab7850d4c65","system_id":"levelo_inurba_marseille","lat":43.260736,"lon":5.394141,"is_reserved":false,"is_disabled":false,"rental_uris":{"android":"levelo://app?vid=e5a2aa86-a214-44f1-a6db-bab7850d4c65","ios":"levelo://app?vid=e5a2aa86-a214-44f1-a6db-bab7850d4c65"},"vehicle_type_id":"4","last_reported":1732781614,"current_range_meters":27600,"station_id":"ce4bhh92rcd13ifvqfj0","pricing_plan_id":"cebpf4jnsgd1na2vs0mg"},{"bike_id":"5dd76527-4d52-4d8e-a676-8d353f38358b","system_id":"levelo_inurba_marseille","lat":43.30537,"lon":5.36718,"is_reserved":false,"is_disabled":false,"rental_uris":{"android":"levelo://app?vid=5dd76527-4d52-4d8e-a676-8d353f38358b","ios":"levelo://app?vid=5dd76527-4d52-4d8e-a676-8d353f38358b"},"vehicle_type_id":"4","last_reported":1732781614,"current_range_meters":11600,"station_id":"ce4bgrp2rcd13ifvqc9g","pricing_plan_id":"cebpf4jnsgd1na2vs0mg"},{"bike_id":"798c3002-bdc5-4cce-95ae-616ac2c36873","system_id":"levelo_inurba_marseille","lat":43.290369,"lon":5.399944,"is_reserved":false,"is_disabled":false,"rental_uris":{"android":"levelo://app?vid=798c3002-bdc5-4cce-95ae-616ac2c36873","ios":"levelo://app?vid=798c3002-bdc5-4cce-95ae-616ac2c36873"},"vehicle_type_id":"4","last_reported":1732781614,"current_range_meters":32000,"station_id":"ce4bh392rcd13ifvqdm0","pricing_plan_id":"cebpf4jnsgd1na2vs0mg"},{"bike_id":"bfa7c1a2-f54e-402a-a2db-4de6455ffddf","system_id":"levelo_inurba_marseille","lat":43.32492,"lon":5.36559,"is_reserved":false,"is_disabled":false,"rental_uris":{"android":"levelo://app?vid=bfa7c1a2-f54e-402a-a2db-4de6455ffddf","ios":"levelo://app?vid=bfa7c1a2-f54e-402a-a2db-4de6455ffddf"},"vehicle_type_id":"4","last_reported":1732781614,"current_range_meters":9200,"station_id":"ce4bhs12rcd13ifvqhvg","pricing_plan_id":"cebpf4jnsgd1na2vs0mg"},{"bike_id":"43624d19-123a-482a-b913-3e8d37a49b6e","system_id":"levelo_inurba_marseille","lat":43.269445,"lon":5.402672,"is_reserved":false,"is_disabled":true,"rental_uris":{"android":"levelo://app?vid=43624d19-123a-482a-b913-3e8d37a49b6e","ios":"levelo://app?vid=43624d19-123a-482a-b913-3e8d37a49b6e"},"vehicle_type_id":"4","last_reported":1732781614,"current_range_meters":0,"station_id":"","pricing_plan_id":"cebpf4jnsgd1na2vs0mg"},{"bike_id":"dc87c326-700a-4406-b562-6e0a2f16a630","system_id":"levelo_inurba_marseille","lat":43.2984,"lon":5.36264,"is_reserved":false,"is_disabled":false,"rental_uris":{"android":"levelo://app?vid=dc87c326-700a-4406-b562-6e0a2f16a630","ios":"levelo://app?vid=dc87c326-700a-4406-b562-6e0a2f16a630"},"vehicle_type_id":"4","last_reported":1732781614,"current_range_meters":32400,"station_id":"ce4bgpp2rcd13ifvqc3g","pricing_plan_id":"cebpf4jnsgd1na2vs0mg"},{"bike_id":"110511e7-d418-46d7-a5e9-c916da14f3dc","system_id":"levelo_inurba_marseille","lat":43.30879,"lon":5.37802,"is_reserved":false,"is_disabled":false,"rental_uris":{"android":"levelo://app?vid=110511e7-d418-46d7-a5e9-c916da14f3dc","ios":"levelo://app?vid=110511e7-d418-46d7-a5e9-c916da14f3dc"},"vehicle_type_id":"4","last_reported":1732781614,"current_range_meters":20000,"station_id":"","pricing_plan_id":"cebpf4jnsgd1na2vs0mg"},{"bike_id":"b02aba44-c310-4e1f-9076-7066f9d36fe6","system_id":"levelo_inurba_marseille","lat":43.24664,"lon":5.38171,"is_reserved":false,"is_disabled":true,"rental_uris":{"android":"levelo://app?vid=b02aba44-c310-4e1f-9076-7066f9d36fe6","ios":"levelo://app?vid=b02aba44-c310-4e1f-9076-7066f9d36fe6"},"vehicle_type_id":"4","last_reported":1732781614,"current_range_meters":30400,"station_id":"ce4bhih2rcd13ifvqfr0","pricing_plan_id":"cebpf4jnsgd1na2vs0mg"},{"bike_id":"b0532d77-a652-43de-8ae1-079cd29bfc13","system_id":"levelo_inurba_marseille","lat":43.32367,"lon":5.38869,"is_reserved":false,"is_disabled":false,"rental_uris":{"android":"levelo://app?vid=b0532d77-a652-43de-8ae1-079cd29bfc13","ios":"levelo://app?vid=b0532d77-a652-43de-8ae1-079cd29bfc13"},"vehicle_type_id":"4","last_reported":1732781614,"current_range_meters":15200,"station_id":"ce4bhqp2rcd13ifvqhog","pricing_plan_id":"cebpf4jnsgd1na2vs0mg"},{"bike_id":"43746d86-8a13-4845-9faf-ae69b548d714","system_id":"levelo_inurba_marseille","lat":43.29459,"lon":5.37917,"is_reserved":false,"is_disabled":true,"rental_uris":{"android":"levelo://app?vid=43746d86-8a13-4845-9faf-ae69b548d714","ios":"levelo://app?vid=43746d86-8a13-4845-9faf-ae69b548d714"},"vehicle_type_id":"4","last_reported":1732781614,"current_range_meters":0,"station_id":"","pricing_plan_id":"cebpf4jnsgd1na2vs0mg"},{"bike_id":"3e9b9a45-6232-4f9d-a4c7-c2bd33d21eb4","system_id":"levelo_inurba_marseille","lat":43.27217,"lon":5.39181,"is_reserved":false,"is_disabled":false,"rental_uris":{"android":"levelo://app?vid=3e9b9a45-6232-4f9d-a4c7-c2bd33d21eb4","ios":"levelo://app?vid=3e9b9a45-6232-4f9d-a4c7-c2bd33d21eb4"},"vehicle_type_id":"4","last_reported":1732781614,"current_range_meters":20400,"station_id":"ce4bhhp2rcd13ifvqfm0","pricing_plan_id":"cebpf4jnsgd1na2vs0mg"},{"bike_id":"d4d3bf99-3d6b-4c0b-a6cc-c388edb0382f","system_id":"levelo_inurba_marseille","lat":43.27495,"lon":5.42453,"is_reserved":false,"is_disabled":false,"rental_uris":{"android":"levelo://app?vid=d4d3bf99-3d6b-4c0b-a6cc-c388edb0382f","ios":"levelo://app?vid=d4d3bf99-3d6b-4c0b-a6cc-c388edb0382f"},"vehicle_type_id":"4","last_reported":1732781614,"current_range_meters":16000,"station_id":"ce4bhn92rcd13ifvqgrg","pricing_plan_id":"cebpf4jnsgd1na2vs0mg"},{"bike_id":"df76b7bf-b879-4e94-9796-439ee296ef0a","system_id":"levelo_inurba_marseille","lat":43.22936,"lon":5.35375,"is_reserved":false,"is_disabled":false,"rental_uris":{"android":"levelo://app?vid=df76b7bf-b879-4e94-9796-439ee296ef0a","ios":"levelo://app?vid=df76b7bf-b879-4e94-9796-439ee296ef0a"},"vehicle_type_id":"4","last_reported":1732781614,"current_range_meters":32400,"station_id":"cpo3532slgdg3j2ikp40","pricing_plan_id":"cebpf4jnsgd1na2vs0mg"},{"bike_id":"206766ee-92c6-4c16-90ce-cc251e811fe8","system_id":"levelo_inurba_marseille","lat":43.24077,"lon":5.37757,"is_reserved":false,"is_disabled":false,"rental_uris":{"android":"levelo://app?vid=206766ee-92c6-4c16-90ce-cc251e811fe8","ios":"levelo://app?vid=206766ee-92c6-4c16-90ce-cc251e811fe8"},"vehicle_type_id":"4","last_reported":1732781614,"current_range_meters":16000,"station_id":"ce4bhnp2rcd13ifvqgvg","pricing_plan_id":"cebpf4jnsgd1na2vs0mg"},{"bike_id":"5085b489-bb45-4e07-afa9-83137ee0aad6","system_id":"levelo_inurba_marseille","lat":43.26943,"lon":5.40247,"is_reserved":false,"is_disabled":false,"rental_uris":{"android":"levelo://app?vid=5085b489-bb45-4e07-afa9-83137ee0aad6","ios":"levelo://app?vid=5085b489-bb45-4e07-afa9-83137ee0aad6"},"vehicle_type_id":"4","last_reported":1732781614,"current_range_meters":28000,"station_id":"cjm6bp8fraef2m0cb0m0","pricing_plan_id":"cebpf4jnsgd1na2vs0mg"},{"bike_id":"b7dcc646-cfc8-48df-80d3-593dce9d9038","system_id":"levelo_inurba_marseille","lat":43.32536,"lon":5.41438,"is_reserved":false,"is_disabled":true,"rental_uris":{"android":"levelo://app?vid=b7dcc646-cfc8-48df-80d3-593dce9d9038","ios":"levelo://app?vid=b7dcc646-cfc8-48df-80d3-593dce9d9038"},"vehicle_type_id":"4","last_reported":1732781614,"current_range_meters":36400,"station_id":"ce4bhq12rcd13ifvqhhg","pricing_plan_id":"cebpf4jnsgd1na2vs0mg"},{"bike_id":"005f3369-cd11-4176-894a-ce5b0b7107d9","system_id":"levelo_inurba_marseille","lat":43.28275,"lon":5.35075,"is_reserved":false,"is_disabled":false,"rental_uris":{"android":"levelo://app?vid=005f3369-cd11-4176-894a-ce5b0b7107d9","ios":"levelo://app?vid=005f3369-cd11-4176-894a-ce5b0b7107d9"},"vehicle_type_id":"4","last_reported":1732781614,"current_range_meters":25600,"station_id":"ce4bhbp2rcd13ifvqerg","pricing_plan_id":"cebpf4jnsgd1na2vs0mg"},{"bike_id":"846ccbe1-a5f5-47e8-aa69-0134ecd0d641","system_id":"levelo_inurba_marseille","lat":43.29515,"lon":5.37513,"is_reserved":false,"is_disabled":false,"rental_uris":{"android":"levelo://app?vid=846ccbe1-a5f5-47e8-aa69-0134ecd0d641","ios":"levelo://app?vid=846ccbe1-a5f5-47e8-aa69-0134ecd0d641"},"vehicle_type_id":"4","last_reported":1732781614,"current_range_meters":38000,"station_id":"ce4bgkp2rcd13ifvqbmg","pricing_plan_id":"cebpf4jnsgd1na2vs0mg"},{"bike_id":"7850b5a3-047b-4ac7-ba36-9800297e2ebc","system_id":"levelo_inurba_marseille","lat":43.27379,"lon":5.36252,"is_reserved":false,"is_disabled":false,"rental_uris":{"android":"levelo://app?vid=7850b5a3-047b-4ac7-ba36-9800297e2ebc","ios":"levelo://app?vid=7850b5a3-047b-4ac7-ba36-9800297e2ebc"},"vehicle_type_id":"4","last_reported":1732781614,"current_range_meters":27600,"station_id":"ce4bhbh2rcd13ifvqeo0","pricing_plan_id":"cebpf4jnsgd1na2vs0mg"},{"bike_id":"8e4fc7bb-fccf-4550-846f-6e004dcdff9a","system_id":"levelo_inurba_marseille","lat":43.31345,"lon":5.36708,"is_reserved":false,"is_disabled":true,"rental_uris":{"android":"levelo://app?vid=8e4fc7bb-fccf-4550-846f-6e004dcdff9a","ios":"levelo://app?vid=8e4fc7bb-fccf-4550-846f-6e004dcdff9a"},"vehicle_type_id":"4","last_reported":1732781614,"current_range_meters":400,"station_id":"ce4bgr92rcd13ifvqc6g","pricing_plan_id":"cebpf4jnsgd1na2vs0mg"},{"bike_id":"c7c8eb9f-a72f-46cc-a7d7-36fb49eb8a83","system_id":"levelo_inurba_marseille","lat":43.337444,"lon":5.374475,"is_reserved":false,"is_disabled":true,"rental_uris":{"android":"levelo://app?vid=c7c8eb9f-a72f-46cc-a7d7-36fb49eb8a83","ios":"levelo://app?vid=c7c8eb9f-a72f-46cc-a7d7-36fb49eb8a83"},"vehicle_type_id":"4","last_reported":1732781614,"current_range_meters":0,"station_id":"","pricing_plan_id":"cebpf4jnsgd1na2vs0mg"},{"bike_id":"afcbf404-191b-4a78-b041-e0f304a8fae1","system_id":"levelo_inurba_marseille","lat":43.30452,"lon":5.37917,"is_reserved":false,"is_disabled":false,"rental_uris":{"android":"levelo://app?vid=afcbf404-191b-4a78-b041-e0f304a8fae1","ios":"levelo://app?vid=afcbf404-191b-4a78-b041-e0f304a8fae1"},"vehicle_type_id":"4","last_reported":1732781614,"current_range_meters":27200,"station_id":"ce4bgup2rcd13ifvqcn0","pricing_plan_id":"cebpf4jnsgd1na2vs0mg"},{"bike_id":"9b23f344-73bd-43ab-abe4-959978e3c65e","system_id":"levelo_inurba_marseille","lat":43.30156,"lon":5.38075,"is_reserved":false,"is_disabled":false,"rental_uris":{"android":"levelo://app?vid=9b23f344-73bd-43ab-abe4-959978e3c65e","ios":"levelo://app?vid=9b23f344-73bd-43ab-abe4-959978e3c65e"},"vehicle_type_id":"4","last_reported":1732781614,"current_range_meters":28000,"station_id":"ce4bgjp2rcd13ifvqbh0","pricing_plan_id":"cebpf4jnsgd1na2vs0mg"},{"bike_id":"c6325a88-ed39-4127-829c-9a431931c942","system_id":"levelo_inurba_marseille","lat":43.28156,"lon":5.42646,"is_reserved":false,"is_disabled":false,"rental_uris":{"android":"levelo://app?vid=c6325a88-ed39-4127-829c-9a431931c942","ios":"levelo://app?vid=c6325a88-ed39-4127-829c-9a431931c942"},"vehicle_type_id":"4","last_reported":1732781614,"current_range_meters":11600,"station_id":"ce4bhnh2rcd13ifvqgug","pricing_plan_id":"cebpf4jnsgd1na2vs0mg"},{"bike_id":"3ac8cc29-5bee-4813-a22f-73d61ea31490","system_id":"levelo_inurba_marseille","lat":43.30212,"lon":5.39463,"is_reserved":false,"is_disabled":true,"rental_uris":{"android":"levelo://app?vid=3ac8cc29-5bee-4813-a22f-73d61ea31490","ios":"levelo://app?vid=3ac8cc29-5bee-4813-a22f-73d61ea31490"},"vehicle_type_id":"4","last_reported":1732781614,"current_range_meters":0,"station_id":"ce4bh0p2rcd13ifvqd70","pricing_plan_id":"cebpf4jnsgd1na2vs0mg"},{"bike_id":"f63adcdc-7762-465d-90eb-d1a63676c13e","system_id":"levelo_inurba_marseille","lat":43.24074,"lon":5.37757,"is_reserved":false,"is_disabled":false,"rental_uris":{"android":"levelo://app?vid=f63adcdc-7762-465d-90eb-d1a63676c13e","ios":"levelo://app?vid=f63adcdc-7762-465d-90eb-d1a63676c13e"},"vehicle_type_id":"4","last_reported":1732781614,"current_range_meters":36400,"station_id":"ce4bhnp2rcd13ifvqgvg","pricing_plan_id":"cebpf4jnsgd1na2vs0mg"},{"bike_id":"fc4d15f5-6256-45a3-90d6-77bb4c676955","system_id":"levelo_inurba_marseille","lat":43.296284,"lon":5.377877,"is_reserved":false,"is_disabled":true,"rental_uris":{"android":"levelo://app?vid=fc4d15f5-6256-45a3-90d6-77bb4c676955","ios":"levelo://app?vid=fc4d15f5-6256-45a3-90d6-77bb4c676955"},"vehicle_type_id":"4","last_reported":1732781614,"current_range_meters":34800,"station_id":"","pricing_plan_id":"cebpf4jnsgd1na2vs0mg"},{"bike_id":"8a6d2d87-b63e-4f2d-a6bb-a798f0427308","system_id":"levelo_inurba_marseille","lat":43.27816,"lon":5.40714,"is_reserved":false,"is_disabled":true,"rental_uris":{"android":"levelo://app?vid=8a6d2d87-b63e-4f2d-a6bb-a798f0427308","ios":"levelo://app?vid=8a6d2d87-b63e-4f2d-a6bb-a798f0427308"},"vehicle_type_id":"4","last_reported":1732781614,"current_range_meters":38800,"station_id":"ce4bhnh2rcd13ifvqgtg","pricing_plan_id":"cebpf4jnsgd1na2vs0mg"},{"bike_id":"c88f8730-1176-4717-97e2-17c27b15274f","system_id":"levelo_inurba_marseille","lat":43.23195,"lon":5.35545,"is_reserved":false,"is_disabled":true,"rental_uris":{"android":"levelo://app?vid=c88f8730-1176-4717-97e2-17c27b15274f","ios":"levelo://app?vid=c88f8730-1176-4717-97e2-17c27b15274f"},"vehicle_type_id":"4","last_reported":1732781614,"current_range_meters":0,"station_id":"ce4bhu92rcd13ifvqi70","pricing_plan_id":"cebpf4jnsgd1na2vs0mg"},{"bike_id":"ae83e13e-277b-4f16-bea8-fb9d89f73830","system_id":"levelo_inurba_marseille","lat":43.34157,"lon":5.40898,"is_reserved":false,"is_disabled":false,"rental_uris":{"android":"levelo://app?vid=ae83e13e-277b-4f16-bea8-fb9d89f73830","ios":"levelo://app?vid=ae83e13e-277b-4f16-bea8-fb9d89f73830"},"vehicle_type_id":"4","last_reported":1732781614,"current_range_meters":34800,"station_id":"ce4bhqh2rcd13ifvqhlg","pricing_plan_id":"cebpf4jnsgd1na2vs0mg"},{"bike_id":"8824e813-2399-43f4-89c4-da61b1288a95","system_id":"levelo_inurba_marseille","lat":43.30471,"lon":5.37905,"is_reserved":false,"is_disabled":false,"rental_uris":{"android":"levelo://app?vid=8824e813-2399-43f4-89c4-da61b1288a95","ios":"levelo://app?vid=8824e813-2399-43f4-89c4-da61b1288a95"},"vehicle_type_id":"4","last_reported":1732781614,"current_range_meters":7200,"station_id":"ce4bgup2rcd13ifvqcn0","pricing_plan_id":"cebpf4jnsgd1na2vs0mg"},{"bike_id":"d1f94dd4-9601-4826-9123-429c805265c9","system_id":"levelo_inurba_marseille","lat":43.32291,"lon":5.38272,"is_reserved":false,"is_disabled":false,"rental_uris":{"android":"levelo://app?vid=d1f94dd4-9601-4826-9123-429c805265c9","ios":"levelo://app?vid=d1f94dd4-9601-4826-9123-429c805265c9"},"vehicle_type_id":"4","last_reported":1732781614,"current_range_meters":22400,"station_id":"ce4bhr12rcd13ifvqhqg","pricing_plan_id":"cebpf4jnsgd1na2vs0mg"},{"bike_id":"b6ed1910-de57-401d-8b1d-af35755f9004","system_id":"levelo_inurba_marseille","lat":43.27955,"lon":5.41053,"is_reserved":false,"is_disabled":true,"rental_uris":{"android":"levelo://app?vid=b6ed1910-de57-401d-8b1d-af35755f9004","ios":"levelo://app?vid=b6ed1910-de57-401d-8b1d-af35755f9004"},"vehicle_type_id":"4","last_reported":1732781614,"current_range_meters":30800,"station_id":"ce4bhnp2rcd13ifvqh0g","pricing_plan_id":"cebpf4jnsgd1na2vs0mg"},{"bike_id":"32a151d9-7005-40eb-a8f7-814ea7e149e3","system_id":"levelo_inurba_marseille","lat":43.30538,"lon":5.36528,"is_reserved":false,"is_disabled":false,"rental_uris":{"android":"levelo://app?vid=32a151d9-7005-40eb-a8f7-814ea7e149e3","ios":"levelo://app?vid=32a151d9-7005-40eb-a8f7-814ea7e149e3"},"vehicle_type_id":"4","last_reported":1732781614,"current_range_meters":38800,"station_id":"ce4bgs12rcd13ifvqcag","pricing_plan_id":"cebpf4jnsgd1na2vs0mg"},{"bike_id":"248c1499-eeac-4495-b648-2f5a2c31833a","system_id":"levelo_inurba_marseille","lat":43.24075,"lon":5.37759,"is_reserved":false,"is_disabled":false,"rental_uris":{"android":"levelo://app?vid=248c1499-eeac-4495-b648-2f5a2c31833a","ios":"levelo://app?vid=248c1499-eeac-4495-b648-2f5a2c31833a"},"vehicle_type_id":"4","last_reported":1732781614,"current_range_meters":31200,"station_id":"ce4bhnp2rcd13ifvqgvg","pricing_plan_id":"cebpf4jnsgd1na2vs0mg"},{"bike_id":"83ae774f-d697-43df-8530-7ce8a79b99ff","system_id":"levelo_inurba_marseille","lat":43.24543,"lon":5.39525,"is_reserved":false,"is_disabled":false,"rental_uris":{"android":"levelo://app?vid=83ae774f-d697-43df-8530-7ce8a79b99ff","ios":"levelo://app?vid=83ae774f-d697-43df-8530-7ce8a79b99ff"},"vehicle_type_id":"4","last_reported":1732781614,"current_range_meters":30800,"station_id":"ce4bhlp2rcd13ifvqgjg","pricing_plan_id":"cebpf4jnsgd1na2vs0mg"},{"bike_id":"3d27800c-ba66-4de2-aa12-1100555b8cf4","system_id":"levelo_inurba_marseille","lat":43.23153,"lon":5.43711,"is_reserved":false,"is_disabled":false,"rental_uris":{"android":"levelo://app?vid=3d27800c-ba66-4de2-aa12-1100555b8cf4","ios":"levelo://app?vid=3d27800c-ba66-4de2-aa12-1100555b8cf4"},"vehicle_type_id":"4","last_reported":1732781614,"current_range_meters":38800,"station_id":"ce4bhmp2rcd13ifvqgog","pricing_plan_id":"cebpf4jnsgd1na2vs0mg"},{"bike_id":"444a0c26-5a81-4cec-b68d-e3dcdca8695e","system_id":"levelo_inurba_marseille","lat":43.26566,"lon":5.39009,"is_reserved":false,"is_disabled":false,"rental_uris":{"android":"levelo://app?vid=444a0c26-5a81-4cec-b68d-e3dcdca8695e","ios":"levelo://app?vid=444a0c26-5a81-4cec-b68d-e3dcdca8695e"},"vehicle_type_id":"4","last_reported":1732781614,"current_range_meters":25600,"station_id":"ce4bhe12rcd13ifvqf30","pricing_plan_id":"cebpf4jnsgd1na2vs0mg"},{"bike_id":"e54f0174-c7bd-4711-b39d-83487d0a1cd5","system_id":"levelo_inurba_marseille","lat":43.295637,"lon":5.422909,"is_reserved":false,"is_disabled":false,"rental_uris":{"android":"levelo://app?vid=e54f0174-c7bd-4711-b39d-83487d0a1cd5","ios":"levelo://app?vid=e54f0174-c7bd-4711-b39d-83487d0a1cd5"},"vehicle_type_id":"4","last_reported":1732781614,"current_range_meters":38800,"station_id":"ce4bhph2rcd13ifvqhdg","pricing_plan_id":"cebpf4jnsgd1na2vs0mg"},{"bike_id":"4c79d9a9-6ff6-41c5-baad-233d4aa061ac","system_id":"levelo_inurba_marseille","lat":43.33617,"lon":5.41028,"is_reserved":false,"is_disabled":true,"rental_uris":{"android":"levelo://app?vid=4c79d9a9-6ff6-41c5-baad-233d4aa061ac","ios":"levelo://app?vid=4c79d9a9-6ff6-41c5-baad-233d4aa061ac"},"vehicle_type_id":"4","last_reported":1732781614,"current_range_meters":22800,"station_id":"ce4bhqh2rcd13ifvqhmg","pricing_plan_id":"cebpf4jnsgd1na2vs0mg"},{"bike_id":"3d4db1bd-67f5-4f64-8185-d8f7cb1c2231","system_id":"levelo_inurba_marseille","lat":43.25007,"lon":5.38925,"is_reserved":false,"is_disabled":false,"rental_uris":{"android":"levelo://app?vid=3d4db1bd-67f5-4f64-8185-d8f7cb1c2231","ios":"levelo://app?vid=3d4db1bd-67f5-4f64-8185-d8f7cb1c2231"},"vehicle_type_id":"4","last_reported":1732781614,"current_range_meters":38800,"station_id":"ce4bhgp2rcd13ifvqfd0","pricing_plan_id":"cebpf4jnsgd1na2vs0mg"},{"bike_id":"fd3bc6ec-4d65-4b8c-9c39-97b686e3b390","system_id":"levelo_inurba_marseille","lat":43.32535,"lon":5.41437,"is_reserved":false,"is_disabled":false,"rental_uris":{"android":"levelo://app?vid=fd3bc6ec-4d65-4b8c-9c39-97b686e3b390","ios":"levelo://app?vid=fd3bc6ec-4d65-4b8c-9c39-97b686e3b390"},"vehicle_type_id":"4","last_reported":1732781614,"current_range_meters":25200,"station_id":"ce4bhq12rcd13ifvqhhg","pricing_plan_id":"cebpf4jnsgd1na2vs0mg"},{"bike_id":"97fe0f38-53f3-416b-a627-a69988dfdc04","system_id":"levelo_inurba_marseille","lat":43.24078,"lon":5.3776,"is_reserved":false,"is_disabled":false,"rental_uris":{"android":"levelo://app?vid=97fe0f38-53f3-416b-a627-a69988dfdc04","ios":"levelo://app?vid=97fe0f38-53f3-416b-a627-a69988dfdc04"},"vehicle_type_id":"4","last_reported":1732781614,"current_range_meters":4800,"station_id":"ce4bhnp2rcd13ifvqgvg","pricing_plan_id":"cebpf4jnsgd1na2vs0mg"},{"bike_id":"9c9010cc-7085-44d2-a1f8-67d49b291235","system_id":"levelo_inurba_marseille","lat":43.26946,"lon":5.40257,"is_reserved":false,"is_disabled":false,"rental_uris":{"android":"levelo://app?vid=9c9010cc-7085-44d2-a1f8-67d49b291235","ios":"levelo://app?vid=9c9010cc-7085-44d2-a1f8-67d49b291235"},"vehicle_type_id":"4","last_reported":1732781614,"current_range_meters":38800,"station_id":"cjm6bp8fraef2m0cb0m0","pricing_plan_id":"cebpf4jnsgd1na2vs0mg"},{"bike_id":"a80ef79c-1720-4523-a8b0-ceb28b209010","system_id":"levelo_inurba_marseille","lat":43.29181,"lon":5.35702,"is_reserved":false,"is_disabled":false,"rental_uris":{"android":"levelo://app?vid=a80ef79c-1720-4523-a8b0-ceb28b209010","ios":"levelo://app?vid=a80ef79c-1720-4523-a8b0-ceb28b209010"},"vehicle_type_id":"4","last_reported":1732781614,"current_range_meters":38800,"station_id":"ce4bhhh2rcd13ifvqfk0","pricing_plan_id":"cebpf4jnsgd1na2vs0mg"},{"bike_id":"043f5c9b-bad8-4c39-bd58-5d220797dd06","system_id":"levelo_inurba_marseille","lat":43.30438,"lon":5.38884,"is_reserved":false,"is_disabled":false,"rental_uris":{"android":"levelo://app?vid=043f5c9b-bad8-4c39-bd58-5d220797dd06","ios":"levelo://app?vid=043f5c9b-bad8-4c39-bd58-5d220797dd06"},"vehicle_type_id":"4","last_reported":1732781614,"current_range_meters":34800,"station_id":"ce4bgk12rcd13ifvqbi0","pricing_plan_id":"cebpf4jnsgd1na2vs0mg"},{"bike_id":"570cbeff-9d9a-4582-8f89-dc4d015141f5","system_id":"levelo_inurba_marseille","lat":43.30154,"lon":5.38085,"is_reserved":false,"is_disabled":false,"rental_uris":{"android":"levelo://app?vid=570cbeff-9d9a-4582-8f89-dc4d015141f5","ios":"levelo://app?vid=570cbeff-9d9a-4582-8f89-dc4d015141f5"},"vehicle_type_id":"4","last_reported":1732781614,"current_range_meters":28800,"station_id":"ce4bgjp2rcd13ifvqbh0","pricing_plan_id":"cebpf4jnsgd1na2vs0mg"},{"bike_id":"f29fa8cb-a7a4-481b-af91-00b2ee7c8bb3","system_id":"levelo_inurba_marseille","lat":43.278726,"lon":5.388075,"is_reserved":false,"is_disabled":false,"rental_uris":{"android":"levelo://app?vid=f29fa8cb-a7a4-481b-af91-00b2ee7c8bb3","ios":"levelo://app?vid=f29fa8cb-a7a4-481b-af91-00b2ee7c8bb3"},"vehicle_type_id":"4","last_reported":1732781614,"current_range_meters":3200,"station_id":"","pricing_plan_id":"cebpf4jnsgd1na2vs0mg"},{"bike_id":"0963a0a7-6b59-4f21-8c23-d2110dec0c86","system_id":"levelo_inurba_marseille","lat":43.3361,"lon":5.41029,"is_reserved":false,"is_disabled":false,"rental_uris":{"android":"levelo://app?vid=0963a0a7-6b59-4f21-8c23-d2110dec0c86","ios":"levelo://app?vid=0963a0a7-6b59-4f21-8c23-d2110dec0c86"},"vehicle_type_id":"4","last_reported":1732781614,"current_range_meters":30400,"station_id":"ce4bhqh2rcd13ifvqhmg","pricing_plan_id":"cebpf4jnsgd1na2vs0mg"},{"bike_id":"1a3dee30-d90a-46f4-828a-7bf72be44a66","system_id":"levelo_inurba_marseille","lat":43.23153,"lon":5.4369,"is_reserved":false,"is_disabled":false,"rental_uris":{"android":"levelo://app?vid=1a3dee30-d90a-46f4-828a-7bf72be44a66","ios":"levelo://app?vid=1a3dee30-d90a-46f4-828a-7bf72be44a66"},"vehicle_type_id":"4","last_reported":1732781614,"current_range_meters":9200,"station_id":"ce4bhmp2rcd13ifvqgog","pricing_plan_id":"cebpf4jnsgd1na2vs0mg"},{"bike_id":"b4d0a8cb-2a29-4408-b4a9-67ae488485ff","system_id":"levelo_inurba_marseille","lat":43.337444,"lon":5.374475,"is_reserved":false,"is_disabled":false,"rental_uris":{"android":"levelo://app?vid=b4d0a8cb-2a29-4408-b4a9-67ae488485ff","ios":"levelo://app?vid=b4d0a8cb-2a29-4408-b4a9-67ae488485ff"},"vehicle_type_id":"4","last_reported":1732781614,"current_range_meters":38800,"station_id":"","pricing_plan_id":"cebpf4jnsgd1na2vs0mg"},{"bike_id":"3a3f9a74-f652-47bb-91e2-6dfcaa014a63","system_id":"levelo_inurba_marseille","lat":43.28477,"lon":5.38418,"is_reserved":false,"is_disabled":false,"rental_uris":{"android":"levelo://app?vid=3a3f9a74-f652-47bb-91e2-6dfcaa014a63","ios":"levelo://app?vid=3a3f9a74-f652-47bb-91e2-6dfcaa014a63"},"vehicle_type_id":"4","last_reported":1732781614,"current_range_meters":38800,"station_id":"ce4bh512rcd13ifvqe3g","pricing_plan_id":"cebpf4jnsgd1na2vs0mg"},