{"last_updated":1703516866,"ttl":30,"version":"2.2","data":{"bikes":[{"bike_id":"82e5abee-ec53-484a-a44b-f2d492dced4d","system_id":"levelo_inurba_marseille","lat":43.309039,"lon":5.371797,"is_reserved":false,"is_disabled":false,"rental_uris":{"android":"levelo://app?vid=82e5abee-ec53-484a-a44b-f2d492dced4d","ios":"levelo://app?vid=82e5abee-ec53-484a-a44b-f2d492dced4d"},"vehicle_type_id":"4","last_reported":1703516866,"current_range_meters":23200,"station_id":"ce4bguh2rcd13ifvqckg","pricing_plan_id":"free"},{"bike_id":"51d15c59-0b4b-4c40-8eca-7b2d5c3e4b74","system_id":"levelo_inurba_marseille","lat":43.309039,"lon":5.371797,"is_reserved":false,"is_disabled":false,"rental_uris":{"android":"levelo://app?vid=51d15c59-0b4b-4c40-8eca-7b2d5c3e4b74","ios":"levelo://app?vid=51d15c59-0b4b-4c40-8eca-7b2d5c3e4b74"},"vehicle_type_id":"4","last_reported":1703516866,"current_range_meters":20800,"station_id":"ce4bguh2rcd13ifvqckg","pricing_plan_id":"free"},{"bike_id":"d2be49f4-d512-450f-80de-370a6da97420","system_id":"levelo_inurba_marseille","lat":43.318964,"lon":5.36877,"is_reserved":false,"is_disabled":false,"rental_uris":{"android":"levelo://app?vid=d2be49f4-d512-450f-80de-370a6da97420","ios":"levelo://app?vid=d2be49f4-d512-450f-80de-370a6da97420"},"vehicle_type_id":"4","last_reported":1703516866,"current_range_meters":10400,"station_id":"","pricing_plan_id":"free"},{"bike_id":"cc2f4e4f-2b28-4e84-be8f-32c8a171c9e1","system_id":"levelo_inurba_marseille","lat":43.313363,"lon":5.376227,"is_reserved":false,"is_disabled":false,"rental_uris":{"android":"levelo://app?vid=cc2f4e4f-2b28-4e84-be8f-32c8a171c9e1","ios":"levelo://app?vid=cc2f4e4f-2b28-4e84-be8f-32c8a171c9e1"},"vehicle_type_id":"4","last_reported":1703516866,"current_range_meters":27600,"station_id":"","pricing_plan_id":"free"},{"bike_id":"1a71022c-fdb5-4632-a425-38d7ef4f21e4","system_id":"levelo_inurba_marseille","lat":43.318369,"lon":5.373936,"is_reserved":false,"is_disabled":false,"rental_uris":{"android":"levelo://app?vid=1a71022c-fdb5-4632-a425-38d7ef4f21e4","ios":"levelo://app?vid=1a71022c-fdb5-4632-a425-38d7ef4f21e4"},"vehicle_type_id":"4","last_reported":1703516866,"current_range_meters":0,"station_id":"","pricing_plan_id":"free"},{"bike_id":"7a4c84cb-8890-42a6-aebe-2e9bc544027d","system_id":"levelo_inurba_marseille","lat":43.305989,"lon":5.37225,"is_reserved":false,"is_disabled":false,"rental_uris":{"android":"levelo://app?vid=7a4c84cb-8890-42a6-aebe-2e9bc544027d","ios":"levelo://app?vid=7a4c84cb-8890-42a6-aebe-2e9bc544027d"},"vehicle_type_id":"4","last_reported":1703516866,"current_range_meters":16400,"station_id":"ce4bgqh2rcd13ifvqc4g","pricing_plan_id":"free"},{"bike_id":"969b7981-79e6-4eaf-8a61-608a681bbc7c","system_id":"levelo_inurba_marseille","lat":43.311131,"lon":5.377651,"is_reserved":false,"is_disabled":false,"rental_uris":{"android":"levelo://app?vid=969b7981-79e6-4eaf-8a61-608a681bbc7c","ios":"levelo://app?vid=969b7981-79e6-4eaf-8a61-608a681bbc7c"},"vehicle_type_id":"4","last_reported":1703516866,"current_range_meters":19200,"station_id":"ce4bgt92rcd13ifvqcg0","pricing_plan_id":"free"},{"bike_id":"fc05bf8c-a50a-4d7f-a001-3adab982e7b4","system_id":"levelo_inurba_marseille","lat":43.311131,"lon":5.377651,"is_reserved":false,"is_disabled":false,"rental_uris":{"android":"levelo://app?vid=fc05bf8c-a50a-4d7f-a001-3adab982e7b4","ios":"levelo://app?vid=fc05bf8c-a50a-4d7f-a001-3adab982e7b4"},"vehicle_type_id":"4","last_reported":1703516866,"current_range_meters":17200,"station_id":"ce4bgt92rcd13ifvqcg0","pricing_plan_id":"free"},{"bike_id":"cff59069-6acf-4131-98a4-592142c6af4f","system_id":"levelo_inurba_marseille","lat":43.311125,"lon":5.377624,"is_reserved":false,"is_disabled":false,"rental_uris":{"android":"levelo://app?vid=cff59069-6acf-4131-98a4-592142c6af4f","ios":"levelo://app?vid=cff59069-6acf-4131-98a4-592142c6af4f"},"vehicle_type_id":"4","last_reported":1703516866,"current_range_meters":24400,"station_id":"ce4bgt92rcd13ifvqcg0","pricing_plan_id":"free"},{"bike_id":"f9b7b142-dae9-4c7f-a60e-059c4b240af6","system_id":"levelo_inurba_marseille","lat":43.311226,"lon":5.377736,"is_reserved":false,"is_disabled":false,"rental_uris":{"android":"levelo://app?vid=f9b7b142-dae9-4c7f-a60e-059c4b240af6","ios":"levelo://app?vid=f9b7b142-dae9-4c7f-a60e-059c4b240af6"},"vehicle_type_id":"4","last_reported":1703516866,"current_range_meters":16400,"station_id":"ce4bgt92rcd13ifvqcg0","pricing_plan_id":"free"},{"bike_id":"32662217-2f4b-4030-ab27-1739ad5e1fe2","system_id":"levelo_inurba_marseille","lat":43.317075,"lon":5.377367,"is_reserved":false,"is_disabled":false,"rental_uris":{"android":"levelo://app?vid=32662217-2f4b-4030-ab27-1739ad5e1fe2","ios":"levelo://app?vid=32662217-2f4b-4030-ab27-1739ad5e1fe2"},"vehicle_type_id":"4","last_reported":1703516866,"current_range_meters":20000,"station_id":"ce4bgth2rcd13ifvqch0","pricing_plan_id":"free"},{"bike_id":"c0634b19-49df-4785-aa86-c0ec9252848f","system_id":"levelo_inurba_marseille","lat":43.317075,"lon":5.377367,"is_reserved":false,"is_disabled":false,"rental_uris":{"android":"levelo://app?vid=c0634b19-49df-4785-aa86-c0ec9252848f","ios":"levelo://app?vid=c0634b19-49df-4785-aa86-c0ec9252848f"},"vehicle_type_id":"4","last_reported":1703516866,"current_range_meters":21600,"station_id":"ce4bgth2rcd13ifvqch0","pricing_plan_id":"free"},{"bike_id":"8aa0e568-a614-460d-9775-0fff663cacf7","system_id":"levelo_inurba_marseille","lat":43.317075,"lon":5.377367,"is_reserved":false,"is_disabled":false,"rental_uris":{"android":"levelo://app?vid=8aa0e568-a614-460d-9775-0fff663cacf7","ios":"levelo://app?vid=8aa0e568-a614-460d-9775-0fff663cacf7"},"vehicle_type_id":"4","last_reported":1703516866,"current_range_meters":28000,"station_id":"ce4bgth2rcd13ifvqch0","pricing_plan_id":"free"},{"bike_id":"71da62ae-ea20-4849-8b66-4a30f725eb8e","system_id":"levelo_inurba_marseille","lat":43.317075,"lon":5.377367,"is_reserved":false,"is_disabled":false,"rental_uris":{"android":"levelo://app?vid=71da62ae-ea20-4849-8b66-4a30f725eb8e","ios":"levelo://app?vid=71da62ae-ea20-4849-8b66-4a30f725eb8e"},"vehicle_type_id":"4","last_reported":1703516866,"current_range_meters":30400,"station_id":"ce4bgth2rcd13ifvqch0","pricing_plan_id":"free"},{"bike_id":"8fe2e1fd-4634-498f-b164-0fa1a1a1263e","system_id":"levelo_inurba_marseille","lat":43.317075,"lon":5.377367,"is_reserved":false,"is_disabled":false,"rental_uris":{"android":"levelo://app?vid=8fe2e1fd-4634-498f-b164-0fa1a1a1263e","ios":"levelo://app?vid=8fe2e1fd-4634-498f-b164-0fa1a1a1263e"},"vehicle_type_id":"4","last_reported":1703516866,"current_range_meters":18800,"station_id":"ce4bgth2rcd13ifvqch0","pricing_plan_id":"free"},{"bike_id":"7f46d341-5f6b-4294-b9f0-3b4ab0f4c354","system_id":"levelo_inurba_marseille","lat":43.317075,"lon":5.377367,"is_reserved":false,"is_disabled":false,"rental_uris":{"android":"levelo://app?vid=7f46d341-5f6b-4294-b9f0-3b4ab0f4c354","ios":"levelo://app?vid=7f46d341-5f6b-4294-b9f0-3b4ab0f4c354"},"vehicle_type_id":"4","last_reported":1703516866,"current_range_meters":18400,"station_id":"ce4bgth2rcd13ifvqch0","pricing_plan_id":"free"},{"bike_id":"40693353-b0a1-417c-b954-405d529ef2a4","system_id":"levelo_inurba_marseille","lat":43.317075,"lon":5.377367,"is_reserved":false,"is_disabled":false,"rental_uris":{"android":"levelo://app?vid=40693353-b0a1-417c-b954-405d529ef2a4","ios":"levelo://app?vid=40693353-b0a1-417c-b954-405d529ef2a4"},"vehicle_type_id":"4","last_reported":1703516866,"current_range_meters":31600,"station_id":"ce4bgth2rcd13ifvqch0","pricing_plan_id":"free"},{"bike_id":"8707c2d4-2376-4897-a4cf-e6b1e82d0f51","system_id":"levelo_inurba_marseille","lat":43.315293,"lon":5.380349,"is_reserved":false,"is_disabled":false,"rental_uris":{"android":"levelo://app?vid=8707c2d4-2376-4897-a4cf-e6b1e82d0f51","ios":"levelo://app?vid=8707c2d4-2376-4897-a4cf-e6b1e82d0f51"},"vehicle_type_id":"4","last_reported":1703516866,"current_range_meters":21600,"station_id":"ce4bhsp2rcd13ifvqi50","pricing_plan_id":"free"},{"bike_id":"e6eefbd8-ecea-42cb-8c7a-0640952ddaea","system_id":"levelo_inurba_marseille","lat":43.31778,"lon":5.37908,"is_reserved":false,"is_disabled":false,"rental_uris":{"android":"levelo://app?vid=e6eefbd8-ecea-42cb-8c7a-0640952ddaea","ios":"levelo://app?vid=e6eefbd8-ecea-42cb-8c7a-0640952ddaea"},"vehicle_type_id":"4","last_reported":1703516866,"current_range_meters":23200,"station_id":"","pricing_plan_id":"free"},{"bike_id":"67f53113-bf46-4315-a50b-27f21e9dd5e0","system_id":"levelo_inurba_marseille","lat":43.31539,"lon":5.38044,"is_reserved":false,"is_disabled":false,"rental_uris":{"android":"levelo://app?vid=67f53113-bf46-4315-a50b-27f21e9dd5e0","ios":"levelo://app?vid=67f53113-bf46-4315-a50b-27f21e9dd5e0"},"vehicle_type_id":"4","last_reported":1703516866,"current_range_meters":27200,"station_id":"","pricing_plan_id":"free"},{"bike_id":"63b6e0bb-5501-419a-b780-c058590cbaae","system_id":"levelo_inurba_marseille","lat":43.308012,"lon":5.381511,"is_reserved":false,"is_disabled":false,"rental_uris":{"android":"levelo://app?vid=63b6e0bb-5501-419a-b780-c058590cbaae","ios":"levelo://app?vid=63b6e0bb-5501-419a-b780-c058590cbaae"},"vehicle_type_id":"4","last_reported":1703516866,"current_range_meters":28800,"station_id":"ce4bgt12rcd13ifvqce0","pricing_plan_id":"free"},{"bike_id":"809faa9e-e50b-48d7-bd51-c19cfa6e7724","system_id":"levelo_inurba_marseille","lat":43.308012,"lon":5.381511,"is_reserved":false,"is_disabled":false,"rental_uris":{"android":"levelo://app?vid=809faa9e-e50b-48d7-bd51-c19cfa6e7724","ios":"levelo://app?vid=809faa9e-e50b-48d7-bd51-c19cfa6e7724"},"vehicle_type_id":"4","last_reported":1703516866,"current_range_meters":25600,"station_id":"ce4bgt12rcd13ifvqce0","pricing_plan_id":"free"},{"bike_id":"290b1180-bd6f-44a8-a276-1ebefa73fb5b","system_id":"levelo_inurba_marseille","lat":43.308012,"lon":5.381511,"is_reserved":false,"is_disabled":false,"rental_uris":{"android":"levelo://app?vid=290b1180-bd6f-44a8-a276-1ebefa73fb5b","ios":"levelo://app?vid=290b1180-bd6f-44a8-a276-1ebefa73fb5b"},"vehicle_type_id":"4","last_reported":1703516866,"current_range_meters":19600,"station_id":"ce4bgt12rcd13ifvqce0","pricing_plan_id":"free"},{"bike_id":"f0dd26d1-0f7c-46ad-b527-49e46a0642c7","system_id":"levelo_inurba_marseille","lat":43.308012,"lon":5.381511,"is_reserved":false,"is_disabled":false,"rental_uris":{"android":"levelo://app?vid=f0dd26d1-0f7c-46ad-b527-49e46a0642c7","ios":"levelo://app?vid=f0dd26d1-0f7c-46ad-b527-49e46a0642c7"},"vehicle_type_id":"4","last_reported":1703516866,"current_range_meters":28000,"station_id":"ce4bgt12rcd13ifvqce0","pricing_plan_id":"free"},{"bike_id":"750a8671-3c56-4d36-8e3e-3a548976d743","system_id":"levelo_inurba_marseille","lat":43.308012,"lon":5.381511,"is_reserved":false,"is_disabled":false,"rental_uris":{"android":"levelo://app?vid=750a8671-3c56-4d36-8e3e-3a548976d743","ios":"levelo://app?vid=750a8671-3c56-4d36-8e3e-3a548976d743"},"vehicle_type_id":"4","last_reported":1703516866,"current_range_meters":12400,"station_id":"ce4bgt12rcd13ifvqce0","pricing_plan_id":"free"},{"bike_id":"cbea6b5c-3dfe-4c04-90a2-dd4597f4b966","system_id":"levelo_inurba_marseille","lat":43.308012,"lon":5.381511,"is_reserved":false,"is_disabled":false,"rental_uris":{"android":"levelo://app?vid=cbea6b5c-3dfe-4c04-90a2-dd4597f4b966","ios":"levelo://app?vid=cbea6b5c-3dfe-4c04-90a2-dd4597f4b966"},"vehicle_type_id":"4","last_reported":1703516866,"current_range_meters":20000,"station_id":"ce4bgt12rcd13ifvqce0","pricing_plan_id":"free"},{"bike_id":"788910b7-7a9e-414f-96b6-2878d1ece141","system_id":"levelo_inurba_marseille","lat":43.304606,"lon":5.379026,"is_reserved":false,"is_disabled":false,"rental_uris":{"android":"levelo://app?vid=788910b7-7a9e-414f-96b6-2878d1ece141","ios":"levelo://app?vid=788910b7-7a9e-414f-96b6-2878d1ece141"},"vehicle_type_id":"4","last_reported":1703516866,"current_range_meters":14800,"station_id":"ce4bgup2rcd13ifvqcn0","pricing_plan_id":"free"},{"bike_id":"7a586bf0-15a1-4789-887c-99b8776a5aae","system_id":"levelo_inurba_marseille","lat":43.30466,"lon":5.37898,"is_reserved":false,"is_disabled":false,"rental_uris":{"android":"levelo://app?vid=7a586bf0-15a1-4789-887c-99b8776a5aae","ios":"levelo://app?vid=7a586bf0-15a1-4789-887c-99b8776a5aae"},"vehicle_type_id":"4","last_reported":1703516866,"current_range_meters":12400,"station_id":"ce4bgup2rcd13ifvqcn0","pricing_plan_id":"free"},{"bike_id":"2416236a-4937-429d-815b-b00dd2eceadf","system_id":"levelo_inurba_marseille","lat":43.304606,"lon":5.379026,"is_reserved":false,"is_disabled":false,"rental_uris":{"android":"levelo://app?vid=2416236a-4937-429d-815b-b00dd2eceadf","ios":"levelo://app?vid=2416236a-4937-429d-815b-b00dd2eceadf"},"vehicle_type_id":"4","last_reported":1703516866,"current_range_meters":31200,"station_id":"ce4bgup2rcd13ifvqcn0","pricing_plan_id":"free"},{"bike_id":"2802b683-b4c3-4f8e-ae5b-10d90c717eec","system_id":"levelo_inurba_marseille","lat":43.304606,"lon":5.379026,"is_reserved":false,"is_disabled":false,"rental_uris":{"android":"levelo://app?vid=2802b683-b4c3-4f8e-ae5b-10d90c717eec","ios":"levelo://app?vid=2802b683-b4c3-4f8e-ae5b-10d90c717eec"},"vehicle_type_id":"4","last_reported":1703516866,"current_range_meters":31200,"station_id":"ce4bgup2rcd13ifvqcn0","pricing_plan_id":"free"},{"bike_id":"9825545f-f70b-4330-b98c-b12abe0529be","system_id":"levelo_inurba_marseille","lat":43.304606,"lon":5.379026,"is_reserved":false,"is_disabled":false,"rental_uris":{"android":"levelo://app?vid=9825545f-f70b-4330-b98c-b12abe0529be","ios":"levelo://app?vid=9825545f-f70b-4330-b98c-b12abe0529be"},"vehicle_type_id":"4","last_reported":1703516866,"current_range_meters":30000,"station_id":"ce4bgup2rcd13ifvqcn0","pricing_plan_id":"free"},{"bike_id":"5f2c8efb-34f2-46f2-a9d1-d3627cc208c1","system_id":"levelo_inurba_marseille","lat":43.304606,"lon":5.379026,"is_reserved":false,"is_disabled":false,"rental_uris":{"android":"levelo://app?vid=5f2c8efb-34f2-46f2-a9d1-d3627cc208c1","ios":"levelo://app?vid=5f2c8efb-34f2-46f2-a9d1-d3627cc208c1"},"vehicle_type_id":"4","last_reported":1703516866,"current_range_meters":31200,"station_id":"ce4bgup2rcd13ifvqcn0","pricing_plan_id":"free"},{"bike_id":"d43abbc9-dd63-4a31-a4e0-b12be030c109","system_id":"levelo_inurba_marseille","lat":43.304606,"lon":5.379026,"is_reserved":false,"is_disabled":false,"rental_uris":{"android":"levelo://app?vid=d43abbc9-dd63-4a31-a4e0-b12be030c109","ios":"levelo://app?vid=d43abbc9-dd63-4a31-a4e0-b12be030c109"},"vehicle_type_id":"4","last_reported":1703516866,"current_range_meters":14400,"station_id":"ce4bgup2rcd13ifvqcn0","pricing_plan_id":"free"},{"bike_id":"3e3cea46-211e-4934-a3a4-d8465e65e881","system_id":"levelo_inurba_marseille","lat":43.304606,"lon":5.379026,"is_reserved":false,"is_disabled":false,"rental_uris":{"android":"levelo://app?vid=3e3cea46-211e-4934-a3a4-d8465e65e881","ios":"levelo://app?vid=3e3cea46-211e-4934-a3a4-d8465e65e881"},"vehicle_type_id":"4","last_reported":1703516866,"current_range_meters":18800,"station_id":"ce4bgup2rcd13ifvqcn0","pricing_plan_id":"free"},{"bike_id":"21751019-e48a-4d32-9ba8-c063ff0829e2","system_id":"levelo_inurba_marseille","lat":43.304606,"lon":5.379026,"is_reserved":false,"is_disabled":false,"rental_uris":{"android":"levelo://app?vid=21751019-e48a-4d32-9ba8-c063ff0829e2","ios":"levelo://app?vid=21751019-e48a-4d32-9ba8-c063ff0829e2"},"vehicle_type_id":"4","last_reported":1703516866,"current_range_meters":18800,"station_id":"ce4bgup2rcd13ifvqcn0","pricing_plan_id":"free"},{"bike_id":"6a3e3d28-1291-4d4b-bf7c-74834b7950d7","system_id":"levelo_inurba_marseille","lat":43.324771,"lon":5.36557,"is_reserved":false,"is_disabled":false,"rental_uris":{"android":"levelo://app?vid=6a3e3d28-1291-4d4b-bf7c-74834b7950d7","ios":"levelo://app?vid=6a3e3d28-1291-4d4b-bf7c-74834b7950d7"},"vehicle_type_id":"4","last_reported":1703516866,"current_range_meters":25600,"station_id":"ce4bhs12rcd13ifvqhvg","pricing_plan_id":"free"},{"bike_id":"bc75f117-8e51-4cad-a63c-5f808a4cb397","system_id":"levelo_inurba_marseille","lat":43.304606,"lon":5.379026,"is_reserved":false,"is_disabled":false,"rental_uris":{"android":"levelo://app?vid=bc75f117-8e51-4cad-a63c-5f808a4cb397","ios":"levelo://app?vid=bc75f117-8e51-4cad-a63c-5f808a4cb397"},"vehicle_type_id":"4","last_reported":1703516866,"current_range_meters":31200,"station_id":"ce4bgup2rcd13ifvqcn0","pricing_plan_id":"free"},{"bike_id":"f5c0e4d6-16bd-47eb-ba92-aa201d0984ce","system_id":"levelo_inurba_marseille","lat":43.324771,"lon":5.36557,"is_reserved":false,"is_disabled":false,"rental_uris":{"android":"levelo://app?vid=f5c0e4d6-16bd-47eb-ba92-aa201d0984ce","ios":"levelo://app?vid=f5c0e4d6-16bd-47eb-ba92-aa201d0984ce"},"vehicle_type_id":"4","last_reported":1703516866,"current_range_meters":8400,"station_id":"ce4bhs12rcd13ifvqhvg","pricing_plan_id":"free"},{"bike_id":"9011995a-6fb0-4e38-9a9b-bdcc1110a2a4","system_id":"levelo_inurba_marseille","lat":43.3036,"lon":5.37797,"is_reserved":false,"is_disabled":false,"rental_uris":{"android":"levelo://app?vid=9011995a-6fb0-4e38-9a9b-bdcc1110a2a4","ios":"levelo://app?vid=9011995a-6fb0-4e38-9a9b-bdcc1110a2a4"},"vehicle_type_id":"4","last_reported":1703516866,"current_range_meters":22800,"station_id":"","pricing_plan_id":"free"},{"bike_id":"7cbc52a8-3902-44a9-b33c-9c857d17fadd","system_id":"levelo_inurba_marseille","lat":43.302784,"lon":5.377158,"is_reserved":false,"is_disabled":false,"rental_uris":{"android":"levelo://app?vid=7cbc52a8-3902-44a9-b33c-9c857d17fadd","ios":"levelo://app?vid=7cbc52a8-3902-44a9-b33c-9c857d17fadd"},"vehicle_type_id":"4","last_reported":1703516866,"current_range_meters":17200,"station_id":"ce4bguh2rcd13ifvqcj0","pricing_plan_id":"free"},{"bike_id":"b34c5df9-bde0-4070-aade-932580520839","system_id":"levelo_inurba_marseille","lat":43.302784,"lon":5.377158,"is_reserved":false,"is_disabled":false,"rental_uris":{"android":"levelo://app?vid=b34c5df9-bde0-4070-aade-932580520839","ios":"levelo://app?vid=b34c5df9-bde0-4070-aade-932580520839"},"vehicle_type_id":"4","last_reported":1703516866,"current_range_meters":29200,"station_id":"ce4bguh2rcd13ifvqcj0","pricing_plan_id":"free"},{"bike_id":"931d60bf-8e33-4ac0-91ec-0281589a9859","system_id":"levelo_inurba_marseille","lat":43.30143,"lon":5.37413,"is_reserved":false,"is_disabled":false,"rental_uris":{"android":"levelo://app?vid=931d60bf-8e33-4ac0-91ec-0281589a9859","ios":"levelo://app?vid=931d60bf-8e33-4ac0-91ec-0281589a9859"},"vehicle_type_id":"4","last_reported":1703516866,"current_range_meters":30400,"station_id":"ce4bgs92rcd13ifvqcc0","pricing_plan_id":"free"},{"bike_id":"60759498-503d-4868-95df-2064b9e1ca57","system_id":"levelo_inurba_marseille","lat":43.30143,"lon":5.37413,"is_reserved":false,"is_disabled":false,"rental_uris":{"android":"levelo://app?vid=60759498-503d-4868-95df-2064b9e1ca57","ios":"levelo://app?vid=60759498-503d-4868-95df-2064b9e1ca57"},"vehicle_type_id":"4","last_reported":1703516866,"current_range_meters":18000,"station_id":"ce4bgs92rcd13ifvqcc0","pricing_plan_id":"free"},{"bike_id":"70b0ad2a-6533-4324-9176-53aa3f1f6a7a","system_id":"levelo_inurba_marseille","lat":43.32,"lon":5.3814,"is_reserved":false,"is_disabled":false,"rental_uris":{"android":"levelo://app?vid=70b0ad2a-6533-4324-9176-53aa3f1f6a7a","ios":"levelo://app?vid=70b0ad2a-6533-4324-9176-53aa3f1f6a7a"},"vehicle_type_id":"4","last_reported":1703516866,"current_range_meters":6400,"station_id":"ce4bhr12rcd13ifvqhpg","pricing_plan_id":"free"},{"bike_id":"bd94ad01-7a4c-4b71-8cb9-d9ef641464f2","system_id":"levelo_inurba_marseille","lat":43.3137,"lon":5.38491,"is_reserved":false,"is_disabled":false,"rental_uris":{"android":"levelo://app?vid=bd94ad01-7a4c-4b71-8cb9-d9ef641464f2","ios":"levelo://app?vid=bd94ad01-7a4c-4b71-8cb9-d9ef641464f2"},"vehicle_type_id":"4","last_reported":1703516866,"current_range_meters":30400,"station_id":"ce4bgt92rcd13ifvqcf0","pricing_plan_id":"free"},{"bike_id":"644e9374-a8cb-4157-9ac5-720e438022e4","system_id":"levelo_inurba_marseille","lat":43.299222,"lon":5.365554,"is_reserved":false,"is_disabled":false,"rental_uris":{"android":"levelo://app?vid=644e9374-a8cb-4157-9ac5-720e438022e4","ios":"levelo://app?vid=644e9374-a8cb-4157-9ac5-720e438022e4"},"vehicle_type_id":"4","last_reported":1703516866,"current_range_meters":16400,"station_id":"ce4bgm92rcd13ifvqbr0","pricing_plan_id":"free"},{"bike_id":"994442a2-e6f3-4374-a02d-75614465b9aa","system_id":"levelo_inurba_marseille","lat":43.299222,"lon":5.365554,"is_reserved":false,"is_disabled":false,"rental_uris":{"android":"levelo://app?vid=994442a2-e6f3-4374-a02d-75614465b9aa","ios":"levelo://app?vid=994442a2-e6f3-4374-a02d-75614465b9aa"},"vehicle_type_id":"4","last_reported":1703516866,"current_range_meters":7600,"station_id":"ce4bgm92rcd13ifvqbr0","pricing_plan_id":"free"},{"bike_id":"8f809784-8a8c-4bd4-a137-da5c6211684e","system_id":"levelo_inurba_marseille","lat":43.299222,"lon":5.365554,"is_reserved":false,"is_disabled":false,"rental_uris":{"android":"levelo://app?vid=8f809784-8a8c-4bd4-a137-da5c6211684e","ios":"levelo://app?vid=8f809784-8a8c-4bd4-a137-da5c6211684e"},"vehicle_type_id":"4","last_reported":1703516866,"current_range_meters":28800,"station_id":"ce4bgm92rcd13ifvqbr0","pricing_plan_id":"free"},{"bike_id":"b88ed181-7e3c-496e-9c83-6dbb4e711844","system_id":"levelo_inurba_marseille","lat":43.299724,"lon":5.371829,"is_reserved":false,"is_disabled":false,"rental_uris":{"android":"levelo://app?vid=b88ed181-7e3c-496e-9c83-6dbb4e711844","ios":"levelo://app?vid=b88ed181-7e3c-496e-9c83-6dbb4e711844"},"vehicle_type_id":"4","last_reported":1703516866,"current_range_meters":10000,"station_id":"ce4bgr92rcd13ifvqc7g","pricing_plan_id":"free"},{"bike_id":"79375219-f7ad-4f6f-8fa1-0eef1373574b","system_id":"levelo_inurba_marseille","lat":43.305364,"lon":5.384119,"is_reserved":false,"is_disabled":false,"rental_uris":{"android":"levelo://app?vid=79375219-f7ad-4f6f-8fa1-0eef1373574b","ios":"levelo://app?vid=79375219-f7ad-4f6f-8fa1-0eef1373574b"},"vehicle_type_id":"4","last_reported":1703516866,"current_range_meters":13600,"station_id":"ce4bgg92rcd13ifvqb30","pricing_plan_id":"free"},{"bike_id":"3f4ca715-21da-4099-ad1a-0cae45249577","system_id":"levelo_inurba_marseille","lat":43.311722,"lon":5.387247,"is_reserved":false,"is_disabled":false,"rental_uris":{"android":"levelo://app?vid=3f4ca715-21da-4099-ad1a-0cae45249577","ios":"levelo://app?vid=3f4ca715-21da-4099-ad1a-0cae45249577"},"vehicle_type_id":"4","last_reported":1703516866,"current_range_meters":25600,"station_id":"ce4bgv12rcd13ifvqcp0","pricing_plan_id":"free"},{"bike_id":"fafe3c55-011c-4a49-89ec-0a28a0c7535b","system_id":"levelo_inurba_marseille","lat":43.311722,"lon":5.387247,"is_reserved":false,"is_disabled":false,"rental_uris":{"android":"levelo://app?vid=fafe3c55-011c-4a49-89ec-0a28a0c7535b","ios":"levelo://app?vid=fafe3c55-011c-4a49-89ec-0a28a0c7535b"},"vehicle_type_id":"4","last_reported":1703516866,"current_range_meters":1600,"station_id":"ce4bgv12rcd13ifvqcp0","pricing_plan_id":"free"},{"bike_id":"e2a4ab92-026c-4ad8-94f0-2d00b2a26a40","system_id":"levelo_inurba_marseille","lat":43.299243,"lon":5.37481,"is_reserved":false,"is_disabled":false,"rental_uris":{"android":"levelo://app?vid=e2a4ab92-026c-4ad8-94f0-2d00b2a26a40","ios":"levelo://app?vid=e2a4ab92-026c-4ad8-94f0-2d00b2a26a40"},"vehicle_type_id":"4","last_reported":1703516866,"current_range_meters":24800,"station_id":"ce4bgjh2rcd13ifvqbg0","pricing_plan_id":"free"},{"bike_id":"ff914034-5f3c-4c97-a237-0391d59053b4","system_id":"levelo_inurba_marseille","lat":43.299243,"lon":5.37481,"is_reserved":false,"is_disabled":false,"rental_uris":{"android":"levelo://app?vid=ff914034-5f3c-4c97-a237-0391d59053b4","ios":"levelo://app?vid=ff914034-5f3c-4c97-a237-0391d59053b4"},"vehicle_type_id":"4","last_reported":1703516866,"current_range_meters":16000,"station_id":"ce4bgjh2rcd13ifvqbg0","pricing_plan_id":"free"},{"bike_id":"aba2c12f-55b2-49a0-8257-b49ddfb4c4ae","system_id":"levelo_inurba_marseille","lat":43.322872,"lon":5.382756,"is_reserved":false,"is_disabled":false,"rental_uris":{"android":"levelo://app?vid=aba2c12f-55b2-49a0-8257-b49ddfb4c4ae","ios":"levelo://app?vid=aba2c12f-55b2-49a0-8257-b49ddfb4c4ae"},"vehicle_type_id":"4","last_reported":1703516866,"current_range_meters":16400,"station_id":"ce4bhr12rcd13ifvqhqg","pricing_plan_id":"free"},{"bike_id":"51714c4a-3132-4951-88ec-80e85fa125e8","system_id":"levelo_inurba_marseille","lat":43.328371,"lon":5.366909,"is_reserved":false,"is_disabled":false,"rental_uris":{"android":"levelo://app?vid=51714c4a-3132-4951-88ec-80e85fa125e8","ios":"levelo://app?vid=51714c4a-3132-4951-88ec-80e85fa125e8"},"vehicle_type_id":"4","last_reported":1703516866,"current_range_meters":12000,"station_id":"ce4bhs92rcd13ifvqi0g","pricing_plan_id":"free"},{"bike_id":"de708f00-7118-4d7c-9021-d7dcbd798473","system_id":"levelo_inurba_marseille","lat":43.328371,"lon":5.366909,"is_reserved":false,"is_disabled":false,"rental_uris":{"android":"levelo://app?vid=de708f00-7118-4d7c-9021-d7dcbd798473","ios":"levelo://app?vid=de708f00-7118-4d7c-9021-d7dcbd798473"},"vehicle_type_id":"4","last_reported":1703516866,"current_range_meters":29600,"station_id":"ce4bhs92rcd13ifvqi0g","pricing_plan_id":"free"},{"bike_id":"b22d5e96-ae51-458c-8279-1d308fe846b0","system_id":"levelo_inurba_marseille","lat":43.328371,"lon":5.366909,"is_reserved":false,"is_disabled":false,"rental_uris":{"android":"levelo://app?vid=b22d5e96-ae51-458c-8279-1d308fe846b0","ios":"levelo://app?vid=b22d5e96-ae51-458c-8279-1d308fe846b0"},"vehicle_type_id":"4","last_reported":1703516866,"current_range_meters":15200,"station_id":"ce4bhs92rcd13ifvqi0g","pricing_plan_id":"free"},{"bike_id":"098d14f9-0ff6-4c3a-aca9-b52d7aa219f1","system_id":"levelo_inurba_marseille","lat":43.297163,"lon":5.365866,"is_reserved":false,"is_disabled":false,"rental_uris":{"android":"levelo://app?vid=098d14f9-0ff6-4c3a-aca9-b52d7aa219f1","ios":"levelo://app?vid=098d14f9-0ff6-4c3a-aca9-b52d7aa219f1"},"vehicle_type_id":"4","last_reported":1703516866,"current_range_meters":30400,"station_id":"ce4bgn12rcd13ifvqbt0","pricing_plan_id":"free"},{"bike_id":"eba6867d-6d75-4354-b206-2059ecdc5071","system_id":"levelo_inurba_marseille","lat":43.328371,"lon":5.366909,"is_reserved":false,"is_disabled":false,"rental_uris":{"android":"levelo://app?vid=eba6867d-6d75-4354-b206-2059ecdc5071","ios":"levelo://app?vid=eba6867d-6d75-4354-b206-2059ecdc5071"},"vehicle_type_id":"4","last_reported":1703516866,"current_range_meters":11200,"station_id":"ce4bhs92rcd13ifvqi0g","pricing_plan_id":"free"},{"bike_id":"9a8f3351-118a-41e1-8eaa-1d261672ee73","system_id":"levelo_inurba_marseille","lat":43.2968,"lon":5.37291,"is_reserved":false,"is_disabled":false,"rental_uris":{"android":"levelo://app?vid=9a8f3351-118a-41e1-8eaa-1d261672ee73","ios":"levelo://app?vid=9a8f3351-118a-41e1-8eaa-1d261672ee73"},"vehicle_type_id":"4","last_reported":1703516866,"current_range_meters":30400,"station_id":"ce4bgk12rcd13ifvqbj0","pricing_plan_id":"free"},{"bike_id":"921b424d-ad0d-4c7a-9d74-66e3a49bfa19","system_id":"levelo_inurba_marseille","lat":43.32934,"lon":5.36612,"is_reserved":false,"is_disabled":false,"rental_uris":{"android":"levelo://app?vid=921b424d-ad0d-4c7a-9d74-66e3a49bfa19","ios":"levelo://app?vid=921b424d-ad0d-4c7a-9d74-66e3a49bfa19"},"vehicle_type_id":"4","last_reported":1703516866,"current_range_meters":24800,"station_id":"","pricing_plan_id":"free"},{"bike_id":"20bafe3c-f4d7-4b47-81ea-8458ecc54d47","system_id":"levelo_inurba_marseille","lat":43.29573,"lon":5.367355,"is_reserved":false,"is_disabled":false,"rental_uris":{"android":"levelo://app?vid=20bafe3c-f4d7-4b47-81ea-8458ecc54d47","ios":"levelo://app?vid=20bafe3c-f4d7-4b47-81ea-8458ecc54d47"},"vehicle_type_id":"4","last_reported":1703516866,"current_range_meters":14800,"station_id":"ce4bgph2rcd13ifvqc2g","pricing_plan_id":"free"},{"bike_id":"ec3d3eee-dd7a-4692-be8e-ca582fa5d714","system_id":"levelo_inurba_marseille","lat":43.29573,"lon":5.367355,"is_reserved":false,"is_disabled":false,"rental_uris":{"android":"levelo://app?vid=ec3d3eee-dd7a-4692-be8e-ca582fa5d714","ios":"levelo://app?vid=ec3d3eee-dd7a-4692-be8e-ca582fa5d714"},"vehicle_type_id":"4","last_reported":1703516866,"current_range_meters":9600,"station_id":"ce4bgph2rcd13ifvqc2g","pricing_plan_id":"free"},{"bike_id":"3cb71ae9-3215-4696-843f-ea2e64dfefd7","system_id":"levelo_inurba_marseille","lat":43.29573,"lon":5.367355,"is_reserved":false,"is_disabled":false,"rental_uris":{"android":"levelo://app?vid=3cb71ae9-3215-4696-843f-ea2e64dfefd7","ios":"levelo://app?vid=3cb71ae9-3215-4696-843f-ea2e64dfefd7"},"vehicle_type_id":"4","last_reported":1703516866,"current_range_meters":22800,"station_id":"ce4bgph2rcd13ifvqc2g","pricing_plan_id":"free"},{"bike_id":"06e957bd-df49-4d32-abc4-2e72cf631ab7","system_id":"levelo_inurba_marseille","lat":43.29573,"lon":5.367355,"is_reserved":false,"is_disabled":false,"rental_uris":{"android":"levelo://app?vid=06e957bd-df49-4d32-abc4-2e72cf631ab7","ios":"levelo://app?vid=06e957bd-df49-4d32-abc4-2e72cf631ab7"},"vehicle_type_id":"4","last_reported":1703516866,"current_range_meters":10800,"station_id":"ce4bgph2rcd13ifvqc2g","pricing_plan_id":"free"},{"bike_id":"832e2173-c8ed-4c6f-a3b2-146af632aa3e","system_id":"levelo_inurba_marseille","lat":43.299028,"lon":5.381509,"is_reserved":false,"is_disabled":false,"rental_uris":{"android":"levelo://app?vid=832e2173-c8ed-4c6f-a3b2-146af632aa3e","ios":"levelo://app?vid=832e2173-c8ed-4c6f-a3b2-146af632aa3e"},"vehicle_type_id":"4","last_reported":1703516866,"current_range_meters":30800,"station_id":"ce4bgj12rcd13ifvqbc0","pricing_plan_id":"free"},{"bike_id":"506b2531-968e-48c0-968a-4013ec46a47d","system_id":"levelo_inurba_marseille","lat":43.299028,"lon":5.381509,"is_reserved":false,"is_disabled":false,"rental_uris":{"android":"levelo://app?vid=506b2531-968e-48c0-968a-4013ec46a47d","ios":"levelo://app?vid=506b2531-968e-48c0-968a-4013ec46a47d"},"vehicle_type_id":"4","last_reported":1703516866,"current_range_meters":21200,"station_id":"ce4bgj12rcd13ifvqbc0","pricing_plan_id":"free"},{"bike_id":"5e260a01-66aa-427a-b163-23558f45cc9e","system_id":"levelo_inurba_marseille","lat":43.299028,"lon":5.381509,"is_reserved":false,"is_disabled":false,"rental_uris":{"android":"levelo://app?vid=5e260a01-66aa-427a-b163-23558f45cc9e","ios":"levelo://app?vid=5e260a01-66aa-427a-b163-23558f45cc9e"},"vehicle_type_id":"4","last_reported":1703516866,"current_range_meters":29200,"station_id":"ce4bgj12rcd13ifvqbc0","pricing_plan_id":"free"},{"bike_id":"b2b2a22b-86ed-4c77-8108-3b09b57a4290","system_id":"levelo_inurba_marseille","lat":43.309589,"lon":5.390258,"is_reserved":false,"is_disabled":false,"rental_uris":{"android":"levelo://app?vid=b2b2a22b-86ed-4c77-8108-3b09b57a4290","ios":"levelo://app?vid=b2b2a22b-86ed-4c77-8108-3b09b57a4290"},"vehicle_type_id":"4","last_reported":1703516866,"current_range_meters":29200,"station_id":"ce4bgup2rcd13ifvqco0","pricing_plan_id":"free"},{"bike_id":"695892ad-c59d-4533-938b-0f88b844c9d7","system_id":"levelo_inurba_marseille","lat":43.296935,"lon":5.376544,"is_reserved":false,"is_disabled":false,"rental_uris":{"android":"levelo://app?vid=695892ad-c59d-4533-938b-0f88b844c9d7","ios":"levelo://app?vid=695892ad-c59d-4533-938b-0f88b844c9d7"},"vehicle_type_id":"4","last_reported":1703516866,"current_range_meters":30400,"station_id":"ce4bgkh2rcd13ifvqbl0","pricing_plan_id":"free"},{"bike_id":"90d9cf58-1dc5-4d8a-824f-802a3b33bbc1","system_id":"levelo_inurba_marseille","lat":43.317637,"lon":5.390103,"is_reserved":false,"is_disabled":false,"rental_uris":{"android":"levelo://app?vid=90d9cf58-1dc5-4d8a-824f-802a3b33bbc1","ios":"levelo://app?vid=90d9cf58-1dc5-4d8a-824f-802a3b33bbc1"},"vehicle_type_id":"4","last_reported":1703516866,"current_range_meters":29600,"station_id":"ce4bhqp2rcd13ifvqhng","pricing_plan_id":"free"},{"bike_id":"7d707291-7ce0-4206-ab51-d38fc2436b5b","system_id":"levelo_inurba_marseille","lat":43.298,"lon":5.38088,"is_reserved":false,"is_disabled":false,"rental_uris":{"android":"levelo://app?vid=7d707291-7ce0-4206-ab51-d38fc2436b5b","ios":"levelo://app?vid=7d707291-7ce0-4206-ab51-d38fc2436b5b"},"vehicle_type_id":"4","last_reported":1703516866,"current_range_meters":31600,"station_id":"ce4bgip2rcd13ifvqbb0","pricing_plan_id":"free"},{"bike_id":"2adb6f78-646c-41da-8211-e19b92f019dd","system_id":"levelo_inurba_marseille","lat":43.295748,"lon":5.37522,"is_reserved":false,"is_disabled":false,"rental_uris":{"android":"levelo://app?vid=2adb6f78-646c-41da-8211-e19b92f019dd","ios":"levelo://app?vid=2adb6f78-646c-41da-8211-e19b92f019dd"},"vehicle_type_id":"4","last_reported":1703516866,"current_range_meters":27200,"station_id":"ce4bgh92rcd13ifvqb50","pricing_plan_id":"free"},{"bike_id":"2b5782df-ad25-4444-aab1-766ac1e705e8","system_id":"levelo_inurba_marseille","lat":43.29571,"lon":5.37511,"is_reserved":false,"is_disabled":false,"rental_uris":{"android":"levelo://app?vid=2b5782df-ad25-4444-aab1-766ac1e705e8","ios":"levelo://app?vid=2b5782df-ad25-4444-aab1-766ac1e705e8"},"vehicle_type_id":"4","last_reported":1703516866,"current_range_meters":28400,"station_id":"ce4bgh92rcd13ifvqb50","pricing_plan_id":"free"},{"bike_id":"e5582870-b9fd-4eba-b0f3-7883b0a7e67c","system_id":"levelo_inurba_marseille","lat":43.299724,"lon":5.384848,"is_reserved":false,"is_disabled":false,"rental_uris":{"android":"levelo://app?vid=e5582870-b9fd-4eba-b0f3-7883b0a7e67c","ios":"levelo://app?vid=e5582870-b9fd-4eba-b0f3-7883b0a7e67c"},"vehicle_type_id":"4","last_reported":1703516866,"current_range_meters":22000,"station_id":"ce4bgj92rcd13ifvqbd0","pricing_plan_id":"free"},{"bike_id":"67929dee-dba0-48c8-8b44-cda52915ebb5","system_id":"levelo_inurba_marseille","lat":43.32367,"lon":5.388836,"is_reserved":false,"is_disabled":false,"rental_uris":{"android":"levelo://app?vid=67929dee-dba0-48c8-8b44-cda52915ebb5","ios":"levelo://app?vid=67929dee-dba0-48c8-8b44-cda52915ebb5"},"vehicle_type_id":"4","last_reported":1703516866,"current_range_meters":17200,"station_id":"ce4bhqp2rcd13ifvqhog","pricing_plan_id":"free"},{"bike_id":"99506efd-d258-462c-a8b8-7bea22356f5c","system_id":"levelo_inurba_marseille","lat":43.29601,"lon":5.381084,"is_reserved":false,"is_disabled":false,"rental_uris":{"android":"levelo://app?vid=99506efd-d258-462c-a8b8-7bea22356f5c","ios":"levelo://app?vid=99506efd-d258-462c-a8b8-7bea22356f5c"},"vehicle_type_id":"4","last_reported":1703516866,"current_range_meters":22800,"station_id":"ce4bgl12rcd13ifvqbo0","pricing_plan_id":"free"},{"bike_id":"cffd74b1-b874-4f43-83e0-4ff0b937a76d","system_id":"levelo_inurba_marseille","lat":43.292749,"lon":5.368402,"is_reserved":false,"is_disabled":false,"rental_uris":{"android":"levelo://app?vid=cffd74b1-b874-4f43-83e0-4ff0b937a76d","ios":"levelo://app?vid=cffd74b1-b874-4f43-83e0-4ff0b937a76d"},"vehicle_type_id":"4","last_reported":1703516866,"current_range_meters":22400,"station_id":"ce4bhbp2rcd13ifvqesg","pricing_plan_id":"free"},{"bike_id":"3665daa3-afb5-46b9-8680-b61fd6af315d","system_id":"levelo_inurba_marseille","lat":43.293259,"lon":5.371586,"is_reserved":false,"is_disabled":false,"rental_uris":{"android":"levelo://app?vid=3665daa3-afb5-46b9-8680-b61fd6af315d","ios":"levelo://app?vid=3665daa3-afb5-46b9-8680-b61fd6af315d"},"vehicle_type_id":"4","last_reported":1703516866,"current_range_meters":23600,"station_id":"ce4bgh92rcd13ifvqb40","pricing_plan_id":"free"},{"bike_id":"68928f45-90b0-4613-a44c-d6e34112126d","system_id":"levelo_inurba_marseille","lat":43.293009,"lon":5.374584,"is_reserved":false,"is_disabled":false,"rental_uris":{"android":"levelo://app?vid=68928f45-90b0-4613-a44c-d6e34112126d","ios":"levelo://app?vid=68928f45-90b0-4613-a44c-d6e34112126d"},"vehicle_type_id":"4","last_reported":1703516866,"current_range_meters":13600,"station_id":"ce4bgi12rcd13ifvqb70","pricing_plan_id":"free"},{"bike_id":"bdad69d8-b8dd-4b54-b27f-a73e64195fdc","system_id":"levelo_inurba_marseille","lat":43.3059,"lon":5.39352,"is_reserved":false,"is_disabled":false,"rental_uris":{"android":"levelo://app?vid=bdad69d8-b8dd-4b54-b27f-a73e64195fdc","ios":"levelo://app?vid=bdad69d8-b8dd-4b54-b27f-a73e64195fdc"},"vehicle_type_id":"4","last_reported":1703516866,"current_range_meters":17600,"station_id":"ce4bh0p2rcd13ifvqd80","pricing_plan_id":"free"},{"bike_id":"d7d0c149-0726-497f-9172-6e7ff55b60c9","system_id":"levelo_inurba_marseille","lat":43.293009,"lon":5.374584,"is_reserved":false,"is_disabled":false,"rental_uris":{"android":"levelo://app?vid=d7d0c149-0726-497f-9172-6e7ff55b60c9","ios":"levelo://app?vid=d7d0c149-0726-497f-9172-6e7ff55b60c9"},"vehicle_type_id":"4","last_reported":1703516866,"current_range_meters":29200,"station_id":"ce4bgi12rcd13ifvqb70","pricing_plan_id":"free"},{"bike_id":"963f7616-7745-415c-9791-deb1a8581094","system_id":"levelo_inurba_marseille","lat":43.293009,"lon":5.374584,"is_reserved":false,"is_disabled":false,"rental_uris":{"android":"levelo://app?vid=963f7616-7745-415c-9791-deb1a8581094","ios":"levelo://app?vid=963f7616-7745-415c-9791-deb1a8581094"},"vehicle_type_id":"4","last_reported":1703516866,"current_range_meters":30400,"station_id":"ce4bgi12rcd13ifvqb70","pricing_plan_id":"free"},{"bike_id":"0b87f915-612f-4eb1-b708-173086f5daa7","system_id":"levelo_inurba_marseille","lat":43.2936,"lon":5.37835,"is_reserved":false,"is_disabled":false,"rental_uris":{"android":"levelo://app?vid=0b87f915-612f-4eb1-b708-173086f5daa7","ios":"levelo://app?vid=0b87f915-612f-4eb1-b708-173086f5daa7"},"vehicle_type_id":"4","last_reported":1703516866,"current_range_meters":29200,"station_id":"ce4bgjh2rcd13ifvqbf0","pricing_plan_id":"free"},{"bike_id":"71634296-c8ee-4d85-9410-35340e19d460","system_id":"levelo_inurba_marseille","lat":43.300852,"lon":5.390859,"is_reserved":false,"is_disabled":false,"rental_uris":{"android":"levelo://app?vid=71634296-c8ee-4d85-9410-35340e19d460","ios":"levelo://app?vid=71634296-c8ee-4d85-9410-35340e19d460"},"vehicle_type_id":"4","last_reported":1703516866,"current_range_meters":17200,"station_id":"ce4bh192rcd13ifvqdb0","pricing_plan_id":"free"},{"bike_id":"d8849233-8dc7-4818-8711-b19bbe612b97","system_id":"levelo_inurba_marseille","lat":43.2936,"lon":5.37835,"is_reserved":false,"is_disabled":false,"rental_uris":{"android":"levelo://app?vid=d8849233-8dc7-4818-8711-b19bbe612b97","ios":"levelo://app?vid=d8849233-8dc7-4818-8711-b19bbe612b97"},"vehicle_type_id":"4","last_reported":1703516866,"current_range_meters":31200,"station_id":"ce4bgjh2rcd13ifvqbf0","pricing_plan_id":"free"},{"bike_id":"0d3b393c-b0d6-4737-8ab5-e0d6f839b680","system_id":"levelo_inurba_marseille","lat":43.2923,"lon":5.36057,"is_reserved":false,"is_disabled":false,"rental_uris":{"android":"levelo://app?vid=0d3b393c-b0d6-4737-8ab5-e0d6f839b680","ios":"levelo://app?vid=0d3b393c-b0d6-4737-8ab5-e0d6f839b680"},"vehicle_type_id":"4","last_reported":1703516866,"current_range_meters":16400,"station_id":"ce4bhbh2rcd13ifvqeqg","pricing_plan_id":"free"},{"bike_id":"c2ede81f-1b07-4dbb-a330-68523034310e","system_id":"levelo_inurba_marseille","lat":43.29169,"lon":5.37153,"is_reserved":false,"is_disabled":false,"rental_uris":{"android":"levelo://app?vid=c2ede81f-1b07-4dbb-a330-68523034310e","ios":"levelo://app?vid=c2ede81f-1b07-4dbb-a330-68523034310e"},"vehicle_type_id":"4","last_reported":1703516866,"current_range_meters":22800,"station_id":"ce4bha92rcd13ifvqeh0","pricing_plan_id":"free"},{"bike_id":"b64c1f66-58c7-4b29-9f19-9395fcdaef8e","system_id":"levelo_inurba_marseille","lat":43.298681,"lon":5.389136,"is_reserved":false,"is_disabled":false,"rental_uris":{"android":"levelo://app?vid=b64c1f66-58c7-4b29-9f19-9395fcdaef8e","ios":"levelo://app?vid=b64c1f66-58c7-4b29-9f19-9395fcdaef8e"},"vehicle_type_id":"4","last_reported":1703516866,"current_range_meters":12800,"station_id":"","pricing_plan_id":"free"},{"bike_id":"92db59f5-d105-472b-b2e0-9f3cfce6d088","system_id":"levelo_inurba_marseille","lat":43.291994,"lon":5.357886,"is_reserved":false,"is_disabled":false,"rental_uris":{"android":"levelo://app?vid=92db59f5-d105-472b-b2e0-9f3cfce6d088","ios":"levelo://app?vid=92db59f5-d105-472b-b2e0-9f3cfce6d088"},"vehicle_type_id":"4","last_reported":1703516866,"current_range_meters":21200,"station_id":"ce4bhb12rcd13ifvqel0","pricing_plan_id":"free"},{"bike_id":"3b6a2954-e5f3-459d-a612-236a61fd8a06","system_id":"levelo_inurba_marseille","lat":43.313291,"lon":5.396838,"is_reserved":false,"is_disabled":false,"rental_uris":{"android":"levelo://app?vid=3b6a2954-e5f3-459d-a612-236a61fd8a06","ios":"levelo://app?vid=3b6a2954-e5f3-459d-a612-236a61fd8a06"},"vehicle_type_id":"4","last_reported":1703516866,"current_range_meters":23600,"station_id":"ce4bgvp2rcd13ifvqcu0","pricing_plan_id":"free"},{"bike_id":"b4c6b7b5-0736-4e4e-8689-4fcb6beae507","system_id":"levelo_inurba_marseille","lat":43.291994,"lon":5.357886,"is_reserved":false,"is_disabled":false,"rental_uris":{"android":"levelo://app?vid=b4c6b7b5-0736-4e4e-8689-4fcb6beae507","ios":"levelo://app?vid=b4c6b7b5-0736-4e4e-8689-4fcb6beae507"},"vehicle_type_id":"4","last_reported":1703516866,"current_range_meters":4400,"station_id":"ce4bhb12rcd13ifvqel0","pricing_plan_id":"free"},{"bike_id":"d4ea32e9-8917-40d4-a001-1d018c5cc189","system_id":"levelo_inurba_marseille","lat":43.29529,"lon":5.385581,"is_reserved":false,"is_disabled":false,"rental_uris":{"android":"levelo://app?vid=d4ea32e9-8917-40d4-a001-1d018c5cc189","ios":"levelo://app?vid=d4ea32e9-8917-40d4-a001-1d018c5cc189"},"vehicle_type_id":"4","last_reported":1703516866,"current_range_meters":20000,"station_id":"ce4bgih2rcd13ifvqba0","pricing_plan_id":"free"},{"bike_id":"40ccd2b3-40be-4112-a24b-78c581c9abf0","system_id":"levelo_inurba_marseille","lat":43.29529,"lon":5.385581,"is_reserved":false,"is_disabled":false,"rental_uris":{"android":"levelo://app?vid=40ccd2b3-40be-4112-a24b-78c581c9abf0","ios":"levelo://app?vid=40ccd2b3-40be-4112-a24b-78c581c9abf0"},"vehicle_type_id":"4","last_reported":1703516866,"current_range_meters":25600,"station_id":"ce4bgih2rcd13ifvqba0","pricing_plan_id":"free"},{"bike_id":"f20a2425-3c4e-46e3-b39c-2a21907dc9d3","system_id":"levelo_inurba_marseille","lat":43.29924,"lon":5.39119,"is_reserved":false,"is_disabled":false,"rental_uris":{"android":"levelo://app?vid=f20a2425-3c4e-46e3-b39c-2a21907dc9d3","ios":"levelo://app?vid=f20a2425-3c4e-46e3-b39c-2a21907dc9d3"},"vehicle_type_id":"4","last_reported":1703516866,"current_range_meters":28000,"station_id":"ce4bh0h2rcd13ifvqd50","pricing_plan_id":"free"},{"bike_id":"81913b3c-2064-4217-a2d0-4a7e4ac1675b","system_id":"levelo_inurba_marseille","lat":43.290779,"lon":5.371482,"is_reserved":false,"is_disabled":false,"rental_uris":{"android":"levelo://app?vid=81913b3c-2064-4217-a2d0-4a7e4ac1675b","ios":"levelo://app?vid=81913b3c-2064-4217-a2d0-4a7e4ac1675b"},"vehicle_type_id":"4","last_reported":1703516866,"current_range_meters":26000,"station_id":"ce4bh5p2rcd13ifvqe4g","pricing_plan_id":"free"},{"bike_id":"a10222d9-2a8a-42e9-bffd-12eb8d32fce5","system_id":"levelo_inurba_marseille","lat":43.302008,"lon":5.394694,"is_reserved":false,"is_disabled":false,"rental_uris":{"android":"levelo://app?vid=a10222d9-2a8a-42e9-bffd-12eb8d32fce5","ios":"levelo://app?vid=a10222d9-2a8a-42e9-bffd-12eb8d32fce5"},"vehicle_type_id":"4","last_reported":1703516866,"current_range_meters":19600,"station_id":"ce4bh0p2rcd13ifvqd70","pricing_plan_id":"free"},{"bike_id":"ba524f44-e848-43cb-bdb2-b8c3f283941c","system_id":"levelo_inurba_marseille","lat":43.290631,"lon":5.359244,"is_reserved":false,"is_disabled":false,"rental_uris":{"android":"levelo://app?vid=ba524f44-e848-43cb-bdb2-b8c3f283941c","ios":"levelo://app?vid=ba524f44-e848-43cb-bdb2-b8c3f283941c"},"vehicle_type_id":"4","last_reported":1703516866,"current_range_meters":31200,"station_id":"ce4bha92rcd13ifvqeg0","pricing_plan_id":"free"},{"bike_id":"888f3fb0-d815-4005-ab01-e0f9e87776f3","system_id":"levelo_inurba_marseille","lat":43.290327,"lon":5.375711,"is_reserved":false,"is_disabled":false,"rental_uris":{"android":"levelo://app?vid=888f3fb0-d815-4005-ab01-e0f9e87776f3","ios":"levelo://app?vid=888f3fb0-d815-4005-ab01-e0f9e87776f3"},"vehicle_type_id":"4","last_reported":1703516866,"current_range_meters":12400,"station_id":"ce4bh692rcd13ifvqe90","pricing_plan_id":"free"},{"bike_id":"e758182d-ffda-46fe-bc2b-baf6ab5da6c8","system_id":"levelo_inurba_marseille","lat":43.294153,"lon":5.386305,"is_reserved":false,"is_disabled":false,"rental_uris":{"android":"levelo://app?vid=e758182d-ffda-46fe-bc2b-baf6ab5da6c8","ios":"levelo://app?vid=e758182d-ffda-46fe-bc2b-baf6ab5da6c8"},"vehicle_type_id":"4","last_reported":1703516866,"current_range_meters":27600,"station_id":"ce4bh2h2rcd13ifvqdh0","pricing_plan_id":"free"},{"bike_id":"d2ac1886-0057-4e06-8bf6-545275773e70","system_id":"levelo_inurba_marseille","lat":43.294162,"lon":5.386292,"is_reserved":false,"is_disabled":false,"rental_uris":{"android":"levelo://app?vid=d2ac1886-0057-4e06-8bf6-545275773e70","ios":"levelo://app?vid=d2ac1886-0057-4e06-8bf6-545275773e70"},"vehicle_type_id":"4","last_reported":1703516866,"current_range_meters":24000,"station_id":"ce4bh2h2rcd13ifvqdh0","pricing_plan_id":"free"},{"bike_id":"3c4b7911-eb6d-4dda-8e64-8444ce516695","system_id":"levelo_inurba_marseille","lat":43.289184,"lon":5.366408,"is_reserved":false,"is_disabled":false,"rental_uris":{"android":"levelo://app?vid=3c4b7911-eb6d-4dda-8e64-8444ce516695","ios":"levelo://app?vid=3c4b7911-eb6d-4dda-8e64-8444ce516695"},"vehicle_type_id":"4","last_reported":1703516866,"current_range_meters":14800,"station_id":"ce4bhap2rcd13ifvqek0","pricing_plan_id":"free"},{"bike_id":"7aae21bb-d61a-451a-b563-3632bcb77262","system_id":"levelo_inurba_marseille","lat":43.289184,"lon":5.366408,"is_reserved":false,"is_disabled":false,"rental_uris":{"android":"levelo://app?vid=7aae21bb-d61a-451a-b563-3632bcb77262","ios":"levelo://app?vid=7aae21bb-d61a-451a-b563-3632bcb77262"},"vehicle_type_id":"4","last_reported":1703516866,"current_range_meters":24400,"station_id":"ce4bhap2rcd13ifvqek0","pricing_plan_id":"free"},{"bike_id":"62a000ff-6fda-4ecc-ac66-1f512cee3f0e","system_id":"levelo_inurba_marseille","lat":43.289184,"lon":5.366408,"is_reserved":false,"is_disabled":false,"rental_uris":{"android":"levelo://app?vid=62a000ff-6fda-4ecc-ac66-1f512cee3f0e","ios":"levelo://app?vid=62a000ff-6fda-4ecc-ac66-1f512cee3f0e"},"vehicle_type_id":"4","last_reported":1703516866,"current_range_meters":24800,"station_id":"ce4bhap2rcd13ifvqek0","pricing_plan_id":"free"},{"bike_id":"234d0f32-c8f0-4e65-8b43-29df15b6e85f","system_id":"levelo_inurba_marseille","lat":43.294162,"lon":5.386292,"is_reserved":false,"is_disabled":false,"rental_uris":{"android":"levelo://app?vid=234d0f32-c8f0-4e65-8b43-29df15b6e85f","ios":"levelo://app?vid=234d0f32-c8f0-4e65-8b43-29df15b6e85f"},"vehicle_type_id":"4","last_reported":1703516866,"current_range_meters":26800,"station_id":"ce4bh2h2rcd13ifvqdh0","pricing_plan_id":"free"},{"bike_id":"bf935a6e-e551-4b2a-aa50-096abe937430","system_id":"levelo_inurba_marseille","lat":43.289184,"lon":5.366408,"is_reserved":false,"is_disabled":false,"rental_uris":{"android":"levelo://app?vid=bf935a6e-e551-4b2a-aa50-096abe937430","ios":"levelo://app?vid=bf935a6e-e551-4b2a-aa50-096abe937430"},"vehicle_type_id":"4","last_reported":1703516866,"current_range_meters":31200,"station_id":"ce4bhap2rcd13ifvqek0","pricing_plan_id":"free"},{"bike_id":"c25f61ba-b3eb-47c0-9f8f-f684b4455744","system_id":"levelo_inurba_marseille","lat":43.289184,"lon":5.366408,"is_reserved":false,"is_disabled":false,"rental_uris":{"android":"levelo://app?vid=c25f61ba-b3eb-47c0-9f8f-f684b4455744","ios":"levelo://app?vid=c25f61ba-b3eb-47c0-9f8f-f684b4455744"},"vehicle_type_id":"4","last_reported":1703516866,"current_range_meters":30000,"station_id":"ce4bhap2rcd13ifvqek0","pricing_plan_id":"free"},{"bike_id":"424f86e9-46e4-40c6-8cc5-6a1e0150585e","system_id":"levelo_inurba_marseille","lat":43.304296,"lon":5.397513,"is_reserved":false,"is_disabled":false,"rental_uris":{"android":"levelo://app?vid=424f86e9-46e4-40c6-8cc5-6a1e0150585e","ios":"levelo://app?vid=424f86e9-46e4-40c6-8cc5-6a1e0150585e"},"vehicle_type_id":"4","last_reported":1703516866,"current_range_meters":19600,"station_id":"ce4bh092rcd13ifvqd20","pricing_plan_id":"free"},{"bike_id":"de271d97-325c-4951-9c1f-465587c24656","system_id":"levelo_inurba_marseille","lat":43.304296,"lon":5.397513,"is_reserved":false,"is_disabled":false,"rental_uris":{"android":"levelo://app?vid=de271d97-325c-4951-9c1f-465587c24656","ios":"levelo://app?vid=de271d97-325c-4951-9c1f-465587c24656"},"vehicle_type_id":"4","last_reported":1703516866,"current_range_meters":31600,"station_id":"ce4bh092rcd13ifvqd20","pricing_plan_id":"free"},{"bike_id":"4ac28f22-dcba-4116-9e3b-a1e232acf836","system_id":"levelo_inurba_marseille","lat":43.290103,"lon":5.356114,"is_reserved":false,"is_disabled":false,"rental_uris":{"android":"levelo://app?vid=4ac28f22-dcba-4116-9e3b-a1e232acf836","ios":"levelo://app?vid=4ac28f22-dcba-4116-9e3b-a1e232acf836"},"vehicle_type_id":"4","last_reported":1703516866,"current_range_meters":0,"station_id":"ce4bhb92rcd13ifvqen0","pricing_plan_id":"free"},{"bike_id":"c3854897-e276-4895-ad27-df8d0d5fa40e","system_id":"levelo_inurba_marseille","lat":43.290104,"lon":5.356111,"is_reserved":false,"is_disabled":false,"rental_uris":{"android":"levelo://app?vid=c3854897-e276-4895-ad27-df8d0d5fa40e","ios":"levelo://app?vid=c3854897-e276-4895-ad27-df8d0d5fa40e"},"vehicle_type_id":"4","last_reported":1703516866,"current_range_meters":29600,"station_id":"ce4bhb92rcd13ifvqen0","pricing_plan_id":"free"},{"bike_id":"c5089163-3cbe-4cf3-8920-bf268dd7f199","system_id":"levelo_inurba_marseille","lat":43.290104,"lon":5.356111,"is_reserved":false,"is_disabled":false,"rental_uris":{"android":"levelo://app?vid=c5089163-3cbe-4cf3-8920-bf268dd7f199","ios":"levelo://app?vid=c5089163-3cbe-4cf3-8920-bf268dd7f199"},"vehicle_type_id":"4","last_reported":1703516866,"current_range_meters":31200,"station_id":"ce4bhb92rcd13ifvqen0","pricing_plan_id":"free"},{"bike_id":"e485450b-2736-4f4c-b94b-0da5a69b88aa","system_id":"levelo_inurba_marseille","lat":43.33024,"lon":5.3904,"is_reserved":false,"is_disabled":false,"rental_uris":{"android":"levelo://app?vid=e485450b-2736-4f4c-b94b-0da5a69b88aa","ios":"levelo://app?vid=e485450b-2736-4f4c-b94b-0da5a69b88aa"},"vehicle_type_id":"4","last_reported":1703516866,"current_range_meters":24000,"station_id":"","pricing_plan_id":"free"},{"bike_id":"5d1bde58-2c7b-438a-bd37-7bc100df62bf","system_id":"levelo_inurba_marseille","lat":43.33026,"lon":5.39038,"is_reserved":false,"is_disabled":false,"rental_uris":{"android":"levelo://app?vid=5d1bde58-2c7b-438a-bd37-7bc100df62bf","ios":"levelo://app?vid=5d1bde58-2c7b-438a-bd37-7bc100df62bf"},"vehicle_type_id":"4","last_reported":1703516866,"current_range_meters":17200,"station_id":"","pricing_plan_id":"free"},{"bike_id":"4b388e93-8359-494a-93e7-a691dd1edc09","system_id":"levelo_inurba_marseille","lat":43.330442,"lon":5.389148,"is_reserved":false,"is_disabled":false,"rental_uris":{"android":"levelo://app?vid=4b388e93-8359-494a-93e7-a691dd1edc09","ios":"levelo://app?vid=4b388e93-8359-494a-93e7-a691dd1edc09"},"vehicle_type_id":"4","last_reported":1703516866,"current_range_meters":26000,"station_id":"ce4bhr92rcd13ifvqhrg","pricing_plan_id":"free"},{"bike_id":"5464784f-50fb-4384-9197-f77a27d2970e","system_id":"levelo_inurba_marseille","lat":43.290094,"lon":5.381264,"is_reserved":false,"is_disabled":false,"rental_uris":{"android":"levelo://app?vid=5464784f-50fb-4384-9197-f77a27d2970e","ios":"levelo://app?vid=5464784f-50fb-4384-9197-f77a27d2970e"},"vehicle_type_id":"4","last_reported":1703516866,"current_range_meters":30800,"station_id":"ce4bh4p2rcd13ifvqe1g","pricing_plan_id":"free"},{"bike_id":"2dc53c83-5800-4ad2-84cb-cfaffb645688","system_id":"levelo_inurba_marseille","lat":43.2901,"lon":5.381269,"is_reserved":false,"is_disabled":false,"rental_uris":{"android":"levelo://app?vid=2dc53c83-5800-4ad2-84cb-cfaffb645688","ios":"levelo://app?vid=2dc53c83-5800-4ad2-84cb-cfaffb645688"},"vehicle_type_id":"4","last_reported":1703516866,"current_range_meters":27600,"station_id":"ce4bh4p2rcd13ifvqe1g","pricing_plan_id":"free"},{"bike_id":"7244b12c-a4ed-4fcc-a53c-0222ae84e7e2","system_id":"levelo_inurba_marseille","lat":43.33119,"lon":5.38976,"is_reserved":false,"is_disabled":false,"rental_uris":{"android":"levelo://app?vid=7244b12c-a4ed-4fcc-a53c-0222ae84e7e2","ios":"levelo://app?vid=7244b12c-a4ed-4fcc-a53c-0222ae84e7e2"},"vehicle_type_id":"4","last_reported":1703516866,"current_range_meters":28400,"station_id":"","pricing_plan_id":"free"},{"bike_id":"4aac448d-ea19-4dee-b69b-8b32bd67559b","system_id":"levelo_inurba_marseille","lat":43.28856,"lon":5.358371,"is_reserved":false,"is_disabled":false,"rental_uris":{"android":"levelo://app?vid=4aac448d-ea19-4dee-b69b-8b32bd67559b","ios":"levelo://app?vid=4aac448d-ea19-4dee-b69b-8b32bd67559b"},"vehicle_type_id":"4","last_reported":1703516866,"current_range_meters":12800,"station_id":"ce4bhb12rcd13ifvqem0","pricing_plan_id":"free"},{"bike_id":"e7ffb87f-0764-4d48-bd7e-a2a2a9c92c85","system_id":"levelo_inurba_marseille","lat":43.28856,"lon":5.358371,"is_reserved":false,"is_disabled":false,"rental_uris":{"android":"levelo://app?vid=e7ffb87f-0764-4d48-bd7e-a2a2a9c92c85","ios":"levelo://app?vid=e7ffb87f-0764-4d48-bd7e-a2a2a9c92c85"},"vehicle_type_id":"4","last_reported":1703516866,"current_range_meters":19200,"station_id":"ce4bhb12rcd13ifvqem0","pricing_plan_id":"free"},{"bike_id":"4a567f15-c8c7-45a1-89d2-82c585dbdf31","system_id":"levelo_inurba_marseille","lat":43.293259,"lon":5.371586,"is_reserved":false,"is_disabled":false,"rental_uris":{"android":"levelo://app?vid=4a567f15-c8c7-45a1-89d2-82c585dbdf31","ios":"levelo://app?vid=4a567f15-c8c7-45a1-89d2-82c585dbdf31"},"vehicle_type_id":"4","last_reported":1703516866,"current_range_meters":11600,"station_id":"ce4bgh92rcd13ifvqb40","pricing_plan_id":"free"},{"bike_id":"7d7f9bba-419f-4024-98e7-2f55b9ee0ae9","system_id":"levelo_inurba_marseille","lat":43.312609,"lon":5.401662,"is_reserved":false,"is_disabled":false,"rental_uris":{"android":"levelo://app?vid=7d7f9bba-419f-4024-98e7-2f55b9ee0ae9","ios":"levelo://app?vid=7d7f9bba-419f-4024-98e7-2f55b9ee0ae9"},"vehicle_type_id":"4","last_reported":1703516866,"current_range_meters":20400,"station_id":"ce4bh092rcd13ifvqd30","pricing_plan_id":"free"},{"bike_id":"69d6fd11-7326-4683-9856-c31d6e07c285","system_id":"levelo_inurba_marseille","lat":43.312759,"lon":5.401759,"is_reserved":false,"is_disabled":false,"rental_uris":{"android":"levelo://app?vid=69d6fd11-7326-4683-9856-c31d6e07c285","ios":"levelo://app?vid=69d6fd11-7326-4683-9856-c31d6e07c285"},"vehicle_type_id":"4","last_reported":1703516866,"current_range_meters":12800,"station_id":"ce4bh092rcd13ifvqd30","pricing_plan_id":"free"},{"bike_id":"eda1d4be-a826-4263-b216-464e803eb4ba","system_id":"levelo_inurba_marseille","lat":43.30642,"lon":5.401031,"is_reserved":false,"is_disabled":false,"rental_uris":{"android":"levelo://app?vid=eda1d4be-a826-4263-b216-464e803eb4ba","ios":"levelo://app?vid=eda1d4be-a826-4263-b216-464e803eb4ba"},"vehicle_type_id":"4","last_reported":1703516866,"current_range_meters":26400,"station_id":"ce4bh112rcd13ifvqda0","pricing_plan_id":"free"},{"bike_id":"9e9e9b8e-d854-491e-9925-50abb0cf1ec6","system_id":"levelo_inurba_marseille","lat":43.301117,"lon":5.398795,"is_reserved":false,"is_disabled":false,"rental_uris":{"android":"levelo://app?vid=9e9e9b8e-d854-491e-9925-50abb0cf1ec6","ios":"levelo://app?vid=9e9e9b8e-d854-491e-9925-50abb0cf1ec6"},"vehicle_type_id":"4","last_reported":1703516866,"current_range_meters":19600,"station_id":"ce4bh0h2rcd13ifvqd40","pricing_plan_id":"free"},{"bike_id":"2bc07a33-4447-42c0-881a-ed8fe29b5daa","system_id":"levelo_inurba_marseille","lat":43.301117,"lon":5.398795,"is_reserved":false,"is_disabled":false,"rental_uris":{"android":"levelo://app?vid=2bc07a33-4447-42c0-881a-ed8fe29b5daa","ios":"levelo://app?vid=2bc07a33-4447-42c0-881a-ed8fe29b5daa"},"vehicle_type_id":"4","last_reported":1703516866,"current_range_meters":26000,"station_id":"ce4bh0h2rcd13ifvqd40","pricing_plan_id":"free"},{"bike_id":"1dc0891e-bdae-4471-9be5-e8ba59d42c01","system_id":"levelo_inurba_marseille","lat":43.28727,"lon":5.36078,"is_reserved":false,"is_disabled":false,"rental_uris":{"android":"levelo://app?vid=1dc0891e-bdae-4471-9be5-e8ba59d42c01","ios":"levelo://app?vid=1dc0891e-bdae-4471-9be5-e8ba59d42c01"},"vehicle_type_id":"4","last_reported":1703516866,"current_range_meters":22000,"station_id":"cki0cbj6b192h4jlfktg","pricing_plan_id":"free"},{"bike_id":"39a14af4-dfd0-4122-9091-4d883e694e7a","system_id":"levelo_inurba_marseille","lat":43.295194,"lon":5.39397,"is_reserved":false,"is_disabled":false,"rental_uris":{"android":"levelo://app?vid=39a14af4-dfd0-4122-9091-4d883e694e7a","ios":"levelo://app?vid=39a14af4-dfd0-4122-9091-4d883e694e7a"},"vehicle_type_id":"4","last_reported":1703516866,"current_range_meters":20000,"station_id":"ce4bh292rcd13ifvqdf0","pricing_plan_id":"free"},{"bike_id":"078e8492-0ffa-428a-88be-28f42d0aec9c","system_id":"levelo_inurba_marseille","lat":43.286591,"lon":5.363346,"is_reserved":false,"is_disabled":false,"rental_uris":{"android":"levelo://app?vid=078e8492-0ffa-428a-88be-28f42d0aec9c","ios":"levelo://app?vid=078e8492-0ffa-428a-88be-28f42d0aec9c"},"vehicle_type_id":"4","last_reported":1703516866,"current_range_meters":15200,"station_id":"ce4bhah2rcd13ifvqej0","pricing_plan_id":"free"},{"bike_id":"a9a41def-53c5-4d15-9a54-d5705f70e060","system_id":"levelo_inurba_marseille","lat":43.286961,"lon":5.373785,"is_reserved":false,"is_disabled":false,"rental_uris":{"android":"levelo://app?vid=a9a41def-53c5-4d15-9a54-d5705f70e060","ios":"levelo://app?vid=a9a41def-53c5-4d15-9a54-d5705f70e060"},"vehicle_type_id":"4","last_reported":1703516866,"current_range_meters":30800,"station_id":"ce4bh3p2rcd13ifvqdq0","pricing_plan_id":"free"},{"bike_id":"34270f26-8a19-4c9b-9c09-f386b405438e","system_id":"levelo_inurba_marseille","lat":43.286984,"lon":5.37386,"is_reserved":false,"is_disabled":false,"rental_uris":{"android":"levelo://app?vid=34270f26-8a19-4c9b-9c09-f386b405438e","ios":"levelo://app?vid=34270f26-8a19-4c9b-9c09-f386b405438e"},"vehicle_type_id":"4","last_reported":1703516866,"current_range_meters":22800,"station_id":"ce4bh3p2rcd13ifvqdq0","pricing_plan_id":"free"},{"bike_id":"a4f81d61-acdb-444b-af8b-b6298de33ea6","system_id":"levelo_inurba_marseille","lat":43.290345,"lon":5.38646,"is_reserved":false,"is_disabled":false,"rental_uris":{"android":"levelo://app?vid=a4f81d61-acdb-444b-af8b-b6298de33ea6","ios":"levelo://app?vid=a4f81d61-acdb-444b-af8b-b6298de33ea6"},"vehicle_type_id":"4","last_reported":1703516866,"current_range_meters":9200,"station_id":"ce4bh4p2rcd13ifvqe0g","pricing_plan_id":"free"},{"bike_id":"63e0d8a5-7792-41f7-b736-896da7a892f4","system_id":"levelo_inurba_marseille","lat":43.302759,"lon":5.400793,"is_reserved":false,"is_disabled":false,"rental_uris":{"android":"levelo://app?vid=63e0d8a5-7792-41f7-b736-896da7a892f4","ios":"levelo://app?vid=63e0d8a5-7792-41f7-b736-896da7a892f4"},"vehicle_type_id":"4","last_reported":1703516866,"current_range_meters":13200,"station_id":"ce4bgvh2rcd13ifvqcs0","pricing_plan_id":"free"},{"bike_id":"d59e8884-ab49-4eee-b8d1-c25f52a7bbc0","system_id":"levelo_inurba_marseille","lat":43.290345,"lon":5.38646,"is_reserved":false,"is_disabled":false,"rental_uris":{"android":"levelo://app?vid=d59e8884-ab49-4eee-b8d1-c25f52a7bbc0","ios":"levelo://app?vid=d59e8884-ab49-4eee-b8d1-c25f52a7bbc0"},"vehicle_type_id":"4","last_reported":1703516866,"current_range_meters":20000,"station_id":"ce4bh4p2rcd13ifvqe0g","pricing_plan_id":"free"},{"bike_id":"58287bc2-f798-447f-98f0-1feb0986d5f9","system_id":"levelo_inurba_marseille","lat":43.289307,"lon":5.38406,"is_reserved":false,"is_disabled":false,"rental_uris":{"android":"levelo://app?vid=58287bc2-f798-447f-98f0-1feb0986d5f9","ios":"levelo://app?vid=58287bc2-f798-447f-98f0-1feb0986d5f9"},"vehicle_type_id":"4","last_reported":1703516866,"current_range_meters":10000,"station_id":"ce4bh612rcd13ifvqe6g","pricing_plan_id":"free"},{"bike_id":"473c1e5e-278e-4102-ae3c-f9bda1672599","system_id":"levelo_inurba_marseille","lat":43.302759,"lon":5.400793,"is_reserved":false,"is_disabled":false,"rental_uris":{"android":"levelo://app?vid=473c1e5e-278e-4102-ae3c-f9bda1672599","ios":"levelo://app?vid=473c1e5e-278e-4102-ae3c-f9bda1672599"},"vehicle_type_id":"4","last_reported":1703516866,"current_range_meters":30000,"station_id":"ce4bgvh2rcd13ifvqcs0","pricing_plan_id":"free"},{"bike_id":"a0b03d8e-4166-4eac-aae3-14551c30d7f6","system_id":"levelo_inurba_marseille","lat":43.289307,"lon":5.38406,"is_reserved":false,"is_disabled":false,"rental_uris":{"android":"levelo://app?vid=a0b03d8e-4166-4eac-aae3-14551c30d7f6","ios":"levelo://app?vid=a0b03d8e-4166-4eac-aae3-14551c30d7f6"},"vehicle_type_id":"4","last_reported":1703516866,"current_range_meters":21600,"station_id":"ce4bh612rcd13ifvqe6g","pricing_plan_id":"free"},{"bike_id":"b269c749-19b3-457a-9f11-021ccc443c55","system_id":"levelo_inurba_marseille","lat":43.286039,"lon":5.370679,"is_reserved":false,"is_disabled":false,"rental_uris":{"android":"levelo://app?vid=b269c749-19b3-457a-9f11-021ccc443c55","ios":"levelo://app?vid=b269c749-19b3-457a-9f11-021ccc443c55"},"vehicle_type_id":"4","last_reported":1703516866,"current_range_meters":8000,"station_id":"ce4bht12rcd13ifvqi60","pricing_plan_id":"free"},{"bike_id":"96032c65-ad05-4627-9655-b64d1764d84b","system_id":"levelo_inurba_marseille","lat":43.286079,"lon":5.370641,"is_reserved":false,"is_disabled":false,"rental_uris":{"android":"levelo://app?vid=96032c65-ad05-4627-9655-b64d1764d84b","ios":"levelo://app?vid=96032c65-ad05-4627-9655-b64d1764d84b"},"vehicle_type_id":"4","last_reported":1703516866,"current_range_meters":8000,"station_id":"ce4bht12rcd13ifvqi60","pricing_plan_id":"free"},{"bike_id":"0ade99fb-20fc-423b-a697-58876a6bf0b1","system_id":"levelo_inurba_marseille","lat":43.287098,"lon":5.379418,"is_reserved":false,"is_disabled":false,"rental_uris":{"android":"levelo://app?vid=0ade99fb-20fc-423b-a697-58876a6bf0b1","ios":"levelo://app?vid=0ade99fb-20fc-423b-a697-58876a6bf0b1"},"vehicle_type_id":"4","last_reported":1703516866,"current_range_meters":22000,"station_id":"ce4bh9p2rcd13ifvqec0","pricing_plan_id":"free"},{"bike_id":"dbeecb73-5059-45c7-a2e2-9e11f0ac9bbb","system_id":"levelo_inurba_marseille","lat":43.316828,"lon":5.404723,"is_reserved":false,"is_disabled":false,"rental_uris":{"android":"levelo://app?vid=dbeecb73-5059-45c7-a2e2-9e11f0ac9bbb","ios":"levelo://app?vid=dbeecb73-5059-45c7-a2e2-9e11f0ac9bbb"},"vehicle_type_id":"4","last_reported":1703516866,"current_range_meters":1600,"station_id":"ce4bh012rcd13ifvqd00","pricing_plan_id":"free"},{"bike_id":"1b81ae89-ad57-479b-9bf6-99b606e887a6","system_id":"levelo_inurba_marseille","lat":43.286039,"lon":5.370679,"is_reserved":false,"is_disabled":false,"rental_uris":{"android":"levelo://app?vid=1b81ae89-ad57-479b-9bf6-99b606e887a6","ios":"levelo://app?vid=1b81ae89-ad57-479b-9bf6-99b606e887a6"},"vehicle_type_id":"4","last_reported":1703516866,"current_range_meters":20400,"station_id":"ce4bht12rcd13ifvqi60","pricing_plan_id":"free"},{"bike_id":"e2adfa7c-882e-48a1-9ee4-b36e6186ebbf","system_id":"levelo_inurba_marseille","lat":43.330912,"lon":5.396935,"is_reserved":false,"is_disabled":false,"rental_uris":{"android":"levelo://app?vid=e2adfa7c-882e-48a1-9ee4-b36e6186ebbf","ios":"levelo://app?vid=e2adfa7c-882e-48a1-9ee4-b36e6186ebbf"},"vehicle_type_id":"4","last_reported":1703516866,"current_range_meters":6400,"station_id":"","pricing_plan_id":"free"},{"bike_id":"a17e4ab5-52b6-4c60-aeac-ef587566d885","system_id":"levelo_inurba_marseille","lat":43.285856,"lon":5.350771,"is_reserved":false,"is_disabled":false,"rental_uris":{"android":"levelo://app?vid=a17e4ab5-52b6-4c60-aeac-ef587566d885","ios":"levelo://app?vid=a17e4ab5-52b6-4c60-aeac-ef587566d885"},"vehicle_type_id":"4","last_reported":1703516866,"current_range_meters":12800,"station_id":"ce4bhch2rcd13ifvqeug","pricing_plan_id":"free"},{"bike_id":"7cd54627-9d9c-47a0-bc06-cdf97fe4b863","system_id":"levelo_inurba_marseille","lat":43.28411,"lon":5.37509,"is_reserved":false,"is_disabled":false,"rental_uris":{"android":"levelo://app?vid=7cd54627-9d9c-47a0-bc06-cdf97fe4b863","ios":"levelo://app?vid=7cd54627-9d9c-47a0-bc06-cdf97fe4b863"},"vehicle_type_id":"4","last_reported":1703516866,"current_range_meters":28400,"station_id":"ce4bh412rcd13ifvqds0","pricing_plan_id":"free"},{"bike_id":"f9603070-0680-427d-9d31-c2a8be4b77dd","system_id":"levelo_inurba_marseille","lat":43.284108,"lon":5.375179,"is_reserved":false,"is_disabled":false,"rental_uris":{"android":"levelo://app?vid=f9603070-0680-427d-9d31-c2a8be4b77dd","ios":"levelo://app?vid=f9603070-0680-427d-9d31-c2a8be4b77dd"},"vehicle_type_id":"4","last_reported":1703516866,"current_range_meters":27200,"station_id":"ce4bh412rcd13ifvqds0","pricing_plan_id":"free"},{"bike_id":"e850cd16-ef78-4deb-869a-2ee37313d924","system_id":"levelo_inurba_marseille","lat":43.284068,"lon":5.375215,"is_reserved":false,"is_disabled":false,"rental_uris":{"android":"levelo://app?vid=e850cd16-ef78-4deb-869a-2ee37313d924","ios":"levelo://app?vid=e850cd16-ef78-4deb-869a-2ee37313d924"},"vehicle_type_id":"4","last_reported":1703516866,"current_range_meters":28400,"station_id":"ce4bh412rcd13ifvqds0","pricing_plan_id":"free"},{"bike_id":"4b92f191-3eb0-4b5e-b3ef-9022093d8a51","system_id":"levelo_inurba_marseille","lat":43.295713,"lon":5.399639,"is_reserved":false,"is_disabled":false,"rental_uris":{"android":"levelo://app?vid=4b92f191-3eb0-4b5e-b3ef-9022093d8a51","ios":"levelo://app?vid=4b92f191-3eb0-4b5e-b3ef-9022093d8a51"},"vehicle_type_id":"4","last_reported":1703516866,"current_range_meters":10800,"station_id":"ce4bh312rcd13ifvqdj0","pricing_plan_id":"free"},{"bike_id":"ca85105c-2942-4e34-baf9-8a1f18d8f8e5","system_id":"levelo_inurba_marseille","lat":43.283998,"lon":5.375062,"is_reserved":false,"is_disabled":false,"rental_uris":{"android":"levelo://app?vid=ca85105c-2942-4e34-baf9-8a1f18d8f8e5","ios":"levelo://app?vid=ca85105c-2942-4e34-baf9-8a1f18d8f8e5"},"vehicle_type_id":"4","last_reported":1703516866,"current_range_meters":20400,"station_id":"ce4bh412rcd13ifvqds0","pricing_plan_id":"free"},{"bike_id":"89867a69-c089-47be-910e-1c8a1d09a954","system_id":"levelo_inurba_marseille","lat":43.334065,"lon":5.396462,"is_reserved":false,"is_disabled":false,"rental_uris":{"android":"levelo://app?vid=89867a69-c089-47be-910e-1c8a1d09a954","ios":"levelo://app?vid=89867a69-c089-47be-910e-1c8a1d09a954"},"vehicle_type_id":"4","last_reported":1703516866,"current_range_meters":17200,"station_id":"","pricing_plan_id":"free"},{"bike_id":"d3f87648-fa46-4e0f-85a3-39f063b748e0","system_id":"levelo_inurba_marseille","lat":43.334159,"lon":5.396448,"is_reserved":false,"is_disabled":false,"rental_uris":{"android":"levelo://app?vid=d3f87648-fa46-4e0f-85a3-39f063b748e0","ios":"levelo://app?vid=d3f87648-fa46-4e0f-85a3-39f063b748e0"},"vehicle_type_id":"4","last_reported":1703516866,"current_range_meters":28800,"station_id":"","pricing_plan_id":"free"},{"bike_id":"ff6ebe2d-10e0-4bee-8d5b-0d34d0573673","system_id":"levelo_inurba_marseille","lat":43.337216,"lon":5.391597,"is_reserved":false,"is_disabled":false,"rental_uris":{"android":"levelo://app?vid=ff6ebe2d-10e0-4bee-8d5b-0d34d0573673","ios":"levelo://app?vid=ff6ebe2d-10e0-4bee-8d5b-0d34d0573673"},"vehicle_type_id":"4","last_reported":1703516866,"current_range_meters":22000,"station_id":"ce4bhr92rcd13ifvqhsg","pricing_plan_id":"free"},{"bike_id":"9960fa43-3a3b-4d5b-8fe2-258b49d47b49","system_id":"levelo_inurba_marseille","lat":43.323464,"lon":5.406297,"is_reserved":false,"is_disabled":false,"rental_uris":{"android":"levelo://app?vid=9960fa43-3a3b-4d5b-8fe2-258b49d47b49","ios":"levelo://app?vid=9960fa43-3a3b-4d5b-8fe2-258b49d47b49"},"vehicle_type_id":"4","last_reported":1703516866,"current_range_meters":28000,"station_id":"ce4bhq92rcd13ifvqhjg","pricing_plan_id":"free"},{"bike_id":"395fc25e-36a4-44c1-8acc-f376079e065a","system_id":"levelo_inurba_marseille","lat":43.284793,"lon":5.384113,"is_reserved":false,"is_disabled":false,"rental_uris":{"android":"levelo://app?vid=395fc25e-36a4-44c1-8acc-f376079e065a","ios":"levelo://app?vid=395fc25e-36a4-44c1-8acc-f376079e065a"},"vehicle_type_id":"4","last_reported":1703516866,"current_range_meters":17600,"station_id":"ce4bh512rcd13ifvqe3g","pricing_plan_id":"free"},{"bike_id":"e6e7823c-6441-4850-a54a-975b408c69ec","system_id":"levelo_inurba_marseille","lat":43.297946,"lon":5.404063,"is_reserved":false,"is_disabled":false,"rental_uris":{"android":"levelo://app?vid=e6e7823c-6441-4850-a54a-975b408c69ec","ios":"levelo://app?vid=e6e7823c-6441-4850-a54a-975b408c69ec"},"vehicle_type_id":"4","last_reported":1703516866,"current_range_meters":22000,"station_id":"ce4bh112rcd13ifvqd90","pricing_plan_id":"free"},{"bike_id":"b6cbb2cc-0e52-4845-9ed3-5aa1c8fffb08","system_id":"levelo_inurba_marseille","lat":43.29795,"lon":5.404086,"is_reserved":false,"is_disabled":false,"rental_uris":{"android":"levelo://app?vid=b6cbb2cc-0e52-4845-9ed3-5aa1c8fffb08","ios":"levelo://app?vid=b6cbb2cc-0e52-4845-9ed3-5aa1c8fffb08"},"vehicle_type_id":"4","last_reported":1703516866,"current_range_meters":28400,"station_id":"ce4bh112rcd13ifvqd90","pricing_plan_id":"free"},{"bike_id":"6ef55e9e-cfd5-49ee-af1b-605f29c5036e","system_id":"levelo_inurba_marseille","lat":43.284787,"lon":5.384116,"is_reserved":false,"is_disabled":false,"rental_uris":{"android":"levelo://app?vid=6ef55e9e-cfd5-49ee-af1b-605f29c5036e","ios":"levelo://app?vid=6ef55e9e-cfd5-49ee-af1b-605f29c5036e"},"vehicle_type_id":"4","last_reported":1703516866,"current_range_meters":22000,"station_id":"ce4bh512rcd13ifvqe3g","pricing_plan_id":"free"},{"bike_id":"d29e38fc-d648-40ac-8dcb-6f984d1d59d8","system_id":"levelo_inurba_marseille","lat":43.288501,"lon":5.393087,"is_reserved":false,"is_disabled":false,"rental_uris":{"android":"levelo://app?vid=d29e38fc-d648-40ac-8dcb-6f984d1d59d8","ios":"levelo://app?vid=d29e38fc-d648-40ac-8dcb-6f984d1d59d8"},"vehicle_type_id":"4","last_reported":1703516866,"current_range_meters":7600,"station_id":"ce4bh2p2rcd13ifvqdi0","pricing_plan_id":"free"},{"bike_id":"78ca229e-b03b-456e-8eab-9b1fbaa7aaee","system_id":"levelo_inurba_marseille","lat":43.283615,"lon":5.38108,"is_reserved":false,"is_disabled":false,"rental_uris":{"android":"levelo://app?vid=78ca229e-b03b-456e-8eab-9b1fbaa7aaee","ios":"levelo://app?vid=78ca229e-b03b-456e-8eab-9b1fbaa7aaee"},"vehicle_type_id":"4","last_reported":1703516866,"current_range_meters":27200,"station_id":"ce4bh412rcd13ifvqdr0","pricing_plan_id":"free"},{"bike_id":"6e43f46b-f8c4-4887-9f97-dd8c37b05ed4","system_id":"levelo_inurba_marseille","lat":43.283538,"lon":5.381087,"is_reserved":false,"is_disabled":false,"rental_uris":{"android":"levelo://app?vid=6e43f46b-f8c4-4887-9f97-dd8c37b05ed4","ios":"levelo://app?vid=6e43f46b-f8c4-4887-9f97-dd8c37b05ed4"},"vehicle_type_id":"4","last_reported":1703516866,"current_range_meters":23600,"station_id":"ce4bh412rcd13ifvqdr0","pricing_plan_id":"free"},{"bike_id":"ab442026-4705-4ea8-8770-81d3454bc0d6","system_id":"levelo_inurba_marseille","lat":43.283494,"lon":5.380945,"is_reserved":false,"is_disabled":false,"rental_uris":{"android":"levelo://app?vid=ab442026-4705-4ea8-8770-81d3454bc0d6","ios":"levelo://app?vid=ab442026-4705-4ea8-8770-81d3454bc0d6"},"vehicle_type_id":"4","last_reported":1703516866,"current_range_meters":26400,"station_id":"ce4bh412rcd13ifvqdr0","pricing_plan_id":"free"},{"bike_id":"661301de-964b-448d-a6a9-82e6ee3b0808","system_id":"levelo_inurba_marseille","lat":43.288501,"lon":5.393087,"is_reserved":false,"is_disabled":false,"rental_uris":{"android":"levelo://app?vid=661301de-964b-448d-a6a9-82e6ee3b0808","ios":"levelo://app?vid=661301de-964b-448d-a6a9-82e6ee3b0808"},"vehicle_type_id":"4","last_reported":1703516866,"current_range_meters":2000,"station_id":"ce4bh2p2rcd13ifvqdi0","pricing_plan_id":"free"},{"bike_id":"ffa1f05d-fc3a-4fbe-a06b-b19cb3953ea5","system_id":"levelo_inurba_marseille","lat":43.284219,"lon":5.3497,"is_reserved":false,"is_disabled":false,"rental_uris":{"android":"levelo://app?vid=ffa1f05d-fc3a-4fbe-a06b-b19cb3953ea5","ios":"levelo://app?vid=ffa1f05d-fc3a-4fbe-a06b-b19cb3953ea5"},"vehicle_type_id":"4","last_reported":1703516866,"current_range_meters":22400,"station_id":"ce4bhbh2rcd13ifvqepg","pricing_plan_id":"free"},{"bike_id":"2321f42b-f7c7-433f-9ecc-17be99492065","system_id":"levelo_inurba_marseille","lat":43.289363,"lon":5.396322,"is_reserved":false,"is_disabled":false,"rental_uris":{"android":"levelo://app?vid=2321f42b-f7c7-433f-9ecc-17be99492065","ios":"levelo://app?vid=2321f42b-f7c7-433f-9ecc-17be99492065"},"vehicle_type_id":"4","last_reported":1703516866,"current_range_meters":25600,"station_id":"ce4bh3h2rcd13ifvqdn0","pricing_plan_id":"free"},{"bike_id":"931b787b-bd0c-410f-8371-c4913dc6c20d","system_id":"levelo_inurba_marseille","lat":43.292724,"lon":5.401131,"is_reserved":false,"is_disabled":false,"rental_uris":{"android":"levelo://app?vid=931b787b-bd0c-410f-8371-c4913dc6c20d","ios":"levelo://app?vid=931b787b-bd0c-410f-8371-c4913dc6c20d"},"vehicle_type_id":"4","last_reported":1703516866,"current_range_meters":30000,"station_id":"ce4bh312rcd13ifvqdk0","pricing_plan_id":"free"},{"bike_id":"e4cd560c-81ae-4435-a296-c81406a05177","system_id":"levelo_inurba_marseille","lat":43.282744,"lon":5.350533,"is_reserved":false,"is_disabled":false,"rental_uris":{"android":"levelo://app?vid=e4cd560c-81ae-4435-a296-c81406a05177","ios":"levelo://app?vid=e4cd560c-81ae-4435-a296-c81406a05177"},"vehicle_type_id":"4","last_reported":1703516866,"current_range_meters":0,"station_id":"ce4bhbp2rcd13ifvqerg","pricing_plan_id":"free"},{"bike_id":"a1a376e9-f1bf-476d-80d5-7ad3655ed9dc","system_id":"levelo_inurba_marseille","lat":43.283502,"lon":5.386471,"is_reserved":false,"is_disabled":false,"rental_uris":{"android":"levelo://app?vid=a1a376e9-f1bf-476d-80d5-7ad3655ed9dc","ios":"levelo://app?vid=a1a376e9-f1bf-476d-80d5-7ad3655ed9dc"},"vehicle_type_id":"4","last_reported":1703516866,"current_range_meters":24800,"station_id":"ce4bh492rcd13ifvqdvg","pricing_plan_id":"free"},{"bike_id":"fd64ab53-1260-489c-92a5-b3b595a19137","system_id":"levelo_inurba_marseille","lat":43.282744,"lon":5.350533,"is_reserved":false,"is_disabled":false,"rental_uris":{"android":"levelo://app?vid=fd64ab53-1260-489c-92a5-b3b595a19137","ios":"levelo://app?vid=fd64ab53-1260-489c-92a5-b3b595a19137"},"vehicle_type_id":"4","last_reported":1703516866,"current_range_meters":11200,"station_id":"ce4bhbp2rcd13ifvqerg","pricing_plan_id":"free"},{"bike_id":"7ae581f4-240f-4667-9e29-a5800a4868bd","system_id":"levelo_inurba_marseille","lat":43.283502,"lon":5.386471,"is_reserved":false,"is_disabled":false,"rental_uris":{"android":"levelo://app?vid=7ae581f4-240f-4667-9e29-a5800a4868bd","ios":"levelo://app?vid=7ae581f4-240f-4667-9e29-a5800a4868bd"},"vehicle_type_id":"4","last_reported":1703516866,"current_range_meters":10800,"station_id":"ce4bh492rcd13ifvqdvg","pricing_plan_id":"free"},{"bike_id":"41c2166f-fa47-4631-9fc0-f95728f1d3ee","system_id":"levelo_inurba_marseille","lat":43.281044,"lon":5.378308,"is_reserved":false,"is_disabled":false,"rental_uris":{"android":"levelo://app?vid=41c2166f-fa47-4631-9fc0-f95728f1d3ee","ios":"levelo://app?vid=41c2166f-fa47-4631-9fc0-f95728f1d3ee"},"vehicle_type_id":"4","last_reported":1703516866,"current_range_meters":13200,"station_id":"ce4bha12rcd13ifvqee0","pricing_plan_id":"free"},{"bike_id":"5ef6d355-8f06-4aef-9a9e-1ea0915f868b","system_id":"levelo_inurba_marseille","lat":43.281044,"lon":5.378308,"is_reserved":false,"is_disabled":false,"rental_uris":{"android":"levelo://app?vid=5ef6d355-8f06-4aef-9a9e-1ea0915f868b","ios":"levelo://app?vid=5ef6d355-8f06-4aef-9a9e-1ea0915f868b"},"vehicle_type_id":"4","last_reported":1703516866,"current_range_meters":30800,"station_id":"ce4bha12rcd13ifvqee0","pricing_plan_id":"free"},{"bike_id":"8ec641e4-f2ac-44cf-83c5-edf202f88352","system_id":"levelo_inurba_marseille","lat":43.284462,"lon":5.392121,"is_reserved":false,"is_disabled":false,"rental_uris":{"android":"levelo://app?vid=8ec641e4-f2ac-44cf-83c5-edf202f88352","ios":"levelo://app?vid=8ec641e4-f2ac-44cf-83c5-edf202f88352"},"vehicle_type_id":"4","last_reported":1703516866,"current_range_meters":31200,"station_id":"ce4bhoh2rcd13ifvqh5g","pricing_plan_id":"free"},{"bike_id":"386b6e80-ff1e-45a3-8fe6-96e070e7707f","system_id":"levelo_inurba_marseille","lat":43.28573,"lon":5.394992,"is_reserved":false,"is_disabled":false,"rental_uris":{"android":"levelo://app?vid=386b6e80-ff1e-45a3-8fe6-96e070e7707f","ios":"levelo://app?vid=386b6e80-ff1e-45a3-8fe6-96e070e7707f"},"vehicle_type_id":"4","last_reported":1703516866,"current_range_meters":28000,"station_id":"ce4bh292rcd13ifvqdg0","pricing_plan_id":"free"},{"bike_id":"a90a4511-e052-416d-9223-4aa98a65dd34","system_id":"levelo_inurba_marseille","lat":43.279087,"lon":5.380114,"is_reserved":false,"is_disabled":false,"rental_uris":{"android":"levelo://app?vid=a90a4511-e052-416d-9223-4aa98a65dd34","ios":"levelo://app?vid=a90a4511-e052-416d-9223-4aa98a65dd34"},"vehicle_type_id":"4","last_reported":1703516866,"current_range_meters":30000,"station_id":"ce4bhf92rcd13ifvqf50","pricing_plan_id":"free"},{"bike_id":"54b7d54a-960b-4b3b-9356-ba0fe924846b","system_id":"levelo_inurba_marseille","lat":43.279087,"lon":5.380114,"is_reserved":false,"is_disabled":false,"rental_uris":{"android":"levelo://app?vid=54b7d54a-960b-4b3b-9356-ba0fe924846b","ios":"levelo://app?vid=54b7d54a-960b-4b3b-9356-ba0fe924846b"},"vehicle_type_id":"4","last_reported":1703516866,"current_range_meters":28000,"station_id":"ce4bhf92rcd13ifvqf50","pricing_plan_id":"free"},{"bike_id":"79a5c4fc-fe0f-4bef-847a-23b2a0cf49b3","system_id":"levelo_inurba_marseille","lat":43.287154,"lon":5.399979,"is_reserved":false,"is_disabled":false,"rental_uris":{"android":"levelo://app?vid=79a5c4fc-fe0f-4bef-847a-23b2a0cf49b3","ios":"levelo://app?vid=79a5c4fc-fe0f-4bef-847a-23b2a0cf49b3"},"vehicle_type_id":"4","last_reported":1703516866,"current_range_meters":23200,"station_id":"ce4bho92rcd13ifvqh3g","pricing_plan_id":"free"},{"bike_id":"8273d5ec-0acc-4ee7-99a3-3e42bcc89121","system_id":"levelo_inurba_marseille","lat":43.320045,"lon":5.415046,"is_reserved":false,"is_disabled":false,"rental_uris":{"android":"levelo://app?vid=8273d5ec-0acc-4ee7-99a3-3e42bcc89121","ios":"levelo://app?vid=8273d5ec-0acc-4ee7-99a3-3e42bcc89121"},"vehicle_type_id":"4","last_reported":1703516866,"current_range_meters":30800,"station_id":"ce4bhq92rcd13ifvqhkg","pricing_plan_id":"free"},{"bike_id":"94e0b362-e115-460f-a39a-ef14e9953cd7","system_id":"levelo_inurba_marseille","lat":43.320045,"lon":5.415046,"is_reserved":false,"is_disabled":false,"rental_uris":{"android":"levelo://app?vid=94e0b362-e115-460f-a39a-ef14e9953cd7","ios":"levelo://app?vid=94e0b362-e115-460f-a39a-ef14e9953cd7"},"vehicle_type_id":"4","last_reported":1703516866,"current_range_meters":26800,"station_id":"ce4bhq92rcd13ifvqhkg","pricing_plan_id":"free"},{"bike_id":"d687e567-6e1b-420b-9e1f-03f14703ae85","system_id":"levelo_inurba_marseille","lat":43.292569,"lon":5.409107,"is_reserved":false,"is_disabled":false,"rental_uris":{"android":"levelo://app?vid=d687e567-6e1b-420b-9e1f-03f14703ae85","ios":"levelo://app?vid=d687e567-6e1b-420b-9e1f-03f14703ae85"},"vehicle_type_id":"4","last_reported":1703516866,"current_range_meters":31200,"station_id":"ce4bh192rcd13ifvqdc0","pricing_plan_id":"free"},{"bike_id":"143a6b6a-65da-44af-ba7e-91189f646f24","system_id":"levelo_inurba_marseille","lat":43.280784,"lon":5.396622,"is_reserved":false,"is_disabled":false,"rental_uris":{"android":"levelo://app?vid=143a6b6a-65da-44af-ba7e-91189f646f24","ios":"levelo://app?vid=143a6b6a-65da-44af-ba7e-91189f646f24"},"vehicle_type_id":"4","last_reported":1703516866,"current_range_meters":27200,"station_id":"ce4bho12rcd13ifvqh2g","pricing_plan_id":"free"},{"bike_id":"921ed6c5-ef26-40fb-b950-d9f07fbc2ffa","system_id":"levelo_inurba_marseille","lat":43.27978,"lon":5.39492,"is_reserved":false,"is_disabled":false,"rental_uris":{"android":"levelo://app?vid=921ed6c5-ef26-40fb-b950-d9f07fbc2ffa","ios":"levelo://app?vid=921ed6c5-ef26-40fb-b950-d9f07fbc2ffa"},"vehicle_type_id":"4","last_reported":1703516866,"current_range_meters":18400,"station_id":"","pricing_plan_id":"free"},{"bike_id":"a1fd9245-3a45-44e6-ad1e-18749d45dc12","system_id":"levelo_inurba_marseille","lat":43.303837,"lon":5.418724,"is_reserved":false,"is_disabled":false,"rental_uris":{"android":"levelo://app?vid=a1fd9245-3a45-44e6-ad1e-18749d45dc12","ios":"levelo://app?vid=a1fd9245-3a45-44e6-ad1e-18749d45dc12"},"vehicle_type_id":"4","last_reported":1703516866,"current_range_meters":20000,"station_id":"ce4bhop2rcd13ifvqh7g","pricing_plan_id":"free"},{"bike_id":"73214d70-5c74-43dc-a3a8-a6058dce0a73","system_id":"levelo_inurba_marseille","lat":43.27378,"lon":5.36258,"is_reserved":false,"is_disabled":false,"rental_uris":{"android":"levelo://app?vid=73214d70-5c74-43dc-a3a8-a6058dce0a73","ios":"levelo://app?vid=73214d70-5c74-43dc-a3a8-a6058dce0a73"},"vehicle_type_id":"4","last_reported":1703516866,"current_range_meters":31200,"station_id":"ce4bhbh2rcd13ifvqeo0","pricing_plan_id":"free"},{"bike_id":"bc1dfca4-59de-4520-9b00-ec9384b98c0a","system_id":"levelo_inurba_marseille","lat":43.27375,"lon":5.36258,"is_reserved":false,"is_disabled":false,"rental_uris":{"android":"levelo://app?vid=bc1dfca4-59de-4520-9b00-ec9384b98c0a","ios":"levelo://app?vid=bc1dfca4-59de-4520-9b00-ec9384b98c0a"},"vehicle_type_id":"4","last_reported":1703516866,"current_range_meters":21200,"station_id":"ce4bhbh2rcd13ifvqeo0","pricing_plan_id":"free"},{"bike_id":"2ee11953-dfeb-4289-812c-d437ff4f1307","system_id":"levelo_inurba_marseille","lat":43.273609,"lon":5.362708,"is_reserved":false,"is_disabled":false,"rental_uris":{"android":"levelo://app?vid=2ee11953-dfeb-4289-812c-d437ff4f1307","ios":"levelo://app?vid=2ee11953-dfeb-4289-812c-d437ff4f1307"},"vehicle_type_id":"4","last_reported":1703516866,"current_range_meters":26400,"station_id":"ce4bhbh2rcd13ifvqeo0","pricing_plan_id":"free"},{"bike_id":"dcf70f22-b56e-479f-b05f-19857f37d991","system_id":"levelo_inurba_marseille","lat":43.273609,"lon":5.362708,"is_reserved":false,"is_disabled":false,"rental_uris":{"android":"levelo://app?vid=dcf70f22-b56e-479f-b05f-19857f37d991","ios":"levelo://app?vid=dcf70f22-b56e-479f-b05f-19857f37d991"},"vehicle_type_id":"4","last_reported":1703516866,"current_range_meters":20400,"station_id":"ce4bhbh2rcd13ifvqeo0","pricing_plan_id":"free"},{"bike_id":"b9c8771f-f21e-491d-9d34-a2a95d8c46ac","system_id":"levelo_inurba_marseille","lat":43.279975,"lon":5.40009,"is_reserved":false,"is_disabled":false,"rental_uris":{"android":"levelo://app?vid=b9c8771f-f21e-491d-9d34-a2a95d8c46ac","ios":"levelo://app?vid=b9c8771f-f21e-491d-9d34-a2a95d8c46ac"},"vehicle_type_id":"4","last_reported":1703516866,"current_range_meters":29200,"station_id":"ce4bho92rcd13ifvqh4g","pricing_plan_id":"free"},{"bike_id":"49dd9066-de0b-43da-bf41-7fc4860368dd","system_id":"levelo_inurba_marseille","lat":43.279975,"lon":5.40009,"is_reserved":false,"is_disabled":false,"rental_uris":{"android":"levelo://app?vid=49dd9066-de0b-43da-bf41-7fc4860368dd","ios":"levelo://app?vid=49dd9066-de0b-43da-bf41-7fc4860368dd"},"vehicle_type_id":"4","last_reported":1703516866,"current_range_meters":18400,"station_id":"ce4bho92rcd13ifvqh4g","pricing_plan_id":"free"},{"bike_id":"a31403d3-3f52-46c5-bf04-84e097645452","system_id":"levelo_inurba_marseille","lat":43.317121,"lon":5.423936,"is_reserved":false,"is_disabled":false,"rental_uris":{"android":"levelo://app?vid=a31403d3-3f52-46c5-bf04-84e097645452","ios":"levelo://app?vid=a31403d3-3f52-46c5-bf04-84e097645452"},"vehicle_type_id":"4","last_reported":1703516866,"current_range_meters":27600,"station_id":"ce4bhp92rcd13ifvqhbg","pricing_plan_id":"free"},{"bike_id":"136cb9da-15ee-40e3-bc2c-40c9c9d6a86d","system_id":"levelo_inurba_marseille","lat":43.317121,"lon":5.423936,"is_reserved":false,"is_disabled":false,"rental_uris":{"android":"levelo://app?vid=136cb9da-15ee-40e3-bc2c-40c9c9d6a86d","ios":"levelo://app?vid=136cb9da-15ee-40e3-bc2c-40c9c9d6a86d"},"vehicle_type_id":"4","last_reported":1703516866,"current_range_meters":30800,"station_id":"ce4bhp92rcd13ifvqhbg","pricing_plan_id":"free"},{"bike_id":"ec9bed21-ab15-4437-b93e-3ba68087485a","system_id":"levelo_inurba_marseille","lat":43.31086,"lon":5.42431,"is_reserved":false,"is_disabled":false,"rental_uris":{"android":"levelo://app?vid=ec9bed21-ab15-4437-b93e-3ba68087485a","ios":"levelo://app?vid=ec9bed21-ab15-4437-b93e-3ba68087485a"},"vehicle_type_id":"4","last_reported":1703516866,"current_range_meters":26400,"station_id":"ce4bhp92rcd13ifvqhag","pricing_plan_id":"free"},{"bike_id":"a7e1630d-5abf-4ba0-bf3c-e3cca96ba50f","system_id":"levelo_inurba_marseille","lat":43.310785,"lon":5.424305,"is_reserved":false,"is_disabled":false,"rental_uris":{"android":"levelo://app?vid=a7e1630d-5abf-4ba0-bf3c-e3cca96ba50f","ios":"levelo://app?vid=a7e1630d-5abf-4ba0-bf3c-e3cca96ba50f"},"vehicle_type_id":"4","last_reported":1703516866,"current_range_meters":16000,"station_id":"ce4bhp92rcd13ifvqhag","pricing_plan_id":"free"},{"bike_id":"f6133491-ff83-415f-8a7d-195abfef63a4","system_id":"levelo_inurba_marseille","lat":43.304096,"lon":5.425385,"is_reserved":false,"is_disabled":false,"rental_uris":{"android":"levelo://app?vid=f6133491-ff83-415f-8a7d-195abfef63a4","ios":"levelo://app?vid=f6133491-ff83-415f-8a7d-195abfef63a4"},"vehicle_type_id":"4","last_reported":1703516866,"current_range_meters":10400,"station_id":"ce4bhoh2rcd13ifvqh6g","pricing_plan_id":"free"},{"bike_id":"3ab5deb5-914c-4a52-8d7a-4e9a6cac5680","system_id":"levelo_inurba_marseille","lat":43.29559,"lon":5.42287,"is_reserved":false,"is_disabled":false,"rental_uris":{"android":"levelo://app?vid=3ab5deb5-914c-4a52-8d7a-4e9a6cac5680","ios":"levelo://app?vid=3ab5deb5-914c-4a52-8d7a-4e9a6cac5680"},"vehicle_type_id":"4","last_reported":1703516866,"current_range_meters":26400,"station_id":"ce4bhph2rcd13ifvqhdg","pricing_plan_id":"free"},{"bike_id":"0347a5a3-d10e-4624-870f-f108089b65eb","system_id":"levelo_inurba_marseille","lat":43.295504,"lon":5.422831,"is_reserved":false,"is_disabled":false,"rental_uris":{"android":"levelo://app?vid=0347a5a3-d10e-4624-870f-f108089b65eb","ios":"levelo://app?vid=0347a5a3-d10e-4624-870f-f108089b65eb"},"vehicle_type_id":"4","last_reported":1703516866,"current_range_meters":4400,"station_id":"","pricing_plan_id":"free"},{"bike_id":"e192df68-2c2b-482d-b6fd-3b8920434290","system_id":"levelo_inurba_marseille","lat":43.295523,"lon":5.422926,"is_reserved":false,"is_disabled":false,"rental_uris":{"android":"levelo://app?vid=e192df68-2c2b-482d-b6fd-3b8920434290","ios":"levelo://app?vid=e192df68-2c2b-482d-b6fd-3b8920434290"},"vehicle_type_id":"4","last_reported":1703516866,"current_range_meters":30000,"station_id":"ce4bhph2rcd13ifvqhdg","pricing_plan_id":"free"},{"bike_id":"5b8be4a2-9e7a-457f-b482-e2479c2a3178","system_id":"levelo_inurba_marseille","lat":43.295511,"lon":5.422926,"is_reserved":false,"is_disabled":false,"rental_uris":{"android":"levelo://app?vid=5b8be4a2-9e7a-457f-b482-e2479c2a3178","ios":"levelo://app?vid=5b8be4a2-9e7a-457f-b482-e2479c2a3178"},"vehicle_type_id":"4","last_reported":1703516866,"current_range_meters":28400,"station_id":"ce4bhph2rcd13ifvqhdg","pricing_plan_id":"free"},{"bike_id":"54931eaa-b633-4ada-9886-68c85f99977c","system_id":"levelo_inurba_marseille","lat":43.278128,"lon":5.407195,"is_reserved":false,"is_disabled":false,"rental_uris":{"android":"levelo://app?vid=54931eaa-b633-4ada-9886-68c85f99977c","ios":"levelo://app?vid=54931eaa-b633-4ada-9886-68c85f99977c"},"vehicle_type_id":"4","last_reported":1703516866,"current_range_meters":31200,"station_id":"ce4bhnh2rcd13ifvqgtg","pricing_plan_id":"free"},{"bike_id":"cced75d7-a80f-41ee-a228-c36e8d0e1957","system_id":"levelo_inurba_marseille","lat":43.278128,"lon":5.407195,"is_reserved":false,"is_disabled":false,"rental_uris":{"android":"levelo://app?vid=cced75d7-a80f-41ee-a228-c36e8d0e1957","ios":"levelo://app?vid=cced75d7-a80f-41ee-a228-c36e8d0e1957"},"vehicle_type_id":"4","last_reported":1703516866,"current_range_meters":29200,"station_id":"ce4bhnh2rcd13ifvqgtg","pricing_plan_id":"free"},{"bike_id":"52420c2a-3507-4327-9372-752a57eb1964","system_id":"levelo_inurba_marseille","lat":43.279465,"lon":5.410561,"is_reserved":false,"is_disabled":false,"rental_uris":{"android":"levelo://app?vid=52420c2a-3507-4327-9372-752a57eb1964","ios":"levelo://app?vid=52420c2a-3507-4327-9372-752a57eb1964"},"vehicle_type_id":"4","last_reported":1703516866,"current_range_meters":22000,"station_id":"ce4bhnp2rcd13ifvqh0g","pricing_plan_id":"free"},{"bike_id":"4d5b07c3-27b3-4805-a3a2-56512511366b","system_id":"levelo_inurba_marseille","lat":43.26681,"lon":5.382694,"is_reserved":false,"is_disabled":false,"rental_uris":{"android":"levelo://app?vid=4d5b07c3-27b3-4805-a3a2-56512511366b","ios":"levelo://app?vid=4d5b07c3-27b3-4805-a3a2-56512511366b"},"vehicle_type_id":"4","last_reported":1703516866,"current_range_meters":30000,"station_id":"ce4bhg92rcd13ifvqf90","pricing_plan_id":"free"},{"bike_id":"970fad72-bcca-4a22-9b60-e9d8e6c18e6a","system_id":"levelo_inurba_marseille","lat":43.26559,"lon":5.37281,"is_reserved":false,"is_disabled":false,"rental_uris":{"android":"levelo://app?vid=970fad72-bcca-4a22-9b60-e9d8e6c18e6a","ios":"levelo://app?vid=970fad72-bcca-4a22-9b60-e9d8e6c18e6a"},"vehicle_type_id":"4","last_reported":1703516866,"current_range_meters":19600,"station_id":"ce4bhg12rcd13ifvqf70","pricing_plan_id":"free"},{"bike_id":"9e72fa34-e73d-4f01-b4cf-7b6562f2b1f3","system_id":"levelo_inurba_marseille","lat":43.26681,"lon":5.382694,"is_reserved":false,"is_disabled":false,"rental_uris":{"android":"levelo://app?vid=9e72fa34-e73d-4f01-b4cf-7b6562f2b1f3","ios":"levelo://app?vid=9e72fa34-e73d-4f01-b4cf-7b6562f2b1f3"},"vehicle_type_id":"4","last_reported":1703516866,"current_range_meters":28000,"station_id":"ce4bhg92rcd13ifvqf90","pricing_plan_id":"free"},{"bike_id":"33c0c3f9-cbb8-4326-b372-c452f1580733","system_id":"levelo_inurba_marseille","lat":43.26555,"lon":5.37285,"is_reserved":false,"is_disabled":false,"rental_uris":{"android":"levelo://app?vid=33c0c3f9-cbb8-4326-b372-c452f1580733","ios":"levelo://app?vid=33c0c3f9-cbb8-4326-b372-c452f1580733"},"vehicle_type_id":"4","last_reported":1703516866,"current_range_meters":12000,"station_id":"ce4bhg12rcd13ifvqf70","pricing_plan_id":"free"},{"bike_id":"2705def3-d3e2-4b4f-98e0-f72d26b5ab45","system_id":"levelo_inurba_marseille","lat":43.265546,"lon":5.372861,"is_reserved":false,"is_disabled":false,"rental_uris":{"android":"levelo://app?vid=2705def3-d3e2-4b4f-98e0-f72d26b5ab45","ios":"levelo://app?vid=2705def3-d3e2-4b4f-98e0-f72d26b5ab45"},"vehicle_type_id":"4","last_reported":1703516866,"current_range_meters":24800,"station_id":"ce4bhg12rcd13ifvqf70","pricing_plan_id":"free"},{"bike_id":"fb3e5be7-dd5a-4c32-a380-57a500d568a6","system_id":"levelo_inurba_marseille","lat":43.26554,"lon":5.37288,"is_reserved":false,"is_disabled":false,"rental_uris":{"android":"levelo://app?vid=fb3e5be7-dd5a-4c32-a380-57a500d568a6","ios":"levelo://app?vid=fb3e5be7-dd5a-4c32-a380-57a500d568a6"},"vehicle_type_id":"4","last_reported":1703516866,"current_range_meters":26400,"station_id":"ce4bhg12rcd13ifvqf70","pricing_plan_id":"free"},{"bike_id":"e239517e-158b-46cf-a065-f157998e74fb","system_id":"levelo_inurba_marseille","lat":43.265544,"lon":5.372944,"is_reserved":false,"is_disabled":false,"rental_uris":{"android":"levelo://app?vid=e239517e-158b-46cf-a065-f157998e74fb","ios":"levelo://app?vid=e239517e-158b-46cf-a065-f157998e74fb"},"vehicle_type_id":"4","last_reported":1703516866,"current_range_meters":29200,"station_id":"ce4bhg12rcd13ifvqf70","pricing_plan_id":"free"},{"bike_id":"3af1d801-bb60-493e-9ba5-a45f58811056","system_id":"levelo_inurba_marseille","lat":43.26553,"lon":5.37282,"is_reserved":false,"is_disabled":false,"rental_uris":{"android":"levelo://app?vid=3af1d801-bb60-493e-9ba5-a45f58811056","ios":"levelo://app?vid=3af1d801-bb60-493e-9ba5-a45f58811056"},"vehicle_type_id":"4","last_reported":1703516866,"current_range_meters":28400,"station_id":"ce4bhg12rcd13ifvqf70","pricing_plan_id":"free"},{"bike_id":"31c0a570-6cf0-4265-8c1f-704121e49183","system_id":"levelo_inurba_marseille","lat":43.26553,"lon":5.37283,"is_reserved":false,"is_disabled":false,"rental_uris":{"android":"levelo://app?vid=31c0a570-6cf0-4265-8c1f-704121e49183","ios":"levelo://app?vid=31c0a570-6cf0-4265-8c1f-704121e49183"},"vehicle_type_id":"4","last_reported":1703516866,"current_range_meters":10800,"station_id":"ce4bhg12rcd13ifvqf70","pricing_plan_id":"free"},{"bike_id":"2ddd38f3-e6d8-4f87-adca-ed8d5736a0c4","system_id":"levelo_inurba_marseille","lat":43.26553,"lon":5.37284,"is_reserved":false,"is_disabled":false,"rental_uris":{"android":"levelo://app?vid=2ddd38f3-e6d8-4f87-adca-ed8d5736a0c4","ios":"levelo://app?vid=2ddd38f3-e6d8-4f87-adca-ed8d5736a0c4"},"vehicle_type_id":"4","last_reported":1703516866,"current_range_meters":20400,"station_id":"ce4bhg12rcd13ifvqf70","pricing_plan_id":"free"},{"bike_id":"69c2bbaa-dc1e-4728-ac1d-c2a726fd7240","system_id":"levelo_inurba_marseille","lat":43.26552,"lon":5.37285,"is_reserved":false,"is_disabled":false,"rental_uris":{"android":"levelo://app?vid=69c2bbaa-dc1e-4728-ac1d-c2a726fd7240","ios":"levelo://app?vid=69c2bbaa-dc1e-4728-ac1d-c2a726fd7240"},"vehicle_type_id":"4","last_reported":1703516866,"current_range_meters":20400,"station_id":"ce4bhg12rcd13ifvqf70","pricing_plan_id":"free"},{"bike_id":"d3f59af1-5409-41e9-ae84-290dfc35f7ff","system_id":"levelo_inurba_marseille","lat":43.26552,"lon":5.37285,"is_reserved":false,"is_disabled":false,"rental_uris":{"android":"levelo://app?vid=d3f59af1-5409-41e9-ae84-290dfc35f7ff","ios":"levelo://app?vid=d3f59af1-5409-41e9-ae84-290dfc35f7ff"},"vehicle_type_id":"4","last_reported":1703516866,"current_range_meters":20800,"station_id":"ce4bhg12rcd13ifvqf70","pricing_plan_id":"free"},{"bike_id":"396332c9-5711-429e-8dbf-00581c82bdaa","system_id":"levelo_inurba_marseille","lat":43.265517,"lon":5.372835,"is_reserved":false,"is_disabled":false,"rental_uris":{"android":"levelo://app?vid=396332c9-5711-429e-8dbf-00581c82bdaa","ios":"levelo://app?vid=396332c9-5711-429e-8dbf-00581c82bdaa"},"vehicle_type_id":"4","last_reported":1703516866,"current_range_meters":14000,"station_id":"","pricing_plan_id":"free"},{"bike_id":"6703eeda-f3a4-428a-a566-a7c0a94db6e1","system_id":"levelo_inurba_marseille","lat":43.26551,"lon":5.3728,"is_reserved":false,"is_disabled":false,"rental_uris":{"android":"levelo://app?vid=6703eeda-f3a4-428a-a566-a7c0a94db6e1","ios":"levelo://app?vid=6703eeda-f3a4-428a-a566-a7c0a94db6e1"},"vehicle_type_id":"4","last_reported":1703516866,"current_range_meters":1600,"station_id":"ce4bhg12rcd13ifvqf70","pricing_plan_id":"free"},{"bike_id":"7735353d-8cbb-489b-9d59-bfbe04a067a3","system_id":"levelo_inurba_marseille","lat":43.267966,"lon":5.393976,"is_reserved":false,"is_disabled":false,"rental_uris":{"android":"levelo://app?vid=7735353d-8cbb-489b-9d59-bfbe04a067a3","ios":"levelo://app?vid=7735353d-8cbb-489b-9d59-bfbe04a067a3"},"vehicle_type_id":"4","last_reported":1703516866,"current_range_meters":9600,"station_id":"ce4bhh12rcd13ifvqfg0","pricing_plan_id":"free"},{"bike_id":"16aadf90-1f8d-4c0d-8615-10f6cd8ac2ac","system_id":"levelo_inurba_marseille","lat":43.308051,"lon":5.43527,"is_reserved":false,"is_disabled":false,"rental_uris":{"android":"levelo://app?vid=16aadf90-1f8d-4c0d-8615-10f6cd8ac2ac","ios":"levelo://app?vid=16aadf90-1f8d-4c0d-8615-10f6cd8ac2ac"},"vehicle_type_id":"4","last_reported":1703516866,"current_range_meters":9200,"station_id":"ce4bhph2rcd13ifvqheg","pricing_plan_id":"free"},{"bike_id":"e228c82f-cebd-4f9c-8b1e-cab3967975e3","system_id":"levelo_inurba_marseille","lat":43.308051,"lon":5.43527,"is_reserved":false,"is_disabled":false,"rental_uris":{"android":"levelo://app?vid=e228c82f-cebd-4f9c-8b1e-cab3967975e3","ios":"levelo://app?vid=e228c82f-cebd-4f9c-8b1e-cab3967975e3"},"vehicle_type_id":"4","last_reported":1703516866,"current_range_meters":31200,"station_id":"ce4bhph2rcd13ifvqheg","pricing_plan_id":"free"},{"bike_id":"c538b159-391d-43ed-bfe9-5f6a47d831e3","system_id":"levelo_inurba_marseille","lat":43.265569,"lon":5.390047,"is_reserved":false,"is_disabled":false,"rental_uris":{"android":"levelo://app?vid=c538b159-391d-43ed-bfe9-5f6a47d831e3","ios":"levelo://app?vid=c538b159-391d-43ed-bfe9-5f6a47d831e3"},"vehicle_type_id":"4","last_reported":1703516866,"current_range_meters":3200,"station_id":"ce4bhe12rcd13ifvqf30","pricing_plan_id":"free"},{"bike_id":"26779059-9e92-4e37-b1e6-64b2c9495ef1","system_id":"levelo_inurba_marseille","lat":43.265569,"lon":5.390047,"is_reserved":false,"is_disabled":false,"rental_uris":{"android":"levelo://app?vid=26779059-9e92-4e37-b1e6-64b2c9495ef1","ios":"levelo://app?vid=26779059-9e92-4e37-b1e6-64b2c9495ef1"},"vehicle_type_id":"4","last_reported":1703516866,"current_range_meters":31200,"station_id":"ce4bhe12rcd13ifvqf30","pricing_plan_id":"free"},{"bike_id":"222f424d-41a5-4261-904d-b4496429dc68","system_id":"levelo_inurba_marseille","lat":43.261782,"lon":5.374515,"is_reserved":false,"is_disabled":false,"rental_uris":{"android":"levelo://app?vid=222f424d-41a5-4261-904d-b4496429dc68","ios":"levelo://app?vid=222f424d-41a5-4261-904d-b4496429dc68"},"vehicle_type_id":"4","last_reported":1703516866,"current_range_meters":22000,"station_id":"ce4bhgp2rcd13ifvqfc0","pricing_plan_id":"free"},{"bike_id":"9d321acb-5c22-4228-9f2a-c5562fbe370a","system_id":"levelo_inurba_marseille","lat":43.261782,"lon":5.374515,"is_reserved":false,"is_disabled":false,"rental_uris":{"android":"levelo://app?vid=9d321acb-5c22-4228-9f2a-c5562fbe370a","ios":"levelo://app?vid=9d321acb-5c22-4228-9f2a-c5562fbe370a"},"vehicle_type_id":"4","last_reported":1703516866,"current_range_meters":20800,"station_id":"ce4bhgp2rcd13ifvqfc0","pricing_plan_id":"free"},{"bike_id":"7b4a34ce-0520-4e39-b570-03749795c095","system_id":"levelo_inurba_marseille","lat":43.261782,"lon":5.374515,"is_reserved":false,"is_disabled":false,"rental_uris":{"android":"levelo://app?vid=7b4a34ce-0520-4e39-b570-03749795c095","ios":"levelo://app?vid=7b4a34ce-0520-4e39-b570-03749795c095"},"vehicle_type_id":"4","last_reported":1703516866,"current_range_meters":6800,"station_id":"ce4bhgp2rcd13ifvqfc0","pricing_plan_id":"free"},{"bike_id":"96e029f6-e59e-4afb-9c2d-8ae7219ab28c","system_id":"levelo_inurba_marseille","lat":43.261782,"lon":5.374515,"is_reserved":false,"is_disabled":false,"rental_uris":{"android":"levelo://app?vid=96e029f6-e59e-4afb-9c2d-8ae7219ab28c","ios":"levelo://app?vid=96e029f6-e59e-4afb-9c2d-8ae7219ab28c"},"vehicle_type_id":"4","last_reported":1703516866,"current_range_meters":6800,"station_id":"ce4bhgp2rcd13ifvqfc0","pricing_plan_id":"free"},{"bike_id":"045f9b70-16eb-4321-86d9-890bd3e7cc41","system_id":"levelo_inurba_marseille","lat":43.261782,"lon":5.374515,"is_reserved":false,"is_disabled":false,"rental_uris":{"android":"levelo://app?vid=045f9b70-16eb-4321-86d9-890bd3e7cc41","ios":"levelo://app?vid=045f9b70-16eb-4321-86d9-890bd3e7cc41"},"vehicle_type_id":"4","last_reported":1703516866,"current_range_meters":11600,"station_id":"ce4bhgp2rcd13ifvqfc0","pricing_plan_id":"free"},{"bike_id":"de37af99-1bf6-4b16-a67e-f49eb116d85f","system_id":"levelo_inurba_marseille","lat":43.261782,"lon":5.374515,"is_reserved":false,"is_disabled":false,"rental_uris":{"android":"levelo://app?vid=de37af99-1bf6-4b16-a67e-f49eb116d85f","ios":"levelo://app?vid=de37af99-1bf6-4b16-a67e-f49eb116d85f"},"vehicle_type_id":"4","last_reported":1703516866,"current_range_meters":4000,"station_id":"ce4bhgp2rcd13ifvqfc0","pricing_plan_id":"free"},{"bike_id":"80417eb5-ddbf-459a-8ad0-24b54e469c28","system_id":"levelo_inurba_marseille","lat":43.261782,"lon":5.374515,"is_reserved":false,"is_disabled":false,"rental_uris":{"android":"levelo://app?vid=80417eb5-ddbf-459a-8ad0-24b54e469c28","ios":"levelo://app?vid=80417eb5-ddbf-459a-8ad0-24b54e469c28"},