{"last_updated":1761473387,"ttl":60,"version":"2.2","data":{"bikes":[{"bike_id":"b9764ed2-f91a-421e-b54e-d7527bd8af22","system_id":"levelo_inurba_marseille","lat":43.29811,"lon":5.36588,"is_reserved":false,"is_disabled":false,"rental_uris":{"android":"levelo://app?vid=b9764ed2-f91a-421e-b54e-d7527bd8af22","ios":"levelo://app?vid=b9764ed2-f91a-421e-b54e-d7527bd8af22"},"vehicle_type_id":"4","last_reported":1761473387,"current_range_meters":2800,"station_id":"","pricing_plan_id":"cebpf4jnsgd1na2vs0mg"},{"bike_id":"8bcacd78-80de-4026-af75-b37ebe3030fe","system_id":"levelo_inurba_marseille","lat":43.334756,"lon":5.404255,"is_reserved":false,"is_disabled":false,"rental_uris":{"android":"levelo://app?vid=8bcacd78-80de-4026-af75-b37ebe3030fe","ios":"levelo://app?vid=8bcacd78-80de-4026-af75-b37ebe3030fe"},"vehicle_type_id":"4","last_reported":1761473387,"current_range_meters":2800,"station_id":"","pricing_plan_id":"cebpf4jnsgd1na2vs0mg"},{"bike_id":"b540e50f-66d8-4b8b-b2c1-bbbc10079e4b","system_id":"levelo_inurba_marseille","lat":43.2985,"lon":5.36275,"is_reserved":false,"is_disabled":false,"rental_uris":{"android":"levelo://app?vid=b540e50f-66d8-4b8b-b2c1-bbbc10079e4b","ios":"levelo://app?vid=b540e50f-66d8-4b8b-b2c1-bbbc10079e4b"},"vehicle_type_id":"4","last_reported":1761473387,"current_range_meters":2800,"station_id":"ce4bgpp2rcd13ifvqc3g","pricing_plan_id":"cebpf4jnsgd1na2vs0mg"},{"bike_id":"9881c788-42a8-46f5-8ccc-580a73583155","system_id":"levelo_inurba_marseille","lat":43.3206,"lon":5.4085,"is_reserved":false,"is_disabled":false,"rental_uris":{"android":"levelo://app?vid=9881c788-42a8-46f5-8ccc-580a73583155","ios":"levelo://app?vid=9881c788-42a8-46f5-8ccc-580a73583155"},"vehicle_type_id":"4","last_reported":1761473387,"current_range_meters":2800,"station_id":"","pricing_plan_id":"cebpf4jnsgd1na2vs0mg"},{"bike_id":"69fbf5d7-a9e3-4bf6-a8f2-00d5422c6837","system_id":"levelo_inurba_marseille","lat":43.25094,"lon":5.39532,"is_reserved":false,"is_disabled":false,"rental_uris":{"android":"levelo://app?vid=69fbf5d7-a9e3-4bf6-a8f2-00d5422c6837","ios":"levelo://app?vid=69fbf5d7-a9e3-4bf6-a8f2-00d5422c6837"},"vehicle_type_id":"4","last_reported":1761473387,"current_range_meters":3200,"station_id":"ce4bhm12rcd13ifvqgkg","pricing_plan_id":"cebpf4jnsgd1na2vs0mg"},{"bike_id":"139d020b-78f9-452a-b9f6-07a4ecc161b4","system_id":"levelo_inurba_marseille","lat":43.245376,"lon":5.395253,"is_reserved":false,"is_disabled":false,"rental_uris":{"android":"levelo://app?vid=139d020b-78f9-452a-b9f6-07a4ecc161b4","ios":"levelo://app?vid=139d020b-78f9-452a-b9f6-07a4ecc161b4"},"vehicle_type_id":"4","last_reported":1761473387,"current_range_meters":3200,"station_id":"ce4bhlp2rcd13ifvqgjg","pricing_plan_id":"cebpf4jnsgd1na2vs0mg"},{"bike_id":"f6e9eb6a-639b-4d29-b5ed-a6a8ca6c4373","system_id":"levelo_inurba_marseille","lat":43.2306,"lon":5.3549,"is_reserved":false,"is_disabled":false,"rental_uris":{"android":"levelo://app?vid=f6e9eb6a-639b-4d29-b5ed-a6a8ca6c4373","ios":"levelo://app?vid=f6e9eb6a-639b-4d29-b5ed-a6a8ca6c4373"},"vehicle_type_id":"4","last_reported":1761473387,"current_range_meters":3600,"station_id":"cpo3342slgdg3j2ifvpg","pricing_plan_id":"cebpf4jnsgd1na2vs0mg"},{"bike_id":"58814eb5-2a13-4dd3-aed2-1658a6650699","system_id":"levelo_inurba_marseille","lat":43.29794,"lon":5.40404,"is_reserved":false,"is_disabled":false,"rental_uris":{"android":"levelo://app?vid=58814eb5-2a13-4dd3-aed2-1658a6650699","ios":"levelo://app?vid=58814eb5-2a13-4dd3-aed2-1658a6650699"},"vehicle_type_id":"4","last_reported":1761473387,"current_range_meters":4000,"station_id":"ce4bh112rcd13ifvqd90","pricing_plan_id":"cebpf4jnsgd1na2vs0mg"},{"bike_id":"e35e1247-2ec0-4206-a360-6aaa534a130f","system_id":"levelo_inurba_marseille","lat":43.284843,"lon":5.483937,"is_reserved":false,"is_disabled":false,"rental_uris":{"android":"levelo://app?vid=e35e1247-2ec0-4206-a360-6aaa534a130f","ios":"levelo://app?vid=e35e1247-2ec0-4206-a360-6aaa534a130f"},"vehicle_type_id":"4","last_reported":1761473387,"current_range_meters":4400,"station_id":"st_d3svhcjqgbts73a3dn0g","pricing_plan_id":"cebpf4jnsgd1na2vs0mg"},{"bike_id":"2747bb1b-42c4-423b-b799-c69a95539a35","system_id":"levelo_inurba_marseille","lat":43.23183,"lon":5.39983,"is_reserved":false,"is_disabled":false,"rental_uris":{"android":"levelo://app?vid=2747bb1b-42c4-423b-b799-c69a95539a35","ios":"levelo://app?vid=2747bb1b-42c4-423b-b799-c69a95539a35"},"vehicle_type_id":"4","last_reported":1761473387,"current_range_meters":4400,"station_id":"ce4bhn12rcd13ifvqgqg","pricing_plan_id":"cebpf4jnsgd1na2vs0mg"},{"bike_id":"b3160317-0963-48d9-91d8-043b1042fa86","system_id":"levelo_inurba_marseille","lat":43.26907,"lon":5.39197,"is_reserved":false,"is_disabled":false,"rental_uris":{"android":"levelo://app?vid=b3160317-0963-48d9-91d8-043b1042fa86","ios":"levelo://app?vid=b3160317-0963-48d9-91d8-043b1042fa86"},"vehicle_type_id":"4","last_reported":1761473387,"current_range_meters":4800,"station_id":"","pricing_plan_id":"cebpf4jnsgd1na2vs0mg"},{"bike_id":"4cc0edfc-ff46-4c96-9438-209e9afb380b","system_id":"levelo_inurba_marseille","lat":43.28211,"lon":5.37217,"is_reserved":false,"is_disabled":false,"rental_uris":{"android":"levelo://app?vid=4cc0edfc-ff46-4c96-9438-209e9afb380b","ios":"levelo://app?vid=4cc0edfc-ff46-4c96-9438-209e9afb380b"},"vehicle_type_id":"4","last_reported":1761473387,"current_range_meters":4800,"station_id":"","pricing_plan_id":"cebpf4jnsgd1na2vs0mg"},{"bike_id":"7df28f2c-9786-4123-b875-27df4dc17beb","system_id":"levelo_inurba_marseille","lat":43.29937,"lon":5.36543,"is_reserved":false,"is_disabled":false,"rental_uris":{"android":"levelo://app?vid=7df28f2c-9786-4123-b875-27df4dc17beb","ios":"levelo://app?vid=7df28f2c-9786-4123-b875-27df4dc17beb"},"vehicle_type_id":"4","last_reported":1761473387,"current_range_meters":5600,"station_id":"ce4bgm92rcd13ifvqbr0","pricing_plan_id":"cebpf4jnsgd1na2vs0mg"},{"bike_id":"c97e2da3-f938-4bb6-a99e-7041ad969b33","system_id":"levelo_inurba_marseille","lat":43.28583,"lon":5.39918,"is_reserved":false,"is_disabled":false,"rental_uris":{"android":"levelo://app?vid=c97e2da3-f938-4bb6-a99e-7041ad969b33","ios":"levelo://app?vid=c97e2da3-f938-4bb6-a99e-7041ad969b33"},"vehicle_type_id":"4","last_reported":1761473387,"current_range_meters":5600,"station_id":"","pricing_plan_id":"cebpf4jnsgd1na2vs0mg"},{"bike_id":"5f9debc0-c360-4a2e-b517-592e9a0c2818","system_id":"levelo_inurba_marseille","lat":43.329455,"lon":5.427618,"is_reserved":false,"is_disabled":false,"rental_uris":{"android":"levelo://app?vid=5f9debc0-c360-4a2e-b517-592e9a0c2818","ios":"levelo://app?vid=5f9debc0-c360-4a2e-b517-592e9a0c2818"},"vehicle_type_id":"4","last_reported":1761473387,"current_range_meters":5600,"station_id":"","pricing_plan_id":"cebpf4jnsgd1na2vs0mg"},{"bike_id":"9350e66e-1bd1-439d-9cc0-822125878999","system_id":"levelo_inurba_marseille","lat":43.297576,"lon":5.427781,"is_reserved":false,"is_disabled":false,"rental_uris":{"android":"levelo://app?vid=9350e66e-1bd1-439d-9cc0-822125878999","ios":"levelo://app?vid=9350e66e-1bd1-439d-9cc0-822125878999"},"vehicle_type_id":"4","last_reported":1761473387,"current_range_meters":5600,"station_id":"st_d3md5207bmas73dh9klg","pricing_plan_id":"cebpf4jnsgd1na2vs0mg"},{"bike_id":"edb79a79-e62c-451e-9e62-eeef48182c94","system_id":"levelo_inurba_marseille","lat":43.27205,"lon":5.39184,"is_reserved":false,"is_disabled":false,"rental_uris":{"android":"levelo://app?vid=edb79a79-e62c-451e-9e62-eeef48182c94","ios":"levelo://app?vid=edb79a79-e62c-451e-9e62-eeef48182c94"},"vehicle_type_id":"4","last_reported":1761473387,"current_range_meters":5600,"station_id":"ce4bhhp2rcd13ifvqfm0","pricing_plan_id":"cebpf4jnsgd1na2vs0mg"},{"bike_id":"ce4cbc8c-f134-4256-a32e-1f00470425f1","system_id":"levelo_inurba_marseille","lat":43.30319,"lon":5.40441,"is_reserved":false,"is_disabled":false,"rental_uris":{"android":"levelo://app?vid=ce4cbc8c-f134-4256-a32e-1f00470425f1","ios":"levelo://app?vid=ce4cbc8c-f134-4256-a32e-1f00470425f1"},"vehicle_type_id":"4","last_reported":1761473387,"current_range_meters":6000,"station_id":"ce4bh012rcd13ifvqd10","pricing_plan_id":"cebpf4jnsgd1na2vs0mg"},{"bike_id":"6398fd05-47e5-41f8-95bf-116d17d1d757","system_id":"levelo_inurba_marseille","lat":43.292603,"lon":5.384447,"is_reserved":false,"is_disabled":false,"rental_uris":{"android":"levelo://app?vid=6398fd05-47e5-41f8-95bf-116d17d1d757","ios":"levelo://app?vid=6398fd05-47e5-41f8-95bf-116d17d1d757"},"vehicle_type_id":"4","last_reported":1761473387,"current_range_meters":6000,"station_id":"","pricing_plan_id":"cebpf4jnsgd1na2vs0mg"},{"bike_id":"120ff619-a55e-400f-961f-a43081db1a2f","system_id":"levelo_inurba_marseille","lat":43.298914,"lon":5.436664,"is_reserved":false,"is_disabled":false,"rental_uris":{"android":"levelo://app?vid=120ff619-a55e-400f-961f-a43081db1a2f","ios":"levelo://app?vid=120ff619-a55e-400f-961f-a43081db1a2f"},"vehicle_type_id":"4","last_reported":1761473387,"current_range_meters":6400,"station_id":"ce4bhpp2rcd13ifvqhfg","pricing_plan_id":"cebpf4jnsgd1na2vs0mg"},{"bike_id":"4f5c5045-2f2c-4ab7-ad8b-eeba1d52fe66","system_id":"levelo_inurba_marseille","lat":43.310759,"lon":5.374693,"is_reserved":false,"is_disabled":false,"rental_uris":{"android":"levelo://app?vid=4f5c5045-2f2c-4ab7-ad8b-eeba1d52fe66","ios":"levelo://app?vid=4f5c5045-2f2c-4ab7-ad8b-eeba1d52fe66"},"vehicle_type_id":"4","last_reported":1761473387,"current_range_meters":6400,"station_id":"","pricing_plan_id":"cebpf4jnsgd1na2vs0mg"},{"bike_id":"51a65e93-d45c-4153-82ff-f387c7c22851","system_id":"levelo_inurba_marseille","lat":43.29935,"lon":5.3654,"is_reserved":false,"is_disabled":false,"rental_uris":{"android":"levelo://app?vid=51a65e93-d45c-4153-82ff-f387c7c22851","ios":"levelo://app?vid=51a65e93-d45c-4153-82ff-f387c7c22851"},"vehicle_type_id":"4","last_reported":1761473387,"current_range_meters":6400,"station_id":"ce4bgm92rcd13ifvqbr0","pricing_plan_id":"cebpf4jnsgd1na2vs0mg"},{"bike_id":"fa063608-29c2-42ab-95b5-2fc82231eea9","system_id":"levelo_inurba_marseille","lat":43.21201,"lon":5.35067,"is_reserved":false,"is_disabled":false,"rental_uris":{"android":"levelo://app?vid=fa063608-29c2-42ab-95b5-2fc82231eea9","ios":"levelo://app?vid=fa063608-29c2-42ab-95b5-2fc82231eea9"},"vehicle_type_id":"4","last_reported":1761473387,"current_range_meters":6400,"station_id":"st_cvj6sg6p6f1abm77japg","pricing_plan_id":"cebpf4jnsgd1na2vs0mg"},{"bike_id":"e94f57f2-601c-4cad-a187-6e953770aa25","system_id":"levelo_inurba_marseille","lat":43.311939,"lon":5.378496,"is_reserved":false,"is_disabled":false,"rental_uris":{"android":"levelo://app?vid=e94f57f2-601c-4cad-a187-6e953770aa25","ios":"levelo://app?vid=e94f57f2-601c-4cad-a187-6e953770aa25"},"vehicle_type_id":"4","last_reported":1761473387,"current_range_meters":6800,"station_id":"","pricing_plan_id":"cebpf4jnsgd1na2vs0mg"},{"bike_id":"b798b7f0-29d3-424d-8fdf-632ddf419df6","system_id":"levelo_inurba_marseille","lat":43.22571,"lon":5.4163,"is_reserved":false,"is_disabled":false,"rental_uris":{"android":"levelo://app?vid=b798b7f0-29d3-424d-8fdf-632ddf419df6","ios":"levelo://app?vid=b798b7f0-29d3-424d-8fdf-632ddf419df6"},"vehicle_type_id":"4","last_reported":1761473387,"current_range_meters":6800,"station_id":"st_d2o4gvlbi1j2169b742g","pricing_plan_id":"cebpf4jnsgd1na2vs0mg"},{"bike_id":"2b08430f-3826-4249-8325-53b3985c5d73","system_id":"levelo_inurba_marseille","lat":43.27813,"lon":5.41485,"is_reserved":false,"is_disabled":false,"rental_uris":{"android":"levelo://app?vid=2b08430f-3826-4249-8325-53b3985c5d73","ios":"levelo://app?vid=2b08430f-3826-4249-8325-53b3985c5d73"},"vehicle_type_id":"4","last_reported":1761473387,"current_range_meters":7200,"station_id":"","pricing_plan_id":"cebpf4jnsgd1na2vs0mg"},{"bike_id":"cc4bd080-6acc-49b8-8594-bf0347ca54cc","system_id":"levelo_inurba_marseille","lat":43.29848,"lon":5.36284,"is_reserved":false,"is_disabled":false,"rental_uris":{"android":"levelo://app?vid=cc4bd080-6acc-49b8-8594-bf0347ca54cc","ios":"levelo://app?vid=cc4bd080-6acc-49b8-8594-bf0347ca54cc"},"vehicle_type_id":"4","last_reported":1761473387,"current_range_meters":7200,"station_id":"ce4bgpp2rcd13ifvqc3g","pricing_plan_id":"cebpf4jnsgd1na2vs0mg"},{"bike_id":"50c984a5-58ba-4c44-b577-41bc4679b329","system_id":"levelo_inurba_marseille","lat":43.22563,"lon":5.41639,"is_reserved":false,"is_disabled":false,"rental_uris":{"android":"levelo://app?vid=50c984a5-58ba-4c44-b577-41bc4679b329","ios":"levelo://app?vid=50c984a5-58ba-4c44-b577-41bc4679b329"},"vehicle_type_id":"4","last_reported":1761473387,"current_range_meters":7200,"station_id":"st_d2o4gvlbi1j2169b742g","pricing_plan_id":"cebpf4jnsgd1na2vs0mg"},{"bike_id":"cddf922e-3dbd-438a-88c4-2760593edffe","system_id":"levelo_inurba_marseille","lat":43.2958,"lon":5.37504,"is_reserved":false,"is_disabled":true,"rental_uris":{"android":"levelo://app?vid=cddf922e-3dbd-438a-88c4-2760593edffe","ios":"levelo://app?vid=cddf922e-3dbd-438a-88c4-2760593edffe"},"vehicle_type_id":"4","last_reported":1761473387,"current_range_meters":7200,"station_id":"ce4bgh92rcd13ifvqb50","pricing_plan_id":"cebpf4jnsgd1na2vs0mg"},{"bike_id":"06b87262-bf8e-415c-8516-490a617ad5ab","system_id":"levelo_inurba_marseille","lat":43.30543,"lon":5.38432,"is_reserved":false,"is_disabled":false,"rental_uris":{"android":"levelo://app?vid=06b87262-bf8e-415c-8516-490a617ad5ab","ios":"levelo://app?vid=06b87262-bf8e-415c-8516-490a617ad5ab"},"vehicle_type_id":"4","last_reported":1761473387,"current_range_meters":8000,"station_id":"ce4bgg92rcd13ifvqb30","pricing_plan_id":"cebpf4jnsgd1na2vs0mg"},{"bike_id":"73254c08-27a7-4de5-9100-903e54aa8b18","system_id":"levelo_inurba_marseille","lat":43.28026,"lon":5.36944,"is_reserved":false,"is_disabled":false,"rental_uris":{"android":"levelo://app?vid=73254c08-27a7-4de5-9100-903e54aa8b18","ios":"levelo://app?vid=73254c08-27a7-4de5-9100-903e54aa8b18"},"vehicle_type_id":"4","last_reported":1761473387,"current_range_meters":8000,"station_id":"ce4bha12rcd13ifvqef0","pricing_plan_id":"cebpf4jnsgd1na2vs0mg"},{"bike_id":"51b614d1-6dfe-4e67-9a5e-bfd8acf52d94","system_id":"levelo_inurba_marseille","lat":43.30133,"lon":5.38787,"is_reserved":false,"is_disabled":true,"rental_uris":{"android":"levelo://app?vid=51b614d1-6dfe-4e67-9a5e-bfd8acf52d94","ios":"levelo://app?vid=51b614d1-6dfe-4e67-9a5e-bfd8acf52d94"},"vehicle_type_id":"4","last_reported":1761473387,"current_range_meters":8000,"station_id":"ce4bghh2rcd13ifvqb60","pricing_plan_id":"cebpf4jnsgd1na2vs0mg"},{"bike_id":"2cfce1d0-4e66-4ee5-bf58-095694d5982b","system_id":"levelo_inurba_marseille","lat":43.29848,"lon":5.36284,"is_reserved":false,"is_disabled":false,"rental_uris":{"android":"levelo://app?vid=2cfce1d0-4e66-4ee5-bf58-095694d5982b","ios":"levelo://app?vid=2cfce1d0-4e66-4ee5-bf58-095694d5982b"},"vehicle_type_id":"4","last_reported":1761473387,"current_range_meters":8000,"station_id":"ce4bgpp2rcd13ifvqc3g","pricing_plan_id":"cebpf4jnsgd1na2vs0mg"},{"bike_id":"a35a4922-b803-4cd9-8623-7e895c294787","system_id":"levelo_inurba_marseille","lat":43.298142,"lon":5.382365,"is_reserved":false,"is_disabled":true,"rental_uris":{"android":"levelo://app?vid=a35a4922-b803-4cd9-8623-7e895c294787","ios":"levelo://app?vid=a35a4922-b803-4cd9-8623-7e895c294787"},"vehicle_type_id":"4","last_reported":1761473387,"current_range_meters":8000,"station_id":"","pricing_plan_id":"cebpf4jnsgd1na2vs0mg"},{"bike_id":"55ffffe1-8795-49c8-bb0a-8ff7c70d8c78","system_id":"levelo_inurba_marseille","lat":43.28607,"lon":5.37069,"is_reserved":false,"is_disabled":false,"rental_uris":{"android":"levelo://app?vid=55ffffe1-8795-49c8-bb0a-8ff7c70d8c78","ios":"levelo://app?vid=55ffffe1-8795-49c8-bb0a-8ff7c70d8c78"},"vehicle_type_id":"4","last_reported":1761473387,"current_range_meters":8000,"station_id":"ce4bht12rcd13ifvqi60","pricing_plan_id":"cebpf4jnsgd1na2vs0mg"},{"bike_id":"7cd91938-3219-470e-835d-7418891d9874","system_id":"levelo_inurba_marseille","lat":43.265522,"lon":5.372837,"is_reserved":false,"is_disabled":false,"rental_uris":{"android":"levelo://app?vid=7cd91938-3219-470e-835d-7418891d9874","ios":"levelo://app?vid=7cd91938-3219-470e-835d-7418891d9874"},"vehicle_type_id":"4","last_reported":1761473387,"current_range_meters":8000,"station_id":"ce4bhg12rcd13ifvqf70","pricing_plan_id":"cebpf4jnsgd1na2vs0mg"},{"bike_id":"06581a05-1ba3-455d-89a7-74c0698cd2fa","system_id":"levelo_inurba_marseille","lat":43.29554,"lon":5.42284,"is_reserved":false,"is_disabled":false,"rental_uris":{"android":"levelo://app?vid=06581a05-1ba3-455d-89a7-74c0698cd2fa","ios":"levelo://app?vid=06581a05-1ba3-455d-89a7-74c0698cd2fa"},"vehicle_type_id":"4","last_reported":1761473387,"current_range_meters":8000,"station_id":"ce4bhph2rcd13ifvqhdg","pricing_plan_id":"cebpf4jnsgd1na2vs0mg"},{"bike_id":"5198510b-bb21-446f-af1c-3d1e8d653780","system_id":"levelo_inurba_marseille","lat":43.26964,"lon":5.38626,"is_reserved":false,"is_disabled":false,"rental_uris":{"android":"levelo://app?vid=5198510b-bb21-446f-af1c-3d1e8d653780","ios":"levelo://app?vid=5198510b-bb21-446f-af1c-3d1e8d653780"},"vehicle_type_id":"4","last_reported":1761473387,"current_range_meters":8400,"station_id":"ce4bhh92rcd13ifvqfh0","pricing_plan_id":"cebpf4jnsgd1na2vs0mg"},{"bike_id":"efa2071f-223b-4ad5-9d51-d0d8cd8e3a75","system_id":"levelo_inurba_marseille","lat":43.28154,"lon":5.42644,"is_reserved":false,"is_disabled":false,"rental_uris":{"android":"levelo://app?vid=efa2071f-223b-4ad5-9d51-d0d8cd8e3a75","ios":"levelo://app?vid=efa2071f-223b-4ad5-9d51-d0d8cd8e3a75"},"vehicle_type_id":"4","last_reported":1761473387,"current_range_meters":8400,"station_id":"ce4bhnh2rcd13ifvqgug","pricing_plan_id":"cebpf4jnsgd1na2vs0mg"},{"bike_id":"9d964ec4-c537-4f1d-b21c-451d3f46b1bf","system_id":"levelo_inurba_marseille","lat":43.298962,"lon":5.378891,"is_reserved":false,"is_disabled":false,"rental_uris":{"android":"levelo://app?vid=9d964ec4-c537-4f1d-b21c-451d3f46b1bf","ios":"levelo://app?vid=9d964ec4-c537-4f1d-b21c-451d3f46b1bf"},"vehicle_type_id":"4","last_reported":1761473387,"current_range_meters":8400,"station_id":"","pricing_plan_id":"cebpf4jnsgd1na2vs0mg"},{"bike_id":"b271dec7-e9c0-4031-a78b-d3a50b11d54a","system_id":"levelo_inurba_marseille","lat":43.28686,"lon":5.4126,"is_reserved":false,"is_disabled":false,"rental_uris":{"android":"levelo://app?vid=b271dec7-e9c0-4031-a78b-d3a50b11d54a","ios":"levelo://app?vid=b271dec7-e9c0-4031-a78b-d3a50b11d54a"},"vehicle_type_id":"4","last_reported":1761473387,"current_range_meters":8400,"station_id":"","pricing_plan_id":"cebpf4jnsgd1na2vs0mg"},{"bike_id":"8be6a47c-9542-4fed-8109-f6d91a0f2b3f","system_id":"levelo_inurba_marseille","lat":43.29174,"lon":5.37161,"is_reserved":false,"is_disabled":false,"rental_uris":{"android":"levelo://app?vid=8be6a47c-9542-4fed-8109-f6d91a0f2b3f","ios":"levelo://app?vid=8be6a47c-9542-4fed-8109-f6d91a0f2b3f"},"vehicle_type_id":"4","last_reported":1761473387,"current_range_meters":8800,"station_id":"ce4bha92rcd13ifvqeh0","pricing_plan_id":"cebpf4jnsgd1na2vs0mg"},{"bike_id":"5ee9edc8-dc97-44a6-876e-7a09b34dd265","system_id":"levelo_inurba_marseille","lat":43.295523,"lon":5.422863,"is_reserved":false,"is_disabled":true,"rental_uris":{"android":"levelo://app?vid=5ee9edc8-dc97-44a6-876e-7a09b34dd265","ios":"levelo://app?vid=5ee9edc8-dc97-44a6-876e-7a09b34dd265"},"vehicle_type_id":"4","last_reported":1761473387,"current_range_meters":9200,"station_id":"ce4bhph2rcd13ifvqhdg","pricing_plan_id":"cebpf4jnsgd1na2vs0mg"},{"bike_id":"dab36927-4328-48fa-bffb-145a737de07e","system_id":"levelo_inurba_marseille","lat":43.308012,"lon":5.435122,"is_reserved":false,"is_disabled":true,"rental_uris":{"android":"levelo://app?vid=dab36927-4328-48fa-bffb-145a737de07e","ios":"levelo://app?vid=dab36927-4328-48fa-bffb-145a737de07e"},"vehicle_type_id":"4","last_reported":1761473387,"current_range_meters":9200,"station_id":"ce4bhph2rcd13ifvqheg","pricing_plan_id":"cebpf4jnsgd1na2vs0mg"},{"bike_id":"81199c68-236c-474b-825d-6c76f545dac2","system_id":"levelo_inurba_marseille","lat":43.237833,"lon":5.3663,"is_reserved":false,"is_disabled":false,"rental_uris":{"android":"levelo://app?vid=81199c68-236c-474b-825d-6c76f545dac2","ios":"levelo://app?vid=81199c68-236c-474b-825d-6c76f545dac2"},"vehicle_type_id":"4","last_reported":1761473387,"current_range_meters":9200,"station_id":"st_d3nk18o9ro0c73en2l3g","pricing_plan_id":"cebpf4jnsgd1na2vs0mg"},{"bike_id":"f368b25a-4d02-443d-abea-6209d0c00b02","system_id":"levelo_inurba_marseille","lat":43.29647,"lon":5.37846,"is_reserved":false,"is_disabled":false,"rental_uris":{"android":"levelo://app?vid=f368b25a-4d02-443d-abea-6209d0c00b02","ios":"levelo://app?vid=f368b25a-4d02-443d-abea-6209d0c00b02"},"vehicle_type_id":"4","last_reported":1761473387,"current_range_meters":9200,"station_id":"","pricing_plan_id":"cebpf4jnsgd1na2vs0mg"},{"bike_id":"43117888-69d1-4bc6-a73a-697554e4a08e","system_id":"levelo_inurba_marseille","lat":43.25259,"lon":5.37809,"is_reserved":false,"is_disabled":false,"rental_uris":{"android":"levelo://app?vid=43117888-69d1-4bc6-a73a-697554e4a08e","ios":"levelo://app?vid=43117888-69d1-4bc6-a73a-697554e4a08e"},"vehicle_type_id":"4","last_reported":1761473387,"current_range_meters":9200,"station_id":"","pricing_plan_id":"cebpf4jnsgd1na2vs0mg"},{"bike_id":"55a3d7bc-f5bb-45e5-870d-34d2354f8948","system_id":"levelo_inurba_marseille","lat":43.27434,"lon":5.39418,"is_reserved":false,"is_disabled":false,"rental_uris":{"android":"levelo://app?vid=55a3d7bc-f5bb-45e5-870d-34d2354f8948","ios":"levelo://app?vid=55a3d7bc-f5bb-45e5-870d-34d2354f8948"},"vehicle_type_id":"4","last_reported":1761473387,"current_range_meters":9200,"station_id":"ce4bhdp2rcd13ifvqf20","pricing_plan_id":"cebpf4jnsgd1na2vs0mg"},{"bike_id":"11ba7361-805e-464f-90fd-191ebb61b4cc","system_id":"levelo_inurba_marseille","lat":43.29867,"lon":5.38914,"is_reserved":false,"is_disabled":false,"rental_uris":{"android":"levelo://app?vid=11ba7361-805e-464f-90fd-191ebb61b4cc","ios":"levelo://app?vid=11ba7361-805e-464f-90fd-191ebb61b4cc"},"vehicle_type_id":"4","last_reported":1761473387,"current_range_meters":9200,"station_id":"ce4bh392rcd13ifvqdl0","pricing_plan_id":"cebpf4jnsgd1na2vs0mg"},{"bike_id":"dbeb6119-add5-46e9-b2d0-8e8dff9d0feb","system_id":"levelo_inurba_marseille","lat":43.29928,"lon":5.36546,"is_reserved":false,"is_disabled":false,"rental_uris":{"android":"levelo://app?vid=dbeb6119-add5-46e9-b2d0-8e8dff9d0feb","ios":"levelo://app?vid=dbeb6119-add5-46e9-b2d0-8e8dff9d0feb"},"vehicle_type_id":"4","last_reported":1761473387,"current_range_meters":9600,"station_id":"ce4bgm92rcd13ifvqbr0","pricing_plan_id":"cebpf4jnsgd1na2vs0mg"},{"bike_id":"8ccfbb85-30a5-4745-96f0-a706b72218a1","system_id":"levelo_inurba_marseille","lat":43.31424,"lon":5.38882,"is_reserved":false,"is_disabled":false,"rental_uris":{"android":"levelo://app?vid=8ccfbb85-30a5-4745-96f0-a706b72218a1","ios":"levelo://app?vid=8ccfbb85-30a5-4745-96f0-a706b72218a1"},"vehicle_type_id":"4","last_reported":1761473387,"current_range_meters":10000,"station_id":"","pricing_plan_id":"cebpf4jnsgd1na2vs0mg"},{"bike_id":"a959d8d8-3400-459b-981e-5531cddb9558","system_id":"levelo_inurba_marseille","lat":43.231836,"lon":5.399804,"is_reserved":false,"is_disabled":false,"rental_uris":{"android":"levelo://app?vid=a959d8d8-3400-459b-981e-5531cddb9558","ios":"levelo://app?vid=a959d8d8-3400-459b-981e-5531cddb9558"},"vehicle_type_id":"4","last_reported":1761473387,"current_range_meters":10800,"station_id":"ce4bhn12rcd13ifvqgqg","pricing_plan_id":"cebpf4jnsgd1na2vs0mg"},{"bike_id":"c329c6bc-ba11-4a64-872e-cb46479dd0a1","system_id":"levelo_inurba_marseille","lat":43.29519,"lon":5.39055,"is_reserved":false,"is_disabled":false,"rental_uris":{"android":"levelo://app?vid=c329c6bc-ba11-4a64-872e-cb46479dd0a1","ios":"levelo://app?vid=c329c6bc-ba11-4a64-872e-cb46479dd0a1"},"vehicle_type_id":"4","last_reported":1761473387,"current_range_meters":10800,"station_id":"ce4bh3p2rcd13ifvqdp0","pricing_plan_id":"cebpf4jnsgd1na2vs0mg"},{"bike_id":"c372ac84-919c-46d8-bf06-fe880afae35a","system_id":"levelo_inurba_marseille","lat":43.24074,"lon":5.37764,"is_reserved":false,"is_disabled":false,"rental_uris":{"android":"levelo://app?vid=c372ac84-919c-46d8-bf06-fe880afae35a","ios":"levelo://app?vid=c372ac84-919c-46d8-bf06-fe880afae35a"},"vehicle_type_id":"4","last_reported":1761473387,"current_range_meters":10800,"station_id":"ce4bhnp2rcd13ifvqgvg","pricing_plan_id":"cebpf4jnsgd1na2vs0mg"},{"bike_id":"371a812a-2fb8-4777-8285-ca36f2db0bd1","system_id":"levelo_inurba_marseille","lat":43.272,"lon":5.39187,"is_reserved":false,"is_disabled":false,"rental_uris":{"android":"levelo://app?vid=371a812a-2fb8-4777-8285-ca36f2db0bd1","ios":"levelo://app?vid=371a812a-2fb8-4777-8285-ca36f2db0bd1"},"vehicle_type_id":"4","last_reported":1761473387,"current_range_meters":10800,"station_id":"ce4bhhp2rcd13ifvqfm0","pricing_plan_id":"cebpf4jnsgd1na2vs0mg"},{"bike_id":"d3145067-3ca0-4e72-b01a-ef78c0959aad","system_id":"levelo_inurba_marseille","lat":43.302368,"lon":5.400621,"is_reserved":false,"is_disabled":true,"rental_uris":{"android":"levelo://app?vid=d3145067-3ca0-4e72-b01a-ef78c0959aad","ios":"levelo://app?vid=d3145067-3ca0-4e72-b01a-ef78c0959aad"},"vehicle_type_id":"4","last_reported":1761473387,"current_range_meters":10800,"station_id":"ce4bgvh2rcd13ifvqcs0","pricing_plan_id":"cebpf4jnsgd1na2vs0mg"},{"bike_id":"081239e7-6ebc-4533-b445-39f468f77427","system_id":"levelo_inurba_marseille","lat":43.27496,"lon":5.42448,"is_reserved":false,"is_disabled":false,"rental_uris":{"android":"levelo://app?vid=081239e7-6ebc-4533-b445-39f468f77427","ios":"levelo://app?vid=081239e7-6ebc-4533-b445-39f468f77427"},"vehicle_type_id":"4","last_reported":1761473387,"current_range_meters":10800,"station_id":"ce4bhn92rcd13ifvqgrg","pricing_plan_id":"cebpf4jnsgd1na2vs0mg"},{"bike_id":"198b9711-b68e-44d4-a768-aebe0a535a40","system_id":"levelo_inurba_marseille","lat":43.32035,"lon":5.41545,"is_reserved":false,"is_disabled":false,"rental_uris":{"android":"levelo://app?vid=198b9711-b68e-44d4-a768-aebe0a535a40","ios":"levelo://app?vid=198b9711-b68e-44d4-a768-aebe0a535a40"},"vehicle_type_id":"4","last_reported":1761473387,"current_range_meters":10800,"station_id":"ce4bhq92rcd13ifvqhkg","pricing_plan_id":"cebpf4jnsgd1na2vs0mg"},{"bike_id":"5dd04910-101f-4654-853d-341f84b98945","system_id":"levelo_inurba_marseille","lat":43.28993,"lon":5.37198,"is_reserved":false,"is_disabled":false,"rental_uris":{"android":"levelo://app?vid=5dd04910-101f-4654-853d-341f84b98945","ios":"levelo://app?vid=5dd04910-101f-4654-853d-341f84b98945"},"vehicle_type_id":"4","last_reported":1761473387,"current_range_meters":11200,"station_id":"","pricing_plan_id":"cebpf4jnsgd1na2vs0mg"},{"bike_id":"ab097f15-aad4-45c1-872b-28a77488204a","system_id":"levelo_inurba_marseille","lat":43.298991,"lon":5.436739,"is_reserved":false,"is_disabled":false,"rental_uris":{"android":"levelo://app?vid=ab097f15-aad4-45c1-872b-28a77488204a","ios":"levelo://app?vid=ab097f15-aad4-45c1-872b-28a77488204a"},"vehicle_type_id":"4","last_reported":1761473387,"current_range_meters":11600,"station_id":"ce4bhpp2rcd13ifvqhfg","pricing_plan_id":"cebpf4jnsgd1na2vs0mg"},{"bike_id":"ab35a204-84d2-4e3b-be4a-b95652d8c25f","system_id":"levelo_inurba_marseille","lat":43.2455,"lon":5.39519,"is_reserved":false,"is_disabled":false,"rental_uris":{"android":"levelo://app?vid=ab35a204-84d2-4e3b-be4a-b95652d8c25f","ios":"levelo://app?vid=ab35a204-84d2-4e3b-be4a-b95652d8c25f"},"vehicle_type_id":"4","last_reported":1761473387,"current_range_meters":11600,"station_id":"ce4bhlp2rcd13ifvqgjg","pricing_plan_id":"cebpf4jnsgd1na2vs0mg"},{"bike_id":"a7b24216-4bc4-4eec-9601-98ed556867f7","system_id":"levelo_inurba_marseille","lat":43.27415,"lon":5.39415,"is_reserved":false,"is_disabled":false,"rental_uris":{"android":"levelo://app?vid=a7b24216-4bc4-4eec-9601-98ed556867f7","ios":"levelo://app?vid=a7b24216-4bc4-4eec-9601-98ed556867f7"},"vehicle_type_id":"4","last_reported":1761473387,"current_range_meters":12000,"station_id":"ce4bhdp2rcd13ifvqf20","pricing_plan_id":"cebpf4jnsgd1na2vs0mg"},{"bike_id":"29b38a45-3e07-40c1-b8b1-5f85b487711f","system_id":"levelo_inurba_marseille","lat":43.3125,"lon":5.40398,"is_reserved":false,"is_disabled":false,"rental_uris":{"android":"levelo://app?vid=29b38a45-3e07-40c1-b8b1-5f85b487711f","ios":"levelo://app?vid=29b38a45-3e07-40c1-b8b1-5f85b487711f"},"vehicle_type_id":"4","last_reported":1761473387,"current_range_meters":12000,"station_id":"","pricing_plan_id":"cebpf4jnsgd1na2vs0mg"},{"bike_id":"ffd13ce5-8f79-40f7-bfc8-0243e89f122b","system_id":"levelo_inurba_marseille","lat":43.24388,"lon":5.37063,"is_reserved":false,"is_disabled":false,"rental_uris":{"android":"levelo://app?vid=ffd13ce5-8f79-40f7-bfc8-0243e89f122b","ios":"levelo://app?vid=ffd13ce5-8f79-40f7-bfc8-0243e89f122b"},"vehicle_type_id":"4","last_reported":1761473387,"current_range_meters":12000,"station_id":"ce4bhhh2rcd13ifvqfk0","pricing_plan_id":"cebpf4jnsgd1na2vs0mg"},{"bike_id":"2d2b3a0d-5fe0-4130-853e-b3238745f69f","system_id":"levelo_inurba_marseille","lat":43.26559,"lon":5.39038,"is_reserved":false,"is_disabled":false,"rental_uris":{"android":"levelo://app?vid=2d2b3a0d-5fe0-4130-853e-b3238745f69f","ios":"levelo://app?vid=2d2b3a0d-5fe0-4130-853e-b3238745f69f"},"vehicle_type_id":"4","last_reported":1761473387,"current_range_meters":12000,"station_id":"ce4bhe12rcd13ifvqf30","pricing_plan_id":"cebpf4jnsgd1na2vs0mg"},{"bike_id":"e3c37ef6-fc8d-40f6-aaa7-3e531d410441","system_id":"levelo_inurba_marseille","lat":43.33713,"lon":5.39185,"is_reserved":false,"is_disabled":false,"rental_uris":{"android":"levelo://app?vid=e3c37ef6-fc8d-40f6-aaa7-3e531d410441","ios":"levelo://app?vid=e3c37ef6-fc8d-40f6-aaa7-3e531d410441"},"vehicle_type_id":"4","last_reported":1761473387,"current_range_meters":12400,"station_id":"ce4bhr92rcd13ifvqhsg","pricing_plan_id":"cebpf4jnsgd1na2vs0mg"},{"bike_id":"42ce47cb-f57c-4653-9ff5-fbb8bddfd0cc","system_id":"levelo_inurba_marseille","lat":43.24999,"lon":5.38935,"is_reserved":false,"is_disabled":false,"rental_uris":{"android":"levelo://app?vid=42ce47cb-f57c-4653-9ff5-fbb8bddfd0cc","ios":"levelo://app?vid=42ce47cb-f57c-4653-9ff5-fbb8bddfd0cc"},"vehicle_type_id":"4","last_reported":1761473387,"current_range_meters":12400,"station_id":"ce4bhgp2rcd13ifvqfd0","pricing_plan_id":"cebpf4jnsgd1na2vs0mg"},{"bike_id":"70e3c48d-d243-4fdf-afda-8db58e524069","system_id":"levelo_inurba_marseille","lat":43.272077,"lon":5.391868,"is_reserved":false,"is_disabled":false,"rental_uris":{"android":"levelo://app?vid=70e3c48d-d243-4fdf-afda-8db58e524069","ios":"levelo://app?vid=70e3c48d-d243-4fdf-afda-8db58e524069"},"vehicle_type_id":"4","last_reported":1761473387,"current_range_meters":12400,"station_id":"ce4bhhp2rcd13ifvqfm0","pricing_plan_id":"cebpf4jnsgd1na2vs0mg"},{"bike_id":"3e7fd0f5-a88a-485f-8077-3afcef15c8db","system_id":"levelo_inurba_marseille","lat":43.30325,"lon":5.40446,"is_reserved":false,"is_disabled":false,"rental_uris":{"android":"levelo://app?vid=3e7fd0f5-a88a-485f-8077-3afcef15c8db","ios":"levelo://app?vid=3e7fd0f5-a88a-485f-8077-3afcef15c8db"},"vehicle_type_id":"4","last_reported":1761473387,"current_range_meters":12400,"station_id":"ce4bh012rcd13ifvqd10","pricing_plan_id":"cebpf4jnsgd1na2vs0mg"},{"bike_id":"277f0bc1-4cdb-4e48-966c-c6257b9aa300","system_id":"levelo_inurba_marseille","lat":43.22569,"lon":5.41627,"is_reserved":false,"is_disabled":false,"rental_uris":{"android":"levelo://app?vid=277f0bc1-4cdb-4e48-966c-c6257b9aa300","ios":"levelo://app?vid=277f0bc1-4cdb-4e48-966c-c6257b9aa300"},"vehicle_type_id":"4","last_reported":1761473387,"current_range_meters":12400,"station_id":"st_d2o4gvlbi1j2169b742g","pricing_plan_id":"cebpf4jnsgd1na2vs0mg"},{"bike_id":"e5bd73c9-d2fd-429b-a719-e50033314cf7","system_id":"levelo_inurba_marseille","lat":43.22548,"lon":5.41613,"is_reserved":false,"is_disabled":false,"rental_uris":{"android":"levelo://app?vid=e5bd73c9-d2fd-429b-a719-e50033314cf7","ios":"levelo://app?vid=e5bd73c9-d2fd-429b-a719-e50033314cf7"},"vehicle_type_id":"4","last_reported":1761473387,"current_range_meters":12400,"station_id":"st_d2o4gvlbi1j2169b742g","pricing_plan_id":"cebpf4jnsgd1na2vs0mg"},{"bike_id":"be4cd705-75e1-440a-9521-e84edba3bc9e","system_id":"levelo_inurba_marseille","lat":43.21188,"lon":5.35078,"is_reserved":false,"is_disabled":false,"rental_uris":{"android":"levelo://app?vid=be4cd705-75e1-440a-9521-e84edba3bc9e","ios":"levelo://app?vid=be4cd705-75e1-440a-9521-e84edba3bc9e"},"vehicle_type_id":"4","last_reported":1761473387,"current_range_meters":12400,"station_id":"st_cvj6sg6p6f1abm77japg","pricing_plan_id":"cebpf4jnsgd1na2vs0mg"},{"bike_id":"3fbd66b1-e2a9-4be3-b923-94252387751e","system_id":"levelo_inurba_marseille","lat":43.27911,"lon":5.39596,"is_reserved":false,"is_disabled":false,"rental_uris":{"android":"levelo://app?vid=3fbd66b1-e2a9-4be3-b923-94252387751e","ios":"levelo://app?vid=3fbd66b1-e2a9-4be3-b923-94252387751e"},"vehicle_type_id":"4","last_reported":1761473387,"current_range_meters":12800,"station_id":"ce4bhf92rcd13ifvqf40","pricing_plan_id":"cebpf4jnsgd1na2vs0mg"},{"bike_id":"bf526c33-28dd-4a6a-a10d-b02e3c57c12e","system_id":"levelo_inurba_marseille","lat":43.239607,"lon":5.366342,"is_reserved":false,"is_disabled":false,"rental_uris":{"android":"levelo://app?vid=bf526c33-28dd-4a6a-a10d-b02e3c57c12e","ios":"levelo://app?vid=bf526c33-28dd-4a6a-a10d-b02e3c57c12e"},"vehicle_type_id":"4","last_reported":1761473387,"current_range_meters":12800,"station_id":"ce4bhi12rcd13ifvqfp0","pricing_plan_id":"cebpf4jnsgd1na2vs0mg"},{"bike_id":"059590f3-d299-4842-932c-4b08dcc4e220","system_id":"levelo_inurba_marseille","lat":43.24807,"lon":5.37454,"is_reserved":false,"is_disabled":false,"rental_uris":{"android":"levelo://app?vid=059590f3-d299-4842-932c-4b08dcc4e220","ios":"levelo://app?vid=059590f3-d299-4842-932c-4b08dcc4e220"},"vehicle_type_id":"4","last_reported":1761473387,"current_range_meters":12800,"station_id":"ce4bhgh2rcd13ifvqfb0","pricing_plan_id":"cebpf4jnsgd1na2vs0mg"},{"bike_id":"ef8701f2-8b95-4d10-ada3-a8b00599d2dc","system_id":"levelo_inurba_marseille","lat":43.29711,"lon":5.37885,"is_reserved":false,"is_disabled":false,"rental_uris":{"android":"levelo://app?vid=ef8701f2-8b95-4d10-ada3-a8b00599d2dc","ios":"levelo://app?vid=ef8701f2-8b95-4d10-ada3-a8b00599d2dc"},"vehicle_type_id":"4","last_reported":1761473387,"current_range_meters":13600,"station_id":"","pricing_plan_id":"cebpf4jnsgd1na2vs0mg"},{"bike_id":"86bb99a4-3bed-453c-bdfd-4fd969cec0ce","system_id":"levelo_inurba_marseille","lat":43.26084,"lon":5.3938,"is_reserved":false,"is_disabled":false,"rental_uris":{"android":"levelo://app?vid=86bb99a4-3bed-453c-bdfd-4fd969cec0ce","ios":"levelo://app?vid=86bb99a4-3bed-453c-bdfd-4fd969cec0ce"},"vehicle_type_id":"4","last_reported":1761473387,"current_range_meters":13600,"station_id":"ce4bhh92rcd13ifvqfj0","pricing_plan_id":"cebpf4jnsgd1na2vs0mg"},{"bike_id":"41d45b45-3a52-4b5a-b2b3-1e62d5490ada","system_id":"levelo_inurba_marseille","lat":43.28535,"lon":5.44094,"is_reserved":false,"is_disabled":false,"rental_uris":{"android":"levelo://app?vid=41d45b45-3a52-4b5a-b2b3-1e62d5490ada","ios":"levelo://app?vid=41d45b45-3a52-4b5a-b2b3-1e62d5490ada"},"vehicle_type_id":"4","last_reported":1761473387,"current_range_meters":13600,"station_id":"st_d3j3df2ikq2c7380ej80","pricing_plan_id":"cebpf4jnsgd1na2vs0mg"},{"bike_id":"f72a00f1-1fed-4f6c-b4b5-8473dfdb4606","system_id":"levelo_inurba_marseille","lat":43.29678,"lon":5.40366,"is_reserved":false,"is_disabled":false,"rental_uris":{"android":"levelo://app?vid=f72a00f1-1fed-4f6c-b4b5-8473dfdb4606","ios":"levelo://app?vid=f72a00f1-1fed-4f6c-b4b5-8473dfdb4606"},"vehicle_type_id":"4","last_reported":1761473387,"current_range_meters":13600,"station_id":"","pricing_plan_id":"cebpf4jnsgd1na2vs0mg"},{"bike_id":"c0b81f28-bbba-4247-a74b-c55a34b31846","system_id":"levelo_inurba_marseille","lat":43.33258,"lon":5.41086,"is_reserved":false,"is_disabled":false,"rental_uris":{"android":"levelo://app?vid=c0b81f28-bbba-4247-a74b-c55a34b31846","ios":"levelo://app?vid=c0b81f28-bbba-4247-a74b-c55a34b31846"},"vehicle_type_id":"4","last_reported":1761473387,"current_range_meters":14000,"station_id":"","pricing_plan_id":"cebpf4jnsgd1na2vs0mg"},{"bike_id":"67f27096-805a-4dd3-bcd0-5f63430caed3","system_id":"levelo_inurba_marseille","lat":43.23067,"lon":5.35488,"is_reserved":false,"is_disabled":false,"rental_uris":{"android":"levelo://app?vid=67f27096-805a-4dd3-bcd0-5f63430caed3","ios":"levelo://app?vid=67f27096-805a-4dd3-bcd0-5f63430caed3"},"vehicle_type_id":"4","last_reported":1761473387,"current_range_meters":14000,"station_id":"cpo3342slgdg3j2ifvpg","pricing_plan_id":"cebpf4jnsgd1na2vs0mg"},{"bike_id":"45590a6b-966e-4533-b809-efc51cc9687d","system_id":"levelo_inurba_marseille","lat":43.31082,"lon":5.42432,"is_reserved":false,"is_disabled":false,"rental_uris":{"android":"levelo://app?vid=45590a6b-966e-4533-b809-efc51cc9687d","ios":"levelo://app?vid=45590a6b-966e-4533-b809-efc51cc9687d"},"vehicle_type_id":"4","last_reported":1761473387,"current_range_meters":14000,"station_id":"ce4bhp92rcd13ifvqhag","pricing_plan_id":"cebpf4jnsgd1na2vs0mg"},{"bike_id":"a19578d6-d951-4028-8fd3-5a6107e3816c","system_id":"levelo_inurba_marseille","lat":43.24808,"lon":5.37451,"is_reserved":false,"is_disabled":false,"rental_uris":{"android":"levelo://app?vid=a19578d6-d951-4028-8fd3-5a6107e3816c","ios":"levelo://app?vid=a19578d6-d951-4028-8fd3-5a6107e3816c"},"vehicle_type_id":"4","last_reported":1761473387,"current_range_meters":14000,"station_id":"ce4bhgh2rcd13ifvqfb0","pricing_plan_id":"cebpf4jnsgd1na2vs0mg"},{"bike_id":"e8a83a2f-bf08-41e3-a2e2-249149418233","system_id":"levelo_inurba_marseille","lat":43.25338,"lon":5.4217,"is_reserved":false,"is_disabled":false,"rental_uris":{"android":"levelo://app?vid=e8a83a2f-bf08-41e3-a2e2-249149418233","ios":"levelo://app?vid=e8a83a2f-bf08-41e3-a2e2-249149418233"},"vehicle_type_id":"4","last_reported":1761473387,"current_range_meters":14000,"station_id":"st_d2m65c5bi1j21697t3ng","pricing_plan_id":"cebpf4jnsgd1na2vs0mg"},{"bike_id":"3da36b46-32f0-4723-8f3b-8cba39a84287","system_id":"levelo_inurba_marseille","lat":43.24392,"lon":5.37039,"is_reserved":false,"is_disabled":false,"rental_uris":{"android":"levelo://app?vid=3da36b46-32f0-4723-8f3b-8cba39a84287","ios":"levelo://app?vid=3da36b46-32f0-4723-8f3b-8cba39a84287"},"vehicle_type_id":"4","last_reported":1761473387,"current_range_meters":14000,"station_id":"ce4bhhh2rcd13ifvqfk0","pricing_plan_id":"cebpf4jnsgd1na2vs0mg"},{"bike_id":"9e83dc36-0288-47ce-863a-762352d61e9d","system_id":"levelo_inurba_marseille","lat":43.26944,"lon":5.40246,"is_reserved":false,"is_disabled":false,"rental_uris":{"android":"levelo://app?vid=9e83dc36-0288-47ce-863a-762352d61e9d","ios":"levelo://app?vid=9e83dc36-0288-47ce-863a-762352d61e9d"},"vehicle_type_id":"4","last_reported":1761473387,"current_range_meters":14400,"station_id":"cjm6bp8fraef2m0cb0m0","pricing_plan_id":"cebpf4jnsgd1na2vs0mg"},{"bike_id":"1a17ca6c-2b9b-4e73-b76d-539b00005301","system_id":"levelo_inurba_marseille","lat":43.24389,"lon":5.37064,"is_reserved":false,"is_disabled":false,"rental_uris":{"android":"levelo://app?vid=1a17ca6c-2b9b-4e73-b76d-539b00005301","ios":"levelo://app?vid=1a17ca6c-2b9b-4e73-b76d-539b00005301"},"vehicle_type_id":"4","last_reported":1761473387,"current_range_meters":14400,"station_id":"ce4bhhh2rcd13ifvqfk0","pricing_plan_id":"cebpf4jnsgd1na2vs0mg"},{"bike_id":"e4ccce50-4824-4895-aa8c-033835526f23","system_id":"levelo_inurba_marseille","lat":43.31888,"lon":5.39987,"is_reserved":false,"is_disabled":false,"rental_uris":{"android":"levelo://app?vid=e4ccce50-4824-4895-aa8c-033835526f23","ios":"levelo://app?vid=e4ccce50-4824-4895-aa8c-033835526f23"},"vehicle_type_id":"4","last_reported":1761473387,"current_range_meters":14400,"station_id":"","pricing_plan_id":"cebpf4jnsgd1na2vs0mg"},{"bike_id":"12cefd40-c26f-402c-b50f-33cfb17b8e9f","system_id":"levelo_inurba_marseille","lat":43.2596,"lon":5.37541,"is_reserved":false,"is_disabled":false,"rental_uris":{"android":"levelo://app?vid=12cefd40-c26f-402c-b50f-33cfb17b8e9f","ios":"levelo://app?vid=12cefd40-c26f-402c-b50f-33cfb17b8e9f"},"vehicle_type_id":"4","last_reported":1761473387,"current_range_meters":14800,"station_id":"","pricing_plan_id":"cebpf4jnsgd1na2vs0mg"},{"bike_id":"de5cece4-6186-4ccb-b70e-a25e8bd3fc86","system_id":"levelo_inurba_marseille","lat":43.337444,"lon":5.374475,"is_reserved":false,"is_disabled":false,"rental_uris":{"android":"levelo://app?vid=de5cece4-6186-4ccb-b70e-a25e8bd3fc86","ios":"levelo://app?vid=de5cece4-6186-4ccb-b70e-a25e8bd3fc86"},"vehicle_type_id":"4","last_reported":1761473387,"current_range_meters":14800,"station_id":"","pricing_plan_id":"cebpf4jnsgd1na2vs0mg"},{"bike_id":"a1dc5f3f-e6fc-4cd3-b1ed-5597ebb1a061","system_id":"levelo_inurba_marseille","lat":43.29958,"lon":5.37178,"is_reserved":false,"is_disabled":false,"rental_uris":{"android":"levelo://app?vid=a1dc5f3f-e6fc-4cd3-b1ed-5597ebb1a061","ios":"levelo://app?vid=a1dc5f3f-e6fc-4cd3-b1ed-5597ebb1a061"},"vehicle_type_id":"4","last_reported":1761473387,"current_range_meters":15200,"station_id":"ce4bgr92rcd13ifvqc7g","pricing_plan_id":"cebpf4jnsgd1na2vs0mg"},{"bike_id":"476ede32-cfdc-42f2-8cc1-233e266f9923","system_id":"levelo_inurba_marseille","lat":43.295699,"lon":5.37555,"is_reserved":false,"is_disabled":false,"rental_uris":{"android":"levelo://app?vid=476ede32-cfdc-42f2-8cc1-233e266f9923","ios":"levelo://app?vid=476ede32-cfdc-42f2-8cc1-233e266f9923"},"vehicle_type_id":"4","last_reported":1761473387,"current_range_meters":15200,"station_id":"","pricing_plan_id":"cebpf4jnsgd1na2vs0mg"},{"bike_id":"46b0db6c-35c8-470b-a45d-db7e7afa9bfd","system_id":"levelo_inurba_marseille","lat":43.28405,"lon":5.37524,"is_reserved":false,"is_disabled":true,"rental_uris":{"android":"levelo://app?vid=46b0db6c-35c8-470b-a45d-db7e7afa9bfd","ios":"levelo://app?vid=46b0db6c-35c8-470b-a45d-db7e7afa9bfd"},"vehicle_type_id":"4","last_reported":1761473387,"current_range_meters":15200,"station_id":"ce4bh412rcd13ifvqds0","pricing_plan_id":"cebpf4jnsgd1na2vs0mg"},{"bike_id":"67f8857f-0853-46d2-b9ef-96c5ce2639bc","system_id":"levelo_inurba_marseille","lat":43.230617,"lon":5.355023,"is_reserved":false,"is_disabled":false,"rental_uris":{"android":"levelo://app?vid=67f8857f-0853-46d2-b9ef-96c5ce2639bc","ios":"levelo://app?vid=67f8857f-0853-46d2-b9ef-96c5ce2639bc"},"vehicle_type_id":"4","last_reported":1761473387,"current_range_meters":15200,"station_id":"cpo3342slgdg3j2ifvpg","pricing_plan_id":"cebpf4jnsgd1na2vs0mg"},{"bike_id":"e5aafa61-e384-4c69-800b-fe726c41fdc6","system_id":"levelo_inurba_marseille","lat":43.29966,"lon":5.38494,"is_reserved":false,"is_disabled":true,"rental_uris":{"android":"levelo://app?vid=e5aafa61-e384-4c69-800b-fe726c41fdc6","ios":"levelo://app?vid=e5aafa61-e384-4c69-800b-fe726c41fdc6"},"vehicle_type_id":"4","last_reported":1761473387,"current_range_meters":15200,"station_id":"ce4bgj92rcd13ifvqbd0","pricing_plan_id":"cebpf4jnsgd1na2vs0mg"},{"bike_id":"c124d4a0-9e47-48ec-ad7a-ea36eb6e5d35","system_id":"levelo_inurba_marseille","lat":43.24383,"lon":5.37051,"is_reserved":false,"is_disabled":false,"rental_uris":{"android":"levelo://app?vid=c124d4a0-9e47-48ec-ad7a-ea36eb6e5d35","ios":"levelo://app?vid=c124d4a0-9e47-48ec-ad7a-ea36eb6e5d35"},"vehicle_type_id":"4","last_reported":1761473387,"current_range_meters":15200,"station_id":"ce4bhhh2rcd13ifvqfk0","pricing_plan_id":"cebpf4jnsgd1na2vs0mg"},{"bike_id":"52cb10b7-332f-48f2-9495-ad5a2f0b0dc8","system_id":"levelo_inurba_marseille","lat":43.26848,"lon":5.394,"is_reserved":false,"is_disabled":false,"rental_uris":{"android":"levelo://app?vid=52cb10b7-332f-48f2-9495-ad5a2f0b0dc8","ios":"levelo://app?vid=52cb10b7-332f-48f2-9495-ad5a2f0b0dc8"},"vehicle_type_id":"4","last_reported":1761473387,"current_range_meters":16000,"station_id":"","pricing_plan_id":"cebpf4jnsgd1na2vs0mg"},{"bike_id":"1ffe1259-bda0-45d2-bfd5-822026a61c98","system_id":"levelo_inurba_marseille","lat":43.25078,"lon":5.39501,"is_reserved":false,"is_disabled":false,"rental_uris":{"android":"levelo://app?vid=1ffe1259-bda0-45d2-bfd5-822026a61c98","ios":"levelo://app?vid=1ffe1259-bda0-45d2-bfd5-822026a61c98"},"vehicle_type_id":"4","last_reported":1761473387,"current_range_meters":16000,"station_id":"ce4bhm12rcd13ifvqgkg","pricing_plan_id":"cebpf4jnsgd1na2vs0mg"},{"bike_id":"8a99215e-2fbc-4d78-ab77-32bc504b2dd5","system_id":"levelo_inurba_marseille","lat":43.25083,"lon":5.39518,"is_reserved":false,"is_disabled":false,"rental_uris":{"android":"levelo://app?vid=8a99215e-2fbc-4d78-ab77-32bc504b2dd5","ios":"levelo://app?vid=8a99215e-2fbc-4d78-ab77-32bc504b2dd5"},"vehicle_type_id":"4","last_reported":1761473387,"current_range_meters":16000,"station_id":"ce4bhm12rcd13ifvqgkg","pricing_plan_id":"cebpf4jnsgd1na2vs0mg"},{"bike_id":"8847af5d-c1ad-4d8d-a5c1-273c3b41c105","system_id":"levelo_inurba_marseille","lat":43.32256,"lon":5.41968,"is_reserved":false,"is_disabled":false,"rental_uris":{"android":"levelo://app?vid=8847af5d-c1ad-4d8d-a5c1-273c3b41c105","ios":"levelo://app?vid=8847af5d-c1ad-4d8d-a5c1-273c3b41c105"},"vehicle_type_id":"4","last_reported":1761473387,"current_range_meters":16000,"station_id":"","pricing_plan_id":"cebpf4jnsgd1na2vs0mg"},{"bike_id":"bf725e26-be18-4372-84c1-2e0a157f0fbb","system_id":"levelo_inurba_marseille","lat":43.26936,"lon":5.40246,"is_reserved":false,"is_disabled":false,"rental_uris":{"android":"levelo://app?vid=bf725e26-be18-4372-84c1-2e0a157f0fbb","ios":"levelo://app?vid=bf725e26-be18-4372-84c1-2e0a157f0fbb"},"vehicle_type_id":"4","last_reported":1761473387,"current_range_meters":16000,"station_id":"cjm6bp8fraef2m0cb0m0","pricing_plan_id":"cebpf4jnsgd1na2vs0mg"},{"bike_id":"80bbf991-6681-4970-b679-b420bff212f4","system_id":"levelo_inurba_marseille","lat":43.31134,"lon":5.37766,"is_reserved":false,"is_disabled":false,"rental_uris":{"android":"levelo://app?vid=80bbf991-6681-4970-b679-b420bff212f4","ios":"levelo://app?vid=80bbf991-6681-4970-b679-b420bff212f4"},"vehicle_type_id":"4","last_reported":1761473387,"current_range_meters":16000,"station_id":"ce4bgt92rcd13ifvqcg0","pricing_plan_id":"cebpf4jnsgd1na2vs0mg"},{"bike_id":"64b75b4a-3497-4861-8cc2-90dd62cd9f5e","system_id":"levelo_inurba_marseille","lat":43.29525,"lon":5.43283,"is_reserved":false,"is_disabled":false,"rental_uris":{"android":"levelo://app?vid=64b75b4a-3497-4861-8cc2-90dd62cd9f5e","ios":"levelo://app?vid=64b75b4a-3497-4861-8cc2-90dd62cd9f5e"},"vehicle_type_id":"4","last_reported":1761473387,"current_range_meters":16000,"station_id":"st_d3j5ugp08ojc73fj9d10","pricing_plan_id":"cebpf4jnsgd1na2vs0mg"},{"bike_id":"8d922c2e-fd1c-4861-a7c8-82dfdd23c009","system_id":"levelo_inurba_marseille","lat":43.24147,"lon":5.36394,"is_reserved":false,"is_disabled":false,"rental_uris":{"android":"levelo://app?vid=8d922c2e-fd1c-4861-a7c8-82dfdd23c009","ios":"levelo://app?vid=8d922c2e-fd1c-4861-a7c8-82dfdd23c009"},"vehicle_type_id":"4","last_reported":1761473387,"current_range_meters":16000,"station_id":"cpo36qri1sfpv3e86is0","pricing_plan_id":"cebpf4jnsgd1na2vs0mg"},{"bike_id":"d5cdab10-1e9c-42e6-b221-701618239331","system_id":"levelo_inurba_marseille","lat":43.23067,"lon":5.35491,"is_reserved":false,"is_disabled":false,"rental_uris":{"android":"levelo://app?vid=d5cdab10-1e9c-42e6-b221-701618239331","ios":"levelo://app?vid=d5cdab10-1e9c-42e6-b221-701618239331"},"vehicle_type_id":"4","last_reported":1761473387,"current_range_meters":16000,"station_id":"cpo3342slgdg3j2ifvpg","pricing_plan_id":"cebpf4jnsgd1na2vs0mg"},{"bike_id":"de9f9a24-3fc1-4406-a347-73423fb5bcc7","system_id":"levelo_inurba_marseille","lat":43.239641,"lon":5.366261,"is_reserved":false,"is_disabled":false,"rental_uris":{"android":"levelo://app?vid=de9f9a24-3fc1-4406-a347-73423fb5bcc7","ios":"levelo://app?vid=de9f9a24-3fc1-4406-a347-73423fb5bcc7"},"vehicle_type_id":"4","last_reported":1761473387,"current_range_meters":16000,"station_id":"ce4bhi12rcd13ifvqfp0","pricing_plan_id":"cebpf4jnsgd1na2vs0mg"},{"bike_id":"7972169b-80a8-473e-b4f4-65b804e4b17c","system_id":"levelo_inurba_marseille","lat":43.2721,"lon":5.3916,"is_reserved":false,"is_disabled":false,"rental_uris":{"android":"levelo://app?vid=7972169b-80a8-473e-b4f4-65b804e4b17c","ios":"levelo://app?vid=7972169b-80a8-473e-b4f4-65b804e4b17c"},"vehicle_type_id":"4","last_reported":1761473387,"current_range_meters":16400,"station_id":"ce4bhhp2rcd13ifvqfm0","pricing_plan_id":"cebpf4jnsgd1na2vs0mg"},{"bike_id":"6ee611b3-bf13-495e-a0dc-dfd1a8718271","system_id":"levelo_inurba_marseille","lat":43.2982,"lon":5.44056,"is_reserved":false,"is_disabled":false,"rental_uris":{"android":"levelo://app?vid=6ee611b3-bf13-495e-a0dc-dfd1a8718271","ios":"levelo://app?vid=6ee611b3-bf13-495e-a0dc-dfd1a8718271"},"vehicle_type_id":"4","last_reported":1761473387,"current_range_meters":16400,"station_id":"st_d3jp68qikq2c7381ktn0","pricing_plan_id":"cebpf4jnsgd1na2vs0mg"},{"bike_id":"ee63d3c4-f9ad-48dd-a91b-8e565e473a00","system_id":"levelo_inurba_marseille","lat":43.30148,"lon":5.43105,"is_reserved":false,"is_disabled":false,"rental_uris":{"android":"levelo://app?vid=ee63d3c4-f9ad-48dd-a91b-8e565e473a00","ios":"levelo://app?vid=ee63d3c4-f9ad-48dd-a91b-8e565e473a00"},"vehicle_type_id":"4","last_reported":1761473387,"current_range_meters":16400,"station_id":"st_d3js3co5814s73ftftug","pricing_plan_id":"cebpf4jnsgd1na2vs0mg"},{"bike_id":"af9e12e7-38b8-459b-8665-a09998ee41f3","system_id":"levelo_inurba_marseille","lat":43.24652,"lon":5.38899,"is_reserved":false,"is_disabled":false,"rental_uris":{"android":"levelo://app?vid=af9e12e7-38b8-459b-8665-a09998ee41f3","ios":"levelo://app?vid=af9e12e7-38b8-459b-8665-a09998ee41f3"},"vehicle_type_id":"4","last_reported":1761473387,"current_range_meters":16400,"station_id":"ce4bhg12rcd13ifvqf60","pricing_plan_id":"cebpf4jnsgd1na2vs0mg"},{"bike_id":"a70a5c56-54da-4a9c-92ae-4bd04c5f57d9","system_id":"levelo_inurba_marseille","lat":43.298947,"lon":5.436594,"is_reserved":false,"is_disabled":false,"rental_uris":{"android":"levelo://app?vid=a70a5c56-54da-4a9c-92ae-4bd04c5f57d9","ios":"levelo://app?vid=a70a5c56-54da-4a9c-92ae-4bd04c5f57d9"},"vehicle_type_id":"4","last_reported":1761473387,"current_range_meters":16400,"station_id":"ce4bhpp2rcd13ifvqhfg","pricing_plan_id":"cebpf4jnsgd1na2vs0mg"},{"bike_id":"317107fa-306d-4b8d-9380-a16cd06486ce","system_id":"levelo_inurba_marseille","lat":43.28464,"lon":5.35885,"is_reserved":false,"is_disabled":true,"rental_uris":{"android":"levelo://app?vid=317107fa-306d-4b8d-9380-a16cd06486ce","ios":"levelo://app?vid=317107fa-306d-4b8d-9380-a16cd06486ce"},"vehicle_type_id":"4","last_reported":1761473387,"current_range_meters":16400,"station_id":"ce4bhah2rcd13ifvqei0","pricing_plan_id":"cebpf4jnsgd1na2vs0mg"},{"bike_id":"7a1877e8-1310-4142-900d-3cea9a2ef65f","system_id":"levelo_inurba_marseille","lat":43.29498,"lon":5.43297,"is_reserved":false,"is_disabled":false,"rental_uris":{"android":"levelo://app?vid=7a1877e8-1310-4142-900d-3cea9a2ef65f","ios":"levelo://app?vid=7a1877e8-1310-4142-900d-3cea9a2ef65f"},"vehicle_type_id":"4","last_reported":1761473387,"current_range_meters":16400,"station_id":"st_d3j5ugp08ojc73fj9d10","pricing_plan_id":"cebpf4jnsgd1na2vs0mg"},{"bike_id":"526cddf7-e629-4e01-a3fa-d060ef7dfdd4","system_id":"levelo_inurba_marseille","lat":43.24643,"lon":5.3888,"is_reserved":false,"is_disabled":false,"rental_uris":{"android":"levelo://app?vid=526cddf7-e629-4e01-a3fa-d060ef7dfdd4","ios":"levelo://app?vid=526cddf7-e629-4e01-a3fa-d060ef7dfdd4"},"vehicle_type_id":"4","last_reported":1761473387,"current_range_meters":16400,"station_id":"ce4bhg12rcd13ifvqf60","pricing_plan_id":"cebpf4jnsgd1na2vs0mg"},{"bike_id":"f1bb6824-0b46-4e32-a3ef-c1b764bd053e","system_id":"levelo_inurba_marseille","lat":43.30145,"lon":5.40114,"is_reserved":false,"is_disabled":false,"rental_uris":{"android":"levelo://app?vid=f1bb6824-0b46-4e32-a3ef-c1b764bd053e","ios":"levelo://app?vid=f1bb6824-0b46-4e32-a3ef-c1b764bd053e"},"vehicle_type_id":"4","last_reported":1761473387,"current_range_meters":16400,"station_id":"","pricing_plan_id":"cebpf4jnsgd1na2vs0mg"},{"bike_id":"8f1595ee-0c39-45ec-bd05-7feb852a34d8","system_id":"levelo_inurba_marseille","lat":43.2509,"lon":5.39537,"is_reserved":false,"is_disabled":false,"rental_uris":{"android":"levelo://app?vid=8f1595ee-0c39-45ec-bd05-7feb852a34d8","ios":"levelo://app?vid=8f1595ee-0c39-45ec-bd05-7feb852a34d8"},"vehicle_type_id":"4","last_reported":1761473387,"current_range_meters":16800,"station_id":"ce4bhm12rcd13ifvqgkg","pricing_plan_id":"cebpf4jnsgd1na2vs0mg"},{"bike_id":"ca8c5fef-8841-4e27-bf56-b75f84bec5da","system_id":"levelo_inurba_marseille","lat":43.237797,"lon":5.366267,"is_reserved":false,"is_disabled":false,"rental_uris":{"android":"levelo://app?vid=ca8c5fef-8841-4e27-bf56-b75f84bec5da","ios":"levelo://app?vid=ca8c5fef-8841-4e27-bf56-b75f84bec5da"},"vehicle_type_id":"4","last_reported":1761473387,"current_range_meters":16800,"station_id":"st_d3nk18o9ro0c73en2l3g","pricing_plan_id":"cebpf4jnsgd1na2vs0mg"},{"bike_id":"ad166e8d-320f-47c2-bfd9-9e014a946d21","system_id":"levelo_inurba_marseille","lat":43.27816,"lon":5.40734,"is_reserved":false,"is_disabled":true,"rental_uris":{"android":"levelo://app?vid=ad166e8d-320f-47c2-bfd9-9e014a946d21","ios":"levelo://app?vid=ad166e8d-320f-47c2-bfd9-9e014a946d21"},"vehicle_type_id":"4","last_reported":1761473387,"current_range_meters":16800,"station_id":"ce4bhnh2rcd13ifvqgtg","pricing_plan_id":"cebpf4jnsgd1na2vs0mg"},{"bike_id":"8f3e64eb-5cc7-4bf0-8964-9ab3d59c4e2b","system_id":"levelo_inurba_marseille","lat":43.24174,"lon":5.36387,"is_reserved":false,"is_disabled":false,"rental_uris":{"android":"levelo://app?vid=8f3e64eb-5cc7-4bf0-8964-9ab3d59c4e2b","ios":"levelo://app?vid=8f3e64eb-5cc7-4bf0-8964-9ab3d59c4e2b"},"vehicle_type_id":"4","last_reported":1761473387,"current_range_meters":16800,"station_id":"cpo36qri1sfpv3e86is0","pricing_plan_id":"cebpf4jnsgd1na2vs0mg"},{"bike_id":"baa93571-061d-4d98-a7c4-ab842c53f2f8","system_id":"levelo_inurba_marseille","lat":43.3014,"lon":5.38501,"is_reserved":false,"is_disabled":false,"rental_uris":{"android":"levelo://app?vid=baa93571-061d-4d98-a7c4-ab842c53f2f8","ios":"levelo://app?vid=baa93571-061d-4d98-a7c4-ab842c53f2f8"},"vehicle_type_id":"4","last_reported":1761473387,"current_range_meters":17200,"station_id":"","pricing_plan_id":"cebpf4jnsgd1na2vs0mg"},{"bike_id":"cfd995e1-78b9-4456-adf4-c544f8660184","system_id":"levelo_inurba_marseille","lat":43.27212,"lon":5.3919,"is_reserved":false,"is_disabled":false,"rental_uris":{"android":"levelo://app?vid=cfd995e1-78b9-4456-adf4-c544f8660184","ios":"levelo://app?vid=cfd995e1-78b9-4456-adf4-c544f8660184"},"vehicle_type_id":"4","last_reported":1761473387,"current_range_meters":17200,"station_id":"ce4bhhp2rcd13ifvqfm0","pricing_plan_id":"cebpf4jnsgd1na2vs0mg"},{"bike_id":"d290b727-6836-4e17-bb70-fa6919fa7378","system_id":"levelo_inurba_marseille","lat":43.25502,"lon":5.37655,"is_reserved":false,"is_disabled":false,"rental_uris":{"android":"levelo://app?vid=d290b727-6836-4e17-bb70-fa6919fa7378","ios":"levelo://app?vid=d290b727-6836-4e17-bb70-fa6919fa7378"},"vehicle_type_id":"4","last_reported":1761473387,"current_range_meters":17200,"station_id":"ce4bhh12rcd13ifvqff0","pricing_plan_id":"cebpf4jnsgd1na2vs0mg"},{"bike_id":"53619b52-f6a4-4a36-9715-aa47e9e64dbc","system_id":"levelo_inurba_marseille","lat":43.29256,"lon":5.38433,"is_reserved":false,"is_disabled":true,"rental_uris":{"android":"levelo://app?vid=53619b52-f6a4-4a36-9715-aa47e9e64dbc","ios":"levelo://app?vid=53619b52-f6a4-4a36-9715-aa47e9e64dbc"},"vehicle_type_id":"4","last_reported":1761473387,"current_range_meters":17200,"station_id":"ce4bh692rcd13ifvqea0","pricing_plan_id":"cebpf4jnsgd1na2vs0mg"},{"bike_id":"a0877e00-6755-4330-b433-ea8e0528aedd","system_id":"levelo_inurba_marseille","lat":43.23193,"lon":5.35557,"is_reserved":false,"is_disabled":false,"rental_uris":{"android":"levelo://app?vid=a0877e00-6755-4330-b433-ea8e0528aedd","ios":"levelo://app?vid=a0877e00-6755-4330-b433-ea8e0528aedd"},"vehicle_type_id":"4","last_reported":1761473387,"current_range_meters":17200,"station_id":"ce4bhu92rcd13ifvqi70","pricing_plan_id":"cebpf4jnsgd1na2vs0mg"},{"bike_id":"bc9cee5f-858c-4201-b4e9-4f618510ffc1","system_id":"levelo_inurba_marseille","lat":43.28001,"lon":5.40006,"is_reserved":false,"is_disabled":false,"rental_uris":{"android":"levelo://app?vid=bc9cee5f-858c-4201-b4e9-4f618510ffc1","ios":"levelo://app?vid=bc9cee5f-858c-4201-b4e9-4f618510ffc1"},"vehicle_type_id":"4","last_reported":1761473387,"current_range_meters":17200,"station_id":"ce4bho92rcd13ifvqh4g","pricing_plan_id":"cebpf4jnsgd1na2vs0mg"},{"bike_id":"cbcdd39f-b16b-4830-bef7-1f20f112a7de","system_id":"levelo_inurba_marseille","lat":43.31995,"lon":5.38148,"is_reserved":false,"is_disabled":false,"rental_uris":{"android":"levelo://app?vid=cbcdd39f-b16b-4830-bef7-1f20f112a7de","ios":"levelo://app?vid=cbcdd39f-b16b-4830-bef7-1f20f112a7de"},"vehicle_type_id":"4","last_reported":1761473387,"current_range_meters":17200,"station_id":"ce4bhr12rcd13ifvqhpg","pricing_plan_id":"cebpf4jnsgd1na2vs0mg"},{"bike_id":"a100fbc0-a18b-4350-8b9b-67f14f56ea4c","system_id":"levelo_inurba_marseille","lat":43.22569,"lon":5.41635,"is_reserved":false,"is_disabled":false,"rental_uris":{"android":"levelo://app?vid=a100fbc0-a18b-4350-8b9b-67f14f56ea4c","ios":"levelo://app?vid=a100fbc0-a18b-4350-8b9b-67f14f56ea4c"},"vehicle_type_id":"4","last_reported":1761473387,"current_range_meters":17200,"station_id":"st_d2o4gvlbi1j2169b742g","pricing_plan_id":"cebpf4jnsgd1na2vs0mg"},{"bike_id":"126b0e01-b41f-4c81-9a84-125a9f359f3f","system_id":"levelo_inurba_marseille","lat":43.28148,"lon":5.42654,"is_reserved":false,"is_disabled":false,"rental_uris":{"android":"levelo://app?vid=126b0e01-b41f-4c81-9a84-125a9f359f3f","ios":"levelo://app?vid=126b0e01-b41f-4c81-9a84-125a9f359f3f"},"vehicle_type_id":"4","last_reported":1761473387,"current_range_meters":17200,"station_id":"ce4bhnh2rcd13ifvqgug","pricing_plan_id":"cebpf4jnsgd1na2vs0mg"},{"bike_id":"5ae5650b-e49e-40d3-8142-b47247070e31","system_id":"levelo_inurba_marseille","lat":43.29307,"lon":5.37178,"is_reserved":false,"is_disabled":false,"rental_uris":{"android":"levelo://app?vid=5ae5650b-e49e-40d3-8142-b47247070e31","ios":"levelo://app?vid=5ae5650b-e49e-40d3-8142-b47247070e31"},"vehicle_type_id":"4","last_reported":1761473387,"current_range_meters":17200,"station_id":"ce4bgh92rcd13ifvqb40","pricing_plan_id":"cebpf4jnsgd1na2vs0mg"},{"bike_id":"944e93c7-93f0-4987-84f2-47fa4c0e037c","system_id":"levelo_inurba_marseille","lat":43.27205,"lon":5.3918,"is_reserved":false,"is_disabled":false,"rental_uris":{"android":"levelo://app?vid=944e93c7-93f0-4987-84f2-47fa4c0e037c","ios":"levelo://app?vid=944e93c7-93f0-4987-84f2-47fa4c0e037c"},"vehicle_type_id":"4","last_reported":1761473387,"current_range_meters":17600,"station_id":"ce4bhhp2rcd13ifvqfm0","pricing_plan_id":"cebpf4jnsgd1na2vs0mg"},{"bike_id":"b35f3e1c-9c25-4f13-98b2-1c7e1858271c","system_id":"levelo_inurba_marseille","lat":43.22562,"lon":5.41622,"is_reserved":false,"is_disabled":false,"rental_uris":{"android":"levelo://app?vid=b35f3e1c-9c25-4f13-98b2-1c7e1858271c","ios":"levelo://app?vid=b35f3e1c-9c25-4f13-98b2-1c7e1858271c"},"vehicle_type_id":"4","last_reported":1761473387,"current_range_meters":17600,"station_id":"st_d2o4gvlbi1j2169b742g","pricing_plan_id":"cebpf4jnsgd1na2vs0mg"},{"bike_id":"de0ca7a8-116a-46c8-8c50-6b445a473423","system_id":"levelo_inurba_marseille","lat":43.2887,"lon":5.42512,"is_reserved":false,"is_disabled":false,"rental_uris":{"android":"levelo://app?vid=de0ca7a8-116a-46c8-8c50-6b445a473423","ios":"levelo://app?vid=de0ca7a8-116a-46c8-8c50-6b445a473423"},"vehicle_type_id":"4","last_reported":1761473387,"current_range_meters":17600,"station_id":"st_d3b462108ojc7389ooeg","pricing_plan_id":"cebpf4jnsgd1na2vs0mg"},{"bike_id":"8449f5e7-70f3-4d5a-bc8c-3ddb84414880","system_id":"levelo_inurba_marseille","lat":43.28411,"lon":5.37522,"is_reserved":false,"is_disabled":false,"rental_uris":{"android":"levelo://app?vid=8449f5e7-70f3-4d5a-bc8c-3ddb84414880","ios":"levelo://app?vid=8449f5e7-70f3-4d5a-bc8c-3ddb84414880"},"vehicle_type_id":"4","last_reported":1761473387,"current_range_meters":17600,"station_id":"ce4bh412rcd13ifvqds0","pricing_plan_id":"cebpf4jnsgd1na2vs0mg"},{"bike_id":"73e3d00c-eed9-4474-8470-2701da8f5335","system_id":"levelo_inurba_marseille","lat":43.257354,"lon":5.410347,"is_reserved":false,"is_disabled":false,"rental_uris":{"android":"levelo://app?vid=73e3d00c-eed9-4474-8470-2701da8f5335","ios":"levelo://app?vid=73e3d00c-eed9-4474-8470-2701da8f5335"},"vehicle_type_id":"4","last_reported":1761473387,"current_range_meters":17600,"station_id":"","pricing_plan_id":"cebpf4jnsgd1na2vs0mg"},{"bike_id":"d06efd9e-11c4-48a2-9e29-f67fb7b76a28","system_id":"levelo_inurba_marseille","lat":43.254952,"lon":5.376435,"is_reserved":false,"is_disabled":false,"rental_uris":{"android":"levelo://app?vid=d06efd9e-11c4-48a2-9e29-f67fb7b76a28","ios":"levelo://app?vid=d06efd9e-11c4-48a2-9e29-f67fb7b76a28"},"vehicle_type_id":"4","last_reported":1761473387,"current_range_meters":17600,"station_id":"ce4bhh12rcd13ifvqff0","pricing_plan_id":"cebpf4jnsgd1na2vs0mg"},{"bike_id":"82f00f64-0a49-41a0-ab81-886ec902c83f","system_id":"levelo_inurba_marseille","lat":43.29516,"lon":5.39035,"is_reserved":false,"is_disabled":false,"rental_uris":{"android":"levelo://app?vid=82f00f64-0a49-41a0-ab81-886ec902c83f","ios":"levelo://app?vid=82f00f64-0a49-41a0-ab81-886ec902c83f"},"vehicle_type_id":"4","last_reported":1761473387,"current_range_meters":17600,"station_id":"ce4bh3p2rcd13ifvqdp0","pricing_plan_id":"cebpf4jnsgd1na2vs0mg"},{"bike_id":"ce15d64c-7bd4-4017-a01a-0dc353c2995b","system_id":"levelo_inurba_marseille","lat":43.281321,"lon":5.35028,"is_reserved":false,"is_disabled":false,"rental_uris":{"android":"levelo://app?vid=ce15d64c-7bd4-4017-a01a-0dc353c2995b","ios":"levelo://app?vid=ce15d64c-7bd4-4017-a01a-0dc353c2995b"},"vehicle_type_id":"4","last_reported":1761473387,"current_range_meters":17600,"station_id":"","pricing_plan_id":"cebpf4jnsgd1na2vs0mg"},{"bike_id":"dd49c643-708e-4930-9902-c0a947f622bd","system_id":"levelo_inurba_marseille","lat":43.230564,"lon":5.354955,"is_reserved":false,"is_disabled":false,"rental_uris":{"android":"levelo://app?vid=dd49c643-708e-4930-9902-c0a947f622bd","ios":"levelo://app?vid=dd49c643-708e-4930-9902-c0a947f622bd"},"vehicle_type_id":"4","last_reported":1761473387,"current_range_meters":18000,"station_id":"cpo3342slgdg3j2ifvpg","pricing_plan_id":"cebpf4jnsgd1na2vs0mg"},{"bike_id":"918ab731-8e3f-436c-837a-4ff2667629fc","system_id":"levelo_inurba_marseille","lat":43.25586,"lon":5.38246,"is_reserved":false,"is_disabled":false,"rental_uris":{"android":"levelo://app?vid=918ab731-8e3f-436c-837a-4ff2667629fc","ios":"levelo://app?vid=918ab731-8e3f-436c-837a-4ff2667629fc"},"vehicle_type_id":"4","last_reported":1761473387,"current_range_meters":18000,"station_id":"ce4bhih2rcd13ifvqfs0","pricing_plan_id":"cebpf4jnsgd1na2vs0mg"},{"bike_id":"e9c59ef7-f889-42af-a387-98050af3bbe7","system_id":"levelo_inurba_marseille","lat":43.308853,"lon":5.396447,"is_reserved":false,"is_disabled":false,"rental_uris":{"android":"levelo://app?vid=e9c59ef7-f889-42af-a387-98050af3bbe7","ios":"levelo://app?vid=e9c59ef7-f889-42af-a387-98050af3bbe7"},"vehicle_type_id":"4","last_reported":1761473387,"current_range_meters":18000,"station_id":"ce4bh012rcd13ifvqcv0","pricing_plan_id":"cebpf4jnsgd1na2vs0mg"},{"bike_id":"d89cae02-c286-46f1-8467-19851e436161","system_id":"levelo_inurba_marseille","lat":43.26072,"lon":5.39389,"is_reserved":false,"is_disabled":false,"rental_uris":{"android":"levelo://app?vid=d89cae02-c286-46f1-8467-19851e436161","ios":"levelo://app?vid=d89cae02-c286-46f1-8467-19851e436161"},"vehicle_type_id":"4","last_reported":1761473387,"current_range_meters":18800,"station_id":"ce4bhh92rcd13ifvqfj0","pricing_plan_id":"cebpf4jnsgd1na2vs0mg"},{"bike_id":"60fe6520-86d2-419c-ae24-b64e627f6ed3","system_id":"levelo_inurba_marseille","lat":43.24656,"lon":5.38159,"is_reserved":false,"is_disabled":false,"rental_uris":{"android":"levelo://app?vid=60fe6520-86d2-419c-ae24-b64e627f6ed3","ios":"levelo://app?vid=60fe6520-86d2-419c-ae24-b64e627f6ed3"},"vehicle_type_id":"4","last_reported":1761473387,"current_range_meters":18800,"station_id":"ce4bhih2rcd13ifvqfr0","pricing_plan_id":"cebpf4jnsgd1na2vs0mg"},{"bike_id":"b79da681-8218-4df2-9ffe-668dcfa5a9f9","system_id":"levelo_inurba_marseille","lat":43.27191,"lon":5.39162,"is_reserved":false,"is_disabled":false,"rental_uris":{"android":"levelo://app?vid=b79da681-8218-4df2-9ffe-668dcfa5a9f9","ios":"levelo://app?vid=b79da681-8218-4df2-9ffe-668dcfa5a9f9"},"vehicle_type_id":"4","last_reported":1761473387,"current_range_meters":18800,"station_id":"ce4bhhp2rcd13ifvqfm0","pricing_plan_id":"cebpf4jnsgd1na2vs0mg"},{"bike_id":"36d7fbc3-e4e1-4b61-8e94-e74b2c6446ca","system_id":"levelo_inurba_marseille","lat":43.25505,"lon":5.37659,"is_reserved":false,"is_disabled":true,"rental_uris":{"android":"levelo://app?vid=36d7fbc3-e4e1-4b61-8e94-e74b2c6446ca","ios":"levelo://app?vid=36d7fbc3-e4e1-4b61-8e94-e74b2c6446ca"},"vehicle_type_id":"4","last_reported":1761473387,"current_range_meters":18800,"station_id":"ce4bhh12rcd13ifvqff0","pricing_plan_id":"cebpf4jnsgd1na2vs0mg"},{"bike_id":"7165d414-e8a5-415f-8a72-9e3295be2a67","system_id":"levelo_inurba_marseille","lat":43.31035,"lon":5.37909,"is_reserved":false,"is_disabled":false,"rental_uris":{"android":"levelo://app?vid=7165d414-e8a5-415f-8a72-9e3295be2a67","ios":"levelo://app?vid=7165d414-e8a5-415f-8a72-9e3295be2a67"},"vehicle_type_id":"4","last_reported":1761473387,"current_range_meters":18800,"station_id":"","pricing_plan_id":"cebpf4jnsgd1na2vs0mg"},{"bike_id":"b9ae3ff8-1fd5-421b-a8a3-72ad80cdae9e","system_id":"levelo_inurba_marseille","lat":43.26574,"lon":5.39038,"is_reserved":false,"is_disabled":false,"rental_uris":{"android":"levelo://app?vid=b9ae3ff8-1fd5-421b-a8a3-72ad80cdae9e","ios":"levelo://app?vid=b9ae3ff8-1fd5-421b-a8a3-72ad80cdae9e"},"vehicle_type_id":"4","last_reported":1761473387,"current_range_meters":18800,"station_id":"ce4bhe12rcd13ifvqf30","pricing_plan_id":"cebpf4jnsgd1na2vs0mg"},{"bike_id":"c6a1a8ba-81c4-4fa5-82de-cbb76565e72a","system_id":"levelo_inurba_marseille","lat":43.296244,"lon":5.377182,"is_reserved":false,"is_disabled":false,"rental_uris":{"android":"levelo://app?vid=c6a1a8ba-81c4-4fa5-82de-cbb76565e72a","ios":"levelo://app?vid=c6a1a8ba-81c4-4fa5-82de-cbb76565e72a"},"vehicle_type_id":"4","last_reported":1761473387,"current_range_meters":18800,"station_id":"ce4bgi92rcd13ifvqb90","pricing_plan_id":"cebpf4jnsgd1na2vs0mg"},{"bike_id":"f6f41915-49e3-4fb8-8c5c-96d42e084e15","system_id":"levelo_inurba_marseille","lat":43.320178,"lon":5.371029,"is_reserved":false,"is_disabled":false,"rental_uris":{"android":"levelo://app?vid=f6f41915-49e3-4fb8-8c5c-96d42e084e15","ios":"levelo://app?vid=f6f41915-49e3-4fb8-8c5c-96d42e084e15"},"vehicle_type_id":"4","last_reported":1761473387,"current_range_meters":18800,"station_id":"","pricing_plan_id":"cebpf4jnsgd1na2vs0mg"},{"bike_id":"b093f329-277a-43e7-9ff3-54a02ec2f529","system_id":"levelo_inurba_marseille","lat":43.31113,"lon":5.37768,"is_reserved":false,"is_disabled":false,"rental_uris":{"android":"levelo://app?vid=b093f329-277a-43e7-9ff3-54a02ec2f529","ios":"levelo://app?vid=b093f329-277a-43e7-9ff3-54a02ec2f529"},"vehicle_type_id":"4","last_reported":1761473387,"current_range_meters":18800,"station_id":"ce4bgt92rcd13ifvqcg0","pricing_plan_id":"cebpf4jnsgd1na2vs0mg"},{"bike_id":"a619e778-950e-426e-9d1b-042ddaa56893","system_id":"levelo_inurba_marseille","lat":43.30303,"lon":5.39212,"is_reserved":false,"is_disabled":false,"rental_uris":{"android":"levelo://app?vid=a619e778-950e-426e-9d1b-042ddaa56893","ios":"levelo://app?vid=a619e778-950e-426e-9d1b-042ddaa56893"},"vehicle_type_id":"4","last_reported":1761473387,"current_range_meters":18800,"station_id":"ce4bgkh2rcd13ifvqbk0","pricing_plan_id":"cebpf4jnsgd1na2vs0mg"},{"bike_id":"79f9cde6-2fc1-438e-a896-83f6555a03e6","system_id":"levelo_inurba_marseille","lat":43.321,"lon":5.36785,"is_reserved":false,"is_disabled":false,"rental_uris":{"android":"levelo://app?vid=79f9cde6-2fc1-438e-a896-83f6555a03e6","ios":"levelo://app?vid=79f9cde6-2fc1-438e-a896-83f6555a03e6"},"vehicle_type_id":"4","last_reported":1761473387,"current_range_meters":19200,"station_id":"ce4bhrh2rcd13ifvqhug","pricing_plan_id":"cebpf4jnsgd1na2vs0mg"},{"bike_id":"94aaf935-55ff-4431-b612-265a39fb330c","system_id":"levelo_inurba_marseille","lat":43.29027,"lon":5.38634,"is_reserved":false,"is_disabled":true,"rental_uris":{"android":"levelo://app?vid=94aaf935-55ff-4431-b612-265a39fb330c","ios":"levelo://app?vid=94aaf935-55ff-4431-b612-265a39fb330c"},"vehicle_type_id":"4","last_reported":1761473387,"current_range_meters":19200,"station_id":"ce4bh4p2rcd13ifvqe0g","pricing_plan_id":"cebpf4jnsgd1na2vs0mg"},{"bike_id":"26c48375-1e6e-43b2-9750-bd0ef6e16469","system_id":"levelo_inurba_marseille","lat":43.22561,"lon":5.41634,"is_reserved":false,"is_disabled":false,"rental_uris":{"android":"levelo://app?vid=26c48375-1e6e-43b2-9750-bd0ef6e16469","ios":"levelo://app?vid=26c48375-1e6e-43b2-9750-bd0ef6e16469"},"vehicle_type_id":"4","last_reported":1761473387,"current_range_meters":19200,"station_id":"st_d2o4gvlbi1j2169b742g","pricing_plan_id":"cebpf4jnsgd1na2vs0mg"},{"bike_id":"a1617119-cd47-4ba2-b3fd-d3214485d3fa","system_id":"levelo_inurba_marseille","lat":43.22928,"lon":5.35375,"is_reserved":false,"is_disabled":false,"rental_uris":{"android":"levelo://app?vid=a1617119-cd47-4ba2-b3fd-d3214485d3fa","ios":"levelo://app?vid=a1617119-cd47-4ba2-b3fd-d3214485d3fa"},"vehicle_type_id":"4","last_reported":1761473387,"current_range_meters":19200,"station_id":"cpo3532slgdg3j2ikp40","pricing_plan_id":"cebpf4jnsgd1na2vs0mg"},{"bike_id":"0e3a1375-1454-4101-915f-2208001d5e2b","system_id":"levelo_inurba_marseille","lat":43.302522,"lon":5.400664,"is_reserved":false,"is_disabled":true,"rental_uris":{"android":"levelo://app?vid=0e3a1375-1454-4101-915f-2208001d5e2b","ios":"levelo://app?vid=0e3a1375-1454-4101-915f-2208001d5e2b"},"vehicle_type_id":"4","last_reported":1761473387,"current_range_meters":19200,"station_id":"ce4bgvh2rcd13ifvqcs0","pricing_plan_id":"cebpf4jnsgd1na2vs0mg"},{"bike_id":"54fe2f7e-5843-44eb-8b75-5ad129ba92ac","system_id":"levelo_inurba_marseille","lat":43.27427,"lon":5.39424,"is_reserved":false,"is_disabled":false,"rental_uris":{"android":"levelo://app?vid=54fe2f7e-5843-44eb-8b75-5ad129ba92ac","ios":"levelo://app?vid=54fe2f7e-5843-44eb-8b75-5ad129ba92ac"},"vehicle_type_id":"4","last_reported":1761473387,"current_range_meters":19200,"station_id":"ce4bhdp2rcd13ifvqf20","pricing_plan_id":"cebpf4jnsgd1na2vs0mg"},{"bike_id":"a8dd15f5-ecab-4fc1-afea-d4c14b195b21","system_id":"levelo_inurba_marseille","lat":43.25075,"lon":5.39509,"is_reserved":false,"is_disabled":false,"rental_uris":{"android":"levelo://app?vid=a8dd15f5-ecab-4fc1-afea-d4c14b195b21","ios":"levelo://app?vid=a8dd15f5-ecab-4fc1-afea-d4c14b195b21"},"vehicle_type_id":"4","last_reported":1761473387,"current_range_meters":19200,"station_id":"ce4bhm12rcd13ifvqgkg","pricing_plan_id":"cebpf4jnsgd1na2vs0mg"},{"bike_id":"7cd06c8e-20e0-4a7b-bdd0-d1a902d0086a","system_id":"levelo_inurba_marseille","lat":43.26183,"lon":5.40478,"is_reserved":false,"is_disabled":false,"rental_uris":{"android":"levelo://app?vid=7cd06c8e-20e0-4a7b-bdd0-d1a902d0086a","ios":"levelo://app?vid=7cd06c8e-20e0-4a7b-bdd0-d1a902d0086a"},"vehicle_type_id":"4","last_reported":1761473387,"current_range_meters":19200,"station_id":"ce4bhmh2rcd13ifvqgmg","pricing_plan_id":"cebpf4jnsgd1na2vs0mg"},{"bike_id":"dea76e1b-a01d-415a-8864-695f90f26959","system_id":"levelo_inurba_marseille","lat":43.26363,"lon":5.39661,"is_reserved":false,"is_disabled":false,"rental_uris":{"android":"levelo://app?vid=dea76e1b-a01d-415a-8864-695f90f26959","ios":"levelo://app?vid=dea76e1b-a01d-415a-8864-695f90f26959"},"vehicle_type_id":"4","last_reported":1761473387,"current_range_meters":19200,"station_id":"","pricing_plan_id":"cebpf4jnsgd1na2vs0mg"},{"bike_id":"2cc776db-1ccc-4a6c-b7ba-aeae733e1b8a","system_id":"levelo_inurba_marseille","lat":43.28927,"lon":5.36404,"is_reserved":false,"is_disabled":false,"rental_uris":{"android":"levelo://app?vid=2cc776db-1ccc-4a6c-b7ba-aeae733e1b8a","ios":"levelo://app?vid=2cc776db-1ccc-4a6c-b7ba-aeae733e1b8a"},"vehicle_type_id":"4","last_reported":1761473387,"current_range_meters":19200,"station_id":"ce4bhc92rcd13ifvqetg","pricing_plan_id":"cebpf4jnsgd1na2vs0mg"},{"bike_id":"83106217-f024-4381-9607-50194d3370ce","system_id":"levelo_inurba_marseille","lat":43.24171,"lon":5.36382,"is_reserved":false,"is_disabled":false,"rental_uris":{"android":"levelo://app?vid=83106217-f024-4381-9607-50194d3370ce","ios":"levelo://app?vid=83106217-f024-4381-9607-50194d3370ce"},"vehicle_type_id":"4","last_reported":1761473387,"current_range_meters":19600,"station_id":"cpo36qri1sfpv3e86is0","pricing_plan_id":"cebpf4jnsgd1na2vs0mg"},{"bike_id":"e92a5181-3093-4535-adde-2230374de0aa","system_id":"levelo_inurba_marseille","lat":43.31369,"lon":5.377,"is_reserved":false,"is_disabled":false,"rental_uris":{"android":"levelo://app?vid=e92a5181-3093-4535-adde-2230374de0aa","ios":"levelo://app?vid=e92a5181-3093-4535-adde-2230374de0aa"},"vehicle_type_id":"4","last_reported":1761473387,"current_range_meters":19600,"station_id":"","pricing_plan_id":"cebpf4jnsgd1na2vs0mg"},{"bike_id":"da945370-32c7-4765-8b8c-dadee680d38e","system_id":"levelo_inurba_marseille","lat":43.34058,"lon":5.40415,"is_reserved":false,"is_disabled":false,"rental_uris":{"android":"levelo://app?vid=da945370-32c7-4765-8b8c-dadee680d38e","ios":"levelo://app?vid=da945370-32c7-4765-8b8c-dadee680d38e"},"vehicle_type_id":"4","last_reported":1761473387,"current_range_meters":19600,"station_id":"","pricing_plan_id":"cebpf4jnsgd1na2vs0mg"},{"bike_id":"1b790de5-dac6-4a13-8be8-d9cf26ff1460","system_id":"levelo_inurba_marseille","lat":43.29573,"lon":5.37511,"is_reserved":false,"is_disabled":false,"rental_uris":{"android":"levelo://app?vid=1b790de5-dac6-4a13-8be8-d9cf26ff1460","ios":"levelo://app?vid=1b790de5-dac6-4a13-8be8-d9cf26ff1460"},"vehicle_type_id":"4","last_reported":1761473387,"current_range_meters":19600,"station_id":"ce4bgh92rcd13ifvqb50","pricing_plan_id":"cebpf4jnsgd1na2vs0mg"},{"bike_id":"cd8428d4-fc17-4558-99ad-ea739749e3eb","system_id":"levelo_inurba_marseille","lat":43.295953,"lon":5.376399,"is_reserved":false,"is_disabled":false,"rental_uris":{"android":"levelo://app?vid=cd8428d4-fc17-4558-99ad-ea739749e3eb","ios":"levelo://app?vid=cd8428d4-fc17-4558-99ad-ea739749e3eb"},"vehicle_type_id":"4","last_reported":1761473387,"current_range_meters":19600,"station_id":"ce4bgi92rcd13ifvqb90","pricing_plan_id":"cebpf4jnsgd1na2vs0mg"},{"bike_id":"fc415666-0eee-42cf-ad7e-559eb9802048","system_id":"levelo_inurba_marseille","lat":43.31097,"lon":5.37487,"is_reserved":false,"is_disabled":false,"rental_uris":{"android":"levelo://app?vid=fc415666-0eee-42cf-ad7e-559eb9802048","ios":"levelo://app?vid=fc415666-0eee-42cf-ad7e-559eb9802048"},"vehicle_type_id":"4","last_reported":1761473387,"current_range_meters":20000,"station_id":"","pricing_plan_id":"cebpf4jnsgd1na2vs0mg"},{"bike_id":"47438ea8-9e06-4f18-9f61-d9073ef15d0f","system_id":"levelo_inurba_marseille","lat":43.250046,"lon":5.389319,"is_reserved":false,"is_disabled":false,"rental_uris":{"android":"levelo://app?vid=47438ea8-9e06-4f18-9f61-d9073ef15d0f","ios":"levelo://app?vid=47438ea8-9e06-4f18-9f61-d9073ef15d0f"},"vehicle_type_id":"4","last_reported":1761473387,"current_range_meters":20000,"station_id":"ce4bhgp2rcd13ifvqfd0","pricing_plan_id":"cebpf4jnsgd1na2vs0mg"},{"bike_id":"ba6bdb84-efa9-45a9-9e20-4bde528874fd","system_id":"levelo_inurba_marseille","lat":43.279251,"lon":5.395917,"is_reserved":false,"is_disabled":false,"rental_uris":{"android":"levelo://app?vid=ba6bdb84-efa9-45a9-9e20-4bde528874fd","ios":"levelo://app?vid=ba6bdb84-efa9-45a9-9e20-4bde528874fd"},"vehicle_type_id":"4","last_reported":1761473387,"current_range_meters":20000,"station_id":"ce4bhf92rcd13ifvqf40","pricing_plan_id":"cebpf4jnsgd1na2vs0mg"},{"bike_id":"303bc768-d0f9-44e6-8009-cff3ec7da67d","system_id":"levelo_inurba_marseille","lat":43.2743,"lon":5.39415,"is_reserved":false,"is_disabled":false,"rental_uris":{"android":"levelo://app?vid=303bc768-d0f9-44e6-8009-cff3ec7da67d","ios":"levelo://app?vid=303bc768-d0f9-44e6-8009-cff3ec7da67d"},"vehicle_type_id":"4","last_reported":1761473387,"current_range_meters":20000,"station_id":"ce4bhdp2rcd13ifvqf20","pricing_plan_id":"cebpf4jnsgd1na2vs0mg"},{"bike_id":"93ef566c-0909-48d1-8deb-d11c9c5aea5b","system_id":"levelo_inurba_marseille","lat":43.3235,"lon":5.36724,"is_reserved":false,"is_disabled":false,"rental_uris":{"android":"levelo://app?vid=93ef566c-0909-48d1-8deb-d11c9c5aea5b","ios":"levelo://app?vid=93ef566c-0909-48d1-8deb-d11c9c5aea5b"},"vehicle_type_id":"4","last_reported":1761473387,"current_range_meters":20000,"station_id":"ce4bhsh2rcd13ifvqi2g","pricing_plan_id":"cebpf4jnsgd1na2vs0mg"},{"bike_id":"4b219a79-a7cc-4cd2-a25e-838fe8d3bf04","system_id":"levelo_inurba_marseille","lat":43.30889,"lon":5.39647,"is_reserved":false,"is_disabled":false,"rental_uris":{"android":"levelo://app?vid=4b219a79-a7cc-4cd2-a25e-838fe8d3bf04","ios":"levelo://app?vid=4b219a79-a7cc-4cd2-a25e-838fe8d3bf04"},"vehicle_type_id":"4","last_reported":1761473387,"current_range_meters":20000,"station_id":"ce4bh012rcd13ifvqcv0","pricing_plan_id":"cebpf4jnsgd1na2vs0mg"},{"bike_id":"26a33dcf-50de-4561-a5e9-8254886f89ed","system_id":"levelo_inurba_marseille","lat":43.24328,"lon":5.39202,"is_reserved":false,"is_disabled":false,"rental_uris":{"android":"levelo://app?vid=26a33dcf-50de-4561-a5e9-8254886f89ed","ios":"levelo://app?vid=26a33dcf-50de-4561-a5e9-8254886f89ed"},"vehicle_type_id":"4","last_reported":1761473387,"current_range_meters":20000,"station_id":"","pricing_plan_id":"cebpf4jnsgd1na2vs0mg"},{"bike_id":"39cea869-de7a-4068-bf5a-c0fc4902d071","system_id":"levelo_inurba_marseille","lat":43.24548,"lon":5.39545,"is_reserved":false,"is_disabled":false,"rental_uris":{"android":"levelo://app?vid=39cea869-de7a-4068-bf5a-c0fc4902d071","ios":"levelo://app?vid=39cea869-de7a-4068-bf5a-c0fc4902d071"},"vehicle_type_id":"4","last_reported":1761473387,"current_range_meters":20000,"station_id":"ce4bhlp2rcd13ifvqgjg","pricing_plan_id":"cebpf4jnsgd1na2vs0mg"},{"bike_id":"00e00a1a-8c9b-4ba3-b0c6-70f8b7af2ab1","system_id":"levelo_inurba_marseille","lat":43.29566,"lon":5.37526,"is_reserved":false,"is_disabled":false,"rental_uris":{"android":"levelo://app?vid=00e00a1a-8c9b-4ba3-b0c6-70f8b7af2ab1","ios":"levelo://app?vid=00e00a1a-8c9b-4ba3-b0c6-70f8b7af2ab1"},"vehicle_type_id":"4","last_reported":1761473387,"current_range_meters":20000,"station_id":"ce4bgh92rcd13ifvqb50","pricing_plan_id":"cebpf4jnsgd1na2vs0mg"},{"bike_id":"ac1054ea-b7cc-4fc4-b666-bf8c0c517e3a","system_id":"levelo_inurba_marseille","lat":43.230573,"lon":5.354947,"is_reserved":false,"is_disabled":false,"rental_uris":{"android":"levelo://app?vid=ac1054ea-b7cc-4fc4-b666-bf8c0c517e3a","ios":"levelo://app?vid=ac1054ea-b7cc-4fc4-b666-bf8c0c517e3a"},"vehicle_type_id":"4","last_reported":1761473387,"current_range_meters":20000,"station_id":"cpo3342slgdg3j2ifvpg","pricing_plan_id":"cebpf4jnsgd1na2vs0mg"},{"bike_id":"74440bb7-72c3-4ad8-9dec-9a57ed6d17c9","system_id":"levelo_inurba_marseille","lat":43.32356,"lon":5.3889,"is_reserved":false,"is_disabled":false,"rental_uris":{"android":"levelo://app?vid=74440bb7-72c3-4ad8-9dec-9a57ed6d17c9","ios":"levelo://app?vid=74440bb7-72c3-4ad8-9dec-9a57ed6d17c9"},"vehicle_type_id":"4","last_reported":1761473387,"current_range_meters":20000,"station_id":"ce4bhqp2rcd13ifvqhog","pricing_plan_id":"cebpf4jnsgd1na2vs0mg"},{"bike_id":"de41461e-6ddf-4ff9-9de8-ed68e42c422c","system_id":"levelo_inurba_marseille","lat":43.25504,"lon":5.37649,"is_reserved":false,"is_disabled":false,"rental_uris":{"android":"levelo://app?vid=de41461e-6ddf-4ff9-9de8-ed68e42c422c","ios":"levelo://app?vid=de41461e-6ddf-4ff9-9de8-ed68e42c422c"},"vehicle_type_id":"4","last_reported":1761473387,"current_range_meters":20000,"station_id":"ce4bhh12rcd13ifvqff0","pricing_plan_id":"cebpf4jnsgd1na2vs0mg"},{"bike_id":"582fe2d6-0ae9-4675-bd90-c18d8f24c8d4","system_id":"levelo_inurba_marseille","lat":43.27914,"lon":5.39598,"is_reserved":false,"is_disabled":false,"rental_uris":{"android":"levelo://app?vid=582fe2d6-0ae9-4675-bd90-c18d8f24c8d4","ios":"levelo://app?vid=582fe2d6-0ae9-4675-bd90-c18d8f24c8d4"},"vehicle_type_id":"4","last_reported":1761473387,"current_range_meters":20000,"station_id":"ce4bhf92rcd13ifvqf40","pricing_plan_id":"cebpf4jnsgd1na2vs0mg"},{"bike_id":"804dbda5-2784-4e57-879b-8ddc8a13c73c","system_id":"levelo_inurba_marseille","lat":43.29488,"lon":5.43297,"is_reserved":false,"is_disabled":false,"rental_uris":{"android":"levelo://app?vid=804dbda5-2784-4e57-879b-8ddc8a13c73c","ios":"levelo://app?vid=804dbda5-2784-4e57-879b-8ddc8a13c73c"},"vehicle_type_id":"4","last_reported":1761473387,"current_range_meters":20000,"station_id":"st_d3j5ugp08ojc73fj9d10","pricing_plan_id":"cebpf4jnsgd1na2vs0mg"},{"bike_id":"fdc43030-5704-454e-ad42-cd94061c06a1","system_id":"levelo_inurba_marseille","lat":43.32111,"lon":5.36785,"is_reserved":false,"is_disabled":false,"rental_uris":{"android":"levelo://app?vid=fdc43030-5704-454e-ad42-cd94061c06a1","ios":"levelo://app?vid=fdc43030-5704-454e-ad42-cd94061c06a1"},"vehicle_type_id":"4","last_reported":1761473387,"current_range_meters":20000,"station_id":"ce4bhrh2rcd13ifvqhug","pricing_plan_id":"cebpf4jnsgd1na2vs0mg"},{"bike_id":"b83891d3-7971-45ae-9af3-651a6e6209e2","system_id":"levelo_inurba_marseille","lat":43.231928,"lon":5.35574,"is_reserved":false,"is_disabled":false,"rental_uris":{"android":"levelo://app?vid=b83891d3-7971-45ae-9af3-651a6e6209e2","ios":"levelo://app?vid=b83891d3-7971-45ae-9af3-651a6e6209e2"},"vehicle_type_id":"4","last_reported":1761473387,"current_range_meters":20400,"station_id":"ce4bhu92rcd13ifvqi70","pricing_plan_id":"cebpf4jnsgd1na2vs0mg"},{"bike_id":"48f379fc-9021-4051-8306-9d9acbadecc0","system_id":"levelo_inurba_marseille","lat":43.30316,"lon":5.40448,"is_reserved":false,"is_disabled":false,"rental_uris":{"android":"levelo://app?vid=48f379fc-9021-4051-8306-9d9acbadecc0","ios":"levelo://app?vid=48f379fc-9021-4051-8306-9d9acbadecc0"},"vehicle_type_id":"4","last_reported":1761473387,"current_range_meters":20400,"station_id":"ce4bh012rcd13ifvqd10","pricing_plan_id":"cebpf4jnsgd1na2vs0mg"},{"bike_id":"458f5d68-7d8c-47e9-9206-2c8e9417c3d0","system_id":"levelo_inurba_marseille","lat":43.31122,"lon":5.37756,"is_reserved":false,"is_disabled":false,"rental_uris":{"android":"levelo://app?vid=458f5d68-7d8c-47e9-9206-2c8e9417c3d0","ios":"levelo://app?vid=458f5d68-7d8c-47e9-9206-2c8e9417c3d0"},"vehicle_type_id":"4","last_reported":1761473387,"current_range_meters":20400,"station_id":"ce4bgt92rcd13ifvqcg0","pricing_plan_id":"cebpf4jnsgd1na2vs0mg"},{"bike_id":"3cf954f8-897c-4098-b7a1-1e4490c2b26a","system_id":"levelo_inurba_marseille","lat":43.25826,"lon":5.39427,"is_reserved":false,"is_disabled":false,"rental_uris":{"android":"levelo://app?vid=3cf954f8-897c-4098-b7a1-1e4490c2b26a","ios":"levelo://app?vid=3cf954f8-897c-4098-b7a1-1e4490c2b26a"},"vehicle_type_id":"4","last_reported":1761473387,"current_range_meters":20400,"station_id":"ce4bhip2rcd13ifvqft0","pricing_plan_id":"cebpf4jnsgd1na2vs0mg"},{"bike_id":"0d5a133e-0f8a-4d6a-a72d-60bae138750f","system_id":"levelo_inurba_marseille","lat":43.30419,"lon":5.41283,"is_reserved":false,"is_disabled":false,"rental_uris":{"android":"levelo://app?vid=0d5a133e-0f8a-4d6a-a72d-60bae138750f","ios":"levelo://app?vid=0d5a133e-0f8a-4d6a-a72d-60bae138750f"},"vehicle_type_id":"4","last_reported":1761473387,"current_range_meters":20400,"station_id":"ce4bhop2rcd13ifvqh8g","pricing_plan_id":"cebpf4jnsgd1na2vs0mg"},{"bike_id":"a9734fa4-b1a7-468d-9c3f-0e6255a7db6d","system_id":"levelo_inurba_marseille","lat":43.24387,"lon":5.37057,"is_reserved":false,"is_disabled":false,"rental_uris":{"android":"levelo://app?vid=a9734fa4-b1a7-468d-9c3f-0e6255a7db6d","ios":"levelo://app?vid=a9734fa4-b1a7-468d-9c3f-0e6255a7db6d"},"vehicle_type_id":"4","last_reported":1761473387,"current_range_meters":20800,"station_id":"ce4bhhh2rcd13ifvqfk0","pricing_plan_id":"cebpf4jnsgd1na2vs0mg"},{"bike_id":"a3742816-3b43-434e-9db0-9ab9379fa4b3","system_id":"levelo_inurba_marseille","lat":43.2739,"lon":5.36261,"is_reserved":false,"is_disabled":true,"rental_uris":{"android":"levelo://app?vid=a3742816-3b43-434e-9db0-9ab9379fa4b3","ios":"levelo://app?vid=a3742816-3b43-434e-9db0-9ab9379fa4b3"},"vehicle_type_id":"4","last_reported":1761473387,"current_range_meters":20800,"station_id":"ce4bhbh2rcd13ifvqeo0","pricing_plan_id":"cebpf4jnsgd1na2vs0mg"},{"bike_id":"d5b85a9f-5422-4100-9f64-fea8e585311e","system_id":"levelo_inurba_marseille","lat":43.30535,"lon":5.36555,"is_reserved":false,"is_disabled":false,"rental_uris":{"android":"levelo://app?vid=d5b85a9f-5422-4100-9f64-fea8e585311e","ios":"levelo://app?vid=d5b85a9f-5422-4100-9f64-fea8e585311e"},"vehicle_type_id":"4","last_reported":1761473387,"current_range_meters":20800,"station_id":"ce4bgs12rcd13ifvqcag","pricing_plan_id":"cebpf4jnsgd1na2vs0mg"},{"bike_id":"5837d1ef-6ff3-4b6b-9d0b-6fb51011d077","system_id":"levelo_inurba_marseille","lat":43.27434,"lon":5.39413,"is_reserved":false,"is_disabled":true,"rental_uris":{"android":"levelo://app?vid=5837d1ef-6ff3-4b6b-9d0b-6fb51011d077","ios":"levelo://app?vid=5837d1ef-6ff3-4b6b-9d0b-6fb51011d077"},"vehicle_type_id":"4","last_reported":1761473387,"current_range_meters":20800,"station_id":"ce4bhdp2rcd13ifvqf20","pricing_plan_id":"cebpf4jnsgd1na2vs0mg"},{"bike_id":"a3100ff0-76ab-498b-bebf-b9c52f3d2538","system_id":"levelo_inurba_marseille","lat":43.2846,"lon":5.48416,"is_reserved":false,"is_disabled":false,"rental_uris":{"android":"levelo://app?vid=a3100ff0-76ab-498b-bebf-b9c52f3d2538","ios":"levelo://app?vid=a3100ff0-76ab-498b-bebf-b9c52f3d2538"},"vehicle_type_id":"4","last_reported":1761473387,"current_range_meters":20800,"station_id":"","pricing_plan_id":"cebpf4jnsgd1na2vs0mg"},{"bike_id":"2508b611-ebc5-48d6-8412-ab3f25b207c7","system_id":"levelo_inurba_marseille","lat":43.241667,"lon":5.363984,"is_reserved":false,"is_disabled":false,"rental_uris":{"android":"levelo://app?vid=2508b611-ebc5-48d6-8412-ab3f25b207c7","ios":"levelo://app?vid=2508b611-ebc5-48d6-8412-ab3f25b207c7"},"vehicle_type_id":"4","last_reported":1761473387,"current_range_meters":20800,"station_id":"cpo36qri1sfpv3e86is0","pricing_plan_id":"cebpf4jnsgd1na2vs0mg"},{"bike_id":"b689a5bf-875d-4ab1-9212-a71e85899faa","system_id":"levelo_inurba_marseille","lat":43.297577,"lon":5.427789,"is_reserved":false,"is_disabled":false,"rental_uris":{"android":"levelo://app?vid=b689a5bf-875d-4ab1-9212-a71e85899faa","ios":"levelo://app?vid=b689a5bf-875d-4ab1-9212-a71e85899faa"},"vehicle_type_id":"4","last_reported":1761473387,"current_range_meters":21600,"station_id":"st_d3md5207bmas73dh9klg","pricing_plan_id":"cebpf4jnsgd1na2vs0mg"},{"bike_id":"bb3d6f43-fe8d-4027-a7f4-02cf8b0450bf","system_id":"levelo_inurba_marseille","lat":43.28845,"lon":5.35858,"is_reserved":false,"is_disabled":true,"rental_uris":{"android":"levelo://app?vid=bb3d6f43-fe8d-4027-a7f4-02cf8b0450bf","ios":"levelo://app?vid=bb3d6f43-fe8d-4027-a7f4-02cf8b0450bf"},"vehicle_type_id":"4","last_reported":1761473387,"current_range_meters":21600,"station_id":"ce4bhb12rcd13ifvqem0","pricing_plan_id":"cebpf4jnsgd1na2vs0mg"},{"bike_id":"0eb1ce95-bdf6-453d-a3eb-93a888889794","system_id":"levelo_inurba_marseille","lat":43.30877,"lon":5.39633,"is_reserved":false,"is_disabled":false,"rental_uris":{"android":"levelo://app?vid=0eb1ce95-bdf6-453d-a3eb-93a888889794","ios":"levelo://app?vid=0eb1ce95-bdf6-453d-a3eb-93a888889794"},"vehicle_type_id":"4","last_reported":1761473387,"current_range_meters":21600,"station_id":"ce4bh012rcd13ifvqcv0","pricing_plan_id":"cebpf4jnsgd1na2vs0mg"},{"bike_id":"65c53ecd-3f41-46ea-9b4a-baa2d30cd45a","system_id":"levelo_inurba_marseille","lat":43.23153,"lon":5.43716,"is_reserved":false,"is_disabled":false,"rental_uris":{"android":"levelo://app?vid=65c53ecd-3f41-46ea-9b4a-baa2d30cd45a","ios":"levelo://app?vid=65c53ecd-3f41-46ea-9b4a-baa2d30cd45a"},"vehicle_type_id":"4","last_reported":1761473387,"current_range_meters":21600,"station_id":"ce4bhmp2rcd13ifvqgog","pricing_plan_id":"cebpf4jnsgd1na2vs0mg"},{"bike_id":"9d8ebc8c-f00c-42c5-a2de-7f9b8c36d074","system_id":"levelo_inurba_marseille","lat":43.26683,"lon":5.38266,"is_reserved":false,"is_disabled":false,"rental_uris":{"android":"levelo://app?vid=9d8ebc8c-f00c-42c5-a2de-7f9b8c36d074","ios":"levelo://app?vid=9d8ebc8c-f00c-42c5-a2de-7f9b8c36d074"},"vehicle_type_id":"4","last_reported":1761473387,"current_range_meters":21600,"station_id":"ce4bhg92rcd13ifvqf90","pricing_plan_id":"cebpf4jnsgd1na2vs0mg"},{"bike_id":"596e07e5-ee28-4f19-90c1-99ddc246077a","system_id":"levelo_inurba_marseille","lat":43.297647,"lon":5.427866,"is_reserved":false,"is_disabled":false,"rental_uris":{"android":"levelo://app?vid=596e07e5-ee28-4f19-90c1-99ddc246077a","ios":"levelo://app?vid=596e07e5-ee28-4f19-90c1-99ddc246077a"},"vehicle_type_id":"4","last_reported":1761473387,"current_range_meters":21600,"station_id":"st_d3md5207bmas73dh9klg","pricing_plan_id":"cebpf4jnsgd1na2vs0mg"},{"bike_id":"dc0c38df-3666-4afb-87ee-a18d2135c39c","system_id":"levelo_inurba_marseille","lat":43.2956,"lon":5.37528,"is_reserved":false,"is_disabled":false,"rental_uris":{"android":"levelo://app?vid=dc0c38df-3666-4afb-87ee-a18d2135c39c","ios":"levelo://app?vid=dc0c38df-3666-4afb-87ee-a18d2135c39c"},"vehicle_type_id":"4","last_reported":1761473387,"current_range_meters":21600,"station_id":"ce4bgh92rcd13ifvqb50","pricing_plan_id":"cebpf4jnsgd1na2vs0mg"},{"bike_id":"924c497b-3d4b-407f-b960-f7336e7b46d0","system_id":"levelo_inurba_marseille","lat":43.22543,"lon":5.41631,"is_reserved":false,"is_disabled":false,"rental_uris":{"android":"levelo://app?vid=924c497b-3d4b-407f-b960-f7336e7b46d0","ios":"levelo://app?vid=924c497b-3d4b-407f-b960-f7336e7b46d0"},"vehicle_type_id":"4","last_reported":1761473387,"current_range_meters":21600,"station_id":"st_d2o4gvlbi1j2169b742g","pricing_plan_id":"cebpf4jnsgd1na2vs0mg"},{"bike_id":"21dbf7f2-eb19-4663-b1c0-879822879492","system_id":"levelo_inurba_marseille","lat":43.337619,"lon":5.374425,"is_reserved":false,"is_disabled":false,"rental_uris":{"android":"levelo://app?vid=21dbf7f2-eb19-4663-b1c0-879822879492","ios":"levelo://app?vid=21dbf7f2-eb19-4663-b1c0-879822879492"},"vehicle_type_id":"4","last_reported":1761473387,"current_range_meters":21600,"station_id":"","pricing_plan_id":"cebpf4jnsgd1na2vs0mg"},{"bike_id":"8f4db126-6522-4e8e-aa27-fbcfd6a36bb1","system_id":"levelo_inurba_marseille","lat":43.229365,"lon":5.353839,"is_reserved":false,"is_disabled":false,"rental_uris":{"android":"levelo://app?vid=8f4db126-6522-4e8e-aa27-fbcfd6a36bb1","ios":"levelo://app?vid=8f4db126-6522-4e8e-aa27-fbcfd6a36bb1"},"vehicle_type_id":"4","last_reported":1761473387,"current_range_meters":22000,"station_id":"cpo3532slgdg3j2ikp40","pricing_plan_id":"cebpf4jnsgd1na2vs0mg"},{"bike_id":"6dd73f29-8539-483e-9169-8926b08154c0","system_id":"levelo_inurba_marseille","lat":43.32487,"lon":5.36565,"is_reserved":false,"is_disabled":false,"rental_uris":{"android":"levelo://app?vid=6dd73f29-8539-483e-9169-8926b08154c0","ios":"levelo://app?vid=6dd73f29-8539-483e-9169-8926b08154c0"},"vehicle_type_id":"4","last_reported":1761473387,"current_range_meters":22000,"station_id":"ce4bhs12rcd13ifvqhvg","pricing_plan_id":"cebpf4jnsgd1na2vs0mg"},{"bike_id":"86c6252e-6c43-4501-8178-919d7c439812","system_id":"levelo_inurba_marseille","lat":43.24387,"lon":5.37066,"is_reserved":false,"is_disabled":false,"rental_uris":{"android":"levelo://app?vid=86c6252e-6c43-4501-8178-919d7c439812","ios":"levelo://app?vid=86c6252e-6c43-4501-8178-919d7c439812"},"vehicle_type_id":"4","last_reported":1761473387,"current_range_meters":22000,"station_id":"ce4bhhh2rcd13ifvqfk0","pricing_plan_id":"cebpf4jnsgd1na2vs0mg"},{"bike_id":"99f954c5-9fe4-44f0-9935-cc2acafeb896","system_id":"levelo_inurba_marseille","lat":43.237837,"lon":5.366285,"is_reserved":false,"is_disabled":false,"rental_uris":{"android":"levelo://app?vid=99f954c5-9fe4-44f0-9935-cc2acafeb896","ios":"levelo://app?vid=99f954c5-9fe4-44f0-9935-cc2acafeb896"},"vehicle_type_id":"4","last_reported":1761473387,"current_range_meters":22000,"station_id":"st_d3nk18o9ro0c73en2l3g","pricing_plan_id":"cebpf4jnsgd1na2vs0mg"},{"bike_id":"4a003757-c8b1-4411-bc6b-5cac33b2bc07","system_id":"levelo_inurba_marseille","lat":43.31758,"lon":5.3901,"is_reserved":false,"is_disabled":false,"rental_uris":{"android":"levelo://app?vid=4a003757-c8b1-4411-bc6b-5cac33b2bc07","ios":"levelo://app?vid=4a003757-c8b1-4411-bc6b-5cac33b2bc07"},"vehicle_type_id":"4","last_reported":1761473387,"current_range_meters":22000,"station_id":"ce4bhqp2rcd13ifvqhng","pricing_plan_id":"cebpf4jnsgd1na2vs0mg"},{"bike_id":"b934001f-c922-472e-9b88-81fa6ba6a01a","system_id":"levelo_inurba_marseille","lat":43.21194,"lon":5.350742,"is_reserved":false,"is_disabled":false,"rental_uris":{"android":"levelo://app?vid=b934001f-c922-472e-9b88-81fa6ba6a01a","ios":"levelo://app?vid=b934001f-c922-472e-9b88-81fa6ba6a01a"},"vehicle_type_id":"4","last_reported":1761473387,"current_range_meters":22000,"station_id":"","pricing_plan_id":"cebpf4jnsgd1na2vs0mg"},{"bike_id":"9a70f1e3-7744-4ecd-aa01-ed1fdd1dfc13","system_id":"levelo_inurba_marseille","lat":43.27198,"lon":5.39172,"is_reserved":false,"is_disabled":false,"rental_uris":{"android":"levelo://app?vid=9a70f1e3-7744-4ecd-aa01-ed1fdd1dfc13","ios":"levelo://app?vid=9a70f1e3-7744-4ecd-aa01-ed1fdd1dfc13"},"vehicle_type_id":"4","last_reported":1761473387,"current_range_meters":22400,"station_id":"ce4bhhp2rcd13ifvqfm0","pricing_plan_id":"cebpf4jnsgd1na2vs0mg"},{"bike_id":"214a00bf-30f7-4da5-a289-23aaeaf2fec6","system_id":"levelo_inurba_marseille","lat":43.26559,"lon":5.4033,"is_reserved":false,"is_disabled":false,"rental_uris":{"android":"levelo://app?vid=214a00bf-30f7-4da5-a289-23aaeaf2fec6","ios":"levelo://app?vid=214a00bf-30f7-4da5-a289-23aaeaf2fec6"},"vehicle_type_id":"4","last_reported":1761473387,"current_range_meters":22400,"station_id":"ce4bhmp2rcd13ifvqgng","pricing_plan_id":"cebpf4jnsgd1na2vs0mg"},{"bike_id":"4e72bc04-97d3-4b89-a5e1-8e868b917687","system_id":"levelo_inurba_marseille","lat":43.25004,"lon":5.38934,"is_reserved":false,"is_disabled":false,"rental_uris":{"android":"levelo://app?vid=4e72bc04-97d3-4b89-a5e1-8e868b917687","ios":"levelo://app?vid=4e72bc04-97d3-4b89-a5e1-8e868b917687"},"vehicle_type_id":"4","last_reported":1761473387,"current_range_meters":22400,"station_id":"ce4bhgp2rcd13ifvqfd0","pricing_plan_id":"cebpf4jnsgd1na2vs0mg"},{"bike_id":"dd7b0297-ca44-414f-93db-d1e964f07016","system_id":"levelo_inurba_marseille","lat":43.30534,"lon":5.36547,"is_reserved":false,"is_disabled":false,"rental_uris":{"android":"levelo://app?vid=dd7b0297-ca44-414f-93db-d1e964f07016","ios":"levelo://app?vid=dd7b0297-ca44-414f-93db-d1e964f07016"},"vehicle_type_id":"4","last_reported":1761473387,"current_range_meters":22400,"station_id":"ce4bgs12rcd13ifvqcag","pricing_plan_id":"cebpf4jnsgd1na2vs0mg"},{"bike_id":"b5776598-3fe1-4bb8-9115-dc33c053afbd","system_id":"levelo_inurba_marseille","lat":43.29187,"lon":5.35795,"is_reserved":false,"is_disabled":true,"rental_uris":{"android":"levelo://app?vid=b5776598-3fe1-4bb8-9115-dc33c053afbd","ios":"levelo://app?vid=b5776598-3fe1-4bb8-9115-dc33c053afbd"},"vehicle_type_id":"4","last_reported":1761473387,"current_range_meters":22400,"station_id":"ce4bhb12rcd13ifvqel0","pricing_plan_id":"cebpf4jnsgd1na2vs0mg"},{"bike_id":"b595fc88-b590-4bf5-bad0-bdc74ac181ea","system_id":"levelo_inurba_marseille","lat":43.23057,"lon":5.35492,"is_reserved":false,"is_disabled":false,"rental_uris":{"android":"levelo://app?vid=b595fc88-b590-4bf5-bad0-bdc74ac181ea","ios":"levelo://app?vid=b595fc88-b590-4bf5-bad0-bdc74ac181ea"},"vehicle_type_id":"4","last_reported":1761473387,"current_range_meters":22400,"station_id":"cpo3342slgdg3j2ifvpg","pricing_plan_id":"cebpf4jnsgd1na2vs0mg"},{"bike_id":"3bf4bf69-e6ad-4b25-af40-141c302f6dc8","system_id":"levelo_inurba_marseille","lat":43.33367,"lon":5.40184,"is_reserved":false,"is_disabled":false,"rental_uris":{"android":"levelo://app?vid=3bf4bf69-e6ad-4b25-af40-141c302f6dc8","ios":"levelo://app?vid=3bf4bf69-e6ad-4b25-af40-141c302f6dc8"},"vehicle_type_id":"4","last_reported":1761473387,"current_range_meters":22400,"station_id":"","pricing_plan_id":"cebpf4jnsgd1na2vs0mg"},{"bike_id":"81c6665c-5b32-40a4-80ee-d50f65e9865f","system_id":"levelo_inurba_marseille","lat":43.24683,"lon":5.38169,"is_reserved":false,"is_disabled":false,"rental_uris":{"android":"levelo://app?vid=81c6665c-5b32-40a4-80ee-d50f65e9865f","ios":"levelo://app?vid=81c6665c-5b32-40a4-80ee-d50f65e9865f"},"vehicle_type_id":"4","last_reported":1761473387,"current_range_meters":22800,"station_id":"ce4bhih2rcd13ifvqfr0","pricing_plan_id":"cebpf4jnsgd1na2vs0mg"},{"bike_id":"8285442c-bfaf-45a4-afbb-17527c86ab1c","system_id":"levelo_inurba_marseille","lat":43.25883,"lon":5.39888,"is_reserved":false,"is_disabled":false,"rental_uris":{"android":"levelo://app?vid=8285442c-bfaf-45a4-afbb-17527c86ab1c","ios":"levelo://app?vid=8285442c-bfaf-45a4-afbb-17527c86ab1c"},"vehicle_type_id":"4","last_reported":1761473387,"current_range_meters":22800,"station_id":"","pricing_plan_id":"cebpf4jnsgd1na2vs0mg"},{"bike_id":"2484d73d-0ed9-4aeb-b08e-8d8cbd56d7f7","system_id":"levelo_inurba_marseille","lat":43.312379,"lon":5.368484,"is_reserved":false,"is_disabled":false,"rental_uris":{"android":"levelo://app?vid=2484d73d-0ed9-4aeb-b08e-8d8cbd56d7f7","ios":"levelo://app?vid=2484d73d-0ed9-4aeb-b08e-8d8cbd56d7f7"},"vehicle_type_id":"4","last_reported":1761473387,"current_range_meters":23200,"station_id":"ce4bgr92rcd13ifvqc6g","pricing_plan_id":"cebpf4jnsgd1na2vs0mg"},{"bike_id":"656fa129-a3bf-4839-bc24-f39696cf02ae","system_id":"levelo_inurba_marseille","lat":43.2257,"lon":5.41627,"is_reserved":false,"is_disabled":false,"rental_uris":{"android":"levelo://app?vid=656fa129-a3bf-4839-bc24-f39696cf02ae","ios":"levelo://app?vid=656fa129-a3bf-4839-bc24-f39696cf02ae"},"vehicle_type_id":"4","last_reported":1761473387,"current_range_meters":23200,"station_id":"st_d2o4gvlbi1j2169b742g","pricing_plan_id":"cebpf4jnsgd1na2vs0mg"},{"bike_id":"4a920440-c492-4bc6-bd26-99ad53c6a016","system_id":"levelo_inurba_marseille","lat":43.21756,"lon":5.34604,"is_reserved":false,"is_disabled":false,"rental_uris":{"android":"levelo://app?vid=4a920440-c492-4bc6-bd26-99ad53c6a016","ios":"levelo://app?vid=4a920440-c492-4bc6-bd26-99ad53c6a016"},"vehicle_type_id":"4","last_reported":1761473387,"current_range_meters":23200,"station_id":"","pricing_plan_id":"cebpf4jnsgd1na2vs0mg"},{"bike_id":"bfda0b12-09a7-499b-ba15-515c5cf87a8c","system_id":"levelo_inurba_marseille","lat":43.25501,"lon":5.37656,"is_reserved":false,"is_disabled":false,"rental_uris":{"android":"levelo://app?vid=bfda0b12-09a7-499b-ba15-515c5cf87a8c","ios":"levelo://app?vid=bfda0b12-09a7-499b-ba15-515c5cf87a8c"},"vehicle_type_id":"4","last_reported":1761473387,"current_range_meters":23200,"station_id":"ce4bhh12rcd13ifvqff0","pricing_plan_id":"cebpf4jnsgd1na2vs0mg"},{"bike_id":"84276e7e-3251-4c96-8ceb-bc9a6629a371","system_id":"levelo_inurba_marseille","lat":43.23962,"lon":5.3663,"is_reserved":false,"is_disabled":false,"rental_uris":{"android":"levelo://app?vid=84276e7e-3251-4c96-8ceb-bc9a6629a371","ios":"levelo://app?vid=84276e7e-3251-4c96-8ceb-bc9a6629a371"},"vehicle_type_id":"4","last_reported":1761473387,"current_range_meters":23200,"station_id":"ce4bhi12rcd13ifvqfp0","pricing_plan_id":"cebpf4jnsgd1na2vs0mg"},